{"data": {"bikes": [{"is_disabled": 0, "is_reserved": 0, "fusion_lat": 0.0, "lat": 38.884080833333336, "fusion_lon": 0.0, "rental_uris": {"ios": "https://dc.lft.to/lastmile_qr_scan", "android": "https://dc.lft.to/lastmile_qr_scan"}, "lon": -77.0300865, "bike_id": "e3c15f72ccb58efecd37b65d421c490a", "type": "electric_scooter", "name": "e3c15f72ccb58efecd37b65d421c490a"}, {"is_disabled": 0, "is_reserved": 0, "fusion_lat": 0.0, "lat": 38.87174616666667, "fusion_lon": 0.0, "rental_uris": {"ios": "https://dc.lft.to/lastmile_qr_scan", "android": "https://dc.lft.to/lastmile_qr_scan"}, "lon": -77.12465516666667, "bike_id": "b314fdf51d71510be4504915f4322f4a", "type": "electric_bike", "name": "b314fdf51d71510be4504915f4322f4a"}, {"is_disabled": 0, "is_reserved": 0, "fusion_lat": 0.0, "lat": 38.9290805, "fusion_lon": 0.0, "rental_uris": {"ios": "https://dc.lft.to/lastmile_qr_scan", "android": "https://dc.lft.to/lastmile_qr_scan"}, "lon": -77.05982366666667, "bike_id": "392f0c3e9750fe6a094bc454b1248a05", "type": "electric_scooter", "name": "392f0c3e9750fe6a094bc454b1248a05"}, {"is_disabled": 0, "is_reserved": 0, "fusion_lat": 0.0, "lat": 38.923357833333334, "fusion_lon": 0.0, "rental_uris": {"ios": "https://dc.lft.to/lastmile_qr_scan", "android": "https://dc.lft.to/lastmile_qr_scan"}, "lon": -77.03527383333333, "bike_id": "6ae51be0029bf086a7c7a566f6221c96", "type": "electric_scooter", "name": "6ae51be0029bf086a7c7a566f6221c96"}, {"is_disabled": 0, "is_reserved": 0, "fusion_lat": 0.0, "lat": 38.90609, "fusion_lon": 0.0, "rental_uris": {"ios": "https://dc.lft.to/lastmile_qr_scan", "android": "https://dc.lft.to/lastmile_qr_scan"}, "lon": -77.0239525, "bike_id": "5649f5ead4dde6dfde89e16a260593ba", "type": "electric_scooter", "name": "5649f5ead4dde6dfde89e16a260593ba"}, {"is_disabled": 0, "is_reserved": 0, "fusion_lat": 0.0, "lat": 38.91715816666667, "fusion_lon": 0.0, "rental_uris": {"ios": "https://dc.lft.to/lastmile_qr_scan", "android": "https://dc.lft.to/lastmile_qr_scan"}, "lon": -77.038536, "bike_id": "e4c0fd7c65770c5b37079bad4f525c6e", "type": "electric_scooter", "name": "e4c0fd7c65770c5b37079bad4f525c6e"}, {"is_disabled": 0, "is_reserved": 0, "fusion_lat": 0.0, "lat": 38.89443083333333, "fusion_lon": 0.0, "rental_uris": {"ios": "https://dc.lft.to/lastmile_qr_scan", "android": "https://dc.lft.to/lastmile_qr_scan"}, "lon": -77.022057, "bike_id": "41b50ee7135038af5f027c57d5a6f432", "type": "electric_scooter", "name": "41b50ee7135038af5f027c57d5a6f432"}, {"is_disabled": 0, "is_reserved": 0, "fusion_lat": 0.0, "lat": 38.974791833333335, "fusion_lon": 0.0, "rental_uris": {"ios": "https://dc.lft.to/lastmile_qr_scan", "android": "https://dc.lft.to/lastmile_qr_scan"}, "lon": -76.9866865, "bike_id": "30ffca909da2539ba70f6b74f0c730d8", "type": "electric_bike", "name": "30ffca909da2539ba70f6b74f0c730d8"}, {"is_disabled": 0, "is_reserved": 0, "fusion_lat": 0.0, "lat": 38.917166, "fusion_lon": 0.0, "rental_uris": {"ios": "https://dc.lft.to/lastmile_qr_scan", "android": "https://dc.lft.to/lastmile_qr_scan"}, "lon": -77.0417665, "bike_id": "549707afd5c701c282fed08c8bfe905a", "type": "electric_scooter", "name": "549707afd5c701c282fed08c8bfe905a"}, {"is_disabled": 0, "is_reserved": 0, "fusion_lat": 0.0, "lat": 38.846262, "fusion_lon": 0.0, "rental_uris": {"ios": "https://dc.lft.to/lastmile_qr_scan", "android": "https://dc.lft.to/lastmile_qr_scan"}, "lon": -76.9690495, "bike_id": "f436bd0071805fbcfebcca7181831fc2", "type": "electric_bike", "name": "f436bd0071805fbcfebcca7181831fc2"}, {"is_disabled": 0, "is_reserved": 0, "fusion_lat": 0.0, "lat": 38.901947, "fusion_lon": 0.0, "rental_uris": {"ios": "https://dc.lft.to/lastmile_qr_scan", "android": "https://dc.lft.to/lastmile_qr_scan"}, "lon": -77.0217505, "bike_id": "ce80925d98be6620c88e3d8f86ede0e7", "type": "electric_scooter", "name": "ce80925d98be6620c88e3d8f86ede0e7"}, {"is_disabled": 0, "is_reserved": 0, "fusion_lat": 0.0, "lat": 38.887158666666664, "fusion_lon": 0.0, "rental_uris": {"ios": "https://dc.lft.to/lastmile_qr_scan", "android": "https://dc.lft.to/lastmile_qr_scan"}, "lon": -76.9961275, "bike_id": "1ce3f2501e8f7c8660c7e93afc09862d", "type": "electric_scooter", "name": "1ce3f2501e8f7c8660c7e93afc09862d"}, {"is_disabled": 0, "is_reserved": 0, "fusion_lat": 0.0, "lat": 38.8973725, "fusion_lon": 0.0, "rental_uris": {"ios": "https://dc.lft.to/lastmile_qr_scan", "android": "https://dc.lft.to/lastmile_qr_scan"}, "lon": -77.02172066666667, "bike_id": "1efbd43971965b3b36a055805313c967", "type": "electric_scooter", "name": "1efbd43971965b3b36a055805313c967"}, {"is_disabled": 0, "is_reserved": 0, "fusion_lat": 0.0, "lat": 38.92109, "fusion_lon": 0.0, "rental_uris": {"ios": "https://dc.lft.to/lastmile_qr_scan", "android": "https://dc.lft.to/lastmile_qr_scan"}, "lon": -77.03164716666667, "bike_id": "1a4f8a12dd6cdec1bbbd84bc24ebcefe", "type": "electric_bike", "name": "1a4f8a12dd6cdec1bbbd84bc24ebcefe"}, {"is_disabled": 0, "is_reserved": 0, "fusion_lat": 0.0, "lat": 39.02296366666667, "fusion_lon": 0.0, "rental_uris": {"ios": "https://dc.lft.to/lastmile_qr_scan", "android": "https://dc.lft.to/lastmile_qr_scan"}, "lon": -77.02106283333333, "bike_id": "ae3449eb886b1a5033c6d499fbc73c57", "type": "electric_bike", "name": "ae3449eb886b1a5033c6d499fbc73c57"}, {"is_disabled": 0, "is_reserved": 0, "fusion_lat": 0.0, "lat": 38.8349, "fusion_lon": 0.0, "rental_uris": {"ios": "https://dc.lft.to/lastmile_qr_scan", "android": "https://dc.lft.to/lastmile_qr_scan"}, "lon": -77.00438466666667, "bike_id": "67dec0444e5acf1a35a2b88eadff5136", "type": "electric_bike", "name": "67dec0444e5acf1a35a2b88eadff5136"}, {"is_disabled": 0, "is_reserved": 0, "fusion_lat": 0.0, "lat": 38.90970383333333, "fusion_lon": 0.0, "rental_uris": {"ios": "https://dc.lft.to/lastmile_qr_scan", "android": "https://dc.lft.to/lastmile_qr_scan"}, "lon": -77.03226116666667, "bike_id": "c266a907e3f46aab0c098d2c44b80a80", "type": "electric_scooter", "name": "c266a907e3f46aab0c098d2c44b80a80"}, {"is_disabled": 0, "is_reserved": 0, "fusion_lat": 0.0, "lat": 39.003795833333335, "fusion_lon": 0.0, "rental_uris": {"ios": "https://dc.lft.to/lastmile_qr_scan", "android": "https://dc.lft.to/lastmile_qr_scan"}, "lon": -77.0129345, "bike_id": "a794257284a2740ec01f483f1d570ff5", "type": "electric_bike", "name": "a794257284a2740ec01f483f1d570ff5"}, {"is_disabled": 0, "is_reserved": 0, "fusion_lat": 0.0, "lat": 38.93973716666667, "fusion_lon": 0.0, "rental_uris": {"ios": "https://dc.lft.to/lastmile_qr_scan", "android": "https://dc.lft.to/lastmile_qr_scan"}, "lon": -77.03432966666666, "bike_id": "83c085901201bdc04adade4bb74cb357", "type": "electric_scooter", "name": "83c085901201bdc04adade4bb74cb357"}, {"is_disabled": 0, "is_reserved": 0, "fusion_lat": 0.0, "lat": 38.912711, "fusion_lon": 0.0, "rental_uris": {"ios": "https://dc.lft.to/lastmile_qr_scan", "android": "https://dc.lft.to/lastmile_qr_scan"}, "lon": -77.02259216666667, "bike_id": "47b831ea878819d875d352a51a010d39", "type": "electric_scooter", "name": "47b831ea878819d875d352a51a010d39"}, {"is_disabled": 0, "is_reserved": 0, "fusion_lat": 0.0, "lat": 38.953627833333336, "fusion_lon": 0.0, "rental_uris": {"ios": "https://dc.lft.to/lastmile_qr_scan", "android": "https://dc.lft.to/lastmile_qr_scan"}, "lon": -76.94295666666666, "bike_id": "41f98f916ab93b5665de7a44e6e04e76", "type": "electric_bike", "name": "41f98f916ab93b5665de7a44e6e04e76"}, {"is_disabled": 0, "is_reserved": 0, "fusion_lat": 0.0, "lat": 38.9292895, "fusion_lon": 0.0, "rental_uris": {"ios": "https://dc.lft.to/lastmile_qr_scan", "android": "https://dc.lft.to/lastmile_qr_scan"}, "lon": -77.03260166666666, "bike_id": "da74bf6e8c9fa53761439f9043120c69", "type": "electric_bike", "name": "da74bf6e8c9fa53761439f9043120c69"}, {"is_disabled": 0, "is_reserved": 0, "fusion_lat": 0.0, "lat": 38.928408833333336, "fusion_lon": 0.0, "rental_uris": {"ios": "https://dc.lft.to/lastmile_qr_scan", "android": "https://dc.lft.to/lastmile_qr_scan"}, "lon": -77.03262083333334, "bike_id": "93b9180ed2f009f713fcc798cc4d01b8", "type": "electric_scooter", "name": "93b9180ed2f009f713fcc798cc4d01b8"}, {"is_disabled": 0, "is_reserved": 0, "fusion_lat": 0.0, "lat": 38.89231183333333, "fusion_lon": 0.0, "rental_uris": {"ios": "https://dc.lft.to/lastmile_qr_scan", "android": "https://dc.lft.to/lastmile_qr_scan"}, "lon": -77.05005933333334, "bike_id": "112b4d55ab6509ca1da87ad6e9138b65", "type": "electric_scooter", "name": "112b4d55ab6509ca1da87ad6e9138b65"}, {"is_disabled": 0, "is_reserved": 0, "fusion_lat": 0.0, "lat": 38.930780666666664, "fusion_lon": 0.0, "rental_uris": {"ios": "https://dc.lft.to/lastmile_qr_scan", "android": "https://dc.lft.to/lastmile_qr_scan"}, "lon": -77.07765433333333, "bike_id": "e4a8a7c5b3f8424331c589d70609108f", "type": "electric_scooter", "name": "e4a8a7c5b3f8424331c589d70609108f"}, {"is_disabled": 0, "is_reserved": 0, "fusion_lat": 0.0, "lat": 38.91010133333333, "fusion_lon": 0.0, "rental_uris": {"ios": "https://dc.lft.to/lastmile_qr_scan", "android": "https://dc.lft.to/lastmile_qr_scan"}, "lon": -77.04426833333333, "bike_id": "9dc1e7625e4ba129f800a4c218f85b35", "type": "electric_scooter", "name": "9dc1e7625e4ba129f800a4c218f85b35"}, {"is_disabled": 0, "is_reserved": 0, "fusion_lat": 0.0, "lat": 38.925757833333336, "fusion_lon": 0.0, "rental_uris": {"ios": "https://dc.lft.to/lastmile_qr_scan", "android": "https://dc.lft.to/lastmile_qr_scan"}, "lon": -76.9949345, "bike_id": "1f9bec9a4f45074fb5ad7cfa3e800848", "type": "electric_scooter", "name": "1f9bec9a4f45074fb5ad7cfa3e800848"}, {"is_disabled": 0, "is_reserved": 0, "fusion_lat": 0.0, "lat": 38.90783666666667, "fusion_lon": 0.0, "rental_uris": {"ios": "https://dc.lft.to/lastmile_qr_scan", "android": "https://dc.lft.to/lastmile_qr_scan"}, "lon": -77.02393016666667, "bike_id": "c93ebfbc3348acf280f338a74700c69c", "type": "electric_scooter", "name": "c93ebfbc3348acf280f338a74700c69c"}, {"is_disabled": 0, "is_reserved": 0, "fusion_lat": 0.0, "lat": 38.910568, "fusion_lon": 0.0, "rental_uris": {"ios": "https://dc.lft.to/lastmile_qr_scan", "android": "https://dc.lft.to/lastmile_qr_scan"}, "lon": -77.02185433333334, "bike_id": "0448e51a62e8f9331a9acbbabdb580b8", "type": "electric_scooter", "name": "0448e51a62e8f9331a9acbbabdb580b8"}, {"is_disabled": 0, "is_reserved": 0, "fusion_lat": 0.0, "lat": 38.87081883333333, "fusion_lon": 0.0, "rental_uris": {"ios": "https://dc.lft.to/lastmile_qr_scan", "android": "https://dc.lft.to/lastmile_qr_scan"}, "lon": -77.1333115, "bike_id": "cbba269da0f8bfdaf454faf5797a02aa", "type": "electric_bike", "name": "cbba269da0f8bfdaf454faf5797a02aa"}, {"is_disabled": 0, "is_reserved": 0, "fusion_lat": 0.0, "lat": 38.90550233333333, "fusion_lon": 0.0, "rental_uris": {"ios": "https://dc.lft.to/lastmile_qr_scan", "android": "https://dc.lft.to/lastmile_qr_scan"}, "lon": -77.02194366666667, "bike_id": "7ce2de3d9fe42a69ed8a8f55281327aa", "type": "electric_scooter", "name": "7ce2de3d9fe42a69ed8a8f55281327aa"}, {"is_disabled": 0, "is_reserved": 0, "fusion_lat": 0.0, "lat": 38.89886833333333, "fusion_lon": 0.0, "rental_uris": {"ios": "https://dc.lft.to/lastmile_qr_scan", "android": "https://dc.lft.to/lastmile_qr_scan"}, "lon": -77.01989516666667, "bike_id": "778eae22c1f514d771634f2f5dade58e", "type": "electric_scooter", "name": "778eae22c1f514d771634f2f5dade58e"}, {"is_disabled": 0, "is_reserved": 0, "fusion_lat": 0.0, "lat": 38.900198333333336, "fusion_lon": 0.0, "rental_uris": {"ios": "https://dc.lft.to/lastmile_qr_scan", "android": "https://dc.lft.to/lastmile_qr_scan"}, "lon": -77.017645, "bike_id": "de0071ed402496d3128ff7da44722400", "type": "electric_scooter", "name": "de0071ed402496d3128ff7da44722400"}, {"is_disabled": 0, "is_reserved": 0, "fusion_lat": 0.0, "lat": 38.880230166666664, "fusion_lon": 0.0, "rental_uris": {"ios": "https://dc.lft.to/lastmile_qr_scan", "android": "https://dc.lft.to/lastmile_qr_scan"}, "lon": -76.94325016666667, "bike_id": "bb2590b845b5f415380686000303013c", "type": "electric_scooter", "name": "bb2590b845b5f415380686000303013c"}, {"is_disabled": 0, "is_reserved": 0, "fusion_lat": 0.0, "lat": 38.9148465, "fusion_lon": 0.0, "rental_uris": {"ios": "https://dc.lft.to/lastmile_qr_scan", "android": "https://dc.lft.to/lastmile_qr_scan"}, "lon": -77.02209666666667, "bike_id": "e40bc9ef3651eaf3ae4e006ce3e794a4", "type": "electric_scooter", "name": "e40bc9ef3651eaf3ae4e006ce3e794a4"}, {"is_disabled": 0, "is_reserved": 0, "fusion_lat": 0.0, "lat": 38.846210166666665, "fusion_lon": 0.0, "rental_uris": {"ios": "https://dc.lft.to/lastmile_qr_scan", "android": "https://dc.lft.to/lastmile_qr_scan"}, "lon": -76.97838416666667, "bike_id": "f37258d653bfa0042580737a14c4869a", "type": "electric_bike", "name": "f37258d653bfa0042580737a14c4869a"}, {"is_disabled": 0, "is_reserved": 0, "fusion_lat": 0.0, "lat": 38.90949416666667, "fusion_lon": 0.0, "rental_uris": {"ios": "https://dc.lft.to/lastmile_qr_scan", "android": "https://dc.lft.to/lastmile_qr_scan"}, "lon": -77.03240716666667, "bike_id": "e3f1f86eaa7fc0fc449d5020d6e67b4b", "type": "electric_scooter", "name": "e3f1f86eaa7fc0fc449d5020d6e67b4b"}, {"is_disabled": 0, "is_reserved": 0, "fusion_lat": 0.0, "lat": 38.887127166666666, "fusion_lon": 0.0, "rental_uris": {"ios": "https://dc.lft.to/lastmile_qr_scan", "android": "https://dc.lft.to/lastmile_qr_scan"}, "lon": -76.98341616666667, "bike_id": "8ab5f6f7eca62d899a4673159d5630aa", "type": "electric_scooter", "name": "8ab5f6f7eca62d899a4673159d5630aa"}, {"is_disabled": 0, "is_reserved": 0, "fusion_lat": 0.0, "lat": 38.8464735, "fusion_lon": 0.0, "rental_uris": {"ios": "https://dc.lft.to/lastmile_qr_scan", "android": "https://dc.lft.to/lastmile_qr_scan"}, "lon": -77.00366833333334, "bike_id": "7ed769b054c5427df859bac43739da00", "type": "electric_scooter", "name": "7ed769b054c5427df859bac43739da00"}, {"is_disabled": 0, "is_reserved": 0, "fusion_lat": 0.0, "lat": 38.91775166666667, "fusion_lon": 0.0, "rental_uris": {"ios": "https://dc.lft.to/lastmile_qr_scan", "android": "https://dc.lft.to/lastmile_qr_scan"}, "lon": -77.02716716666667, "bike_id": "8713bfddb2c94966866fb4193dd619ea", "type": "electric_scooter", "name": "8713bfddb2c94966866fb4193dd619ea"}, {"is_disabled": 0, "is_reserved": 0, "fusion_lat": 0.0, "lat": 38.9065915, "fusion_lon": 0.0, "rental_uris": {"ios": "https://dc.lft.to/lastmile_qr_scan", "android": "https://dc.lft.to/lastmile_qr_scan"}, "lon": -77.04548133333333, "bike_id": "279916aeb88e1e677f5e751b0270e6cb", "type": "electric_scooter", "name": "279916aeb88e1e677f5e751b0270e6cb"}, {"is_disabled": 0, "is_reserved": 0, "fusion_lat": 0.0, "lat": 38.9104715, "fusion_lon": 0.0, "rental_uris": {"ios": "https://dc.lft.to/lastmile_qr_scan", "android": "https://dc.lft.to/lastmile_qr_scan"}, "lon": -77.01512183333334, "bike_id": "295f8e4bc15dffcbe2dca3e188cf4a36", "type": "electric_scooter", "name": "295f8e4bc15dffcbe2dca3e188cf4a36"}, {"is_disabled": 0, "is_reserved": 0, "fusion_lat": 0.0, "lat": 38.94590266666667, "fusion_lon": 0.0, "rental_uris": {"ios": "https://dc.lft.to/lastmile_qr_scan", "android": "https://dc.lft.to/lastmile_qr_scan"}, "lon": -77.02033666666667, "bike_id": "08f4a4e9a8c2d1c43a066a8fa4c7b4a1", "type": "electric_scooter", "name": "08f4a4e9a8c2d1c43a066a8fa4c7b4a1"}, {"is_disabled": 0, "is_reserved": 0, "fusion_lat": 0.0, "lat": 38.9463485, "fusion_lon": 0.0, "rental_uris": {"ios": "https://dc.lft.to/lastmile_qr_scan", "android": "https://dc.lft.to/lastmile_qr_scan"}, "lon": -77.01841483333334, "bike_id": "4776948ece06f46b9e721b04c0ad46ef", "type": "electric_scooter", "name": "4776948ece06f46b9e721b04c0ad46ef"}, {"is_disabled": 0, "is_reserved": 0, "fusion_lat": 0.0, "lat": 38.89350983333333, "fusion_lon": 0.0, "rental_uris": {"ios": "https://dc.lft.to/lastmile_qr_scan", "android": "https://dc.lft.to/lastmile_qr_scan"}, "lon": -77.03965433333333, "bike_id": "0085dd0f5da18b9988ab71aee0dc0e05", "type": "electric_scooter", "name": "0085dd0f5da18b9988ab71aee0dc0e05"}, {"is_disabled": 0, "is_reserved": 0, "fusion_lat": 0.0, "lat": 38.906908333333334, "fusion_lon": 0.0, "rental_uris": {"ios": "https://dc.lft.to/lastmile_qr_scan", "android": "https://dc.lft.to/lastmile_qr_scan"}, "lon": -77.06302683333334, "bike_id": "b9d2a5a8cc1522041ef4eeab53ac88e8", "type": "electric_scooter", "name": "b9d2a5a8cc1522041ef4eeab53ac88e8"}, {"is_disabled": 0, "is_reserved": 0, "fusion_lat": 0.0, "lat": 38.923851666666664, "fusion_lon": 0.0, "rental_uris": {"ios": "https://dc.lft.to/lastmile_qr_scan", "android": "https://dc.lft.to/lastmile_qr_scan"}, "lon": -77.04016316666667, "bike_id": "dd8722617314e01adde9064a872eebf0", "type": "electric_scooter", "name": "dd8722617314e01adde9064a872eebf0"}, {"is_disabled": 0, "is_reserved": 0, "fusion_lat": 0.0, "lat": 38.91039816666667, "fusion_lon": 0.0, "rental_uris": {"ios": "https://dc.lft.to/lastmile_qr_scan", "android": "https://dc.lft.to/lastmile_qr_scan"}, "lon": -77.03710533333333, "bike_id": "a93d8ab5ea48589586defded50c2b4ff", "type": "electric_scooter", "name": "a93d8ab5ea48589586defded50c2b4ff"}, {"is_disabled": 0, "is_reserved": 0, "fusion_lat": 0.0, "lat": 38.8068535, "fusion_lon": 0.0, "rental_uris": {"ios": "https://dc.lft.to/lastmile_qr_scan", "android": "https://dc.lft.to/lastmile_qr_scan"}, "lon": -77.069173, "bike_id": "d9602a5dfe0362bff12e0c5179afea4f", "type": "electric_bike", "name": "d9602a5dfe0362bff12e0c5179afea4f"}, {"is_disabled": 0, "is_reserved": 0, "fusion_lat": 0.0, "lat": 38.885822, "fusion_lon": 0.0, "rental_uris": {"ios": "https://dc.lft.to/lastmile_qr_scan", "android": "https://dc.lft.to/lastmile_qr_scan"}, "lon": -77.02001083333333, "bike_id": "c8922d626309862778a069276568374a", "type": "electric_scooter", "name": "c8922d626309862778a069276568374a"}, {"is_disabled": 0, "is_reserved": 0, "fusion_lat": 0.0, "lat": 38.83605716666667, "fusion_lon": 0.0, "rental_uris": {"ios": "https://dc.lft.to/lastmile_qr_scan", "android": "https://dc.lft.to/lastmile_qr_scan"}, "lon": -77.00381833333333, "bike_id": "03c25d2a11c97611d4f0ccec0d6a5810", "type": "electric_bike", "name": "03c25d2a11c97611d4f0ccec0d6a5810"}, {"is_disabled": 0, "is_reserved": 0, "fusion_lat": 0.0, "lat": 38.9342975, "fusion_lon": 0.0, "rental_uris": {"ios": "https://dc.lft.to/lastmile_qr_scan", "android": "https://dc.lft.to/lastmile_qr_scan"}, "lon": -77.04313283333333, "bike_id": "c4b986a2157a5a68e9fe82d9bb843bd5", "type": "electric_scooter", "name": "c4b986a2157a5a68e9fe82d9bb843bd5"}, {"is_disabled": 0, "is_reserved": 0, "fusion_lat": 0.0, "lat": 38.903539, "fusion_lon": 0.0, "rental_uris": {"ios": "https://dc.lft.to/lastmile_qr_scan", "android": "https://dc.lft.to/lastmile_qr_scan"}, "lon": -77.03084533333333, "bike_id": "ca86765f52e3965d760d176a6b5d941e", "type": "electric_scooter", "name": "ca86765f52e3965d760d176a6b5d941e"}, {"is_disabled": 0, "is_reserved": 0, "fusion_lat": 0.0, "lat": 38.90722783333333, "fusion_lon": 0.0, "rental_uris": {"ios": "https://dc.lft.to/lastmile_qr_scan", "android": "https://dc.lft.to/lastmile_qr_scan"}, "lon": -77.05309816666667, "bike_id": "78cf7a84bc994283a7c331f93bce68d0", "type": "electric_scooter", "name": "78cf7a84bc994283a7c331f93bce68d0"}, {"is_disabled": 0, "is_reserved": 0, "fusion_lat": 0.0, "lat": 38.926447, "fusion_lon": 0.0, "rental_uris": {"ios": "https://dc.lft.to/lastmile_qr_scan", "android": "https://dc.lft.to/lastmile_qr_scan"}, "lon": -77.03704916666666, "bike_id": "a1ca1ef21f6da731811d505cfe20ea05", "type": "electric_scooter", "name": "a1ca1ef21f6da731811d505cfe20ea05"}, {"is_disabled": 0, "is_reserved": 0, "fusion_lat": 0.0, "lat": 38.911178166666666, "fusion_lon": 0.0, "rental_uris": {"ios": "https://dc.lft.to/lastmile_qr_scan", "android": "https://dc.lft.to/lastmile_qr_scan"}, "lon": -77.04332116666667, "bike_id": "84754dfbbb239264088b3f8808405fb5", "type": "electric_scooter", "name": "84754dfbbb239264088b3f8808405fb5"}, {"is_disabled": 0, "is_reserved": 0, "fusion_lat": 0.0, "lat": 38.90184433333334, "fusion_lon": 0.0, "rental_uris": {"ios": "https://dc.lft.to/lastmile_qr_scan", "android": "https://dc.lft.to/lastmile_qr_scan"}, "lon": -77.0217475, "bike_id": "b4e6dce4f7ca8acf190a9c1cfd3ceb91", "type": "electric_scooter", "name": "b4e6dce4f7ca8acf190a9c1cfd3ceb91"}, {"is_disabled": 0, "is_reserved": 0, "fusion_lat": 0.0, "lat": 38.905497, "fusion_lon": 0.0, "rental_uris": {"ios": "https://dc.lft.to/lastmile_qr_scan", "android": "https://dc.lft.to/lastmile_qr_scan"}, "lon": -77.021967, "bike_id": "ae54feb77a033f95f7822a79bf63999c", "type": "electric_scooter", "name": "ae54feb77a033f95f7822a79bf63999c"}, {"is_disabled": 0, "is_reserved": 0, "fusion_lat": 0.0, "lat": 38.9125105, "fusion_lon": 0.0, "rental_uris": {"ios": "https://dc.lft.to/lastmile_qr_scan", "android": "https://dc.lft.to/lastmile_qr_scan"}, "lon": -77.02232716666667, "bike_id": "60c6fa4cc716dad5bfb83f721059b59d", "type": "electric_scooter", "name": "60c6fa4cc716dad5bfb83f721059b59d"}, {"is_disabled": 0, "is_reserved": 0, "fusion_lat": 0.0, "lat": 38.89385133333333, "fusion_lon": 0.0, "rental_uris": {"ios": "https://dc.lft.to/lastmile_qr_scan", "android": "https://dc.lft.to/lastmile_qr_scan"}, "lon": -76.9230685, "bike_id": "f68db6f6b9029f8d8091a1cf5722dfdd", "type": "electric_scooter", "name": "f68db6f6b9029f8d8091a1cf5722dfdd"}, {"is_disabled": 0, "is_reserved": 0, "fusion_lat": 0.0, "lat": 38.91554333333333, "fusion_lon": 0.0, "rental_uris": {"ios": "https://dc.lft.to/lastmile_qr_scan", "android": "https://dc.lft.to/lastmile_qr_scan"}, "lon": -77.05408266666667, "bike_id": "77d19f674fe4d52e4a48c98be90adc01", "type": "electric_scooter", "name": "77d19f674fe4d52e4a48c98be90adc01"}, {"is_disabled": 0, "is_reserved": 0, "fusion_lat": 0.0, "lat": 38.9272805, "fusion_lon": 0.0, "rental_uris": {"ios": "https://dc.lft.to/lastmile_qr_scan", "android": "https://dc.lft.to/lastmile_qr_scan"}, "lon": -77.02275483333334, "bike_id": "1aa11799cb2d23421bb73c65e2134b18", "type": "electric_scooter", "name": "1aa11799cb2d23421bb73c65e2134b18"}, {"is_disabled": 0, "is_reserved": 0, "fusion_lat": 0.0, "lat": 38.90957383333333, "fusion_lon": 0.0, "rental_uris": {"ios": "https://dc.lft.to/lastmile_qr_scan", "android": "https://dc.lft.to/lastmile_qr_scan"}, "lon": -77.03426466666667, "bike_id": "f0d91c02c915d96512410585d11cb644", "type": "electric_scooter", "name": "f0d91c02c915d96512410585d11cb644"}, {"is_disabled": 0, "is_reserved": 0, "fusion_lat": 0.0, "lat": 38.8862275, "fusion_lon": 0.0, "rental_uris": {"ios": "https://dc.lft.to/lastmile_qr_scan", "android": "https://dc.lft.to/lastmile_qr_scan"}, "lon": -76.99506116666667, "bike_id": "bd6342e693a25f787c574b922d403aef", "type": "electric_scooter", "name": "bd6342e693a25f787c574b922d403aef"}, {"is_disabled": 0, "is_reserved": 0, "fusion_lat": 0.0, "lat": 38.91156733333333, "fusion_lon": 0.0, "rental_uris": {"ios": "https://dc.lft.to/lastmile_qr_scan", "android": "https://dc.lft.to/lastmile_qr_scan"}, "lon": -77.02377216666666, "bike_id": "9b6a088dd51cedd7b7d948d823c1b593", "type": "electric_scooter", "name": "9b6a088dd51cedd7b7d948d823c1b593"}, {"is_disabled": 0, "is_reserved": 0, "fusion_lat": 0.0, "lat": 38.912105, "fusion_lon": 0.0, "rental_uris": {"ios": "https://dc.lft.to/lastmile_qr_scan", "android": "https://dc.lft.to/lastmile_qr_scan"}, "lon": -77.02103566666666, "bike_id": "61ba5584e1fc3d9a6feda9b559c6496f", "type": "electric_scooter", "name": "61ba5584e1fc3d9a6feda9b559c6496f"}, {"is_disabled": 0, "is_reserved": 0, "fusion_lat": 0.0, "lat": 38.91815833333333, "fusion_lon": 0.0, "rental_uris": {"ios": "https://dc.lft.to/lastmile_qr_scan", "android": "https://dc.lft.to/lastmile_qr_scan"}, "lon": -77.02523133333334, "bike_id": "76f3a4f85633539528127a683ef83e65", "type": "electric_scooter", "name": "76f3a4f85633539528127a683ef83e65"}, {"is_disabled": 0, "is_reserved": 0, "fusion_lat": 0.0, "lat": 38.9307495, "fusion_lon": 0.0, "rental_uris": {"ios": "https://dc.lft.to/lastmile_qr_scan", "android": "https://dc.lft.to/lastmile_qr_scan"}, "lon": -77.03222383333333, "bike_id": "62f2ee55112f4e4b6009a196c3497077", "type": "electric_scooter", "name": "62f2ee55112f4e4b6009a196c3497077"}, {"is_disabled": 0, "is_reserved": 0, "fusion_lat": 0.0, "lat": 38.92163083333333, "fusion_lon": 0.0, "rental_uris": {"ios": "https://dc.lft.to/lastmile_qr_scan", "android": "https://dc.lft.to/lastmile_qr_scan"}, "lon": -77.03668683333333, "bike_id": "ce76ba576eb272f90677696f4ef8f04e", "type": "electric_scooter", "name": "ce76ba576eb272f90677696f4ef8f04e"}, {"is_disabled": 0, "is_reserved": 0, "fusion_lat": 0.0, "lat": 38.91057966666666, "fusion_lon": 0.0, "rental_uris": {"ios": "https://dc.lft.to/lastmile_qr_scan", "android": "https://dc.lft.to/lastmile_qr_scan"}, "lon": -77.04414066666666, "bike_id": "23fc32340ae92a92427bc8d4f028ecbf", "type": "electric_scooter", "name": "23fc32340ae92a92427bc8d4f028ecbf"}, {"is_disabled": 0, "is_reserved": 0, "fusion_lat": 0.0, "lat": 38.929910166666666, "fusion_lon": 0.0, "rental_uris": {"ios": "https://dc.lft.to/lastmile_qr_scan", "android": "https://dc.lft.to/lastmile_qr_scan"}, "lon": -77.03472183333334, "bike_id": "31d89bfc726fc08917624885a29bd24f", "type": "electric_scooter", "name": "31d89bfc726fc08917624885a29bd24f"}, {"is_disabled": 0, "is_reserved": 0, "fusion_lat": 0.0, "lat": 38.92062883333333, "fusion_lon": 0.0, "rental_uris": {"ios": "https://dc.lft.to/lastmile_qr_scan", "android": "https://dc.lft.to/lastmile_qr_scan"}, "lon": -77.02938133333333, "bike_id": "857452af646f25bb904b51ed81f8d3fc", "type": "electric_scooter", "name": "857452af646f25bb904b51ed81f8d3fc"}, {"is_disabled": 0, "is_reserved": 0, "fusion_lat": 0.0, "lat": 38.89251983333333, "fusion_lon": 0.0, "rental_uris": {"ios": "https://dc.lft.to/lastmile_qr_scan", "android": "https://dc.lft.to/lastmile_qr_scan"}, "lon": -77.0465745, "bike_id": "00493ba7f923a40475f1a050fa29aca9", "type": "electric_scooter", "name": "00493ba7f923a40475f1a050fa29aca9"}, {"is_disabled": 0, "is_reserved": 0, "fusion_lat": 0.0, "lat": 38.921522833333334, "fusion_lon": 0.0, "rental_uris": {"ios": "https://dc.lft.to/lastmile_qr_scan", "android": "https://dc.lft.to/lastmile_qr_scan"}, "lon": -77.0337965, "bike_id": "1f11937e252f1571cbd52d0e3571ba62", "type": "electric_scooter", "name": "1f11937e252f1571cbd52d0e3571ba62"}, {"is_disabled": 0, "is_reserved": 0, "fusion_lat": 0.0, "lat": 38.90500866666667, "fusion_lon": 0.0, "rental_uris": {"ios": "https://dc.lft.to/lastmile_qr_scan", "android": "https://dc.lft.to/lastmile_qr_scan"}, "lon": -77.0294585, "bike_id": "d433722cb73f5799bfe007c07c6ef191", "type": "electric_scooter", "name": "d433722cb73f5799bfe007c07c6ef191"}, {"is_disabled": 0, "is_reserved": 0, "fusion_lat": 0.0, "lat": 38.873689166666665, "fusion_lon": 0.0, "rental_uris": {"ios": "https://dc.lft.to/lastmile_qr_scan", "android": "https://dc.lft.to/lastmile_qr_scan"}, "lon": -76.97113433333334, "bike_id": "d9384e68ca45cfbd8bdc7050a26de65d", "type": "electric_scooter", "name": "d9384e68ca45cfbd8bdc7050a26de65d"}, {"is_disabled": 0, "is_reserved": 0, "fusion_lat": 0.0, "lat": 38.916840666666666, "fusion_lon": 0.0, "rental_uris": {"ios": "https://dc.lft.to/lastmile_qr_scan", "android": "https://dc.lft.to/lastmile_qr_scan"}, "lon": -77.0413965, "bike_id": "efa65e4f128df567f8466cb1aa9f05c0", "type": "electric_scooter", "name": "efa65e4f128df567f8466cb1aa9f05c0"}, {"is_disabled": 0, "is_reserved": 0, "fusion_lat": 0.0, "lat": 38.9038175, "fusion_lon": 0.0, "rental_uris": {"ios": "https://dc.lft.to/lastmile_qr_scan", "android": "https://dc.lft.to/lastmile_qr_scan"}, "lon": -77.03812916666666, "bike_id": "4b52fd9e98f7bc575714aa4dc5052237", "type": "electric_scooter", "name": "4b52fd9e98f7bc575714aa4dc5052237"}, {"is_disabled": 0, "is_reserved": 0, "fusion_lat": 0.0, "lat": 38.9282735, "fusion_lon": 0.0, "rental_uris": {"ios": "https://dc.lft.to/lastmile_qr_scan", "android": "https://dc.lft.to/lastmile_qr_scan"}, "lon": -77.05971983333333, "bike_id": "6b08cbe5361b6467dc3e31ccfe226ace", "type": "electric_bike", "name": "6b08cbe5361b6467dc3e31ccfe226ace"}, {"is_disabled": 0, "is_reserved": 0, "fusion_lat": 0.0, "lat": 38.8763205, "fusion_lon": 0.0, "rental_uris": {"ios": "https://dc.lft.to/lastmile_qr_scan", "android": "https://dc.lft.to/lastmile_qr_scan"}, "lon": -77.00214716666666, "bike_id": "67a755a173c68fc6c0c2203addd00ff7", "type": "electric_scooter", "name": "67a755a173c68fc6c0c2203addd00ff7"}, {"is_disabled": 0, "is_reserved": 0, "fusion_lat": 0.0, "lat": 38.905619, "fusion_lon": 0.0, "rental_uris": {"ios": "https://dc.lft.to/lastmile_qr_scan", "android": "https://dc.lft.to/lastmile_qr_scan"}, "lon": -77.0208985, "bike_id": "fb8799d7343db3604f38014dd4f146ca", "type": "electric_scooter", "name": "fb8799d7343db3604f38014dd4f146ca"}, {"is_disabled": 0, "is_reserved": 0, "fusion_lat": 0.0, "lat": 38.918078666666666, "fusion_lon": 0.0, "rental_uris": {"ios": "https://dc.lft.to/lastmile_qr_scan", "android": "https://dc.lft.to/lastmile_qr_scan"}, "lon": -77.0000915, "bike_id": "30944b36064429041c7bc65232a9eb52", "type": "electric_scooter", "name": "30944b36064429041c7bc65232a9eb52"}, {"is_disabled": 0, "is_reserved": 0, "fusion_lat": 0.0, "lat": 38.90958366666667, "fusion_lon": 0.0, "rental_uris": {"ios": "https://dc.lft.to/lastmile_qr_scan", "android": "https://dc.lft.to/lastmile_qr_scan"}, "lon": -77.02393133333334, "bike_id": "04b616d348ebcdb4e98092dc0ddd59a4", "type": "electric_scooter", "name": "04b616d348ebcdb4e98092dc0ddd59a4"}, {"is_disabled": 0, "is_reserved": 0, "fusion_lat": 0.0, "lat": 38.89942716666667, "fusion_lon": 0.0, "rental_uris": {"ios": "https://dc.lft.to/lastmile_qr_scan", "android": "https://dc.lft.to/lastmile_qr_scan"}, "lon": -76.9376965, "bike_id": "ceea7ad8b73fd8b817b68ab2b0023041", "type": "electric_scooter", "name": "ceea7ad8b73fd8b817b68ab2b0023041"}, {"is_disabled": 0, "is_reserved": 0, "fusion_lat": 0.0, "lat": 38.91180133333334, "fusion_lon": 0.0, "rental_uris": {"ios": "https://dc.lft.to/lastmile_qr_scan", "android": "https://dc.lft.to/lastmile_qr_scan"}, "lon": -77.012087, "bike_id": "3127648f53544305c5d2bb34e88e3668", "type": "electric_scooter", "name": "3127648f53544305c5d2bb34e88e3668"}, {"is_disabled": 0, "is_reserved": 0, "fusion_lat": 0.0, "lat": 38.91767983333333, "fusion_lon": 0.0, "rental_uris": {"ios": "https://dc.lft.to/lastmile_qr_scan", "android": "https://dc.lft.to/lastmile_qr_scan"}, "lon": -77.04060766666667, "bike_id": "9f30a0d30f9a05121d5987ea991c56c0", "type": "electric_scooter", "name": "9f30a0d30f9a05121d5987ea991c56c0"}, {"is_disabled": 0, "is_reserved": 0, "fusion_lat": 0.0, "lat": 38.921314, "fusion_lon": 0.0, "rental_uris": {"ios": "https://dc.lft.to/lastmile_qr_scan", "android": "https://dc.lft.to/lastmile_qr_scan"}, "lon": -77.01801683333333, "bike_id": "e39a33156537a5ae944936a378e99e97", "type": "electric_scooter", "name": "e39a33156537a5ae944936a378e99e97"}, {"is_disabled": 0, "is_reserved": 0, "fusion_lat": 0.0, "lat": 38.889715, "fusion_lon": 0.0, "rental_uris": {"ios": "https://dc.lft.to/lastmile_qr_scan", "android": "https://dc.lft.to/lastmile_qr_scan"}, "lon": -76.98177216666667, "bike_id": "55869f86a6938d946f34abe069ecb70b", "type": "electric_scooter", "name": "55869f86a6938d946f34abe069ecb70b"}, {"is_disabled": 0, "is_reserved": 0, "fusion_lat": 0.0, "lat": 38.90499916666667, "fusion_lon": 0.0, "rental_uris": {"ios": "https://dc.lft.to/lastmile_qr_scan", "android": "https://dc.lft.to/lastmile_qr_scan"}, "lon": -77.029513, "bike_id": "08c60e59666d0ab88c4b358c46020f15", "type": "electric_scooter", "name": "08c60e59666d0ab88c4b358c46020f15"}, {"is_disabled": 0, "is_reserved": 0, "fusion_lat": 0.0, "lat": 38.923443666666664, "fusion_lon": 0.0, "rental_uris": {"ios": "https://dc.lft.to/lastmile_qr_scan", "android": "https://dc.lft.to/lastmile_qr_scan"}, "lon": -77.019111, "bike_id": "2f6e22b3a2bccce18589545284d70972", "type": "electric_scooter", "name": "2f6e22b3a2bccce18589545284d70972"}, {"is_disabled": 0, "is_reserved": 0, "fusion_lat": 0.0, "lat": 38.915394, "fusion_lon": 0.0, "rental_uris": {"ios": "https://dc.lft.to/lastmile_qr_scan", "android": "https://dc.lft.to/lastmile_qr_scan"}, "lon": -77.00919533333334, "bike_id": "9447df9676494792dd9f5b7ef9df7433", "type": "electric_scooter", "name": "9447df9676494792dd9f5b7ef9df7433"}, {"is_disabled": 0, "is_reserved": 0, "fusion_lat": 0.0, "lat": 38.896101333333334, "fusion_lon": 0.0, "rental_uris": {"ios": "https://dc.lft.to/lastmile_qr_scan", "android": "https://dc.lft.to/lastmile_qr_scan"}, "lon": -76.99808516666667, "bike_id": "d8914f8639041b1e4415df2ba3c1d1ef", "type": "electric_scooter", "name": "d8914f8639041b1e4415df2ba3c1d1ef"}, {"is_disabled": 0, "is_reserved": 0, "fusion_lat": 0.0, "lat": 38.91602366666667, "fusion_lon": 0.0, "rental_uris": {"ios": "https://dc.lft.to/lastmile_qr_scan", "android": "https://dc.lft.to/lastmile_qr_scan"}, "lon": -77.0122945, "bike_id": "db59880069b7ca735f6c29a70bd53a7d", "type": "electric_scooter", "name": "db59880069b7ca735f6c29a70bd53a7d"}, {"is_disabled": 0, "is_reserved": 0, "fusion_lat": 0.0, "lat": 38.911136, "fusion_lon": 0.0, "rental_uris": {"ios": "https://dc.lft.to/lastmile_qr_scan", "android": "https://dc.lft.to/lastmile_qr_scan"}, "lon": -77.0446615, "bike_id": "08eae2af3b8e42f0d28df44a1ee25560", "type": "electric_scooter", "name": "08eae2af3b8e42f0d28df44a1ee25560"}, {"is_disabled": 0, "is_reserved": 0, "fusion_lat": 0.0, "lat": 38.931726, "fusion_lon": 0.0, "rental_uris": {"ios": "https://dc.lft.to/lastmile_qr_scan", "android": "https://dc.lft.to/lastmile_qr_scan"}, "lon": -77.02818933333333, "bike_id": "bd893b38af5a7d2ad76a3b313db29470", "type": "electric_scooter", "name": "bd893b38af5a7d2ad76a3b313db29470"}, {"is_disabled": 0, "is_reserved": 0, "fusion_lat": 0.0, "lat": 38.903586, "fusion_lon": 0.0, "rental_uris": {"ios": "https://dc.lft.to/lastmile_qr_scan", "android": "https://dc.lft.to/lastmile_qr_scan"}, "lon": -77.029587, "bike_id": "95681b15b0f0df7e2b1d9c40dd4b8c85", "type": "electric_scooter", "name": "95681b15b0f0df7e2b1d9c40dd4b8c85"}, {"is_disabled": 0, "is_reserved": 0, "fusion_lat": 0.0, "lat": 38.91110333333334, "fusion_lon": 0.0, "rental_uris": {"ios": "https://dc.lft.to/lastmile_qr_scan", "android": "https://dc.lft.to/lastmile_qr_scan"}, "lon": -77.01160333333333, "bike_id": "62985c120b141779f886f85348248c0d", "type": "electric_scooter", "name": "62985c120b141779f886f85348248c0d"}, {"is_disabled": 0, "is_reserved": 0, "fusion_lat": 0.0, "lat": 38.9089365, "fusion_lon": 0.0, "rental_uris": {"ios": "https://dc.lft.to/lastmile_qr_scan", "android": "https://dc.lft.to/lastmile_qr_scan"}, "lon": -77.04661316666666, "bike_id": "ce7b646d24005bd1e38a63df7c339cf0", "type": "electric_scooter", "name": "ce7b646d24005bd1e38a63df7c339cf0"}, {"is_disabled": 0, "is_reserved": 0, "fusion_lat": 0.0, "lat": 38.95075466666667, "fusion_lon": 0.0, "rental_uris": {"ios": "https://dc.lft.to/lastmile_qr_scan", "android": "https://dc.lft.to/lastmile_qr_scan"}, "lon": -76.99603433333333, "bike_id": "03efb77f0c15c3334e3a2b15fa52e091", "type": "electric_bike", "name": "03efb77f0c15c3334e3a2b15fa52e091"}, {"is_disabled": 0, "is_reserved": 0, "fusion_lat": 0.0, "lat": 38.88373133333333, "fusion_lon": 0.0, "rental_uris": {"ios": "https://dc.lft.to/lastmile_qr_scan", "android": "https://dc.lft.to/lastmile_qr_scan"}, "lon": -76.99518316666666, "bike_id": "c8e834ce0dba5e48aafc0f64059a8673", "type": "electric_scooter", "name": "c8e834ce0dba5e48aafc0f64059a8673"}, {"is_disabled": 0, "is_reserved": 0, "fusion_lat": 0.0, "lat": 38.89237216666667, "fusion_lon": 0.0, "rental_uris": {"ios": "https://dc.lft.to/lastmile_qr_scan", "android": "https://dc.lft.to/lastmile_qr_scan"}, "lon": -77.021771, "bike_id": "0b32ed5174642e61fe9625f5546d0c29", "type": "electric_scooter", "name": "0b32ed5174642e61fe9625f5546d0c29"}, {"is_disabled": 0, "is_reserved": 0, "fusion_lat": 0.0, "lat": 38.89475566666667, "fusion_lon": 0.0, "rental_uris": {"ios": "https://dc.lft.to/lastmile_qr_scan", "android": "https://dc.lft.to/lastmile_qr_scan"}, "lon": -77.0026735, "bike_id": "fe57ee9f6a51980639e3bd6b7d0cc402", "type": "electric_scooter", "name": "fe57ee9f6a51980639e3bd6b7d0cc402"}, {"is_disabled": 0, "is_reserved": 0, "fusion_lat": 0.0, "lat": 38.99849016666667, "fusion_lon": 0.0, "rental_uris": {"ios": "https://dc.lft.to/lastmile_qr_scan", "android": "https://dc.lft.to/lastmile_qr_scan"}, "lon": -77.002498, "bike_id": "1b913b7039bd7f95cd73ffbbdc105b7e", "type": "electric_bike", "name": "1b913b7039bd7f95cd73ffbbdc105b7e"}, {"is_disabled": 0, "is_reserved": 0, "fusion_lat": 0.0, "lat": 38.862354, "fusion_lon": 0.0, "rental_uris": {"ios": "https://dc.lft.to/lastmile_qr_scan", "android": "https://dc.lft.to/lastmile_qr_scan"}, "lon": -76.99517933333334, "bike_id": "23ded360f776b33abe1d8845e9f919fe", "type": "electric_scooter", "name": "23ded360f776b33abe1d8845e9f919fe"}, {"is_disabled": 0, "is_reserved": 0, "fusion_lat": 0.0, "lat": 38.911806, "fusion_lon": 0.0, "rental_uris": {"ios": "https://dc.lft.to/lastmile_qr_scan", "android": "https://dc.lft.to/lastmile_qr_scan"}, "lon": -77.00454666666667, "bike_id": "af9528f022c7d4085bbbc9c1d0730a63", "type": "electric_scooter", "name": "af9528f022c7d4085bbbc9c1d0730a63"}, {"is_disabled": 0, "is_reserved": 0, "fusion_lat": 0.0, "lat": 38.91274933333333, "fusion_lon": 0.0, "rental_uris": {"ios": "https://dc.lft.to/lastmile_qr_scan", "android": "https://dc.lft.to/lastmile_qr_scan"}, "lon": -77.04661716666666, "bike_id": "12640fae74c1ac9f03222e72fa5bad43", "type": "electric_scooter", "name": "12640fae74c1ac9f03222e72fa5bad43"}, {"is_disabled": 0, "is_reserved": 0, "fusion_lat": 0.0, "lat": 39.042358, "fusion_lon": 0.0, "rental_uris": {"ios": "https://dc.lft.to/lastmile_qr_scan", "android": "https://dc.lft.to/lastmile_qr_scan"}, "lon": -76.99734766666667, "bike_id": "d84898733b8fd445cba636a2685bff5d", "type": "electric_bike", "name": "d84898733b8fd445cba636a2685bff5d"}, {"is_disabled": 0, "is_reserved": 0, "fusion_lat": 0.0, "lat": 38.8773955, "fusion_lon": 0.0, "rental_uris": {"ios": "https://dc.lft.to/lastmile_qr_scan", "android": "https://dc.lft.to/lastmile_qr_scan"}, "lon": -77.14871533333333, "bike_id": "cbc0e682b4d48a60a39fde9dedea6baa", "type": "electric_bike", "name": "cbc0e682b4d48a60a39fde9dedea6baa"}, {"is_disabled": 0, "is_reserved": 0, "fusion_lat": 0.0, "lat": 38.88528016666667, "fusion_lon": 0.0, "rental_uris": {"ios": "https://dc.lft.to/lastmile_qr_scan", "android": "https://dc.lft.to/lastmile_qr_scan"}, "lon": -76.99616083333333, "bike_id": "82313cc3c21574b54b4064d05c0a46ae", "type": "electric_scooter", "name": "82313cc3c21574b54b4064d05c0a46ae"}, {"is_disabled": 0, "is_reserved": 0, "fusion_lat": 0.0, "lat": 38.900210333333334, "fusion_lon": 0.0, "rental_uris": {"ios": "https://dc.lft.to/lastmile_qr_scan", "android": "https://dc.lft.to/lastmile_qr_scan"}, "lon": -77.012153, "bike_id": "d268d5026f1e6888cc98987e1a604b53", "type": "electric_scooter", "name": "d268d5026f1e6888cc98987e1a604b53"}, {"is_disabled": 0, "is_reserved": 0, "fusion_lat": 0.0, "lat": 38.864935333333335, "fusion_lon": 0.0, "rental_uris": {"ios": "https://dc.lft.to/lastmile_qr_scan", "android": "https://dc.lft.to/lastmile_qr_scan"}, "lon": -76.972945, "bike_id": "5e6f007a0a7f23c3de924cd079d4d1d0", "type": "electric_bike", "name": "5e6f007a0a7f23c3de924cd079d4d1d0"}, {"is_disabled": 0, "is_reserved": 0, "fusion_lat": 0.0, "lat": 38.91772516666666, "fusion_lon": 0.0, "rental_uris": {"ios": "https://dc.lft.to/lastmile_qr_scan", "android": "https://dc.lft.to/lastmile_qr_scan"}, "lon": -77.0405615, "bike_id": "ad3938e3c149dcb5be3f72daca7de600", "type": "electric_scooter", "name": "ad3938e3c149dcb5be3f72daca7de600"}, {"is_disabled": 0, "is_reserved": 0, "fusion_lat": 0.0, "lat": 38.881066833333335, "fusion_lon": 0.0, "rental_uris": {"ios": "https://dc.lft.to/lastmile_qr_scan", "android": "https://dc.lft.to/lastmile_qr_scan"}, "lon": -77.0123615, "bike_id": "1e28208356a57fcef32ac1cdbc8a5b08", "type": "electric_scooter", "name": "1e28208356a57fcef32ac1cdbc8a5b08"}, {"is_disabled": 0, "is_reserved": 0, "fusion_lat": 0.0, "lat": 39.00532883333333, "fusion_lon": 0.0, "rental_uris": {"ios": "https://dc.lft.to/lastmile_qr_scan", "android": "https://dc.lft.to/lastmile_qr_scan"}, "lon": -77.10403716666667, "bike_id": "017ca65272d8fa77b2c789e977e20075", "type": "electric_bike", "name": "017ca65272d8fa77b2c789e977e20075"}, {"is_disabled": 0, "is_reserved": 0, "fusion_lat": 0.0, "lat": 38.898608333333335, "fusion_lon": 0.0, "rental_uris": {"ios": "https://dc.lft.to/lastmile_qr_scan", "android": "https://dc.lft.to/lastmile_qr_scan"}, "lon": -77.04879816666667, "bike_id": "3d24434e07a7cbaa947a6292811424d9", "type": "electric_scooter", "name": "3d24434e07a7cbaa947a6292811424d9"}, {"is_disabled": 0, "is_reserved": 0, "fusion_lat": 0.0, "lat": 38.92484733333333, "fusion_lon": 0.0, "rental_uris": {"ios": "https://dc.lft.to/lastmile_qr_scan", "android": "https://dc.lft.to/lastmile_qr_scan"}, "lon": -77.05100883333333, "bike_id": "f2d7d618e9bf9c02b35980f369d7e6fe", "type": "electric_scooter", "name": "f2d7d618e9bf9c02b35980f369d7e6fe"}, {"is_disabled": 0, "is_reserved": 0, "fusion_lat": 0.0, "lat": 38.9153535, "fusion_lon": 0.0, "rental_uris": {"ios": "https://dc.lft.to/lastmile_qr_scan", "android": "https://dc.lft.to/lastmile_qr_scan"}, "lon": -76.98367666666667, "bike_id": "e07262599b627b5b5a68ae3a80efafd8", "type": "electric_scooter", "name": "e07262599b627b5b5a68ae3a80efafd8"}, {"is_disabled": 0, "is_reserved": 0, "fusion_lat": 0.0, "lat": 38.93873716666667, "fusion_lon": 0.0, "rental_uris": {"ios": "https://dc.lft.to/lastmile_qr_scan", "android": "https://dc.lft.to/lastmile_qr_scan"}, "lon": -77.03037966666666, "bike_id": "aea3243408aea74984789aa5dc6a4518", "type": "electric_scooter", "name": "aea3243408aea74984789aa5dc6a4518"}, {"is_disabled": 0, "is_reserved": 0, "fusion_lat": 0.0, "lat": 38.8930325, "fusion_lon": 0.0, "rental_uris": {"ios": "https://dc.lft.to/lastmile_qr_scan", "android": "https://dc.lft.to/lastmile_qr_scan"}, "lon": -76.9996185, "bike_id": "9e5054b2d6a957cac1f863c0278a27ce", "type": "electric_scooter", "name": "9e5054b2d6a957cac1f863c0278a27ce"}, {"is_disabled": 0, "is_reserved": 0, "fusion_lat": 0.0, "lat": 38.897038333333334, "fusion_lon": 0.0, "rental_uris": {"ios": "https://dc.lft.to/lastmile_qr_scan", "android": "https://dc.lft.to/lastmile_qr_scan"}, "lon": -77.05110266666667, "bike_id": "7a6e6666312a53ede88692758beac325", "type": "electric_scooter", "name": "7a6e6666312a53ede88692758beac325"}, {"is_disabled": 0, "is_reserved": 0, "fusion_lat": 0.0, "lat": 38.89830383333333, "fusion_lon": 0.0, "rental_uris": {"ios": "https://dc.lft.to/lastmile_qr_scan", "android": "https://dc.lft.to/lastmile_qr_scan"}, "lon": -76.94632833333333, "bike_id": "28cacceaf1ecaa97242f2416ddabde5b", "type": "electric_scooter", "name": "28cacceaf1ecaa97242f2416ddabde5b"}, {"is_disabled": 0, "is_reserved": 0, "fusion_lat": 0.0, "lat": 38.91770233333333, "fusion_lon": 0.0, "rental_uris": {"ios": "https://dc.lft.to/lastmile_qr_scan", "android": "https://dc.lft.to/lastmile_qr_scan"}, "lon": -77.02294166666667, "bike_id": "0eb54ba54b4a14f2e1acc8d06a8a3c48", "type": "electric_scooter", "name": "0eb54ba54b4a14f2e1acc8d06a8a3c48"}, {"is_disabled": 0, "is_reserved": 0, "fusion_lat": 0.0, "lat": 38.89731316666666, "fusion_lon": 0.0, "rental_uris": {"ios": "https://dc.lft.to/lastmile_qr_scan", "android": "https://dc.lft.to/lastmile_qr_scan"}, "lon": -77.02729983333333, "bike_id": "fd247c4b21808be5d852abb39dc6b3e1", "type": "electric_scooter", "name": "fd247c4b21808be5d852abb39dc6b3e1"}, {"is_disabled": 0, "is_reserved": 0, "fusion_lat": 0.0, "lat": 38.907294666666665, "fusion_lon": 0.0, "rental_uris": {"ios": "https://dc.lft.to/lastmile_qr_scan", "android": "https://dc.lft.to/lastmile_qr_scan"}, "lon": -77.000557, "bike_id": "938de57be32da903a2f7fc3676936a65", "type": "electric_scooter", "name": "938de57be32da903a2f7fc3676936a65"}, {"is_disabled": 0, "is_reserved": 0, "fusion_lat": 0.0, "lat": 38.91992483333333, "fusion_lon": 0.0, "rental_uris": {"ios": "https://dc.lft.to/lastmile_qr_scan", "android": "https://dc.lft.to/lastmile_qr_scan"}, "lon": -77.03244633333334, "bike_id": "01b54d69d42968ba355b0ebad63dff2b", "type": "electric_scooter", "name": "01b54d69d42968ba355b0ebad63dff2b"}, {"is_disabled": 0, "is_reserved": 0, "fusion_lat": 0.0, "lat": 38.907200833333334, "fusion_lon": 0.0, "rental_uris": {"ios": "https://dc.lft.to/lastmile_qr_scan", "android": "https://dc.lft.to/lastmile_qr_scan"}, "lon": -77.02504666666667, "bike_id": "063c3982721e9ff18ca8360a51268bfe", "type": "electric_scooter", "name": "063c3982721e9ff18ca8360a51268bfe"}, {"is_disabled": 0, "is_reserved": 0, "fusion_lat": 0.0, "lat": 38.9051705, "fusion_lon": 0.0, "rental_uris": {"ios": "https://dc.lft.to/lastmile_qr_scan", "android": "https://dc.lft.to/lastmile_qr_scan"}, "lon": -77.01700166666667, "bike_id": "32a0375dcec0da33d4167f7d009225f3", "type": "electric_scooter", "name": "32a0375dcec0da33d4167f7d009225f3"}, {"is_disabled": 0, "is_reserved": 0, "fusion_lat": 0.0, "lat": 38.91991, "fusion_lon": 0.0, "rental_uris": {"ios": "https://dc.lft.to/lastmile_qr_scan", "android": "https://dc.lft.to/lastmile_qr_scan"}, "lon": -77.0324865, "bike_id": "df9d5df38edfa0d27fe86e26320f69ff", "type": "electric_scooter", "name": "df9d5df38edfa0d27fe86e26320f69ff"}, {"is_disabled": 0, "is_reserved": 0, "fusion_lat": 0.0, "lat": 38.87073066666667, "fusion_lon": 0.0, "rental_uris": {"ios": "https://dc.lft.to/lastmile_qr_scan", "android": "https://dc.lft.to/lastmile_qr_scan"}, "lon": -76.97942416666666, "bike_id": "d3d06a46de78dacca0d1d45fb7f26360", "type": "electric_scooter", "name": "d3d06a46de78dacca0d1d45fb7f26360"}, {"is_disabled": 0, "is_reserved": 0, "fusion_lat": 0.0, "lat": 38.89354466666666, "fusion_lon": 0.0, "rental_uris": {"ios": "https://dc.lft.to/lastmile_qr_scan", "android": "https://dc.lft.to/lastmile_qr_scan"}, "lon": -77.04293683333333, "bike_id": "9d8cd99bfa3d7fc03e7b5503a443fec4", "type": "electric_scooter", "name": "9d8cd99bfa3d7fc03e7b5503a443fec4"}, {"is_disabled": 0, "is_reserved": 0, "fusion_lat": 0.0, "lat": 38.93064316666667, "fusion_lon": 0.0, "rental_uris": {"ios": "https://dc.lft.to/lastmile_qr_scan", "android": "https://dc.lft.to/lastmile_qr_scan"}, "lon": -77.0232385, "bike_id": "d188f573d475ca48db763f5cd1846d82", "type": "electric_scooter", "name": "d188f573d475ca48db763f5cd1846d82"}, {"is_disabled": 0, "is_reserved": 0, "fusion_lat": 0.0, "lat": 38.951098, "fusion_lon": 0.0, "rental_uris": {"ios": "https://dc.lft.to/lastmile_qr_scan", "android": "https://dc.lft.to/lastmile_qr_scan"}, "lon": -77.01888483333333, "bike_id": "2410168a74ec5efb243af578a562f2d2", "type": "electric_scooter", "name": "2410168a74ec5efb243af578a562f2d2"}, {"is_disabled": 0, "is_reserved": 0, "fusion_lat": 0.0, "lat": 38.92610666666667, "fusion_lon": 0.0, "rental_uris": {"ios": "https://dc.lft.to/lastmile_qr_scan", "android": "https://dc.lft.to/lastmile_qr_scan"}, "lon": -77.0065045, "bike_id": "e4a3feca1006f2bf6bd57a17e56eb971", "type": "electric_scooter", "name": "e4a3feca1006f2bf6bd57a17e56eb971"}, {"is_disabled": 0, "is_reserved": 0, "fusion_lat": 0.0, "lat": 38.876251, "fusion_lon": 0.0, "rental_uris": {"ios": "https://dc.lft.to/lastmile_qr_scan", "android": "https://dc.lft.to/lastmile_qr_scan"}, "lon": -77.0007425, "bike_id": "1fdf1e67851be228dbef435329055fd9", "type": "electric_scooter", "name": "1fdf1e67851be228dbef435329055fd9"}, {"is_disabled": 0, "is_reserved": 0, "fusion_lat": 0.0, "lat": 38.92358983333333, "fusion_lon": 0.0, "rental_uris": {"ios": "https://dc.lft.to/lastmile_qr_scan", "android": "https://dc.lft.to/lastmile_qr_scan"}, "lon": -77.05238683333333, "bike_id": "bf0010f59ef8f9b911a8b10be7795182", "type": "electric_scooter", "name": "bf0010f59ef8f9b911a8b10be7795182"}, {"is_disabled": 0, "is_reserved": 0, "fusion_lat": 0.0, "lat": 38.92145083333333, "fusion_lon": 0.0, "rental_uris": {"ios": "https://dc.lft.to/lastmile_qr_scan", "android": "https://dc.lft.to/lastmile_qr_scan"}, "lon": -77.03660266666667, "bike_id": "0e9d9440fee29f5020973f255dafffd1", "type": "electric_scooter", "name": "0e9d9440fee29f5020973f255dafffd1"}, {"is_disabled": 0, "is_reserved": 0, "fusion_lat": 0.0, "lat": 38.936012166666664, "fusion_lon": 0.0, "rental_uris": {"ios": "https://dc.lft.to/lastmile_qr_scan", "android": "https://dc.lft.to/lastmile_qr_scan"}, "lon": -77.05596233333333, "bike_id": "fcd06edbae6782ccd8360f3503660778", "type": "electric_scooter", "name": "fcd06edbae6782ccd8360f3503660778"}, {"is_disabled": 0, "is_reserved": 0, "fusion_lat": 0.0, "lat": 38.9820565, "fusion_lon": 0.0, "rental_uris": {"ios": "https://dc.lft.to/lastmile_qr_scan", "android": "https://dc.lft.to/lastmile_qr_scan"}, "lon": -76.97817283333333, "bike_id": "45a87af94e10619cb260f1566def52d4", "type": "electric_bike", "name": "45a87af94e10619cb260f1566def52d4"}, {"is_disabled": 0, "is_reserved": 0, "fusion_lat": 0.0, "lat": 38.92781083333333, "fusion_lon": 0.0, "rental_uris": {"ios": "https://dc.lft.to/lastmile_qr_scan", "android": "https://dc.lft.to/lastmile_qr_scan"}, "lon": -77.05258683333334, "bike_id": "7341613c50f856f3caff9d67cb8891aa", "type": "electric_scooter", "name": "7341613c50f856f3caff9d67cb8891aa"}, {"is_disabled": 0, "is_reserved": 0, "fusion_lat": 0.0, "lat": 38.87840466666667, "fusion_lon": 0.0, "rental_uris": {"ios": "https://dc.lft.to/lastmile_qr_scan", "android": "https://dc.lft.to/lastmile_qr_scan"}, "lon": -76.98605883333333, "bike_id": "863ebe01c76da599f86aa595a41743d5", "type": "electric_scooter", "name": "863ebe01c76da599f86aa595a41743d5"}, {"is_disabled": 0, "is_reserved": 0, "fusion_lat": 0.0, "lat": 38.89181383333333, "fusion_lon": 0.0, "rental_uris": {"ios": "https://dc.lft.to/lastmile_qr_scan", "android": "https://dc.lft.to/lastmile_qr_scan"}, "lon": -77.01507566666666, "bike_id": "f14190e246787421521519db7ce2cc5e", "type": "electric_scooter", "name": "f14190e246787421521519db7ce2cc5e"}, {"is_disabled": 0, "is_reserved": 0, "fusion_lat": 0.0, "lat": 38.920506, "fusion_lon": 0.0, "rental_uris": {"ios": "https://dc.lft.to/lastmile_qr_scan", "android": "https://dc.lft.to/lastmile_qr_scan"}, "lon": -77.03335, "bike_id": "399c9dcc114d5ccf623e567c8cf5d012", "type": "electric_scooter", "name": "399c9dcc114d5ccf623e567c8cf5d012"}, {"is_disabled": 0, "is_reserved": 0, "fusion_lat": 0.0, "lat": 38.916004666666666, "fusion_lon": 0.0, "rental_uris": {"ios": "https://dc.lft.to/lastmile_qr_scan", "android": "https://dc.lft.to/lastmile_qr_scan"}, "lon": -77.01225833333334, "bike_id": "a76fcc07b8d64ad4c38d852a86add591", "type": "electric_scooter", "name": "a76fcc07b8d64ad4c38d852a86add591"}, {"is_disabled": 0, "is_reserved": 0, "fusion_lat": 0.0, "lat": 38.89558983333333, "fusion_lon": 0.0, "rental_uris": {"ios": "https://dc.lft.to/lastmile_qr_scan", "android": "https://dc.lft.to/lastmile_qr_scan"}, "lon": -77.01637083333334, "bike_id": "2dc41130e26535b16a8f296aafd4f096", "type": "electric_scooter", "name": "2dc41130e26535b16a8f296aafd4f096"}, {"is_disabled": 0, "is_reserved": 0, "fusion_lat": 0.0, "lat": 38.920354833333334, "fusion_lon": 0.0, "rental_uris": {"ios": "https://dc.lft.to/lastmile_qr_scan", "android": "https://dc.lft.to/lastmile_qr_scan"}, "lon": -77.02601033333333, "bike_id": "97fce4daa1f0006409cdd2fcdb6e21ee", "type": "electric_scooter", "name": "97fce4daa1f0006409cdd2fcdb6e21ee"}, {"is_disabled": 0, "is_reserved": 0, "fusion_lat": 0.0, "lat": 38.91005533333333, "fusion_lon": 0.0, "rental_uris": {"ios": "https://dc.lft.to/lastmile_qr_scan", "android": "https://dc.lft.to/lastmile_qr_scan"}, "lon": -77.04426316666667, "bike_id": "9c460bb19d740ad88f97091c0b760f54", "type": "electric_scooter", "name": "9c460bb19d740ad88f97091c0b760f54"}, {"is_disabled": 0, "is_reserved": 0, "fusion_lat": 0.0, "lat": 38.89909433333333, "fusion_lon": 0.0, "rental_uris": {"ios": "https://dc.lft.to/lastmile_qr_scan", "android": "https://dc.lft.to/lastmile_qr_scan"}, "lon": -77.03955583333334, "bike_id": "37bdb1ec6c7805bb058b521da86d7601", "type": "electric_scooter", "name": "37bdb1ec6c7805bb058b521da86d7601"}, {"is_disabled": 0, "is_reserved": 0, "fusion_lat": 0.0, "lat": 38.90767666666667, "fusion_lon": 0.0, "rental_uris": {"ios": "https://dc.lft.to/lastmile_qr_scan", "android": "https://dc.lft.to/lastmile_qr_scan"}, "lon": -76.99921116666667, "bike_id": "86635cd5fc0a9021f208e1cd585bf0b6", "type": "electric_scooter", "name": "86635cd5fc0a9021f208e1cd585bf0b6"}, {"is_disabled": 0, "is_reserved": 0, "fusion_lat": 0.0, "lat": 38.90722866666667, "fusion_lon": 0.0, "rental_uris": {"ios": "https://dc.lft.to/lastmile_qr_scan", "android": "https://dc.lft.to/lastmile_qr_scan"}, "lon": -77.04646583333333, "bike_id": "22238dbeb391928f1b86c990fc6323c6", "type": "electric_scooter", "name": "22238dbeb391928f1b86c990fc6323c6"}, {"is_disabled": 0, "is_reserved": 0, "fusion_lat": 0.0, "lat": 38.832968666666666, "fusion_lon": 0.0, "rental_uris": {"ios": "https://dc.lft.to/lastmile_qr_scan", "android": "https://dc.lft.to/lastmile_qr_scan"}, "lon": -77.08409016666667, "bike_id": "fcfa55a580776a77af01b5a6abe3722f", "type": "electric_bike", "name": "fcfa55a580776a77af01b5a6abe3722f"}, {"is_disabled": 0, "is_reserved": 0, "fusion_lat": 0.0, "lat": 38.926468166666666, "fusion_lon": 0.0, "rental_uris": {"ios": "https://dc.lft.to/lastmile_qr_scan", "android": "https://dc.lft.to/lastmile_qr_scan"}, "lon": -77.0369935, "bike_id": "4f9c2093d8d3f35d186bdf48caea0225", "type": "electric_scooter", "name": "4f9c2093d8d3f35d186bdf48caea0225"}, {"is_disabled": 0, "is_reserved": 0, "fusion_lat": 0.0, "lat": 38.898498333333336, "fusion_lon": 0.0, "rental_uris": {"ios": "https://dc.lft.to/lastmile_qr_scan", "android": "https://dc.lft.to/lastmile_qr_scan"}, "lon": -76.92751316666667, "bike_id": "f6e37e967a84205b3dfe3141331f9f09", "type": "electric_scooter", "name": "f6e37e967a84205b3dfe3141331f9f09"}, {"is_disabled": 0, "is_reserved": 0, "fusion_lat": 0.0, "lat": 38.88370833333333, "fusion_lon": 0.0, "rental_uris": {"ios": "https://dc.lft.to/lastmile_qr_scan", "android": "https://dc.lft.to/lastmile_qr_scan"}, "lon": -76.99517883333333, "bike_id": "f112854e1781c702ebbc2b559928ff31", "type": "electric_scooter", "name": "f112854e1781c702ebbc2b559928ff31"}, {"is_disabled": 0, "is_reserved": 0, "fusion_lat": 0.0, "lat": 38.91528816666667, "fusion_lon": 0.0, "rental_uris": {"ios": "https://dc.lft.to/lastmile_qr_scan", "android": "https://dc.lft.to/lastmile_qr_scan"}, "lon": -77.01971783333333, "bike_id": "d4ffa211059075d6d94424e9eb2a6282", "type": "electric_scooter", "name": "d4ffa211059075d6d94424e9eb2a6282"}, {"is_disabled": 0, "is_reserved": 0, "fusion_lat": 0.0, "lat": 38.91814433333333, "fusion_lon": 0.0, "rental_uris": {"ios": "https://dc.lft.to/lastmile_qr_scan", "android": "https://dc.lft.to/lastmile_qr_scan"}, "lon": -77.03793616666667, "bike_id": "442edc87b119a5ddb8e3d19724db1d13", "type": "electric_scooter", "name": "442edc87b119a5ddb8e3d19724db1d13"}, {"is_disabled": 0, "is_reserved": 0, "fusion_lat": 0.0, "lat": 38.922603333333335, "fusion_lon": 0.0, "rental_uris": {"ios": "https://dc.lft.to/lastmile_qr_scan", "android": "https://dc.lft.to/lastmile_qr_scan"}, "lon": -77.04297233333334, "bike_id": "993505c0ae2d727c39035f4593c13d1b", "type": "electric_scooter", "name": "993505c0ae2d727c39035f4593c13d1b"}, {"is_disabled": 0, "is_reserved": 0, "fusion_lat": 0.0, "lat": 38.904355, "fusion_lon": 0.0, "rental_uris": {"ios": "https://dc.lft.to/lastmile_qr_scan", "android": "https://dc.lft.to/lastmile_qr_scan"}, "lon": -76.97238433333334, "bike_id": "9e068034c186d2628328f4c6475b4752", "type": "electric_bike", "name": "9e068034c186d2628328f4c6475b4752"}, {"is_disabled": 0, "is_reserved": 0, "fusion_lat": 0.0, "lat": 38.894604333333334, "fusion_lon": 0.0, "rental_uris": {"ios": "https://dc.lft.to/lastmile_qr_scan", "android": "https://dc.lft.to/lastmile_qr_scan"}, "lon": -76.93678566666667, "bike_id": "499084a6a038f3159436a049f22f1eea", "type": "electric_bike", "name": "499084a6a038f3159436a049f22f1eea"}, {"is_disabled": 0, "is_reserved": 0, "fusion_lat": 0.0, "lat": 38.922222, "fusion_lon": 0.0, "rental_uris": {"ios": "https://dc.lft.to/lastmile_qr_scan", "android": "https://dc.lft.to/lastmile_qr_scan"}, "lon": -77.0424075, "bike_id": "a0c657ac4b5a771e9ac46067454a83b3", "type": "electric_scooter", "name": "a0c657ac4b5a771e9ac46067454a83b3"}, {"is_disabled": 0, "is_reserved": 0, "fusion_lat": 0.0, "lat": 38.87657983333333, "fusion_lon": 0.0, "rental_uris": {"ios": "https://dc.lft.to/lastmile_qr_scan", "android": "https://dc.lft.to/lastmile_qr_scan"}, "lon": -77.00887083333333, "bike_id": "56329509e617ef01b47e2772e2faad17", "type": "electric_scooter", "name": "56329509e617ef01b47e2772e2faad17"}, {"is_disabled": 0, "is_reserved": 0, "fusion_lat": 0.0, "lat": 38.974441, "fusion_lon": 0.0, "rental_uris": {"ios": "https://dc.lft.to/lastmile_qr_scan", "android": "https://dc.lft.to/lastmile_qr_scan"}, "lon": -77.096183, "bike_id": "f13e43bb43c5c2bee593c8126ead4c62", "type": "electric_bike", "name": "f13e43bb43c5c2bee593c8126ead4c62"}, {"is_disabled": 0, "is_reserved": 0, "fusion_lat": 0.0, "lat": 38.9176935, "fusion_lon": 0.0, "rental_uris": {"ios": "https://dc.lft.to/lastmile_qr_scan", "android": "https://dc.lft.to/lastmile_qr_scan"}, "lon": -77.04059083333334, "bike_id": "1402cf1342a04bc087f5309b4a668a73", "type": "electric_scooter", "name": "1402cf1342a04bc087f5309b4a668a73"}, {"is_disabled": 0, "is_reserved": 0, "fusion_lat": 0.0, "lat": 38.90261016666667, "fusion_lon": 0.0, "rental_uris": {"ios": "https://dc.lft.to/lastmile_qr_scan", "android": "https://dc.lft.to/lastmile_qr_scan"}, "lon": -77.01874933333333, "bike_id": "cf5325311fe19e4a2d0f8a94613d4519", "type": "electric_scooter", "name": "cf5325311fe19e4a2d0f8a94613d4519"}, {"is_disabled": 0, "is_reserved": 0, "fusion_lat": 0.0, "lat": 38.898501, "fusion_lon": 0.0, "rental_uris": {"ios": "https://dc.lft.to/lastmile_qr_scan", "android": "https://dc.lft.to/lastmile_qr_scan"}, "lon": -77.002088, "bike_id": "4d60d6e0b20d8337ac7b3e9b3bb543dc", "type": "electric_scooter", "name": "4d60d6e0b20d8337ac7b3e9b3bb543dc"}, {"is_disabled": 0, "is_reserved": 0, "fusion_lat": 0.0, "lat": 38.92311633333333, "fusion_lon": 0.0, "rental_uris": {"ios": "https://dc.lft.to/lastmile_qr_scan", "android": "https://dc.lft.to/lastmile_qr_scan"}, "lon": -77.0342045, "bike_id": "707c955924d4e2c977b2e9287a7037e1", "type": "electric_scooter", "name": "707c955924d4e2c977b2e9287a7037e1"}, {"is_disabled": 0, "is_reserved": 0, "fusion_lat": 0.0, "lat": 38.8974465, "fusion_lon": 0.0, "rental_uris": {"ios": "https://dc.lft.to/lastmile_qr_scan", "android": "https://dc.lft.to/lastmile_qr_scan"}, "lon": -77.0258715, "bike_id": "5e41666181d3402dd5f259a32cd45ddd", "type": "electric_scooter", "name": "5e41666181d3402dd5f259a32cd45ddd"}, {"is_disabled": 0, "is_reserved": 0, "fusion_lat": 0.0, "lat": 38.8760935, "fusion_lon": 0.0, "rental_uris": {"ios": "https://dc.lft.to/lastmile_qr_scan", "android": "https://dc.lft.to/lastmile_qr_scan"}, "lon": -77.00850733333333, "bike_id": "8f3a023cf8a20adbb51f2cf05a90f809", "type": "electric_scooter", "name": "8f3a023cf8a20adbb51f2cf05a90f809"}, {"is_disabled": 0, "is_reserved": 0, "fusion_lat": 0.0, "lat": 38.89733066666667, "fusion_lon": 0.0, "rental_uris": {"ios": "https://dc.lft.to/lastmile_qr_scan", "android": "https://dc.lft.to/lastmile_qr_scan"}, "lon": -77.04368116666667, "bike_id": "1f682aaf59762935b96db6a6d7d366f8", "type": "electric_scooter", "name": "1f682aaf59762935b96db6a6d7d366f8"}, {"is_disabled": 0, "is_reserved": 0, "fusion_lat": 0.0, "lat": 38.912707166666664, "fusion_lon": 0.0, "rental_uris": {"ios": "https://dc.lft.to/lastmile_qr_scan", "android": "https://dc.lft.to/lastmile_qr_scan"}, "lon": -77.04168466666667, "bike_id": "d34819afff81fac35e8258b465eeeb45", "type": "electric_scooter", "name": "d34819afff81fac35e8258b465eeeb45"}, {"is_disabled": 0, "is_reserved": 0, "fusion_lat": 0.0, "lat": 38.92976066666667, "fusion_lon": 0.0, "rental_uris": {"ios": "https://dc.lft.to/lastmile_qr_scan", "android": "https://dc.lft.to/lastmile_qr_scan"}, "lon": -77.03080133333333, "bike_id": "d33ea6fae4546139d09a9e9f9ae9d47f", "type": "electric_scooter", "name": "d33ea6fae4546139d09a9e9f9ae9d47f"}, {"is_disabled": 0, "is_reserved": 0, "fusion_lat": 0.0, "lat": 38.9370135, "fusion_lon": 0.0, "rental_uris": {"ios": "https://dc.lft.to/lastmile_qr_scan", "android": "https://dc.lft.to/lastmile_qr_scan"}, "lon": -77.0559915, "bike_id": "bd5abafb38a1376614c7c15b94ccbc13", "type": "electric_scooter", "name": "bd5abafb38a1376614c7c15b94ccbc13"}, {"is_disabled": 0, "is_reserved": 0, "fusion_lat": 0.0, "lat": 38.898261, "fusion_lon": 0.0, "rental_uris": {"ios": "https://dc.lft.to/lastmile_qr_scan", "android": "https://dc.lft.to/lastmile_qr_scan"}, "lon": -77.03347566666666, "bike_id": "91f92debede599fae21bd28257f4db85", "type": "electric_scooter", "name": "91f92debede599fae21bd28257f4db85"}, {"is_disabled": 0, "is_reserved": 0, "fusion_lat": 0.0, "lat": 38.953018666666665, "fusion_lon": 0.0, "rental_uris": {"ios": "https://dc.lft.to/lastmile_qr_scan", "android": "https://dc.lft.to/lastmile_qr_scan"}, "lon": -77.02026883333333, "bike_id": "d7f316289702a8db56aef753f63c6407", "type": "electric_scooter", "name": "d7f316289702a8db56aef753f63c6407"}, {"is_disabled": 0, "is_reserved": 0, "fusion_lat": 0.0, "lat": 38.934653, "fusion_lon": 0.0, "rental_uris": {"ios": "https://dc.lft.to/lastmile_qr_scan", "android": "https://dc.lft.to/lastmile_qr_scan"}, "lon": -77.0239635, "bike_id": "7500dd0b4b7b7e5d393b47388c19d808", "type": "electric_scooter", "name": "7500dd0b4b7b7e5d393b47388c19d808"}, {"is_disabled": 0, "is_reserved": 0, "fusion_lat": 0.0, "lat": 38.899636666666666, "fusion_lon": 0.0, "rental_uris": {"ios": "https://dc.lft.to/lastmile_qr_scan", "android": "https://dc.lft.to/lastmile_qr_scan"}, "lon": -77.01618483333333, "bike_id": "4a5f814e2a67e6100e04ffaef18e776d", "type": "electric_scooter", "name": "4a5f814e2a67e6100e04ffaef18e776d"}, {"is_disabled": 0, "is_reserved": 0, "fusion_lat": 0.0, "lat": 38.93196983333333, "fusion_lon": 0.0, "rental_uris": {"ios": "https://dc.lft.to/lastmile_qr_scan", "android": "https://dc.lft.to/lastmile_qr_scan"}, "lon": -77.02454333333333, "bike_id": "c09c362e802fc32f5a9678b4b19ddb3f", "type": "electric_scooter", "name": "c09c362e802fc32f5a9678b4b19ddb3f"}, {"is_disabled": 0, "is_reserved": 0, "fusion_lat": 0.0, "lat": 38.920785, "fusion_lon": 0.0, "rental_uris": {"ios": "https://dc.lft.to/lastmile_qr_scan", "android": "https://dc.lft.to/lastmile_qr_scan"}, "lon": -77.0045285, "bike_id": "66e272cc223af9abfbb1793533209720", "type": "electric_scooter", "name": "66e272cc223af9abfbb1793533209720"}, {"is_disabled": 0, "is_reserved": 0, "fusion_lat": 0.0, "lat": 38.9052975, "fusion_lon": 0.0, "rental_uris": {"ios": "https://dc.lft.to/lastmile_qr_scan", "android": "https://dc.lft.to/lastmile_qr_scan"}, "lon": -77.06247433333333, "bike_id": "0dc309c3503c1b4433013795ae0f830f", "type": "electric_scooter", "name": "0dc309c3503c1b4433013795ae0f830f"}, {"is_disabled": 0, "is_reserved": 0, "fusion_lat": 0.0, "lat": 38.931247166666665, "fusion_lon": 0.0, "rental_uris": {"ios": "https://dc.lft.to/lastmile_qr_scan", "android": "https://dc.lft.to/lastmile_qr_scan"}, "lon": -77.03090283333333, "bike_id": "1c4dea554824fa90387f2aca96d539e6", "type": "electric_bike", "name": "1c4dea554824fa90387f2aca96d539e6"}, {"is_disabled": 0, "is_reserved": 0, "fusion_lat": 0.0, "lat": 38.8925145, "fusion_lon": 0.0, "rental_uris": {"ios": "https://dc.lft.to/lastmile_qr_scan", "android": "https://dc.lft.to/lastmile_qr_scan"}, "lon": -77.0183105, "bike_id": "78fd7cd1befa5a194cedd24a213d1153", "type": "electric_scooter", "name": "78fd7cd1befa5a194cedd24a213d1153"}, {"is_disabled": 0, "is_reserved": 0, "fusion_lat": 0.0, "lat": 38.955915833333336, "fusion_lon": 0.0, "rental_uris": {"ios": "https://dc.lft.to/lastmile_qr_scan", "android": "https://dc.lft.to/lastmile_qr_scan"}, "lon": -77.02809933333333, "bike_id": "0a7656d704e8cbb7dcccfce65ba8d87c", "type": "electric_scooter", "name": "0a7656d704e8cbb7dcccfce65ba8d87c"}, {"is_disabled": 0, "is_reserved": 0, "fusion_lat": 0.0, "lat": 38.914156166666665, "fusion_lon": 0.0, "rental_uris": {"ios": "https://dc.lft.to/lastmile_qr_scan", "android": "https://dc.lft.to/lastmile_qr_scan"}, "lon": -77.02231566666667, "bike_id": "58d47ad07a3ad8015e713ae4b6c88517", "type": "electric_scooter", "name": "58d47ad07a3ad8015e713ae4b6c88517"}, {"is_disabled": 0, "is_reserved": 0, "fusion_lat": 0.0, "lat": 38.89713616666667, "fusion_lon": 0.0, "rental_uris": {"ios": "https://dc.lft.to/lastmile_qr_scan", "android": "https://dc.lft.to/lastmile_qr_scan"}, "lon": -77.00842333333334, "bike_id": "a205d941b246746a5abf1040b383d0f2", "type": "electric_scooter", "name": "a205d941b246746a5abf1040b383d0f2"}, {"is_disabled": 0, "is_reserved": 0, "fusion_lat": 0.0, "lat": 38.92253183333333, "fusion_lon": 0.0, "rental_uris": {"ios": "https://dc.lft.to/lastmile_qr_scan", "android": "https://dc.lft.to/lastmile_qr_scan"}, "lon": -77.0195115, "bike_id": "236b85129cef337ae835808323a57534", "type": "electric_scooter", "name": "236b85129cef337ae835808323a57534"}, {"is_disabled": 0, "is_reserved": 0, "fusion_lat": 0.0, "lat": 38.91317633333333, "fusion_lon": 0.0, "rental_uris": {"ios": "https://dc.lft.to/lastmile_qr_scan", "android": "https://dc.lft.to/lastmile_qr_scan"}, "lon": -77.03270166666667, "bike_id": "d57f87d9ef63ae1d1c2a14fe5612da91", "type": "electric_scooter", "name": "d57f87d9ef63ae1d1c2a14fe5612da91"}, {"is_disabled": 0, "is_reserved": 0, "fusion_lat": 0.0, "lat": 38.92865833333333, "fusion_lon": 0.0, "rental_uris": {"ios": "https://dc.lft.to/lastmile_qr_scan", "android": "https://dc.lft.to/lastmile_qr_scan"}, "lon": -77.078956, "bike_id": "1b70b4f0fa77fd1edec8ca715c0362f2", "type": "electric_scooter", "name": "1b70b4f0fa77fd1edec8ca715c0362f2"}, {"is_disabled": 0, "is_reserved": 0, "fusion_lat": 0.0, "lat": 38.905472333333336, "fusion_lon": 0.0, "rental_uris": {"ios": "https://dc.lft.to/lastmile_qr_scan", "android": "https://dc.lft.to/lastmile_qr_scan"}, "lon": -77.02979366666666, "bike_id": "7d27bcc79796b40ede8b7827f17925c5", "type": "electric_scooter", "name": "7d27bcc79796b40ede8b7827f17925c5"}, {"is_disabled": 0, "is_reserved": 0, "fusion_lat": 0.0, "lat": 38.9183605, "fusion_lon": 0.0, "rental_uris": {"ios": "https://dc.lft.to/lastmile_qr_scan", "android": "https://dc.lft.to/lastmile_qr_scan"}, "lon": -77.04176, "bike_id": "01c84b7fd2fc82281f142f23b5030034", "type": "electric_scooter", "name": "01c84b7fd2fc82281f142f23b5030034"}, {"is_disabled": 0, "is_reserved": 0, "fusion_lat": 0.0, "lat": 38.909729666666664, "fusion_lon": 0.0, "rental_uris": {"ios": "https://dc.lft.to/lastmile_qr_scan", "android": "https://dc.lft.to/lastmile_qr_scan"}, "lon": -77.04613533333334, "bike_id": "0928bdc6c718a4dfbdccd3bfe10ed265", "type": "electric_scooter", "name": "0928bdc6c718a4dfbdccd3bfe10ed265"}, {"is_disabled": 0, "is_reserved": 0, "fusion_lat": 0.0, "lat": 38.91824483333333, "fusion_lon": 0.0, "rental_uris": {"ios": "https://dc.lft.to/lastmile_qr_scan", "android": "https://dc.lft.to/lastmile_qr_scan"}, "lon": -77.02420883333333, "bike_id": "f46cfb219a55e287fb6fdbf3593da727", "type": "electric_scooter", "name": "f46cfb219a55e287fb6fdbf3593da727"}, {"is_disabled": 0, "is_reserved": 0, "fusion_lat": 0.0, "lat": 38.88363233333333, "fusion_lon": 0.0, "rental_uris": {"ios": "https://dc.lft.to/lastmile_qr_scan", "android": "https://dc.lft.to/lastmile_qr_scan"}, "lon": -76.92788916666666, "bike_id": "63232e0f932ace85d4748583f7aeecf4", "type": "electric_scooter", "name": "63232e0f932ace85d4748583f7aeecf4"}, {"is_disabled": 0, "is_reserved": 0, "fusion_lat": 0.0, "lat": 38.876602166666665, "fusion_lon": 0.0, "rental_uris": {"ios": "https://dc.lft.to/lastmile_qr_scan", "android": "https://dc.lft.to/lastmile_qr_scan"}, "lon": -77.00882733333333, "bike_id": "313b5630a4f5aa24c12f9fba46d12587", "type": "electric_scooter", "name": "313b5630a4f5aa24c12f9fba46d12587"}, {"is_disabled": 0, "is_reserved": 0, "fusion_lat": 0.0, "lat": 38.90803283333333, "fusion_lon": 0.0, "rental_uris": {"ios": "https://dc.lft.to/lastmile_qr_scan", "android": "https://dc.lft.to/lastmile_qr_scan"}, "lon": -77.0418245, "bike_id": "721be3ef9399d9445b9ebfe3f1459777", "type": "electric_scooter", "name": "721be3ef9399d9445b9ebfe3f1459777"}, {"is_disabled": 0, "is_reserved": 0, "fusion_lat": 0.0, "lat": 38.92433783333333, "fusion_lon": 0.0, "rental_uris": {"ios": "https://dc.lft.to/lastmile_qr_scan", "android": "https://dc.lft.to/lastmile_qr_scan"}, "lon": -77.02020983333334, "bike_id": "1cdc1ca525b641b1b24152c3cfb466b9", "type": "electric_scooter", "name": "1cdc1ca525b641b1b24152c3cfb466b9"}, {"is_disabled": 0, "is_reserved": 0, "fusion_lat": 0.0, "lat": 38.89208416666666, "fusion_lon": 0.0, "rental_uris": {"ios": "https://dc.lft.to/lastmile_qr_scan", "android": "https://dc.lft.to/lastmile_qr_scan"}, "lon": -76.92919499999999, "bike_id": "6199fef1ace717e30566a95c5e8e2e98", "type": "electric_scooter", "name": "6199fef1ace717e30566a95c5e8e2e98"}, {"is_disabled": 0, "is_reserved": 0, "fusion_lat": 0.0, "lat": 38.90918216666667, "fusion_lon": 0.0, "rental_uris": {"ios": "https://dc.lft.to/lastmile_qr_scan", "android": "https://dc.lft.to/lastmile_qr_scan"}, "lon": -77.045879, "bike_id": "aed2a988e8388c690d0836ca954b0800", "type": "electric_scooter", "name": "aed2a988e8388c690d0836ca954b0800"}, {"is_disabled": 0, "is_reserved": 0, "fusion_lat": 0.0, "lat": 38.89636983333333, "fusion_lon": 0.0, "rental_uris": {"ios": "https://dc.lft.to/lastmile_qr_scan", "android": "https://dc.lft.to/lastmile_qr_scan"}, "lon": -77.0075425, "bike_id": "e424c665cd2075b2322192163d675ef9", "type": "electric_scooter", "name": "e424c665cd2075b2322192163d675ef9"}, {"is_disabled": 0, "is_reserved": 0, "fusion_lat": 0.0, "lat": 38.89968016666667, "fusion_lon": 0.0, "rental_uris": {"ios": "https://dc.lft.to/lastmile_qr_scan", "android": "https://dc.lft.to/lastmile_qr_scan"}, "lon": -77.03382216666667, "bike_id": "162f9dfeba468d138a8870109b09e717", "type": "electric_scooter", "name": "162f9dfeba468d138a8870109b09e717"}, {"is_disabled": 0, "is_reserved": 0, "fusion_lat": 0.0, "lat": 38.9025975, "fusion_lon": 0.0, "rental_uris": {"ios": "https://dc.lft.to/lastmile_qr_scan", "android": "https://dc.lft.to/lastmile_qr_scan"}, "lon": -77.01716716666667, "bike_id": "a8e93fbd444717fe3ae81454066ecb1a", "type": "electric_scooter", "name": "a8e93fbd444717fe3ae81454066ecb1a"}, {"is_disabled": 0, "is_reserved": 0, "fusion_lat": 0.0, "lat": 38.8583845, "fusion_lon": 0.0, "rental_uris": {"ios": "https://dc.lft.to/lastmile_qr_scan", "android": "https://dc.lft.to/lastmile_qr_scan"}, "lon": -76.988302, "bike_id": "53f19d367807c5de6a20638414211124", "type": "electric_scooter", "name": "53f19d367807c5de6a20638414211124"}, {"is_disabled": 0, "is_reserved": 0, "fusion_lat": 0.0, "lat": 38.924098, "fusion_lon": 0.0, "rental_uris": {"ios": "https://dc.lft.to/lastmile_qr_scan", "android": "https://dc.lft.to/lastmile_qr_scan"}, "lon": -77.02716416666667, "bike_id": "21de1a542382a068e300b83fe161cf20", "type": "electric_scooter", "name": "21de1a542382a068e300b83fe161cf20"}, {"is_disabled": 0, "is_reserved": 0, "fusion_lat": 0.0, "lat": 38.8578525, "fusion_lon": 0.0, "rental_uris": {"ios": "https://dc.lft.to/lastmile_qr_scan", "android": "https://dc.lft.to/lastmile_qr_scan"}, "lon": -76.98761466666667, "bike_id": "49275fa7df095a4588437fc17b80a82f", "type": "electric_bike", "name": "49275fa7df095a4588437fc17b80a82f"}, {"is_disabled": 0, "is_reserved": 0, "fusion_lat": 0.0, "lat": 38.923238, "fusion_lon": 0.0, "rental_uris": {"ios": "https://dc.lft.to/lastmile_qr_scan", "android": "https://dc.lft.to/lastmile_qr_scan"}, "lon": -77.028, "bike_id": "7357a14f438271057c5fc18b66fa907e", "type": "electric_scooter", "name": "7357a14f438271057c5fc18b66fa907e"}, {"is_disabled": 0, "is_reserved": 0, "fusion_lat": 0.0, "lat": 38.897211166666665, "fusion_lon": 0.0, "rental_uris": {"ios": "https://dc.lft.to/lastmile_qr_scan", "android": "https://dc.lft.to/lastmile_qr_scan"}, "lon": -77.0273435, "bike_id": "6d6d930f6d5c2fab7511a2ab9f1493e9", "type": "electric_scooter", "name": "6d6d930f6d5c2fab7511a2ab9f1493e9"}, {"is_disabled": 0, "is_reserved": 0, "fusion_lat": 0.0, "lat": 38.91402016666667, "fusion_lon": 0.0, "rental_uris": {"ios": "https://dc.lft.to/lastmile_qr_scan", "android": "https://dc.lft.to/lastmile_qr_scan"}, "lon": -77.04579083333333, "bike_id": "ee9453abee826ac7910dedcf0d8a800b", "type": "electric_scooter", "name": "ee9453abee826ac7910dedcf0d8a800b"}, {"is_disabled": 0, "is_reserved": 0, "fusion_lat": 0.0, "lat": 38.9079435, "fusion_lon": 0.0, "rental_uris": {"ios": "https://dc.lft.to/lastmile_qr_scan", "android": "https://dc.lft.to/lastmile_qr_scan"}, "lon": -77.03192816666666, "bike_id": "755f8ae9a6c48a55afe4c8d5c635f9fe", "type": "electric_scooter", "name": "755f8ae9a6c48a55afe4c8d5c635f9fe"}, {"is_disabled": 0, "is_reserved": 0, "fusion_lat": 0.0, "lat": 38.93054033333333, "fusion_lon": 0.0, "rental_uris": {"ios": "https://dc.lft.to/lastmile_qr_scan", "android": "https://dc.lft.to/lastmile_qr_scan"}, "lon": -77.031871, "bike_id": "f66ed89aec0531c78bf9ccd92afffb0b", "type": "electric_scooter", "name": "f66ed89aec0531c78bf9ccd92afffb0b"}, {"is_disabled": 0, "is_reserved": 0, "fusion_lat": 0.0, "lat": 38.89971516666667, "fusion_lon": 0.0, "rental_uris": {"ios": "https://dc.lft.to/lastmile_qr_scan", "android": "https://dc.lft.to/lastmile_qr_scan"}, "lon": -77.01608116666667, "bike_id": "6fd905f47bd29620a1cefd812158b63a", "type": "electric_scooter", "name": "6fd905f47bd29620a1cefd812158b63a"}, {"is_disabled": 0, "is_reserved": 0, "fusion_lat": 0.0, "lat": 38.932092833333336, "fusion_lon": 0.0, "rental_uris": {"ios": "https://dc.lft.to/lastmile_qr_scan", "android": "https://dc.lft.to/lastmile_qr_scan"}, "lon": -76.99514733333334, "bike_id": "6167b8395d5ca0d7acc4efb49dbd8bb1", "type": "electric_bike", "name": "6167b8395d5ca0d7acc4efb49dbd8bb1"}, {"is_disabled": 0, "is_reserved": 0, "fusion_lat": 0.0, "lat": 39.02622783333333, "fusion_lon": 0.0, "rental_uris": {"ios": "https://dc.lft.to/lastmile_qr_scan", "android": "https://dc.lft.to/lastmile_qr_scan"}, "lon": -77.038783, "bike_id": "715f36367a56052ffc035d1639c95965", "type": "electric_bike", "name": "715f36367a56052ffc035d1639c95965"}, {"is_disabled": 0, "is_reserved": 0, "fusion_lat": 0.0, "lat": 38.917686, "fusion_lon": 0.0, "rental_uris": {"ios": "https://dc.lft.to/lastmile_qr_scan", "android": "https://dc.lft.to/lastmile_qr_scan"}, "lon": -77.0230405, "bike_id": "85de5265d2e56c6cf5a1ec7f3a0e5cf4", "type": "electric_scooter", "name": "85de5265d2e56c6cf5a1ec7f3a0e5cf4"}, {"is_disabled": 0, "is_reserved": 0, "fusion_lat": 0.0, "lat": 38.8580025, "fusion_lon": 0.0, "rental_uris": {"ios": "https://dc.lft.to/lastmile_qr_scan", "android": "https://dc.lft.to/lastmile_qr_scan"}, "lon": -76.98749583333333, "bike_id": "7565dd6fdeb2cfc3d977a5508fb77d93", "type": "electric_bike", "name": "7565dd6fdeb2cfc3d977a5508fb77d93"}, {"is_disabled": 0, "is_reserved": 0, "fusion_lat": 0.0, "lat": 38.926831166666666, "fusion_lon": 0.0, "rental_uris": {"ios": "https://dc.lft.to/lastmile_qr_scan", "android": "https://dc.lft.to/lastmile_qr_scan"}, "lon": -77.0085735, "bike_id": "b98bc23c15a50a8525456ec92af38cf5", "type": "electric_scooter", "name": "b98bc23c15a50a8525456ec92af38cf5"}, {"is_disabled": 0, "is_reserved": 0, "fusion_lat": 0.0, "lat": 38.8972095, "fusion_lon": 0.0, "rental_uris": {"ios": "https://dc.lft.to/lastmile_qr_scan", "android": "https://dc.lft.to/lastmile_qr_scan"}, "lon": -77.021663, "bike_id": "1ebeb4f7204407ba2ec75a66881870f9", "type": "electric_scooter", "name": "1ebeb4f7204407ba2ec75a66881870f9"}, {"is_disabled": 0, "is_reserved": 0, "fusion_lat": 0.0, "lat": 38.926191333333335, "fusion_lon": 0.0, "rental_uris": {"ios": "https://dc.lft.to/lastmile_qr_scan", "android": "https://dc.lft.to/lastmile_qr_scan"}, "lon": -76.9905685, "bike_id": "cb848cb5b7acefd59c9ba31b84dfc398", "type": "electric_scooter", "name": "cb848cb5b7acefd59c9ba31b84dfc398"}, {"is_disabled": 0, "is_reserved": 0, "fusion_lat": 0.0, "lat": 38.9232805, "fusion_lon": 0.0, "rental_uris": {"ios": "https://dc.lft.to/lastmile_qr_scan", "android": "https://dc.lft.to/lastmile_qr_scan"}, "lon": -77.03626066666666, "bike_id": "bdd454d27ccf7bb34554f784676a2bb4", "type": "electric_scooter", "name": "bdd454d27ccf7bb34554f784676a2bb4"}, {"is_disabled": 0, "is_reserved": 0, "fusion_lat": 0.0, "lat": 38.89223883333333, "fusion_lon": 0.0, "rental_uris": {"ios": "https://dc.lft.to/lastmile_qr_scan", "android": "https://dc.lft.to/lastmile_qr_scan"}, "lon": -77.0450545, "bike_id": "47a74d680d9142899320503438a41e41", "type": "electric_scooter", "name": "47a74d680d9142899320503438a41e41"}, {"is_disabled": 0, "is_reserved": 0, "fusion_lat": 0.0, "lat": 38.93700166666667, "fusion_lon": 0.0, "rental_uris": {"ios": "https://dc.lft.to/lastmile_qr_scan", "android": "https://dc.lft.to/lastmile_qr_scan"}, "lon": -77.05601366666667, "bike_id": "15d87abb7de670ab8e3aa167a2b08451", "type": "electric_scooter", "name": "15d87abb7de670ab8e3aa167a2b08451"}, {"is_disabled": 0, "is_reserved": 0, "fusion_lat": 0.0, "lat": 38.923617166666666, "fusion_lon": 0.0, "rental_uris": {"ios": "https://dc.lft.to/lastmile_qr_scan", "android": "https://dc.lft.to/lastmile_qr_scan"}, "lon": -77.0731705, "bike_id": "bbb745115fa579a46772074e23268f5a", "type": "electric_scooter", "name": "bbb745115fa579a46772074e23268f5a"}, {"is_disabled": 0, "is_reserved": 0, "fusion_lat": 0.0, "lat": 38.926558, "fusion_lon": 0.0, "rental_uris": {"ios": "https://dc.lft.to/lastmile_qr_scan", "android": "https://dc.lft.to/lastmile_qr_scan"}, "lon": -77.02446316666666, "bike_id": "2972241dbc61602a97af6aa4feb8cedd", "type": "electric_scooter", "name": "2972241dbc61602a97af6aa4feb8cedd"}, {"is_disabled": 0, "is_reserved": 0, "fusion_lat": 0.0, "lat": 38.92398516666667, "fusion_lon": 0.0, "rental_uris": {"ios": "https://dc.lft.to/lastmile_qr_scan", "android": "https://dc.lft.to/lastmile_qr_scan"}, "lon": -76.99386566666666, "bike_id": "6fbe140ac4a792880a6b0767edd49a83", "type": "electric_scooter", "name": "6fbe140ac4a792880a6b0767edd49a83"}, {"is_disabled": 0, "is_reserved": 0, "fusion_lat": 0.0, "lat": 38.92658733333333, "fusion_lon": 0.0, "rental_uris": {"ios": "https://dc.lft.to/lastmile_qr_scan", "android": "https://dc.lft.to/lastmile_qr_scan"}, "lon": -77.02425283333334, "bike_id": "bf27f3e9505d5f70c48b010360d488c8", "type": "electric_scooter", "name": "bf27f3e9505d5f70c48b010360d488c8"}, {"is_disabled": 0, "is_reserved": 0, "fusion_lat": 0.0, "lat": 38.9312315, "fusion_lon": 0.0, "rental_uris": {"ios": "https://dc.lft.to/lastmile_qr_scan", "android": "https://dc.lft.to/lastmile_qr_scan"}, "lon": -77.02067033333333, "bike_id": "3452589aa4c73ad7502c2e525f0b30a2", "type": "electric_scooter", "name": "3452589aa4c73ad7502c2e525f0b30a2"}, {"is_disabled": 0, "is_reserved": 0, "fusion_lat": 0.0, "lat": 38.899913166666664, "fusion_lon": 0.0, "rental_uris": {"ios": "https://dc.lft.to/lastmile_qr_scan", "android": "https://dc.lft.to/lastmile_qr_scan"}, "lon": -77.01013583333334, "bike_id": "268d553b0168270914a1b4917ba07d08", "type": "electric_scooter", "name": "268d553b0168270914a1b4917ba07d08"}, {"is_disabled": 0, "is_reserved": 0, "fusion_lat": 0.0, "lat": 38.907991, "fusion_lon": 0.0, "rental_uris": {"ios": "https://dc.lft.to/lastmile_qr_scan", "android": "https://dc.lft.to/lastmile_qr_scan"}, "lon": -77.04991033333333, "bike_id": "f0930bcef80737e12a44dfc38c823200", "type": "electric_scooter", "name": "f0930bcef80737e12a44dfc38c823200"}, {"is_disabled": 0, "is_reserved": 0, "fusion_lat": 0.0, "lat": 38.9050995, "fusion_lon": 0.0, "rental_uris": {"ios": "https://dc.lft.to/lastmile_qr_scan", "android": "https://dc.lft.to/lastmile_qr_scan"}, "lon": -76.95201083333333, "bike_id": "d064d2fffc7965a2046889f3520ee7fe", "type": "electric_scooter", "name": "d064d2fffc7965a2046889f3520ee7fe"}, {"is_disabled": 0, "is_reserved": 0, "fusion_lat": 0.0, "lat": 38.9148695, "fusion_lon": 0.0, "rental_uris": {"ios": "https://dc.lft.to/lastmile_qr_scan", "android": "https://dc.lft.to/lastmile_qr_scan"}, "lon": -77.02187833333333, "bike_id": "ead4eabea2f6713bb08823aaf8c66b80", "type": "electric_scooter", "name": "ead4eabea2f6713bb08823aaf8c66b80"}, {"is_disabled": 0, "is_reserved": 0, "fusion_lat": 0.0, "lat": 38.87641633333333, "fusion_lon": 0.0, "rental_uris": {"ios": "https://dc.lft.to/lastmile_qr_scan", "android": "https://dc.lft.to/lastmile_qr_scan"}, "lon": -77.01475916666666, "bike_id": "5bd4f15f306c2b7623374bf43f306a96", "type": "electric_scooter", "name": "5bd4f15f306c2b7623374bf43f306a96"}, {"is_disabled": 0, "is_reserved": 0, "fusion_lat": 0.0, "lat": 38.89607083333333, "fusion_lon": 0.0, "rental_uris": {"ios": "https://dc.lft.to/lastmile_qr_scan", "android": "https://dc.lft.to/lastmile_qr_scan"}, "lon": -77.04505333333333, "bike_id": "d3945d1d73717c2f7c6cd5bb2578b599", "type": "electric_scooter", "name": "d3945d1d73717c2f7c6cd5bb2578b599"}, {"is_disabled": 0, "is_reserved": 0, "fusion_lat": 0.0, "lat": 38.88240916666667, "fusion_lon": 0.0, "rental_uris": {"ios": "https://dc.lft.to/lastmile_qr_scan", "android": "https://dc.lft.to/lastmile_qr_scan"}, "lon": -77.00925383333333, "bike_id": "2c874cee6683a5a625ee74e3a898a511", "type": "electric_scooter", "name": "2c874cee6683a5a625ee74e3a898a511"}, {"is_disabled": 0, "is_reserved": 0, "fusion_lat": 0.0, "lat": 38.885454333333335, "fusion_lon": 0.0, "rental_uris": {"ios": "https://dc.lft.to/lastmile_qr_scan", "android": "https://dc.lft.to/lastmile_qr_scan"}, "lon": -76.959753, "bike_id": "67d571f924303507c3a3ffe74b3673ae", "type": "electric_scooter", "name": "67d571f924303507c3a3ffe74b3673ae"}, {"is_disabled": 0, "is_reserved": 0, "fusion_lat": 0.0, "lat": 38.918045166666666, "fusion_lon": 0.0, "rental_uris": {"ios": "https://dc.lft.to/lastmile_qr_scan", "android": "https://dc.lft.to/lastmile_qr_scan"}, "lon": -77.02496316666667, "bike_id": "fb71caff974928a4d0a4ab1cc0aa7c63", "type": "electric_scooter", "name": "fb71caff974928a4d0a4ab1cc0aa7c63"}, {"is_disabled": 0, "is_reserved": 0, "fusion_lat": 0.0, "lat": 38.89668316666667, "fusion_lon": 0.0, "rental_uris": {"ios": "https://dc.lft.to/lastmile_qr_scan", "android": "https://dc.lft.to/lastmile_qr_scan"}, "lon": -76.93211783333334, "bike_id": "40ac591ebbc74d318783eeccd08b8c28", "type": "electric_scooter", "name": "40ac591ebbc74d318783eeccd08b8c28"}, {"is_disabled": 0, "is_reserved": 0, "fusion_lat": 0.0, "lat": 38.8601175, "fusion_lon": 0.0, "rental_uris": {"ios": "https://dc.lft.to/lastmile_qr_scan", "android": "https://dc.lft.to/lastmile_qr_scan"}, "lon": -77.065311, "bike_id": "0a0caf027efa39a572cd420602bdaa5a", "type": "electric_bike", "name": "0a0caf027efa39a572cd420602bdaa5a"}, {"is_disabled": 0, "is_reserved": 0, "fusion_lat": 0.0, "lat": 38.93536133333333, "fusion_lon": 0.0, "rental_uris": {"ios": "https://dc.lft.to/lastmile_qr_scan", "android": "https://dc.lft.to/lastmile_qr_scan"}, "lon": -77.0235005, "bike_id": "cbefca6e6e74193d44cf7a9dd2339224", "type": "electric_scooter", "name": "cbefca6e6e74193d44cf7a9dd2339224"}, {"is_disabled": 0, "is_reserved": 0, "fusion_lat": 0.0, "lat": 38.926605333333335, "fusion_lon": 0.0, "rental_uris": {"ios": "https://dc.lft.to/lastmile_qr_scan", "android": "https://dc.lft.to/lastmile_qr_scan"}, "lon": -77.05198233333333, "bike_id": "6f42ca20dea7f5823243c8af4b4986f7", "type": "electric_scooter", "name": "6f42ca20dea7f5823243c8af4b4986f7"}, {"is_disabled": 0, "is_reserved": 0, "fusion_lat": 0.0, "lat": 38.89222266666667, "fusion_lon": 0.0, "rental_uris": {"ios": "https://dc.lft.to/lastmile_qr_scan", "android": "https://dc.lft.to/lastmile_qr_scan"}, "lon": -77.02839066666667, "bike_id": "1a7011017ad3633f33538b076575cdfe", "type": "electric_scooter", "name": "1a7011017ad3633f33538b076575cdfe"}, {"is_disabled": 0, "is_reserved": 0, "fusion_lat": 0.0, "lat": 38.9523895, "fusion_lon": 0.0, "rental_uris": {"ios": "https://dc.lft.to/lastmile_qr_scan", "android": "https://dc.lft.to/lastmile_qr_scan"}, "lon": -76.97953716666666, "bike_id": "afcd014987a6e3b7fdffbb57abb15189", "type": "electric_bike", "name": "afcd014987a6e3b7fdffbb57abb15189"}, {"is_disabled": 0, "is_reserved": 0, "fusion_lat": 0.0, "lat": 38.90638466666667, "fusion_lon": 0.0, "rental_uris": {"ios": "https://dc.lft.to/lastmile_qr_scan", "android": "https://dc.lft.to/lastmile_qr_scan"}, "lon": -77.06906566666666, "bike_id": "1928906f83033e20af4c515240e2209d", "type": "electric_scooter", "name": "1928906f83033e20af4c515240e2209d"}, {"is_disabled": 0, "is_reserved": 0, "fusion_lat": 0.0, "lat": 38.89786466666666, "fusion_lon": 0.0, "rental_uris": {"ios": "https://dc.lft.to/lastmile_qr_scan", "android": "https://dc.lft.to/lastmile_qr_scan"}, "lon": -77.00739966666667, "bike_id": "1713c23bfbde49125c80ec1eb1f9fe7f", "type": "electric_scooter", "name": "1713c23bfbde49125c80ec1eb1f9fe7f"}, {"is_disabled": 0, "is_reserved": 0, "fusion_lat": 0.0, "lat": 38.89613216666667, "fusion_lon": 0.0, "rental_uris": {"ios": "https://dc.lft.to/lastmile_qr_scan", "android": "https://dc.lft.to/lastmile_qr_scan"}, "lon": -77.03169316666667, "bike_id": "84f7e8a392cae677eddacf3dfb4bc3d6", "type": "electric_scooter", "name": "84f7e8a392cae677eddacf3dfb4bc3d6"}, {"is_disabled": 0, "is_reserved": 0, "fusion_lat": 0.0, "lat": 38.90530716666667, "fusion_lon": 0.0, "rental_uris": {"ios": "https://dc.lft.to/lastmile_qr_scan", "android": "https://dc.lft.to/lastmile_qr_scan"}, "lon": -77.06534083333334, "bike_id": "58355fc17c7e4e4832a88d76ec631a08", "type": "electric_scooter", "name": "58355fc17c7e4e4832a88d76ec631a08"}, {"is_disabled": 0, "is_reserved": 0, "fusion_lat": 0.0, "lat": 38.91670083333333, "fusion_lon": 0.0, "rental_uris": {"ios": "https://dc.lft.to/lastmile_qr_scan", "android": "https://dc.lft.to/lastmile_qr_scan"}, "lon": -77.046166, "bike_id": "7e21e2292ff063638fe3401c89e65942", "type": "electric_scooter", "name": "7e21e2292ff063638fe3401c89e65942"}, {"is_disabled": 0, "is_reserved": 0, "fusion_lat": 0.0, "lat": 38.91263433333334, "fusion_lon": 0.0, "rental_uris": {"ios": "https://dc.lft.to/lastmile_qr_scan", "android": "https://dc.lft.to/lastmile_qr_scan"}, "lon": -77.03141933333333, "bike_id": "dfb103019f44fa1db4253d6632f4b39a", "type": "electric_scooter", "name": "dfb103019f44fa1db4253d6632f4b39a"}, {"is_disabled": 0, "is_reserved": 0, "fusion_lat": 0.0, "lat": 38.9126825, "fusion_lon": 0.0, "rental_uris": {"ios": "https://dc.lft.to/lastmile_qr_scan", "android": "https://dc.lft.to/lastmile_qr_scan"}, "lon": -77.02262883333333, "bike_id": "cf652d6e9417774b7cdc761e208a62a3", "type": "electric_scooter", "name": "cf652d6e9417774b7cdc761e208a62a3"}, {"is_disabled": 0, "is_reserved": 0, "fusion_lat": 0.0, "lat": 38.95779533333334, "fusion_lon": 0.0, "rental_uris": {"ios": "https://dc.lft.to/lastmile_qr_scan", "android": "https://dc.lft.to/lastmile_qr_scan"}, "lon": -77.02460783333333, "bike_id": "79099f0f443ae78a67c3acf9af9be8e9", "type": "electric_scooter", "name": "79099f0f443ae78a67c3acf9af9be8e9"}, {"is_disabled": 0, "is_reserved": 0, "fusion_lat": 0.0, "lat": 38.90553466666667, "fusion_lon": 0.0, "rental_uris": {"ios": "https://dc.lft.to/lastmile_qr_scan", "android": "https://dc.lft.to/lastmile_qr_scan"}, "lon": -77.00605466666667, "bike_id": "2d71eef0d0e83bac05a44471bcd2b332", "type": "electric_scooter", "name": "2d71eef0d0e83bac05a44471bcd2b332"}, {"is_disabled": 0, "is_reserved": 0, "fusion_lat": 0.0, "lat": 38.9233035, "fusion_lon": 0.0, "rental_uris": {"ios": "https://dc.lft.to/lastmile_qr_scan", "android": "https://dc.lft.to/lastmile_qr_scan"}, "lon": -77.03623416666667, "bike_id": "d579bf1baefde9c3e66a84b89c9ce91f", "type": "electric_scooter", "name": "d579bf1baefde9c3e66a84b89c9ce91f"}, {"is_disabled": 0, "is_reserved": 0, "fusion_lat": 0.0, "lat": 38.8952025, "fusion_lon": 0.0, "rental_uris": {"ios": "https://dc.lft.to/lastmile_qr_scan", "android": "https://dc.lft.to/lastmile_qr_scan"}, "lon": -77.023014, "bike_id": "03ee3659893f8a40666d6440440bd382", "type": "electric_scooter", "name": "03ee3659893f8a40666d6440440bd382"}, {"is_disabled": 0, "is_reserved": 0, "fusion_lat": 0.0, "lat": 38.9155785, "fusion_lon": 0.0, "rental_uris": {"ios": "https://dc.lft.to/lastmile_qr_scan", "android": "https://dc.lft.to/lastmile_qr_scan"}, "lon": -77.02051133333333, "bike_id": "f91c819a6b85bc2ca02dda4c00c15be8", "type": "electric_scooter", "name": "f91c819a6b85bc2ca02dda4c00c15be8"}, {"is_disabled": 0, "is_reserved": 0, "fusion_lat": 0.0, "lat": 38.82032383333333, "fusion_lon": 0.0, "rental_uris": {"ios": "https://dc.lft.to/lastmile_qr_scan", "android": "https://dc.lft.to/lastmile_qr_scan"}, "lon": -77.05452516666666, "bike_id": "2b73a4fecdcb76980d0f613420162722", "type": "electric_bike", "name": "2b73a4fecdcb76980d0f613420162722"}, {"is_disabled": 0, "is_reserved": 0, "fusion_lat": 0.0, "lat": 38.89645433333333, "fusion_lon": 0.0, "rental_uris": {"ios": "https://dc.lft.to/lastmile_qr_scan", "android": "https://dc.lft.to/lastmile_qr_scan"}, "lon": -77.02582683333333, "bike_id": "06f6d0f12457e91f95c89958213e39fb", "type": "electric_scooter", "name": "06f6d0f12457e91f95c89958213e39fb"}, {"is_disabled": 0, "is_reserved": 0, "fusion_lat": 0.0, "lat": 38.9053275, "fusion_lon": 0.0, "rental_uris": {"ios": "https://dc.lft.to/lastmile_qr_scan", "android": "https://dc.lft.to/lastmile_qr_scan"}, "lon": -77.06527466666667, "bike_id": "71edd64819274b138871ce75bc8fd3d3", "type": "electric_scooter", "name": "71edd64819274b138871ce75bc8fd3d3"}, {"is_disabled": 0, "is_reserved": 0, "fusion_lat": 0.0, "lat": 38.909573, "fusion_lon": 0.0, "rental_uris": {"ios": "https://dc.lft.to/lastmile_qr_scan", "android": "https://dc.lft.to/lastmile_qr_scan"}, "lon": -77.0492725, "bike_id": "c608e8aa4f9a16d270fd04ac63110aaf", "type": "electric_scooter", "name": "c608e8aa4f9a16d270fd04ac63110aaf"}, {"is_disabled": 0, "is_reserved": 0, "fusion_lat": 0.0, "lat": 38.868919, "fusion_lon": 0.0, "rental_uris": {"ios": "https://dc.lft.to/lastmile_qr_scan", "android": "https://dc.lft.to/lastmile_qr_scan"}, "lon": -76.99001183333333, "bike_id": "34e9f017870d04911c113c8ca6c47630", "type": "electric_scooter", "name": "34e9f017870d04911c113c8ca6c47630"}, {"is_disabled": 0, "is_reserved": 0, "fusion_lat": 0.0, "lat": 38.880561166666666, "fusion_lon": 0.0, "rental_uris": {"ios": "https://dc.lft.to/lastmile_qr_scan", "android": "https://dc.lft.to/lastmile_qr_scan"}, "lon": -77.01320516666667, "bike_id": "a11d7c1566b9b61d322d94279812d8e7", "type": "electric_scooter", "name": "a11d7c1566b9b61d322d94279812d8e7"}, {"is_disabled": 0, "is_reserved": 0, "fusion_lat": 0.0, "lat": 38.9101915, "fusion_lon": 0.0, "rental_uris": {"ios": "https://dc.lft.to/lastmile_qr_scan", "android": "https://dc.lft.to/lastmile_qr_scan"}, "lon": -77.0319135, "bike_id": "bacd7b23e97869f47744e864f9fc7dfc", "type": "electric_scooter", "name": "bacd7b23e97869f47744e864f9fc7dfc"}, {"is_disabled": 0, "is_reserved": 0, "fusion_lat": 0.0, "lat": 38.896060166666665, "fusion_lon": 0.0, "rental_uris": {"ios": "https://dc.lft.to/lastmile_qr_scan", "android": "https://dc.lft.to/lastmile_qr_scan"}, "lon": -76.98319983333333, "bike_id": "4b53bbc2a6bcf5a6a97e635301c9b9a1", "type": "electric_scooter", "name": "4b53bbc2a6bcf5a6a97e635301c9b9a1"}, {"is_disabled": 0, "is_reserved": 0, "fusion_lat": 0.0, "lat": 38.915706166666666, "fusion_lon": 0.0, "rental_uris": {"ios": "https://dc.lft.to/lastmile_qr_scan", "android": "https://dc.lft.to/lastmile_qr_scan"}, "lon": -77.05036633333333, "bike_id": "698ef23c371eaf174628a5b87ee5294b", "type": "electric_scooter", "name": "698ef23c371eaf174628a5b87ee5294b"}, {"is_disabled": 0, "is_reserved": 0, "fusion_lat": 0.0, "lat": 38.917404166666664, "fusion_lon": 0.0, "rental_uris": {"ios": "https://dc.lft.to/lastmile_qr_scan", "android": "https://dc.lft.to/lastmile_qr_scan"}, "lon": -77.02607, "bike_id": "6a7180d6bd983ed5c32bd1748295d137", "type": "electric_scooter", "name": "6a7180d6bd983ed5c32bd1748295d137"}, {"is_disabled": 0, "is_reserved": 0, "fusion_lat": 0.0, "lat": 38.91267933333334, "fusion_lon": 0.0, "rental_uris": {"ios": "https://dc.lft.to/lastmile_qr_scan", "android": "https://dc.lft.to/lastmile_qr_scan"}, "lon": -77.0471795, "bike_id": "fa33adaaf224ce05d72073de2c17ff13", "type": "electric_scooter", "name": "fa33adaaf224ce05d72073de2c17ff13"}, {"is_disabled": 0, "is_reserved": 0, "fusion_lat": 0.0, "lat": 38.899562333333336, "fusion_lon": 0.0, "rental_uris": {"ios": "https://dc.lft.to/lastmile_qr_scan", "android": "https://dc.lft.to/lastmile_qr_scan"}, "lon": -77.05103383333334, "bike_id": "1a92e09be16c1ff9048784ebf2eead8d", "type": "electric_scooter", "name": "1a92e09be16c1ff9048784ebf2eead8d"}, {"is_disabled": 0, "is_reserved": 0, "fusion_lat": 0.0, "lat": 38.94141583333333, "fusion_lon": 0.0, "rental_uris": {"ios": "https://dc.lft.to/lastmile_qr_scan", "android": "https://dc.lft.to/lastmile_qr_scan"}, "lon": -77.0232805, "bike_id": "f42945d406b07d579269e4dd6629bda8", "type": "electric_scooter", "name": "f42945d406b07d579269e4dd6629bda8"}, {"is_disabled": 0, "is_reserved": 0, "fusion_lat": 0.0, "lat": 38.93794533333333, "fusion_lon": 0.0, "rental_uris": {"ios": "https://dc.lft.to/lastmile_qr_scan", "android": "https://dc.lft.to/lastmile_qr_scan"}, "lon": -77.029808, "bike_id": "c82aed84e8765998d2609b4ffae8b8e7", "type": "electric_scooter", "name": "c82aed84e8765998d2609b4ffae8b8e7"}, {"is_disabled": 0, "is_reserved": 0, "fusion_lat": 0.0, "lat": 38.92650316666667, "fusion_lon": 0.0, "rental_uris": {"ios": "https://dc.lft.to/lastmile_qr_scan", "android": "https://dc.lft.to/lastmile_qr_scan"}, "lon": -77.02428583333334, "bike_id": "a9ece5dfca2eea85ef8c907ee96516e1", "type": "electric_scooter", "name": "a9ece5dfca2eea85ef8c907ee96516e1"}, {"is_disabled": 0, "is_reserved": 0, "fusion_lat": 0.0, "lat": 38.9340525, "fusion_lon": 0.0, "rental_uris": {"ios": "https://dc.lft.to/lastmile_qr_scan", "android": "https://dc.lft.to/lastmile_qr_scan"}, "lon": -77.02049583333333, "bike_id": "fedd784757760bc84929a05851ccd0b7", "type": "electric_scooter", "name": "fedd784757760bc84929a05851ccd0b7"}, {"is_disabled": 0, "is_reserved": 0, "fusion_lat": 0.0, "lat": 38.93118783333333, "fusion_lon": 0.0, "rental_uris": {"ios": "https://dc.lft.to/lastmile_qr_scan", "android": "https://dc.lft.to/lastmile_qr_scan"}, "lon": -77.03458933333333, "bike_id": "d638ff4ba9647888c2bf9fcfe115dbc2", "type": "electric_scooter", "name": "d638ff4ba9647888c2bf9fcfe115dbc2"}, {"is_disabled": 0, "is_reserved": 0, "fusion_lat": 0.0, "lat": 38.928160166666665, "fusion_lon": 0.0, "rental_uris": {"ios": "https://dc.lft.to/lastmile_qr_scan", "android": "https://dc.lft.to/lastmile_qr_scan"}, "lon": -77.04363433333333, "bike_id": "4387cc68ef77a5d6f3ca0fc324810d46", "type": "electric_scooter", "name": "4387cc68ef77a5d6f3ca0fc324810d46"}, {"is_disabled": 0, "is_reserved": 0, "fusion_lat": 0.0, "lat": 38.916162166666666, "fusion_lon": 0.0, "rental_uris": {"ios": "https://dc.lft.to/lastmile_qr_scan", "android": "https://dc.lft.to/lastmile_qr_scan"}, "lon": -77.023132, "bike_id": "559bd2d32bac35d003358bd7b87ad8fb", "type": "electric_bike", "name": "559bd2d32bac35d003358bd7b87ad8fb"}, {"is_disabled": 0, "is_reserved": 0, "fusion_lat": 0.0, "lat": 38.89229783333333, "fusion_lon": 0.0, "rental_uris": {"ios": "https://dc.lft.to/lastmile_qr_scan", "android": "https://dc.lft.to/lastmile_qr_scan"}, "lon": -77.050018, "bike_id": "190ab80d7c582832eb30954f214fe27c", "type": "electric_scooter", "name": "190ab80d7c582832eb30954f214fe27c"}, {"is_disabled": 0, "is_reserved": 0, "fusion_lat": 0.0, "lat": 38.9245015, "fusion_lon": 0.0, "rental_uris": {"ios": "https://dc.lft.to/lastmile_qr_scan", "android": "https://dc.lft.to/lastmile_qr_scan"}, "lon": -77.0389495, "bike_id": "3d46d5bf89998b605192eb47d0308620", "type": "electric_scooter", "name": "3d46d5bf89998b605192eb47d0308620"}, {"is_disabled": 0, "is_reserved": 0, "fusion_lat": 0.0, "lat": 38.883597333333334, "fusion_lon": 0.0, "rental_uris": {"ios": "https://dc.lft.to/lastmile_qr_scan", "android": "https://dc.lft.to/lastmile_qr_scan"}, "lon": -76.95768833333334, "bike_id": "bde14af878efb874880e8c2ba841836e", "type": "electric_scooter", "name": "bde14af878efb874880e8c2ba841836e"}, {"is_disabled": 0, "is_reserved": 0, "fusion_lat": 0.0, "lat": 38.94717083333333, "fusion_lon": 0.0, "rental_uris": {"ios": "https://dc.lft.to/lastmile_qr_scan", "android": "https://dc.lft.to/lastmile_qr_scan"}, "lon": -77.06805716666666, "bike_id": "7e13cf4a2fb9068759f934bc0046263b", "type": "electric_scooter", "name": "7e13cf4a2fb9068759f934bc0046263b"}, {"is_disabled": 0, "is_reserved": 0, "fusion_lat": 0.0, "lat": 38.915192, "fusion_lon": 0.0, "rental_uris": {"ios": "https://dc.lft.to/lastmile_qr_scan", "android": "https://dc.lft.to/lastmile_qr_scan"}, "lon": -77.044907, "bike_id": "89b6cb8b7461ed4c5c9e95f40151ab0e", "type": "electric_scooter", "name": "89b6cb8b7461ed4c5c9e95f40151ab0e"}, {"is_disabled": 0, "is_reserved": 0, "fusion_lat": 0.0, "lat": 38.906963833333336, "fusion_lon": 0.0, "rental_uris": {"ios": "https://dc.lft.to/lastmile_qr_scan", "android": "https://dc.lft.to/lastmile_qr_scan"}, "lon": -76.95256683333334, "bike_id": "ee48ae263a3eddf92bee59afb300f259", "type": "electric_bike", "name": "ee48ae263a3eddf92bee59afb300f259"}, {"is_disabled": 0, "is_reserved": 0, "fusion_lat": 0.0, "lat": 38.89669033333333, "fusion_lon": 0.0, "rental_uris": {"ios": "https://dc.lft.to/lastmile_qr_scan", "android": "https://dc.lft.to/lastmile_qr_scan"}, "lon": -77.0511465, "bike_id": "19a4bd509717a4e59a604f8cc002cd1d", "type": "electric_scooter", "name": "19a4bd509717a4e59a604f8cc002cd1d"}, {"is_disabled": 0, "is_reserved": 0, "fusion_lat": 0.0, "lat": 38.94253966666667, "fusion_lon": 0.0, "rental_uris": {"ios": "https://dc.lft.to/lastmile_qr_scan", "android": "https://dc.lft.to/lastmile_qr_scan"}, "lon": -76.98456416666667, "bike_id": "efc31209f3698364466a7dbfba072f57", "type": "electric_scooter", "name": "efc31209f3698364466a7dbfba072f57"}, {"is_disabled": 0, "is_reserved": 0, "fusion_lat": 0.0, "lat": 38.906513333333336, "fusion_lon": 0.0, "rental_uris": {"ios": "https://dc.lft.to/lastmile_qr_scan", "android": "https://dc.lft.to/lastmile_qr_scan"}, "lon": -76.97943783333334, "bike_id": "6232202663711abdb6d9bafc92d1a48a", "type": "electric_scooter", "name": "6232202663711abdb6d9bafc92d1a48a"}, {"is_disabled": 0, "is_reserved": 0, "fusion_lat": 0.0, "lat": 38.93060833333333, "fusion_lon": 0.0, "rental_uris": {"ios": "https://dc.lft.to/lastmile_qr_scan", "android": "https://dc.lft.to/lastmile_qr_scan"}, "lon": -77.02322, "bike_id": "d51f96a0e23dc9facc04ddd73d2c8076", "type": "electric_scooter", "name": "d51f96a0e23dc9facc04ddd73d2c8076"}, {"is_disabled": 0, "is_reserved": 0, "fusion_lat": 0.0, "lat": 38.916556, "fusion_lon": 0.0, "rental_uris": {"ios": "https://dc.lft.to/lastmile_qr_scan", "android": "https://dc.lft.to/lastmile_qr_scan"}, "lon": -77.02390383333334, "bike_id": "9bbccf0622392a842bc3ab1c0b4bcad9", "type": "electric_scooter", "name": "9bbccf0622392a842bc3ab1c0b4bcad9"}, {"is_disabled": 0, "is_reserved": 0, "fusion_lat": 0.0, "lat": 38.9280885, "fusion_lon": 0.0, "rental_uris": {"ios": "https://dc.lft.to/lastmile_qr_scan", "android": "https://dc.lft.to/lastmile_qr_scan"}, "lon": -77.02300316666667, "bike_id": "9a19a077c808dedc0d4f99296e325343", "type": "electric_scooter", "name": "9a19a077c808dedc0d4f99296e325343"}, {"is_disabled": 0, "is_reserved": 0, "fusion_lat": 0.0, "lat": 38.941785333333335, "fusion_lon": 0.0, "rental_uris": {"ios": "https://dc.lft.to/lastmile_qr_scan", "android": "https://dc.lft.to/lastmile_qr_scan"}, "lon": -77.02537333333333, "bike_id": "c8cf28325af2cf1c09941d29fba62e48", "type": "electric_scooter", "name": "c8cf28325af2cf1c09941d29fba62e48"},