{"data": {"bikes": [{"name": "1896b8faa1f3e751938c54c4dc1e9ace", "fusion_lat": 0.0, "type": "electric_scooter", "lat": 38.89225016666666, "is_reserved": 0, "is_disabled": 0, "fusion_lon": 0.0, "bike_id": "1896b8faa1f3e751938c54c4dc1e9ace", "lon": -77.04642816666667, "rental_uris": {"ios": "https://dc.lft.to/lastmile_qr_scan", "android": "https://dc.lft.to/lastmile_qr_scan"}}, {"name": "30aa46f371fcce3f9820b8ac1933bb1f", "fusion_lat": 0.0, "type": "electric_scooter", "lat": 38.918396666666666, "is_reserved": 0, "is_disabled": 0, "fusion_lon": 0.0, "bike_id": "30aa46f371fcce3f9820b8ac1933bb1f", "lon": -77.02602316666666, "rental_uris": {"ios": "https://dc.lft.to/lastmile_qr_scan", "android": "https://dc.lft.to/lastmile_qr_scan"}}, {"name": "1adbd2826761f14e055820fa8d47c79e", "fusion_lat": 0.0, "type": "electric_bike", "lat": 38.948972833333336, "is_reserved": 0, "is_disabled": 0, "fusion_lon": 0.0, "bike_id": "1adbd2826761f14e055820fa8d47c79e", "lon": -76.96373166666666, "rental_uris": {"ios": "https://dc.lft.to/lastmile_qr_scan", "android": "https://dc.lft.to/lastmile_qr_scan"}}, {"name": "18165fe62e6b7ccf5f6dd5d058070d0b", "fusion_lat": 0.0, "type": "electric_scooter", "lat": 38.903607666666666, "is_reserved": 0, "is_disabled": 0, "fusion_lon": 0.0, "bike_id": "18165fe62e6b7ccf5f6dd5d058070d0b", "lon": -77.01105283333334, "rental_uris": {"ios": "https://dc.lft.to/lastmile_qr_scan", "android": "https://dc.lft.to/lastmile_qr_scan"}}, {"name": "58eaae659beb717cd6ba46b89d4fa59f", "fusion_lat": 0.0, "type": "electric_scooter", "lat": 38.884625, "is_reserved": 0, "is_disabled": 0, "fusion_lon": 0.0, "bike_id": "58eaae659beb717cd6ba46b89d4fa59f", "lon": -77.0152385, "rental_uris": {"ios": "https://dc.lft.to/lastmile_qr_scan", "android": "https://dc.lft.to/lastmile_qr_scan"}}, {"name": "50b7299cfa65bed75ba2b443270a6225", "fusion_lat": 0.0, "type": "electric_scooter", "lat": 38.898781, "is_reserved": 0, "is_disabled": 0, "fusion_lon": 0.0, "bike_id": "50b7299cfa65bed75ba2b443270a6225", "lon": -76.93160033333334, "rental_uris": {"ios": "https://dc.lft.to/lastmile_qr_scan", "android": "https://dc.lft.to/lastmile_qr_scan"}}, {"name": "86ff330e4f3fcb95ae54a7abe5749fde", "fusion_lat": 0.0, "type": "electric_scooter", "lat": 38.87421033333333, "is_reserved": 0, "is_disabled": 0, "fusion_lon": 0.0, "bike_id": "86ff330e4f3fcb95ae54a7abe5749fde", "lon": -76.97177683333334, "rental_uris": {"ios": "https://dc.lft.to/lastmile_qr_scan", "android": "https://dc.lft.to/lastmile_qr_scan"}}, {"name": "2df2d3421939d421ee08db5e36b67fdf", "fusion_lat": 0.0, "type": "electric_scooter", "lat": 38.905114166666664, "is_reserved": 0, "is_disabled": 0, "fusion_lon": 0.0, "bike_id": "2df2d3421939d421ee08db5e36b67fdf", "lon": -77.05460466666666, "rental_uris": {"ios": "https://dc.lft.to/lastmile_qr_scan", "android": "https://dc.lft.to/lastmile_qr_scan"}}, {"name": "d82124f2b08e83361420d7e758b9377c", "fusion_lat": 0.0, "type": "electric_scooter", "lat": 38.9417525, "is_reserved": 0, "is_disabled": 0, "fusion_lon": 0.0, "bike_id": "d82124f2b08e83361420d7e758b9377c", "lon": -77.04130266666667, "rental_uris": {"ios": "https://dc.lft.to/lastmile_qr_scan", "android": "https://dc.lft.to/lastmile_qr_scan"}}, {"name": "4d92c22a0488cef9ae78bd927f115ba6", "fusion_lat": 0.0, "type": "electric_scooter", "lat": 38.91183933333333, "is_reserved": 0, "is_disabled": 0, "fusion_lon": 0.0, "bike_id": "4d92c22a0488cef9ae78bd927f115ba6", "lon": -77.039702, "rental_uris": {"ios": "https://dc.lft.to/lastmile_qr_scan", "android": "https://dc.lft.to/lastmile_qr_scan"}}, {"name": "368937141e6c852bcff48507f741961c", "fusion_lat": 0.0, "type": "electric_scooter", "lat": 38.907151166666665, "is_reserved": 0, "is_disabled": 0, "fusion_lon": 0.0, "bike_id": "368937141e6c852bcff48507f741961c", "lon": -77.02981283333334, "rental_uris": {"ios": "https://dc.lft.to/lastmile_qr_scan", "android": "https://dc.lft.to/lastmile_qr_scan"}}, {"name": "a870aee0cb9281c7079314178dd4c1cc", "fusion_lat": 0.0, "type": "electric_bike", "lat": 38.86383033333333, "is_reserved": 0, "is_disabled": 0, "fusion_lon": 0.0, "bike_id": "a870aee0cb9281c7079314178dd4c1cc", "lon": -76.98996433333333, "rental_uris": {"ios": "https://dc.lft.to/lastmile_qr_scan", "android": "https://dc.lft.to/lastmile_qr_scan"}}, {"name": "4126b9a737422cab75357a782656d0b5", "fusion_lat": 0.0, "type": "electric_scooter", "lat": 38.9148745, "is_reserved": 0, "is_disabled": 0, "fusion_lon": 0.0, "bike_id": "4126b9a737422cab75357a782656d0b5", "lon": -77.03255483333334, "rental_uris": {"ios": "https://dc.lft.to/lastmile_qr_scan", "android": "https://dc.lft.to/lastmile_qr_scan"}}, {"name": "fa018fe4fbc692ae884ea433d7101b83", "fusion_lat": 0.0, "type": "electric_scooter", "lat": 38.91909666666667, "is_reserved": 0, "is_disabled": 0, "fusion_lon": 0.0, "bike_id": "fa018fe4fbc692ae884ea433d7101b83", "lon": -77.02410366666666, "rental_uris": {"ios": "https://dc.lft.to/lastmile_qr_scan", "android": "https://dc.lft.to/lastmile_qr_scan"}}, {"name": "7431e60406ef2e33fb40fc05d0c47333", "fusion_lat": 0.0, "type": "electric_scooter", "lat": 38.8763545, "is_reserved": 0, "is_disabled": 0, "fusion_lon": 0.0, "bike_id": "7431e60406ef2e33fb40fc05d0c47333", "lon": -77.00597516666667, "rental_uris": {"ios": "https://dc.lft.to/lastmile_qr_scan", "android": "https://dc.lft.to/lastmile_qr_scan"}}, {"name": "85bfcd4dd8a4bab7fd87de7679a84355", "fusion_lat": 0.0, "type": "electric_bike", "lat": 38.96438283333333, "is_reserved": 0, "is_disabled": 0, "fusion_lon": 0.0, "bike_id": "85bfcd4dd8a4bab7fd87de7679a84355", "lon": -77.031627, "rental_uris": {"ios": "https://dc.lft.to/lastmile_qr_scan", "android": "https://dc.lft.to/lastmile_qr_scan"}}, {"name": "752785ba5087b78eae00d5cd8fa98043", "fusion_lat": 0.0, "type": "electric_scooter", "lat": 38.92063066666667, "is_reserved": 0, "is_disabled": 0, "fusion_lon": 0.0, "bike_id": "752785ba5087b78eae00d5cd8fa98043", "lon": -76.9780865, "rental_uris": {"ios": "https://dc.lft.to/lastmile_qr_scan", "android": "https://dc.lft.to/lastmile_qr_scan"}}, {"name": "34bc8e51c9c8e9cd49f565df1c3a76fe", "fusion_lat": 0.0, "type": "electric_scooter", "lat": 38.911941, "is_reserved": 0, "is_disabled": 0, "fusion_lon": 0.0, "bike_id": "34bc8e51c9c8e9cd49f565df1c3a76fe", "lon": -77.034392, "rental_uris": {"ios": "https://dc.lft.to/lastmile_qr_scan", "android": "https://dc.lft.to/lastmile_qr_scan"}}, {"name": "121f3f2d54b0d6ac631b84b3da5f2a0c", "fusion_lat": 0.0, "type": "electric_scooter", "lat": 38.910968833333335, "is_reserved": 0, "is_disabled": 0, "fusion_lon": 0.0, "bike_id": "121f3f2d54b0d6ac631b84b3da5f2a0c", "lon": -77.02963933333334, "rental_uris": {"ios": "https://dc.lft.to/lastmile_qr_scan", "android": "https://dc.lft.to/lastmile_qr_scan"}}, {"name": "fa8441464ac73b129a9117731fc22bef", "fusion_lat": 0.0, "type": "electric_scooter", "lat": 38.918546666666664, "is_reserved": 0, "is_disabled": 0, "fusion_lon": 0.0, "bike_id": "fa8441464ac73b129a9117731fc22bef", "lon": -77.02586833333334, "rental_uris": {"ios": "https://dc.lft.to/lastmile_qr_scan", "android": "https://dc.lft.to/lastmile_qr_scan"}}, {"name": "b8e832bef5bb13f23ec48b11f15a9e6e", "fusion_lat": 0.0, "type": "electric_scooter", "lat": 38.8653545, "is_reserved": 0, "is_disabled": 0, "fusion_lon": 0.0, "bike_id": "b8e832bef5bb13f23ec48b11f15a9e6e", "lon": -76.98707566666667, "rental_uris": {"ios": "https://dc.lft.to/lastmile_qr_scan", "android": "https://dc.lft.to/lastmile_qr_scan"}}, {"name": "da2bbc0a2c189ff5dd92c7dc0a7b4337", "fusion_lat": 0.0, "type": "electric_scooter", "lat": 38.924716333333336, "is_reserved": 0, "is_disabled": 0, "fusion_lon": 0.0, "bike_id": "da2bbc0a2c189ff5dd92c7dc0a7b4337", "lon": -77.03535583333333, "rental_uris": {"ios": "https://dc.lft.to/lastmile_qr_scan", "android": "https://dc.lft.to/lastmile_qr_scan"}}, {"name": "622a7821ef3be123a95dbcd281222de7", "fusion_lat": 0.0, "type": "electric_scooter", "lat": 38.91721666666667, "is_reserved": 0, "is_disabled": 0, "fusion_lon": 0.0, "bike_id": "622a7821ef3be123a95dbcd281222de7", "lon": -77.00817616666667, "rental_uris": {"ios": "https://dc.lft.to/lastmile_qr_scan", "android": "https://dc.lft.to/lastmile_qr_scan"}}, {"name": "47920670200f99a78c587cdcaf029d80", "fusion_lat": 0.0, "type": "electric_scooter", "lat": 38.916827, "is_reserved": 0, "is_disabled": 0, "fusion_lon": 0.0, "bike_id": "47920670200f99a78c587cdcaf029d80", "lon": -77.01577516666667, "rental_uris": {"ios": "https://dc.lft.to/lastmile_qr_scan", "android": "https://dc.lft.to/lastmile_qr_scan"}}, {"name": "998e7cb07fb33ae536f09c87ee6f69b7", "fusion_lat": 0.0, "type": "electric_scooter", "lat": 38.9160225, "is_reserved": 0, "is_disabled": 0, "fusion_lon": 0.0, "bike_id": "998e7cb07fb33ae536f09c87ee6f69b7", "lon": -77.02309083333333, "rental_uris": {"ios": "https://dc.lft.to/lastmile_qr_scan", "android": "https://dc.lft.to/lastmile_qr_scan"}}, {"name": "f4f9ea6750b20b984e0c11ddf4e83dd2", "fusion_lat": 0.0, "type": "electric_scooter", "lat": 38.908613333333335, "is_reserved": 0, "is_disabled": 0, "fusion_lon": 0.0, "bike_id": "f4f9ea6750b20b984e0c11ddf4e83dd2", "lon": -77.045934, "rental_uris": {"ios": "https://dc.lft.to/lastmile_qr_scan", "android": "https://dc.lft.to/lastmile_qr_scan"}}, {"name": "b22e1c1c04bb5fea2770d01a43b95e0d", "fusion_lat": 0.0, "type": "electric_scooter", "lat": 38.899428, "is_reserved": 0, "is_disabled": 0, "fusion_lon": 0.0, "bike_id": "b22e1c1c04bb5fea2770d01a43b95e0d", "lon": -76.9949635, "rental_uris": {"ios": "https://dc.lft.to/lastmile_qr_scan", "android": "https://dc.lft.to/lastmile_qr_scan"}}, {"name": "ec69d98f18f1d99f521a8f502ce2682c", "fusion_lat": 0.0, "type": "electric_scooter", "lat": 38.89954766666666, "is_reserved": 0, "is_disabled": 0, "fusion_lon": 0.0, "bike_id": "ec69d98f18f1d99f521a8f502ce2682c", "lon": -77.031878, "rental_uris": {"ios": "https://dc.lft.to/lastmile_qr_scan", "android": "https://dc.lft.to/lastmile_qr_scan"}}, {"name": "7e494382b00d4c9690a5340da35aa55b", "fusion_lat": 0.0, "type": "electric_scooter", "lat": 38.898304, "is_reserved": 0, "is_disabled": 0, "fusion_lon": 0.0, "bike_id": "7e494382b00d4c9690a5340da35aa55b", "lon": -76.9464215, "rental_uris": {"ios": "https://dc.lft.to/lastmile_qr_scan", "android": "https://dc.lft.to/lastmile_qr_scan"}}, {"name": "978673e832b0451cbe3f62542d12a1c8", "fusion_lat": 0.0, "type": "electric_scooter", "lat": 38.91976416666667, "is_reserved": 0, "is_disabled": 0, "fusion_lon": 0.0, "bike_id": "978673e832b0451cbe3f62542d12a1c8", "lon": -77.02497533333333, "rental_uris": {"ios": "https://dc.lft.to/lastmile_qr_scan", "android": "https://dc.lft.to/lastmile_qr_scan"}}, {"name": "5bbfc1136b30eb20daacd0a5a567dbb7", "fusion_lat": 0.0, "type": "electric_scooter", "lat": 38.91701883333333, "is_reserved": 0, "is_disabled": 0, "fusion_lon": 0.0, "bike_id": "5bbfc1136b30eb20daacd0a5a567dbb7", "lon": -77.0285245, "rental_uris": {"ios": "https://dc.lft.to/lastmile_qr_scan", "android": "https://dc.lft.to/lastmile_qr_scan"}}, {"name": "5e52308280982052aee42e9a863d6f98", "fusion_lat": 0.0, "type": "electric_scooter", "lat": 38.862470333333334, "is_reserved": 0, "is_disabled": 0, "fusion_lon": 0.0, "bike_id": "5e52308280982052aee42e9a863d6f98", "lon": -76.995325, "rental_uris": {"ios": "https://dc.lft.to/lastmile_qr_scan", "android": "https://dc.lft.to/lastmile_qr_scan"}}, {"name": "6f4513ffefccb5d915bf3888e9e71412", "fusion_lat": 0.0, "type": "electric_scooter", "lat": 38.91291016666667, "is_reserved": 0, "is_disabled": 0, "fusion_lon": 0.0, "bike_id": "6f4513ffefccb5d915bf3888e9e71412", "lon": -77.0611505, "rental_uris": {"ios": "https://dc.lft.to/lastmile_qr_scan", "android": "https://dc.lft.to/lastmile_qr_scan"}}, {"name": "a6930aa21dac05f3521d2afbac9ccd1f", "fusion_lat": 0.0, "type": "electric_scooter", "lat": 38.904694, "is_reserved": 0, "is_disabled": 0, "fusion_lon": 0.0, "bike_id": "a6930aa21dac05f3521d2afbac9ccd1f", "lon": -77.06006516666666, "rental_uris": {"ios": "https://dc.lft.to/lastmile_qr_scan", "android": "https://dc.lft.to/lastmile_qr_scan"}}, {"name": "d12de60c419ab682003eefac9f6409a6", "fusion_lat": 0.0, "type": "electric_scooter", "lat": 38.9073625, "is_reserved": 0, "is_disabled": 0, "fusion_lon": 0.0, "bike_id": "d12de60c419ab682003eefac9f6409a6", "lon": -77.01066666666667, "rental_uris": {"ios": "https://dc.lft.to/lastmile_qr_scan", "android": "https://dc.lft.to/lastmile_qr_scan"}}, {"name": "58236f86680e404eef9e904122088087", "fusion_lat": 0.0, "type": "electric_scooter", "lat": 38.9014485, "is_reserved": 0, "is_disabled": 0, "fusion_lon": 0.0, "bike_id": "58236f86680e404eef9e904122088087", "lon": -76.97419516666666, "rental_uris": {"ios": "https://dc.lft.to/lastmile_qr_scan", "android": "https://dc.lft.to/lastmile_qr_scan"}}, {"name": "a3a8bcf96eb20411e4d38e2b25a51138", "fusion_lat": 0.0, "type": "electric_scooter", "lat": 38.942487166666666, "is_reserved": 0, "is_disabled": 0, "fusion_lon": 0.0, "bike_id": "a3a8bcf96eb20411e4d38e2b25a51138", "lon": -77.04134783333333, "rental_uris": {"ios": "https://dc.lft.to/lastmile_qr_scan", "android": "https://dc.lft.to/lastmile_qr_scan"}}, {"name": "6dd5fc269e9bdddf3c3c4690fe8ec9f5", "fusion_lat": 0.0, "type": "electric_scooter", "lat": 38.902675333333335, "is_reserved": 0, "is_disabled": 0, "fusion_lon": 0.0, "bike_id": "6dd5fc269e9bdddf3c3c4690fe8ec9f5", "lon": -77.043596, "rental_uris": {"ios": "https://dc.lft.to/lastmile_qr_scan", "android": "https://dc.lft.to/lastmile_qr_scan"}}, {"name": "8326ca930a8887ab98c4fedf7122a547", "fusion_lat": 0.0, "type": "electric_scooter", "lat": 38.937314, "is_reserved": 0, "is_disabled": 0, "fusion_lon": 0.0, "bike_id": "8326ca930a8887ab98c4fedf7122a547", "lon": -77.0327, "rental_uris": {"ios": "https://dc.lft.to/lastmile_qr_scan", "android": "https://dc.lft.to/lastmile_qr_scan"}}, {"name": "82f41047da239e549d668162ef1a077d", "fusion_lat": 0.0, "type": "electric_scooter", "lat": 38.90246666666667, "is_reserved": 0, "is_disabled": 0, "fusion_lon": 0.0, "bike_id": "82f41047da239e549d668162ef1a077d", "lon": -77.02645583333333, "rental_uris": {"ios": "https://dc.lft.to/lastmile_qr_scan", "android": "https://dc.lft.to/lastmile_qr_scan"}}, {"name": "44da670a9e64ed76cb9253da8c96d24d", "fusion_lat": 0.0, "type": "electric_scooter", "lat": 38.93182266666667, "is_reserved": 0, "is_disabled": 0, "fusion_lon": 0.0, "bike_id": "44da670a9e64ed76cb9253da8c96d24d", "lon": -77.03453533333334, "rental_uris": {"ios": "https://dc.lft.to/lastmile_qr_scan", "android": "https://dc.lft.to/lastmile_qr_scan"}}, {"name": "2d3d3790765c73bda5c36cd2df3f6e35", "fusion_lat": 0.0, "type": "electric_scooter", "lat": 38.90737416666666, "is_reserved": 0, "is_disabled": 0, "fusion_lon": 0.0, "bike_id": "2d3d3790765c73bda5c36cd2df3f6e35", "lon": -77.0269085, "rental_uris": {"ios": "https://dc.lft.to/lastmile_qr_scan", "android": "https://dc.lft.to/lastmile_qr_scan"}}, {"name": "a11b959019193ebb6b320c0231d603bd", "fusion_lat": 0.0, "type": "electric_scooter", "lat": 38.9192245, "is_reserved": 0, "is_disabled": 0, "fusion_lon": 0.0, "bike_id": "a11b959019193ebb6b320c0231d603bd", "lon": -77.023671, "rental_uris": {"ios": "https://dc.lft.to/lastmile_qr_scan", "android": "https://dc.lft.to/lastmile_qr_scan"}}, {"name": "1dc3569d3c8049f00172f31bae1887c5", "fusion_lat": 0.0, "type": "electric_scooter", "lat": 38.899718666666665, "is_reserved": 0, "is_disabled": 0, "fusion_lon": 0.0, "bike_id": "1dc3569d3c8049f00172f31bae1887c5", "lon": -77.01936066666667, "rental_uris": {"ios": "https://dc.lft.to/lastmile_qr_scan", "android": "https://dc.lft.to/lastmile_qr_scan"}}, {"name": "2f86e1fcf4e2fb66ba7690f2bcaf36aa", "fusion_lat": 0.0, "type": "electric_scooter", "lat": 38.90564366666667, "is_reserved": 0, "is_disabled": 0, "fusion_lon": 0.0, "bike_id": "2f86e1fcf4e2fb66ba7690f2bcaf36aa", "lon": -77.04662666666667, "rental_uris": {"ios": "https://dc.lft.to/lastmile_qr_scan", "android": "https://dc.lft.to/lastmile_qr_scan"}}, {"name": "0c17fbb0e6e22287abfe9ac238627549", "fusion_lat": 0.0, "type": "electric_scooter", "lat": 38.89240516666667, "is_reserved": 0, "is_disabled": 0, "fusion_lon": 0.0, "bike_id": "0c17fbb0e6e22287abfe9ac238627549", "lon": -77.03382483333333, "rental_uris": {"ios": "https://dc.lft.to/lastmile_qr_scan", "android": "https://dc.lft.to/lastmile_qr_scan"}}, {"name": "af399aae9082bb47bd90f6b6230a0a86", "fusion_lat": 0.0, "type": "electric_scooter", "lat": 38.930973, "is_reserved": 0, "is_disabled": 0, "fusion_lon": 0.0, "bike_id": "af399aae9082bb47bd90f6b6230a0a86", "lon": -77.02512416666667, "rental_uris": {"ios": "https://dc.lft.to/lastmile_qr_scan", "android": "https://dc.lft.to/lastmile_qr_scan"}}, {"name": "1d2f753f45c6339c4e2f9a6e006a09fc", "fusion_lat": 0.0, "type": "electric_scooter", "lat": 38.90514966666667, "is_reserved": 0, "is_disabled": 0, "fusion_lon": 0.0, "bike_id": "1d2f753f45c6339c4e2f9a6e006a09fc", "lon": -77.04573483333333, "rental_uris": {"ios": "https://dc.lft.to/lastmile_qr_scan", "android": "https://dc.lft.to/lastmile_qr_scan"}}, {"name": "8955e6d98dda2392885d4d8c39e7c559", "fusion_lat": 0.0, "type": "electric_scooter", "lat": 38.9180735, "is_reserved": 0, "is_disabled": 0, "fusion_lon": 0.0, "bike_id": "8955e6d98dda2392885d4d8c39e7c559", "lon": -77.04627666666667, "rental_uris": {"ios": "https://dc.lft.to/lastmile_qr_scan", "android": "https://dc.lft.to/lastmile_qr_scan"}}, {"name": "825ef8ea530b8b98a9a1fa2b0a2f6cbb", "fusion_lat": 0.0, "type": "electric_scooter", "lat": 38.921822666666664, "is_reserved": 0, "is_disabled": 0, "fusion_lon": 0.0, "bike_id": "825ef8ea530b8b98a9a1fa2b0a2f6cbb", "lon": -77.0427905, "rental_uris": {"ios": "https://dc.lft.to/lastmile_qr_scan", "android": "https://dc.lft.to/lastmile_qr_scan"}}, {"name": "e2baf636dfb950fa19db5afa800dd5c4", "fusion_lat": 0.0, "type": "electric_scooter", "lat": 38.90956583333333, "is_reserved": 0, "is_disabled": 0, "fusion_lon": 0.0, "bike_id": "e2baf636dfb950fa19db5afa800dd5c4", "lon": -77.04315883333334, "rental_uris": {"ios": "https://dc.lft.to/lastmile_qr_scan", "android": "https://dc.lft.to/lastmile_qr_scan"}}, {"name": "2d32fb110df933c40d918b9a594a7ae1", "fusion_lat": 0.0, "type": "electric_scooter", "lat": 38.931742666666665, "is_reserved": 0, "is_disabled": 0, "fusion_lon": 0.0, "bike_id": "2d32fb110df933c40d918b9a594a7ae1", "lon": -77.05615116666667, "rental_uris": {"ios": "https://dc.lft.to/lastmile_qr_scan", "android": "https://dc.lft.to/lastmile_qr_scan"}}, {"name": "3158f4487d02c1f8623da08a572ab8a0", "fusion_lat": 0.0, "type": "electric_scooter", "lat": 38.877058166666664, "is_reserved": 0, "is_disabled": 0, "fusion_lon": 0.0, "bike_id": "3158f4487d02c1f8623da08a572ab8a0", "lon": -76.993826, "rental_uris": {"ios": "https://dc.lft.to/lastmile_qr_scan", "android": "https://dc.lft.to/lastmile_qr_scan"}}, {"name": "bb2b92cf86de5830b923fb7bc3d678bd", "fusion_lat": 0.0, "type": "electric_scooter", "lat": 38.920652, "is_reserved": 0, "is_disabled": 0, "fusion_lon": 0.0, "bike_id": "bb2b92cf86de5830b923fb7bc3d678bd", "lon": -77.04705516666667, "rental_uris": {"ios": "https://dc.lft.to/lastmile_qr_scan", "android": "https://dc.lft.to/lastmile_qr_scan"}}, {"name": "a42a73b507d395252708079228166d67", "fusion_lat": 0.0, "type": "electric_scooter", "lat": 38.89085083333333, "is_reserved": 0, "is_disabled": 0, "fusion_lon": 0.0, "bike_id": "a42a73b507d395252708079228166d67", "lon": -76.997893, "rental_uris": {"ios": "https://dc.lft.to/lastmile_qr_scan", "android": "https://dc.lft.to/lastmile_qr_scan"}}, {"name": "ef14202ffe2e9e601f5c1087e69a7a90", "fusion_lat": 0.0, "type": "electric_scooter", "lat": 38.8700085, "is_reserved": 0, "is_disabled": 0, "fusion_lon": 0.0, "bike_id": "ef14202ffe2e9e601f5c1087e69a7a90", "lon": -77.01220366666666, "rental_uris": {"ios": "https://dc.lft.to/lastmile_qr_scan", "android": "https://dc.lft.to/lastmile_qr_scan"}}, {"name": "01c312ee7290a7c56dd6550cf885ec69", "fusion_lat": 0.0, "type": "electric_scooter", "lat": 38.9357685, "is_reserved": 0, "is_disabled": 0, "fusion_lon": 0.0, "bike_id": "01c312ee7290a7c56dd6550cf885ec69", "lon": -77.03658366666667, "rental_uris": {"ios": "https://dc.lft.to/lastmile_qr_scan", "android": "https://dc.lft.to/lastmile_qr_scan"}}, {"name": "f91312c0a8b344b7e57823a7a4222973", "fusion_lat": 0.0, "type": "electric_scooter", "lat": 38.9243165, "is_reserved": 0, "is_disabled": 0, "fusion_lon": 0.0, "bike_id": "f91312c0a8b344b7e57823a7a4222973", "lon": -77.04134483333333, "rental_uris": {"ios": "https://dc.lft.to/lastmile_qr_scan", "android": "https://dc.lft.to/lastmile_qr_scan"}}, {"name": "f2e9ca89bc39ed533d93bc134105f29e", "fusion_lat": 0.0, "type": "electric_bike", "lat": 38.96548766666667, "is_reserved": 0, "is_disabled": 0, "fusion_lon": 0.0, "bike_id": "f2e9ca89bc39ed533d93bc134105f29e", "lon": -77.03514733333333, "rental_uris": {"ios": "https://dc.lft.to/lastmile_qr_scan", "android": "https://dc.lft.to/lastmile_qr_scan"}}, {"name": "c4a3a470e11f51736f35b6b61a1fd993", "fusion_lat": 0.0, "type": "electric_bike", "lat": 38.96622333333333, "is_reserved": 0, "is_disabled": 0, "fusion_lon": 0.0, "bike_id": "c4a3a470e11f51736f35b6b61a1fd993", "lon": -76.97668766666666, "rental_uris": {"ios": "https://dc.lft.to/lastmile_qr_scan", "android": "https://dc.lft.to/lastmile_qr_scan"}}, {"name": "c56ea7dc4078c9c372236d9a6208fbd3", "fusion_lat": 0.0, "type": "electric_scooter", "lat": 38.912559, "is_reserved": 0, "is_disabled": 0, "fusion_lon": 0.0, "bike_id": "c56ea7dc4078c9c372236d9a6208fbd3", "lon": -77.02678883333333, "rental_uris": {"ios": "https://dc.lft.to/lastmile_qr_scan", "android": "https://dc.lft.to/lastmile_qr_scan"}}, {"name": "ca338b9739ba208e5e5dd4097c0bed0b", "fusion_lat": 0.0, "type": "electric_scooter", "lat": 38.91257, "is_reserved": 0, "is_disabled": 0, "fusion_lon": 0.0, "bike_id": "ca338b9739ba208e5e5dd4097c0bed0b", "lon": -77.009574, "rental_uris": {"ios": "https://dc.lft.to/lastmile_qr_scan", "android": "https://dc.lft.to/lastmile_qr_scan"}}, {"name": "9bafde2fcf6b748d89bb73357c59c652", "fusion_lat": 0.0, "type": "electric_scooter", "lat": 38.9345265, "is_reserved": 0, "is_disabled": 0, "fusion_lon": 0.0, "bike_id": "9bafde2fcf6b748d89bb73357c59c652", "lon": -77.03095516666667, "rental_uris": {"ios": "https://dc.lft.to/lastmile_qr_scan", "android": "https://dc.lft.to/lastmile_qr_scan"}}, {"name": "31228b85de1c2a1a8b0ea07e9f7524e5", "fusion_lat": 0.0, "type": "electric_scooter", "lat": 38.883623166666666, "is_reserved": 0, "is_disabled": 0, "fusion_lon": 0.0, "bike_id": "31228b85de1c2a1a8b0ea07e9f7524e5", "lon": -77.03171416666666, "rental_uris": {"ios": "https://dc.lft.to/lastmile_qr_scan", "android": "https://dc.lft.to/lastmile_qr_scan"}}, {"name": "d68377e28a32aca4263ad0506424c2db", "fusion_lat": 0.0, "type": "electric_scooter", "lat": 38.90740483333333, "is_reserved": 0, "is_disabled": 0, "fusion_lon": 0.0, "bike_id": "d68377e28a32aca4263ad0506424c2db", "lon": -77.0320075, "rental_uris": {"ios": "https://dc.lft.to/lastmile_qr_scan", "android": "https://dc.lft.to/lastmile_qr_scan"}}, {"name": "cbff376f7217fa1e43653779f9c3e266", "fusion_lat": 0.0, "type": "electric_scooter", "lat": 38.9193285, "is_reserved": 0, "is_disabled": 0, "fusion_lon": 0.0, "bike_id": "cbff376f7217fa1e43653779f9c3e266", "lon": -77.04176416666667, "rental_uris": {"ios": "https://dc.lft.to/lastmile_qr_scan", "android": "https://dc.lft.to/lastmile_qr_scan"}}, {"name": "5724855657b6e826e0ffb0f5757ce354", "fusion_lat": 0.0, "type": "electric_scooter", "lat": 38.90279016666667, "is_reserved": 0, "is_disabled": 0, "fusion_lon": 0.0, "bike_id": "5724855657b6e826e0ffb0f5757ce354", "lon": -77.03650516666667, "rental_uris": {"ios": "https://dc.lft.to/lastmile_qr_scan", "android": "https://dc.lft.to/lastmile_qr_scan"}}, {"name": "6b2bdf3c1df5b3407abbdf979287ca4d", "fusion_lat": 0.0, "type": "electric_scooter", "lat": 38.899642666666665, "is_reserved": 0, "is_disabled": 0, "fusion_lon": 0.0, "bike_id": "6b2bdf3c1df5b3407abbdf979287ca4d", "lon": -77.0160335, "rental_uris": {"ios": "https://dc.lft.to/lastmile_qr_scan", "android": "https://dc.lft.to/lastmile_qr_scan"}}, {"name": "4dc5e1f00c52d35a46507a5986888871", "fusion_lat": 0.0, "type": "electric_bike", "lat": 38.88112433333333, "is_reserved": 0, "is_disabled": 0, "fusion_lon": 0.0, "bike_id": "4dc5e1f00c52d35a46507a5986888871", "lon": -77.01650833333333, "rental_uris": {"ios": "https://dc.lft.to/lastmile_qr_scan", "android": "https://dc.lft.to/lastmile_qr_scan"}}, {"name": "baae00b46de463dc66e729eb6b0e84a6", "fusion_lat": 0.0, "type": "electric_scooter", "lat": 38.915555499999996, "is_reserved": 0, "is_disabled": 0, "fusion_lon": 0.0, "bike_id": "baae00b46de463dc66e729eb6b0e84a6", "lon": -77.04177983333334, "rental_uris": {"ios": "https://dc.lft.to/lastmile_qr_scan", "android": "https://dc.lft.to/lastmile_qr_scan"}}, {"name": "b5a8da38ab15b44d8715c3a0b89d57b6", "fusion_lat": 0.0, "type": "electric_bike", "lat": 38.893546, "is_reserved": 0, "is_disabled": 0, "fusion_lon": 0.0, "bike_id": "b5a8da38ab15b44d8715c3a0b89d57b6", "lon": -77.1873825, "rental_uris": {"ios": "https://dc.lft.to/lastmile_qr_scan", "android": "https://dc.lft.to/lastmile_qr_scan"}}, {"name": "5e18be721b626b969cffd786bd225682", "fusion_lat": 0.0, "type": "electric_scooter", "lat": 38.89524566666667, "is_reserved": 0, "is_disabled": 0, "fusion_lon": 0.0, "bike_id": "5e18be721b626b969cffd786bd225682", "lon": -77.01618733333333, "rental_uris": {"ios": "https://dc.lft.to/lastmile_qr_scan", "android": "https://dc.lft.to/lastmile_qr_scan"}}, {"name": "14c750aac111f0bb1366d18d82514bb3", "fusion_lat": 0.0, "type": "electric_scooter", "lat": 38.91719616666666, "is_reserved": 0, "is_disabled": 0, "fusion_lon": 0.0, "bike_id": "14c750aac111f0bb1366d18d82514bb3", "lon": -77.03555366666667, "rental_uris": {"ios": "https://dc.lft.to/lastmile_qr_scan", "android": "https://dc.lft.to/lastmile_qr_scan"}}, {"name": "f6889337dfa78e0f405cbfceb46ed615", "fusion_lat": 0.0, "type": "electric_scooter", "lat": 38.913593166666665, "is_reserved": 0, "is_disabled": 0, "fusion_lon": 0.0, "bike_id": "f6889337dfa78e0f405cbfceb46ed615", "lon": -77.04165233333333, "rental_uris": {"ios": "https://dc.lft.to/lastmile_qr_scan", "android": "https://dc.lft.to/lastmile_qr_scan"}}, {"name": "d909f39eb1297def3a69cba932bbb423", "fusion_lat": 0.0, "type": "electric_scooter", "lat": 38.8781025, "is_reserved": 0, "is_disabled": 0, "fusion_lon": 0.0, "bike_id": "d909f39eb1297def3a69cba932bbb423", "lon": -77.00346833333333, "rental_uris": {"ios": "https://dc.lft.to/lastmile_qr_scan", "android": "https://dc.lft.to/lastmile_qr_scan"}}, {"name": "f0c1c22335db881c41891a80fcd836c0", "fusion_lat": 0.0, "type": "electric_bike", "lat": 38.858739, "is_reserved": 0, "is_disabled": 0, "fusion_lon": 0.0, "bike_id": "f0c1c22335db881c41891a80fcd836c0", "lon": -77.09553866666667, "rental_uris": {"ios": "https://dc.lft.to/lastmile_qr_scan", "android": "https://dc.lft.to/lastmile_qr_scan"}}, {"name": "3707cfd5ffb44ff161fecda58517ed47", "fusion_lat": 0.0, "type": "electric_scooter", "lat": 38.917700333333336, "is_reserved": 0, "is_disabled": 0, "fusion_lon": 0.0, "bike_id": "3707cfd5ffb44ff161fecda58517ed47", "lon": -77.047398, "rental_uris": {"ios": "https://dc.lft.to/lastmile_qr_scan", "android": "https://dc.lft.to/lastmile_qr_scan"}}, {"name": "9e13a8d43acc3a930f32028f84a3e165", "fusion_lat": 0.0, "type": "electric_bike", "lat": 38.852016166666665, "is_reserved": 0, "is_disabled": 0, "fusion_lon": 0.0, "bike_id": "9e13a8d43acc3a930f32028f84a3e165", "lon": -77.10129766666667, "rental_uris": {"ios": "https://dc.lft.to/lastmile_qr_scan", "android": "https://dc.lft.to/lastmile_qr_scan"}}, {"name": "fdf69f0f9bbc7271e9b7d2461d4f4140", "fusion_lat": 0.0, "type": "electric_scooter", "lat": 38.90665766666667, "is_reserved": 0, "is_disabled": 0, "fusion_lon": 0.0, "bike_id": "fdf69f0f9bbc7271e9b7d2461d4f4140", "lon": -77.048879, "rental_uris": {"ios": "https://dc.lft.to/lastmile_qr_scan", "android": "https://dc.lft.to/lastmile_qr_scan"}}, {"name": "8663c190b0ca6197ceec4ba9f87574df", "fusion_lat": 0.0, "type": "electric_scooter", "lat": 38.916803333333334, "is_reserved": 0, "is_disabled": 0, "fusion_lon": 0.0, "bike_id": "8663c190b0ca6197ceec4ba9f87574df", "lon": -77.028963, "rental_uris": {"ios": "https://dc.lft.to/lastmile_qr_scan", "android": "https://dc.lft.to/lastmile_qr_scan"}}, {"name": "9ef20710243666efd1aa4c434f8feb37", "fusion_lat": 0.0, "type": "electric_bike", "lat": 38.94790316666667, "is_reserved": 0, "is_disabled": 0, "fusion_lon": 0.0, "bike_id": "9ef20710243666efd1aa4c434f8feb37", "lon": -77.02153366666667, "rental_uris": {"ios": "https://dc.lft.to/lastmile_qr_scan", "android": "https://dc.lft.to/lastmile_qr_scan"}}, {"name": "1f4ea748a4a47414914ef78d77e9455d", "fusion_lat": 0.0, "type": "electric_scooter", "lat": 38.93207016666667, "is_reserved": 0, "is_disabled": 0, "fusion_lon": 0.0, "bike_id": "1f4ea748a4a47414914ef78d77e9455d", "lon": -77.03633283333333, "rental_uris": {"ios": "https://dc.lft.to/lastmile_qr_scan", "android": "https://dc.lft.to/lastmile_qr_scan"}}, {"name": "ec63b645f9de14a05eb2ca808654abb2", "fusion_lat": 0.0, "type": "electric_scooter", "lat": 38.92910916666666, "is_reserved": 0, "is_disabled": 0, "fusion_lon": 0.0, "bike_id": "ec63b645f9de14a05eb2ca808654abb2", "lon": -77.0195335, "rental_uris": {"ios": "https://dc.lft.to/lastmile_qr_scan", "android": "https://dc.lft.to/lastmile_qr_scan"}}, {"name": "380ffd8a9de8d75e16e2390829a411ca", "fusion_lat": 0.0, "type": "electric_bike", "lat": 38.94634283333333, "is_reserved": 0, "is_disabled": 0, "fusion_lon": 0.0, "bike_id": "380ffd8a9de8d75e16e2390829a411ca", "lon": -77.0184175, "rental_uris": {"ios": "https://dc.lft.to/lastmile_qr_scan", "android": "https://dc.lft.to/lastmile_qr_scan"}}, {"name": "7809d808a33972d157bee381bdc22505", "fusion_lat": 0.0, "type": "electric_scooter", "lat": 38.906421333333334, "is_reserved": 0, "is_disabled": 0, "fusion_lon": 0.0, "bike_id": "7809d808a33972d157bee381bdc22505", "lon": -77.0059715, "rental_uris": {"ios": "https://dc.lft.to/lastmile_qr_scan", "android": "https://dc.lft.to/lastmile_qr_scan"}}, {"name": "e2b91a93f18f91e31a8f615734ba737b", "fusion_lat": 0.0, "type": "electric_scooter", "lat": 38.9234365, "is_reserved": 0, "is_disabled": 0, "fusion_lon": 0.0, "bike_id": "e2b91a93f18f91e31a8f615734ba737b", "lon": -77.0509765, "rental_uris": {"ios": "https://dc.lft.to/lastmile_qr_scan", "android": "https://dc.lft.to/lastmile_qr_scan"}}, {"name": "88db62c835161b47cf268a456acd61e6", "fusion_lat": 0.0, "type": "electric_scooter", "lat": 38.90581666666667, "is_reserved": 0, "is_disabled": 0, "fusion_lon": 0.0, "bike_id": "88db62c835161b47cf268a456acd61e6", "lon": -77.0511145, "rental_uris": {"ios": "https://dc.lft.to/lastmile_qr_scan", "android": "https://dc.lft.to/lastmile_qr_scan"}}, {"name": "3d7eec68d6a9c3cfbc3799e03833b5f1", "fusion_lat": 0.0, "type": "electric_scooter", "lat": 38.924202, "is_reserved": 0, "is_disabled": 0, "fusion_lon": 0.0, "bike_id": "3d7eec68d6a9c3cfbc3799e03833b5f1", "lon": -77.02285816666667, "rental_uris": {"ios": "https://dc.lft.to/lastmile_qr_scan", "android": "https://dc.lft.to/lastmile_qr_scan"}}, {"name": "2bf3f1aa0276024e7aa31fcd370f04b8", "fusion_lat": 0.0, "type": "electric_scooter", "lat": 38.90970983333333, "is_reserved": 0, "is_disabled": 0, "fusion_lon": 0.0, "bike_id": "2bf3f1aa0276024e7aa31fcd370f04b8", "lon": -77.04475016666666, "rental_uris": {"ios": "https://dc.lft.to/lastmile_qr_scan", "android": "https://dc.lft.to/lastmile_qr_scan"}}, {"name": "56ca323a2fef4d32c95cfc418bae442a", "fusion_lat": 0.0, "type": "electric_scooter", "lat": 38.90470366666667, "is_reserved": 0, "is_disabled": 0, "fusion_lon": 0.0, "bike_id": "56ca323a2fef4d32c95cfc418bae442a", "lon": -77.04161783333333, "rental_uris": {"ios": "https://dc.lft.to/lastmile_qr_scan", "android": "https://dc.lft.to/lastmile_qr_scan"}}, {"name": "988c1a1912ecdfae5688491dee0dfa2c", "fusion_lat": 0.0, "type": "electric_scooter", "lat": 38.924171, "is_reserved": 0, "is_disabled": 0, "fusion_lon": 0.0, "bike_id": "988c1a1912ecdfae5688491dee0dfa2c", "lon": -77.01949483333334, "rental_uris": {"ios": "https://dc.lft.to/lastmile_qr_scan", "android": "https://dc.lft.to/lastmile_qr_scan"}}, {"name": "f4425b52a1cf291345021e8dbb529643", "fusion_lat": 0.0, "type": "electric_scooter", "lat": 38.89655666666667, "is_reserved": 0, "is_disabled": 0, "fusion_lon": 0.0, "bike_id": "f4425b52a1cf291345021e8dbb529643", "lon": -77.04904833333333, "rental_uris": {"ios": "https://dc.lft.to/lastmile_qr_scan", "android": "https://dc.lft.to/lastmile_qr_scan"}}, {"name": "b5d8fff911f77fa6fbe41a4eed1d6cff", "fusion_lat": 0.0, "type": "electric_scooter", "lat": 38.90472183333333, "is_reserved": 0, "is_disabled": 0, "fusion_lon": 0.0, "bike_id": "b5d8fff911f77fa6fbe41a4eed1d6cff", "lon": -77.04162766666667, "rental_uris": {"ios": "https://dc.lft.to/lastmile_qr_scan", "android": "https://dc.lft.to/lastmile_qr_scan"}}, {"name": "12f34ce7c501cb6a6d95312fd530eeab", "fusion_lat": 0.0, "type": "electric_scooter", "lat": 38.905364166666665, "is_reserved": 0, "is_disabled": 0, "fusion_lon": 0.0, "bike_id": "12f34ce7c501cb6a6d95312fd530eeab", "lon": -77.02204066666667, "rental_uris": {"ios": "https://dc.lft.to/lastmile_qr_scan", "android": "https://dc.lft.to/lastmile_qr_scan"}}, {"name": "6d70a2861080bc23a598cdd774c74543", "fusion_lat": 0.0, "type": "electric_scooter", "lat": 38.91883966666666, "is_reserved": 0, "is_disabled": 0, "fusion_lon": 0.0, "bike_id": "6d70a2861080bc23a598cdd774c74543", "lon": -77.036395, "rental_uris": {"ios": "https://dc.lft.to/lastmile_qr_scan", "android": "https://dc.lft.to/lastmile_qr_scan"}}, {"name": "8126fc7ec8169ba325769fd36ee53f50", "fusion_lat": 0.0, "type": "electric_scooter", "lat": 38.923868166666665, "is_reserved": 0, "is_disabled": 0, "fusion_lon": 0.0, "bike_id": "8126fc7ec8169ba325769fd36ee53f50", "lon": -77.04286483333334, "rental_uris": {"ios": "https://dc.lft.to/lastmile_qr_scan", "android": "https://dc.lft.to/lastmile_qr_scan"}}, {"name": "cb4c66c90c3a4916a1dcb153d3c7132b", "fusion_lat": 0.0, "type": "electric_bike", "lat": 38.954790833333334, "is_reserved": 0, "is_disabled": 0, "fusion_lon": 0.0, "bike_id": "cb4c66c90c3a4916a1dcb153d3c7132b", "lon": -77.08240766666667, "rental_uris": {"ios": "https://dc.lft.to/lastmile_qr_scan", "android": "https://dc.lft.to/lastmile_qr_scan"}}, {"name": "cbb43984ecd3e736c22fb523edad2471", "fusion_lat": 0.0, "type": "electric_scooter", "lat": 38.917261333333336, "is_reserved": 0, "is_disabled": 0, "fusion_lon": 0.0, "bike_id": "cbb43984ecd3e736c22fb523edad2471", "lon": -77.038393, "rental_uris": {"ios": "https://dc.lft.to/lastmile_qr_scan", "android": "https://dc.lft.to/lastmile_qr_scan"}}, {"name": "678158024ba359633b0cf51219273bef", "fusion_lat": 0.0, "type": "electric_scooter", "lat": 38.88315, "is_reserved": 0, "is_disabled": 0, "fusion_lon": 0.0, "bike_id": "678158024ba359633b0cf51219273bef", "lon": -77.00599116666666, "rental_uris": {"ios": "https://dc.lft.to/lastmile_qr_scan", "android": "https://dc.lft.to/lastmile_qr_scan"}}, {"name": "e4255605bec68ddc333741a3568e8365", "fusion_lat": 0.0, "type": "electric_scooter", "lat": 38.909556, "is_reserved": 0, "is_disabled": 0, "fusion_lon": 0.0, "bike_id": "e4255605bec68ddc333741a3568e8365", "lon": -77.02376916666667, "rental_uris": {"ios": "https://dc.lft.to/lastmile_qr_scan", "android": "https://dc.lft.to/lastmile_qr_scan"}}, {"name": "7cff5d7619c90321556154e58f88d422", "fusion_lat": 0.0, "type": "electric_bike", "lat": 38.845699333333336, "is_reserved": 0, "is_disabled": 0, "fusion_lon": 0.0, "bike_id": "7cff5d7619c90321556154e58f88d422", "lon": -77.09628183333334, "rental_uris": {"ios": "https://dc.lft.to/lastmile_qr_scan", "android": "https://dc.lft.to/lastmile_qr_scan"}}, {"name": "cb029a6360f63ee934f6fdf94fd91c70", "fusion_lat": 0.0, "type": "electric_scooter", "lat": 38.92110133333333, "is_reserved": 0, "is_disabled": 0, "fusion_lon": 0.0, "bike_id": "cb029a6360f63ee934f6fdf94fd91c70", "lon": -77.02198933333334, "rental_uris": {"ios": "https://dc.lft.to/lastmile_qr_scan", "android": "https://dc.lft.to/lastmile_qr_scan"}}, {"name": "e076bd57179a915205511063975c51ce", "fusion_lat": 0.0, "type": "electric_scooter", "lat": 38.87638283333333, "is_reserved": 0, "is_disabled": 0, "fusion_lon": 0.0, "bike_id": "e076bd57179a915205511063975c51ce", "lon": -77.00563116666666, "rental_uris": {"ios": "https://dc.lft.to/lastmile_qr_scan", "android": "https://dc.lft.to/lastmile_qr_scan"}}, {"name": "8aabb7c32b7d780800fa4eaa8a3586bf", "fusion_lat": 0.0, "type": "electric_scooter", "lat": 38.898416833333336, "is_reserved": 0, "is_disabled": 0, "fusion_lon": 0.0, "bike_id": "8aabb7c32b7d780800fa4eaa8a3586bf", "lon": -76.992708, "rental_uris": {"ios": "https://dc.lft.to/lastmile_qr_scan", "android": "https://dc.lft.to/lastmile_qr_scan"}}, {"name": "b0fa690259bcf28779326e6805e4cd17", "fusion_lat": 0.0, "type": "electric_scooter", "lat": 38.92229783333333, "is_reserved": 0, "is_disabled": 0, "fusion_lon": 0.0, "bike_id": "b0fa690259bcf28779326e6805e4cd17", "lon": -77.0470885, "rental_uris": {"ios": "https://dc.lft.to/lastmile_qr_scan", "android": "https://dc.lft.to/lastmile_qr_scan"}}, {"name": "fed1cff48f7bad376a30845d914492c0", "fusion_lat": 0.0, "type": "electric_bike", "lat": 38.973809833333334, "is_reserved": 0, "is_disabled": 0, "fusion_lon": 0.0, "bike_id": "fed1cff48f7bad376a30845d914492c0", "lon": -77.0647505, "rental_uris": {"ios": "https://dc.lft.to/lastmile_qr_scan", "android": "https://dc.lft.to/lastmile_qr_scan"}}, {"name": "837737388227298c80320c58d64b7ae0", "fusion_lat": 0.0, "type": "electric_scooter", "lat": 38.87898033333333, "is_reserved": 0, "is_disabled": 0, "fusion_lon": 0.0, "bike_id": "837737388227298c80320c58d64b7ae0", "lon": -77.001383, "rental_uris": {"ios": "https://dc.lft.to/lastmile_qr_scan", "android": "https://dc.lft.to/lastmile_qr_scan"}}, {"name": "25b3cc03d60b525603643395721d50d5", "fusion_lat": 0.0, "type": "electric_scooter", "lat": 38.9076005, "is_reserved": 0, "is_disabled": 0, "fusion_lon": 0.0, "bike_id": "25b3cc03d60b525603643395721d50d5", "lon": -77.0343395, "rental_uris": {"ios": "https://dc.lft.to/lastmile_qr_scan", "android": "https://dc.lft.to/lastmile_qr_scan"}}, {"name": "cab4f678b7f713de00d6c974e05058c2", "fusion_lat": 0.0, "type": "electric_scooter", "lat": 38.9369445, "is_reserved": 0, "is_disabled": 0, "fusion_lon": 0.0, "bike_id": "cab4f678b7f713de00d6c974e05058c2", "lon": -77.06107983333334, "rental_uris": {"ios": "https://dc.lft.to/lastmile_qr_scan", "android": "https://dc.lft.to/lastmile_qr_scan"}}, {"name": "3ff7ade395a40e9d5d6d9461ebc65ce8", "fusion_lat": 0.0, "type": "electric_bike", "lat": 38.999091166666666, "is_reserved": 0, "is_disabled": 0, "fusion_lon": 0.0, "bike_id": "3ff7ade395a40e9d5d6d9461ebc65ce8", "lon": -77.04624266666667, "rental_uris": {"ios": "https://dc.lft.to/lastmile_qr_scan", "android": "https://dc.lft.to/lastmile_qr_scan"}}, {"name": "ad701b58e3a73c6f4432770178f8dd82", "fusion_lat": 0.0, "type": "electric_scooter", "lat": 38.91248133333333, "is_reserved": 0, "is_disabled": 0, "fusion_lon": 0.0, "bike_id": "ad701b58e3a73c6f4432770178f8dd82", "lon": -77.022234, "rental_uris": {"ios": "https://dc.lft.to/lastmile_qr_scan", "android": "https://dc.lft.to/lastmile_qr_scan"}}, {"name": "e5d50e698f1a7d10832cdab160a32e19", "fusion_lat": 0.0, "type": "electric_scooter", "lat": 38.9428675, "is_reserved": 0, "is_disabled": 0, "fusion_lon": 0.0, "bike_id": "e5d50e698f1a7d10832cdab160a32e19", "lon": -77.02173716666667, "rental_uris": {"ios": "https://dc.lft.to/lastmile_qr_scan", "android": "https://dc.lft.to/lastmile_qr_scan"}}, {"name": "8a6129539922588cf274dae38edb6f09", "fusion_lat": 0.0, "type": "electric_scooter", "lat": 38.8974185, "is_reserved": 0, "is_disabled": 0, "fusion_lon": 0.0, "bike_id": "8a6129539922588cf274dae38edb6f09", "lon": -76.94249516666666, "rental_uris": {"ios": "https://dc.lft.to/lastmile_qr_scan", "android": "https://dc.lft.to/lastmile_qr_scan"}}, {"name": "6b49c91b6879550dd521cee3ac4ae5c9", "fusion_lat": 0.0, "type": "electric_scooter", "lat": 38.9323145, "is_reserved": 0, "is_disabled": 0, "fusion_lon": 0.0, "bike_id": "6b49c91b6879550dd521cee3ac4ae5c9", "lon": -77.03586316666667, "rental_uris": {"ios": "https://dc.lft.to/lastmile_qr_scan", "android": "https://dc.lft.to/lastmile_qr_scan"}}, {"name": "28950529648552d38e414953c7c904ae", "fusion_lat": 0.0, "type": "electric_scooter", "lat": 38.907939, "is_reserved": 0, "is_disabled": 0, "fusion_lon": 0.0, "bike_id": "28950529648552d38e414953c7c904ae", "lon": -77.04825683333334, "rental_uris": {"ios": "https://dc.lft.to/lastmile_qr_scan", "android": "https://dc.lft.to/lastmile_qr_scan"}}, {"name": "4678d96db3747e2ea48b17b2b26270ed", "fusion_lat": 0.0, "type": "electric_bike", "lat": 38.920787, "is_reserved": 0, "is_disabled": 0, "fusion_lon": 0.0, "bike_id": "4678d96db3747e2ea48b17b2b26270ed", "lon": -77.02817216666666, "rental_uris": {"ios": "https://dc.lft.to/lastmile_qr_scan", "android": "https://dc.lft.to/lastmile_qr_scan"}}, {"name": "dba37604f01d4d17d738fbac03d2774a", "fusion_lat": 0.0, "type": "electric_bike", "lat": 38.938619, "is_reserved": 0, "is_disabled": 0, "fusion_lon": 0.0, "bike_id": "dba37604f01d4d17d738fbac03d2774a", "lon": -77.0265215, "rental_uris": {"ios": "https://dc.lft.to/lastmile_qr_scan", "android": "https://dc.lft.to/lastmile_qr_scan"}}, {"name": "59cf9d73e8a2125f1f6a39c400233a58", "fusion_lat": 0.0, "type": "electric_scooter", "lat": 38.919868, "is_reserved": 0, "is_disabled": 0, "fusion_lon": 0.0, "bike_id": "59cf9d73e8a2125f1f6a39c400233a58", "lon": -76.97303916666667, "rental_uris": {"ios": "https://dc.lft.to/lastmile_qr_scan", "android": "https://dc.lft.to/lastmile_qr_scan"}}, {"name": "935578cb39321a5735b4cd21a3ff4b70", "fusion_lat": 0.0, "type": "electric_scooter", "lat": 38.90845733333333, "is_reserved": 0, "is_disabled": 0, "fusion_lon": 0.0, "bike_id": "935578cb39321a5735b4cd21a3ff4b70", "lon": -77.0204405, "rental_uris": {"ios": "https://dc.lft.to/lastmile_qr_scan", "android": "https://dc.lft.to/lastmile_qr_scan"}}, {"name": "909f16bafba20f7700d5c554b847da45", "fusion_lat": 0.0, "type": "electric_scooter", "lat": 38.930003, "is_reserved": 0, "is_disabled": 0, "fusion_lon": 0.0, "bike_id": "909f16bafba20f7700d5c554b847da45", "lon": -77.02305966666667, "rental_uris": {"ios": "https://dc.lft.to/lastmile_qr_scan", "android": "https://dc.lft.to/lastmile_qr_scan"}}, {"name": "e10d352cbb4f3798713574f7c592a34a", "fusion_lat": 0.0, "type": "electric_scooter", "lat": 38.936909166666666, "is_reserved": 0, "is_disabled": 0, "fusion_lon": 0.0, "bike_id": "e10d352cbb4f3798713574f7c592a34a", "lon": -77.023941, "rental_uris": {"ios": "https://dc.lft.to/lastmile_qr_scan", "android": "https://dc.lft.to/lastmile_qr_scan"}}, {"name": "e29e34ace8f21d7e6307d59a4807936a", "fusion_lat": 0.0, "type": "electric_scooter", "lat": 38.89447766666667, "is_reserved": 0, "is_disabled": 0, "fusion_lon": 0.0, "bike_id": "e29e34ace8f21d7e6307d59a4807936a", "lon": -77.03060633333334, "rental_uris": {"ios": "https://dc.lft.to/lastmile_qr_scan", "android": "https://dc.lft.to/lastmile_qr_scan"}}, {"name": "7b19038cf31d877edf88ff1efb98e599", "fusion_lat": 0.0, "type": "electric_scooter", "lat": 38.902651666666664, "is_reserved": 0, "is_disabled": 0, "fusion_lon": 0.0, "bike_id": "7b19038cf31d877edf88ff1efb98e599", "lon": -77.00926216666667, "rental_uris": {"ios": "https://dc.lft.to/lastmile_qr_scan", "android": "https://dc.lft.to/lastmile_qr_scan"}}, {"name": "01ba1377475eeb564b848ae2bf65baab", "fusion_lat": 0.0, "type": "electric_scooter", "lat": 38.91124166666667, "is_reserved": 0, "is_disabled": 0, "fusion_lon": 0.0, "bike_id": "01ba1377475eeb564b848ae2bf65baab", "lon": -77.02199316666666, "rental_uris": {"ios": "https://dc.lft.to/lastmile_qr_scan", "android": "https://dc.lft.to/lastmile_qr_scan"}}, {"name": "8a8c2d531da0dc8b88e0b21eb2643fce", "fusion_lat": 0.0, "type": "electric_scooter", "lat": 38.869619166666666, "is_reserved": 0, "is_disabled": 0, "fusion_lon": 0.0, "bike_id": "8a8c2d531da0dc8b88e0b21eb2643fce", "lon": -77.0137405, "rental_uris": {"ios": "https://dc.lft.to/lastmile_qr_scan", "android": "https://dc.lft.to/lastmile_qr_scan"}}, {"name": "4043fb95436f585c3e170db06cb62d83", "fusion_lat": 0.0, "type": "electric_scooter", "lat": 38.923372666666666, "is_reserved": 0, "is_disabled": 0, "fusion_lon": 0.0, "bike_id": "4043fb95436f585c3e170db06cb62d83", "lon": -77.05013166666667, "rental_uris": {"ios": "https://dc.lft.to/lastmile_qr_scan", "android": "https://dc.lft.to/lastmile_qr_scan"}}, {"name": "faca18252306ed979f7651ee51c92c71", "fusion_lat": 0.0, "type": "electric_scooter", "lat": 38.865004666666664, "is_reserved": 0, "is_disabled": 0, "fusion_lon": 0.0, "bike_id": "faca18252306ed979f7651ee51c92c71", "lon": -76.990082, "rental_uris": {"ios": "https://dc.lft.to/lastmile_qr_scan", "android": "https://dc.lft.to/lastmile_qr_scan"}}, {"name": "adb0e89c6c7f3817db858ad1e2015c28", "fusion_lat": 0.0, "type": "electric_scooter", "lat": 38.8646575, "is_reserved": 0, "is_disabled": 0, "fusion_lon": 0.0, "bike_id": "adb0e89c6c7f3817db858ad1e2015c28", "lon": -77.011722, "rental_uris": {"ios": "https://dc.lft.to/lastmile_qr_scan", "android": "https://dc.lft.to/lastmile_qr_scan"}}, {"name": "f43533ecf313f4075adb97ab96a991a6", "fusion_lat": 0.0, "type": "electric_scooter", "lat": 38.899100833333335, "is_reserved": 0, "is_disabled": 0, "fusion_lon": 0.0, "bike_id": "f43533ecf313f4075adb97ab96a991a6", "lon": -76.933659, "rental_uris": {"ios": "https://dc.lft.to/lastmile_qr_scan", "android": "https://dc.lft.to/lastmile_qr_scan"}}, {"name": "4eedb564862099a182c51114a2afcd76", "fusion_lat": 0.0, "type": "electric_bike", "lat": 38.896097166666664, "is_reserved": 0, "is_disabled": 0, "fusion_lon": 0.0, "bike_id": "4eedb564862099a182c51114a2afcd76", "lon": -76.99284516666667, "rental_uris": {"ios": "https://dc.lft.to/lastmile_qr_scan", "android": "https://dc.lft.to/lastmile_qr_scan"}}, {"name": "188db4b0ba96c437420158cce2ce8fdf", "fusion_lat": 0.0, "type": "electric_bike", "lat": 38.87082683333333, "is_reserved": 0, "is_disabled": 0, "fusion_lon": 0.0, "bike_id": "188db4b0ba96c437420158cce2ce8fdf", "lon": -77.01209783333333, "rental_uris": {"ios": "https://dc.lft.to/lastmile_qr_scan", "android": "https://dc.lft.to/lastmile_qr_scan"}}, {"name": "1a28869e9a11cf686ff3163808387253", "fusion_lat": 0.0, "type": "electric_scooter", "lat": 38.927213, "is_reserved": 0, "is_disabled": 0, "fusion_lon": 0.0, "bike_id": "1a28869e9a11cf686ff3163808387253", "lon": -77.00570033333334, "rental_uris": {"ios": "https://dc.lft.to/lastmile_qr_scan", "android": "https://dc.lft.to/lastmile_qr_scan"}}, {"name": "48e00b45dd72a4b08c68d74cd135c287", "fusion_lat": 0.0, "type": "electric_scooter", "lat": 38.91554, "is_reserved": 0, "is_disabled": 0, "fusion_lon": 0.0, "bike_id": "48e00b45dd72a4b08c68d74cd135c287", "lon": -77.04188383333333, "rental_uris": {"ios": "https://dc.lft.to/lastmile_qr_scan", "android": "https://dc.lft.to/lastmile_qr_scan"}}, {"name": "6ec23f2f5c429f808e9e471a9b2f3516", "fusion_lat": 0.0, "type": "electric_scooter", "lat": 38.91815866666666, "is_reserved": 0, "is_disabled": 0, "fusion_lon": 0.0, "bike_id": "6ec23f2f5c429f808e9e471a9b2f3516", "lon": -77.02795183333333, "rental_uris": {"ios": "https://dc.lft.to/lastmile_qr_scan", "android": "https://dc.lft.to/lastmile_qr_scan"}}, {"name": "f891ee865b88032def82106f7634fd05", "fusion_lat": 0.0, "type": "electric_bike", "lat": 38.87529033333333, "is_reserved": 0, "is_disabled": 0, "fusion_lon": 0.0, "bike_id": "f891ee865b88032def82106f7634fd05", "lon": -77.19906983333334, "rental_uris": {"ios": "https://dc.lft.to/lastmile_qr_scan", "android": "https://dc.lft.to/lastmile_qr_scan"}}, {"name": "93863b1a920bc3cb0c7bb293801963d6", "fusion_lat": 0.0, "type": "electric_scooter", "lat": 38.923724, "is_reserved": 0, "is_disabled": 0, "fusion_lon": 0.0, "bike_id": "93863b1a920bc3cb0c7bb293801963d6", "lon": -77.02987, "rental_uris": {"ios": "https://dc.lft.to/lastmile_qr_scan", "android": "https://dc.lft.to/lastmile_qr_scan"}}, {"name": "dc401015dd9568e51f8f7f3bb9dd7f35", "fusion_lat": 0.0, "type": "electric_bike", "lat": 38.857834, "is_reserved": 0, "is_disabled": 0, "fusion_lon": 0.0, "bike_id": "dc401015dd9568e51f8f7f3bb9dd7f35", "lon": -77.09962833333333, "rental_uris": {"ios": "https://dc.lft.to/lastmile_qr_scan", "android": "https://dc.lft.to/lastmile_qr_scan"}}, {"name": "cbf4f31e5d34ade39bb2986baa4ce526", "fusion_lat": 0.0, "type": "electric_scooter", "lat": 38.897402666666665, "is_reserved": 0, "is_disabled": 0, "fusion_lon": 0.0, "bike_id": "cbf4f31e5d34ade39bb2986baa4ce526", "lon": -77.02691733333333, "rental_uris": {"ios": "https://dc.lft.to/lastmile_qr_scan", "android": "https://dc.lft.to/lastmile_qr_scan"}}, {"name": "cfd09beaa83f4936f1f60c7e418ebe20", "fusion_lat": 0.0, "type": "electric_bike", "lat": 39.09458983333333, "is_reserved": 0, "is_disabled": 0, "fusion_lon": 0.0, "bike_id": "cfd09beaa83f4936f1f60c7e418ebe20", "lon": -77.14992366666667, "rental_uris": {"ios": "https://dc.lft.to/lastmile_qr_scan", "android": "https://dc.lft.to/lastmile_qr_scan"}}, {"name": "53c05cc32a77ccd5ade1e3e0a4153855", "fusion_lat": 0.0, "type": "electric_bike", "lat": 38.93748016666667, "is_reserved": 0, "is_disabled": 0, "fusion_lon": 0.0, "bike_id": "53c05cc32a77ccd5ade1e3e0a4153855", "lon": -77.03283716666667, "rental_uris": {"ios": "https://dc.lft.to/lastmile_qr_scan", "android": "https://dc.lft.to/lastmile_qr_scan"}}, {"name": "a6525540a8661a86563ac6a3c3d3ae01", "fusion_lat": 0.0, "type": "electric_scooter", "lat": 38.912669666666666, "is_reserved": 0, "is_disabled": 0, "fusion_lon": 0.0, "bike_id": "a6525540a8661a86563ac6a3c3d3ae01", "lon": -77.038033, "rental_uris": {"ios": "https://dc.lft.to/lastmile_qr_scan", "android": "https://dc.lft.to/lastmile_qr_scan"}}, {"name": "89bd41006a36e650a63482d5702773c6", "fusion_lat": 0.0, "type": "electric_scooter", "lat": 38.9215905, "is_reserved": 0, "is_disabled": 0, "fusion_lon": 0.0, "bike_id": "89bd41006a36e650a63482d5702773c6", "lon": -76.99641333333334, "rental_uris": {"ios": "https://dc.lft.to/lastmile_qr_scan", "android": "https://dc.lft.to/lastmile_qr_scan"}}, {"name": "384c9b0af0c929671fa64fa01b2d080e", "fusion_lat": 0.0, "type": "electric_scooter", "lat": 38.880379833333336, "is_reserved": 0, "is_disabled": 0, "fusion_lon": 0.0, "bike_id": "384c9b0af0c929671fa64fa01b2d080e", "lon": -77.00518016666666, "rental_uris": {"ios": "https://dc.lft.to/lastmile_qr_scan", "android": "https://dc.lft.to/lastmile_qr_scan"}}, {"name": "727e50d17c390d97583ec628b3f971e8", "fusion_lat": 0.0, "type": "electric_scooter", "lat": 38.899685, "is_reserved": 0, "is_disabled": 0, "fusion_lon": 0.0, "bike_id": "727e50d17c390d97583ec628b3f971e8", "lon": -77.02204, "rental_uris": {"ios": "https://dc.lft.to/lastmile_qr_scan", "android": "https://dc.lft.to/lastmile_qr_scan"}}, {"name": "3f4fa17137c6a077157ea713a566ba5d", "fusion_lat": 0.0, "type": "electric_scooter", "lat": 38.89227133333333, "is_reserved": 0, "is_disabled": 0, "fusion_lon": 0.0, "bike_id": "3f4fa17137c6a077157ea713a566ba5d", "lon": -77.050024, "rental_uris": {"ios": "https://dc.lft.to/lastmile_qr_scan", "android": "https://dc.lft.to/lastmile_qr_scan"}}, {"name": "cfe23216648e2602e9f00c4815903d28", "fusion_lat": 0.0, "type": "electric_scooter", "lat": 38.93562933333333, "is_reserved": 0, "is_disabled": 0, "fusion_lon": 0.0, "bike_id": "cfe23216648e2602e9f00c4815903d28", "lon": -77.03251483333334, "rental_uris": {"ios": "https://dc.lft.to/lastmile_qr_scan", "android": "https://dc.lft.to/lastmile_qr_scan"}}, {"name": "7ceca93517ecab5d4f890ae4d4372957", "fusion_lat": 0.0, "type": "electric_scooter", "lat": 38.924212, "is_reserved": 0, "is_disabled": 0, "fusion_lon": 0.0, "bike_id": "7ceca93517ecab5d4f890ae4d4372957", "lon": -77.01947983333334, "rental_uris": {"ios": "https://dc.lft.to/lastmile_qr_scan", "android": "https://dc.lft.to/lastmile_qr_scan"}}, {"name": "bfc406dd26df6b986344ffadf44de33f", "fusion_lat": 0.0, "type": "electric_scooter", "lat": 38.877477, "is_reserved": 0, "is_disabled": 0, "fusion_lon": 0.0, "bike_id": "bfc406dd26df6b986344ffadf44de33f", "lon": -77.0199815, "rental_uris": {"ios": "https://dc.lft.to/lastmile_qr_scan", "android": "https://dc.lft.to/lastmile_qr_scan"}}, {"name": "d9eb53aa388b68edef708815acf1deef", "fusion_lat": 0.0, "type": "electric_scooter", "lat": 38.91817616666667, "is_reserved": 0, "is_disabled": 0, "fusion_lon": 0.0, "bike_id": "d9eb53aa388b68edef708815acf1deef", "lon": -77.0400325, "rental_uris": {"ios": "https://dc.lft.to/lastmile_qr_scan", "android": "https://dc.lft.to/lastmile_qr_scan"}}, {"name": "925b176028f1a89b541c9eca267ecf35", "fusion_lat": 0.0, "type": "electric_scooter", "lat": 38.92479683333333, "is_reserved": 0, "is_disabled": 0, "fusion_lon": 0.0, "bike_id": "925b176028f1a89b541c9eca267ecf35", "lon": -77.0283695, "rental_uris": {"ios": "https://dc.lft.to/lastmile_qr_scan", "android": "https://dc.lft.to/lastmile_qr_scan"}}, {"name": "ee02ad34010822efecf577a3356c607a", "fusion_lat": 0.0, "type": "electric_scooter", "lat": 38.91571416666667, "is_reserved": 0, "is_disabled": 0, "fusion_lon": 0.0, "bike_id": "ee02ad34010822efecf577a3356c607a", "lon": -77.036435, "rental_uris": {"ios": "https://dc.lft.to/lastmile_qr_scan", "android": "https://dc.lft.to/lastmile_qr_scan"}}, {"name": "1e40d9a6b9d9b8a0b65d73fa8645c646", "fusion_lat": 0.0, "type": "electric_scooter", "lat": 38.9440015, "is_reserved": 0, "is_disabled": 0, "fusion_lon": 0.0, "bike_id": "1e40d9a6b9d9b8a0b65d73fa8645c646", "lon": -77.06327566666667, "rental_uris": {"ios": "https://dc.lft.to/lastmile_qr_scan", "android": "https://dc.lft.to/lastmile_qr_scan"}}, {"name": "8ea5ad39b9f9b53ebe03b2799db763ca", "fusion_lat": 0.0, "type": "electric_scooter", "lat": 38.904330333333334, "is_reserved": 0, "is_disabled": 0, "fusion_lon": 0.0, "bike_id": "8ea5ad39b9f9b53ebe03b2799db763ca", "lon": -77.034351, "rental_uris": {"ios": "https://dc.lft.to/lastmile_qr_scan", "android": "https://dc.lft.to/lastmile_qr_scan"}}, {"name": "f0ea59a3c9577c1022b6b3e2df95ccd2", "fusion_lat": 0.0, "type": "electric_scooter", "lat": 38.9187075, "is_reserved": 0, "is_disabled": 0, "fusion_lon": 0.0, "bike_id": "f0ea59a3c9577c1022b6b3e2df95ccd2", "lon": -77.0413985, "rental_uris": {"ios": "https://dc.lft.to/lastmile_qr_scan", "android": "https://dc.lft.to/lastmile_qr_scan"}}, {"name": "449d01397dba2ba4a6fb4110dc0e8b15", "fusion_lat": 0.0, "type": "electric_scooter", "lat": 38.884465166666665, "is_reserved": 0, "is_disabled": 0, "fusion_lon": 0.0, "bike_id": "449d01397dba2ba4a6fb4110dc0e8b15", "lon": -77.02962933333333, "rental_uris": {"ios": "https://dc.lft.to/lastmile_qr_scan", "android": "https://dc.lft.to/lastmile_qr_scan"}}, {"name": "9fd73a20bbdd7ef7f4113340e5a8486a", "fusion_lat": 0.0, "type": "electric_bike", "lat": 39.03878366666667, "is_reserved": 0, "is_disabled": 0, "fusion_lon": 0.0, "bike_id": "9fd73a20bbdd7ef7f4113340e5a8486a", "lon": -76.9904235, "rental_uris": {"ios": "https://dc.lft.to/lastmile_qr_scan", "android": "https://dc.lft.to/lastmile_qr_scan"}}, {"name": "858ffb6838ac84fc9fd45dd9978516bc", "fusion_lat": 0.0, "type": "electric_scooter", "lat": 38.911951333333334, "is_reserved": 0, "is_disabled": 0, "fusion_lon": 0.0, "bike_id": "858ffb6838ac84fc9fd45dd9978516bc", "lon": -77.03870066666667, "rental_uris": {"ios": "https://dc.lft.to/lastmile_qr_scan", "android": "https://dc.lft.to/lastmile_qr_scan"}}, {"name": "56b9465a3b868e346fb5d412892edf49", "fusion_lat": 0.0, "type": "electric_scooter", "lat": 38.90237366666667, "is_reserved": 0, "is_disabled": 0, "fusion_lon": 0.0, "bike_id": "56b9465a3b868e346fb5d412892edf49", "lon": -77.02695483333333, "rental_uris": {"ios": "https://dc.lft.to/lastmile_qr_scan", "android": "https://dc.lft.to/lastmile_qr_scan"}}, {"name": "997ac576ff17d234dd37a7d7532ce1e3", "fusion_lat": 0.0, "type": "electric_scooter", "lat": 38.91123533333333, "is_reserved": 0, "is_disabled": 0, "fusion_lon": 0.0, "bike_id": "997ac576ff17d234dd37a7d7532ce1e3", "lon": -77.0219665, "rental_uris": {"ios": "https://dc.lft.to/lastmile_qr_scan", "android": "https://dc.lft.to/lastmile_qr_scan"}}, {"name": "ef3e4970fdeec89489367a8126794680", "fusion_lat": 0.0, "type": "electric_scooter", "lat": 38.90250416666667, "is_reserved": 0, "is_disabled": 0, "fusion_lon": 0.0, "bike_id": "ef3e4970fdeec89489367a8126794680", "lon": -77.01800066666667, "rental_uris": {"ios": "https://dc.lft.to/lastmile_qr_scan", "android": "https://dc.lft.to/lastmile_qr_scan"}}, {"name": "31dcccfd31d8d5c206f499b27a232d59", "fusion_lat": 0.0, "type": "electric_scooter", "lat": 38.900242, "is_reserved": 0, "is_disabled": 0, "fusion_lon": 0.0, "bike_id": "31dcccfd31d8d5c206f499b27a232d59", "lon": -76.99643283333333, "rental_uris": {"ios": "https://dc.lft.to/lastmile_qr_scan", "android": "https://dc.lft.to/lastmile_qr_scan"}}, {"name": "f0508564d6e99e31d197c03d86018312", "fusion_lat": 0.0, "type": "electric_scooter", "lat": 38.90034466666667, "is_reserved": 0, "is_disabled": 0, "fusion_lon": 0.0, "bike_id": "f0508564d6e99e31d197c03d86018312", "lon": -77.00171316666666, "rental_uris": {"ios": "https://dc.lft.to/lastmile_qr_scan", "android": "https://dc.lft.to/lastmile_qr_scan"}}, {"name": "81547c9bf8c9be53a7ba9c9fdb0f3c0c", "fusion_lat": 0.0, "type": "electric_scooter", "lat": 38.903260333333336, "is_reserved": 0, "is_disabled": 0, "fusion_lon": 0.0, "bike_id": "81547c9bf8c9be53a7ba9c9fdb0f3c0c", "lon": -77.0544675, "rental_uris": {"ios": "https://dc.lft.to/lastmile_qr_scan", "android": "https://dc.lft.to/lastmile_qr_scan"}}, {"name": "bf5eb3af04a0850bef4d0d02d3bdf9f3", "fusion_lat": 0.0, "type": "electric_scooter", "lat": 38.928173666666666, "is_reserved": 0, "is_disabled": 0, "fusion_lon": 0.0, "bike_id": "bf5eb3af04a0850bef4d0d02d3bdf9f3", "lon": -77.036313, "rental_uris": {"ios": "https://dc.lft.to/lastmile_qr_scan", "android": "https://dc.lft.to/lastmile_qr_scan"}}, {"name": "6530044dbec5a35ed44e724c30fbcde3", "fusion_lat": 0.0, "type": "electric_bike", "lat": 38.94469316666667, "is_reserved": 0, "is_disabled": 0, "fusion_lon": 0.0, "bike_id": "6530044dbec5a35ed44e724c30fbcde3", "lon": -77.02306216666666, "rental_uris": {"ios": "https://dc.lft.to/lastmile_qr_scan", "android": "https://dc.lft.to/lastmile_qr_scan"}}, {"name": "90d0e09f198e0c21ea89a7a8f6f363f6", "fusion_lat": 0.0, "type": "electric_scooter", "lat": 38.878606, "is_reserved": 0, "is_disabled": 0, "fusion_lon": 0.0, "bike_id": "90d0e09f198e0c21ea89a7a8f6f363f6", "lon": -76.96531966666667, "rental_uris": {"ios": "https://dc.lft.to/lastmile_qr_scan", "android": "https://dc.lft.to/lastmile_qr_scan"}}, {"name": "9e7c4acdcbcd02093b839e134bc354b0", "fusion_lat": 0.0, "type": "electric_scooter", "lat": 38.918046833333335, "is_reserved": 0, "is_disabled": 0, "fusion_lon": 0.0, "bike_id": "9e7c4acdcbcd02093b839e134bc354b0", "lon": -77.02495616666667, "rental_uris": {"ios": "https://dc.lft.to/lastmile_qr_scan", "android": "https://dc.lft.to/lastmile_qr_scan"}}, {"name": "56ec1d68255eb850e5d5b57b2cdc310a", "fusion_lat": 0.0, "type": "electric_scooter", "lat": 38.91154366666667, "is_reserved": 0, "is_disabled": 0, "fusion_lon": 0.0, "bike_id": "56ec1d68255eb850e5d5b57b2cdc310a", "lon": -77.0321145, "rental_uris": {"ios": "https://dc.lft.to/lastmile_qr_scan", "android": "https://dc.lft.to/lastmile_qr_scan"}}, {"name": "682815f0a665b1033292cd3ecc3e1abb", "fusion_lat": 0.0, "type": "electric_scooter", "lat": 38.89513516666667, "is_reserved": 0, "is_disabled": 0, "fusion_lon": 0.0, "bike_id": "682815f0a665b1033292cd3ecc3e1abb", "lon": -76.992151, "rental_uris": {"ios": "https://dc.lft.to/lastmile_qr_scan", "android": "https://dc.lft.to/lastmile_qr_scan"}}, {"name": "f7edaa6d7b5f1906cd2f37427dcaa9ca", "fusion_lat": 0.0, "type": "electric_bike", "lat": 39.05314966666667, "is_reserved": 0, "is_disabled": 0, "fusion_lon": 0.0, "bike_id": "f7edaa6d7b5f1906cd2f37427dcaa9ca", "lon": -77.047755, "rental_uris": {"ios": "https://dc.lft.to/lastmile_qr_scan", "android": "https://dc.lft.to/lastmile_qr_scan"}}, {"name": "0213aac2d87b0b968a103869e13472e9", "fusion_lat": 0.0, "type": "electric_scooter", "lat": 38.90263483333333, "is_reserved": 0, "is_disabled": 0, "fusion_lon": 0.0, "bike_id": "0213aac2d87b0b968a103869e13472e9", "lon": -76.98711583333333, "rental_uris": {"ios": "https://dc.lft.to/lastmile_qr_scan", "android": "https://dc.lft.to/lastmile_qr_scan"}}, {"name": "dd9bd7ea804ea799a85fc00dca1fe60f", "fusion_lat": 0.0, "type": "electric_scooter", "lat": 38.8653625, "is_reserved": 0, "is_disabled": 0, "fusion_lon": 0.0, "bike_id": "dd9bd7ea804ea799a85fc00dca1fe60f", "lon": -76.98706866666667, "rental_uris": {"ios": "https://dc.lft.to/lastmile_qr_scan", "android": "https://dc.lft.to/lastmile_qr_scan"}}, {"name": "f1e946bc049934c4be207a3ed0b89ff7", "fusion_lat": 0.0, "type": "electric_scooter", "lat": 38.922399166666665, "is_reserved": 0, "is_disabled": 0, "fusion_lon": 0.0, "bike_id": "f1e946bc049934c4be207a3ed0b89ff7", "lon": -76.99364816666667, "rental_uris": {"ios": "https://dc.lft.to/lastmile_qr_scan", "android": "https://dc.lft.to/lastmile_qr_scan"}}, {"name": "047f9b8ce536446644f867ac4a0f7b58", "fusion_lat": 0.0, "type": "electric_scooter", "lat": 38.905772, "is_reserved": 0, "is_disabled": 0, "fusion_lon": 0.0, "bike_id": "047f9b8ce536446644f867ac4a0f7b58", "lon": -77.02410183333333, "rental_uris": {"ios": "https://dc.lft.to/lastmile_qr_scan", "android": "https://dc.lft.to/lastmile_qr_scan"}}, {"name": "7c2c26dac172177a358847639798ab9b", "fusion_lat": 0.0, "type": "electric_bike", "lat": 39.0885625, "is_reserved": 0, "is_disabled": 0, "fusion_lon": 0.0, "bike_id": "7c2c26dac172177a358847639798ab9b", "lon": -77.1784235, "rental_uris": {"ios": "https://dc.lft.to/lastmile_qr_scan", "android": "https://dc.lft.to/lastmile_qr_scan"}}, {"name": "f7f049c45b0204ccec4e5751f86c0736", "fusion_lat": 0.0, "type": "electric_scooter", "lat": 38.9027975, "is_reserved": 0, "is_disabled": 0, "fusion_lon": 0.0, "bike_id": "f7f049c45b0204ccec4e5751f86c0736", "lon": -77.03666033333333, "rental_uris": {"ios": "https://dc.lft.to/lastmile_qr_scan", "android": "https://dc.lft.to/lastmile_qr_scan"}}, {"name": "b706292b3918df1ea10565fef4f6f31d", "fusion_lat": 0.0, "type": "electric_bike", "lat": 38.935193166666664, "is_reserved": 0, "is_disabled": 0, "fusion_lon": 0.0, "bike_id": "b706292b3918df1ea10565fef4f6f31d", "lon": -76.95062916666667, "rental_uris": {"ios": "https://dc.lft.to/lastmile_qr_scan", "android": "https://dc.lft.to/lastmile_qr_scan"}}, {"name": "48324b9247ef5c6fc7540f9c99f6dbc6", "fusion_lat": 0.0, "type": "electric_scooter", "lat": 38.86690933333333, "is_reserved": 0, "is_disabled": 0, "fusion_lon": 0.0, "bike_id": "48324b9247ef5c6fc7540f9c99f6dbc6", "lon": -76.98904833333333, "rental_uris": {"ios": "https://dc.lft.to/lastmile_qr_scan", "android": "https://dc.lft.to/lastmile_qr_scan"}}, {"name": "146cd7ff30b1dd337811924c51399a30", "fusion_lat": 0.0, "type": "electric_scooter", "lat": 38.914035, "is_reserved": 0, "is_disabled": 0, "fusion_lon": 0.0, "bike_id": "146cd7ff30b1dd337811924c51399a30", "lon": -77.0222815, "rental_uris": {"ios": "https://dc.lft.to/lastmile_qr_scan", "android": "https://dc.lft.to/lastmile_qr_scan"}}, {"name": "69c22c1fec64caf6b56fcf2e13efef37", "fusion_lat": 0.0, "type": "electric_scooter", "lat": 38.90479933333334, "is_reserved": 0, "is_disabled": 0, "fusion_lon": 0.0, "bike_id": "69c22c1fec64caf6b56fcf2e13efef37", "lon": -77.0435005, "rental_uris": {"ios": "https://dc.lft.to/lastmile_qr_scan", "android": "https://dc.lft.to/lastmile_qr_scan"}}, {"name": "1d9c8de2742389c8c97abf1f5714f0ff", "fusion_lat": 0.0, "type": "electric_bike", "lat": 38.928500666666665, "is_reserved": 0, "is_disabled": 0, "fusion_lon": 0.0, "bike_id": "1d9c8de2742389c8c97abf1f5714f0ff", "lon": -77.2222005, "rental_uris": {"ios": "https://dc.lft.to/lastmile_qr_scan", "android": "https://dc.lft.to/lastmile_qr_scan"}}, {"name": "e8c0b82f7984290799456dcaa4666477", "fusion_lat": 0.0, "type": "electric_scooter", "lat": 38.921534666666666, "is_reserved": 0, "is_disabled": 0, "fusion_lon": 0.0, "bike_id": "e8c0b82f7984290799456dcaa4666477", "lon": -77.03387283333333, "rental_uris": {"ios": "https://dc.lft.to/lastmile_qr_scan", "android": "https://dc.lft.to/lastmile_qr_scan"}}, {"name": "0a44615357095624885893438b84d9c8", "fusion_lat": 0.0, "type": "electric_scooter", "lat": 38.90000883333333, "is_reserved": 0, "is_disabled": 0, "fusion_lon": 0.0, "bike_id": "0a44615357095624885893438b84d9c8", "lon": -77.0405485, "rental_uris": {"ios": "https://dc.lft.to/lastmile_qr_scan", "android": "https://dc.lft.to/lastmile_qr_scan"}}, {"name": "149d7391305a417a115a3db505cdfbd8", "fusion_lat": 0.0, "type": "electric_scooter", "lat": 38.8943445, "is_reserved": 0, "is_disabled": 0, "fusion_lon": 0.0, "bike_id": "149d7391305a417a115a3db505cdfbd8", "lon": -77.04540733333333, "rental_uris": {"ios": "https://dc.lft.to/lastmile_qr_scan", "android": "https://dc.lft.to/lastmile_qr_scan"}}, {"name": "bdc2ae481584eae4ca5342059950b7fb", "fusion_lat": 0.0, "type": "electric_scooter", "lat": 38.877112, "is_reserved": 0, "is_disabled": 0, "fusion_lon": 0.0, "bike_id": "bdc2ae481584eae4ca5342059950b7fb", "lon": -77.01644916666666, "rental_uris": {"ios": "https://dc.lft.to/lastmile_qr_scan", "android": "https://dc.lft.to/lastmile_qr_scan"}}, {"name": "4aab257e46a38298d82d3c9287aa3017", "fusion_lat": 0.0, "type": "electric_scooter", "lat": 38.900324166666664, "is_reserved": 0, "is_disabled": 0, "fusion_lon": 0.0, "bike_id": "4aab257e46a38298d82d3c9287aa3017", "lon": -77.00907366666667, "rental_uris": {"ios": "https://dc.lft.to/lastmile_qr_scan", "android": "https://dc.lft.to/lastmile_qr_scan"}}, {"name": "231d6f99fdbd2be0640291714bf9be14", "fusion_lat": 0.0, "type": "electric_scooter", "lat": 38.902823166666664, "is_reserved": 0, "is_disabled": 0, "fusion_lon": 0.0, "bike_id": "231d6f99fdbd2be0640291714bf9be14", "lon": -77.00338416666666, "rental_uris": {"ios": "https://dc.lft.to/lastmile_qr_scan", "android": "https://dc.lft.to/lastmile_qr_scan"}}, {"name": "aa1f5dcbee5967898c5d6a96129ff730", "fusion_lat": 0.0, "type": "electric_scooter", "lat": 38.9216025, "is_reserved": 0, "is_disabled": 0, "fusion_lon": 0.0, "bike_id": "aa1f5dcbee5967898c5d6a96129ff730", "lon": -77.03383966666667, "rental_uris": {"ios": "https://dc.lft.to/lastmile_qr_scan", "android": "https://dc.lft.to/lastmile_qr_scan"}}, {"name": "2fa6763c6d90ea906c78825994860bd6", "fusion_lat": 0.0, "type": "electric_scooter", "lat": 38.907179666666664, "is_reserved": 0, "is_disabled": 0, "fusion_lon": 0.0, "bike_id": "2fa6763c6d90ea906c78825994860bd6", "lon": -76.99752333333333, "rental_uris": {"ios": "https://dc.lft.to/lastmile_qr_scan", "android": "https://dc.lft.to/lastmile_qr_scan"}}, {"name": "40a9e95f2fcc9e24b41ebd2830cbd904", "fusion_lat": 0.0, "type": "electric_scooter", "lat": 38.91754816666667, "is_reserved": 0, "is_disabled": 0, "fusion_lon": 0.0, "bike_id": "40a9e95f2fcc9e24b41ebd2830cbd904", "lon": -77.041559, "rental_uris": {"ios": "https://dc.lft.to/lastmile_qr_scan", "android": "https://dc.lft.to/lastmile_qr_scan"}}, {"name": "47054940974fe0134f60ef3b587f3d55", "fusion_lat": 0.0, "type": "electric_scooter", "lat": 38.93091066666667, "is_reserved": 0, "is_disabled": 0, "fusion_lon": 0.0, "bike_id": "47054940974fe0134f60ef3b587f3d55", "lon": -77.02491183333333, "rental_uris": {"ios": "https://dc.lft.to/lastmile_qr_scan", "android": "https://dc.lft.to/lastmile_qr_scan"}}, {"name": "876e8d4410409a57267856d6619dfccb", "fusion_lat": 0.0, "type": "electric_scooter", "lat": 38.899742833333335, "is_reserved": 0, "is_disabled": 0, "fusion_lon": 0.0, "bike_id": "876e8d4410409a57267856d6619dfccb", "lon": -77.027206, "rental_uris": {"ios": "https://dc.lft.to/lastmile_qr_scan", "android": "https://dc.lft.to/lastmile_qr_scan"}}, {"name": "279720f26b36be86be799e4059bdfe0f", "fusion_lat": 0.0, "type": "electric_scooter", "lat": 38.917342, "is_reserved": 0, "is_disabled": 0, "fusion_lon": 0.0, "bike_id": "279720f26b36be86be799e4059bdfe0f", "lon": -77.03208833333333, "rental_uris": {"ios": "https://dc.lft.to/lastmile_qr_scan", "android": "https://dc.lft.to/lastmile_qr_scan"}}, {"name": "98a398b510fe531ccdfbc6eb684b50c4", "fusion_lat": 0.0, "type": "electric_bike", "lat": 38.99451, "is_reserved": 0, "is_disabled": 0, "fusion_lon": 0.0, "bike_id": "98a398b510fe531ccdfbc6eb684b50c4", "lon": -76.90815966666666, "rental_uris": {"ios": "https://dc.lft.to/lastmile_qr_scan", "android": "https://dc.lft.to/lastmile_qr_scan"}}, {"name": "3b32ba90c42f4edbbb08aa7b2771978d", "fusion_lat": 0.0, "type": "electric_scooter", "lat": 38.9223655, "is_reserved": 0, "is_disabled": 0, "fusion_lon": 0.0, "bike_id": "3b32ba90c42f4edbbb08aa7b2771978d", "lon": -77.0309165, "rental_uris": {"ios": "https://dc.lft.to/lastmile_qr_scan", "android": "https://dc.lft.to/lastmile_qr_scan"}}, {"name": "e3c20544872de662a6c2c410ed533907", "fusion_lat": 0.0, "type": "electric_scooter", "lat": 38.91173033333333, "is_reserved": 0, "is_disabled": 0, "fusion_lon": 0.0, "bike_id": "e3c20544872de662a6c2c410ed533907", "lon": -77.03178066666666, "rental_uris": {"ios": "https://dc.lft.to/lastmile_qr_scan", "android": "https://dc.lft.to/lastmile_qr_scan"}}, {"name": "efd4979225176b31815da2272a02b3f1", "fusion_lat": 0.0, "type": "electric_scooter", "lat": 38.902776333333335, "is_reserved": 0, "is_disabled": 0, "fusion_lon": 0.0, "bike_id": "efd4979225176b31815da2272a02b3f1", "lon": -77.038326, "rental_uris": {"ios": "https://dc.lft.to/lastmile_qr_scan", "android": "https://dc.lft.to/lastmile_qr_scan"}}, {"name": "c6796162cc2d9f9da743610b4a7c8596", "fusion_lat": 0.0, "type": "electric_scooter", "lat": 38.90542383333333, "is_reserved": 0, "is_disabled": 0, "fusion_lon": 0.0, "bike_id": "c6796162cc2d9f9da743610b4a7c8596", "lon": -77.050129, "rental_uris": {"ios": "https://dc.lft.to/lastmile_qr_scan", "android": "https://dc.lft.to/lastmile_qr_scan"}}, {"name": "9e0f1143d0e47008feb88c89a06781d1", "fusion_lat": 0.0, "type": "electric_bike", "lat": 38.90529466666667, "is_reserved": 0, "is_disabled": 0, "fusion_lon": 0.0, "bike_id": "9e0f1143d0e47008feb88c89a06781d1", "lon": -76.9980905, "rental_uris": {"ios": "https://dc.lft.to/lastmile_qr_scan", "android": "https://dc.lft.to/lastmile_qr_scan"}}, {"name": "402f1fcca73ce3e1a9ba4761cf058e6e", "fusion_lat": 0.0, "type": "electric_scooter", "lat": 38.906567, "is_reserved": 0, "is_disabled": 0, "fusion_lon": 0.0, "bike_id": "402f1fcca73ce3e1a9ba4761cf058e6e", "lon": -77.03869766666666, "rental_uris": {"ios": "https://dc.lft.to/lastmile_qr_scan", "android": "https://dc.lft.to/lastmile_qr_scan"}}, {"name": "08878d1b3a3907589a8f54bd4f62077d", "fusion_lat": 0.0, "type": "electric_bike", "lat": 38.87477033333333, "is_reserved": 0, "is_disabled": 0, "fusion_lon": 0.0, "bike_id": "08878d1b3a3907589a8f54bd4f62077d", "lon": -76.96527683333333, "rental_uris": {"ios": "https://dc.lft.to/lastmile_qr_scan", "android": "https://dc.lft.to/lastmile_qr_scan"}}, {"name": "3294f0df50d2521d08b16125f21b0775", "fusion_lat": 0.0, "type": "electric_scooter", "lat": 38.9004115, "is_reserved": 0, "is_disabled": 0, "fusion_lon": 0.0, "bike_id": "3294f0df50d2521d08b16125f21b0775", "lon": -76.9883795, "rental_uris": {"ios": "https://dc.lft.to/lastmile_qr_scan", "android": "https://dc.lft.to/lastmile_qr_scan"}}, {"name": "65c85bd8bc5b144e07f8b7aa37416648", "fusion_lat": 0.0, "type": "electric_scooter", "lat": 38.908831166666666, "is_reserved": 0, "is_disabled": 0, "fusion_lon": 0.0, "bike_id": "65c85bd8bc5b144e07f8b7aa37416648", "lon": -77.03383283333334, "rental_uris": {"ios": "https://dc.lft.to/lastmile_qr_scan", "android": "https://dc.lft.to/lastmile_qr_scan"}}, {"name": "7c0a61cba144a446de7eb6f19a774b8e", "fusion_lat": 0.0, "type": "electric_scooter", "lat": 38.875752166666665, "is_reserved": 0, "is_disabled": 0, "fusion_lon": 0.0, "bike_id": "7c0a61cba144a446de7eb6f19a774b8e", "lon": -77.01058066666667, "rental_uris": {"ios": "https://dc.lft.to/lastmile_qr_scan", "android": "https://dc.lft.to/lastmile_qr_scan"}}, {"name": "acb66c1f7d6424c649cb89707955d573", "fusion_lat": 0.0, "type": "electric_scooter", "lat": 38.90388, "is_reserved": 0, "is_disabled": 0, "fusion_lon": 0.0, "bike_id": "acb66c1f7d6424c649cb89707955d573", "lon": -77.01641316666667, "rental_uris": {"ios": "https://dc.lft.to/lastmile_qr_scan", "android": "https://dc.lft.to/lastmile_qr_scan"}}, {"name": "58de4ba2183a703bd570b8c796e8aa71", "fusion_lat": 0.0, "type": "electric_scooter", "lat": 38.9126375, "is_reserved": 0, "is_disabled": 0, "fusion_lon": 0.0, "bike_id": "58de4ba2183a703bd570b8c796e8aa71", "lon": -77.041499, "rental_uris": {"ios": "https://dc.lft.to/lastmile_qr_scan", "android": "https://dc.lft.to/lastmile_qr_scan"}}, {"name": "418cb404c3eebad4f4830cdf0f6e9bf8", "fusion_lat": 0.0, "type": "electric_scooter", "lat": 38.910133, "is_reserved": 0, "is_disabled": 0, "fusion_lon": 0.0, "bike_id": "418cb404c3eebad4f4830cdf0f6e9bf8", "lon": -76.993859, "rental_uris": {"ios": "https://dc.lft.to/lastmile_qr_scan", "android": "https://dc.lft.to/lastmile_qr_scan"}}, {"name": "f01aa70a98c71def92f976bb1ae1adf1", "fusion_lat": 0.0, "type": "electric_scooter", "lat": 38.921805, "is_reserved": 0, "is_disabled": 0, "fusion_lon": 0.0, "bike_id": "f01aa70a98c71def92f976bb1ae1adf1", "lon": -77.02657733333334, "rental_uris": {"ios": "https://dc.lft.to/lastmile_qr_scan", "android": "https://dc.lft.to/lastmile_qr_scan"}}, {"name": "5f1045c38372f77a135ed25f578125f2", "fusion_lat": 0.0, "type": "electric_bike", "lat": 38.938725, "is_reserved": 0, "is_disabled": 0, "fusion_lon": 0.0, "bike_id": "5f1045c38372f77a135ed25f578125f2", "lon": -77.02927683333333, "rental_uris": {"ios": "https://dc.lft.to/lastmile_qr_scan", "android": "https://dc.lft.to/lastmile_qr_scan"}}, {"name": "af465efbbfa0db58289f1015b64a6528", "fusion_lat": 0.0, "type": "electric_scooter", "lat": 38.92067016666667, "is_reserved": 0, "is_disabled": 0, "fusion_lon": 0.0, "bike_id": "af465efbbfa0db58289f1015b64a6528", "lon": -77.04252116666666, "rental_uris": {"ios": "https://dc.lft.to/lastmile_qr_scan", "android": "https://dc.lft.to/lastmile_qr_scan"}}, {"name": "738c82b2117c66297566b72bc4654e38", "fusion_lat": 0.0, "type": "electric_scooter", "lat": 38.917235833333336, "is_reserved": 0, "is_disabled": 0, "fusion_lon": 0.0, "bike_id": "738c82b2117c66297566b72bc4654e38", "lon": -77.0383335, "rental_uris": {"ios": "https://dc.lft.to/lastmile_qr_scan", "android": "https://dc.lft.to/lastmile_qr_scan"}}, {"name": "25457bcc0d3044500735affbd948e22d", "fusion_lat": 0.0, "type": "electric_scooter", "lat": 38.91558083333334, "is_reserved": 0, "is_disabled": 0, "fusion_lon": 0.0, "bike_id": "25457bcc0d3044500735affbd948e22d", "lon": -77.031747, "rental_uris": {"ios": "https://dc.lft.to/lastmile_qr_scan", "android": "https://dc.lft.to/lastmile_qr_scan"}}, {"name": "7eb8199e0d4df64785152dc4abb42d98", "fusion_lat": 0.0, "type": "electric_scooter", "lat": 38.88609983333333, "is_reserved": 0, "is_disabled": 0, "fusion_lon": 0.0, "bike_id": "7eb8199e0d4df64785152dc4abb42d98", "lon": -77.01998716666667, "rental_uris": {"ios": "https://dc.lft.to/lastmile_qr_scan", "android": "https://dc.lft.to/lastmile_qr_scan"}}, {"name": "7040edad1743dd726ca1dde4b7e0ab22", "fusion_lat": 0.0, "type": "electric_scooter", "lat": 38.9051975, "is_reserved": 0, "is_disabled": 0, "fusion_lon": 0.0, "bike_id": "7040edad1743dd726ca1dde4b7e0ab22", "lon": -77.06628133333334, "rental_uris": {"ios": "https://dc.lft.to/lastmile_qr_scan", "android": "https://dc.lft.to/lastmile_qr_scan"}}, {"name": "38cced42e7e90c7b24c926937db2cb22", "fusion_lat": 0.0, "type": "electric_scooter", "lat": 38.866546166666666, "is_reserved": 0, "is_disabled": 0, "fusion_lon": 0.0, "bike_id": "38cced42e7e90c7b24c926937db2cb22", "lon": -76.988904, "rental_uris": {"ios": "https://dc.lft.to/lastmile_qr_scan", "android": "https://dc.lft.to/lastmile_qr_scan"}}, {"name": "296f7a4f0a1cf64b436dbc187f3c003c", "fusion_lat": 0.0, "type": "electric_scooter", "lat": 38.9159035, "is_reserved": 0, "is_disabled": 0, "fusion_lon": 0.0, "bike_id": "296f7a4f0a1cf64b436dbc187f3c003c", "lon": -77.03855733333333, "rental_uris": {"ios": "https://dc.lft.to/lastmile_qr_scan", "android": "https://dc.lft.to/lastmile_qr_scan"}}, {"name": "53733ad93136123850b36c6ec4230c8d", "fusion_lat": 0.0, "type": "electric_bike", "lat": 38.942714, "is_reserved": 0, "is_disabled": 0, "fusion_lon": 0.0, "bike_id": "53733ad93136123850b36c6ec4230c8d", "lon": -76.98074466666667, "rental_uris": {"ios": "https://dc.lft.to/lastmile_qr_scan", "android": "https://dc.lft.to/lastmile_qr_scan"}}, {"name": "a17a5c10c44ea0ab69694dc392995bf7", "fusion_lat": 0.0, "type": "electric_scooter", "lat": 38.906997833333335, "is_reserved": 0, "is_disabled": 0, "fusion_lon": 0.0, "bike_id": "a17a5c10c44ea0ab69694dc392995bf7", "lon": -77.02387583333334, "rental_uris": {"ios": "https://dc.lft.to/lastmile_qr_scan", "android": "https://dc.lft.to/lastmile_qr_scan"}}, {"name": "bf76f77882da2bd9816ca7d4f3d26e57", "fusion_lat": 0.0, "type": "electric_scooter", "lat": 38.9026435, "is_reserved": 0, "is_disabled": 0, "fusion_lon": 0.0, "bike_id": "bf76f77882da2bd9816ca7d4f3d26e57", "lon": -77.01538366666666, "rental_uris": {"ios": "https://dc.lft.to/lastmile_qr_scan", "android": "https://dc.lft.to/lastmile_qr_scan"}}, {"name": "520f34abf0a558e7fcaf1107c5f17a9f", "fusion_lat": 0.0, "type": "electric_scooter", "lat": 38.9000195, "is_reserved": 0, "is_disabled": 0, "fusion_lon": 0.0, "bike_id": "520f34abf0a558e7fcaf1107c5f17a9f", "lon": -77.01127816666667, "rental_uris": {"ios": "https://dc.lft.to/lastmile_qr_scan", "android": "https://dc.lft.to/lastmile_qr_scan"}}, {"name": "dd4f27a057ccdc7f3d532110d3cc32b6", "fusion_lat": 0.0, "type": "electric_bike", "lat": 38.9881615, "is_reserved": 0, "is_disabled": 0, "fusion_lon": 0.0, "bike_id": "dd4f27a057ccdc7f3d532110d3cc32b6", "lon": -77.0266515, "rental_uris": {"ios": "https://dc.lft.to/lastmile_qr_scan", "android": "https://dc.lft.to/lastmile_qr_scan"}}, {"name": "1121f751c85afe6352c2d7cd97682b11", "fusion_lat": 0.0, "type": "electric_scooter", "lat": 38.90060483333333, "is_reserved": 0, "is_disabled": 0, "fusion_lon": 0.0, "bike_id": "1121f751c85afe6352c2d7cd97682b11", "lon": -77.025841, "rental_uris": {"ios": "https://dc.lft.to/lastmile_qr_scan", "android": "https://dc.lft.to/lastmile_qr_scan"}}, {"name": "cf7873252a644df71b112a2eee66d43a", "fusion_lat": 0.0, "type": "electric_scooter", "lat": 38.91678616666667, "is_reserved": 0, "is_disabled": 0, "fusion_lon": 0.0, "bike_id": "cf7873252a644df71b112a2eee66d43a", "lon": -77.02314016666666, "rental_uris": {"ios": "https://dc.lft.to/lastmile_qr_scan", "android": "https://dc.lft.to/lastmile_qr_scan"}}, {"name": "60b979e54b75254d41791e4c9fc6ebf9", "fusion_lat": 0.0, "type": "electric_scooter", "lat": 38.89876966666667, "is_reserved": 0, "is_disabled": 0, "fusion_lon": 0.0, "bike_id": "60b979e54b75254d41791e4c9fc6ebf9", "lon": -76.93158866666667, "rental_uris": {"ios": "https://dc.lft.to/lastmile_qr_scan", "android": "https://dc.lft.to/lastmile_qr_scan"}}, {"name": "796d4c8231e45d6e2f29e40630f988bb", "fusion_lat": 0.0, "type": "electric_scooter", "lat": 38.919183333333336, "is_reserved": 0, "is_disabled": 0, "fusion_lon": 0.0, "bike_id": "796d4c8231e45d6e2f29e40630f988bb", "lon": -77.03422733333333, "rental_uris": {"ios": "https://dc.lft.to/lastmile_qr_scan", "android": "https://dc.lft.to/lastmile_qr_scan"}}, {"name": "52b0c1a5b2e824f4b6f4364c9bed07c1", "fusion_lat": 0.0, "type": "electric_scooter", "lat": 38.92519083333333, "is_reserved": 0, "is_disabled": 0, "fusion_lon": 0.0, "bike_id": "52b0c1a5b2e824f4b6f4364c9bed07c1", "lon": -77.055351, "rental_uris": {"ios": "https://dc.lft.to/lastmile_qr_scan", "android": "https://dc.lft.to/lastmile_qr_scan"}}, {"name": "7c678f3ac31d8cdd53a6ded21318fa2f", "fusion_lat": 0.0, "type": "electric_scooter", "lat": 38.9083045, "is_reserved": 0, "is_disabled": 0, "fusion_lon": 0.0, "bike_id": "7c678f3ac31d8cdd53a6ded21318fa2f", "lon": -76.996894, "rental_uris": {"ios": "https://dc.lft.to/lastmile_qr_scan", "android": "https://dc.lft.to/lastmile_qr_scan"}}, {"name": "6561efea1ead15c609a5d19e5e576bb8", "fusion_lat": 0.0, "type": "electric_scooter", "lat": 38.884289, "is_reserved": 0, "is_disabled": 0, "fusion_lon": 0.0, "bike_id": "6561efea1ead15c609a5d19e5e576bb8", "lon": -76.957552, "rental_uris": {"ios": "https://dc.lft.to/lastmile_qr_scan", "android": "https://dc.lft.to/lastmile_qr_scan"}}, {"name": "bf6112f451a1a30b77f83ddce94ec5ca", "fusion_lat": 0.0, "type": "electric_scooter", "lat": 38.87186466666667, "is_reserved": 0, "is_disabled": 0, "fusion_lon": 0.0, "bike_id": "bf6112f451a1a30b77f83ddce94ec5ca", "lon": -77.00596133333333, "rental_uris": {"ios": "https://dc.lft.to/lastmile_qr_scan", "android": "https://dc.lft.to/lastmile_qr_scan"}}, {"name": "5f40c7b5a90321ff67e9d98985dff1e3", "fusion_lat": 0.0, "type": "electric_scooter", "lat": 38.893976, "is_reserved": 0, "is_disabled": 0, "fusion_lon": 0.0, "bike_id": "5f40c7b5a90321ff67e9d98985dff1e3", "lon": -76.94807783333333, "rental_uris": {"ios": "https://dc.lft.to/lastmile_qr_scan", "android": "https://dc.lft.to/lastmile_qr_scan"}}, {"name": "3a8378254a1e3a26ea0cafa411e18dc1", "fusion_lat": 0.0, "type": "electric_bike", "lat": 38.83808833333333, "is_reserved": 0, "is_disabled": 0, "fusion_lon": 0.0, "bike_id": "3a8378254a1e3a26ea0cafa411e18dc1", "lon": -77.09525816666667, "rental_uris": {"ios": "https://dc.lft.to/lastmile_qr_scan", "android": "https://dc.lft.to/lastmile_qr_scan"}}, {"name": "9849fd56e1fa76c541dae965d353598f", "fusion_lat": 0.0, "type": "electric_scooter", "lat": 38.9027775, "is_reserved": 0, "is_disabled": 0, "fusion_lon": 0.0, "bike_id": "9849fd56e1fa76c541dae965d353598f", "lon": -77.039254, "rental_uris": {"ios": "https://dc.lft.to/lastmile_qr_scan", "android": "https://dc.lft.to/lastmile_qr_scan"}}, {"name": "c90ef8aa6d262eae7104630c3d1f346f", "fusion_lat": 0.0, "type": "electric_scooter", "lat": 38.90415133333333, "is_reserved": 0, "is_disabled": 0, "fusion_lon": 0.0, "bike_id": "c90ef8aa6d262eae7104630c3d1f346f", "lon": -77.018812, "rental_uris": {"ios": "https://dc.lft.to/lastmile_qr_scan", "android": "https://dc.lft.to/lastmile_qr_scan"}}, {"name": "9f1c0db9c74bc4ec84725a2d51410266", "fusion_lat": 0.0, "type": "electric_scooter", "lat": 38.878993666666666, "is_reserved": 0, "is_disabled": 0, "fusion_lon": 0.0, "bike_id": "9f1c0db9c74bc4ec84725a2d51410266", "lon": -77.00569666666667, "rental_uris": {"ios": "https://dc.lft.to/lastmile_qr_scan", "android": "https://dc.lft.to/lastmile_qr_scan"}}, {"name": "3fa5506ac48fe452fb6a0f50f5051ea7", "fusion_lat": 0.0, "type": "electric_scooter", "lat": 38.857078, "is_reserved": 0, "is_disabled": 0, "fusion_lon": 0.0, "bike_id": "3fa5506ac48fe452fb6a0f50f5051ea7", "lon": -76.9812905, "rental_uris": {"ios": "https://dc.lft.to/lastmile_qr_scan", "android": "https://dc.lft.to/lastmile_qr_scan"}}, {"name": "399ba85d7c3d763480197bbdf7517cf8", "fusion_lat": 0.0, "type": "electric_scooter", "lat": 38.9053025, "is_reserved": 0, "is_disabled": 0, "fusion_lon": 0.0, "bike_id": "399ba85d7c3d763480197bbdf7517cf8", "lon": -77.057636, "rental_uris": {"ios": "https://dc.lft.to/lastmile_qr_scan", "android": "https://dc.lft.to/lastmile_qr_scan"}}, {"name": "bc3375f0692207e360daf2b8f44cf94c", "fusion_lat": 0.0, "type": "electric_scooter", "lat": 38.931018333333334, "is_reserved": 0, "is_disabled": 0, "fusion_lon": 0.0, "bike_id": "bc3375f0692207e360daf2b8f44cf94c", "lon": -77.02508566666667, "rental_uris": {"ios": "https://dc.lft.to/lastmile_qr_scan", "android": "https://dc.lft.to/lastmile_qr_scan"}}, {"name": "c17cbd5420ad9def1f110b37bcfe398d", "fusion_lat": 0.0, "type": "electric_scooter", "lat": 38.8873915, "is_reserved": 0, "is_disabled": 0, "fusion_lon": 0.0, "bike_id": "c17cbd5420ad9def1f110b37bcfe398d", "lon": -77.0212875, "rental_uris": {"ios": "https://dc.lft.to/lastmile_qr_scan", "android": "https://dc.lft.to/lastmile_qr_scan"}}, {"name": "dc2281e2468550f831870c10630cf588", "fusion_lat": 0.0, "type": "electric_scooter", "lat": 38.900702833333334, "is_reserved": 0, "is_disabled": 0, "fusion_lon": 0.0, "bike_id": "dc2281e2468550f831870c10630cf588", "lon": -77.05023116666666, "rental_uris": {"ios": "https://dc.lft.to/lastmile_qr_scan", "android": "https://dc.lft.to/lastmile_qr_scan"}}, {"name": "07f4fdd1b7e47bd0ee293baa4521e40d", "fusion_lat": 0.0, "type": "electric_scooter", "lat": 38.9396605, "is_reserved": 0, "is_disabled": 0, "fusion_lon": 0.0, "bike_id": "07f4fdd1b7e47bd0ee293baa4521e40d", "lon": -77.0355665, "rental_uris": {"ios": "https://dc.lft.to/lastmile_qr_scan", "android": "https://dc.lft.to/lastmile_qr_scan"}}, {"name": "7f76885aaa2d9abbd695ce2eebcf06c2", "fusion_lat": 0.0, "type": "electric_bike", "lat": 38.832339833333336, "is_reserved": 0, "is_disabled": 0, "fusion_lon": 0.0, "bike_id": "7f76885aaa2d9abbd695ce2eebcf06c2", "lon": -76.94622, "rental_uris": {"ios": "https://dc.lft.to/lastmile_qr_scan", "android": "https://dc.lft.to/lastmile_qr_scan"}}, {"name": "c17fbe95dd10d8ae3332c85d2b78a74a", "fusion_lat": 0.0, "type": "electric_scooter", "lat": 38.901803666666666, "is_reserved": 0, "is_disabled": 0, "fusion_lon": 0.0, "bike_id": "c17fbe95dd10d8ae3332c85d2b78a74a", "lon": -77.05019783333333, "rental_uris": {"ios": "https://dc.lft.to/lastmile_qr_scan", "android": "https://dc.lft.to/lastmile_qr_scan"}}, {"name": "6c50ce65480c6c8a82eaa968d11e9db6", "fusion_lat": 0.0, "type": "electric_scooter", "lat": 38.883589666666666, "is_reserved": 0, "is_disabled": 0, "fusion_lon": 0.0, "bike_id": "6c50ce65480c6c8a82eaa968d11e9db6", "lon": -77.01997783333333, "rental_uris": {"ios": "https://dc.lft.to/lastmile_qr_scan", "android": "https://dc.lft.to/lastmile_qr_scan"}}, {"name": "5a3a1c08052f53cb311a50be8fa962de", "fusion_lat": 0.0, "type": "electric_scooter", "lat": 38.92365516666667, "is_reserved": 0, "is_disabled": 0, "fusion_lon": 0.0, "bike_id": "5a3a1c08052f53cb311a50be8fa962de", "lon": -77.03161033333333, "rental_uris": {"ios": "https://dc.lft.to/lastmile_qr_scan", "android": "https://dc.lft.to/lastmile_qr_scan"}}, {"name": "02389c7f8661cf50553b885e520be415", "fusion_lat": 0.0, "type": "electric_scooter", "lat": 38.88631066666667, "is_reserved": 0, "is_disabled": 0, "fusion_lon": 0.0, "bike_id": "02389c7f8661cf50553b885e520be415", "lon": -77.01529116666667, "rental_uris": {"ios": "https://dc.lft.to/lastmile_qr_scan", "android": "https://dc.lft.to/lastmile_qr_scan"}}, {"name": "e7059677e61c341af361f19bbf7b90ae", "fusion_lat": 0.0, "type": "electric_scooter", "lat": 38.890837, "is_reserved": 0, "is_disabled": 0, "fusion_lon": 0.0, "bike_id": "e7059677e61c341af361f19bbf7b90ae", "lon": -76.99142833333333, "rental_uris": {"ios": "https://dc.lft.to/lastmile_qr_scan", "android": "https://dc.lft.to/lastmile_qr_scan"}}, {"name": "93be928b21a42280dc2d1145b65c0781", "fusion_lat": 0.0, "type": "electric_scooter", "lat": 38.879057333333336, "is_reserved": 0, "is_disabled": 0, "fusion_lon": 0.0, "bike_id": "93be928b21a42280dc2d1145b65c0781", "lon": -77.0214855, "rental_uris": {"ios": "https://dc.lft.to/lastmile_qr_scan", "android": "https://dc.lft.to/lastmile_qr_scan"}}, {"name": "9e171f520a04c006d0b192a88aa9b0ae", "fusion_lat": 0.0, "type": "electric_scooter", "lat": 38.89907783333334, "is_reserved": 0, "is_disabled": 0, "fusion_lon": 0.0, "bike_id": "9e171f520a04c006d0b192a88aa9b0ae", "lon": -77.03939733333333, "rental_uris": {"ios": "https://dc.lft.to/lastmile_qr_scan", "android": "https://dc.lft.to/lastmile_qr_scan"}}, {"name": "c2a6cf5c2c9d5e9f18a802eef1630b79", "fusion_lat": 0.0, "type": "electric_scooter", "lat": 38.920764166666665, "is_reserved": 0, "is_disabled": 0, "fusion_lon": 0.0, "bike_id": "c2a6cf5c2c9d5e9f18a802eef1630b79", "lon": -77.0239345, "rental_uris": {"ios": "https://dc.lft.to/lastmile_qr_scan", "android": "https://dc.lft.to/lastmile_qr_scan"}}, {"name": "6d2eece72887269163d17748e008629f", "fusion_lat": 0.0, "type": "electric_scooter", "lat": 38.89295516666667, "is_reserved": 0, "is_disabled": 0, "fusion_lon": 0.0, "bike_id": "6d2eece72887269163d17748e008629f", "lon": -76.93926, "rental_uris": {"ios": "https://dc.lft.to/lastmile_qr_scan", "android": "https://dc.lft.to/lastmile_qr_scan"}}, {"name": "689b3b26438408348d7c8ed2ca042810", "fusion_lat": 0.0, "type": "electric_scooter", "lat": 38.939601, "is_reserved": 0, "is_disabled": 0, "fusion_lon": 0.0, "bike_id": "689b3b26438408348d7c8ed2ca042810", "lon": -77.02749266666666, "rental_uris": {"ios": "https://dc.lft.to/lastmile_qr_scan", "android": "https://dc.lft.to/lastmile_qr_scan"}}, {"name": "6032107942ba44b5ddc890bc2e99fd05", "fusion_lat": 0.0, "type": "electric_scooter", "lat": 38.898552333333335, "is_reserved": 0, "is_disabled": 0, "fusion_lon": 0.0, "bike_id": "6032107942ba44b5ddc890bc2e99fd05", "lon": -77.016093, "rental_uris": {"ios": "https://dc.lft.to/lastmile_qr_scan", "android": "https://dc.lft.to/lastmile_qr_scan"}}, {"name": "c6112df19629410ffd72358c8df26386", "fusion_lat": 0.0, "type": "electric_scooter", "lat": 38.90021133333333, "is_reserved": 0, "is_disabled": 0, "fusion_lon": 0.0, "bike_id": "c6112df19629410ffd72358c8df26386", "lon": -76.9985855, "rental_uris": {"ios": "https://dc.lft.to/lastmile_qr_scan", "android": "https://dc.lft.to/lastmile_qr_scan"}}, {"name": "dbbea2cc415be320e373e9a1d79a16cb", "fusion_lat": 0.0, "type": "electric_scooter", "lat": 38.8714435, "is_reserved": 0, "is_disabled": 0, "fusion_lon": 0.0, "bike_id": "dbbea2cc415be320e373e9a1d79a16cb", "lon": -77.00625233333334, "rental_uris": {"ios": "https://dc.lft.to/lastmile_qr_scan", "android": "https://dc.lft.to/lastmile_qr_scan"}}, {"name": "6c10fc377463e043026ab4d6b2a1bf54", "fusion_lat": 0.0, "type": "electric_scooter", "lat": 38.927358, "is_reserved": 0, "is_disabled": 0, "fusion_lon": 0.0, "bike_id": "6c10fc377463e043026ab4d6b2a1bf54", "lon": -77.0249045, "rental_uris": {"ios": "https://dc.lft.to/lastmile_qr_scan", "android": "https://dc.lft.to/lastmile_qr_scan"}}, {"name": "c81158a2534ccb478d2c85433e798705", "fusion_lat": 0.0, "type": "electric_scooter", "lat": 38.9361645, "is_reserved": 0, "is_disabled": 0, "fusion_lon": 0.0, "bike_id": "c81158a2534ccb478d2c85433e798705", "lon": -77.03211033333334, "rental_uris": {"ios": "https://dc.lft.to/lastmile_qr_scan", "android": "https://dc.lft.to/lastmile_qr_scan"}}, {"name": "c95ae47fbf4095da9ce938c1ddfdc221", "fusion_lat": 0.0, "type": "electric_scooter", "lat": 38.91014966666667, "is_reserved": 0, "is_disabled": 0, "fusion_lon": 0.0, "bike_id": "c95ae47fbf4095da9ce938c1ddfdc221", "lon": -76.99671833333333, "rental_uris": {"ios": "https://dc.lft.to/lastmile_qr_scan", "android": "https://dc.lft.to/lastmile_qr_scan"}}, {"name": "fb0b422bd6b877e1882d65e160234f3a", "fusion_lat": 0.0, "type": "electric_scooter", "lat": 38.937030166666666, "is_reserved": 0, "is_disabled": 0, "fusion_lon": 0.0, "bike_id": "fb0b422bd6b877e1882d65e160234f3a", "lon": -77.061054, "rental_uris": {"ios": "https://dc.lft.to/lastmile_qr_scan", "android": "https://dc.lft.to/lastmile_qr_scan"}}, {"name": "0396812fa48030d8f23c92de24ce7127", "fusion_lat": 0.0, "type": "electric_scooter", "lat": 38.9440185, "is_reserved": 0, "is_disabled": 0, "fusion_lon": 0.0, "bike_id": "0396812fa48030d8f23c92de24ce7127", "lon": -77.063333, "rental_uris": {"ios": "https://dc.lft.to/lastmile_qr_scan", "android": "https://dc.lft.to/lastmile_qr_scan"}}, {"name": "ca6a0da5d1ff346b195fb2b25facc27c", "fusion_lat": 0.0, "type": "electric_scooter", "lat": 38.931244666666665, "is_reserved": 0, "is_disabled": 0, "fusion_lon": 0.0, "bike_id": "ca6a0da5d1ff346b195fb2b25facc27c", "lon": -77.03603133333333, "rental_uris": {"ios": "https://dc.lft.to/lastmile_qr_scan", "android": "https://dc.lft.to/lastmile_qr_scan"}}, {"name": "0b3371e0b0892f75ba648e9c06c9e2d5", "fusion_lat": 0.0, "type": "electric_scooter", "lat": 38.896314333333336, "is_reserved": 0, "is_disabled": 0, "fusion_lon": 0.0, "bike_id": "0b3371e0b0892f75ba648e9c06c9e2d5", "lon": -77.04659883333333, "rental_uris": {"ios": "https://dc.lft.to/lastmile_qr_scan", "android": "https://dc.lft.to/lastmile_qr_scan"}}, {"name": "392e9b6889572a40a0278cfc86022336", "fusion_lat": 0.0, "type": "electric_scooter", "lat": 38.907452666666664, "is_reserved": 0, "is_disabled": 0, "fusion_lon": 0.0, "bike_id": "392e9b6889572a40a0278cfc86022336", "lon": -77.03189566666667, "rental_uris": {"ios": "https://dc.lft.to/lastmile_qr_scan", "android": "https://dc.lft.to/lastmile_qr_scan"}}, {"name": "ee67adef2fa8fd3cd04ad68a4aebc997", "fusion_lat": 0.0, "type": "electric_scooter", "lat": 38.9060935, "is_reserved": 0, "is_disabled": 0, "fusion_lon": 0.0, "bike_id": "ee67adef2fa8fd3cd04ad68a4aebc997", "lon": -77.02413483333333, "rental_uris": {"ios": "https://dc.lft.to/lastmile_qr_scan", "android": "https://dc.lft.to/lastmile_qr_scan"}}, {"name": "899272b1031b53c7d970b6834c3a8571", "fusion_lat": 0.0, "type": "electric_scooter", "lat": 38.895265, "is_reserved": 0, "is_disabled": 0, "fusion_lon": 0.0, "bike_id": "899272b1031b53c7d970b6834c3a8571", "lon": -77.04286233333333, "rental_uris": {"ios": "https://dc.lft.to/lastmile_qr_scan", "android": "https://dc.lft.to/lastmile_qr_scan"}}, {"name": "8680c22a20a666745af698f9260c24b4", "fusion_lat": 0.0, "type": "electric_scooter", "lat": 38.89850066666666, "is_reserved": 0, "is_disabled": 0, "fusion_lon": 0.0, "bike_id": "8680c22a20a666745af698f9260c24b4", "lon": -76.99032483333333, "rental_uris": {"ios": "https://dc.lft.to/lastmile_qr_scan", "android": "https://dc.lft.to/lastmile_qr_scan"}}, {"name": "c0ffefa558834527b6a9a73f1f6f28a5", "fusion_lat": 0.0, "type": "electric_scooter", "lat": 38.90333733333333, "is_reserved": 0, "is_disabled": 0, "fusion_lon": 0.0, "bike_id": "c0ffefa558834527b6a9a73f1f6f28a5", "lon": -76.99853233333333, "rental_uris": {"ios": "https://dc.lft.to/lastmile_qr_scan", "android": "https://dc.lft.to/lastmile_qr_scan"}}, {"name": "26006e50cb5a14802e9d3ff86392df50", "fusion_lat": 0.0, "type": "electric_scooter", "lat": 38.91244283333333, "is_reserved": 0, "is_disabled": 0, "fusion_lon": 0.0, "bike_id": "26006e50cb5a14802e9d3ff86392df50", "lon": -77.03838066666667, "rental_uris": {"ios": "https://dc.lft.to/lastmile_qr_scan", "android": "https://dc.lft.to/lastmile_qr_scan"}}, {"name": "fdca750ccd8a50c5a7e9c17fdf8dddc6", "fusion_lat": 0.0, "type": "electric_scooter", "lat": 38.899458333333335, "is_reserved": 0, "is_disabled": 0, "fusion_lon": 0.0, "bike_id": "fdca750ccd8a50c5a7e9c17fdf8dddc6", "lon": -77.02387983333334, "rental_uris": {"ios": "https://dc.lft.to/lastmile_qr_scan", "android": "https://dc.lft.to/lastmile_qr_scan"}}, {"name": "4d4d2724b7b27c1b19c33f3f0eb11a43", "fusion_lat": 0.0, "type": "electric_bike", "lat": 38.80224316666666, "is_reserved": 0, "is_disabled": 0, "fusion_lon": 0.0, "bike_id": "4d4d2724b7b27c1b19c33f3f0eb11a43", "lon": -77.079167, "rental_uris": {"ios": "https://dc.lft.to/lastmile_qr_scan", "android": "https://dc.lft.to/lastmile_qr_scan"}}, {"name": "ddd6982b68df436829e45ceda5a4ee14", "fusion_lat": 0.0, "type": "electric_scooter", "lat": 38.8768875, "is_reserved": 0, "is_disabled": 0, "fusion_lon": 0.0, "bike_id": "ddd6982b68df436829e45ceda5a4ee14", "lon": -77.01757366666666, "rental_uris": {"ios": "https://dc.lft.to/lastmile_qr_scan", "android": "https://dc.lft.to/lastmile_qr_scan"}}, {"name": "4eb28e69d1cdb5c9d3bbbc210958a485", "fusion_lat": 0.0, "type": "electric_bike", "lat": 38.906840333333335, "is_reserved": 0, "is_disabled": 0, "fusion_lon": 0.0, "bike_id": "4eb28e69d1cdb5c9d3bbbc210958a485", "lon": -76.95187683333333, "rental_uris": {"ios": "https://dc.lft.to/lastmile_qr_scan", "android": "https://dc.lft.to/lastmile_qr_scan"}}, {"name": "07744772e98a8446d5f1f205b397f1a9", "fusion_lat": 0.0, "type": "electric_scooter", "lat": 38.8865365, "is_reserved": 0, "is_disabled": 0, "fusion_lon": 0.0, "bike_id": "07744772e98a8446d5f1f205b397f1a9", "lon": -77.01367533333334, "rental_uris": {"ios": "https://dc.lft.to/lastmile_qr_scan", "android": "https://dc.lft.to/lastmile_qr_scan"}}, {"name": "451b0c6e2655badc26f32736debfa319", "fusion_lat": 0.0, "type": "electric_scooter", "lat": 38.931871666666666, "is_reserved": 0, "is_disabled": 0, "fusion_lon": 0.0, "bike_id": "451b0c6e2655badc26f32736debfa319", "lon": -77.027781, "rental_uris": {"ios": "https://dc.lft.to/lastmile_qr_scan", "android": "https://dc.lft.to/lastmile_qr_scan"}}, {"name": "348e08d1b9d7e3619b4f22f1fcbe4532", "fusion_lat": 0.0, "type": "electric_scooter", "lat": 38.90367416666667, "is_reserved": 0, "is_disabled": 0, "fusion_lon": 0.0, "bike_id": "348e08d1b9d7e3619b4f22f1fcbe4532", "lon": -77.01109683333334, "rental_uris": {"ios": "https://dc.lft.to/lastmile_qr_scan", "android": "https://dc.lft.to/lastmile_qr_scan"}}, {"name": "438afdfa4ccb8d970d4db0feb559944e", "fusion_lat": 0.0, "type": "electric_scooter", "lat": 38.898319, "is_reserved": 0, "is_disabled": 0, "fusion_lon": 0.0, "bike_id": "438afdfa4ccb8d970d4db0feb559944e", "lon": -76.94569566666667, "rental_uris": {"ios": "https://dc.lft.to/lastmile_qr_scan", "android": "https://dc.lft.to/lastmile_qr_scan"}}, {"name": "0b60bb3adf72e08c18df6e5c8e93c9ff", "fusion_lat": 0.0, "type": "electric_scooter", "lat": 38.91601033333333, "is_reserved": 0, "is_disabled": 0, "fusion_lon": 0.0, "bike_id": "0b60bb3adf72e08c18df6e5c8e93c9ff", "lon": -77.03861916666666, "rental_uris": {"ios": "https://dc.lft.to/lastmile_qr_scan", "android": "https://dc.lft.to/lastmile_qr_scan"}}, {"name": "4344e103499cb227a4f360c083aa5ad1", "fusion_lat": 0.0, "type": "electric_scooter", "lat": 38.92480333333334, "is_reserved": 0, "is_disabled": 0, "fusion_lon": 0.0, "bike_id": "4344e103499cb227a4f360c083aa5ad1", "lon": -77.02692233333333, "rental_uris": {"ios": "https://dc.lft.to/lastmile_qr_scan", "android": "https://dc.lft.to/lastmile_qr_scan"}}, {"name": "1805d56c8d65cccbaa03380bd291faae", "fusion_lat": 0.0, "type": "electric_scooter", "lat": 38.8635185, "is_reserved": 0, "is_disabled": 0, "fusion_lon": 0.0, "bike_id": "1805d56c8d65cccbaa03380bd291faae", "lon": -76.990672, "rental_uris": {"ios": "https://dc.lft.to/lastmile_qr_scan", "android": "https://dc.lft.to/lastmile_qr_scan"}}, {"name": "5d19ab0066f3287d19f9ce3cfd3dec16", "fusion_lat": 0.0, "type": "electric_scooter", "lat": 38.9122475, "is_reserved": 0, "is_disabled": 0, "fusion_lon": 0.0, "bike_id": "5d19ab0066f3287d19f9ce3cfd3dec16", "lon": -77.03835283333333, "rental_uris": {"ios": "https://dc.lft.to/lastmile_qr_scan", "android": "https://dc.lft.to/lastmile_qr_scan"}}, {"name": "947c11200aa49d286f09c5d45763c67c", "fusion_lat": 0.0, "type": "electric_bike", "lat": 38.94169383333333, "is_reserved": 0, "is_disabled": 0, "fusion_lon": 0.0, "bike_id": "947c11200aa49d286f09c5d45763c67c", "lon": -77.03278283333333, "rental_uris": {"ios": "https://dc.lft.to/lastmile_qr_scan", "android": "https://dc.lft.to/lastmile_qr_scan"}}, {"name": "a25152f182526f79773267cd30a7b36e", "fusion_lat": 0.0, "type": "electric_scooter", "lat": 38.90943933333333, "is_reserved": 0, "is_disabled": 0, "fusion_lon": 0.0, "bike_id": "a25152f182526f79773267cd30a7b36e", "lon": -77.04729683333333, "rental_uris": {"ios": "https://dc.lft.to/lastmile_qr_scan", "android": "https://dc.lft.to/lastmile_qr_scan"}}, {"name": "465439b3ea16694ba02eca4066af1996", "fusion_lat": 0.0, "type": "electric_scooter", "lat": 38.9083005, "is_reserved": 0, "is_disabled": 0, "fusion_lon": 0.0, "bike_id": "465439b3ea16694ba02eca4066af1996", "lon": -77.033584, "rental_uris": {"ios": "https://dc.lft.to/lastmile_qr_scan", "android": "https://dc.lft.to/lastmile_qr_scan"}},