{"data": {"bikes": [{"is_reserved": 0, "lat": 38.912060833333335, "rental_uris": {"android": "https://dc.lft.to/lastmile_qr_scan", "ios": "https://dc.lft.to/lastmile_qr_scan"}, "bike_id": "ceac5143899a00563542fb31514f5c87", "fusion_lon": 0.0, "fusion_lat": 0.0, "is_disabled": 0, "name": "ceac5143899a00563542fb31514f5c87", "type": "electric_scooter", "lon": -77.044908}, {"is_reserved": 0, "lat": 38.899327666666665, "rental_uris": {"android": "https://dc.lft.to/lastmile_qr_scan", "ios": "https://dc.lft.to/lastmile_qr_scan"}, "bike_id": "46c9d3ce14fe8724b42694d70e8974da", "fusion_lon": 0.0, "fusion_lat": 0.0, "is_disabled": 0, "name": "46c9d3ce14fe8724b42694d70e8974da", "type": "electric_scooter", "lon": -77.02686216666666}, {"is_reserved": 0, "lat": 38.9010035, "rental_uris": {"android": "https://dc.lft.to/lastmile_qr_scan", "ios": "https://dc.lft.to/lastmile_qr_scan"}, "bike_id": "90aefa576da895191e032c87bf861897", "fusion_lon": 0.0, "fusion_lat": 0.0, "is_disabled": 0, "name": "90aefa576da895191e032c87bf861897", "type": "electric_scooter", "lon": -77.02666083333334}, {"is_reserved": 0, "lat": 38.95526783333333, "rental_uris": {"android": "https://dc.lft.to/lastmile_qr_scan", "ios": "https://dc.lft.to/lastmile_qr_scan"}, "bike_id": "0ccdc1d1560d580acffe058527c5ea31", "fusion_lon": 0.0, "fusion_lat": 0.0, "is_disabled": 0, "name": "0ccdc1d1560d580acffe058527c5ea31", "type": "electric_scooter", "lon": -77.07009883333333}, {"is_reserved": 0, "lat": 38.89350066666667, "rental_uris": {"android": "https://dc.lft.to/lastmile_qr_scan", "ios": "https://dc.lft.to/lastmile_qr_scan"}, "bike_id": "8b920f697dd5495e88e75bcd54f39df1", "fusion_lon": 0.0, "fusion_lat": 0.0, "is_disabled": 0, "name": "8b920f697dd5495e88e75bcd54f39df1", "type": "electric_bike", "lon": -77.1874335}, {"is_reserved": 0, "lat": 38.90730416666667, "rental_uris": {"android": "https://dc.lft.to/lastmile_qr_scan", "ios": "https://dc.lft.to/lastmile_qr_scan"}, "bike_id": "838bfb945f840c49a45357e83fc02805", "fusion_lon": 0.0, "fusion_lat": 0.0, "is_disabled": 0, "name": "838bfb945f840c49a45357e83fc02805", "type": "electric_scooter", "lon": -77.02603533333334}, {"is_reserved": 0, "lat": 38.958758833333334, "rental_uris": {"android": "https://dc.lft.to/lastmile_qr_scan", "ios": "https://dc.lft.to/lastmile_qr_scan"}, "bike_id": "2f13678a8323266dfc3d1c52bf66350a", "fusion_lon": 0.0, "fusion_lat": 0.0, "is_disabled": 0, "name": "2f13678a8323266dfc3d1c52bf66350a", "type": "electric_bike", "lon": -77.01031166666667}, {"is_reserved": 0, "lat": 38.91414816666666, "rental_uris": {"android": "https://dc.lft.to/lastmile_qr_scan", "ios": "https://dc.lft.to/lastmile_qr_scan"}, "bike_id": "fc4b06e59018f9b2760309ddb9b06b53", "fusion_lon": 0.0, "fusion_lat": 0.0, "is_disabled": 0, "name": "fc4b06e59018f9b2760309ddb9b06b53", "type": "electric_scooter", "lon": -77.026085}, {"is_reserved": 0, "lat": 38.92206316666667, "rental_uris": {"android": "https://dc.lft.to/lastmile_qr_scan", "ios": "https://dc.lft.to/lastmile_qr_scan"}, "bike_id": "f891fa9518368ed7b5cb1f8d5cb5def6", "fusion_lon": 0.0, "fusion_lat": 0.0, "is_disabled": 0, "name": "f891fa9518368ed7b5cb1f8d5cb5def6", "type": "electric_scooter", "lon": -77.04012266666666}, {"is_reserved": 0, "lat": 38.954012666666664, "rental_uris": {"android": "https://dc.lft.to/lastmile_qr_scan", "ios": "https://dc.lft.to/lastmile_qr_scan"}, "bike_id": "59f485da443bee4369598fa9a8996a00", "fusion_lon": 0.0, "fusion_lat": 0.0, "is_disabled": 0, "name": "59f485da443bee4369598fa9a8996a00", "type": "electric_scooter", "lon": -77.03620966666666}, {"is_reserved": 0, "lat": 39.015597166666666, "rental_uris": {"android": "https://dc.lft.to/lastmile_qr_scan", "ios": "https://dc.lft.to/lastmile_qr_scan"}, "bike_id": "79b3053a12240bb19eb992b544dd3090", "fusion_lon": 0.0, "fusion_lat": 0.0, "is_disabled": 0, "name": "79b3053a12240bb19eb992b544dd3090", "type": "electric_bike", "lon": -77.04419133333333}, {"is_reserved": 0, "lat": 38.91805166666666, "rental_uris": {"android": "https://dc.lft.to/lastmile_qr_scan", "ios": "https://dc.lft.to/lastmile_qr_scan"}, "bike_id": "1ef08492a9807197c985eae885702c03", "fusion_lon": 0.0, "fusion_lat": 0.0, "is_disabled": 0, "name": "1ef08492a9807197c985eae885702c03", "type": "electric_scooter", "lon": -77.04026083333333}, {"is_reserved": 0, "lat": 38.898443666666665, "rental_uris": {"android": "https://dc.lft.to/lastmile_qr_scan", "ios": "https://dc.lft.to/lastmile_qr_scan"}, "bike_id": "d48a94e627f87db49a08e15e214e1dd6", "fusion_lon": 0.0, "fusion_lat": 0.0, "is_disabled": 0, "name": "d48a94e627f87db49a08e15e214e1dd6", "type": "electric_scooter", "lon": -76.94634983333333}, {"is_reserved": 0, "lat": 38.898988833333334, "rental_uris": {"android": "https://dc.lft.to/lastmile_qr_scan", "ios": "https://dc.lft.to/lastmile_qr_scan"}, "bike_id": "195b0f3ca2b2b1e73880e5d2e129cf40", "fusion_lon": 0.0, "fusion_lat": 0.0, "is_disabled": 0, "name": "195b0f3ca2b2b1e73880e5d2e129cf40", "type": "electric_scooter", "lon": -77.032794}, {"is_reserved": 0, "lat": 38.881423, "rental_uris": {"android": "https://dc.lft.to/lastmile_qr_scan", "ios": "https://dc.lft.to/lastmile_qr_scan"}, "bike_id": "013b052aca772e5480dd29509713ebae", "fusion_lon": 0.0, "fusion_lat": 0.0, "is_disabled": 0, "name": "013b052aca772e5480dd29509713ebae", "type": "electric_scooter", "lon": -77.01294883333334}, {"is_reserved": 0, "lat": 38.905572166666666, "rental_uris": {"android": "https://dc.lft.to/lastmile_qr_scan", "ios": "https://dc.lft.to/lastmile_qr_scan"}, "bike_id": "7e9487f4df29dc5bf1aabec9dd7475f4", "fusion_lon": 0.0, "fusion_lat": 0.0, "is_disabled": 0, "name": "7e9487f4df29dc5bf1aabec9dd7475f4", "type": "electric_scooter", "lon": -77.0570425}, {"is_reserved": 0, "lat": 38.9177485, "rental_uris": {"android": "https://dc.lft.to/lastmile_qr_scan", "ios": "https://dc.lft.to/lastmile_qr_scan"}, "bike_id": "7e388b2b99f3d73b4502451f135fc492", "fusion_lon": 0.0, "fusion_lat": 0.0, "is_disabled": 0, "name": "7e388b2b99f3d73b4502451f135fc492", "type": "electric_scooter", "lon": -77.02333516666667}, {"is_reserved": 0, "lat": 38.907789666666666, "rental_uris": {"android": "https://dc.lft.to/lastmile_qr_scan", "ios": "https://dc.lft.to/lastmile_qr_scan"}, "bike_id": "535559794b5427f249ca6278ce1b33bf", "fusion_lon": 0.0, "fusion_lat": 0.0, "is_disabled": 0, "name": "535559794b5427f249ca6278ce1b33bf", "type": "electric_scooter", "lon": -77.0425505}, {"is_reserved": 0, "lat": 38.91049066666667, "rental_uris": {"android": "https://dc.lft.to/lastmile_qr_scan", "ios": "https://dc.lft.to/lastmile_qr_scan"}, "bike_id": "71f3354f9c56d602b4efffce47875ee9", "fusion_lon": 0.0, "fusion_lat": 0.0, "is_disabled": 0, "name": "71f3354f9c56d602b4efffce47875ee9", "type": "electric_scooter", "lon": -77.01511366666666}, {"is_reserved": 0, "lat": 38.881938, "rental_uris": {"android": "https://dc.lft.to/lastmile_qr_scan", "ios": "https://dc.lft.to/lastmile_qr_scan"}, "bike_id": "e97aeb0e41ad8d7e667d4a7964e859cd", "fusion_lon": 0.0, "fusion_lat": 0.0, "is_disabled": 0, "name": "e97aeb0e41ad8d7e667d4a7964e859cd", "type": "electric_scooter", "lon": -76.995039}, {"is_reserved": 0, "lat": 38.910592333333334, "rental_uris": {"android": "https://dc.lft.to/lastmile_qr_scan", "ios": "https://dc.lft.to/lastmile_qr_scan"}, "bike_id": "d54ebd81b026e4e2751b7103781a9e55", "fusion_lon": 0.0, "fusion_lat": 0.0, "is_disabled": 0, "name": "d54ebd81b026e4e2751b7103781a9e55", "type": "electric_scooter", "lon": -77.03090216666666}, {"is_reserved": 0, "lat": 38.93545816666666, "rental_uris": {"android": "https://dc.lft.to/lastmile_qr_scan", "ios": "https://dc.lft.to/lastmile_qr_scan"}, "bike_id": "b39768c305e348c0ced4194f662632f2", "fusion_lon": 0.0, "fusion_lat": 0.0, "is_disabled": 0, "name": "b39768c305e348c0ced4194f662632f2", "type": "electric_scooter", "lon": -77.05853566666667}, {"is_reserved": 0, "lat": 38.914015666666664, "rental_uris": {"android": "https://dc.lft.to/lastmile_qr_scan", "ios": "https://dc.lft.to/lastmile_qr_scan"}, "bike_id": "08ee2d6934fc75c3bef50de66008dee9", "fusion_lon": 0.0, "fusion_lat": 0.0, "is_disabled": 0, "name": "08ee2d6934fc75c3bef50de66008dee9", "type": "electric_scooter", "lon": -77.0457565}, {"is_reserved": 0, "lat": 38.915593, "rental_uris": {"android": "https://dc.lft.to/lastmile_qr_scan", "ios": "https://dc.lft.to/lastmile_qr_scan"}, "bike_id": "25dca5c3d5c27f8dc6890c9ac84aca8b", "fusion_lon": 0.0, "fusion_lat": 0.0, "is_disabled": 0, "name": "25dca5c3d5c27f8dc6890c9ac84aca8b", "type": "electric_scooter", "lon": -77.03173333333334}, {"is_reserved": 0, "lat": 38.920343833333334, "rental_uris": {"android": "https://dc.lft.to/lastmile_qr_scan", "ios": "https://dc.lft.to/lastmile_qr_scan"}, "bike_id": "138e1eee9360e45fc0d5bae1723c6cc0", "fusion_lon": 0.0, "fusion_lat": 0.0, "is_disabled": 0, "name": "138e1eee9360e45fc0d5bae1723c6cc0", "type": "electric_scooter", "lon": -77.0418555}, {"is_reserved": 0, "lat": 38.9114515, "rental_uris": {"android": "https://dc.lft.to/lastmile_qr_scan", "ios": "https://dc.lft.to/lastmile_qr_scan"}, "bike_id": "f6549e895f63afb35f41ec6cc1bf89fd", "fusion_lon": 0.0, "fusion_lat": 0.0, "is_disabled": 0, "name": "f6549e895f63afb35f41ec6cc1bf89fd", "type": "electric_scooter", "lon": -77.00465983333333}, {"is_reserved": 0, "lat": 38.90736916666667, "rental_uris": {"android": "https://dc.lft.to/lastmile_qr_scan", "ios": "https://dc.lft.to/lastmile_qr_scan"}, "bike_id": "4b72c9e58b39d307ab58c51f39bd86a8", "fusion_lon": 0.0, "fusion_lat": 0.0, "is_disabled": 0, "name": "4b72c9e58b39d307ab58c51f39bd86a8", "type": "electric_scooter", "lon": -77.027128}, {"is_reserved": 0, "lat": 38.908047333333336, "rental_uris": {"android": "https://dc.lft.to/lastmile_qr_scan", "ios": "https://dc.lft.to/lastmile_qr_scan"}, "bike_id": "4d260be65b8ac164aefa1645d1efe876", "fusion_lon": 0.0, "fusion_lat": 0.0, "is_disabled": 0, "name": "4d260be65b8ac164aefa1645d1efe876", "type": "electric_scooter", "lon": -77.04345883333333}, {"is_reserved": 0, "lat": 38.918157666666666, "rental_uris": {"android": "https://dc.lft.to/lastmile_qr_scan", "ios": "https://dc.lft.to/lastmile_qr_scan"}, "bike_id": "a192bd1a1b2fff4b0a3cfcae1b483ea4", "fusion_lon": 0.0, "fusion_lat": 0.0, "is_disabled": 0, "name": "a192bd1a1b2fff4b0a3cfcae1b483ea4", "type": "electric_scooter", "lon": -77.03919233333333}, {"is_reserved": 0, "lat": 38.907313333333335, "rental_uris": {"android": "https://dc.lft.to/lastmile_qr_scan", "ios": "https://dc.lft.to/lastmile_qr_scan"}, "bike_id": "77064f141c9e902baed489b6a2f55c16", "fusion_lon": 0.0, "fusion_lat": 0.0, "is_disabled": 0, "name": "77064f141c9e902baed489b6a2f55c16", "type": "electric_scooter", "lon": -77.028007}, {"is_reserved": 0, "lat": 38.93278466666667, "rental_uris": {"android": "https://dc.lft.to/lastmile_qr_scan", "ios": "https://dc.lft.to/lastmile_qr_scan"}, "bike_id": "6c2ceecccd7106567ac66433bae5d3ac", "fusion_lon": 0.0, "fusion_lat": 0.0, "is_disabled": 0, "name": "6c2ceecccd7106567ac66433bae5d3ac", "type": "electric_scooter", "lon": -77.028363}, {"is_reserved": 0, "lat": 38.9170865, "rental_uris": {"android": "https://dc.lft.to/lastmile_qr_scan", "ios": "https://dc.lft.to/lastmile_qr_scan"}, "bike_id": "f4ff0a6803323bdbd972ff1f4d0bd451", "fusion_lon": 0.0, "fusion_lat": 0.0, "is_disabled": 0, "name": "f4ff0a6803323bdbd972ff1f4d0bd451", "type": "electric_scooter", "lon": -77.03506916666667}, {"is_reserved": 0, "lat": 38.8961385, "rental_uris": {"android": "https://dc.lft.to/lastmile_qr_scan", "ios": "https://dc.lft.to/lastmile_qr_scan"}, "bike_id": "0b38d0ae10247f973decb7b0c0b6da47", "fusion_lon": 0.0, "fusion_lat": 0.0, "is_disabled": 0, "name": "0b38d0ae10247f973decb7b0c0b6da47", "type": "electric_scooter", "lon": -77.029504}, {"is_reserved": 0, "lat": 38.91579933333333, "rental_uris": {"android": "https://dc.lft.to/lastmile_qr_scan", "ios": "https://dc.lft.to/lastmile_qr_scan"}, "bike_id": "7a6f9dae6a82b96e149b962f652635e9", "fusion_lon": 0.0, "fusion_lat": 0.0, "is_disabled": 0, "name": "7a6f9dae6a82b96e149b962f652635e9", "type": "electric_scooter", "lon": -77.04683833333333}, {"is_reserved": 0, "lat": 38.9173185, "rental_uris": {"android": "https://dc.lft.to/lastmile_qr_scan", "ios": "https://dc.lft.to/lastmile_qr_scan"}, "bike_id": "c6dbba5f2edd14fb0a21db3c3c8d83ca", "fusion_lon": 0.0, "fusion_lat": 0.0, "is_disabled": 0, "name": "c6dbba5f2edd14fb0a21db3c3c8d83ca", "type": "electric_scooter", "lon": -77.03657}, {"is_reserved": 0, "lat": 38.9176615, "rental_uris": {"android": "https://dc.lft.to/lastmile_qr_scan", "ios": "https://dc.lft.to/lastmile_qr_scan"}, "bike_id": "32860a4791fd69c960646ba382f6b933", "fusion_lon": 0.0, "fusion_lat": 0.0, "is_disabled": 0, "name": "32860a4791fd69c960646ba382f6b933", "type": "electric_scooter", "lon": -77.02331166666667}, {"is_reserved": 0, "lat": 38.925955, "rental_uris": {"android": "https://dc.lft.to/lastmile_qr_scan", "ios": "https://dc.lft.to/lastmile_qr_scan"}, "bike_id": "807368ceb0cbc2e84cf5afe946d18b0c", "fusion_lon": 0.0, "fusion_lat": 0.0, "is_disabled": 0, "name": "807368ceb0cbc2e84cf5afe946d18b0c", "type": "electric_scooter", "lon": -77.0216975}, {"is_reserved": 0, "lat": 38.915645, "rental_uris": {"android": "https://dc.lft.to/lastmile_qr_scan", "ios": "https://dc.lft.to/lastmile_qr_scan"}, "bike_id": "e2eda4e68718deb030d9fcbc48987fbf", "fusion_lon": 0.0, "fusion_lat": 0.0, "is_disabled": 0, "name": "e2eda4e68718deb030d9fcbc48987fbf", "type": "electric_scooter", "lon": -77.0298365}, {"is_reserved": 0, "lat": 38.8836935, "rental_uris": {"android": "https://dc.lft.to/lastmile_qr_scan", "ios": "https://dc.lft.to/lastmile_qr_scan"}, "bike_id": "6b642aeef77913010248b3fdad8d3688", "fusion_lon": 0.0, "fusion_lat": 0.0, "is_disabled": 0, "name": "6b642aeef77913010248b3fdad8d3688", "type": "electric_scooter", "lon": -76.995146}, {"is_reserved": 0, "lat": 38.926733, "rental_uris": {"android": "https://dc.lft.to/lastmile_qr_scan", "ios": "https://dc.lft.to/lastmile_qr_scan"}, "bike_id": "36cbfac926a276ed800a6242fa4dd882", "fusion_lon": 0.0, "fusion_lat": 0.0, "is_disabled": 0, "name": "36cbfac926a276ed800a6242fa4dd882", "type": "electric_scooter", "lon": -77.0148275}, {"is_reserved": 0, "lat": 38.8772785, "rental_uris": {"android": "https://dc.lft.to/lastmile_qr_scan", "ios": "https://dc.lft.to/lastmile_qr_scan"}, "bike_id": "1b344daf664cd7fb7583aba0171155e0", "fusion_lon": 0.0, "fusion_lat": 0.0, "is_disabled": 0, "name": "1b344daf664cd7fb7583aba0171155e0", "type": "electric_scooter", "lon": -77.0146115}, {"is_reserved": 0, "lat": 38.95530016666667, "rental_uris": {"android": "https://dc.lft.to/lastmile_qr_scan", "ios": "https://dc.lft.to/lastmile_qr_scan"}, "bike_id": "4b6cd3027b7098c55915a73b779d29a8", "fusion_lon": 0.0, "fusion_lat": 0.0, "is_disabled": 0, "name": "4b6cd3027b7098c55915a73b779d29a8", "type": "electric_bike", "lon": -76.96800066666667}, {"is_reserved": 0, "lat": 38.902368333333335, "rental_uris": {"android": "https://dc.lft.to/lastmile_qr_scan", "ios": "https://dc.lft.to/lastmile_qr_scan"}, "bike_id": "9db5fe097b3928f6f37a495b1903fd9f", "fusion_lon": 0.0, "fusion_lat": 0.0, "is_disabled": 0, "name": "9db5fe097b3928f6f37a495b1903fd9f", "type": "electric_scooter", "lon": -77.0434625}, {"is_reserved": 0, "lat": 38.9306155, "rental_uris": {"android": "https://dc.lft.to/lastmile_qr_scan", "ios": "https://dc.lft.to/lastmile_qr_scan"}, "bike_id": "fd53e6f327e619855ca0608b89252a78", "fusion_lon": 0.0, "fusion_lat": 0.0, "is_disabled": 0, "name": "fd53e6f327e619855ca0608b89252a78", "type": "electric_scooter", "lon": -77.02325566666667}, {"is_reserved": 0, "lat": 38.8022795, "rental_uris": {"android": "https://dc.lft.to/lastmile_qr_scan", "ios": "https://dc.lft.to/lastmile_qr_scan"}, "bike_id": "fb79c509614a8f3149a93014c447c1fe", "fusion_lon": 0.0, "fusion_lat": 0.0, "is_disabled": 0, "name": "fb79c509614a8f3149a93014c447c1fe", "type": "electric_bike", "lon": -77.0791495}, {"is_reserved": 0, "lat": 38.92233783333333, "rental_uris": {"android": "https://dc.lft.to/lastmile_qr_scan", "ios": "https://dc.lft.to/lastmile_qr_scan"}, "bike_id": "8004d53b4ca8d56309baea827734817c", "fusion_lon": 0.0, "fusion_lat": 0.0, "is_disabled": 0, "name": "8004d53b4ca8d56309baea827734817c", "type": "electric_scooter", "lon": -77.04365616666666}, {"is_reserved": 0, "lat": 38.8636725, "rental_uris": {"android": "https://dc.lft.to/lastmile_qr_scan", "ios": "https://dc.lft.to/lastmile_qr_scan"}, "bike_id": "01ba0f3e525ae214833f5d55cce6f7db", "fusion_lon": 0.0, "fusion_lat": 0.0, "is_disabled": 0, "name": "01ba0f3e525ae214833f5d55cce6f7db", "type": "electric_scooter", "lon": -76.9903285}, {"is_reserved": 0, "lat": 38.9194845, "rental_uris": {"android": "https://dc.lft.to/lastmile_qr_scan", "ios": "https://dc.lft.to/lastmile_qr_scan"}, "bike_id": "9e5aa6092a0debe38760a1b4265a502d", "fusion_lon": 0.0, "fusion_lat": 0.0, "is_disabled": 0, "name": "9e5aa6092a0debe38760a1b4265a502d", "type": "electric_scooter", "lon": -76.96977083333333}, {"is_reserved": 0, "lat": 38.92446233333333, "rental_uris": {"android": "https://dc.lft.to/lastmile_qr_scan", "ios": "https://dc.lft.to/lastmile_qr_scan"}, "bike_id": "1f9d4a934df9e495613b7d11956d4bb3", "fusion_lon": 0.0, "fusion_lat": 0.0, "is_disabled": 0, "name": "1f9d4a934df9e495613b7d11956d4bb3", "type": "electric_scooter", "lon": -77.04019733333334}, {"is_reserved": 0, "lat": 38.912676166666664, "rental_uris": {"android": "https://dc.lft.to/lastmile_qr_scan", "ios": "https://dc.lft.to/lastmile_qr_scan"}, "bike_id": "3ae7a1b2b5ad5d9c45de54e0aed17acf", "fusion_lon": 0.0, "fusion_lat": 0.0, "is_disabled": 0, "name": "3ae7a1b2b5ad5d9c45de54e0aed17acf", "type": "electric_scooter", "lon": -77.03325683333334}, {"is_reserved": 0, "lat": 38.884847, "rental_uris": {"android": "https://dc.lft.to/lastmile_qr_scan", "ios": "https://dc.lft.to/lastmile_qr_scan"}, "bike_id": "da34962fed9d17a6d52e61e254f9104c", "fusion_lon": 0.0, "fusion_lat": 0.0, "is_disabled": 0, "name": "da34962fed9d17a6d52e61e254f9104c", "type": "electric_scooter", "lon": -77.03477233333334}, {"is_reserved": 0, "lat": 38.8866845, "rental_uris": {"android": "https://dc.lft.to/lastmile_qr_scan", "ios": "https://dc.lft.to/lastmile_qr_scan"}, "bike_id": "9c4d91dee4d95ee71b7e761de91be669", "fusion_lon": 0.0, "fusion_lat": 0.0, "is_disabled": 0, "name": "9c4d91dee4d95ee71b7e761de91be669", "type": "electric_scooter", "lon": -77.01304566666667}, {"is_reserved": 0, "lat": 38.902553, "rental_uris": {"android": "https://dc.lft.to/lastmile_qr_scan", "ios": "https://dc.lft.to/lastmile_qr_scan"}, "bike_id": "25292875c31342e1aae59e356fa376b6", "fusion_lon": 0.0, "fusion_lat": 0.0, "is_disabled": 0, "name": "25292875c31342e1aae59e356fa376b6", "type": "electric_scooter", "lon": -77.043608}, {"is_reserved": 0, "lat": 38.9238335, "rental_uris": {"android": "https://dc.lft.to/lastmile_qr_scan", "ios": "https://dc.lft.to/lastmile_qr_scan"}, "bike_id": "532f0e274ed887b5ce273be203b38f91", "fusion_lon": 0.0, "fusion_lat": 0.0, "is_disabled": 0, "name": "532f0e274ed887b5ce273be203b38f91", "type": "electric_scooter", "lon": -77.057562}, {"is_reserved": 0, "lat": 38.924889666666665, "rental_uris": {"android": "https://dc.lft.to/lastmile_qr_scan", "ios": "https://dc.lft.to/lastmile_qr_scan"}, "bike_id": "af0a57079c03f24d016363ee7a43df2e", "fusion_lon": 0.0, "fusion_lat": 0.0, "is_disabled": 0, "name": "af0a57079c03f24d016363ee7a43df2e", "type": "electric_scooter", "lon": -77.0317885}, {"is_reserved": 0, "lat": 38.90634133333333, "rental_uris": {"android": "https://dc.lft.to/lastmile_qr_scan", "ios": "https://dc.lft.to/lastmile_qr_scan"}, "bike_id": "56cb0b42a8a4a295566d6851b5d924d1", "fusion_lon": 0.0, "fusion_lat": 0.0, "is_disabled": 0, "name": "56cb0b42a8a4a295566d6851b5d924d1", "type": "electric_scooter", "lon": -77.00590183333334}, {"is_reserved": 0, "lat": 38.892219833333336, "rental_uris": {"android": "https://dc.lft.to/lastmile_qr_scan", "ios": "https://dc.lft.to/lastmile_qr_scan"}, "bike_id": "213d2cb4f8e47b855c82411a68950fd7", "fusion_lon": 0.0, "fusion_lat": 0.0, "is_disabled": 0, "name": "213d2cb4f8e47b855c82411a68950fd7", "type": "electric_bike", "lon": -77.10776516666667}, {"is_reserved": 0, "lat": 38.89000716666666, "rental_uris": {"android": "https://dc.lft.to/lastmile_qr_scan", "ios": "https://dc.lft.to/lastmile_qr_scan"}, "bike_id": "4f9e528ed58878fcf93535deec71c4a9", "fusion_lon": 0.0, "fusion_lat": 0.0, "is_disabled": 0, "name": "4f9e528ed58878fcf93535deec71c4a9", "type": "electric_scooter", "lon": -77.00050583333334}, {"is_reserved": 0, "lat": 38.92417416666667, "rental_uris": {"android": "https://dc.lft.to/lastmile_qr_scan", "ios": "https://dc.lft.to/lastmile_qr_scan"}, "bike_id": "d12ea95c41199cc12cf1bbe0c37f3cf2", "fusion_lon": 0.0, "fusion_lat": 0.0, "is_disabled": 0, "name": "d12ea95c41199cc12cf1bbe0c37f3cf2", "type": "electric_scooter", "lon": -77.02008983333333}, {"is_reserved": 0, "lat": 38.96220566666667, "rental_uris": {"android": "https://dc.lft.to/lastmile_qr_scan", "ios": "https://dc.lft.to/lastmile_qr_scan"}, "bike_id": "c897c7adb46d4bd5174bf3a2430aead4", "fusion_lon": 0.0, "fusion_lat": 0.0, "is_disabled": 0, "name": "c897c7adb46d4bd5174bf3a2430aead4", "type": "electric_bike", "lon": -77.02624583333333}, {"is_reserved": 0, "lat": 38.89271266666667, "rental_uris": {"android": "https://dc.lft.to/lastmile_qr_scan", "ios": "https://dc.lft.to/lastmile_qr_scan"}, "bike_id": "f1191f4570579120a883729ed458ee88", "fusion_lon": 0.0, "fusion_lat": 0.0, "is_disabled": 0, "name": "f1191f4570579120a883729ed458ee88", "type": "electric_scooter", "lon": -76.931389}, {"is_reserved": 0, "lat": 38.904079833333334, "rental_uris": {"android": "https://dc.lft.to/lastmile_qr_scan", "ios": "https://dc.lft.to/lastmile_qr_scan"}, "bike_id": "4db2d6a947dd0f7a1e06cce3196f34f6", "fusion_lon": 0.0, "fusion_lat": 0.0, "is_disabled": 0, "name": "4db2d6a947dd0f7a1e06cce3196f34f6", "type": "electric_scooter", "lon": -77.02584366666666}, {"is_reserved": 0, "lat": 38.922067, "rental_uris": {"android": "https://dc.lft.to/lastmile_qr_scan", "ios": "https://dc.lft.to/lastmile_qr_scan"}, "bike_id": "c55da90ccca417d67fefacb163f09512", "fusion_lon": 0.0, "fusion_lat": 0.0, "is_disabled": 0, "name": "c55da90ccca417d67fefacb163f09512", "type": "electric_scooter", "lon": -77.04242066666667}, {"is_reserved": 0, "lat": 38.935171, "rental_uris": {"android": "https://dc.lft.to/lastmile_qr_scan", "ios": "https://dc.lft.to/lastmile_qr_scan"}, "bike_id": "d576a5b869c6de750914339f941b464e", "fusion_lon": 0.0, "fusion_lat": 0.0, "is_disabled": 0, "name": "d576a5b869c6de750914339f941b464e", "type": "electric_scooter", "lon": -77.0326245}, {"is_reserved": 0, "lat": 38.876272666666665, "rental_uris": {"android": "https://dc.lft.to/lastmile_qr_scan", "ios": "https://dc.lft.to/lastmile_qr_scan"}, "bike_id": "18e2dabe100469c86424c586ca8bcff0", "fusion_lon": 0.0, "fusion_lat": 0.0, "is_disabled": 0, "name": "18e2dabe100469c86424c586ca8bcff0", "type": "electric_scooter", "lon": -76.96528283333333}, {"is_reserved": 0, "lat": 38.969385333333335, "rental_uris": {"android": "https://dc.lft.to/lastmile_qr_scan", "ios": "https://dc.lft.to/lastmile_qr_scan"}, "bike_id": "17900b9c0800c6390a78471423f6db89", "fusion_lon": 0.0, "fusion_lat": 0.0, "is_disabled": 0, "name": "17900b9c0800c6390a78471423f6db89", "type": "electric_bike", "lon": -77.03339783333334}, {"is_reserved": 0, "lat": 38.8718115, "rental_uris": {"android": "https://dc.lft.to/lastmile_qr_scan", "ios": "https://dc.lft.to/lastmile_qr_scan"}, "bike_id": "a6aeef5e225e2551bb3452f0cd5f2f11", "fusion_lon": 0.0, "fusion_lat": 0.0, "is_disabled": 0, "name": "a6aeef5e225e2551bb3452f0cd5f2f11", "type": "electric_scooter", "lon": -77.00609283333333}, {"is_reserved": 0, "lat": 38.89216283333333, "rental_uris": {"android": "https://dc.lft.to/lastmile_qr_scan", "ios": "https://dc.lft.to/lastmile_qr_scan"}, "bike_id": "b0209eecc75f62530247ca49219c58b0", "fusion_lon": 0.0, "fusion_lat": 0.0, "is_disabled": 0, "name": "b0209eecc75f62530247ca49219c58b0", "type": "electric_scooter", "lon": -77.03222966666667}, {"is_reserved": 0, "lat": 38.90877833333333, "rental_uris": {"android": "https://dc.lft.to/lastmile_qr_scan", "ios": "https://dc.lft.to/lastmile_qr_scan"}, "bike_id": "bec41c93f394f486e8a55566a3b846d1", "fusion_lon": 0.0, "fusion_lat": 0.0, "is_disabled": 0, "name": "bec41c93f394f486e8a55566a3b846d1", "type": "electric_scooter", "lon": -77.04103283333333}, {"is_reserved": 0, "lat": 38.922835166666665, "rental_uris": {"android": "https://dc.lft.to/lastmile_qr_scan", "ios": "https://dc.lft.to/lastmile_qr_scan"}, "bike_id": "29bc465762e47405dcd50a9867ce3bfb", "fusion_lon": 0.0, "fusion_lat": 0.0, "is_disabled": 0, "name": "29bc465762e47405dcd50a9867ce3bfb", "type": "electric_scooter", "lon": -77.03659066666667}, {"is_reserved": 0, "lat": 38.95776633333333, "rental_uris": {"android": "https://dc.lft.to/lastmile_qr_scan", "ios": "https://dc.lft.to/lastmile_qr_scan"}, "bike_id": "f574d854840fbcf89b4e17d64a577bd0", "fusion_lon": 0.0, "fusion_lat": 0.0, "is_disabled": 0, "name": "f574d854840fbcf89b4e17d64a577bd0", "type": "electric_scooter", "lon": -77.02759266666666}, {"is_reserved": 0, "lat": 38.94472566666666, "rental_uris": {"android": "https://dc.lft.to/lastmile_qr_scan", "ios": "https://dc.lft.to/lastmile_qr_scan"}, "bike_id": "5073ca6ea665810020e804af78b32dda", "fusion_lon": 0.0, "fusion_lat": 0.0, "is_disabled": 0, "name": "5073ca6ea665810020e804af78b32dda", "type": "electric_bike", "lon": -76.986926}, {"is_reserved": 0, "lat": 38.919855166666665, "rental_uris": {"android": "https://dc.lft.to/lastmile_qr_scan", "ios": "https://dc.lft.to/lastmile_qr_scan"}, "bike_id": "693d4efdd5f038d91c9925e16f4251f6", "fusion_lon": 0.0, "fusion_lat": 0.0, "is_disabled": 0, "name": "693d4efdd5f038d91c9925e16f4251f6", "type": "electric_scooter", "lon": -77.032611}, {"is_reserved": 0, "lat": 38.88421566666667, "rental_uris": {"android": "https://dc.lft.to/lastmile_qr_scan", "ios": "https://dc.lft.to/lastmile_qr_scan"}, "bike_id": "dcf48a0536edeece3891dc9be4a60714", "fusion_lon": 0.0, "fusion_lat": 0.0, "is_disabled": 0, "name": "dcf48a0536edeece3891dc9be4a60714", "type": "electric_scooter", "lon": -76.95750616666666}, {"is_reserved": 0, "lat": 38.9275245, "rental_uris": {"android": "https://dc.lft.to/lastmile_qr_scan", "ios": "https://dc.lft.to/lastmile_qr_scan"}, "bike_id": "9a085cba4c260cd7a5fa608847877b54", "fusion_lon": 0.0, "fusion_lat": 0.0, "is_disabled": 0, "name": "9a085cba4c260cd7a5fa608847877b54", "type": "electric_scooter", "lon": -77.02440416666667}, {"is_reserved": 0, "lat": 38.929995166666664, "rental_uris": {"android": "https://dc.lft.to/lastmile_qr_scan", "ios": "https://dc.lft.to/lastmile_qr_scan"}, "bike_id": "ef9c8c337052dd24a63fc7bd8d51f72b", "fusion_lon": 0.0, "fusion_lat": 0.0, "is_disabled": 0, "name": "ef9c8c337052dd24a63fc7bd8d51f72b", "type": "electric_scooter", "lon": -77.05544033333334}, {"is_reserved": 0, "lat": 38.907327, "rental_uris": {"android": "https://dc.lft.to/lastmile_qr_scan", "ios": "https://dc.lft.to/lastmile_qr_scan"}, "bike_id": "6df389e164d4bfd143004efe3eda1b32", "fusion_lon": 0.0, "fusion_lat": 0.0, "is_disabled": 0, "name": "6df389e164d4bfd143004efe3eda1b32", "type": "electric_scooter", "lon": -77.03458833333333}, {"is_reserved": 0, "lat": 38.90089416666667, "rental_uris": {"android": "https://dc.lft.to/lastmile_qr_scan", "ios": "https://dc.lft.to/lastmile_qr_scan"}, "bike_id": "b77ea4c865b540b5aafea0cbe2bcdfc6", "fusion_lon": 0.0, "fusion_lat": 0.0, "is_disabled": 0, "name": "b77ea4c865b540b5aafea0cbe2bcdfc6", "type": "electric_scooter", "lon": -77.0491535}, {"is_reserved": 0, "lat": 38.865067333333336, "rental_uris": {"android": "https://dc.lft.to/lastmile_qr_scan", "ios": "https://dc.lft.to/lastmile_qr_scan"}, "bike_id": "dcb0b138464e4f1ca7995b021a2b094a", "fusion_lon": 0.0, "fusion_lat": 0.0, "is_disabled": 0, "name": "dcb0b138464e4f1ca7995b021a2b094a", "type": "electric_scooter", "lon": -76.98979366666667}, {"is_reserved": 0, "lat": 38.9168735, "rental_uris": {"android": "https://dc.lft.to/lastmile_qr_scan", "ios": "https://dc.lft.to/lastmile_qr_scan"}, "bike_id": "315b64dd652e80b467b17faaeb70622c", "fusion_lon": 0.0, "fusion_lat": 0.0, "is_disabled": 0, "name": "315b64dd652e80b467b17faaeb70622c", "type": "electric_scooter", "lon": -77.02286566666666}, {"is_reserved": 0, "lat": 38.89983733333333, "rental_uris": {"android": "https://dc.lft.to/lastmile_qr_scan", "ios": "https://dc.lft.to/lastmile_qr_scan"}, "bike_id": "4972b7e71a587223c7c3978e213555b8", "fusion_lon": 0.0, "fusion_lat": 0.0, "is_disabled": 0, "name": "4972b7e71a587223c7c3978e213555b8", "type": "electric_scooter", "lon": -77.03080233333333}, {"is_reserved": 0, "lat": 38.918142833333334, "rental_uris": {"android": "https://dc.lft.to/lastmile_qr_scan", "ios": "https://dc.lft.to/lastmile_qr_scan"}, "bike_id": "2bd7db5be0211b1939ebb486e6c872b5", "fusion_lon": 0.0, "fusion_lat": 0.0, "is_disabled": 0, "name": "2bd7db5be0211b1939ebb486e6c872b5", "type": "electric_scooter", "lon": -77.03458366666666}, {"is_reserved": 0, "lat": 38.905114, "rental_uris": {"android": "https://dc.lft.to/lastmile_qr_scan", "ios": "https://dc.lft.to/lastmile_qr_scan"}, "bike_id": "ec3d4881660a378fd9791e6fad518bf4", "fusion_lon": 0.0, "fusion_lat": 0.0, "is_disabled": 0, "name": "ec3d4881660a378fd9791e6fad518bf4", "type": "electric_scooter", "lon": -77.06189033333334}, {"is_reserved": 0, "lat": 38.90637683333333, "rental_uris": {"android": "https://dc.lft.to/lastmile_qr_scan", "ios": "https://dc.lft.to/lastmile_qr_scan"}, "bike_id": "04898a2c4cadbdf59f8fb6f208203fea", "fusion_lon": 0.0, "fusion_lat": 0.0, "is_disabled": 0, "name": "04898a2c4cadbdf59f8fb6f208203fea", "type": "electric_scooter", "lon": -77.03438283333334}, {"is_reserved": 0, "lat": 38.93185733333333, "rental_uris": {"android": "https://dc.lft.to/lastmile_qr_scan", "ios": "https://dc.lft.to/lastmile_qr_scan"}, "bike_id": "f755e83dd5eada0fdaf0922f995973ba", "fusion_lon": 0.0, "fusion_lat": 0.0, "is_disabled": 0, "name": "f755e83dd5eada0fdaf0922f995973ba", "type": "electric_bike", "lon": -77.02829333333334}, {"is_reserved": 0, "lat": 39.034199, "rental_uris": {"android": "https://dc.lft.to/lastmile_qr_scan", "ios": "https://dc.lft.to/lastmile_qr_scan"}, "bike_id": "a4488c0e0006ebbb6e6baf8a091cc6d6", "fusion_lon": 0.0, "fusion_lat": 0.0, "is_disabled": 0, "name": "a4488c0e0006ebbb6e6baf8a091cc6d6", "type": "electric_bike", "lon": -77.0424215}, {"is_reserved": 0, "lat": 38.934241166666666, "rental_uris": {"android": "https://dc.lft.to/lastmile_qr_scan", "ios": "https://dc.lft.to/lastmile_qr_scan"}, "bike_id": "1b1d59596785990607dce50a7a87f2ea", "fusion_lon": 0.0, "fusion_lat": 0.0, "is_disabled": 0, "name": "1b1d59596785990607dce50a7a87f2ea", "type": "electric_scooter", "lon": -77.040003}, {"is_reserved": 0, "lat": 38.898964166666666, "rental_uris": {"android": "https://dc.lft.to/lastmile_qr_scan", "ios": "https://dc.lft.to/lastmile_qr_scan"}, "bike_id": "002a78662f447de6016bf24127f00ac0", "fusion_lon": 0.0, "fusion_lat": 0.0, "is_disabled": 0, "name": "002a78662f447de6016bf24127f00ac0", "type": "electric_scooter", "lon": -77.01506966666666}, {"is_reserved": 0, "lat": 38.893473166666666, "rental_uris": {"android": "https://dc.lft.to/lastmile_qr_scan", "ios": "https://dc.lft.to/lastmile_qr_scan"}, "bike_id": "a9128a5c842a54f0bc547feb05b46a79", "fusion_lon": 0.0, "fusion_lat": 0.0, "is_disabled": 0, "name": "a9128a5c842a54f0bc547feb05b46a79", "type": "electric_scooter", "lon": -77.0413955}, {"is_reserved": 0, "lat": 38.851955833333335, "rental_uris": {"android": "https://dc.lft.to/lastmile_qr_scan", "ios": "https://dc.lft.to/lastmile_qr_scan"}, "bike_id": "f3a8e84c9f899a73077e32be9202a45e", "fusion_lon": 0.0, "fusion_lat": 0.0, "is_disabled": 0, "name": "f3a8e84c9f899a73077e32be9202a45e", "type": "electric_scooter", "lon": -76.97633916666666}, {"is_reserved": 0, "lat": 38.9000495, "rental_uris": {"android": "https://dc.lft.to/lastmile_qr_scan", "ios": "https://dc.lft.to/lastmile_qr_scan"}, "bike_id": "26115e96ef1c0194f467e552f9366477", "fusion_lon": 0.0, "fusion_lat": 0.0, "is_disabled": 0, "name": "26115e96ef1c0194f467e552f9366477", "type": "electric_scooter", "lon": -77.04674183333333}, {"is_reserved": 0, "lat": 38.91792983333333, "rental_uris": {"android": "https://dc.lft.to/lastmile_qr_scan", "ios": "https://dc.lft.to/lastmile_qr_scan"}, "bike_id": "e7c63e4569e9a0a73bf0f737214c3284", "fusion_lon": 0.0, "fusion_lat": 0.0, "is_disabled": 0, "name": "e7c63e4569e9a0a73bf0f737214c3284", "type": "electric_scooter", "lon": -77.02311416666667}, {"is_reserved": 0, "lat": 38.914737333333335, "rental_uris": {"android": "https://dc.lft.to/lastmile_qr_scan", "ios": "https://dc.lft.to/lastmile_qr_scan"}, "bike_id": "738924b87a98c37d0d8a1d847e3be7ef", "fusion_lon": 0.0, "fusion_lat": 0.0, "is_disabled": 0, "name": "738924b87a98c37d0d8a1d847e3be7ef", "type": "electric_scooter", "lon": -77.04608133333333}, {"is_reserved": 0, "lat": 38.890732666666665, "rental_uris": {"android": "https://dc.lft.to/lastmile_qr_scan", "ios": "https://dc.lft.to/lastmile_qr_scan"}, "bike_id": "15671666e493041e412ad943be3d36fb", "fusion_lon": 0.0, "fusion_lat": 0.0, "is_disabled": 0, "name": "15671666e493041e412ad943be3d36fb", "type": "electric_scooter", "lon": -76.98837133333333}, {"is_reserved": 0, "lat": 38.94547516666667, "rental_uris": {"android": "https://dc.lft.to/lastmile_qr_scan", "ios": "https://dc.lft.to/lastmile_qr_scan"}, "bike_id": "1d930d580fa9a4a80f97947ea2ce1c34", "fusion_lon": 0.0, "fusion_lat": 0.0, "is_disabled": 0, "name": "1d930d580fa9a4a80f97947ea2ce1c34", "type": "electric_bike", "lon": -76.89536483333333}, {"is_reserved": 0, "lat": 38.925877666666665, "rental_uris": {"android": "https://dc.lft.to/lastmile_qr_scan", "ios": "https://dc.lft.to/lastmile_qr_scan"}, "bike_id": "bccad6ce7396485034d4ed9ab88f6e60", "fusion_lon": 0.0, "fusion_lat": 0.0, "is_disabled": 0, "name": "bccad6ce7396485034d4ed9ab88f6e60", "type": "electric_scooter", "lon": -77.044132}, {"is_reserved": 0, "lat": 38.91599033333333, "rental_uris": {"android": "https://dc.lft.to/lastmile_qr_scan", "ios": "https://dc.lft.to/lastmile_qr_scan"}, "bike_id": "406ca6457abd530733e3f80dfd242756", "fusion_lon": 0.0, "fusion_lat": 0.0, "is_disabled": 0, "name": "406ca6457abd530733e3f80dfd242756", "type": "electric_scooter", "lon": -77.041685}, {"is_reserved": 0, "lat": 38.93255383333333, "rental_uris": {"android": "https://dc.lft.to/lastmile_qr_scan", "ios": "https://dc.lft.to/lastmile_qr_scan"}, "bike_id": "ef408bd4f1ba4ef370c57b7a4ed402f4", "fusion_lon": 0.0, "fusion_lat": 0.0, "is_disabled": 0, "name": "ef408bd4f1ba4ef370c57b7a4ed402f4", "type": "electric_scooter", "lon": -77.03268933333334}, {"is_reserved": 0, "lat": 38.828629166666666, "rental_uris": {"android": "https://dc.lft.to/lastmile_qr_scan", "ios": "https://dc.lft.to/lastmile_qr_scan"}, "bike_id": "65c804ef6eecc96575f096b79eaa642b", "fusion_lon": 0.0, "fusion_lat": 0.0, "is_disabled": 0, "name": "65c804ef6eecc96575f096b79eaa642b", "type": "electric_bike", "lon": -77.11231983333333}, {"is_reserved": 0, "lat": 38.88439616666667, "rental_uris": {"android": "https://dc.lft.to/lastmile_qr_scan", "ios": "https://dc.lft.to/lastmile_qr_scan"}, "bike_id": "14a463c786f82e141709de196d5ff46b", "fusion_lon": 0.0, "fusion_lat": 0.0, "is_disabled": 0, "name": "14a463c786f82e141709de196d5ff46b", "type": "electric_scooter", "lon": -76.9961525}, {"is_reserved": 0, "lat": 38.90082866666667, "rental_uris": {"android": "https://dc.lft.to/lastmile_qr_scan", "ios": "https://dc.lft.to/lastmile_qr_scan"}, "bike_id": "85a1dd3a965782905b501bf9db0aa866", "fusion_lon": 0.0, "fusion_lat": 0.0, "is_disabled": 0, "name": "85a1dd3a965782905b501bf9db0aa866", "type": "electric_scooter", "lon": -77.04337333333334}, {"is_reserved": 0, "lat": 38.94438533333334, "rental_uris": {"android": "https://dc.lft.to/lastmile_qr_scan", "ios": "https://dc.lft.to/lastmile_qr_scan"}, "bike_id": "d360ffaea052991364bf590001d20d5e", "fusion_lon": 0.0, "fusion_lat": 0.0, "is_disabled": 0, "name": "d360ffaea052991364bf590001d20d5e", "type": "electric_scooter", "lon": -77.0639985}, {"is_reserved": 0, "lat": 38.93019483333333, "rental_uris": {"android": "https://dc.lft.to/lastmile_qr_scan", "ios": "https://dc.lft.to/lastmile_qr_scan"}, "bike_id": "5345f5268e329cbf7865e56cba5120e7", "fusion_lon": 0.0, "fusion_lat": 0.0, "is_disabled": 0, "name": "5345f5268e329cbf7865e56cba5120e7", "type": "electric_scooter", "lon": -77.044574}, {"is_reserved": 0, "lat": 38.89883666666667, "rental_uris": {"android": "https://dc.lft.to/lastmile_qr_scan", "ios": "https://dc.lft.to/lastmile_qr_scan"}, "bike_id": "c78b32fb03e1edaeb7c3190e3ddaebf7", "fusion_lon": 0.0, "fusion_lat": 0.0, "is_disabled": 0, "name": "c78b32fb03e1edaeb7c3190e3ddaebf7", "type": "electric_scooter", "lon": -76.9317155}, {"is_reserved": 0, "lat": 38.89213616666667, "rental_uris": {"android": "https://dc.lft.to/lastmile_qr_scan", "ios": "https://dc.lft.to/lastmile_qr_scan"}, "bike_id": "3bc357fee065956d81208f34ad50131c", "fusion_lon": 0.0, "fusion_lat": 0.0, "is_disabled": 0, "name": "3bc357fee065956d81208f34ad50131c", "type": "electric_scooter", "lon": -77.03168466666666}, {"is_reserved": 0, "lat": 39.0047515, "rental_uris": {"android": "https://dc.lft.to/lastmile_qr_scan", "ios": "https://dc.lft.to/lastmile_qr_scan"}, "bike_id": "837878df81591ca5faf62779be6e24ca", "fusion_lon": 0.0, "fusion_lat": 0.0, "is_disabled": 0, "name": "837878df81591ca5faf62779be6e24ca", "type": "electric_bike", "lon": -76.90127333333334}, {"is_reserved": 0, "lat": 38.93060933333334, "rental_uris": {"android": "https://dc.lft.to/lastmile_qr_scan", "ios": "https://dc.lft.to/lastmile_qr_scan"}, "bike_id": "a6f37570c562ebea587ad6b391170a7e", "fusion_lon": 0.0, "fusion_lat": 0.0, "is_disabled": 0, "name": "a6f37570c562ebea587ad6b391170a7e", "type": "electric_scooter", "lon": -77.03692816666667}, {"is_reserved": 0, "lat": 38.89217, "rental_uris": {"android": "https://dc.lft.to/lastmile_qr_scan", "ios": "https://dc.lft.to/lastmile_qr_scan"}, "bike_id": "18e97518cf4387365bbb694d1f757d18", "fusion_lon": 0.0, "fusion_lat": 0.0, "is_disabled": 0, "name": "18e97518cf4387365bbb694d1f757d18", "type": "electric_scooter", "lon": -77.0317155}, {"is_reserved": 0, "lat": 38.91226266666666, "rental_uris": {"android": "https://dc.lft.to/lastmile_qr_scan", "ios": "https://dc.lft.to/lastmile_qr_scan"}, "bike_id": "6d7ef01068e812e23e9dc6ee64b28f46", "fusion_lon": 0.0, "fusion_lat": 0.0, "is_disabled": 0, "name": "6d7ef01068e812e23e9dc6ee64b28f46", "type": "electric_scooter", "lon": -77.04469516666667}, {"is_reserved": 0, "lat": 38.92060083333333, "rental_uris": {"android": "https://dc.lft.to/lastmile_qr_scan", "ios": "https://dc.lft.to/lastmile_qr_scan"}, "bike_id": "4e7482e3dd7aa27c657f24a652765097", "fusion_lon": 0.0, "fusion_lat": 0.0, "is_disabled": 0, "name": "4e7482e3dd7aa27c657f24a652765097", "type": "electric_scooter", "lon": -77.03807366666666}, {"is_reserved": 0, "lat": 38.923199833333335, "rental_uris": {"android": "https://dc.lft.to/lastmile_qr_scan", "ios": "https://dc.lft.to/lastmile_qr_scan"}, "bike_id": "8512017e1c4ea63f595e3049ddbfe977", "fusion_lon": 0.0, "fusion_lat": 0.0, "is_disabled": 0, "name": "8512017e1c4ea63f595e3049ddbfe977", "type": "electric_scooter", "lon": -77.042085}, {"is_reserved": 0, "lat": 38.9026795, "rental_uris": {"android": "https://dc.lft.to/lastmile_qr_scan", "ios": "https://dc.lft.to/lastmile_qr_scan"}, "bike_id": "47d3b49deb72f000e9d4b5d3cf3767f6", "fusion_lon": 0.0, "fusion_lat": 0.0, "is_disabled": 0, "name": "47d3b49deb72f000e9d4b5d3cf3767f6", "type": "electric_scooter", "lon": -77.0336615}, {"is_reserved": 0, "lat": 38.8958175, "rental_uris": {"android": "https://dc.lft.to/lastmile_qr_scan", "ios": "https://dc.lft.to/lastmile_qr_scan"}, "bike_id": "0362deb5ab4627912931c0cd5b98d2cf", "fusion_lon": 0.0, "fusion_lat": 0.0, "is_disabled": 0, "name": "0362deb5ab4627912931c0cd5b98d2cf", "type": "electric_bike", "lon": -77.12705733333334}, {"is_reserved": 0, "lat": 38.9156225, "rental_uris": {"android": "https://dc.lft.to/lastmile_qr_scan", "ios": "https://dc.lft.to/lastmile_qr_scan"}, "bike_id": "ec091cfeb3eddb196283ae73bf477838", "fusion_lon": 0.0, "fusion_lat": 0.0, "is_disabled": 0, "name": "ec091cfeb3eddb196283ae73bf477838", "type": "electric_scooter", "lon": -77.03167083333334}, {"is_reserved": 0, "lat": 38.914748, "rental_uris": {"android": "https://dc.lft.to/lastmile_qr_scan", "ios": "https://dc.lft.to/lastmile_qr_scan"}, "bike_id": "1a4ae5c38eab77090cd282b83f497705", "fusion_lon": 0.0, "fusion_lat": 0.0, "is_disabled": 0, "name": "1a4ae5c38eab77090cd282b83f497705", "type": "electric_scooter", "lon": -77.03221383333333}, {"is_reserved": 0, "lat": 38.9289755, "rental_uris": {"android": "https://dc.lft.to/lastmile_qr_scan", "ios": "https://dc.lft.to/lastmile_qr_scan"}, "bike_id": "89705180947ea54bf7d6c123d5a872f4", "fusion_lon": 0.0, "fusion_lat": 0.0, "is_disabled": 0, "name": "89705180947ea54bf7d6c123d5a872f4", "type": "electric_scooter", "lon": -77.02401566666667}, {"is_reserved": 0, "lat": 38.91417466666667, "rental_uris": {"android": "https://dc.lft.to/lastmile_qr_scan", "ios": "https://dc.lft.to/lastmile_qr_scan"}, "bike_id": "80256f13e1fad1fd3f9641111b16b26b", "fusion_lon": 0.0, "fusion_lat": 0.0, "is_disabled": 0, "name": "80256f13e1fad1fd3f9641111b16b26b", "type": "electric_scooter", "lon": -77.03188633333333}, {"is_reserved": 0, "lat": 38.902865, "rental_uris": {"android": "https://dc.lft.to/lastmile_qr_scan", "ios": "https://dc.lft.to/lastmile_qr_scan"}, "bike_id": "156c0b47acd10d3cd5c6cb07b29804f2", "fusion_lon": 0.0, "fusion_lat": 0.0, "is_disabled": 0, "name": "156c0b47acd10d3cd5c6cb07b29804f2", "type": "electric_scooter", "lon": -77.03634666666666}, {"is_reserved": 0, "lat": 38.912643833333334, "rental_uris": {"android": "https://dc.lft.to/lastmile_qr_scan", "ios": "https://dc.lft.to/lastmile_qr_scan"}, "bike_id": "8cc282e7a62d142f8fe00c65d11d2ae6", "fusion_lon": 0.0, "fusion_lat": 0.0, "is_disabled": 0, "name": "8cc282e7a62d142f8fe00c65d11d2ae6", "type": "electric_scooter", "lon": -77.038062}, {"is_reserved": 0, "lat": 38.93355716666667, "rental_uris": {"android": "https://dc.lft.to/lastmile_qr_scan", "ios": "https://dc.lft.to/lastmile_qr_scan"}, "bike_id": "19bcc7798099e8b5e8bbe23b055cd8d0", "fusion_lon": 0.0, "fusion_lat": 0.0, "is_disabled": 0, "name": "19bcc7798099e8b5e8bbe23b055cd8d0", "type": "electric_bike", "lon": -77.09959633333334}, {"is_reserved": 0, "lat": 38.9319, "rental_uris": {"android": "https://dc.lft.to/lastmile_qr_scan", "ios": "https://dc.lft.to/lastmile_qr_scan"}, "bike_id": "f7c2aed26adc9edd4062391a299868e9", "fusion_lon": 0.0, "fusion_lat": 0.0, "is_disabled": 0, "name": "f7c2aed26adc9edd4062391a299868e9", "type": "electric_scooter", "lon": -77.02819516666666}, {"is_reserved": 0, "lat": 38.908102666666665, "rental_uris": {"android": "https://dc.lft.to/lastmile_qr_scan", "ios": "https://dc.lft.to/lastmile_qr_scan"}, "bike_id": "0f19459cc6e0f4dd86b7ee304e96295a", "fusion_lon": 0.0, "fusion_lat": 0.0, "is_disabled": 0, "name": "0f19459cc6e0f4dd86b7ee304e96295a", "type": "electric_scooter", "lon": -77.0435035}, {"is_reserved": 0, "lat": 38.9213895, "rental_uris": {"android": "https://dc.lft.to/lastmile_qr_scan", "ios": "https://dc.lft.to/lastmile_qr_scan"}, "bike_id": "cfd675598cfbabf86f42efc393cd9a12", "fusion_lon": 0.0, "fusion_lat": 0.0, "is_disabled": 0, "name": "cfd675598cfbabf86f42efc393cd9a12", "type": "electric_scooter", "lon": -77.073094}, {"is_reserved": 0, "lat": 38.885095166666666, "rental_uris": {"android": "https://dc.lft.to/lastmile_qr_scan", "ios": "https://dc.lft.to/lastmile_qr_scan"}, "bike_id": "30a819e3c08cfe61110ec1c49653e19e", "fusion_lon": 0.0, "fusion_lat": 0.0, "is_disabled": 0, "name": "30a819e3c08cfe61110ec1c49653e19e", "type": "electric_scooter", "lon": -77.006781}, {"is_reserved": 0, "lat": 38.875741833333336, "rental_uris": {"android": "https://dc.lft.to/lastmile_qr_scan", "ios": "https://dc.lft.to/lastmile_qr_scan"}, "bike_id": "7fe6705bd6004a3e8cc35fd960e61345", "fusion_lon": 0.0, "fusion_lat": 0.0, "is_disabled": 0, "name": "7fe6705bd6004a3e8cc35fd960e61345", "type": "electric_scooter", "lon": -77.02082566666667}, {"is_reserved": 0, "lat": 39.030482666666664, "rental_uris": {"android": "https://dc.lft.to/lastmile_qr_scan", "ios": "https://dc.lft.to/lastmile_qr_scan"}, "bike_id": "fd840656c1393fd23daf54d839366286", "fusion_lon": 0.0, "fusion_lat": 0.0, "is_disabled": 0, "name": "fd840656c1393fd23daf54d839366286", "type": "electric_bike", "lon": -77.0948}, {"is_reserved": 0, "lat": 38.90876733333333, "rental_uris": {"android": "https://dc.lft.to/lastmile_qr_scan", "ios": "https://dc.lft.to/lastmile_qr_scan"}, "bike_id": "ed56e17d3c0b2aabda1cd9458e635c73", "fusion_lon": 0.0, "fusion_lat": 0.0, "is_disabled": 0, "name": "ed56e17d3c0b2aabda1cd9458e635c73", "type": "electric_scooter", "lon": -77.04322633333334}, {"is_reserved": 0, "lat": 38.91338233333333, "rental_uris": {"android": "https://dc.lft.to/lastmile_qr_scan", "ios": "https://dc.lft.to/lastmile_qr_scan"}, "bike_id": "cc2ca6bbefa83a743aa0bdddcc01a495", "fusion_lon": 0.0, "fusion_lat": 0.0, "is_disabled": 0, "name": "cc2ca6bbefa83a743aa0bdddcc01a495", "type": "electric_scooter", "lon": -77.04880366666667}, {"is_reserved": 0, "lat": 38.89556683333333, "rental_uris": {"android": "https://dc.lft.to/lastmile_qr_scan", "ios": "https://dc.lft.to/lastmile_qr_scan"}, "bike_id": "017916d03d2c6afab31f8e667e667252", "fusion_lon": 0.0, "fusion_lat": 0.0, "is_disabled": 0, "name": "017916d03d2c6afab31f8e667e667252", "type": "electric_scooter", "lon": -77.046761}, {"is_reserved": 0, "lat": 38.90212916666667, "rental_uris": {"android": "https://dc.lft.to/lastmile_qr_scan", "ios": "https://dc.lft.to/lastmile_qr_scan"}, "bike_id": "741bde524593f5bf7679f03fb3ac623b", "fusion_lon": 0.0, "fusion_lat": 0.0, "is_disabled": 0, "name": "741bde524593f5bf7679f03fb3ac623b", "type": "electric_scooter", "lon": -77.04756366666666}, {"is_reserved": 0, "lat": 38.91114483333333, "rental_uris": {"android": "https://dc.lft.to/lastmile_qr_scan", "ios": "https://dc.lft.to/lastmile_qr_scan"}, "bike_id": "cb2242e30267edc5f85e9e47dbcbda97", "fusion_lon": 0.0, "fusion_lat": 0.0, "is_disabled": 0, "name": "cb2242e30267edc5f85e9e47dbcbda97", "type": "electric_scooter", "lon": -77.044639}, {"is_reserved": 0, "lat": 38.8545435, "rental_uris": {"android": "https://dc.lft.to/lastmile_qr_scan", "ios": "https://dc.lft.to/lastmile_qr_scan"}, "bike_id": "65d572c0332c85fddbd8ddfc7629b579", "fusion_lon": 0.0, "fusion_lat": 0.0, "is_disabled": 0, "name": "65d572c0332c85fddbd8ddfc7629b579", "type": "electric_scooter", "lon": -76.97232716666667}, {"is_reserved": 0, "lat": 38.904085, "rental_uris": {"android": "https://dc.lft.to/lastmile_qr_scan", "ios": "https://dc.lft.to/lastmile_qr_scan"}, "bike_id": "c8c4b104b699b98fa4d7aab9a279bd13", "fusion_lon": 0.0, "fusion_lat": 0.0, "is_disabled": 0, "name": "c8c4b104b699b98fa4d7aab9a279bd13", "type": "electric_scooter", "lon": -77.04042183333334}, {"is_reserved": 0, "lat": 38.905771, "rental_uris": {"android": "https://dc.lft.to/lastmile_qr_scan", "ios": "https://dc.lft.to/lastmile_qr_scan"}, "bike_id": "9f02bef542fb8102562c870e3d056978", "fusion_lon": 0.0, "fusion_lat": 0.0, "is_disabled": 0, "name": "9f02bef542fb8102562c870e3d056978", "type": "electric_scooter", "lon": -77.00062516666667}, {"is_reserved": 0, "lat": 38.90240266666667, "rental_uris": {"android": "https://dc.lft.to/lastmile_qr_scan", "ios": "https://dc.lft.to/lastmile_qr_scan"}, "bike_id": "0f2374f85bb0cae405d406256935af5d", "fusion_lon": 0.0, "fusion_lat": 0.0, "is_disabled": 0, "name": "0f2374f85bb0cae405d406256935af5d", "type": "electric_scooter", "lon": -77.04356733333333}, {"is_reserved": 0, "lat": 38.86100716666667, "rental_uris": {"android": "https://dc.lft.to/lastmile_qr_scan", "ios": "https://dc.lft.to/lastmile_qr_scan"}, "bike_id": "a20ae104d47313d7bf7c86380dc31a9f", "fusion_lon": 0.0, "fusion_lat": 0.0, "is_disabled": 0, "name": "a20ae104d47313d7bf7c86380dc31a9f", "type": "electric_scooter", "lon": -76.98907483333333}, {"is_reserved": 0, "lat": 38.89356266666667, "rental_uris": {"android": "https://dc.lft.to/lastmile_qr_scan", "ios": "https://dc.lft.to/lastmile_qr_scan"}, "bike_id": "1727c8e8161f002692449f2de705591c", "fusion_lon": 0.0, "fusion_lat": 0.0, "is_disabled": 0, "name": "1727c8e8161f002692449f2de705591c", "type": "electric_scooter", "lon": -77.02212633333333}, {"is_reserved": 0, "lat": 38.896143, "rental_uris": {"android": "https://dc.lft.to/lastmile_qr_scan", "ios": "https://dc.lft.to/lastmile_qr_scan"}, "bike_id": "5b731b7a4aaedf2faa1e25e1867456af", "fusion_lon": 0.0, "fusion_lat": 0.0, "is_disabled": 0, "name": "5b731b7a4aaedf2faa1e25e1867456af", "type": "electric_scooter", "lon": -77.03166316666666}, {"is_reserved": 0, "lat": 38.906378833333335, "rental_uris": {"android": "https://dc.lft.to/lastmile_qr_scan", "ios": "https://dc.lft.to/lastmile_qr_scan"}, "bike_id": "6788244680b53ff01eca594eea728fc6", "fusion_lon": 0.0, "fusion_lat": 0.0, "is_disabled": 0, "name": "6788244680b53ff01eca594eea728fc6", "type": "electric_scooter", "lon": -77.00628783333333}, {"is_reserved": 0, "lat": 38.922015333333334, "rental_uris": {"android": "https://dc.lft.to/lastmile_qr_scan", "ios": "https://dc.lft.to/lastmile_qr_scan"}, "bike_id": "4e61a8e3935129d750699fec1ac79cd4", "fusion_lon": 0.0, "fusion_lat": 0.0, "is_disabled": 0, "name": "4e61a8e3935129d750699fec1ac79cd4", "type": "electric_scooter", "lon": -77.04250516666667}, {"is_reserved": 0, "lat": 38.903046833333335, "rental_uris": {"android": "https://dc.lft.to/lastmile_qr_scan", "ios": "https://dc.lft.to/lastmile_qr_scan"}, "bike_id": "b522071e550c3b4ece7755a9b4824e0c", "fusion_lon": 0.0, "fusion_lat": 0.0, "is_disabled": 0, "name": "b522071e550c3b4ece7755a9b4824e0c", "type": "electric_scooter", "lon": -77.01152866666666}, {"is_reserved": 0, "lat": 38.91986083333333, "rental_uris": {"android": "https://dc.lft.to/lastmile_qr_scan", "ios": "https://dc.lft.to/lastmile_qr_scan"}, "bike_id": "313b9ea2c6ca9d5b32b1d098375c233d", "fusion_lon": 0.0, "fusion_lat": 0.0, "is_disabled": 0, "name": "313b9ea2c6ca9d5b32b1d098375c233d", "type": "electric_scooter", "lon": -77.04162733333334}, {"is_reserved": 0, "lat": 38.915627666666666, "rental_uris": {"android": "https://dc.lft.to/lastmile_qr_scan", "ios": "https://dc.lft.to/lastmile_qr_scan"}, "bike_id": "ec0f0777e8df88c7d46c0e78cd20e7a7", "fusion_lon": 0.0, "fusion_lat": 0.0, "is_disabled": 0, "name": "ec0f0777e8df88c7d46c0e78cd20e7a7", "type": "electric_scooter", "lon": -77.031513}, {"is_reserved": 0, "lat": 38.929339666666664, "rental_uris": {"android": "https://dc.lft.to/lastmile_qr_scan", "ios": "https://dc.lft.to/lastmile_qr_scan"}, "bike_id": "3e0b1064e96a8b0bb0724c844c75bade", "fusion_lon": 0.0, "fusion_lat": 0.0, "is_disabled": 0, "name": "3e0b1064e96a8b0bb0724c844c75bade", "type": "electric_scooter", "lon": -77.0328015}, {"is_reserved": 0, "lat": 38.926027, "rental_uris": {"android": "https://dc.lft.to/lastmile_qr_scan", "ios": "https://dc.lft.to/lastmile_qr_scan"}, "bike_id": "87669a7ff5b71207cbf957f4bbf73e83", "fusion_lon": 0.0, "fusion_lat": 0.0, "is_disabled": 0, "name": "87669a7ff5b71207cbf957f4bbf73e83", "type": "electric_scooter", "lon": -77.02154233333333}, {"is_reserved": 0, "lat": 38.930672333333334, "rental_uris": {"android": "https://dc.lft.to/lastmile_qr_scan", "ios": "https://dc.lft.to/lastmile_qr_scan"}, "bike_id": "695f24a9fd632db85b2b5e8f1de37a71", "fusion_lon": 0.0, "fusion_lat": 0.0, "is_disabled": 0, "name": "695f24a9fd632db85b2b5e8f1de37a71", "type": "electric_scooter", "lon": -77.03196983333333}, {"is_reserved": 0, "lat": 38.86107483333333, "rental_uris": {"android": "https://dc.lft.to/lastmile_qr_scan", "ios": "https://dc.lft.to/lastmile_qr_scan"}, "bike_id": "84bb5c215f8a198b93c8980017a4bcbc", "fusion_lon": 0.0, "fusion_lat": 0.0, "is_disabled": 0, "name": "84bb5c215f8a198b93c8980017a4bcbc", "type": "electric_scooter", "lon": -76.983737}, {"is_reserved": 0, "lat": 38.854485833333335, "rental_uris": {"android": "https://dc.lft.to/lastmile_qr_scan", "ios": "https://dc.lft.to/lastmile_qr_scan"}, "bike_id": "a6a610d12f865ff7a661483a1652b466", "fusion_lon": 0.0, "fusion_lat": 0.0, "is_disabled": 0, "name": "a6a610d12f865ff7a661483a1652b466", "type": "electric_scooter", "lon": -76.97221166666667}, {"is_reserved": 0, "lat": 38.91122333333333, "rental_uris": {"android": "https://dc.lft.to/lastmile_qr_scan", "ios": "https://dc.lft.to/lastmile_qr_scan"}, "bike_id": "9a95092510e37719a4d755eb7ac490f0", "fusion_lon": 0.0, "fusion_lat": 0.0, "is_disabled": 0, "name": "9a95092510e37719a4d755eb7ac490f0", "type": "electric_scooter", "lon": -77.0269175}, {"is_reserved": 0, "lat": 38.86379516666667, "rental_uris": {"android": "https://dc.lft.to/lastmile_qr_scan", "ios": "https://dc.lft.to/lastmile_qr_scan"}, "bike_id": "ae8314cb91816dea403be927cdf9f693", "fusion_lon": 0.0, "fusion_lat": 0.0, "is_disabled": 0, "name": "ae8314cb91816dea403be927cdf9f693", "type": "electric_scooter", "lon": -76.99246516666666}, {"is_reserved": 0, "lat": 38.91659883333333, "rental_uris": {"android": "https://dc.lft.to/lastmile_qr_scan", "ios": "https://dc.lft.to/lastmile_qr_scan"}, "bike_id": "5a4f4b9ab9a8616903e8863e35949928", "fusion_lon": 0.0, "fusion_lat": 0.0, "is_disabled": 0, "name": "5a4f4b9ab9a8616903e8863e35949928", "type": "electric_scooter", "lon": -77.021815}, {"is_reserved": 0, "lat": 38.90971183333333, "rental_uris": {"android": "https://dc.lft.to/lastmile_qr_scan", "ios": "https://dc.lft.to/lastmile_qr_scan"}, "bike_id": "c294e589c05529b143eb5a512e2acfc1", "fusion_lon": 0.0, "fusion_lat": 0.0, "is_disabled": 0, "name": "c294e589c05529b143eb5a512e2acfc1", "type": "electric_scooter", "lon": -77.038156}, {"is_reserved": 0, "lat": 38.902854166666664, "rental_uris": {"android": "https://dc.lft.to/lastmile_qr_scan", "ios": "https://dc.lft.to/lastmile_qr_scan"}, "bike_id": "6fcc802b47da480c1c1ceebc15f6119d", "fusion_lon": 0.0, "fusion_lat": 0.0, "is_disabled": 0, "name": "6fcc802b47da480c1c1ceebc15f6119d", "type": "electric_bike", "lon": -77.06337316666666}, {"is_reserved": 0, "lat": 38.91852216666667, "rental_uris": {"android": "https://dc.lft.to/lastmile_qr_scan", "ios": "https://dc.lft.to/lastmile_qr_scan"}, "bike_id": "456f22c64c5287206b6dd8894dae13fa", "fusion_lon": 0.0, "fusion_lat": 0.0, "is_disabled": 0, "name": "456f22c64c5287206b6dd8894dae13fa", "type": "electric_scooter", "lon": -77.04031966666666}, {"is_reserved": 0, "lat": 38.921457833333335, "rental_uris": {"android": "https://dc.lft.to/lastmile_qr_scan", "ios": "https://dc.lft.to/lastmile_qr_scan"}, "bike_id": "b65b840bf39c83e4a99fdc9d58b7e070", "fusion_lon": 0.0, "fusion_lat": 0.0, "is_disabled": 0, "name": "b65b840bf39c83e4a99fdc9d58b7e070", "type": "electric_scooter", "lon": -77.03864133333333}, {"is_reserved": 0, "lat": 38.9140905, "rental_uris": {"android": "https://dc.lft.to/lastmile_qr_scan", "ios": "https://dc.lft.to/lastmile_qr_scan"}, "bike_id": "dba7b92b611f4c5e92b19f768b7b2b72", "fusion_lon": 0.0, "fusion_lat": 0.0, "is_disabled": 0, "name": "dba7b92b611f4c5e92b19f768b7b2b72", "type": "electric_scooter", "lon": -77.02569716666666}, {"is_reserved": 0, "lat": 38.92355333333333, "rental_uris": {"android": "https://dc.lft.to/lastmile_qr_scan", "ios": "https://dc.lft.to/lastmile_qr_scan"}, "bike_id": "94556aec48d848cd6a51d7e708788084", "fusion_lon": 0.0, "fusion_lat": 0.0, "is_disabled": 0, "name": "94556aec48d848cd6a51d7e708788084", "type": "electric_scooter", "lon": -77.04393}, {"is_reserved": 0, "lat": 38.923637, "rental_uris": {"android": "https://dc.lft.to/lastmile_qr_scan", "ios": "https://dc.lft.to/lastmile_qr_scan"}, "bike_id": "7ce4f421df946281bd5304394bdbf741", "fusion_lon": 0.0, "fusion_lat": 0.0, "is_disabled": 0, "name": "7ce4f421df946281bd5304394bdbf741", "type": "electric_scooter", "lon": -77.03159783333334}, {"is_reserved": 0, "lat": 38.93249683333333, "rental_uris": {"android": "https://dc.lft.to/lastmile_qr_scan", "ios": "https://dc.lft.to/lastmile_qr_scan"}, "bike_id": "a6e146d5ead3ac9c55a3b92e2b4e3eba", "fusion_lon": 0.0, "fusion_lat": 0.0, "is_disabled": 0, "name": "a6e146d5ead3ac9c55a3b92e2b4e3eba", "type": "electric_scooter", "lon": -77.032679}, {"is_reserved": 0, "lat": 38.89353083333334, "rental_uris": {"android": "https://dc.lft.to/lastmile_qr_scan", "ios": "https://dc.lft.to/lastmile_qr_scan"}, "bike_id": "e42791001006d25601ce9f909638f52e", "fusion_lon": 0.0, "fusion_lat": 0.0, "is_disabled": 0, "name": "e42791001006d25601ce9f909638f52e", "type": "electric_scooter", "lon": -77.04136916666667}, {"is_reserved": 0, "lat": 38.917938166666666, "rental_uris": {"android": "https://dc.lft.to/lastmile_qr_scan", "ios": "https://dc.lft.to/lastmile_qr_scan"}, "bike_id": "d4a86e279d86ce79aeab48056bd57d93", "fusion_lon": 0.0, "fusion_lat": 0.0, "is_disabled": 0, "name": "d4a86e279d86ce79aeab48056bd57d93", "type": "electric_scooter", "lon": -77.04038883333334}, {"is_reserved": 0, "lat": 38.930853, "rental_uris": {"android": "https://dc.lft.to/lastmile_qr_scan", "ios": "https://dc.lft.to/lastmile_qr_scan"}, "bike_id": "ea6a571b1dcd1559ea2a99b60c82de81", "fusion_lon": 0.0, "fusion_lat": 0.0, "is_disabled": 0, "name": "ea6a571b1dcd1559ea2a99b60c82de81", "type": "electric_scooter", "lon": -77.037434}, {"is_reserved": 0, "lat": 38.937089666666665, "rental_uris": {"android": "https://dc.lft.to/lastmile_qr_scan", "ios": "https://dc.lft.to/lastmile_qr_scan"}, "bike_id": "b6fa876fbc68e5831ce0bd9d9afe9053", "fusion_lon": 0.0, "fusion_lat": 0.0, "is_disabled": 0, "name": "b6fa876fbc68e5831ce0bd9d9afe9053", "type": "electric_scooter", "lon": -77.0363985}, {"is_reserved": 0, "lat": 38.900307, "rental_uris": {"android": "https://dc.lft.to/lastmile_qr_scan", "ios": "https://dc.lft.to/lastmile_qr_scan"}, "bike_id": "c1cf83c35e49397ace767733e9d5fe83", "fusion_lon": 0.0, "fusion_lat": 0.0, "is_disabled": 0, "name": "c1cf83c35e49397ace767733e9d5fe83", "type": "electric_scooter", "lon": -76.99375716666667}, {"is_reserved": 0, "lat": 38.91859483333333, "rental_uris": {"android": "https://dc.lft.to/lastmile_qr_scan", "ios": "https://dc.lft.to/lastmile_qr_scan"}, "bike_id": "81bc90c9a3696c32d67a7cd8d5db7896", "fusion_lon": 0.0, "fusion_lat": 0.0, "is_disabled": 0, "name": "81bc90c9a3696c32d67a7cd8d5db7896", "type": "electric_scooter", "lon": -77.04167833333334}, {"is_reserved": 0, "lat": 38.914173166666664, "rental_uris": {"android": "https://dc.lft.to/lastmile_qr_scan", "ios": "https://dc.lft.to/lastmile_qr_scan"}, "bike_id": "9f8ca84bae1c6c04aaceed2881de23df", "fusion_lon": 0.0, "fusion_lat": 0.0, "is_disabled": 0, "name": "9f8ca84bae1c6c04aaceed2881de23df", "type": "electric_scooter", "lon": -77.03175383333334}, {"is_reserved": 0, "lat": 38.917711833333335, "rental_uris": {"android": "https://dc.lft.to/lastmile_qr_scan", "ios": "https://dc.lft.to/lastmile_qr_scan"}, "bike_id": "75a599d2de8d27e155495a2adae3ae33", "fusion_lon": 0.0, "fusion_lat": 0.0, "is_disabled": 0, "name": "75a599d2de8d27e155495a2adae3ae33", "type": "electric_scooter", "lon": -77.02302}, {"is_reserved": 0, "lat": 38.935104, "rental_uris": {"android": "https://dc.lft.to/lastmile_qr_scan", "ios": "https://dc.lft.to/lastmile_qr_scan"}, "bike_id": "285a0e03c1d313d9b9a0e30816cacc29", "fusion_lon": 0.0, "fusion_lat": 0.0, "is_disabled": 0, "name": "285a0e03c1d313d9b9a0e30816cacc29", "type": "electric_scooter", "lon": -77.032658}, {"is_reserved": 0, "lat": 38.936336833333336, "rental_uris": {"android": "https://dc.lft.to/lastmile_qr_scan", "ios": "https://dc.lft.to/lastmile_qr_scan"}, "bike_id": "607b5c3d4eca39931a24389b3f54d9d7", "fusion_lon": 0.0, "fusion_lat": 0.0, "is_disabled": 0, "name": "607b5c3d4eca39931a24389b3f54d9d7", "type": "electric_scooter", "lon": -77.02499933333333}, {"is_reserved": 0, "lat": 38.918039, "rental_uris": {"android": "https://dc.lft.to/lastmile_qr_scan", "ios": "https://dc.lft.to/lastmile_qr_scan"}, "bike_id": "0d6199ecf38dc2d4936155cb001bb888", "fusion_lon": 0.0, "fusion_lat": 0.0, "is_disabled": 0, "name": "0d6199ecf38dc2d4936155cb001bb888", "type": "electric_scooter", "lon": -77.02494683333333}, {"is_reserved": 0, "lat": 38.9252755, "rental_uris": {"android": "https://dc.lft.to/lastmile_qr_scan", "ios": "https://dc.lft.to/lastmile_qr_scan"}, "bike_id": "ff9954f7850a80c27a000c9f5104a026", "fusion_lon": 0.0, "fusion_lat": 0.0, "is_disabled": 0, "name": "ff9954f7850a80c27a000c9f5104a026", "type": "electric_scooter", "lon": -77.044257}, {"is_reserved": 0, "lat": 38.91676016666667, "rental_uris": {"android": "https://dc.lft.to/lastmile_qr_scan", "ios": "https://dc.lft.to/lastmile_qr_scan"}, "bike_id": "74f648cea99fd907a71db5458a683bd4", "fusion_lon": 0.0, "fusion_lat": 0.0, "is_disabled": 0, "name": "74f648cea99fd907a71db5458a683bd4", "type": "electric_scooter", "lon": -77.03687116666667}, {"is_reserved": 0, "lat": 38.877255166666664, "rental_uris": {"android": "https://dc.lft.to/lastmile_qr_scan", "ios": "https://dc.lft.to/lastmile_qr_scan"}, "bike_id": "b7f570f9e8edfefd933b22f17323b795", "fusion_lon": 0.0, "fusion_lat": 0.0, "is_disabled": 0, "name": "b7f570f9e8edfefd933b22f17323b795", "type": "electric_scooter", "lon": -77.01780183333334}, {"is_reserved": 0, "lat": 38.9181745, "rental_uris": {"android": "https://dc.lft.to/lastmile_qr_scan", "ios": "https://dc.lft.to/lastmile_qr_scan"}, "bike_id": "190c79a4331a2959e6b519ccf54102a3", "fusion_lon": 0.0, "fusion_lat": 0.0, "is_disabled": 0, "name": "190c79a4331a2959e6b519ccf54102a3", "type": "electric_scooter", "lon": -77.0318155}, {"is_reserved": 0, "lat": 38.91644183333333, "rental_uris": {"android": "https://dc.lft.to/lastmile_qr_scan", "ios": "https://dc.lft.to/lastmile_qr_scan"}, "bike_id": "82d2aae8521eaefadf565bcd08a2772e", "fusion_lon": 0.0, "fusion_lat": 0.0, "is_disabled": 0, "name": "82d2aae8521eaefadf565bcd08a2772e", "type": "electric_scooter", "lon": -77.0477705}, {"is_reserved": 0, "lat": 38.905201, "rental_uris": {"android": "https://dc.lft.to/lastmile_qr_scan", "ios": "https://dc.lft.to/lastmile_qr_scan"}, "bike_id": "2d61936894602d006531d17c9c456f08", "fusion_lon": 0.0, "fusion_lat": 0.0, "is_disabled": 0, "name": "2d61936894602d006531d17c9c456f08", "type": "electric_scooter", "lon": -77.0418925}, {"is_reserved": 0, "lat": 38.917032166666665, "rental_uris": {"android": "https://dc.lft.to/lastmile_qr_scan", "ios": "https://dc.lft.to/lastmile_qr_scan"}, "bike_id": "d35961a80dcdf5ccab6edab2091e54da", "fusion_lon": 0.0, "fusion_lat": 0.0, "is_disabled": 0, "name": "d35961a80dcdf5ccab6edab2091e54da", "type": "electric_scooter", "lon": -77.0229665}, {"is_reserved": 0, "lat": 38.9072925, "rental_uris": {"android": "https://dc.lft.to/lastmile_qr_scan", "ios": "https://dc.lft.to/lastmile_qr_scan"}, "bike_id": "37bd58187afda2a54e90bd377f6a88d8", "fusion_lon": 0.0, "fusion_lat": 0.0, "is_disabled": 0, "name": "37bd58187afda2a54e90bd377f6a88d8", "type": "electric_scooter", "lon": -77.028075}, {"is_reserved": 0, "lat": 38.91707366666667, "rental_uris": {"android": "https://dc.lft.to/lastmile_qr_scan", "ios": "https://dc.lft.to/lastmile_qr_scan"}, "bike_id": "dbe85d943f1c5c2c5d3acaaefe3f2197", "fusion_lon": 0.0, "fusion_lat": 0.0, "is_disabled": 0, "name": "dbe85d943f1c5c2c5d3acaaefe3f2197", "type": "electric_scooter", "lon": -77.04119583333333}, {"is_reserved": 0, "lat": 38.86264033333333, "rental_uris": {"android": "https://dc.lft.to/lastmile_qr_scan", "ios": "https://dc.lft.to/lastmile_qr_scan"}, "bike_id": "0e1af28a0899d808105aa068400c6843", "fusion_lon": 0.0, "fusion_lat": 0.0, "is_disabled": 0, "name": "0e1af28a0899d808105aa068400c6843", "type": "electric_scooter", "lon": -76.99516083333333}, {"is_reserved": 0, "lat": 38.91685016666667, "rental_uris": {"android": "https://dc.lft.to/lastmile_qr_scan", "ios": "https://dc.lft.to/lastmile_qr_scan"}, "bike_id": "876be33ea9a9b56c4234f3ff91850e45", "fusion_lon": 0.0, "fusion_lat": 0.0, "is_disabled": 0, "name": "876be33ea9a9b56c4234f3ff91850e45", "type": "electric_scooter", "lon": -77.02972183333333}, {"is_reserved": 0, "lat": 38.923602333333335, "rental_uris": {"android": "https://dc.lft.to/lastmile_qr_scan", "ios": "https://dc.lft.to/lastmile_qr_scan"}, "bike_id": "70982ccc7e2fa7bc8f8d552c471aef42", "fusion_lon": 0.0, "fusion_lat": 0.0, "is_disabled": 0, "name": "70982ccc7e2fa7bc8f8d552c471aef42", "type": "electric_scooter", "lon": -77.051329}, {"is_reserved": 0, "lat": 38.90003166666666, "rental_uris": {"android": "https://dc.lft.to/lastmile_qr_scan", "ios": "https://dc.lft.to/lastmile_qr_scan"}, "bike_id": "b8174385aab16c2dc257d2e1e0f16b3e", "fusion_lon": 0.0, "fusion_lat": 0.0, "is_disabled": 0, "name": "b8174385aab16c2dc257d2e1e0f16b3e", "type": "electric_scooter", "lon": -76.92229016666667}, {"is_reserved": 0, "lat": 38.893490666666665, "rental_uris": {"android": "https://dc.lft.to/lastmile_qr_scan", "ios": "https://dc.lft.to/lastmile_qr_scan"}, "bike_id": "0282bbd5f73247182b1dfc9a5e9a6ed2", "fusion_lon": 0.0, "fusion_lat": 0.0, "is_disabled": 0, "name": "0282bbd5f73247182b1dfc9a5e9a6ed2", "type": "electric_bike", "lon": -77.18741433333334}, {"is_reserved": 0, "lat": 38.89228333333333, "rental_uris": {"android": "https://dc.lft.to/lastmile_qr_scan", "ios": "https://dc.lft.to/lastmile_qr_scan"}, "bike_id": "ab11a735f99c151e4045a99773b3f618", "fusion_lon": 0.0, "fusion_lat": 0.0, "is_disabled": 0, "name": "ab11a735f99c151e4045a99773b3f618", "type": "electric_scooter", "lon": -77.028363}, {"is_reserved": 0, "lat": 38.902604333333336, "rental_uris": {"android": "https://dc.lft.to/lastmile_qr_scan", "ios": "https://dc.lft.to/lastmile_qr_scan"}, "bike_id": "65ae3b7b876c2662092906c2f7afb22c", "fusion_lon": 0.0, "fusion_lat": 0.0, "is_disabled": 0, "name": "65ae3b7b876c2662092906c2f7afb22c", "type": "electric_scooter", "lon": -77.015551}, {"is_reserved": 0, "lat": 38.91691316666667, "rental_uris": {"android": "https://dc.lft.to/lastmile_qr_scan", "ios": "https://dc.lft.to/lastmile_qr_scan"}, "bike_id": "807a5416633262e09613020802df4a2a", "fusion_lon": 0.0, "fusion_lat": 0.0, "is_disabled": 0, "name": "807a5416633262e09613020802df4a2a", "type": "electric_scooter", "lon": -77.037677}, {"is_reserved": 0, "lat": 38.90978666666667, "rental_uris": {"android": "https://dc.lft.to/lastmile_qr_scan", "ios": "https://dc.lft.to/lastmile_qr_scan"}, "bike_id": "77ab85f9785e2f214dee1b4d496d31a5", "fusion_lon": 0.0, "fusion_lat": 0.0, "is_disabled": 0, "name": "77ab85f9785e2f214dee1b4d496d31a5", "type": "electric_scooter", "lon": -77.02185816666666}, {"is_reserved": 0, "lat": 38.918408, "rental_uris": {"android": "https://dc.lft.to/lastmile_qr_scan", "ios": "https://dc.lft.to/lastmile_qr_scan"}, "bike_id": "da53d6bd73e9a4d56abb3e5647edc05b", "fusion_lon": 0.0, "fusion_lat": 0.0, "is_disabled": 0, "name": "da53d6bd73e9a4d56abb3e5647edc05b", "type": "electric_scooter", "lon": -77.03435516666667}, {"is_reserved": 0, "lat": 38.89825116666667, "rental_uris": {"android": "https://dc.lft.to/lastmile_qr_scan", "ios": "https://dc.lft.to/lastmile_qr_scan"}, "bike_id": "a20793bf053eb1ff025570be0f617940", "fusion_lon": 0.0, "fusion_lat": 0.0, "is_disabled": 0, "name": "a20793bf053eb1ff025570be0f617940", "type": "electric_scooter", "lon": -76.9877755}, {"is_reserved": 0, "lat": 38.931894, "rental_uris": {"android": "https://dc.lft.to/lastmile_qr_scan", "ios": "https://dc.lft.to/lastmile_qr_scan"}, "bike_id": "2a04a26f9b4696c0ae500a1dae6d8462", "fusion_lon": 0.0, "fusion_lat": 0.0, "is_disabled": 0, "name": "2a04a26f9b4696c0ae500a1dae6d8462", "type": "electric_scooter", "lon": -77.0282255}, {"is_reserved": 0, "lat": 38.9036185, "rental_uris": {"android": "https://dc.lft.to/lastmile_qr_scan", "ios": "https://dc.lft.to/lastmile_qr_scan"}, "bike_id": "07f70f03806cd447099b0795da5f1a3b", "fusion_lon": 0.0, "fusion_lat": 0.0, "is_disabled": 0, "name": "07f70f03806cd447099b0795da5f1a3b", "type": "electric_scooter", "lon": -77.04518033333333}, {"is_reserved": 0, "lat": 38.917453, "rental_uris": {"android": "https://dc.lft.to/lastmile_qr_scan", "ios": "https://dc.lft.to/lastmile_qr_scan"}, "bike_id": "019e044718be5df4423f619485e71b33", "fusion_lon": 0.0, "fusion_lat": 0.0, "is_disabled": 0, "name": "019e044718be5df4423f619485e71b33", "type": "electric_scooter", "lon": -77.023907}, {"is_reserved": 0, "lat": 38.907368166666664, "rental_uris": {"android": "https://dc.lft.to/lastmile_qr_scan", "ios": "https://dc.lft.to/lastmile_qr_scan"}, "bike_id": "08d36c686f309a97f93203d257b64584", "fusion_lon": 0.0, "fusion_lat": 0.0, "is_disabled": 0, "name": "08d36c686f309a97f93203d257b64584", "type": "electric_scooter", "lon": -77.03471166666667}, {"is_reserved": 0, "lat": 38.90379333333333, "rental_uris": {"android": "https://dc.lft.to/lastmile_qr_scan", "ios": "https://dc.lft.to/lastmile_qr_scan"}, "bike_id": "06a64a40e570ea594b538db34d89fa4b", "fusion_lon": 0.0, "fusion_lat": 0.0, "is_disabled": 0, "name": "06a64a40e570ea594b538db34d89fa4b", "type": "electric_scooter", "lon": -77.04289016666667}, {"is_reserved": 0, "lat": 38.923323333333336, "rental_uris": {"android": "https://dc.lft.to/lastmile_qr_scan", "ios": "https://dc.lft.to/lastmile_qr_scan"}, "bike_id": "68bfc61ff44f315d0611309d2ca71ea0", "fusion_lon": 0.0, "fusion_lat": 0.0, "is_disabled": 0, "name": "68bfc61ff44f315d0611309d2ca71ea0", "type": "electric_scooter", "lon": -77.03844783333334}, {"is_reserved": 0, "lat": 38.89327566666667, "rental_uris": {"android": "https://dc.lft.to/lastmile_qr_scan", "ios": "https://dc.lft.to/lastmile_qr_scan"}, "bike_id": "fba71cba232e5cddbb3bd1c876d2fb8b", "fusion_lon": 0.0, "fusion_lat": 0.0, "is_disabled": 0, "name": "fba71cba232e5cddbb3bd1c876d2fb8b", "type": "electric_scooter", "lon": -77.01200083333333}, {"is_reserved": 0, "lat": 38.9035925, "rental_uris": {"android": "https://dc.lft.to/lastmile_qr_scan", "ios": "https://dc.lft.to/lastmile_qr_scan"}, "bike_id": "7daf6a5d739a229c81f41ab5c47f39f7", "fusion_lon": 0.0, "fusion_lat": 0.0, "is_disabled": 0, "name": "7daf6a5d739a229c81f41ab5c47f39f7", "type": "electric_scooter", "lon": -77.04463133333333}, {"is_reserved": 0, "lat": 38.933551666666666, "rental_uris": {"android": "https://dc.lft.to/lastmile_qr_scan", "ios": "https://dc.lft.to/lastmile_qr_scan"}, "bike_id": "6ac607754b4dcda143aaa524096c6a76", "fusion_lon": 0.0, "fusion_lat": 0.0, "is_disabled": 0, "name": "6ac607754b4dcda143aaa524096c6a76", "type": "electric_bike", "lon": -77.099591}, {"is_reserved": 0, "lat": 38.926459666666666, "rental_uris": {"android": "https://dc.lft.to/lastmile_qr_scan", "ios": "https://dc.lft.to/lastmile_qr_scan"}, "bike_id": "76a0727cb784391c7b3131b721b174ca", "fusion_lon": 0.0, "fusion_lat": 0.0, "is_disabled": 0, "name": "76a0727cb784391c7b3131b721b174ca", "type": "electric_scooter", "lon": -77.0414815}, {"is_reserved": 0, "lat": 38.922006, "rental_uris": {"android": "https://dc.lft.to/lastmile_qr_scan", "ios": "https://dc.lft.to/lastmile_qr_scan"}, "bike_id": "6775d030fa28d7e066de4ac72dafc069", "fusion_lon": 0.0, "fusion_lat": 0.0, "is_disabled": 0, "name": "6775d030fa28d7e066de4ac72dafc069", "type": "electric_scooter", "lon": -77.0425465}, {"is_reserved": 0, "lat": 38.923656333333334, "rental_uris": {"android": "https://dc.lft.to/lastmile_qr_scan", "ios": "https://dc.lft.to/lastmile_qr_scan"}, "bike_id": "0c60d13760965693dff18758a593c471", "fusion_lon": 0.0, "fusion_lat": 0.0, "is_disabled": 0, "name": "0c60d13760965693dff18758a593c471", "type": "electric_scooter", "lon": -77.0512905}, {"is_reserved": 0, "lat": 38.871095333333336, "rental_uris": {"android": "https://dc.lft.to/lastmile_qr_scan", "ios": "https://dc.lft.to/lastmile_qr_scan"}, "bike_id": "d9c7acf4c4406e83525a2dd9c9274162", "fusion_lon": 0.0, "fusion_lat": 0.0, "is_disabled": 0, "name": "d9c7acf4c4406e83525a2dd9c9274162", "type": "electric_bike", "lon": -76.92332666666667}, {"is_reserved": 0, "lat": 38.9192865, "rental_uris": {"android": "https://dc.lft.to/lastmile_qr_scan", "ios": "https://dc.lft.to/lastmile_qr_scan"}, "bike_id": "186cdcf0b85f1655d457fcb6b22e38e2", "fusion_lon": 0.0, "fusion_lat": 0.0, "is_disabled": 0, "name": "186cdcf0b85f1655d457fcb6b22e38e2", "type": "electric_scooter", "lon": -77.03192383333334}, {"is_reserved": 0, "lat": 38.902584166666664, "rental_uris": {"android": "https://dc.lft.to/lastmile_qr_scan", "ios": "https://dc.lft.to/lastmile_qr_scan"}, "bike_id": "af615e5505f2dc9618780fe2e2fcf6c5", "fusion_lon": 0.0, "fusion_lat": 0.0, "is_disabled": 0, "name": "af615e5505f2dc9618780fe2e2fcf6c5", "type": "electric_scooter", "lon": -77.04366283333333}, {"is_reserved": 0, "lat": 38.93231766666667, "rental_uris": {"android": "https://dc.lft.to/lastmile_qr_scan", "ios": "https://dc.lft.to/lastmile_qr_scan"}, "bike_id": "d9960a7c313e7cdc2ac5b7a024b012cd", "fusion_lon": 0.0, "fusion_lat": 0.0, "is_disabled": 0, "name": "d9960a7c313e7cdc2ac5b7a024b012cd", "type": "electric_scooter", "lon": -77.038839}, {"is_reserved": 0, "lat": 38.9357885, "rental_uris": {"android": "https://dc.lft.to/lastmile_qr_scan", "ios": "https://dc.lft.to/lastmile_qr_scan"}, "bike_id": "c9efd32e50f4ddad3dac5422edc5dfa0", "fusion_lon": 0.0, "fusion_lat": 0.0, "is_disabled": 0, "name": "c9efd32e50f4ddad3dac5422edc5dfa0", "type": "electric_scooter", "lon": -77.02123466666667}, {"is_reserved": 0, "lat": 38.924665166666664, "rental_uris": {"android": "https://dc.lft.to/lastmile_qr_scan", "ios": "https://dc.lft.to/lastmile_qr_scan"}, "bike_id": "bd99f83a1fa324f4e0aa03b257eba5b5", "fusion_lon": 0.0, "fusion_lat": 0.0, "is_disabled": 0, "name": "bd99f83a1fa324f4e0aa03b257eba5b5", "type": "electric_scooter", "lon": -77.052297}, {"is_reserved": 0, "lat": 38.91819783333333, "rental_uris": {"android": "https://dc.lft.to/lastmile_qr_scan", "ios": "https://dc.lft.to/lastmile_qr_scan"}, "bike_id": "101556b78ed476a1f8f8c65589d16045", "fusion_lon": 0.0, "fusion_lat": 0.0, "is_disabled": 0, "name": "101556b78ed476a1f8f8c65589d16045", "type": "electric_scooter", "lon": -77.02951583333333}, {"is_reserved": 0, "lat": 38.87631916666667, "rental_uris": {"android": "https://dc.lft.to/lastmile_qr_scan", "ios": "https://dc.lft.to/lastmile_qr_scan"}, "bike_id": "5738344b0204a7fae0930260bd4110f4", "fusion_lon": 0.0, "fusion_lat": 0.0, "is_disabled": 0, "name": "5738344b0204a7fae0930260bd4110f4", "type": "electric_scooter", "lon": -77.00914616666667}, {"is_reserved": 0, "lat": 38.854268166666664, "rental_uris": {"android": "https://dc.lft.to/lastmile_qr_scan", "ios": "https://dc.lft.to/lastmile_qr_scan"}, "bike_id": "2cc2f809d0d2b30d408cc4537c9c2170", "fusion_lon": 0.0, "fusion_lat": 0.0, "is_disabled": 0, "name": "2cc2f809d0d2b30d408cc4537c9c2170", "type": "electric_bike", "lon": -76.90970416666667}, {"is_reserved": 0, "lat": 38.93046283333334, "rental_uris": {"android": "https://dc.lft.to/lastmile_qr_scan", "ios": "https://dc.lft.to/lastmile_qr_scan"}, "bike_id": "f90a02517799ca2383656aeb4f7d36e7", "fusion_lon": 0.0, "fusion_lat": 0.0, "is_disabled": 0, "name": "f90a02517799ca2383656aeb4f7d36e7", "type": "electric_bike", "lon": -77.0320945}, {"is_reserved": 0, "lat": 38.876251, "rental_uris": {"android": "https://dc.lft.to/lastmile_qr_scan", "ios": "https://dc.lft.to/lastmile_qr_scan"}, "bike_id": "b24ade9ab8593ba4d003a4c683f83687", "fusion_lon": 0.0, "fusion_lat": 0.0, "is_disabled": 0, "name": "b24ade9ab8593ba4d003a4c683f83687", "type": "electric_scooter", "lon": -76.96528466666666}, {"is_reserved": 0, "lat": 38.9000135, "rental_uris": {"android": "https://dc.lft.to/lastmile_qr_scan", "ios": "https://dc.lft.to/lastmile_qr_scan"}, "bike_id": "30328da90daa48cb8de814929b1d7e6a", "fusion_lon": 0.0, "fusion_lat": 0.0, "is_disabled": 0, "name": "30328da90daa48cb8de814929b1d7e6a", "type": "electric_scooter", "lon": -76.99853116666667}, {"is_reserved": 0, "lat": 38.923631, "rental_uris": {"android": "https://dc.lft.to/lastmile_qr_scan", "ios": "https://dc.lft.to/lastmile_qr_scan"}, "bike_id": "ccd75fcd2eb2f446de5f152b74ba8ed7", "fusion_lon": 0.0, "fusion_lat": 0.0, "is_disabled": 0, "name": "ccd75fcd2eb2f446de5f152b74ba8ed7", "type": "electric_scooter", "lon": -77.05121466666667}, {"is_reserved": 0, "lat": 38.881331833333334, "rental_uris": {"android": "https://dc.lft.to/lastmile_qr_scan", "ios": "https://dc.lft.to/lastmile_qr_scan"}, "bike_id": "7a21be7f235147fd4ef127986623c09e", "fusion_lon": 0.0, "fusion_lat": 0.0, "is_disabled": 0, "name": "7a21be7f235147fd4ef127986623c09e", "type": "electric_scooter", "lon": -76.99505983333333}, {"is_reserved": 0, "lat": 38.912620833333335, "rental_uris": {"android": "https://dc.lft.to/lastmile_qr_scan", "ios": "https://dc.lft.to/lastmile_qr_scan"}, "bike_id": "9970f52ecdb79bedefd05934c68af709", "fusion_lon": 0.0, "fusion_lat": 0.0, "is_disabled": 0, "name": "9970f52ecdb79bedefd05934c68af709", "type": "electric_scooter", "lon": -77.04401716666666}, {"is_reserved": 0, "lat": 38.86885133333333, "rental_uris": {"android": "https://dc.lft.to/lastmile_qr_scan", "ios": "https://dc.lft.to/lastmile_qr_scan"}, "bike_id": "c61832a304d4711eaf0643a1e0221ad4", "fusion_lon": 0.0, "fusion_lat": 0.0, "is_disabled": 0, "name": "c61832a304d4711eaf0643a1e0221ad4", "type": "electric_scooter", "lon": -76.983113}, {"is_reserved": 0, "lat": 38.902067833333334, "rental_uris": {"android": "https://dc.lft.to/lastmile_qr_scan", "ios": "https://dc.lft.to/lastmile_qr_scan"}, "bike_id": "b81cc991e24faf46fd377063b96fe674", "fusion_lon": 0.0, "fusion_lat": 0.0, "is_disabled": 0, "name": "b81cc991e24faf46fd377063b96fe674", "type": "electric_scooter", "lon": -76.99271816666666}, {"is_reserved": 0, "lat": 38.895127333333335, "rental_uris": {"android": "https://dc.lft.to/lastmile_qr_scan", "ios": "https://dc.lft.to/lastmile_qr_scan"}, "bike_id": "a3e9ccc2d240d06dca1a37a3e81f280e", "fusion_lon": 0.0, "fusion_lat": 0.0, "is_disabled": 0, "name": "a3e9ccc2d240d06dca1a37a3e81f280e", "type": "electric_scooter", "lon": -76.99213133333333}, {"is_reserved": 0, "lat": 38.917404, "rental_uris": {"android": "https://dc.lft.to/lastmile_qr_scan", "ios": "https://dc.lft.to/lastmile_qr_scan"}, "bike_id": "ba77e408768246e238a81195daa55404", "fusion_lon": 0.0, "fusion_lat": 0.0, "is_disabled": 0, "name": "ba77e408768246e238a81195daa55404", "type": "electric_scooter", "lon": -77.03194166666667}, {"is_reserved": 0, "lat": 38.905703833333334, "rental_uris": {"android": "https://dc.lft.to/lastmile_qr_scan", "ios": "https://dc.lft.to/lastmile_qr_scan"}, "bike_id": "a200695f419ab5b2bfa6842c0457edf7", "fusion_lon": 0.0, "fusion_lat": 0.0, "is_disabled": 0, "name": "a200695f419ab5b2bfa6842c0457edf7", "type": "electric_scooter", "lon": -77.00899333333334}, {"is_reserved": 0, "lat": 38.8989535, "rental_uris": {"android": "https://dc.lft.to/lastmile_qr_scan", "ios": "https://dc.lft.to/lastmile_qr_scan"}, "bike_id": "6d467bd70ae72ac8d3de6ab924352f99", "fusion_lon": 0.0, "fusion_lat": 0.0, "is_disabled": 0, "name": "6d467bd70ae72ac8d3de6ab924352f99", "type": "electric_scooter", "lon": -76.9972475}, {"is_reserved": 0, "lat": 38.909760666666664, "rental_uris": {"android": "https://dc.lft.to/lastmile_qr_scan", "ios": "https://dc.lft.to/lastmile_qr_scan"}, "bike_id": "f60882eedc5b1b3a869a16aa93f0eb78", "fusion_lon": 0.0, "fusion_lat": 0.0, "is_disabled": 0, "name": "f60882eedc5b1b3a869a16aa93f0eb78", "type": "electric_scooter", "lon": -77.02179583333333}, {"is_reserved": 0, "lat": 38.919529, "rental_uris": {"android": "https://dc.lft.to/lastmile_qr_scan", "ios": "https://dc.lft.to/lastmile_qr_scan"}, "bike_id": "672fc49163b301eff2a290087bce52ca", "fusion_lon": 0.0, "fusion_lat": 0.0, "is_disabled": 0, "name": "672fc49163b301eff2a290087bce52ca", "type": "electric_scooter", "lon": -77.07984666666667}, {"is_reserved": 0, "lat": 38.917669333333336, "rental_uris": {"android": "https://dc.lft.to/lastmile_qr_scan", "ios": "https://dc.lft.to/lastmile_qr_scan"}, "bike_id": "f10a2574d6bbd8b245abd62478ce9235", "fusion_lon": 0.0, "fusion_lat": 0.0, "is_disabled": 0, "name": "f10a2574d6bbd8b245abd62478ce9235", "type": "electric_bike", "lon": -77.0107605}, {"is_reserved": 0, "lat": 38.898839833333334, "rental_uris": {"android": "https://dc.lft.to/lastmile_qr_scan", "ios": "https://dc.lft.to/lastmile_qr_scan"}, "bike_id": "c7cd191514117f48e259a38a651e799d", "fusion_lon": 0.0, "fusion_lat": 0.0, "is_disabled": 0, "name": "c7cd191514117f48e259a38a651e799d", "type": "electric_scooter", "lon": -76.931732}, {"is_reserved": 0, "lat": 38.920387833333336, "rental_uris": {"android": "https://dc.lft.to/lastmile_qr_scan", "ios": "https://dc.lft.to/lastmile_qr_scan"}, "bike_id": "e15595812b21ed9073052380592f7d46", "fusion_lon": 0.0, "fusion_lat": 0.0, "is_disabled": 0, "name": "e15595812b21ed9073052380592f7d46", "type": "electric_scooter", "lon": -77.0298675}, {"is_reserved": 0, "lat": 38.95614666666667, "rental_uris": {"android": "https://dc.lft.to/lastmile_qr_scan", "ios": "https://dc.lft.to/lastmile_qr_scan"}, "bike_id": "cf2533cc5074b816874b5b5a0afb313a", "fusion_lon": 0.0, "fusion_lat": 0.0, "is_disabled": 0, "name": "cf2533cc5074b816874b5b5a0afb313a", "type": "electric_scooter", "lon": -77.02760066666667}, {"is_reserved": 0, "lat": 38.907694, "rental_uris": {"android": "https://dc.lft.to/lastmile_qr_scan", "ios": "https://dc.lft.to/lastmile_qr_scan"}, "bike_id": "80b4aa762484f287b934c771d371c98d", "fusion_lon": 0.0, "fusion_lat": 0.0, "is_disabled": 0, "name": "80b4aa762484f287b934c771d371c98d", "type": "electric_scooter", "lon": -76.99991816666666}, {"is_reserved": 0, "lat": 38.89921366666667, "rental_uris": {"android": "https://dc.lft.to/lastmile_qr_scan", "ios": "https://dc.lft.to/lastmile_qr_scan"}, "bike_id": "c551ab0387046a7a831c9947ddeeb612", "fusion_lon": 0.0, "fusion_lat": 0.0, "is_disabled": 0, "name": "c551ab0387046a7a831c9947ddeeb612", "type": "electric_scooter", "lon": -77.02812733333333}, {"is_reserved": 0, "lat": 38.899802666666666, "rental_uris": {"android": "https://dc.lft.to/lastmile_qr_scan", "ios": "https://dc.lft.to/lastmile_qr_scan"}, "bike_id": "00bd8a889746a28af841ef560bd38a3b", "fusion_lon": 0.0, "fusion_lat": 0.0, "is_disabled": 0, "name": "00bd8a889746a28af841ef560bd38a3b", "type": "electric_scooter", "lon": -76.93988483333334}, {"is_reserved": 0, "lat": 38.910053833333336, "rental_uris": {"android": "https://dc.lft.to/lastmile_qr_scan", "ios": "https://dc.lft.to/lastmile_qr_scan"}, "bike_id": "7a0f00d82c7ca531138c13487fab1cf7", "fusion_lon": 0.0, "fusion_lat": 0.0, "is_disabled": 0, "name": "7a0f00d82c7ca531138c13487fab1cf7", "type": "electric_scooter", "lon": -77.04429633333334}, {"is_reserved": 0, "lat": 38.92852716666667, "rental_uris": {"android": "https://dc.lft.to/lastmile_qr_scan", "ios": "https://dc.lft.to/lastmile_qr_scan"}, "bike_id": "3a9f74684bc2be4a3ac9822e6d24d278", "fusion_lon": 0.0, "fusion_lat": 0.0, "is_disabled": 0, "name": "3a9f74684bc2be4a3ac9822e6d24d278", "type": "electric_bike", "lon": -77.22213166666667}, {"is_reserved": 0, "lat": 38.87231833333333, "rental_uris": {"android": "https://dc.lft.to/lastmile_qr_scan", "ios": "https://dc.lft.to/lastmile_qr_scan"}, "bike_id": "61a737662c7ddd3de1ce8baf6dfe2b7b", "fusion_lon": 0.0, "fusion_lat": 0.0, "is_disabled": 0, "name": "61a737662c7ddd3de1ce8baf6dfe2b7b", "type": "electric_bike", "lon": -77.0117135}, {"is_reserved": 0, "lat": 38.892768333333336, "rental_uris": {"android": "https://dc.lft.to/lastmile_qr_scan", "ios": "https://dc.lft.to/lastmile_qr_scan"}, "bike_id": "449c29f498511056c559ec8051f11417", "fusion_lon": 0.0, "fusion_lat": 0.0, "is_disabled": 0, "name": "449c29f498511056c559ec8051f11417", "type": "electric_scooter", "lon": -77.05039783333334}, {"is_reserved": 0, "lat": 38.906799, "rental_uris": {"android": "https://dc.lft.to/lastmile_qr_scan", "ios": "https://dc.lft.to/lastmile_qr_scan"}, "bike_id": "de4024c5091cdf10b465af1f2c8a7201", "fusion_lon": 0.0, "fusion_lat": 0.0, "is_disabled": 0, "name": "de4024c5091cdf10b465af1f2c8a7201", "type": "electric_scooter", "lon": -77.0269455}, {"is_reserved": 0, "lat": 39.08853583333333, "rental_uris": {"android": "https://dc.lft.to/lastmile_qr_scan", "ios": "https://dc.lft.to/lastmile_qr_scan"}, "bike_id": "7f28feb272f8d370ce98c5fd348fa9be", "fusion_lon": 0.0, "fusion_lat": 0.0, "is_disabled": 0, "name": "7f28feb272f8d370ce98c5fd348fa9be", "type": "electric_bike", "lon": -77.17840166666667}, {"is_reserved": 0, "lat": 38.87915983333333, "rental_uris": {"android": "https://dc.lft.to/lastmile_qr_scan", "ios": "https://dc.lft.to/lastmile_qr_scan"}, "bike_id": "7a7cc74f9474f91bcca7c9e1b8f9c4ed", "fusion_lon": 0.0, "fusion_lat": 0.0, "is_disabled": 0, "name": "7a7cc74f9474f91bcca7c9e1b8f9c4ed", "type": "electric_scooter", "lon": -77.03089433333334}, {"is_reserved": 0, "lat": 38.9708555, "rental_uris": {"android": "https://dc.lft.to/lastmile_qr_scan", "ios": "https://dc.lft.to/lastmile_qr_scan"}, "bike_id": "c63a1e1c8e2019ed48e400550af6689e", "fusion_lon": 0.0, "fusion_lat": 0.0, "is_disabled": 0, "name": "c63a1e1c8e2019ed48e400550af6689e", "type": "electric_bike", "lon": -77.06967883333333}, {"is_reserved": 0, "lat": 38.84108033333333, "rental_uris": {"android": "https://dc.lft.to/lastmile_qr_scan", "ios": "https://dc.lft.to/lastmile_qr_scan"}, "bike_id": "36e5db27d87cda71c3a0dbd4377f6ef0", "fusion_lon": 0.0, "fusion_lat": 0.0, "is_disabled": 0, "name": "36e5db27d87cda71c3a0dbd4377f6ef0", "type": "electric_bike", "lon": -77.08946316666666}, {"is_reserved": 0, "lat": 38.9171145, "rental_uris": {"android": "https://dc.lft.to/lastmile_qr_scan", "ios": "https://dc.lft.to/lastmile_qr_scan"}, "bike_id": "9abc298d371bbc4b9a32df334ff1c1bf", "fusion_lon": 0.0, "fusion_lat": 0.0, "is_disabled": 0, "name": "9abc298d371bbc4b9a32df334ff1c1bf", "type": "electric_scooter", "lon": -77.026643}, {"is_reserved": 0, "lat": 38.92479566666667, "rental_uris": {"android": "https://dc.lft.to/lastmile_qr_scan", "ios": "https://dc.lft.to/lastmile_qr_scan"}, "bike_id": "8d261f123bc498afcf6486b929c28ac9", "fusion_lon": 0.0, "fusion_lat": 0.0, "is_disabled": 0, "name": "8d261f123bc498afcf6486b929c28ac9", "type": "electric_scooter", "lon": -77.0271805}, {"is_reserved": 0, "lat": 38.905840833333336, "rental_uris": {"android": "https://dc.lft.to/lastmile_qr_scan", "ios": "https://dc.lft.to/lastmile_qr_scan"}, "bike_id": "8bfb95b78d5d328308e9be296d24a95e", "fusion_lon": 0.0, "fusion_lat": 0.0, "is_disabled": 0, "name": "8bfb95b78d5d328308e9be296d24a95e", "type": "electric_scooter", "lon": -77.04185783333334}, {"is_reserved": 0, "lat": 38.90557883333334, "rental_uris": {"android": "https://dc.lft.to/lastmile_qr_scan", "ios": "https://dc.lft.to/lastmile_qr_scan"}, "bike_id": "294a10399c1c32d949e5b764e16c128f", "fusion_lon": 0.0, "fusion_lat": 0.0, "is_disabled": 0, "name": "294a10399c1c32d949e5b764e16c128f", "type": "electric_scooter", "lon": -77.02615883333333}, {"is_reserved": 0, "lat": 38.90673783333333, "rental_uris": {"android": "https://dc.lft.to/lastmile_qr_scan", "ios": "https://dc.lft.to/lastmile_qr_scan"}, "bike_id": "a1f7ae1120f2ff7267d65eb29113906a", "fusion_lon": 0.0, "fusion_lat": 0.0, "is_disabled": 0, "name": "a1f7ae1120f2ff7267d65eb29113906a", "type": "electric_scooter", "lon": -77.02696433333334}, {"is_reserved": 0, "lat": 38.918227333333334, "rental_uris": {"android": "https://dc.lft.to/lastmile_qr_scan", "ios": "https://dc.lft.to/lastmile_qr_scan"}, "bike_id": "27ce2da1acf60bf0aef054bdbdb9cc1a", "fusion_lon": 0.0, "fusion_lat": 0.0, "is_disabled": 0, "name": "27ce2da1acf60bf0aef054bdbdb9cc1a", "type": "electric_scooter", "lon": -77.02709833333333}, {"is_reserved": 0, "lat": 38.898747, "rental_uris": {"android": "https://dc.lft.to/lastmile_qr_scan", "ios": "https://dc.lft.to/lastmile_qr_scan"}, "bike_id": "32f8337a78239e89163399440b0ac004", "fusion_lon": 0.0, "fusion_lat": 0.0, "is_disabled": 0, "name": "32f8337a78239e89163399440b0ac004", "type": "electric_scooter", "lon": -76.93187016666667}, {"is_reserved": 0, "lat": 38.907203333333335, "rental_uris": {"android": "https://dc.lft.to/lastmile_qr_scan", "ios": "https://dc.lft.to/lastmile_qr_scan"}, "bike_id": "6b09ba2d5b55caa25d7165ace95bc711", "fusion_lon": 0.0, "fusion_lat": 0.0, "is_disabled": 0, "name": "6b09ba2d5b55caa25d7165ace95bc711", "type": "electric_scooter", "lon": -77.01681816666667}, {"is_reserved": 0, "lat": 38.888182, "rental_uris": {"android": "https://dc.lft.to/lastmile_qr_scan", "ios": "https://dc.lft.to/lastmile_qr_scan"}, "bike_id": "f232c94a9ad7b4f4b8d49038e1c5cfeb", "fusion_lon": 0.0, "fusion_lat": 0.0, "is_disabled": 0, "name": "f232c94a9ad7b4f4b8d49038e1c5cfeb", "type": "electric_scooter", "lon": -77.01483}, {"is_reserved": 0, "lat": 38.905706333333335, "rental_uris": {"android": "https://dc.lft.to/lastmile_qr_scan", "ios": "https://dc.lft.to/lastmile_qr_scan"}, "bike_id": "8bdcc02d884b89e32b79bba384cc68c9", "fusion_lon": 0.0, "fusion_lat": 0.0, "is_disabled": 0, "name": "8bdcc02d884b89e32b79bba384cc68c9", "type": "electric_scooter", "lon": -77.00599133333333}, {"is_reserved": 0, "lat": 38.917100166666664, "rental_uris": {"android": "https://dc.lft.to/lastmile_qr_scan", "ios": "https://dc.lft.to/lastmile_qr_scan"}, "bike_id": "4e4dea3f348d575f0c3e6d0a52d1c0d5", "fusion_lon": 0.0, "fusion_lat": 0.0, "is_disabled": 0, "name": "4e4dea3f348d575f0c3e6d0a52d1c0d5", "type": "electric_scooter", "lon": -77.03347766666667}, {"is_reserved": 0, "lat": 38.913943833333335, "rental_uris": {"android": "https://dc.lft.to/lastmile_qr_scan", "ios": "https://dc.lft.to/lastmile_qr_scan"}, "bike_id": "21d359ace69be0bf9b4f39e8eed1424a", "fusion_lon": 0.0, "fusion_lat": 0.0, "is_disabled": 0, "name": "21d359ace69be0bf9b4f39e8eed1424a", "type": "electric_bike", "lon": -77.0380895}, {"is_reserved": 0, "lat": 38.924737666666665, "rental_uris": {"android": "https://dc.lft.to/lastmile_qr_scan", "ios": "https://dc.lft.to/lastmile_qr_scan"}, "bike_id": "d6dfce6aabf968bc9d76cdd544a3292a", "fusion_lon": 0.0, "fusion_lat": 0.0, "is_disabled": 0, "name": "d6dfce6aabf968bc9d76cdd544a3292a", "type": "electric_scooter", "lon": -77.0029995}, {"is_reserved": 0, "lat": 38.9052315, "rental_uris": {"android": "https://dc.lft.to/lastmile_qr_scan", "ios": "https://dc.lft.to/lastmile_qr_scan"}, "bike_id": "32c95930bd96bb0220f36972d65e8b09", "fusion_lon": 0.0, "fusion_lat": 0.0, "is_disabled": 0, "name": "32c95930bd96bb0220f36972d65e8b09", "type": "electric_scooter", "lon": -77.06450016666666}, {"is_reserved": 0, "lat": 38.87998866666667, "rental_uris": {"android": "https://dc.lft.to/lastmile_qr_scan", "ios": "https://dc.lft.to/lastmile_qr_scan"}, "bike_id": "81ae00839beccc09b2e3e26b6a191d45", "fusion_lon": 0.0, "fusion_lat": 0.0, "is_disabled": 0, "name": "81ae00839beccc09b2e3e26b6a191d45", "type": "electric_scooter", "lon": -76.98607933333334}, {"is_reserved": 0, "lat": 38.937062166666664, "rental_uris": {"android": "https://dc.lft.to/lastmile_qr_scan", "ios": "https://dc.lft.to/lastmile_qr_scan"}, "bike_id": "eb8d11c161dd326d8c07466168649c92", "fusion_lon": 0.0, "fusion_lat": 0.0, "is_disabled": 0, "name": "eb8d11c161dd326d8c07466168649c92", "type": "electric_scooter", "lon": -77.0364215}, {"is_reserved": 0, "lat": 38.910784166666666, "rental_uris": {"android": "https://dc.lft.to/lastmile_qr_scan", "ios": "https://dc.lft.to/lastmile_qr_scan"}, "bike_id": "b529e7e6cf866dec9dd1d3daa4ce6494", "fusion_lon": 0.0, "fusion_lat": 0.0, "is_disabled": 0, "name": "b529e7e6cf866dec9dd1d3daa4ce6494", "type": "electric_scooter", "lon": -77.02097666666667}, {"is_reserved": 0, "lat": 38.89388666666667, "rental_uris": {"android": "https://dc.lft.to/lastmile_qr_scan", "ios": "https://dc.lft.to/lastmile_qr_scan"}, "bike_id": "cd86c32ac8abbe032399364ab3cb5f56", "fusion_lon": 0.0, "fusion_lat": 0.0, "is_disabled": 0, "name": "cd86c32ac8abbe032399364ab3cb5f56", "type": "electric_scooter", "lon": -76.94992433333333}, {"is_reserved": 0, "lat": 38.89726316666667, "rental_uris": {"android": "https://dc.lft.to/lastmile_qr_scan", "ios": "https://dc.lft.to/lastmile_qr_scan"}, "bike_id": "ea87a424b623564e284de7c0a28a3601", "fusion_lon": 0.0, "fusion_lat": 0.0, "is_disabled": 0, "name": "ea87a424b623564e284de7c0a28a3601", "type": "electric_scooter", "lon": -77.0032725}, {"is_reserved": 0, "lat": 38.930565, "rental_uris": {"android": "https://dc.lft.to/lastmile_qr_scan", "ios": "https://dc.lft.to/lastmile_qr_scan"}, "bike_id": "7e6e85aa2d7753358a3aae5172858892", "fusion_lon": 0.0, "fusion_lat": 0.0, "is_disabled": 0, "name": "7e6e85aa2d7753358a3aae5172858892", "type": "electric_scooter", "lon": -77.02350483333333}, {"is_reserved": 0, "lat": 38.917299, "rental_uris": {"android": "https://dc.lft.to/lastmile_qr_scan", "ios": "https://dc.lft.to/lastmile_qr_scan"}, "bike_id": "390191e6b4439295d8bca42f99caf29d", "fusion_lon": 0.0, "fusion_lat": 0.0, "is_disabled": 0, "name": "390191e6b4439295d8bca42f99caf29d", "type": "electric_scooter", "lon": -77.0417135}, {"is_reserved": 0, "lat": 38.898675, "rental_uris": {"android": "https://dc.lft.to/lastmile_qr_scan", "ios": "https://dc.lft.to/lastmile_qr_scan"}, "bike_id": "4efb5c73a3acb6ddf692a6c3aa8763bf", "fusion_lon": 0.0, "fusion_lat": 0.0, "is_disabled": 0, "name": "4efb5c73a3acb6ddf692a6c3aa8763bf", "type": "electric_scooter", "lon": -77.02186566666667}, {"is_reserved": 0, "lat": 38.899638333333336, "rental_uris": {"android": "https://dc.lft.to/lastmile_qr_scan", "ios": "https://dc.lft.to/lastmile_qr_scan"}, "bike_id": "a3bca7f57f9548c466f191ee1e06ae74", "fusion_lon": 0.0, "fusion_lat": 0.0, "is_disabled": 0, "name": "a3bca7f57f9548c466f191ee1e06ae74", "type": "electric_scooter", "lon": -77.01888016666666}, {"is_reserved": 0, "lat": 38.9249295, "rental_uris": {"android": "https://dc.lft.to/lastmile_qr_scan", "ios": "https://dc.lft.to/lastmile_qr_scan"}, "bike_id": "69bc52137e8d1481802b68783f6f07fa", "fusion_lon": 0.0, "fusion_lat": 0.0, "is_disabled": 0, "name": "69bc52137e8d1481802b68783f6f07fa", "type": "electric_scooter", "lon": -77.0523385}, {"is_reserved": 0, "lat": 38.948230833333334, "rental_uris": {"android": "https://dc.lft.to/lastmile_qr_scan", "ios": "https://dc.lft.to/lastmile_qr_scan"}, "bike_id": "4d4b22944a61f9cfb224051c4cb0e85d", "fusion_lon": 0.0, "fusion_lat": 0.0, "is_disabled": 0, "name": "4d4b22944a61f9cfb224051c4cb0e85d", "type": "electric_scooter", "lon": -76.99903466666666}, {"is_reserved": 0, "lat": 38.917442666666666, "rental_uris": {"android": "https://dc.lft.to/lastmile_qr_scan", "ios": "https://dc.lft.to/lastmile_qr_scan"}, "bike_id": "8c4c036e6bc35d4cfeb4eefb84528ab7", "fusion_lon": 0.0, "fusion_lat": 0.0, "is_disabled": 0, "name": "8c4c036e6bc35d4cfeb4eefb84528ab7", "type": "electric_scooter", "lon": -77.03190883333333}, {"is_reserved": 0, "lat": 38.944607166666664, "rental_uris": {"android": "https://dc.lft.to/lastmile_qr_scan", "ios": "https://dc.lft.to/lastmile_qr_scan"}, "bike_id": "2dde7c99ca6c37191997cc066febeec3", "fusion_lon": 0.0, "fusion_lat": 0.0, "is_disabled": 0, "name": "2dde7c99ca6c37191997cc066febeec3", "type": "electric_scooter", "lon": -77.0602965}, {"is_reserved": 0, "lat": 38.919925666666664, "rental_uris": {"android": "https://dc.lft.to/lastmile_qr_scan", "ios": "https://dc.lft.to/lastmile_qr_scan"}, "bike_id": "1e6b1a678ef17d01fa194c57459afe7a", "fusion_lon": 0.0, "fusion_lat": 0.0, "is_disabled": 0, "name": "1e6b1a678ef17d01fa194c57459afe7a", "type": "electric_scooter", "lon": -77.03238033333334}, {"is_reserved": 0, "lat": 38.9022765, "rental_uris": {"android": "https://dc.lft.to/lastmile_qr_scan", "ios": "https://dc.lft.to/lastmile_qr_scan"}, "bike_id": "d7a697f8963f6b14d7770c66aab18b5b", "fusion_lon": 0.0, "fusion_lat": 0.0, "is_disabled": 0, "name": "d7a697f8963f6b14d7770c66aab18b5b", "type": "electric_scooter", "lon": -77.060605}, {"is_reserved": 0, "lat": 38.8968255, "rental_uris": {"android": "https://dc.lft.to/lastmile_qr_scan", "ios": "https://dc.lft.to/lastmile_qr_scan"}, "bike_id": "6d7a3896c1c08ca0834b18e03697aae1", "fusion_lon": 0.0, "fusion_lat": 0.0, "is_disabled": 0, "name": "6d7a3896c1c08ca0834b18e03697aae1", "type": "electric_scooter", "lon": -76.93607366666667}, {"is_reserved": 0, "lat": 38.88450866666667, "rental_uris": {"android": "https://dc.lft.to/lastmile_qr_scan", "ios": "https://dc.lft.to/lastmile_qr_scan"}, "bike_id": "8ad379ee069bd4b22260e6e91a821a60", "fusion_lon": 0.0, "fusion_lat": 0.0, "is_disabled": 0, "name": "8ad379ee069bd4b22260e6e91a821a60", "type": "electric_scooter", "lon": -76.95094483333334}, {"is_reserved": 0, "lat": 38.90208483333333, "rental_uris": {"android": "https://dc.lft.to/lastmile_qr_scan", "ios": "https://dc.lft.to/lastmile_qr_scan"}, "bike_id": "6a7ab8b2cee9e824d36965527d93fe20", "fusion_lon": 0.0, "fusion_lat": 0.0, "is_disabled": 0, "name": "6a7ab8b2cee9e824d36965527d93fe20", "type": "electric_scooter", "lon": -77.033533}, {"is_reserved": 0, "lat": 38.9059115, "rental_uris": {"android": "https://dc.lft.to/lastmile_qr_scan", "ios": "https://dc.lft.to/lastmile_qr_scan"}, "bike_id": "c73e276f923dbc2784fdbb7cae525592", "fusion_lon": 0.0, "fusion_lat": 0.0, "is_disabled": 0, "name": "c73e276f923dbc2784fdbb7cae525592", "type": "electric_scooter", "lon": -77.041893}, {"is_reserved": 0, "lat": 38.9014615, "rental_uris": {"android": "https://dc.lft.to/lastmile_qr_scan", "ios": "https://dc.lft.to/lastmile_qr_scan"}, "bike_id": "aad4941e32942018dac9185dc9a0f7e0", "fusion_lon": 0.0, "fusion_lat": 0.0, "is_disabled": 0, "name": "aad4941e32942018dac9185dc9a0f7e0", "type": "electric_scooter", "lon": -77.02709766666666}, {"is_reserved": 0, "lat": 38.885731166666666, "rental_uris": {"android": "https://dc.lft.to/lastmile_qr_scan", "ios": "https://dc.lft.to/lastmile_qr_scan"}, "bike_id": "5a2d6fd538d808e4e175ec3cb6ffab0d", "fusion_lon": 0.0, "fusion_lat": 0.0, "is_disabled": 0, "name": "5a2d6fd538d808e4e175ec3cb6ffab0d", "type": "electric_bike", "lon": -77.08520133333333}, {"is_reserved": 0, "lat": 38.91656533333333, "rental_uris": {"android": "https://dc.lft.to/lastmile_qr_scan", "ios": "https://dc.lft.to/lastmile_qr_scan"}, "bike_id": "1c6faedeff6dd4cb173e85a32c641743", "fusion_lon": 0.0, "fusion_lat": 0.0, "is_disabled": 0, "name": "1c6faedeff6dd4cb173e85a32c641743", "type": "electric_scooter", "lon": -77.02268866666667}, {"is_reserved": 0, "lat": 38.898521833333334, "rental_uris": {"android": "https://dc.lft.to/lastmile_qr_scan", "ios": "https://dc.lft.to/lastmile_qr_scan"}, "bike_id": "f5af04aecdef8f1b769110633ea7f731", "fusion_lon": 0.0, "fusion_lat": 0.0, "is_disabled": 0, "name": "f5af04aecdef8f1b769110633ea7f731", "type": "electric_scooter", "lon": -77.019921}, {"is_reserved": 0, "lat": 38.88162916666667, "rental_uris": {"android": "https://dc.lft.to/lastmile_qr_scan", "ios": "https://dc.lft.to/lastmile_qr_scan"}, "bike_id": "95a2de0fe1fcf5658e6a8bde531a3d84", "fusion_lon": 0.0, "fusion_lat": 0.0, "is_disabled": 0, "name": "95a2de0fe1fcf5658e6a8bde531a3d84", "type": "electric_scooter", "lon": -77.02767016666667}, {"is_reserved": 0, "lat": 38.928966833333334, "rental_uris": {"android": "https://dc.lft.to/lastmile_qr_scan", "ios": "https://dc.lft.to/lastmile_qr_scan"}, "bike_id": "a9ccd53bddc941eda8690b877ead81af", "fusion_lon": 0.0, "fusion_lat": 0.0, "is_disabled": 0, "name": "a9ccd53bddc941eda8690b877ead81af", "type": "electric_scooter", "lon": -77.0163865}, {"is_reserved": 0, "lat": 38.9077885, "rental_uris": {"android": "https://dc.lft.to/lastmile_qr_scan", "ios": "https://dc.lft.to/lastmile_qr_scan"}, "bike_id": "482683db0b4231e56f3b2f7a2a0b3da9", "fusion_lon": 0.0, "fusion_lat": 0.0, "is_disabled": 0, "name": "482683db0b4231e56f3b2f7a2a0b3da9", "type": "electric_scooter", "lon": -77.04002166666666}, {"is_reserved": 0, "lat": 38.93117616666667, "rental_uris": {"android": "https://dc.lft.to/lastmile_qr_scan", "ios": "https://dc.lft.to/lastmile_qr_scan"}, "bike_id": "c6a8adecf31957747472549d1905b551", "fusion_lon": 0.0, "fusion_lat": 0.0, "is_disabled": 0, "name": "c6a8adecf31957747472549d1905b551", "type": "electric_scooter", "lon": -77.03405583333333}, {"is_reserved": 0, "lat": 38.909950333333335, "rental_uris": {"android": "https://dc.lft.to/lastmile_qr_scan", "ios": "https://dc.lft.to/lastmile_qr_scan"},