{"data": {"bikes": [{"is_disabled": 0, "fusion_lat": 0.0, "lat": 38.92801033333333, "type": "electric_scooter", "lon": -77.0272135, "is_reserved": 0, "fusion_lon": 0.0, "bike_id": "08daedbf91a8c0aadfec3248791873f4", "name": "08daedbf91a8c0aadfec3248791873f4", "rental_uris": {"ios": "https://dc.lft.to/lastmile_qr_scan", "android": "https://dc.lft.to/lastmile_qr_scan"}}, {"is_disabled": 0, "fusion_lat": 0.0, "lat": 38.9284105, "type": "electric_scooter", "lon": -77.05508283333333, "is_reserved": 0, "fusion_lon": 0.0, "bike_id": "a2a484c624107cc3dc5f436c9f4a55ae", "name": "a2a484c624107cc3dc5f436c9f4a55ae", "rental_uris": {"ios": "https://dc.lft.to/lastmile_qr_scan", "android": "https://dc.lft.to/lastmile_qr_scan"}}, {"is_disabled": 0, "fusion_lat": 0.0, "lat": 38.918718, "type": "electric_scooter", "lon": -77.03563233333334, "is_reserved": 0, "fusion_lon": 0.0, "bike_id": "eab7321e055c1477eaf37d32645e84c9", "name": "eab7321e055c1477eaf37d32645e84c9", "rental_uris": {"ios": "https://dc.lft.to/lastmile_qr_scan", "android": "https://dc.lft.to/lastmile_qr_scan"}}, {"is_disabled": 0, "fusion_lat": 0.0, "lat": 38.885795, "type": "electric_scooter", "lon": -77.01542, "is_reserved": 0, "fusion_lon": 0.0, "bike_id": "0ba84fe1964da813ede77421c9e361ea", "name": "0ba84fe1964da813ede77421c9e361ea", "rental_uris": {"ios": "https://dc.lft.to/lastmile_qr_scan", "android": "https://dc.lft.to/lastmile_qr_scan"}}, {"is_disabled": 0, "fusion_lat": 0.0, "lat": 38.91699366666667, "type": "electric_scooter", "lon": -77.031042, "is_reserved": 0, "fusion_lon": 0.0, "bike_id": "0920fbd1d3f18254f2c83222c26fb116", "name": "0920fbd1d3f18254f2c83222c26fb116", "rental_uris": {"ios": "https://dc.lft.to/lastmile_qr_scan", "android": "https://dc.lft.to/lastmile_qr_scan"}}, {"is_disabled": 0, "fusion_lat": 0.0, "lat": 38.900021, "type": "electric_scooter", "lon": -77.03369183333334, "is_reserved": 0, "fusion_lon": 0.0, "bike_id": "da0407f66f81cd94e71577f3168092f8", "name": "da0407f66f81cd94e71577f3168092f8", "rental_uris": {"ios": "https://dc.lft.to/lastmile_qr_scan", "android": "https://dc.lft.to/lastmile_qr_scan"}}, {"is_disabled": 0, "fusion_lat": 0.0, "lat": 38.909835666666666, "type": "electric_scooter", "lon": -77.03181366666666, "is_reserved": 0, "fusion_lon": 0.0, "bike_id": "7b06bd88145bc6ee217836fc878b8d15", "name": "7b06bd88145bc6ee217836fc878b8d15", "rental_uris": {"ios": "https://dc.lft.to/lastmile_qr_scan", "android": "https://dc.lft.to/lastmile_qr_scan"}}, {"is_disabled": 0, "fusion_lat": 0.0, "lat": 38.884487, "type": "electric_scooter", "lon": -77.02568516666666, "is_reserved": 0, "fusion_lon": 0.0, "bike_id": "ebdedb199d5dd75d4439c9d01019573d", "name": "ebdedb199d5dd75d4439c9d01019573d", "rental_uris": {"ios": "https://dc.lft.to/lastmile_qr_scan", "android": "https://dc.lft.to/lastmile_qr_scan"}}, {"is_disabled": 0, "fusion_lat": 0.0, "lat": 38.921762333333334, "type": "electric_scooter", "lon": -77.04223433333334, "is_reserved": 0, "fusion_lon": 0.0, "bike_id": "c297bd9b51e897912040ab0505ae98d6", "name": "c297bd9b51e897912040ab0505ae98d6", "rental_uris": {"ios": "https://dc.lft.to/lastmile_qr_scan", "android": "https://dc.lft.to/lastmile_qr_scan"}}, {"is_disabled": 0, "fusion_lat": 0.0, "lat": 38.92485166666667, "type": "electric_scooter", "lon": -77.02839633333333, "is_reserved": 0, "fusion_lon": 0.0, "bike_id": "72819c502689f9cfa38e075aea3f93a4", "name": "72819c502689f9cfa38e075aea3f93a4", "rental_uris": {"ios": "https://dc.lft.to/lastmile_qr_scan", "android": "https://dc.lft.to/lastmile_qr_scan"}}, {"is_disabled": 0, "fusion_lat": 0.0, "lat": 38.920128166666665, "type": "electric_scooter", "lon": -77.07123233333333, "is_reserved": 0, "fusion_lon": 0.0, "bike_id": "b0c59901f20c3a331c94c8bd3bb36600", "name": "b0c59901f20c3a331c94c8bd3bb36600", "rental_uris": {"ios": "https://dc.lft.to/lastmile_qr_scan", "android": "https://dc.lft.to/lastmile_qr_scan"}}, {"is_disabled": 0, "fusion_lat": 0.0, "lat": 38.925708666666665, "type": "electric_scooter", "lon": -77.03922983333334, "is_reserved": 0, "fusion_lon": 0.0, "bike_id": "7f4e1b375602ef9ed186aa286fd95bf8", "name": "7f4e1b375602ef9ed186aa286fd95bf8", "rental_uris": {"ios": "https://dc.lft.to/lastmile_qr_scan", "android": "https://dc.lft.to/lastmile_qr_scan"}}, {"is_disabled": 0, "fusion_lat": 0.0, "lat": 38.90379933333333, "type": "electric_scooter", "lon": -77.04255066666667, "is_reserved": 0, "fusion_lon": 0.0, "bike_id": "cc4a8fd278e07d195e09e210d1f13fa3", "name": "cc4a8fd278e07d195e09e210d1f13fa3", "rental_uris": {"ios": "https://dc.lft.to/lastmile_qr_scan", "android": "https://dc.lft.to/lastmile_qr_scan"}}, {"is_disabled": 0, "fusion_lat": 0.0, "lat": 38.901089, "type": "electric_scooter", "lon": -77.043145, "is_reserved": 0, "fusion_lon": 0.0, "bike_id": "6a6e3c2c90a326e00eba98fbf92ee7be", "name": "6a6e3c2c90a326e00eba98fbf92ee7be", "rental_uris": {"ios": "https://dc.lft.to/lastmile_qr_scan", "android": "https://dc.lft.to/lastmile_qr_scan"}}, {"is_disabled": 0, "fusion_lat": 0.0, "lat": 38.898336666666665, "type": "electric_scooter", "lon": -77.050293, "is_reserved": 0, "fusion_lon": 0.0, "bike_id": "75f2eadeb3268fc9c419acb347c7298b", "name": "75f2eadeb3268fc9c419acb347c7298b", "rental_uris": {"ios": "https://dc.lft.to/lastmile_qr_scan", "android": "https://dc.lft.to/lastmile_qr_scan"}}, {"is_disabled": 0, "fusion_lat": 0.0, "lat": 38.9022345, "type": "electric_bike", "lon": -76.95053116666666, "is_reserved": 0, "fusion_lon": 0.0, "bike_id": "08ba0d7a76e659e6bf6cfc8eed8bc4d4", "name": "08ba0d7a76e659e6bf6cfc8eed8bc4d4", "rental_uris": {"ios": "https://dc.lft.to/lastmile_qr_scan", "android": "https://dc.lft.to/lastmile_qr_scan"}}, {"is_disabled": 0, "fusion_lat": 0.0, "lat": 38.932464, "type": "electric_scooter", "lon": -77.03277266666667, "is_reserved": 0, "fusion_lon": 0.0, "bike_id": "8a8f8183de985a3dc4c2c14b03baf92e", "name": "8a8f8183de985a3dc4c2c14b03baf92e", "rental_uris": {"ios": "https://dc.lft.to/lastmile_qr_scan", "android": "https://dc.lft.to/lastmile_qr_scan"}}, {"is_disabled": 0, "fusion_lat": 0.0, "lat": 38.922050666666664, "type": "electric_scooter", "lon": -77.04006233333334, "is_reserved": 0, "fusion_lon": 0.0, "bike_id": "246e8ea5b96243aa912ce18609ac6207", "name": "246e8ea5b96243aa912ce18609ac6207", "rental_uris": {"ios": "https://dc.lft.to/lastmile_qr_scan", "android": "https://dc.lft.to/lastmile_qr_scan"}}, {"is_disabled": 0, "fusion_lat": 0.0, "lat": 38.93140183333333, "type": "electric_scooter", "lon": -77.05619433333334, "is_reserved": 0, "fusion_lon": 0.0, "bike_id": "e9987031d1ee1ea4f728a0fc5f75b517", "name": "e9987031d1ee1ea4f728a0fc5f75b517", "rental_uris": {"ios": "https://dc.lft.to/lastmile_qr_scan", "android": "https://dc.lft.to/lastmile_qr_scan"}}, {"is_disabled": 0, "fusion_lat": 0.0, "lat": 38.91141783333333, "type": "electric_bike", "lon": -77.048874, "is_reserved": 0, "fusion_lon": 0.0, "bike_id": "14020931c6a1bb24adbaf69f03bfec69", "name": "14020931c6a1bb24adbaf69f03bfec69", "rental_uris": {"ios": "https://dc.lft.to/lastmile_qr_scan", "android": "https://dc.lft.to/lastmile_qr_scan"}}, {"is_disabled": 0, "fusion_lat": 0.0, "lat": 38.914824833333334, "type": "electric_scooter", "lon": -76.9843235, "is_reserved": 0, "fusion_lon": 0.0, "bike_id": "7312855c0b9695e224d0fa856b8112f3", "name": "7312855c0b9695e224d0fa856b8112f3", "rental_uris": {"ios": "https://dc.lft.to/lastmile_qr_scan", "android": "https://dc.lft.to/lastmile_qr_scan"}}, {"is_disabled": 0, "fusion_lat": 0.0, "lat": 38.921239166666666, "type": "electric_scooter", "lon": -77.04565483333333, "is_reserved": 0, "fusion_lon": 0.0, "bike_id": "797ff0d2c5368de538fc993e4c688973", "name": "797ff0d2c5368de538fc993e4c688973", "rental_uris": {"ios": "https://dc.lft.to/lastmile_qr_scan", "android": "https://dc.lft.to/lastmile_qr_scan"}}, {"is_disabled": 0, "fusion_lat": 0.0, "lat": 38.876303166666666, "type": "electric_scooter", "lon": -76.965285, "is_reserved": 0, "fusion_lon": 0.0, "bike_id": "ca854bb471c112a6c8708578baa94860", "name": "ca854bb471c112a6c8708578baa94860", "rental_uris": {"ios": "https://dc.lft.to/lastmile_qr_scan", "android": "https://dc.lft.to/lastmile_qr_scan"}}, {"is_disabled": 0, "fusion_lat": 0.0, "lat": 38.919635166666666, "type": "electric_scooter", "lon": -77.027065, "is_reserved": 0, "fusion_lon": 0.0, "bike_id": "6f7ab1a8f48822ef923fcd552a5a3b42", "name": "6f7ab1a8f48822ef923fcd552a5a3b42", "rental_uris": {"ios": "https://dc.lft.to/lastmile_qr_scan", "android": "https://dc.lft.to/lastmile_qr_scan"}}, {"is_disabled": 0, "fusion_lat": 0.0, "lat": 38.912703666666665, "type": "electric_scooter", "lon": -77.03384816666667, "is_reserved": 0, "fusion_lon": 0.0, "bike_id": "5808a251fa17d2f167b183fd8ab27f7b", "name": "5808a251fa17d2f167b183fd8ab27f7b", "rental_uris": {"ios": "https://dc.lft.to/lastmile_qr_scan", "android": "https://dc.lft.to/lastmile_qr_scan"}}, {"is_disabled": 0, "fusion_lat": 0.0, "lat": 38.866679, "type": "electric_scooter", "lon": -76.9890465, "is_reserved": 0, "fusion_lon": 0.0, "bike_id": "6dfbd40cbc2483dacee4c9074b310ce3", "name": "6dfbd40cbc2483dacee4c9074b310ce3", "rental_uris": {"ios": "https://dc.lft.to/lastmile_qr_scan", "android": "https://dc.lft.to/lastmile_qr_scan"}}, {"is_disabled": 0, "fusion_lat": 0.0, "lat": 38.83811683333333, "type": "electric_bike", "lon": -77.09522583333333, "is_reserved": 0, "fusion_lon": 0.0, "bike_id": "f26d4de325c9af3f6a4fdd62f30e6a29", "name": "f26d4de325c9af3f6a4fdd62f30e6a29", "rental_uris": {"ios": "https://dc.lft.to/lastmile_qr_scan", "android": "https://dc.lft.to/lastmile_qr_scan"}}, {"is_disabled": 0, "fusion_lat": 0.0, "lat": 38.8652505, "type": "electric_scooter", "lon": -76.99034833333333, "is_reserved": 0, "fusion_lon": 0.0, "bike_id": "142248407c463fc4101c84a25a9e89a5", "name": "142248407c463fc4101c84a25a9e89a5", "rental_uris": {"ios": "https://dc.lft.to/lastmile_qr_scan", "android": "https://dc.lft.to/lastmile_qr_scan"}}, {"is_disabled": 0, "fusion_lat": 0.0, "lat": 38.946331666666666, "type": "electric_scooter", "lon": -77.0184365, "is_reserved": 0, "fusion_lon": 0.0, "bike_id": "761b85cb07440876a879d57e611999a4", "name": "761b85cb07440876a879d57e611999a4", "rental_uris": {"ios": "https://dc.lft.to/lastmile_qr_scan", "android": "https://dc.lft.to/lastmile_qr_scan"}}, {"is_disabled": 0, "fusion_lat": 0.0, "lat": 38.83868416666667, "type": "electric_bike", "lon": -76.99692783333333, "is_reserved": 0, "fusion_lon": 0.0, "bike_id": "7261933db63003cc52c44ca31ea3e47b", "name": "7261933db63003cc52c44ca31ea3e47b", "rental_uris": {"ios": "https://dc.lft.to/lastmile_qr_scan", "android": "https://dc.lft.to/lastmile_qr_scan"}}, {"is_disabled": 0, "fusion_lat": 0.0, "lat": 38.925703, "type": "electric_scooter", "lon": -77.0525735, "is_reserved": 0, "fusion_lon": 0.0, "bike_id": "73788b806ee404c42a72672cd8dd66cb", "name": "73788b806ee404c42a72672cd8dd66cb", "rental_uris": {"ios": "https://dc.lft.to/lastmile_qr_scan", "android": "https://dc.lft.to/lastmile_qr_scan"}}, {"is_disabled": 0, "fusion_lat": 0.0, "lat": 38.897452666666666, "type": "electric_scooter", "lon": -76.93842816666667, "is_reserved": 0, "fusion_lon": 0.0, "bike_id": "6a5a5185b9510712fb134e5523a4de5c", "name": "6a5a5185b9510712fb134e5523a4de5c", "rental_uris": {"ios": "https://dc.lft.to/lastmile_qr_scan", "android": "https://dc.lft.to/lastmile_qr_scan"}}, {"is_disabled": 0, "fusion_lat": 0.0, "lat": 38.924532666666664, "type": "electric_scooter", "lon": -77.03272883333334, "is_reserved": 0, "fusion_lon": 0.0, "bike_id": "becf2b37c9a617ae9e25a7f4235f30fd", "name": "becf2b37c9a617ae9e25a7f4235f30fd", "rental_uris": {"ios": "https://dc.lft.to/lastmile_qr_scan", "android": "https://dc.lft.to/lastmile_qr_scan"}}, {"is_disabled": 0, "fusion_lat": 0.0, "lat": 38.896262166666666, "type": "electric_scooter", "lon": -77.027933, "is_reserved": 0, "fusion_lon": 0.0, "bike_id": "77207481f1c14ffd7019b0b6fb576cee", "name": "77207481f1c14ffd7019b0b6fb576cee", "rental_uris": {"ios": "https://dc.lft.to/lastmile_qr_scan", "android": "https://dc.lft.to/lastmile_qr_scan"}}, {"is_disabled": 0, "fusion_lat": 0.0, "lat": 38.86285266666667, "type": "electric_scooter", "lon": -76.99234866666667, "is_reserved": 0, "fusion_lon": 0.0, "bike_id": "b364d5f272835fc15117e60791a0d0ce", "name": "b364d5f272835fc15117e60791a0d0ce", "rental_uris": {"ios": "https://dc.lft.to/lastmile_qr_scan", "android": "https://dc.lft.to/lastmile_qr_scan"}}, {"is_disabled": 0, "fusion_lat": 0.0, "lat": 38.9418645, "type": "electric_scooter", "lon": -77.0234595, "is_reserved": 0, "fusion_lon": 0.0, "bike_id": "45f2c7df1074ade4aee7b41a640486db", "name": "45f2c7df1074ade4aee7b41a640486db", "rental_uris": {"ios": "https://dc.lft.to/lastmile_qr_scan", "android": "https://dc.lft.to/lastmile_qr_scan"}}, {"is_disabled": 0, "fusion_lat": 0.0, "lat": 38.92984783333333, "type": "electric_scooter", "lon": -77.0365795, "is_reserved": 0, "fusion_lon": 0.0, "bike_id": "ef905e1b8b97f904e36668478b569470", "name": "ef905e1b8b97f904e36668478b569470", "rental_uris": {"ios": "https://dc.lft.to/lastmile_qr_scan", "android": "https://dc.lft.to/lastmile_qr_scan"}}, {"is_disabled": 0, "fusion_lat": 0.0, "lat": 38.90960066666667, "type": "electric_scooter", "lon": -77.014389, "is_reserved": 0, "fusion_lon": 0.0, "bike_id": "e407045500473e42933fdb42b29eb210", "name": "e407045500473e42933fdb42b29eb210", "rental_uris": {"ios": "https://dc.lft.to/lastmile_qr_scan", "android": "https://dc.lft.to/lastmile_qr_scan"}}, {"is_disabled": 0, "fusion_lat": 0.0, "lat": 38.923838, "type": "electric_scooter", "lon": -77.025559, "is_reserved": 0, "fusion_lon": 0.0, "bike_id": "95337f50fffa6354f57af8288bc7b564", "name": "95337f50fffa6354f57af8288bc7b564", "rental_uris": {"ios": "https://dc.lft.to/lastmile_qr_scan", "android": "https://dc.lft.to/lastmile_qr_scan"}}, {"is_disabled": 0, "fusion_lat": 0.0, "lat": 38.94170916666667, "type": "electric_scooter", "lon": -77.0253205, "is_reserved": 0, "fusion_lon": 0.0, "bike_id": "2ffe96a1a5af7109e195e3cab6eeca79", "name": "2ffe96a1a5af7109e195e3cab6eeca79", "rental_uris": {"ios": "https://dc.lft.to/lastmile_qr_scan", "android": "https://dc.lft.to/lastmile_qr_scan"}}, {"is_disabled": 0, "fusion_lat": 0.0, "lat": 38.9208305, "type": "electric_scooter", "lon": -77.023876, "is_reserved": 0, "fusion_lon": 0.0, "bike_id": "2fd0c76a832c0a81e6952a85e5dd0287", "name": "2fd0c76a832c0a81e6952a85e5dd0287", "rental_uris": {"ios": "https://dc.lft.to/lastmile_qr_scan", "android": "https://dc.lft.to/lastmile_qr_scan"}}, {"is_disabled": 0, "fusion_lat": 0.0, "lat": 38.90502516666667, "type": "electric_scooter", "lon": -77.06283383333333, "is_reserved": 0, "fusion_lon": 0.0, "bike_id": "aff1be186ecd12f9e5c5c5667f7b4f1d", "name": "aff1be186ecd12f9e5c5c5667f7b4f1d", "rental_uris": {"ios": "https://dc.lft.to/lastmile_qr_scan", "android": "https://dc.lft.to/lastmile_qr_scan"}}, {"is_disabled": 0, "fusion_lat": 0.0, "lat": 38.866250666666666, "type": "electric_scooter", "lon": -76.9866835, "is_reserved": 0, "fusion_lon": 0.0, "bike_id": "17a0d9dca86f807de3f5856ef432d8ae", "name": "17a0d9dca86f807de3f5856ef432d8ae", "rental_uris": {"ios": "https://dc.lft.to/lastmile_qr_scan", "android": "https://dc.lft.to/lastmile_qr_scan"}}, {"is_disabled": 0, "fusion_lat": 0.0, "lat": 38.845959, "type": "electric_bike", "lon": -77.07679666666667, "is_reserved": 0, "fusion_lon": 0.0, "bike_id": "ba0de93e8bce2da4f39941d1c7215979", "name": "ba0de93e8bce2da4f39941d1c7215979", "rental_uris": {"ios": "https://dc.lft.to/lastmile_qr_scan", "android": "https://dc.lft.to/lastmile_qr_scan"}}, {"is_disabled": 0, "fusion_lat": 0.0, "lat": 38.940427, "type": "electric_scooter", "lon": -77.02910833333334, "is_reserved": 0, "fusion_lon": 0.0, "bike_id": "095c6663595a5250043204811829aa0f", "name": "095c6663595a5250043204811829aa0f", "rental_uris": {"ios": "https://dc.lft.to/lastmile_qr_scan", "android": "https://dc.lft.to/lastmile_qr_scan"}}, {"is_disabled": 0, "fusion_lat": 0.0, "lat": 38.93547183333333, "type": "electric_scooter", "lon": -77.072698, "is_reserved": 0, "fusion_lon": 0.0, "bike_id": "357416488736fdd7ed4af1335d0bf578", "name": "357416488736fdd7ed4af1335d0bf578", "rental_uris": {"ios": "https://dc.lft.to/lastmile_qr_scan", "android": "https://dc.lft.to/lastmile_qr_scan"}}, {"is_disabled": 0, "fusion_lat": 0.0, "lat": 38.87637183333333, "type": "electric_scooter", "lon": -77.016454, "is_reserved": 0, "fusion_lon": 0.0, "bike_id": "5fb91cd1a0e33dc533322adb53ea2bc8", "name": "5fb91cd1a0e33dc533322adb53ea2bc8", "rental_uris": {"ios": "https://dc.lft.to/lastmile_qr_scan", "android": "https://dc.lft.to/lastmile_qr_scan"}}, {"is_disabled": 0, "fusion_lat": 0.0, "lat": 38.940512, "type": "electric_scooter", "lon": -77.09268966666667, "is_reserved": 0, "fusion_lon": 0.0, "bike_id": "4a456399519cdbb050ab9975c7688190", "name": "4a456399519cdbb050ab9975c7688190", "rental_uris": {"ios": "https://dc.lft.to/lastmile_qr_scan", "android": "https://dc.lft.to/lastmile_qr_scan"}}, {"is_disabled": 0, "fusion_lat": 0.0, "lat": 38.90142183333333, "type": "electric_scooter", "lon": -77.01814033333333, "is_reserved": 0, "fusion_lon": 0.0, "bike_id": "9949d72d8b0862f6a91ae549ebffc6f7", "name": "9949d72d8b0862f6a91ae549ebffc6f7", "rental_uris": {"ios": "https://dc.lft.to/lastmile_qr_scan", "android": "https://dc.lft.to/lastmile_qr_scan"}}, {"is_disabled": 0, "fusion_lat": 0.0, "lat": 38.905089, "type": "electric_scooter", "lon": -77.0294305, "is_reserved": 0, "fusion_lon": 0.0, "bike_id": "f54f53868afac8ecde2460a56891fa9b", "name": "f54f53868afac8ecde2460a56891fa9b", "rental_uris": {"ios": "https://dc.lft.to/lastmile_qr_scan", "android": "https://dc.lft.to/lastmile_qr_scan"}}, {"is_disabled": 0, "fusion_lat": 0.0, "lat": 38.84293366666667, "type": "electric_scooter", "lon": -76.99944683333334, "is_reserved": 0, "fusion_lon": 0.0, "bike_id": "1313ea2e79b4b3b10652369ff2393f64", "name": "1313ea2e79b4b3b10652369ff2393f64", "rental_uris": {"ios": "https://dc.lft.to/lastmile_qr_scan", "android": "https://dc.lft.to/lastmile_qr_scan"}}, {"is_disabled": 0, "fusion_lat": 0.0, "lat": 38.914756833333335, "type": "electric_scooter", "lon": -77.038343, "is_reserved": 0, "fusion_lon": 0.0, "bike_id": "aad5245ce7c49953fdf9c543fdf0e6a5", "name": "aad5245ce7c49953fdf9c543fdf0e6a5", "rental_uris": {"ios": "https://dc.lft.to/lastmile_qr_scan", "android": "https://dc.lft.to/lastmile_qr_scan"}}, {"is_disabled": 0, "fusion_lat": 0.0, "lat": 38.9737015, "type": "electric_scooter", "lon": -77.01863516666667, "is_reserved": 0, "fusion_lon": 0.0, "bike_id": "5056f17cd27da56b2153fb93a432bd1d", "name": "5056f17cd27da56b2153fb93a432bd1d", "rental_uris": {"ios": "https://dc.lft.to/lastmile_qr_scan", "android": "https://dc.lft.to/lastmile_qr_scan"}}, {"is_disabled": 0, "fusion_lat": 0.0, "lat": 38.86725583333333, "type": "electric_scooter", "lon": -76.9878535, "is_reserved": 0, "fusion_lon": 0.0, "bike_id": "e8d3f193c569d800eea7a65d8d533742", "name": "e8d3f193c569d800eea7a65d8d533742", "rental_uris": {"ios": "https://dc.lft.to/lastmile_qr_scan", "android": "https://dc.lft.to/lastmile_qr_scan"}}, {"is_disabled": 0, "fusion_lat": 0.0, "lat": 38.919807, "type": "electric_scooter", "lon": -77.0416995, "is_reserved": 0, "fusion_lon": 0.0, "bike_id": "d2e37f91e550dbd76125979a4204bac1", "name": "d2e37f91e550dbd76125979a4204bac1", "rental_uris": {"ios": "https://dc.lft.to/lastmile_qr_scan", "android": "https://dc.lft.to/lastmile_qr_scan"}}, {"is_disabled": 0, "fusion_lat": 0.0, "lat": 38.9024345, "type": "electric_scooter", "lon": -77.0173915, "is_reserved": 0, "fusion_lon": 0.0, "bike_id": "861ecae0205ce3b175f043fce781aa1c", "name": "861ecae0205ce3b175f043fce781aa1c", "rental_uris": {"ios": "https://dc.lft.to/lastmile_qr_scan", "android": "https://dc.lft.to/lastmile_qr_scan"}}, {"is_disabled": 0, "fusion_lat": 0.0, "lat": 38.9167115, "type": "electric_scooter", "lon": -77.0066005, "is_reserved": 0, "fusion_lon": 0.0, "bike_id": "fa29b303c490a8f713bce5cd2183e467", "name": "fa29b303c490a8f713bce5cd2183e467", "rental_uris": {"ios": "https://dc.lft.to/lastmile_qr_scan", "android": "https://dc.lft.to/lastmile_qr_scan"}}, {"is_disabled": 0, "fusion_lat": 0.0, "lat": 38.901397, "type": "electric_scooter", "lon": -77.03862783333334, "is_reserved": 0, "fusion_lon": 0.0, "bike_id": "36acfa8ba5a228a27ef0966ea3b09d72", "name": "36acfa8ba5a228a27ef0966ea3b09d72", "rental_uris": {"ios": "https://dc.lft.to/lastmile_qr_scan", "android": "https://dc.lft.to/lastmile_qr_scan"}}, {"is_disabled": 0, "fusion_lat": 0.0, "lat": 38.84630033333333, "type": "electric_bike", "lon": -77.069427, "is_reserved": 0, "fusion_lon": 0.0, "bike_id": "946d0570f6b9a936ab13d3dff90b049b", "name": "946d0570f6b9a936ab13d3dff90b049b", "rental_uris": {"ios": "https://dc.lft.to/lastmile_qr_scan", "android": "https://dc.lft.to/lastmile_qr_scan"}}, {"is_disabled": 0, "fusion_lat": 0.0, "lat": 38.90271966666667, "type": "electric_scooter", "lon": -77.06009166666666, "is_reserved": 0, "fusion_lon": 0.0, "bike_id": "522c19b1d6c8f6f59df023987c828217", "name": "522c19b1d6c8f6f59df023987c828217", "rental_uris": {"ios": "https://dc.lft.to/lastmile_qr_scan", "android": "https://dc.lft.to/lastmile_qr_scan"}}, {"is_disabled": 0, "fusion_lat": 0.0, "lat": 38.96826216666667, "type": "electric_scooter", "lon": -77.017876, "is_reserved": 0, "fusion_lon": 0.0, "bike_id": "3f0acef1939a4b8ad3af101a54a074d4", "name": "3f0acef1939a4b8ad3af101a54a074d4", "rental_uris": {"ios": "https://dc.lft.to/lastmile_qr_scan", "android": "https://dc.lft.to/lastmile_qr_scan"}}, {"is_disabled": 0, "fusion_lat": 0.0, "lat": 38.919829166666666, "type": "electric_scooter", "lon": -77.02380633333334, "is_reserved": 0, "fusion_lon": 0.0, "bike_id": "1e60b4daeda4cea859e3f8eba3d81885", "name": "1e60b4daeda4cea859e3f8eba3d81885", "rental_uris": {"ios": "https://dc.lft.to/lastmile_qr_scan", "android": "https://dc.lft.to/lastmile_qr_scan"}}, {"is_disabled": 0, "fusion_lat": 0.0, "lat": 38.921721833333336, "type": "electric_scooter", "lon": -77.0402825, "is_reserved": 0, "fusion_lon": 0.0, "bike_id": "6aa2076d79153b6a4760456b44ebd02e", "name": "6aa2076d79153b6a4760456b44ebd02e", "rental_uris": {"ios": "https://dc.lft.to/lastmile_qr_scan", "android": "https://dc.lft.to/lastmile_qr_scan"}}, {"is_disabled": 0, "fusion_lat": 0.0, "lat": 38.874637166666666, "type": "electric_scooter", "lon": -77.00305933333334, "is_reserved": 0, "fusion_lon": 0.0, "bike_id": "bc97d2e8d5d69f863e5d7753c46c3420", "name": "bc97d2e8d5d69f863e5d7753c46c3420", "rental_uris": {"ios": "https://dc.lft.to/lastmile_qr_scan", "android": "https://dc.lft.to/lastmile_qr_scan"}}, {"is_disabled": 0, "fusion_lat": 0.0, "lat": 38.901311666666665, "type": "electric_scooter", "lon": -77.04358666666667, "is_reserved": 0, "fusion_lon": 0.0, "bike_id": "4074e35d2e58c3a374a94ef81824d748", "name": "4074e35d2e58c3a374a94ef81824d748", "rental_uris": {"ios": "https://dc.lft.to/lastmile_qr_scan", "android": "https://dc.lft.to/lastmile_qr_scan"}}, {"is_disabled": 0, "fusion_lat": 0.0, "lat": 38.89707966666667, "type": "electric_scooter", "lon": -76.91770266666667, "is_reserved": 0, "fusion_lon": 0.0, "bike_id": "872116c4bdfc9bc7917960010a77ea17", "name": "872116c4bdfc9bc7917960010a77ea17", "rental_uris": {"ios": "https://dc.lft.to/lastmile_qr_scan", "android": "https://dc.lft.to/lastmile_qr_scan"}}, {"is_disabled": 0, "fusion_lat": 0.0, "lat": 38.920776000000004, "type": "electric_scooter", "lon": -77.0468795, "is_reserved": 0, "fusion_lon": 0.0, "bike_id": "625c1868917753a5057f9ff82e2c63b4", "name": "625c1868917753a5057f9ff82e2c63b4", "rental_uris": {"ios": "https://dc.lft.to/lastmile_qr_scan", "android": "https://dc.lft.to/lastmile_qr_scan"}}, {"is_disabled": 0, "fusion_lat": 0.0, "lat": 38.8956265, "type": "electric_scooter", "lon": -76.933705, "is_reserved": 0, "fusion_lon": 0.0, "bike_id": "99b1d974e53095e163329b86bfda957b", "name": "99b1d974e53095e163329b86bfda957b", "rental_uris": {"ios": "https://dc.lft.to/lastmile_qr_scan", "android": "https://dc.lft.to/lastmile_qr_scan"}}, {"is_disabled": 0, "fusion_lat": 0.0, "lat": 38.92233183333333, "type": "electric_scooter", "lon": -77.04380566666667, "is_reserved": 0, "fusion_lon": 0.0, "bike_id": "326b7818c89b452f57c2cea350cf4135", "name": "326b7818c89b452f57c2cea350cf4135", "rental_uris": {"ios": "https://dc.lft.to/lastmile_qr_scan", "android": "https://dc.lft.to/lastmile_qr_scan"}}, {"is_disabled": 0, "fusion_lat": 0.0, "lat": 38.90048266666667, "type": "electric_scooter", "lon": -76.98833333333333, "is_reserved": 0, "fusion_lon": 0.0, "bike_id": "632959629a56d7370bc0916e47ae71b0", "name": "632959629a56d7370bc0916e47ae71b0", "rental_uris": {"ios": "https://dc.lft.to/lastmile_qr_scan", "android": "https://dc.lft.to/lastmile_qr_scan"}}, {"is_disabled": 0, "fusion_lat": 0.0, "lat": 38.91380433333333, "type": "electric_scooter", "lon": -77.01997166666666, "is_reserved": 0, "fusion_lon": 0.0, "bike_id": "883de83d48ff9b3f4c6d2fbcb301be38", "name": "883de83d48ff9b3f4c6d2fbcb301be38", "rental_uris": {"ios": "https://dc.lft.to/lastmile_qr_scan", "android": "https://dc.lft.to/lastmile_qr_scan"}}, {"is_disabled": 0, "fusion_lat": 0.0, "lat": 38.886614333333334, "type": "electric_scooter", "lon": -77.033882, "is_reserved": 0, "fusion_lon": 0.0, "bike_id": "a5fe37536a6bb27f81952893f204d595", "name": "a5fe37536a6bb27f81952893f204d595", "rental_uris": {"ios": "https://dc.lft.to/lastmile_qr_scan", "android": "https://dc.lft.to/lastmile_qr_scan"}}, {"is_disabled": 0, "fusion_lat": 0.0, "lat": 38.88080166666667, "type": "electric_bike", "lon": -77.08634433333333, "is_reserved": 0, "fusion_lon": 0.0, "bike_id": "94e6903a666e5b488626dcf1dcc0383f", "name": "94e6903a666e5b488626dcf1dcc0383f", "rental_uris": {"ios": "https://dc.lft.to/lastmile_qr_scan", "android": "https://dc.lft.to/lastmile_qr_scan"}}, {"is_disabled": 0, "fusion_lat": 0.0, "lat": 38.90439033333333, "type": "electric_scooter", "lon": -77.0434335, "is_reserved": 0, "fusion_lon": 0.0, "bike_id": "50543d64b4fd020a879fdc8eb9a6477d", "name": "50543d64b4fd020a879fdc8eb9a6477d", "rental_uris": {"ios": "https://dc.lft.to/lastmile_qr_scan", "android": "https://dc.lft.to/lastmile_qr_scan"}}, {"is_disabled": 0, "fusion_lat": 0.0, "lat": 38.827339333333335, "type": "electric_bike", "lon": -77.008622, "is_reserved": 0, "fusion_lon": 0.0, "bike_id": "2859d6cfc14ba0dd60c0b652f4c8803d", "name": "2859d6cfc14ba0dd60c0b652f4c8803d", "rental_uris": {"ios": "https://dc.lft.to/lastmile_qr_scan", "android": "https://dc.lft.to/lastmile_qr_scan"}}, {"is_disabled": 0, "fusion_lat": 0.0, "lat": 38.90480783333334, "type": "electric_scooter", "lon": -77.04350933333333, "is_reserved": 0, "fusion_lon": 0.0, "bike_id": "7e1935cfffc32b0472cc81ad2871a15f", "name": "7e1935cfffc32b0472cc81ad2871a15f", "rental_uris": {"ios": "https://dc.lft.to/lastmile_qr_scan", "android": "https://dc.lft.to/lastmile_qr_scan"}}, {"is_disabled": 0, "fusion_lat": 0.0, "lat": 38.8803215, "type": "electric_scooter", "lon": -76.93127233333334, "is_reserved": 0, "fusion_lon": 0.0, "bike_id": "7bf30c94249db6c0d2e3d745c494cd96", "name": "7bf30c94249db6c0d2e3d745c494cd96", "rental_uris": {"ios": "https://dc.lft.to/lastmile_qr_scan", "android": "https://dc.lft.to/lastmile_qr_scan"}}, {"is_disabled": 0, "fusion_lat": 0.0, "lat": 38.88485633333333, "type": "electric_scooter", "lon": -77.03350116666667, "is_reserved": 0, "fusion_lon": 0.0, "bike_id": "9b2a9e0cb53c26d5ebf2044de94a8c16", "name": "9b2a9e0cb53c26d5ebf2044de94a8c16", "rental_uris": {"ios": "https://dc.lft.to/lastmile_qr_scan", "android": "https://dc.lft.to/lastmile_qr_scan"}}, {"is_disabled": 0, "fusion_lat": 0.0, "lat": 38.902421333333336, "type": "electric_scooter", "lon": -77.002004, "is_reserved": 0, "fusion_lon": 0.0, "bike_id": "588ae4fbf5dcecffba1f698dad048c3f", "name": "588ae4fbf5dcecffba1f698dad048c3f", "rental_uris": {"ios": "https://dc.lft.to/lastmile_qr_scan", "android": "https://dc.lft.to/lastmile_qr_scan"}}, {"is_disabled": 0, "fusion_lat": 0.0, "lat": 38.884754666666666, "type": "electric_scooter", "lon": -77.0235005, "is_reserved": 0, "fusion_lon": 0.0, "bike_id": "cd2d951ebcc650850ede36b63f6b44d8", "name": "cd2d951ebcc650850ede36b63f6b44d8", "rental_uris": {"ios": "https://dc.lft.to/lastmile_qr_scan", "android": "https://dc.lft.to/lastmile_qr_scan"}}, {"is_disabled": 0, "fusion_lat": 0.0, "lat": 38.92522733333333, "type": "electric_scooter", "lon": -77.05132, "is_reserved": 0, "fusion_lon": 0.0, "bike_id": "9b803491b136d79d9f623b4e1a2d7781", "name": "9b803491b136d79d9f623b4e1a2d7781", "rental_uris": {"ios": "https://dc.lft.to/lastmile_qr_scan", "android": "https://dc.lft.to/lastmile_qr_scan"}}, {"is_disabled": 0, "fusion_lat": 0.0, "lat": 38.91886516666667, "type": "electric_scooter", "lon": -77.0159095, "is_reserved": 0, "fusion_lon": 0.0, "bike_id": "3d31320900cc1f071aced0df788fe9f1", "name": "3d31320900cc1f071aced0df788fe9f1", "rental_uris": {"ios": "https://dc.lft.to/lastmile_qr_scan", "android": "https://dc.lft.to/lastmile_qr_scan"}}, {"is_disabled": 0, "fusion_lat": 0.0, "lat": 38.92492716666667, "type": "electric_scooter", "lon": -77.05233433333333, "is_reserved": 0, "fusion_lon": 0.0, "bike_id": "57059366a901b1330a4e543b6bef1604", "name": "57059366a901b1330a4e543b6bef1604", "rental_uris": {"ios": "https://dc.lft.to/lastmile_qr_scan", "android": "https://dc.lft.to/lastmile_qr_scan"}}, {"is_disabled": 0, "fusion_lat": 0.0, "lat": 38.892439833333334, "type": "electric_scooter", "lon": -77.0395585, "is_reserved": 0, "fusion_lon": 0.0, "bike_id": "e5d6154af72e8decb4822ca69120b57c", "name": "e5d6154af72e8decb4822ca69120b57c", "rental_uris": {"ios": "https://dc.lft.to/lastmile_qr_scan", "android": "https://dc.lft.to/lastmile_qr_scan"}}, {"is_disabled": 0, "fusion_lat": 0.0, "lat": 38.8717535, "type": "electric_scooter", "lon": -77.00621533333333, "is_reserved": 0, "fusion_lon": 0.0, "bike_id": "aabc4cd547e1dca47fe4c6acd78ff01d", "name": "aabc4cd547e1dca47fe4c6acd78ff01d", "rental_uris": {"ios": "https://dc.lft.to/lastmile_qr_scan", "android": "https://dc.lft.to/lastmile_qr_scan"}}, {"is_disabled": 0, "fusion_lat": 0.0, "lat": 38.95735083333334, "type": "electric_scooter", "lon": -77.02385166666667, "is_reserved": 0, "fusion_lon": 0.0, "bike_id": "5674ceba37b1e77eeb02ef86994f549c", "name": "5674ceba37b1e77eeb02ef86994f549c", "rental_uris": {"ios": "https://dc.lft.to/lastmile_qr_scan", "android": "https://dc.lft.to/lastmile_qr_scan"}}, {"is_disabled": 0, "fusion_lat": 0.0, "lat": 38.90474833333333, "type": "electric_scooter", "lon": -77.0188995, "is_reserved": 0, "fusion_lon": 0.0, "bike_id": "c4bfd2f463a8889cfba4ac101bc62415", "name": "c4bfd2f463a8889cfba4ac101bc62415", "rental_uris": {"ios": "https://dc.lft.to/lastmile_qr_scan", "android": "https://dc.lft.to/lastmile_qr_scan"}}, {"is_disabled": 0, "fusion_lat": 0.0, "lat": 38.900583, "type": "electric_scooter", "lon": -77.01725233333333, "is_reserved": 0, "fusion_lon": 0.0, "bike_id": "5464a75c162e6e1b161b30e320452367", "name": "5464a75c162e6e1b161b30e320452367", "rental_uris": {"ios": "https://dc.lft.to/lastmile_qr_scan", "android": "https://dc.lft.to/lastmile_qr_scan"}}, {"is_disabled": 0, "fusion_lat": 0.0, "lat": 38.90081983333334, "type": "electric_bike", "lon": -77.04475333333333, "is_reserved": 0, "fusion_lon": 0.0, "bike_id": "c1c16ab4e2fb86c1508435b7fdf1ab58", "name": "c1c16ab4e2fb86c1508435b7fdf1ab58", "rental_uris": {"ios": "https://dc.lft.to/lastmile_qr_scan", "android": "https://dc.lft.to/lastmile_qr_scan"}}, {"is_disabled": 0, "fusion_lat": 0.0, "lat": 38.921623, "type": "electric_scooter", "lon": -76.99454083333333, "is_reserved": 0, "fusion_lon": 0.0, "bike_id": "378c4774070407deb16c784c4f57a32d", "name": "378c4774070407deb16c784c4f57a32d", "rental_uris": {"ios": "https://dc.lft.to/lastmile_qr_scan", "android": "https://dc.lft.to/lastmile_qr_scan"}}, {"is_disabled": 0, "fusion_lat": 0.0, "lat": 38.88595516666667, "type": "electric_scooter", "lon": -77.00062066666666, "is_reserved": 0, "fusion_lon": 0.0, "bike_id": "5b6b1e0e1127429304bfc561f89975d7", "name": "5b6b1e0e1127429304bfc561f89975d7", "rental_uris": {"ios": "https://dc.lft.to/lastmile_qr_scan", "android": "https://dc.lft.to/lastmile_qr_scan"}}, {"is_disabled": 0, "fusion_lat": 0.0, "lat": 38.912589, "type": "electric_scooter", "lon": -77.04229666666667, "is_reserved": 0, "fusion_lon": 0.0, "bike_id": "b3a0c0311db93403bcd27a74e168acea", "name": "b3a0c0311db93403bcd27a74e168acea", "rental_uris": {"ios": "https://dc.lft.to/lastmile_qr_scan", "android": "https://dc.lft.to/lastmile_qr_scan"}}, {"is_disabled": 0, "fusion_lat": 0.0, "lat": 38.91386716666667, "type": "electric_scooter", "lon": -77.0170015, "is_reserved": 0, "fusion_lon": 0.0, "bike_id": "0cac9c8fd4055f6105f890fa14e43440", "name": "0cac9c8fd4055f6105f890fa14e43440", "rental_uris": {"ios": "https://dc.lft.to/lastmile_qr_scan", "android": "https://dc.lft.to/lastmile_qr_scan"}}, {"is_disabled": 0, "fusion_lat": 0.0, "lat": 38.91806116666667, "type": "electric_scooter", "lon": -77.03718266666667, "is_reserved": 0, "fusion_lon": 0.0, "bike_id": "5e78cb11f7500c63e3460f87e8c7db07", "name": "5e78cb11f7500c63e3460f87e8c7db07", "rental_uris": {"ios": "https://dc.lft.to/lastmile_qr_scan", "android": "https://dc.lft.to/lastmile_qr_scan"}}, {"is_disabled": 0, "fusion_lat": 0.0, "lat": 38.90271533333333, "type": "electric_scooter", "lon": -77.03441883333333, "is_reserved": 0, "fusion_lon": 0.0, "bike_id": "4334c3d94e90b7b3e2a4ff6cffe067c3", "name": "4334c3d94e90b7b3e2a4ff6cffe067c3", "rental_uris": {"ios": "https://dc.lft.to/lastmile_qr_scan", "android": "https://dc.lft.to/lastmile_qr_scan"}}, {"is_disabled": 0, "fusion_lat": 0.0, "lat": 38.935145166666665, "type": "electric_scooter", "lon": -77.02399366666667, "is_reserved": 0, "fusion_lon": 0.0, "bike_id": "cd75cea111db7d68035cd10235dbf0c7", "name": "cd75cea111db7d68035cd10235dbf0c7", "rental_uris": {"ios": "https://dc.lft.to/lastmile_qr_scan", "android": "https://dc.lft.to/lastmile_qr_scan"}}, {"is_disabled": 0, "fusion_lat": 0.0, "lat": 38.912702333333336, "type": "electric_scooter", "lon": -77.01689, "is_reserved": 0, "fusion_lon": 0.0, "bike_id": "a4e6c7d982eec56df69a89b0750b092e", "name": "a4e6c7d982eec56df69a89b0750b092e", "rental_uris": {"ios": "https://dc.lft.to/lastmile_qr_scan", "android": "https://dc.lft.to/lastmile_qr_scan"}}, {"is_disabled": 0, "fusion_lat": 0.0, "lat": 38.89746733333333, "type": "electric_scooter", "lon": -77.04502066666667, "is_reserved": 0, "fusion_lon": 0.0, "bike_id": "1951f4dc35496f254994f5887a12264f", "name": "1951f4dc35496f254994f5887a12264f", "rental_uris": {"ios": "https://dc.lft.to/lastmile_qr_scan", "android": "https://dc.lft.to/lastmile_qr_scan"}}, {"is_disabled": 0, "fusion_lat": 0.0, "lat": 38.9117775, "type": "electric_scooter", "lon": -77.003737, "is_reserved": 0, "fusion_lon": 0.0, "bike_id": "6251a65b940d9556ed86b6b9d835bb1d", "name": "6251a65b940d9556ed86b6b9d835bb1d", "rental_uris": {"ios": "https://dc.lft.to/lastmile_qr_scan", "android": "https://dc.lft.to/lastmile_qr_scan"}}, {"is_disabled": 0, "fusion_lat": 0.0, "lat": 38.904137666666664, "type": "electric_scooter", "lon": -77.03234883333333, "is_reserved": 0, "fusion_lon": 0.0, "bike_id": "1f4617ce573960b4f03ce8527a1c1953", "name": "1f4617ce573960b4f03ce8527a1c1953", "rental_uris": {"ios": "https://dc.lft.to/lastmile_qr_scan", "android": "https://dc.lft.to/lastmile_qr_scan"}}, {"is_disabled": 0, "fusion_lat": 0.0, "lat": 38.90677383333333, "type": "electric_scooter", "lon": -77.00065416666666, "is_reserved": 0, "fusion_lon": 0.0, "bike_id": "b8cfe0814e61d8857e5d90c2d506b84e", "name": "b8cfe0814e61d8857e5d90c2d506b84e", "rental_uris": {"ios": "https://dc.lft.to/lastmile_qr_scan", "android": "https://dc.lft.to/lastmile_qr_scan"}}, {"is_disabled": 0, "fusion_lat": 0.0, "lat": 38.89358416666666, "type": "electric_scooter", "lon": -77.016057, "is_reserved": 0, "fusion_lon": 0.0, "bike_id": "def78d5ce90082f33285d3b3c9d8faaa", "name": "def78d5ce90082f33285d3b3c9d8faaa", "rental_uris": {"ios": "https://dc.lft.to/lastmile_qr_scan", "android": "https://dc.lft.to/lastmile_qr_scan"}}, {"is_disabled": 0, "fusion_lat": 0.0, "lat": 38.91021966666667, "type": "electric_scooter", "lon": -77.03862683333334, "is_reserved": 0, "fusion_lon": 0.0, "bike_id": "c5270a080f70bde7a6efdead1995b4dd", "name": "c5270a080f70bde7a6efdead1995b4dd", "rental_uris": {"ios": "https://dc.lft.to/lastmile_qr_scan", "android": "https://dc.lft.to/lastmile_qr_scan"}}, {"is_disabled": 0, "fusion_lat": 0.0, "lat": 38.93176483333333, "type": "electric_scooter", "lon": -77.02839833333333, "is_reserved": 0, "fusion_lon": 0.0, "bike_id": "9014fa97e9d5b1c2f6053e80e8374fa3", "name": "9014fa97e9d5b1c2f6053e80e8374fa3", "rental_uris": {"ios": "https://dc.lft.to/lastmile_qr_scan", "android": "https://dc.lft.to/lastmile_qr_scan"}}, {"is_disabled": 0, "fusion_lat": 0.0, "lat": 38.911888, "type": "electric_scooter", "lon": -77.01055216666667, "is_reserved": 0, "fusion_lon": 0.0, "bike_id": "b88042dfce9ca4db1b9ea8a9a8ba9ab9", "name": "b88042dfce9ca4db1b9ea8a9a8ba9ab9", "rental_uris": {"ios": "https://dc.lft.to/lastmile_qr_scan", "android": "https://dc.lft.to/lastmile_qr_scan"}}, {"is_disabled": 0, "fusion_lat": 0.0, "lat": 38.90245216666667, "type": "electric_scooter", "lon": -77.0019715, "is_reserved": 0, "fusion_lon": 0.0, "bike_id": "ea0bc2193a9870910ca9d6be6bffb3e1", "name": "ea0bc2193a9870910ca9d6be6bffb3e1", "rental_uris": {"ios": "https://dc.lft.to/lastmile_qr_scan", "android": "https://dc.lft.to/lastmile_qr_scan"}}, {"is_disabled": 0, "fusion_lat": 0.0, "lat": 38.905047, "type": "electric_scooter", "lon": -76.990138, "is_reserved": 0, "fusion_lon": 0.0, "bike_id": "94265301896cfd18f5089c00667a6e8f", "name": "94265301896cfd18f5089c00667a6e8f", "rental_uris": {"ios": "https://dc.lft.to/lastmile_qr_scan", "android": "https://dc.lft.to/lastmile_qr_scan"}}, {"is_disabled": 0, "fusion_lat": 0.0, "lat": 38.9238655, "type": "electric_scooter", "lon": -77.03135266666666, "is_reserved": 0, "fusion_lon": 0.0, "bike_id": "bf2983816fc1735a6969168027263324", "name": "bf2983816fc1735a6969168027263324", "rental_uris": {"ios": "https://dc.lft.to/lastmile_qr_scan", "android": "https://dc.lft.to/lastmile_qr_scan"}}, {"is_disabled": 0, "fusion_lat": 0.0, "lat": 38.902278, "type": "electric_scooter", "lon": -77.02374583333334, "is_reserved": 0, "fusion_lon": 0.0, "bike_id": "4c6ef2a7ebe1238e9fda733ed1e8d06a", "name": "4c6ef2a7ebe1238e9fda733ed1e8d06a", "rental_uris": {"ios": "https://dc.lft.to/lastmile_qr_scan", "android": "https://dc.lft.to/lastmile_qr_scan"}}, {"is_disabled": 0, "fusion_lat": 0.0, "lat": 38.902289333333336, "type": "electric_scooter", "lon": -77.01561683333334, "is_reserved": 0, "fusion_lon": 0.0, "bike_id": "5065e4767eb5a1707f5a17b2749e69a3", "name": "5065e4767eb5a1707f5a17b2749e69a3", "rental_uris": {"ios": "https://dc.lft.to/lastmile_qr_scan", "android": "https://dc.lft.to/lastmile_qr_scan"}}, {"is_disabled": 0, "fusion_lat": 0.0, "lat": 38.906287666666664, "type": "electric_bike", "lon": -76.98604616666667, "is_reserved": 0, "fusion_lon": 0.0, "bike_id": "0c690a88e006b8bcfa2883875c11fdf1", "name": "0c690a88e006b8bcfa2883875c11fdf1", "rental_uris": {"ios": "https://dc.lft.to/lastmile_qr_scan", "android": "https://dc.lft.to/lastmile_qr_scan"}}, {"is_disabled": 0, "fusion_lat": 0.0, "lat": 38.905087333333334, "type": "electric_scooter", "lon": -77.0294605, "is_reserved": 0, "fusion_lon": 0.0, "bike_id": "c006d3dbe9cf1f9e08dbec20e7274277", "name": "c006d3dbe9cf1f9e08dbec20e7274277", "rental_uris": {"ios": "https://dc.lft.to/lastmile_qr_scan", "android": "https://dc.lft.to/lastmile_qr_scan"}}, {"is_disabled": 0, "fusion_lat": 0.0, "lat": 38.92531983333333, "type": "electric_scooter", "lon": -77.044173, "is_reserved": 0, "fusion_lon": 0.0, "bike_id": "e8a1df50d04e398c881d6afab2987408", "name": "e8a1df50d04e398c881d6afab2987408", "rental_uris": {"ios": "https://dc.lft.to/lastmile_qr_scan", "android": "https://dc.lft.to/lastmile_qr_scan"}}, {"is_disabled": 0, "fusion_lat": 0.0, "lat": 38.876651, "type": "electric_scooter", "lon": -77.004325, "is_reserved": 0, "fusion_lon": 0.0, "bike_id": "f8d2cd094c3ae6abedc9d9f39705695b", "name": "f8d2cd094c3ae6abedc9d9f39705695b", "rental_uris": {"ios": "https://dc.lft.to/lastmile_qr_scan", "android": "https://dc.lft.to/lastmile_qr_scan"}}, {"is_disabled": 0, "fusion_lat": 0.0, "lat": 38.965776, "type": "electric_bike", "lon": -77.01615683333333, "is_reserved": 0, "fusion_lon": 0.0, "bike_id": "9fb44dac350c3819603491ffcb63120b", "name": "9fb44dac350c3819603491ffcb63120b", "rental_uris": {"ios": "https://dc.lft.to/lastmile_qr_scan", "android": "https://dc.lft.to/lastmile_qr_scan"}}, {"is_disabled": 0, "fusion_lat": 0.0, "lat": 38.90413783333333, "type": "electric_scooter", "lon": -77.0206935, "is_reserved": 0, "fusion_lon": 0.0, "bike_id": "866f76cc0119569902bdedb1893ed548", "name": "866f76cc0119569902bdedb1893ed548", "rental_uris": {"ios": "https://dc.lft.to/lastmile_qr_scan", "android": "https://dc.lft.to/lastmile_qr_scan"}}, {"is_disabled": 0, "fusion_lat": 0.0, "lat": 38.96027983333333, "type": "electric_scooter", "lon": -77.02830166666666, "is_reserved": 0, "fusion_lon": 0.0, "bike_id": "c18bc002a6cf23b6f3863384a7db6375", "name": "c18bc002a6cf23b6f3863384a7db6375", "rental_uris": {"ios": "https://dc.lft.to/lastmile_qr_scan", "android": "https://dc.lft.to/lastmile_qr_scan"}}, {"is_disabled": 0, "fusion_lat": 0.0, "lat": 38.9058115, "type": "electric_scooter", "lon": -77.02202316666667, "is_reserved": 0, "fusion_lon": 0.0, "bike_id": "756c73b0c50b12fc2a2e1fb948cba0dc", "name": "756c73b0c50b12fc2a2e1fb948cba0dc", "rental_uris": {"ios": "https://dc.lft.to/lastmile_qr_scan", "android": "https://dc.lft.to/lastmile_qr_scan"}}, {"is_disabled": 0, "fusion_lat": 0.0, "lat": 38.921149166666666, "type": "electric_scooter", "lon": -77.0422425, "is_reserved": 0, "fusion_lon": 0.0, "bike_id": "1102b163ac356cb63565a7ba935373b9", "name": "1102b163ac356cb63565a7ba935373b9", "rental_uris": {"ios": "https://dc.lft.to/lastmile_qr_scan", "android": "https://dc.lft.to/lastmile_qr_scan"}}, {"is_disabled": 0, "fusion_lat": 0.0, "lat": 38.91406766666667, "type": "electric_scooter", "lon": -77.02048083333334, "is_reserved": 0, "fusion_lon": 0.0, "bike_id": "85809af4af205eadf70d206fe19b9a4a", "name": "85809af4af205eadf70d206fe19b9a4a", "rental_uris": {"ios": "https://dc.lft.to/lastmile_qr_scan", "android": "https://dc.lft.to/lastmile_qr_scan"}}, {"is_disabled": 0, "fusion_lat": 0.0, "lat": 38.96703733333333, "type": "electric_bike", "lon": -77.10223816666667, "is_reserved": 0, "fusion_lon": 0.0, "bike_id": "567583ea1f41e1e2a6fbc3a35fd6dee9", "name": "567583ea1f41e1e2a6fbc3a35fd6dee9", "rental_uris": {"ios": "https://dc.lft.to/lastmile_qr_scan", "android": "https://dc.lft.to/lastmile_qr_scan"}}, {"is_disabled": 0, "fusion_lat": 0.0, "lat": 38.89762733333333, "type": "electric_scooter", "lon": -77.026858, "is_reserved": 0, "fusion_lon": 0.0, "bike_id": "82f6ec8bb98a120e8b4a2b9681889a72", "name": "82f6ec8bb98a120e8b4a2b9681889a72", "rental_uris": {"ios": "https://dc.lft.to/lastmile_qr_scan", "android": "https://dc.lft.to/lastmile_qr_scan"}}, {"is_disabled": 0, "fusion_lat": 0.0, "lat": 38.861648833333334, "type": "electric_bike", "lon": -77.130938, "is_reserved": 0, "fusion_lon": 0.0, "bike_id": "84f440cfcac0b45820e836649caa18c8", "name": "84f440cfcac0b45820e836649caa18c8", "rental_uris": {"ios": "https://dc.lft.to/lastmile_qr_scan", "android": "https://dc.lft.to/lastmile_qr_scan"}}, {"is_disabled": 0, "fusion_lat": 0.0, "lat": 38.91978566666667, "type": "electric_scooter", "lon": -77.04182166666666, "is_reserved": 0, "fusion_lon": 0.0, "bike_id": "d614b718fce86b4f4ddad2a1a0687019", "name": "d614b718fce86b4f4ddad2a1a0687019", "rental_uris": {"ios": "https://dc.lft.to/lastmile_qr_scan", "android": "https://dc.lft.to/lastmile_qr_scan"}}, {"is_disabled": 0, "fusion_lat": 0.0, "lat": 38.932412166666666, "type": "electric_bike", "lon": -76.97419333333333, "is_reserved": 0, "fusion_lon": 0.0, "bike_id": "99d215418b963a128bbc00e4a6b7f02a", "name": "99d215418b963a128bbc00e4a6b7f02a", "rental_uris": {"ios": "https://dc.lft.to/lastmile_qr_scan", "android": "https://dc.lft.to/lastmile_qr_scan"}}, {"is_disabled": 0, "fusion_lat": 0.0, "lat": 38.9019225, "type": "electric_scooter", "lon": -77.021718, "is_reserved": 0, "fusion_lon": 0.0, "bike_id": "ec66e965754dec44c654cf1bf6770b96", "name": "ec66e965754dec44c654cf1bf6770b96", "rental_uris": {"ios": "https://dc.lft.to/lastmile_qr_scan", "android": "https://dc.lft.to/lastmile_qr_scan"}}, {"is_disabled": 0, "fusion_lat": 0.0, "lat": 38.9037465, "type": "electric_scooter", "lon": -77.04187433333334, "is_reserved": 0, "fusion_lon": 0.0, "bike_id": "b84f8594ec69bfb03db2f6b651f5a90e", "name": "b84f8594ec69bfb03db2f6b651f5a90e", "rental_uris": {"ios": "https://dc.lft.to/lastmile_qr_scan", "android": "https://dc.lft.to/lastmile_qr_scan"}}, {"is_disabled": 0, "fusion_lat": 0.0, "lat": 38.89523883333333, "type": "electric_scooter", "lon": -76.9808415, "is_reserved": 0, "fusion_lon": 0.0, "bike_id": "c685da0ca1768a0bd0949290711cf49b", "name": "c685da0ca1768a0bd0949290711cf49b", "rental_uris": {"ios": "https://dc.lft.to/lastmile_qr_scan", "android": "https://dc.lft.to/lastmile_qr_scan"}}, {"is_disabled": 0, "fusion_lat": 0.0, "lat": 38.905199833333334, "type": "electric_scooter", "lon": -77.04783233333333, "is_reserved": 0, "fusion_lon": 0.0, "bike_id": "9fd3262968ea1e04ec27bd5649ca806e", "name": "9fd3262968ea1e04ec27bd5649ca806e", "rental_uris": {"ios": "https://dc.lft.to/lastmile_qr_scan", "android": "https://dc.lft.to/lastmile_qr_scan"}}, {"is_disabled": 0, "fusion_lat": 0.0, "lat": 38.92302683333333, "type": "electric_scooter", "lon": -77.0414525, "is_reserved": 0, "fusion_lon": 0.0, "bike_id": "18fdd732dfcd4c3493b45e5485381e6d", "name": "18fdd732dfcd4c3493b45e5485381e6d", "rental_uris": {"ios": "https://dc.lft.to/lastmile_qr_scan", "android": "https://dc.lft.to/lastmile_qr_scan"}}, {"is_disabled": 0, "fusion_lat": 0.0, "lat": 38.89762783333333, "type": "electric_scooter", "lon": -76.9418455, "is_reserved": 0, "fusion_lon": 0.0, "bike_id": "7614dfdf9707fdd09f54ac988faf381a", "name": "7614dfdf9707fdd09f54ac988faf381a", "rental_uris": {"ios": "https://dc.lft.to/lastmile_qr_scan", "android": "https://dc.lft.to/lastmile_qr_scan"}}, {"is_disabled": 0, "fusion_lat": 0.0, "lat": 38.925896, "type": "electric_scooter", "lon": -77.05050816666666, "is_reserved": 0, "fusion_lon": 0.0, "bike_id": "c46feb268c74caae31333c4a296d28d6", "name": "c46feb268c74caae31333c4a296d28d6", "rental_uris": {"ios": "https://dc.lft.to/lastmile_qr_scan", "android": "https://dc.lft.to/lastmile_qr_scan"}}, {"is_disabled": 0, "fusion_lat": 0.0, "lat": 38.8843625, "type": "electric_scooter", "lon": -76.95756966666667, "is_reserved": 0, "fusion_lon": 0.0, "bike_id": "4a9b70322c5cf9cc01be07ca0700af78", "name": "4a9b70322c5cf9cc01be07ca0700af78", "rental_uris": {"ios": "https://dc.lft.to/lastmile_qr_scan", "android": "https://dc.lft.to/lastmile_qr_scan"}}, {"is_disabled": 0, "fusion_lat": 0.0, "lat": 38.90004733333333, "type": "electric_scooter", "lon": -77.03370566666666, "is_reserved": 0, "fusion_lon": 0.0, "bike_id": "55572b8c9a9e87ab042f7f1bc62ef2f6", "name": "55572b8c9a9e87ab042f7f1bc62ef2f6", "rental_uris": {"ios": "https://dc.lft.to/lastmile_qr_scan", "android": "https://dc.lft.to/lastmile_qr_scan"}}, {"is_disabled": 0, "fusion_lat": 0.0, "lat": 38.900452333333334, "type": "electric_scooter", "lon": -76.92471233333333, "is_reserved": 0, "fusion_lon": 0.0, "bike_id": "725dd74eb46f597fa0c4934d69af306f", "name": "725dd74eb46f597fa0c4934d69af306f", "rental_uris": {"ios": "https://dc.lft.to/lastmile_qr_scan", "android": "https://dc.lft.to/lastmile_qr_scan"}}, {"is_disabled": 0, "fusion_lat": 0.0, "lat": 38.879298666666664, "type": "electric_scooter", "lon": -77.02156083333334, "is_reserved": 0, "fusion_lon": 0.0, "bike_id": "07c1ded7bb621b4c15e37db65299b2d3", "name": "07c1ded7bb621b4c15e37db65299b2d3", "rental_uris": {"ios": "https://dc.lft.to/lastmile_qr_scan", "android": "https://dc.lft.to/lastmile_qr_scan"}}, {"is_disabled": 0, "fusion_lat": 0.0, "lat": 38.9116355, "type": "electric_scooter", "lon": -77.02003666666667, "is_reserved": 0, "fusion_lon": 0.0, "bike_id": "011ef24f0ac8c15931a0196dfcd841fa", "name": "011ef24f0ac8c15931a0196dfcd841fa", "rental_uris": {"ios": "https://dc.lft.to/lastmile_qr_scan", "android": "https://dc.lft.to/lastmile_qr_scan"}}, {"is_disabled": 0, "fusion_lat": 0.0, "lat": 38.931248, "type": "electric_scooter", "lon": -77.02086816666667, "is_reserved": 0, "fusion_lon": 0.0, "bike_id": "f64664f8a2739d0e0c3e8fde73b6fbc6", "name": "f64664f8a2739d0e0c3e8fde73b6fbc6", "rental_uris": {"ios": "https://dc.lft.to/lastmile_qr_scan", "android": "https://dc.lft.to/lastmile_qr_scan"}}, {"is_disabled": 0, "fusion_lat": 0.0, "lat": 38.91984716666666, "type": "electric_scooter", "lon": -77.02379, "is_reserved": 0, "fusion_lon": 0.0, "bike_id": "2efe2fd96b97c2c310e9c7f9c1c3c8e3", "name": "2efe2fd96b97c2c310e9c7f9c1c3c8e3", "rental_uris": {"ios": "https://dc.lft.to/lastmile_qr_scan", "android": "https://dc.lft.to/lastmile_qr_scan"}}, {"is_disabled": 0, "fusion_lat": 0.0, "lat": 38.91670216666667, "type": "electric_scooter", "lon": -77.02715733333334, "is_reserved": 0, "fusion_lon": 0.0, "bike_id": "fd66cdb350758d6e5d51de929701cfbc", "name": "fd66cdb350758d6e5d51de929701cfbc", "rental_uris": {"ios": "https://dc.lft.to/lastmile_qr_scan", "android": "https://dc.lft.to/lastmile_qr_scan"}}, {"is_disabled": 0, "fusion_lat": 0.0, "lat": 38.909761, "type": "electric_scooter", "lon": -77.038649, "is_reserved": 0, "fusion_lon": 0.0, "bike_id": "2e6da777ddbab05e1cfb0d8bbed37b85", "name": "2e6da777ddbab05e1cfb0d8bbed37b85", "rental_uris": {"ios": "https://dc.lft.to/lastmile_qr_scan", "android": "https://dc.lft.to/lastmile_qr_scan"}}, {"is_disabled": 0, "fusion_lat": 0.0, "lat": 38.857909166666666, "type": "electric_bike", "lon": -77.099535, "is_reserved": 0, "fusion_lon": 0.0, "bike_id": "4e1c1939a92a4556a1b663fb85a75422", "name": "4e1c1939a92a4556a1b663fb85a75422", "rental_uris": {"ios": "https://dc.lft.to/lastmile_qr_scan", "android": "https://dc.lft.to/lastmile_qr_scan"}}, {"is_disabled": 0, "fusion_lat": 0.0, "lat": 38.90008483333333, "type": "electric_scooter", "lon": -77.0403425, "is_reserved": 0, "fusion_lon": 0.0, "bike_id": "64bfb71a13c8fe02219bf5b649a82f03", "name": "64bfb71a13c8fe02219bf5b649a82f03", "rental_uris": {"ios": "https://dc.lft.to/lastmile_qr_scan", "android": "https://dc.lft.to/lastmile_qr_scan"}}, {"is_disabled": 0, "fusion_lat": 0.0, "lat": 38.911982333333334, "type": "electric_scooter", "lon": -77.004254, "is_reserved": 0, "fusion_lon": 0.0, "bike_id": "e56c5cd68c8c3ab0f877cb88573c954c", "name": "e56c5cd68c8c3ab0f877cb88573c954c", "rental_uris": {"ios": "https://dc.lft.to/lastmile_qr_scan", "android": "https://dc.lft.to/lastmile_qr_scan"}}, {"is_disabled": 0, "fusion_lat": 0.0, "lat": 38.95359216666667, "type": "electric_bike", "lon": -76.98095383333333, "is_reserved": 0, "fusion_lon": 0.0, "bike_id": "c28fc25550678c092076d825b7882dc7", "name": "c28fc25550678c092076d825b7882dc7", "rental_uris": {"ios": "https://dc.lft.to/lastmile_qr_scan", "android": "https://dc.lft.to/lastmile_qr_scan"}}, {"is_disabled": 0, "fusion_lat": 0.0, "lat": 38.84613783333333, "type": "electric_bike", "lon": -76.96905666666666, "is_reserved": 0, "fusion_lon": 0.0, "bike_id": "008bc874026d60babbde65339d6cbcfb", "name": "008bc874026d60babbde65339d6cbcfb", "rental_uris": {"ios": "https://dc.lft.to/lastmile_qr_scan", "android": "https://dc.lft.to/lastmile_qr_scan"}}, {"is_disabled": 0, "fusion_lat": 0.0, "lat": 38.895602, "type": "electric_scooter", "lon": -76.93040633333334, "is_reserved": 0, "fusion_lon": 0.0, "bike_id": "72599ea870c8f4474b874bfe4456b8dd", "name": "72599ea870c8f4474b874bfe4456b8dd", "rental_uris": {"ios": "https://dc.lft.to/lastmile_qr_scan", "android": "https://dc.lft.to/lastmile_qr_scan"}}, {"is_disabled": 0, "fusion_lat": 0.0, "lat": 38.84621083333333, "type": "electric_bike", "lon": -76.97819483333333, "is_reserved": 0, "fusion_lon": 0.0, "bike_id": "186cd0acbc896691edc6185d3f297672", "name": "186cd0acbc896691edc6185d3f297672", "rental_uris": {"ios": "https://dc.lft.to/lastmile_qr_scan", "android": "https://dc.lft.to/lastmile_qr_scan"}}, {"is_disabled": 0, "fusion_lat": 0.0, "lat": 38.896289833333334, "type": "electric_scooter", "lon": -77.04049016666667, "is_reserved": 0, "fusion_lon": 0.0, "bike_id": "b221358280bda49a727f56d18812cd4e", "name": "b221358280bda49a727f56d18812cd4e", "rental_uris": {"ios": "https://dc.lft.to/lastmile_qr_scan", "android": "https://dc.lft.to/lastmile_qr_scan"}}, {"is_disabled": 0, "fusion_lat": 0.0, "lat": 38.912816666666664, "type": "electric_scooter", "lon": -77.02244266666666, "is_reserved": 0, "fusion_lon": 0.0, "bike_id": "5119db95e4666473f3ce9f0c5afa49af", "name": "5119db95e4666473f3ce9f0c5afa49af", "rental_uris": {"ios": "https://dc.lft.to/lastmile_qr_scan", "android": "https://dc.lft.to/lastmile_qr_scan"}}, {"is_disabled": 0, "fusion_lat": 0.0, "lat": 38.89749066666667, "type": "electric_scooter", "lon": -77.03167766666667, "is_reserved": 0, "fusion_lon": 0.0, "bike_id": "c9ec036459d73453b4a1fb253019614e", "name": "c9ec036459d73453b4a1fb253019614e", "rental_uris": {"ios": "https://dc.lft.to/lastmile_qr_scan", "android": "https://dc.lft.to/lastmile_qr_scan"}}, {"is_disabled": 0, "fusion_lat": 0.0, "lat": 38.92499133333333, "type": "electric_scooter", "lon": -77.02149183333333, "is_reserved": 0, "fusion_lon": 0.0, "bike_id": "d0b50df087d1c9fccf9eadf777a64963", "name": "d0b50df087d1c9fccf9eadf777a64963", "rental_uris": {"ios": "https://dc.lft.to/lastmile_qr_scan", "android": "https://dc.lft.to/lastmile_qr_scan"}}, {"is_disabled": 0, "fusion_lat": 0.0, "lat": 39.058154, "type": "electric_bike", "lon": -77.1262495, "is_reserved": 0, "fusion_lon": 0.0, "bike_id": "ebc491c7fbd7d21254a523b2af28a4e9", "name": "ebc491c7fbd7d21254a523b2af28a4e9", "rental_uris": {"ios": "https://dc.lft.to/lastmile_qr_scan", "android": "https://dc.lft.to/lastmile_qr_scan"}}, {"is_disabled": 0, "fusion_lat": 0.0, "lat": 38.903775833333334, "type": "electric_scooter", "lon": -77.03871733333334, "is_reserved": 0, "fusion_lon": 0.0, "bike_id": "f4f57aa965f11765077dd9d02d32dc52", "name": "f4f57aa965f11765077dd9d02d32dc52", "rental_uris": {"ios": "https://dc.lft.to/lastmile_qr_scan", "android": "https://dc.lft.to/lastmile_qr_scan"}}, {"is_disabled": 0, "fusion_lat": 0.0, "lat": 38.909284, "type": "electric_scooter", "lon": -76.99958116666667, "is_reserved": 0, "fusion_lon": 0.0, "bike_id": "6d232cfa70524006658fba8e1ba1436b", "name": "6d232cfa70524006658fba8e1ba1436b", "rental_uris": {"ios": "https://dc.lft.to/lastmile_qr_scan", "android": "https://dc.lft.to/lastmile_qr_scan"}}, {"is_disabled": 0, "fusion_lat": 0.0, "lat": 38.9077945, "type": "electric_scooter", "lon": -77.03470966666667, "is_reserved": 0, "fusion_lon": 0.0, "bike_id": "91b9a2b5dcb6139da1cac6a98289a848", "name": "91b9a2b5dcb6139da1cac6a98289a848", "rental_uris": {"ios": "https://dc.lft.to/lastmile_qr_scan", "android": "https://dc.lft.to/lastmile_qr_scan"}}, {"is_disabled": 0, "fusion_lat": 0.0, "lat": 38.91844416666667, "type": "electric_scooter", "lon": -77.032202, "is_reserved": 0, "fusion_lon": 0.0, "bike_id": "1c94f02aba06a492cec6de69d3c38c0d", "name": "1c94f02aba06a492cec6de69d3c38c0d", "rental_uris": {"ios": "https://dc.lft.to/lastmile_qr_scan", "android": "https://dc.lft.to/lastmile_qr_scan"}}, {"is_disabled": 0, "fusion_lat": 0.0, "lat": 38.91753416666667, "type": "electric_scooter", "lon": -77.0321025, "is_reserved": 0, "fusion_lon": 0.0, "bike_id": "d3427e8fb0e76b9e2e2a176c9da239bc", "name": "d3427e8fb0e76b9e2e2a176c9da239bc", "rental_uris": {"ios": "https://dc.lft.to/lastmile_qr_scan", "android": "https://dc.lft.to/lastmile_qr_scan"}}, {"is_disabled": 0, "fusion_lat": 0.0, "lat": 38.90261133333333, "type": "electric_scooter", "lon": -77.01756466666667, "is_reserved": 0, "fusion_lon": 0.0, "bike_id": "5cf0042234c1b14463769ca35e8077f3", "name": "5cf0042234c1b14463769ca35e8077f3", "rental_uris": {"ios": "https://dc.lft.to/lastmile_qr_scan", "android": "https://dc.lft.to/lastmile_qr_scan"}}, {"is_disabled": 0, "fusion_lat": 0.0, "lat": 38.927748333333334, "type": "electric_scooter", "lon": -77.027048, "is_reserved": 0, "fusion_lon": 0.0, "bike_id": "eb6420776811f5d6fedb8cfab90f7304", "name": "eb6420776811f5d6fedb8cfab90f7304", "rental_uris": {"ios": "https://dc.lft.to/lastmile_qr_scan", "android": "https://dc.lft.to/lastmile_qr_scan"}}, {"is_disabled": 0, "fusion_lat": 0.0, "lat": 38.900490166666664, "type": "electric_scooter", "lon": -76.99760716666667, "is_reserved": 0, "fusion_lon": 0.0, "bike_id": "c283806b50eb568ca424e140b7556932", "name": "c283806b50eb568ca424e140b7556932", "rental_uris": {"ios": "https://dc.lft.to/lastmile_qr_scan", "android": "https://dc.lft.to/lastmile_qr_scan"}}, {"is_disabled": 0, "fusion_lat": 0.0, "lat": 38.836882333333335, "type": "electric_scooter", "lon": -77.00581383333333, "is_reserved": 0, "fusion_lon": 0.0, "bike_id": "e8ae66267366a65362812c83b2e8e506", "name": "e8ae66267366a65362812c83b2e8e506", "rental_uris": {"ios": "https://dc.lft.to/lastmile_qr_scan", "android": "https://dc.lft.to/lastmile_qr_scan"}}, {"is_disabled": 0, "fusion_lat": 0.0, "lat": 38.936372, "type": "electric_scooter", "lon": -77.08183233333334, "is_reserved": 0, "fusion_lon": 0.0, "bike_id": "fbafb2a2d88879404297b50f0093813b", "name": "fbafb2a2d88879404297b50f0093813b", "rental_uris": {"ios": "https://dc.lft.to/lastmile_qr_scan", "android": "https://dc.lft.to/lastmile_qr_scan"}}, {"is_disabled": 0, "fusion_lat": 0.0, "lat": 38.938530666666665, "type": "electric_scooter", "lon": -77.0339605, "is_reserved": 0, "fusion_lon": 0.0, "bike_id": "4127563e4c91dc435da5244831bc5fda", "name": "4127563e4c91dc435da5244831bc5fda", "rental_uris": {"ios": "https://dc.lft.to/lastmile_qr_scan", "android": "https://dc.lft.to/lastmile_qr_scan"}}, {"is_disabled": 0, "fusion_lat": 0.0, "lat": 38.9236415, "type": "electric_scooter", "lon": -77.0508875, "is_reserved": 0, "fusion_lon": 0.0, "bike_id": "01d24cd2c6a76191b9cda099fe19d060", "name": "01d24cd2c6a76191b9cda099fe19d060", "rental_uris": {"ios": "https://dc.lft.to/lastmile_qr_scan", "android": "https://dc.lft.to/lastmile_qr_scan"}}, {"is_disabled": 0, "fusion_lat": 0.0, "lat": 38.9349705, "type": "electric_scooter", "lon": -77.05802616666666, "is_reserved": 0, "fusion_lon": 0.0, "bike_id": "ddb00053da2c8cfbafdf9e158e61730e", "name": "ddb00053da2c8cfbafdf9e158e61730e", "rental_uris": {"ios": "https://dc.lft.to/lastmile_qr_scan", "android": "https://dc.lft.to/lastmile_qr_scan"}}, {"is_disabled": 0, "fusion_lat": 0.0, "lat": 38.936756333333335, "type": "electric_bike", "lon": -76.95224033333334, "is_reserved": 0, "fusion_lon": 0.0, "bike_id": "0426dd6d07a368b625d1be22adf87fe7", "name": "0426dd6d07a368b625d1be22adf87fe7", "rental_uris": {"ios": "https://dc.lft.to/lastmile_qr_scan", "android": "https://dc.lft.to/lastmile_qr_scan"}}, {"is_disabled": 0, "fusion_lat": 0.0, "lat": 38.88039716666667, "type": "electric_scooter", "lon": -77.01929516666667, "is_reserved": 0, "fusion_lon": 0.0, "bike_id": "b48042808dfbb6311644546f7c09a264", "name": "b48042808dfbb6311644546f7c09a264", "rental_uris": {"ios": "https://dc.lft.to/lastmile_qr_scan", "android": "https://dc.lft.to/lastmile_qr_scan"}}, {"is_disabled": 0, "fusion_lat": 0.0, "lat": 38.87014933333333, "type": "electric_bike", "lon": -76.96019433333333, "is_reserved": 0, "fusion_lon": 0.0, "bike_id": "83e6c809f17bb675009d3547b59755cd", "name": "83e6c809f17bb675009d3547b59755cd", "rental_uris": {"ios": "https://dc.lft.to/lastmile_qr_scan", "android": "https://dc.lft.to/lastmile_qr_scan"}}, {"is_disabled": 0, "fusion_lat": 0.0, "lat": 38.90503483333333, "type": "electric_scooter", "lon": -76.9792545, "is_reserved": 0, "fusion_lon": 0.0, "bike_id": "b25df1700089f0f6aaa9cfa400d0ac1c", "name": "b25df1700089f0f6aaa9cfa400d0ac1c", "rental_uris": {"ios": "https://dc.lft.to/lastmile_qr_scan", "android": "https://dc.lft.to/lastmile_qr_scan"}}, {"is_disabled": 0, "fusion_lat": 0.0, "lat": 38.86736483333333, "type": "electric_scooter", "lon": -76.98809933333334, "is_reserved": 0, "fusion_lon": 0.0, "bike_id": "e2a9453372d05ccfe1944379d706a6a8", "name": "e2a9453372d05ccfe1944379d706a6a8", "rental_uris": {"ios": "https://dc.lft.to/lastmile_qr_scan", "android": "https://dc.lft.to/lastmile_qr_scan"}}, {"is_disabled": 0, "fusion_lat": 0.0, "lat": 38.90531683333333, "type": "electric_scooter", "lon": -77.0599365, "is_reserved": 0, "fusion_lon": 0.0, "bike_id": "678cbf3d03465a22127a1d7667b39054", "name": "678cbf3d03465a22127a1d7667b39054", "rental_uris": {"ios": "https://dc.lft.to/lastmile_qr_scan", "android": "https://dc.lft.to/lastmile_qr_scan"}}, {"is_disabled": 0, "fusion_lat": 0.0, "lat": 38.91869416666667, "type": "electric_scooter", "lon": -77.04144416666666, "is_reserved": 0, "fusion_lon": 0.0, "bike_id": "580ed622a5626a8cb0cc6e514d848ae0", "name": "580ed622a5626a8cb0cc6e514d848ae0", "rental_uris": {"ios": "https://dc.lft.to/lastmile_qr_scan", "android": "https://dc.lft.to/lastmile_qr_scan"}}, {"is_disabled": 0, "fusion_lat": 0.0, "lat": 38.8968175, "type": "electric_scooter", "lon": -77.0088875, "is_reserved": 0, "fusion_lon": 0.0, "bike_id": "25345a301091f1562a5f1d79c8553ad8", "name": "25345a301091f1562a5f1d79c8553ad8", "rental_uris": {"ios": "https://dc.lft.to/lastmile_qr_scan", "android": "https://dc.lft.to/lastmile_qr_scan"}}, {"is_disabled": 0, "fusion_lat": 0.0, "lat": 38.905597, "type": "electric_scooter", "lon": -77.0347845, "is_reserved": 0, "fusion_lon": 0.0, "bike_id": "7c87805ab85ab442a527b6041dc6c385", "name": "7c87805ab85ab442a527b6041dc6c385", "rental_uris": {"ios": "https://dc.lft.to/lastmile_qr_scan", "android": "https://dc.lft.to/lastmile_qr_scan"}}, {"is_disabled": 0, "fusion_lat": 0.0, "lat": 38.8985365, "type": "electric_scooter", "lon": -76.9903135, "is_reserved": 0, "fusion_lon": 0.0, "bike_id": "60b15575fd2dab49af7354e8508c3d3a", "name": "60b15575fd2dab49af7354e8508c3d3a", "rental_uris": {"ios": "https://dc.lft.to/lastmile_qr_scan", "android": "https://dc.lft.to/lastmile_qr_scan"}}, {"is_disabled": 0, "fusion_lat": 0.0, "lat": 38.929108, "type": "electric_scooter", "lon": -77.06412866666666, "is_reserved": 0, "fusion_lon": 0.0, "bike_id": "b1a71179eeb2653bf748f0abff584a03", "name": "b1a71179eeb2653bf748f0abff584a03", "rental_uris": {"ios": "https://dc.lft.to/lastmile_qr_scan", "android": "https://dc.lft.to/lastmile_qr_scan"}}, {"is_disabled": 0, "fusion_lat": 0.0, "lat": 38.91684016666667, "type": "electric_scooter", "lon": -77.02197733333334, "is_reserved": 0, "fusion_lon": 0.0, "bike_id": "a887e48f7b420bf94acfc30b804b6322", "name": "a887e48f7b420bf94acfc30b804b6322", "rental_uris": {"ios": "https://dc.lft.to/lastmile_qr_scan", "android": "https://dc.lft.to/lastmile_qr_scan"}}, {"is_disabled": 0, "fusion_lat": 0.0, "lat": 38.91475283333333, "type": "electric_scooter", "lon": -77.03182966666667, "is_reserved": 0, "fusion_lon": 0.0, "bike_id": "3d2ea069487cd949cf47065cc7d13b26", "name": "3d2ea069487cd949cf47065cc7d13b26", "rental_uris": {"ios": "https://dc.lft.to/lastmile_qr_scan", "android": "https://dc.lft.to/lastmile_qr_scan"}}, {"is_disabled": 0, "fusion_lat": 0.0, "lat": 38.917600166666666, "type": "electric_scooter", "lon": -77.03857783333333, "is_reserved": 0, "fusion_lon": 0.0, "bike_id": "ffc7bf0c413e75f07532bcaabe147237", "name": "ffc7bf0c413e75f07532bcaabe147237", "rental_uris": {"ios": "https://dc.lft.to/lastmile_qr_scan", "android": "https://dc.lft.to/lastmile_qr_scan"}}, {"is_disabled": 0, "fusion_lat": 0.0, "lat": 38.956408333333336, "type": "electric_bike", "lon": -76.93886133333334, "is_reserved": 0, "fusion_lon": 0.0, "bike_id": "0417d7b3da7f0de2b5fe4b3215f42d73", "name": "0417d7b3da7f0de2b5fe4b3215f42d73", "rental_uris": {"ios": "https://dc.lft.to/lastmile_qr_scan", "android": "https://dc.lft.to/lastmile_qr_scan"}}, {"is_disabled": 0, "fusion_lat": 0.0, "lat": 38.880422833333334, "type": "electric_scooter", "lon": -77.017671, "is_reserved": 0, "fusion_lon": 0.0, "bike_id": "9e10aa8f044326a4952be822e86e5633", "name": "9e10aa8f044326a4952be822e86e5633", "rental_uris": {"ios": "https://dc.lft.to/lastmile_qr_scan", "android": "https://dc.lft.to/lastmile_qr_scan"}}, {"is_disabled": 0, "fusion_lat": 0.0, "lat": 38.897696833333335, "type": "electric_bike", "lon": -76.90439033333334, "is_reserved": 0, "fusion_lon": 0.0, "bike_id": "42b61389b71bbeab6260e6d3a0bf1fac", "name": "42b61389b71bbeab6260e6d3a0bf1fac", "rental_uris": {"ios": "https://dc.lft.to/lastmile_qr_scan", "android": "https://dc.lft.to/lastmile_qr_scan"}}, {"is_disabled": 0, "fusion_lat": 0.0, "lat": 38.930976, "type": "electric_scooter", "lon": -77.02658216666667, "is_reserved": 0, "fusion_lon": 0.0, "bike_id": "deb114deac21aa18896312628dff03ec", "name": "deb114deac21aa18896312628dff03ec", "rental_uris": {"ios": "https://dc.lft.to/lastmile_qr_scan", "android": "https://dc.lft.to/lastmile_qr_scan"}}, {"is_disabled": 0, "fusion_lat": 0.0, "lat": 38.8663105, "type": "electric_scooter", "lon": -76.9871375, "is_reserved": 0, "fusion_lon": 0.0, "bike_id": "d60637d02a303940b2981a34ff7616a9", "name": "d60637d02a303940b2981a34ff7616a9", "rental_uris": {"ios": "https://dc.lft.to/lastmile_qr_scan", "android": "https://dc.lft.to/lastmile_qr_scan"}}, {"is_disabled": 0, "fusion_lat": 0.0, "lat": 38.88506866666667, "type": "electric_scooter", "lon": -77.00566816666667, "is_reserved": 0, "fusion_lon": 0.0, "bike_id": "310b872ddf61abeacb665cc740feefcb", "name": "310b872ddf61abeacb665cc740feefcb", "rental_uris": {"ios": "https://dc.lft.to/lastmile_qr_scan", "android": "https://dc.lft.to/lastmile_qr_scan"}}, {"is_disabled": 0, "fusion_lat": 0.0, "lat": 38.91624933333333, "type": "electric_scooter", "lon": -77.031888, "is_reserved": 0, "fusion_lon": 0.0, "bike_id": "da16fa50f263083d2fe257078b60fa69", "name": "da16fa50f263083d2fe257078b60fa69", "rental_uris": {"ios": "https://dc.lft.to/lastmile_qr_scan", "android": "https://dc.lft.to/lastmile_qr_scan"}}, {"is_disabled": 0, "fusion_lat": 0.0, "lat": 38.89343183333333, "type": "electric_scooter", "lon": -76.92888883333333, "is_reserved": 0, "fusion_lon": 0.0, "bike_id": "e5f684ec3e243c108ffd3c593caf4f23", "name": "e5f684ec3e243c108ffd3c593caf4f23", "rental_uris": {"ios": "https://dc.lft.to/lastmile_qr_scan", "android": "https://dc.lft.to/lastmile_qr_scan"}}, {"is_disabled": 0, "fusion_lat": 0.0, "lat": 38.92048583333333, "type": "electric_scooter", "lon": -77.04175783333334, "is_reserved": 0, "fusion_lon": 0.0, "bike_id": "49e3deb4a2d56b8d36ae2da71c5a07a4", "name": "49e3deb4a2d56b8d36ae2da71c5a07a4", "rental_uris": {"ios": "https://dc.lft.to/lastmile_qr_scan", "android": "https://dc.lft.to/lastmile_qr_scan"}}, {"is_disabled": 0, "fusion_lat": 0.0, "lat": 38.9079745, "type": "electric_scooter", "lon": -76.99698916666667, "is_reserved": 0, "fusion_lon": 0.0, "bike_id": "3a55e2a1c8123ae5d5231d2db4e5d4d4", "name": "3a55e2a1c8123ae5d5231d2db4e5d4d4", "rental_uris": {"ios": "https://dc.lft.to/lastmile_qr_scan", "android": "https://dc.lft.to/lastmile_qr_scan"}}, {"is_disabled": 0, "fusion_lat": 0.0, "lat": 38.920555666666665, "type": "electric_scooter", "lon": -77.0337425, "is_reserved": 0, "fusion_lon": 0.0, "bike_id": "310302c56e2cdd40249808db6dba0fb8", "name": "310302c56e2cdd40249808db6dba0fb8", "rental_uris": {"ios": "https://dc.lft.to/lastmile_qr_scan", "android": "https://dc.lft.to/lastmile_qr_scan"}}, {"is_disabled": 0, "fusion_lat": 0.0, "lat": 38.874794, "type": "electric_scooter", "lon": -77.00927383333334, "is_reserved": 0, "fusion_lon": 0.0, "bike_id": "165f99a89097b1ea302022029d9416bd", "name": "165f99a89097b1ea302022029d9416bd", "rental_uris": {"ios": "https://dc.lft.to/lastmile_qr_scan", "android": "https://dc.lft.to/lastmile_qr_scan"}}, {"is_disabled": 0, "fusion_lat": 0.0, "lat": 38.930709, "type": "electric_scooter", "lon": -77.04176516666666, "is_reserved": 0, "fusion_lon": 0.0, "bike_id": "98b30bdea7c3e6cb3e1038b22299b871", "name": "98b30bdea7c3e6cb3e1038b22299b871", "rental_uris": {"ios": "https://dc.lft.to/lastmile_qr_scan", "android": "https://dc.lft.to/lastmile_qr_scan"}}, {"is_disabled": 0, "fusion_lat": 0.0, "lat": 38.91719616666666, "type": "electric_scooter", "lon": -77.03838583333334, "is_reserved": 0, "fusion_lon": 0.0, "bike_id": "838d4ce1dc138177ee3cef3744c5a8a3", "name": "838d4ce1dc138177ee3cef3744c5a8a3", "rental_uris": {"ios": "https://dc.lft.to/lastmile_qr_scan", "android": "https://dc.lft.to/lastmile_qr_scan"}}, {"is_disabled": 0, "fusion_lat": 0.0, "lat": 38.90269, "type": "electric_scooter", "lon": -77.017353, "is_reserved": 0, "fusion_lon": 0.0, "bike_id": "e113705c218d80f5544fd4748e7ed229", "name": "e113705c218d80f5544fd4748e7ed229", "rental_uris": {"ios": "https://dc.lft.to/lastmile_qr_scan", "android": "https://dc.lft.to/lastmile_qr_scan"}}, {"is_disabled": 0, "fusion_lat": 0.0, "lat": 38.941803166666666, "type": "electric_scooter", "lon": -77.030925, "is_reserved": 0, "fusion_lon": 0.0, "bike_id": "9a33cc8e706b99ca445f06008ec8ea0d", "name": "9a33cc8e706b99ca445f06008ec8ea0d", "rental_uris": {"ios": "https://dc.lft.to/lastmile_qr_scan", "android": "https://dc.lft.to/lastmile_qr_scan"}}, {"is_disabled": 0, "fusion_lat": 0.0, "lat": 38.8990815, "type": "electric_scooter", "lon": -76.93352816666666, "is_reserved": 0, "fusion_lon": 0.0, "bike_id": "ca595f84dd0a6dadedc5e1fff4cea342", "name": "ca595f84dd0a6dadedc5e1fff4cea342", "rental_uris": {"ios": "https://dc.lft.to/lastmile_qr_scan", "android": "https://dc.lft.to/lastmile_qr_scan"}}, {"is_disabled": 0, "fusion_lat": 0.0, "lat": 38.8580825, "type": "electric_scooter", "lon": -76.98660533333333, "is_reserved": 0, "fusion_lon": 0.0, "bike_id": "099b80434d11111ca2dffa1b23eb0385", "name": "099b80434d11111ca2dffa1b23eb0385", "rental_uris": {"ios": "https://dc.lft.to/lastmile_qr_scan", "android": "https://dc.lft.to/lastmile_qr_scan"}}, {"is_disabled": 0, "fusion_lat": 0.0, "lat": 38.89016933333333, "type": "electric_scooter", "lon": -76.93745566666666, "is_reserved": 0, "fusion_lon": 0.0, "bike_id": "edfabb46d4446f17d889c00ada98dd7f", "name": "edfabb46d4446f17d889c00ada98dd7f", "rental_uris": {"ios": "https://dc.lft.to/lastmile_qr_scan", "android": "https://dc.lft.to/lastmile_qr_scan"}}, {"is_disabled": 0, "fusion_lat": 0.0, "lat": 38.90868316666667, "type": "electric_scooter", "lon": -77.08597516666667, "is_reserved": 0, "fusion_lon": 0.0, "bike_id": "80e2e76e1e27b61b88122bd8c1082211", "name": "80e2e76e1e27b61b88122bd8c1082211", "rental_uris": {"ios": "https://dc.lft.to/lastmile_qr_scan", "android": "https://dc.lft.to/lastmile_qr_scan"}}, {"is_disabled": 0, "fusion_lat": 0.0, "lat": 38.9015785, "type": "electric_scooter", "lon": -77.04043433333334, "is_reserved": 0, "fusion_lon": 0.0, "bike_id": "1b60030864ed07c0fabdc02b4d3bf4c6", "name": "1b60030864ed07c0fabdc02b4d3bf4c6", "rental_uris": {"ios": "https://dc.lft.to/lastmile_qr_scan", "android": "https://dc.lft.to/lastmile_qr_scan"}}, {"is_disabled": 0, "fusion_lat": 0.0, "lat": 38.901098166666664, "type": "electric_scooter", "lon": -77.0513815, "is_reserved": 0, "fusion_lon": 0.0, "bike_id": "1d901808c893508f7dcd770a6903163a", "name": "1d901808c893508f7dcd770a6903163a", "rental_uris": {"ios": "https://dc.lft.to/lastmile_qr_scan", "android": "https://dc.lft.to/lastmile_qr_scan"}}, {"is_disabled": 0, "fusion_lat": 0.0, "lat": 38.930446333333336, "type": "electric_scooter", "lon": -77.032237, "is_reserved": 0, "fusion_lon": 0.0, "bike_id": "cebf91de60a42620df4de308a0853057", "name": "cebf91de60a42620df4de308a0853057", "rental_uris": {"ios": "https://dc.lft.to/lastmile_qr_scan", "android": "https://dc.lft.to/lastmile_qr_scan"}}, {"is_disabled": 0, "fusion_lat": 0.0, "lat": 38.89614616666667, "type": "electric_scooter", "lon": -76.9558835, "is_reserved": 0, "fusion_lon": 0.0, "bike_id": "8902eed301984e4b649e02642a5f7495", "name": "8902eed301984e4b649e02642a5f7495", "rental_uris": {"ios": "https://dc.lft.to/lastmile_qr_scan", "android": "https://dc.lft.to/lastmile_qr_scan"}}, {"is_disabled": 0, "fusion_lat": 0.0, "lat": 38.9232575, "type": "electric_scooter", "lon": -77.03952683333333, "is_reserved": 0, "fusion_lon": 0.0, "bike_id": "3239d40d503b193f90764aa38048e48a", "name": "3239d40d503b193f90764aa38048e48a", "rental_uris": {"ios": "https://dc.lft.to/lastmile_qr_scan", "android": "https://dc.lft.to/lastmile_qr_scan"}}, {"is_disabled": 0, "fusion_lat": 0.0, "lat": 38.903876833333335, "type": "electric_scooter", "lon": -77.0446685, "is_reserved": 0, "fusion_lon": 0.0, "bike_id": "6fc843883cf5ec597f12c83992ecebb7", "name": "6fc843883cf5ec597f12c83992ecebb7", "rental_uris": {"ios": "https://dc.lft.to/lastmile_qr_scan", "android": "https://dc.lft.to/lastmile_qr_scan"}}, {"is_disabled": 0, "fusion_lat": 0.0, "lat": 38.911095333333336, "type": "electric_scooter", "lon": -77.00213366666667, "is_reserved": 0, "fusion_lon": 0.0, "bike_id": "7720a884fbef660818d3903abde36b44", "name": "7720a884fbef660818d3903abde36b44", "rental_uris": {"ios": "https://dc.lft.to/lastmile_qr_scan", "android": "https://dc.lft.to/lastmile_qr_scan"}}, {"is_disabled": 0, "fusion_lat": 0.0, "lat": 38.89612, "type": "electric_scooter", "lon": -77.04410383333334, "is_reserved": 0, "fusion_lon": 0.0, "bike_id": "575617724f4b98f742b3e5ec4319b673", "name": "575617724f4b98f742b3e5ec4319b673", "rental_uris": {"ios": "https://dc.lft.to/lastmile_qr_scan", "android": "https://dc.lft.to/lastmile_qr_scan"}}, {"is_disabled": 0, "fusion_lat": 0.0, "lat": 38.907144333333335, "type": "electric_scooter", "lon": -77.02973433333334, "is_reserved": 0, "fusion_lon": 0.0, "bike_id": "9ce5be314eaf1c9d7134d1603349252e", "name": "9ce5be314eaf1c9d7134d1603349252e", "rental_uris": {"ios": "https://dc.lft.to/lastmile_qr_scan", "android": "https://dc.lft.to/lastmile_qr_scan"}}, {"is_disabled": 0, "fusion_lat": 0.0, "lat": 38.9026485, "type": "electric_scooter", "lon": -77.01741, "is_reserved": 0, "fusion_lon": 0.0, "bike_id": "28c260be0a4627b40eb7b0c53c23fbe1", "name": "28c260be0a4627b40eb7b0c53c23fbe1", "rental_uris": {"ios": "https://dc.lft.to/lastmile_qr_scan", "android": "https://dc.lft.to/lastmile_qr_scan"}}, {"is_disabled": 0, "fusion_lat": 0.0, "lat": 38.918967, "type": "electric_scooter", "lon": -77.0390885, "is_reserved": 0, "fusion_lon": 0.0, "bike_id": "443c8763615bea9760a61762f35834a1", "name": "443c8763615bea9760a61762f35834a1", "rental_uris": {"ios": "https://dc.lft.to/lastmile_qr_scan", "android": "https://dc.lft.to/lastmile_qr_scan"}}, {"is_disabled": 0, "fusion_lat": 0.0, "lat": 38.92154566666667, "type": "electric_scooter", "lon": -77.04213733333333, "is_reserved": 0, "fusion_lon": 0.0, "bike_id": "5899f8c09568408757be417a54ac1d77", "name": "5899f8c09568408757be417a54ac1d77", "rental_uris": {"ios": "https://dc.lft.to/lastmile_qr_scan", "android": "https://dc.lft.to/lastmile_qr_scan"}}, {"is_disabled": 0, "fusion_lat": 0.0, "lat": 38.9055445, "type": "electric_scooter", "lon": -77.0347705, "is_reserved": 0, "fusion_lon": 0.0, "bike_id": "212c6647cca24fb4cfcbd0e0c8aef413", "name": "212c6647cca24fb4cfcbd0e0c8aef413", "rental_uris": {"ios": "https://dc.lft.to/lastmile_qr_scan", "android": "https://dc.lft.to/lastmile_qr_scan"}}, {"is_disabled": 0, "fusion_lat": 0.0, "lat": 38.93099566666667, "type": "electric_scooter", "lon": -77.0250735, "is_reserved": 0, "fusion_lon": 0.0, "bike_id": "a6f1c5444a7065d39b5761bb21b46d22", "name": "a6f1c5444a7065d39b5761bb21b46d22", "rental_uris": {"ios": "https://dc.lft.to/lastmile_qr_scan", "android": "https://dc.lft.to/lastmile_qr_scan"}}, {"is_disabled": 0, "fusion_lat": 0.0, "lat": 38.895629166666666, "type": "electric_bike", "lon": -77.12731866666667, "is_reserved": 0, "fusion_lon": 0.0, "bike_id": "288e44c7f111a76cea7b88f97c5a66b3", "name": "288e44c7f111a76cea7b88f97c5a66b3", "rental_uris": {"ios": "https://dc.lft.to/lastmile_qr_scan", "android": "https://dc.lft.to/lastmile_qr_scan"}}, {"is_disabled": 0, "fusion_lat": 0.0, "lat": 38.918760166666665, "type": "electric_scooter", "lon": -77.025965, "is_reserved": 0, "fusion_lon": 0.0, "bike_id": "dd3a7470e9c6f0be4935b350c0df4d4e", "name": "dd3a7470e9c6f0be4935b350c0df4d4e", "rental_uris": {"ios": "https://dc.lft.to/lastmile_qr_scan", "android": "https://dc.lft.to/lastmile_qr_scan"}}, {"is_disabled": 0, "fusion_lat": 0.0, "lat": 38.921555833333336, "type": "electric_scooter", "lon": -77.02424133333334, "is_reserved": 0, "fusion_lon": 0.0, "bike_id": "edba300d9cc9caf0541d267adf45c149", "name": "edba300d9cc9caf0541d267adf45c149", "rental_uris": {"ios": "https://dc.lft.to/lastmile_qr_scan", "android": "https://dc.lft.to/lastmile_qr_scan"}}, {"is_disabled": 0, "fusion_lat": 0.0, "lat": 38.91415416666667, "type": "electric_scooter", "lon": -77.019565, "is_reserved": 0, "fusion_lon": 0.0, "bike_id": "977f84c72232f6348ea2b2ffa18e746f", "name": "977f84c72232f6348ea2b2ffa18e746f", "rental_uris": {"ios": "https://dc.lft.to/lastmile_qr_scan", "android": "https://dc.lft.to/lastmile_qr_scan"}}, {"is_disabled": 0, "fusion_lat": 0.0, "lat": 38.89536283333333, "type": "electric_scooter", "lon": -76.94889683333334, "is_reserved": 0, "fusion_lon": 0.0, "bike_id": "5799399afb1fa2aac49de812481656aa", "name": "5799399afb1fa2aac49de812481656aa", "rental_uris": {"ios": "https://dc.lft.to/lastmile_qr_scan", "android": "https://dc.lft.to/lastmile_qr_scan"}}, {"is_disabled": 0, "fusion_lat": 0.0, "lat": 38.89821116666667, "type": "electric_scooter", "lon": -77.03308633333333, "is_reserved": 0, "fusion_lon": 0.0, "bike_id": "a1320adebc3a5352fade4ca8364d94ae", "name": "a1320adebc3a5352fade4ca8364d94ae", "rental_uris": {"ios": "https://dc.lft.to/lastmile_qr_scan", "android": "https://dc.lft.to/lastmile_qr_scan"}}, {"is_disabled": 0, "fusion_lat": 0.0, "lat": 38.91733766666667, "type": "electric_scooter", "lon": -77.03662333333334, "is_reserved": 0, "fusion_lon": 0.0, "bike_id": "45fe51af80c4a75659de74e1b9f6058e", "name": "45fe51af80c4a75659de74e1b9f6058e", "rental_uris": {"ios": "https://dc.lft.to/lastmile_qr_scan", "android": "https://dc.lft.to/lastmile_qr_scan"}}, {"is_disabled": 0, "fusion_lat": 0.0, "lat": 38.93430383333333, "type": "electric_scooter", "lon": -76.9650635, "is_reserved": 0, "fusion_lon": 0.0, "bike_id": "0a87f10f77258896b6fbeb39d659a1ac", "name": "0a87f10f77258896b6fbeb39d659a1ac", "rental_uris": {"ios": "https://dc.lft.to/lastmile_qr_scan", "android": "https://dc.lft.to/lastmile_qr_scan"}}, {"is_disabled": 0, "fusion_lat": 0.0, "lat": 38.88015633333333, "type": "electric_bike", "lon": -77.11049, "is_reserved": 0, "fusion_lon": 0.0, "bike_id": "1f9b36a787428297d22885a3782b4eaa", "name": "1f9b36a787428297d22885a3782b4eaa", "rental_uris": {"ios": "https://dc.lft.to/lastmile_qr_scan", "android": "https://dc.lft.to/lastmile_qr_scan"}}, {"is_disabled": 0, "fusion_lat": 0.0, "lat": 38.918282833333336, "type": "electric_scooter", "lon": -77.02704583333333, "is_reserved": 0, "fusion_lon": 0.0, "bike_id": "cc6bd5dc438fb3573c2c5c82ddf4e898", "name": "cc6bd5dc438fb3573c2c5c82ddf4e898", "rental_uris": {"ios": "https://dc.lft.to/lastmile_qr_scan", "android": "https://dc.lft.to/lastmile_qr_scan"}}, {"is_disabled": 0, "fusion_lat": 0.0, "lat": 38.99833616666667, "type": "electric_bike", "lon": -77.02906566666667, "is_reserved": 0, "fusion_lon": 0.0, "bike_id": "9ddc77ae2d16d751f175f530ba0513e2", "name": "9ddc77ae2d16d751f175f530ba0513e2", "rental_uris": {"ios": "https://dc.lft.to/lastmile_qr_scan", "android": "https://dc.lft.to/lastmile_qr_scan"}}, {"is_disabled": 0, "fusion_lat": 0.0, "lat": 38.885497, "type": "electric_bike", "lon": -77.11785633333334, "is_reserved": 0, "fusion_lon": 0.0, "bike_id": "b77a065f1c7e1f9ff57dc36a2bd045d3", "name": "b77a065f1c7e1f9ff57dc36a2bd045d3", "rental_uris": {"ios": "https://dc.lft.to/lastmile_qr_scan", "android": "https://dc.lft.to/lastmile_qr_scan"}}, {"is_disabled": 0, "fusion_lat": 0.0, "lat": 38.920496166666666, "type": "electric_scooter", "lon": -77.022017, "is_reserved": 0, "fusion_lon": 0.0, "bike_id": "2c1c19a72aa020e1942b90ac09de5251", "name": "2c1c19a72aa020e1942b90ac09de5251", "rental_uris": {"ios": "https://dc.lft.to/lastmile_qr_scan", "android": "https://dc.lft.to/lastmile_qr_scan"}}, {"is_disabled": 0, "fusion_lat": 0.0, "lat": 38.922165166666666, "type": "electric_scooter", "lon": -77.03658533333333, "is_reserved": 0, "fusion_lon": 0.0, "bike_id": "3244b7d46c7937d01c7a01f37320131e", "name": "3244b7d46c7937d01c7a01f37320131e", "rental_uris": {"ios": "https://dc.lft.to/lastmile_qr_scan", "android": "https://dc.lft.to/lastmile_qr_scan"}}, {"is_disabled": 0, "fusion_lat": 0.0, "lat": 38.87203483333333, "type": "electric_scooter", "lon": -77.00607133333334, "is_reserved": 0, "fusion_lon": 0.0, "bike_id": "8580edeb4e66124b691b05198249aae7", "name": "8580edeb4e66124b691b05198249aae7", "rental_uris": {"ios": "https://dc.lft.to/lastmile_qr_scan", "android": "https://dc.lft.to/lastmile_qr_scan"}}, {"is_disabled": 0, "fusion_lat": 0.0, "lat": 38.901279, "type": "electric_scooter", "lon": -77.02539833333333, "is_reserved": 0, "fusion_lon": 0.0, "bike_id": "174bf2bae6d2e9ccf7e8dcfc5bc9ad98", "name": "174bf2bae6d2e9ccf7e8dcfc5bc9ad98", "rental_uris": {"ios": "https://dc.lft.to/lastmile_qr_scan", "android": "https://dc.lft.to/lastmile_qr_scan"}}, {"is_disabled": 0, "fusion_lat": 0.0, "lat": 38.89902516666667, "type": "electric_scooter", "lon": -77.03298116666667, "is_reserved": 0, "fusion_lon": 0.0, "bike_id": "c15fd1f24a12afdfe92beb958078051e", "name": "c15fd1f24a12afdfe92beb958078051e", "rental_uris": {"ios": "https://dc.lft.to/lastmile_qr_scan", "android": "https://dc.lft.to/lastmile_qr_scan"}}, {"is_disabled": 0, "fusion_lat": 0.0, "lat": 38.875337, "type": "electric_scooter", "lon": -77.00053633333333, "is_reserved": 0, "fusion_lon": 0.0, "bike_id": "b86fda8a9eec4587d5fe9cf1c34e51a3", "name": "b86fda8a9eec4587d5fe9cf1c34e51a3", "rental_uris": {"ios": "https://dc.lft.to/lastmile_qr_scan", "android": "https://dc.lft.to/lastmile_qr_scan"}}, {"is_disabled": 0, "fusion_lat": 0.0, "lat": 38.9489855, "type": "electric_bike", "lon": -76.96371466666666, "is_reserved": 0, "fusion_lon": 0.0, "bike_id": "fb774ddf961833767271620c9f03d598", "name": "fb774ddf961833767271620c9f03d598", "rental_uris": {"ios": "https://dc.lft.to/lastmile_qr_scan", "android": "https://dc.lft.to/lastmile_qr_scan"}}, {"is_disabled": 0, "fusion_lat": 0.0, "lat": 38.892504, "type": "electric_scooter", "lon": -76.94324533333334, "is_reserved": 0, "fusion_lon": 0.0, "bike_id": "2a54d25e5cbf79862eb6165c585aace5", "name": "2a54d25e5cbf79862eb6165c585aace5", "rental_uris": {"ios": "https://dc.lft.to/lastmile_qr_scan", "android": "https://dc.lft.to/lastmile_qr_scan"}}, {"is_disabled": 0, "fusion_lat": 0.0, "lat": 38.91619466666667, "type": "electric_scooter", "lon": -77.02702216666667, "is_reserved": 0, "fusion_lon": 0.0, "bike_id": "c671e7600231cf7ffac73789a6c96a6d", "name": "c671e7600231cf7ffac73789a6c96a6d", "rental_uris": {"ios": "https://dc.lft.to/lastmile_qr_scan", "android": "https://dc.lft.to/lastmile_qr_scan"}}, {"is_disabled": 0, "fusion_lat": 0.0, "lat": 38.916348666666664, "type": "electric_scooter", "lon": -77.02289933333333, "is_reserved": 0, "fusion_lon": 0.0, "bike_id": "b9fc27ea051e58977474634ded850fe4", "name": "b9fc27ea051e58977474634ded850fe4", "rental_uris": {"ios": "https://dc.lft.to/lastmile_qr_scan", "android": "https://dc.lft.to/lastmile_qr_scan"}}, {"is_disabled": 0, "fusion_lat": 0.0, "lat": 38.8845515, "type": "electric_scooter", "lon": -77.00578016666667, "is_reserved": 0, "fusion_lon": 0.0, "bike_id": "4d44a456a86f771d49bed5326e0b87e2", "name": "4d44a456a86f771d49bed5326e0b87e2", "rental_uris": {"ios": "https://dc.lft.to/lastmile_qr_scan", "android": "https://dc.lft.to/lastmile_qr_scan"}}, {"is_disabled": 0, "fusion_lat": 0.0, "lat": 38.92153866666666, "type": "electric_scooter", "lon": -77.03867733333334, "is_reserved": 0, "fusion_lon": 0.0, "bike_id": "2d50c11196d0cab75ed4e20ec8237a6e", "name": "2d50c11196d0cab75ed4e20ec8237a6e", "rental_uris": {"ios": "https://dc.lft.to/lastmile_qr_scan", "android": "https://dc.lft.to/lastmile_qr_scan"}}, {"is_disabled": 0, "fusion_lat": 0.0, "lat": 38.903859, "type": "electric_scooter", "lon": -77.038684, "is_reserved": 0, "fusion_lon": 0.0, "bike_id": "bcb888c7b52bc9d7c2d9c6ca472b557b", "name": "bcb888c7b52bc9d7c2d9c6ca472b557b", "rental_uris": {"ios": "https://dc.lft.to/lastmile_qr_scan", "android": "https://dc.lft.to/lastmile_qr_scan"}}, {"is_disabled": 0, "fusion_lat": 0.0, "lat": 38.901440666666666, "type": "electric_scooter", "lon": -76.997971, "is_reserved": 0, "fusion_lon": 0.0, "bike_id": "65942d2b8e6ef20094879f2df4f8003b", "name": "65942d2b8e6ef20094879f2df4f8003b", "rental_uris": {"ios": "https://dc.lft.to/lastmile_qr_scan", "android": "https://dc.lft.to/lastmile_qr_scan"}}, {"is_disabled": 0, "fusion_lat": 0.0, "lat": 38.95358483333333, "type": "electric_bike", "lon": -76.98095033333334, "is_reserved": 0, "fusion_lon": 0.0, "bike_id": "af5a6a54b508528609b10558a02b03ff", "name": "af5a6a54b508528609b10558a02b03ff", "rental_uris": {"ios": "https://dc.lft.to/lastmile_qr_scan", "android": "https://dc.lft.to/lastmile_qr_scan"}}, {"is_disabled": 0, "fusion_lat": 0.0, "lat": 38.9127215, "type": "electric_scooter", "lon": -77.04170883333333, "is_reserved": 0, "fusion_lon": 0.0, "bike_id": "c9f921e63dce2b0244ba0b8bf17eb57f", "name": "c9f921e63dce2b0244ba0b8bf17eb57f", "rental_uris": {"ios": "https://dc.lft.to/lastmile_qr_scan", "android": "https://dc.lft.to/lastmile_qr_scan"}}, {"is_disabled": 0, "fusion_lat": 0.0, "lat": 38.87148466666667, "type": "electric_bike", "lon": -76.93668566666666, "is_reserved": 0, "fusion_lon": 0.0, "bike_id": "d301f083267efd5de5e4bb2a1c834e95", "name": "d301f083267efd5de5e4bb2a1c834e95", "rental_uris": {"ios": "https://dc.lft.to/lastmile_qr_scan", "android": "https://dc.lft.to/lastmile_qr_scan"}}, {"is_disabled": 0, "fusion_lat": 0.0, "lat": 38.90850616666667, "type": "electric_scooter", "lon": -77.02464816666667, "is_reserved": 0, "fusion_lon": 0.0, "bike_id": "f27b8b2e5d7194d6c5e1733917c35bd7", "name": "f27b8b2e5d7194d6c5e1733917c35bd7", "rental_uris": {"ios": "https://dc.lft.to/lastmile_qr_scan", "android": "https://dc.lft.to/lastmile_qr_scan"}}, {"is_disabled": 0, "fusion_lat": 0.0, "lat": 38.896196833333335, "type": "electric_scooter", "lon": -76.99416883333333, "is_reserved": 0, "fusion_lon": 0.0, "bike_id": "7a6c300bfb2d9f269fcb0841fab06120", "name": "7a6c300bfb2d9f269fcb0841fab06120", "rental_uris": {"ios": "https://dc.lft.to/lastmile_qr_scan", "android": "https://dc.lft.to/lastmile_qr_scan"}}, {"is_disabled": 0, "fusion_lat": 0.0, "lat": 38.9249945, "type": "electric_scooter", "lon": -77.02150183333333, "is_reserved": 0, "fusion_lon": 0.0, "bike_id": "01ce3f5a4ae4bca3610b8bd212636835", "name": "01ce3f5a4ae4bca3610b8bd212636835", "rental_uris": {"ios": "https://dc.lft.to/lastmile_qr_scan", "android": "https://dc.lft.to/lastmile_qr_scan"}}, {"is_disabled": 0, "fusion_lat": 0.0, "lat": 38.90005583333333, "type": "electric_scooter", "lon": -77.00622033333333, "is_reserved": 0, "fusion_lon": 0.0, "bike_id": "1c04647705ede7d4575723993945aca9", "name": "1c04647705ede7d4575723993945aca9", "rental_uris": {"ios": "https://dc.lft.to/lastmile_qr_scan", "android": "https://dc.lft.to/lastmile_qr_scan"}}, {"is_disabled": 0, "fusion_lat": 0.0, "lat": 38.94803183333333, "type": "electric_bike", "lon": -77.00809583333333, "is_reserved": 0, "fusion_lon": 0.0, "bike_id": "e45e5873595d59c97f5d00f178573aab", "name": "e45e5873595d59c97f5d00f178573aab", "rental_uris": {"ios": "https://dc.lft.to/lastmile_qr_scan", "android": "https://dc.lft.to/lastmile_qr_scan"}}, {"is_disabled": 0, "fusion_lat": 0.0, "lat": 38.90183716666667, "type": "electric_scooter", "lon": -77.02550683333334, "is_reserved": 0, "fusion_lon": 0.0, "bike_id": "7d4e90c1a3e2afc7096f8549ccf6214a", "name": "7d4e90c1a3e2afc7096f8549ccf6214a", "rental_uris": {"ios": "https://dc.lft.to/lastmile_qr_scan", "android": "https://dc.lft.to/lastmile_qr_scan"}}, {"is_disabled": 0, "fusion_lat": 0.0, "lat": 38.938283, "type": "electric_bike", "lon": -77.03287583333334, "is_reserved": 0, "fusion_lon": 0.0, "bike_id": "15733016c2f8baea0693dd79ed30c988", "name": "15733016c2f8baea0693dd79ed30c988", "rental_uris": {"ios": "https://dc.lft.to/lastmile_qr_scan", "android": "https://dc.lft.to/lastmile_qr_scan"}}, {"is_disabled": 0, "fusion_lat": 0.0, "lat": 38.88317416666667, "type": "electric_scooter", "lon": -77.00935783333334, "is_reserved": 0, "fusion_lon": 0.0, "bike_id": "7490989cea39db28d02a47105129352c", "name": "7490989cea39db28d02a47105129352c", "rental_uris": {"ios": "https://dc.lft.to/lastmile_qr_scan", "android": "https://dc.lft.to/lastmile_qr_scan"}}, {"is_disabled": 0, "fusion_lat": 0.0, "lat": 38.92292966666667, "type": "electric_scooter", "lon": -77.03193816666666, "is_reserved": 0, "fusion_lon": 0.0, "bike_id": "aafb8c1ebc88687797189b789deab144", "name": "aafb8c1ebc88687797189b789deab144", "rental_uris": {"ios": "https://dc.lft.to/lastmile_qr_scan", "android": "https://dc.lft.to/lastmile_qr_scan"}}, {"is_disabled": 0, "fusion_lat": 0.0, "lat": 38.85721983333333, "type": "electric_scooter", "lon": -76.9809315, "is_reserved": 0, "fusion_lon": 0.0, "bike_id": "2a6e52917960177d24da822791256c1f", "name": "2a6e52917960177d24da822791256c1f", "rental_uris": {"ios": "https://dc.lft.to/lastmile_qr_scan", "android": "https://dc.lft.to/lastmile_qr_scan"}}, {"is_disabled": 0, "fusion_lat": 0.0, "lat": 38.91797533333333, "type": "electric_scooter", "lon": -77.03654333333333, "is_reserved": 0, "fusion_lon": 0.0, "bike_id": "badb765a11d1ed857290519d0dddeb69", "name": "badb765a11d1ed857290519d0dddeb69", "rental_uris": {"ios": "https://dc.lft.to/lastmile_qr_scan", "android": "https://dc.lft.to/lastmile_qr_scan"}}, {"is_disabled": 0, "fusion_lat": 0.0, "lat": 38.876316, "type": "electric_scooter", "lon": -76.9652695, "is_reserved": 0, "fusion_lon": 0.0, "bike_id": "3f001af6eafa2fc144cb4ed0ca122d9a", "name": "3f001af6eafa2fc144cb4ed0ca122d9a", "rental_uris": {"ios": "https://dc.lft.to/lastmile_qr_scan", "android": "https://dc.lft.to/lastmile_qr_scan"}}, {"is_disabled": 0, "fusion_lat": 0.0, "lat": 38.94181533333333, "type": "electric_scooter", "lon": -77.02499916666666, "is_reserved": 0, "fusion_lon": 0.0, "bike_id": "097cf2b02946ae7b229b963f6c833388", "name": "097cf2b02946ae7b229b963f6c833388", "rental_uris": {"ios": "https://dc.lft.to/lastmile_qr_scan", "android": "https://dc.lft.to/lastmile_qr_scan"}}, {"is_disabled": 0, "fusion_lat": 0.0, "lat": 38.90272483333333, "type": "electric_scooter", "lon": -77.01962966666666, "is_reserved": 0, "fusion_lon": 0.0, "bike_id": "e3670d4ba83151c4d3d413d4bbb1d204", "name": "e3670d4ba83151c4d3d413d4bbb1d204", "rental_uris": {"ios": "https://dc.lft.to/lastmile_qr_scan", "android": "https://dc.lft.to/lastmile_qr_scan"}}, {"is_disabled": 0, "fusion_lat": 0.0, "lat": 38.902838, "type": "electric_scooter", "lon": -77.033655, "is_reserved": 0, "fusion_lon": 0.0, "bike_id": "d26c77f23fae9470ef9b521ef21dc203", "name": "d26c77f23fae9470ef9b521ef21dc203", "rental_uris": {"ios": "https://dc.lft.to/lastmile_qr_scan", "android": "https://dc.lft.to/lastmile_qr_scan"}}, {"is_disabled": 0, "fusion_lat": 0.0, "lat": 38.842962166666666, "type": "electric_scooter", "lon": -76.999428, "is_reserved": 0, "fusion_lon": 0.0, "bike_id": "e426f0adc9d7fbadeed44e876b60bd16", "name": "e426f0adc9d7fbadeed44e876b60bd16", "rental_uris": {"ios": "https://dc.lft.to/lastmile_qr_scan", "android": "https://dc.lft.to/lastmile_qr_scan"}}, {"is_disabled": 0, "fusion_lat": 0.0, "lat": 38.93320283333333, "type": "electric_scooter", "lon": -77.03281833333334, "is_reserved": 0, "fusion_lon": 0.0, "bike_id": "cef894a727faa5d496d98b40569f487a", "name": "cef894a727faa5d496d98b40569f487a", "rental_uris": {"ios": "https://dc.lft.to/lastmile_qr_scan", "android": "https://dc.lft.to/lastmile_qr_scan"}}, {"is_disabled": 0, "fusion_lat": 0.0, "lat": 38.902574666666666, "type": "electric_scooter", "lon": -77.01736516666666, "is_reserved": 0, "fusion_lon": 0.0, "bike_id": "ee40c69246b441aa0caae6a66cf686c2", "name": "ee40c69246b441aa0caae6a66cf686c2", "rental_uris": {"ios": "https://dc.lft.to/lastmile_qr_scan", "android": "https://dc.lft.to/lastmile_qr_scan"}}, {"is_disabled": 0, "fusion_lat": 0.0, "lat": 38.9095645, "type": "electric_scooter", "lon": -77.04656316666667, "is_reserved": 0, "fusion_lon": 0.0, "bike_id": "2c5f9daba07a9e72b3e460ffbefcc3a0", "name": "2c5f9daba07a9e72b3e460ffbefcc3a0", "rental_uris": {"ios": "https://dc.lft.to/lastmile_qr_scan", "android": "https://dc.lft.to/lastmile_qr_scan"}}, {"is_disabled": 0, "fusion_lat": 0.0, "lat": 38.886956166666664, "type": "electric_scooter", "lon": -77.00204033333333, "is_reserved": 0, "fusion_lon": 0.0, "bike_id": "cbc10f21d36a6a26ff185ee27e16cbad", "name": "cbc10f21d36a6a26ff185ee27e16cbad", "rental_uris": {"ios": "https://dc.lft.to/lastmile_qr_scan", "android": "https://dc.lft.to/lastmile_qr_scan"}}, {"is_disabled": 0, "fusion_lat": 0.0, "lat": 38.906418, "type": "electric_scooter", "lon": -77.01142833333333, "is_reserved": 0, "fusion_lon": 0.0, "bike_id": "28b63aa0e57e03ffbe8b52fa15b82b70", "name": "28b63aa0e57e03ffbe8b52fa15b82b70", "rental_uris": {"ios": "https://dc.lft.to/lastmile_qr_scan", "android": "https://dc.lft.to/lastmile_qr_scan"}}, {"is_disabled": 0, "fusion_lat": 0.0, "lat": 38.84424633333333, "type": "electric_scooter", "lon": -76.99772433333334, "is_reserved": 0, "fusion_lon": 0.0, "bike_id": "f8e863b7da0de26028f9953fbf0c8c05", "name": "f8e863b7da0de26028f9953fbf0c8c05", "rental_uris": {"ios": "https://dc.lft.to/lastmile_qr_scan", "android": "https://dc.lft.to/lastmile_qr_scan"}}, {"is_disabled": 0, "fusion_lat": 0.0, "lat": 38.91122266666667, "type": "electric_scooter", "lon": -77.03824333333333, "is_reserved": 0, "fusion_lon": 0.0, "bike_id": "39aa8fae1c87279022641a19fdbf92d5", "name": "39aa8fae1c87279022641a19fdbf92d5", "rental_uris": {"ios": "https://dc.lft.to/lastmile_qr_scan", "android": "https://dc.lft.to/lastmile_qr_scan"}}, {"is_disabled": 0, "fusion_lat": 0.0, "lat": 38.892244166666664, "type": "electric_scooter", "lon": -77.04860483333333, "is_reserved": 0, "fusion_lon": 0.0, "bike_id": "3a7b6490aa614aa0e1c19ecd66cc010d", "name": "3a7b6490aa614aa0e1c19ecd66cc010d", "rental_uris": {"ios": "https://dc.lft.to/lastmile_qr_scan", "android": "https://dc.lft.to/lastmile_qr_scan"}}, {"is_disabled": 0, "fusion_lat": 0.0, "lat": 38.877515333333335, "type": "electric_bike", "lon": -76.98055183333334, "is_reserved": 0, "fusion_lon": 0.0, "bike_id": "f101bd285689147f2a74d09d2f590d60", "name": "f101bd285689147f2a74d09d2f590d60", "rental_uris": {"ios": "https://dc.lft.to/lastmile_qr_scan", "android": "https://dc.lft.to/lastmile_qr_scan"}}, {"is_disabled": 0, "fusion_lat": 0.0, "lat": 38.8105135, "type": "electric_bike", "lon": -77.08508066666667, "is_reserved": 0, "fusion_lon": 0.0, "bike_id": "288e75e55b95669176e4229eba4f0f16", "name": "288e75e55b95669176e4229eba4f0f16", "rental_uris": {"ios": "https://dc.lft.to/lastmile_qr_scan", "android": "https://dc.lft.to/lastmile_qr_scan"}}, {"is_disabled": 0, "fusion_lat": 0.0, "lat": 38.934294, "type": "electric_scooter", "lon": -77.02841366666667, "is_reserved": 0, "fusion_lon": 0.0, "bike_id": "3ba5d3b507e07e7922f356b863869c51", "name": "3ba5d3b507e07e7922f356b863869c51", "rental_uris": {"ios": "https://dc.lft.to/lastmile_qr_scan", "android": "https://dc.lft.to/lastmile_qr_scan"}}, {"is_disabled": 0, "fusion_lat": 0.0, "lat": 38.90639316666667, "type": "electric_scooter", "lon": -77.03579483333333, "is_reserved": 0, "fusion_lon": 0.0, "bike_id": "0a1e61c9eb424b915f70137405230004", "name": "0a1e61c9eb424b915f70137405230004", "rental_uris": {"ios": "https://dc.lft.to/lastmile_qr_scan", "android": "https://dc.lft.to/lastmile_qr_scan"}}, {"is_disabled": 0, "fusion_lat": 0.0, "lat": 38.8821215, "type": "electric_scooter", "lon": -76.9994405, "is_reserved": 0, "fusion_lon": 0.0, "bike_id": "950268c23973ec02045b52d185aa0a8c", "name": "950268c23973ec02045b52d185aa0a8c", "rental_uris": {"ios": "https://dc.lft.to/lastmile_qr_scan", "android": "https://dc.lft.to/lastmile_qr_scan"}}, {"is_disabled": 0, "fusion_lat": 0.0, "lat": 38.91552316666667, "type": "electric_scooter", "lon": -77.00978466666666, "is_reserved": 0, "fusion_lon": 0.0, "bike_id": "7723d8547655c4156a213e30279a750f", "name": "7723d8547655c4156a213e30279a750f", "rental_uris": {"ios": "https://dc.lft.to/lastmile_qr_scan", "android": "https://dc.lft.to/lastmile_qr_scan"}}, {"is_disabled": 0, "fusion_lat": 0.0, "lat": 38.926056, "type": "electric_scooter", "lon": -77.05696616666667, "is_reserved": 0, "fusion_lon": 0.0, "bike_id": "1cc956b8803dbd7822d638dc73c8b42a", "name": "1cc956b8803dbd7822d638dc73c8b42a", "rental_uris": {"ios": "https://dc.lft.to/lastmile_qr_scan", "android": "https://dc.lft.to/lastmile_qr_scan"}}, {"is_disabled": 0, "fusion_lat": 0.0, "lat": 38.903676, "type": "electric_scooter", "lon": -77.003447, "is_reserved": 0, "fusion_lon": 0.0, "bike_id": "6e37ce270a5e00b0b9c76fc231927601", "name": "6e37ce270a5e00b0b9c76fc231927601", "rental_uris": {"ios": "https://dc.lft.to/lastmile_qr_scan", "android": "https://dc.lft.to/lastmile_qr_scan"}}, {"is_disabled": 0, "fusion_lat": 0.0, "lat": 38.85436216666667, "type": "electric_bike", "lon": -76.909742, "is_reserved": 0, "fusion_lon": 0.0, "bike_id": "36a049cb8982f9e3d66abf3d1f5f5ac7", "name": "36a049cb8982f9e3d66abf3d1f5f5ac7", "rental_uris": {"ios": "https://dc.lft.to/lastmile_qr_scan", "android": "https://dc.lft.to/lastmile_qr_scan"}}, {"is_disabled": 0, "fusion_lat": 0.0, "lat": 38.917040166666666, "type": "electric_scooter", "lon": -77.03119033333333, "is_reserved": 0, "fusion_lon": 0.0, "bike_id": "04494268f7ba5603002ba10df92af9eb", "name": "04494268f7ba5603002ba10df92af9eb", "rental_uris": {"ios": "https://dc.lft.to/lastmile_qr_scan", "android": "https://dc.lft.to/lastmile_qr_scan"}}, {"is_disabled": 0, "fusion_lat": 0.0, "lat": 38.892503166666664, "type": "electric_scooter", "lon": -77.03957683333333, "is_reserved": 0, "fusion_lon": 0.0, "bike_id": "3d5e4ffd9e1f2f0ef3032dd30fb21c52", "name": "3d5e4ffd9e1f2f0ef3032dd30fb21c52", "rental_uris": {"ios": "https://dc.lft.to/lastmile_qr_scan", "android": "https://dc.lft.to/lastmile_qr_scan"}}, {"is_disabled": 0, "fusion_lat": 0.0, "lat": 38.86166983333333, "type": "electric_bike", "lon": -76.950631, "is_reserved": 0, "fusion_lon": 0.0, "bike_id": "58046761448ade4306a90e2c7cbf0581", "name": "58046761448ade4306a90e2c7cbf0581", "rental_uris": {"ios": "https://dc.lft.to/lastmile_qr_scan", "android": "https://dc.lft.to/lastmile_qr_scan"}}, {"is_disabled": 0, "fusion_lat": 0.0, "lat": 38.95652, "type": "electric_bike", "lon": -77.02257366666667, "is_reserved": 0, "fusion_lon": 0.0, "bike_id": "9c5de4f1534b8b19ff42c2b8b8c325db", "name": "9c5de4f1534b8b19ff42c2b8b8c325db", "rental_uris": {"ios": "https://dc.lft.to/lastmile_qr_scan", "android": "https://dc.lft.to/lastmile_qr_scan"}}, {"is_disabled": 0, "fusion_lat": 0.0, "lat": 38.92849533333333, "type": "electric_scooter", "lon": -77.05428183333333, "is_reserved": 0, "fusion_lon": 0.0, "bike_id": "5c4772db8e365bc923ddf1ef4cc67a08", "name": "5c4772db8e365bc923ddf1ef4cc67a08", "rental_uris": {"ios": "https://dc.lft.to/lastmile_qr_scan", "android": "https://dc.lft.to/lastmile_qr_scan"}}, {"is_disabled": 0, "fusion_lat": 0.0, "lat": 38.92337416666667, "type": "electric_scooter", "lon": -77.056804, "is_reserved": 0, "fusion_lon": 0.0, "bike_id": "355f5bde051128151757b9e27bb86ebd", "name": "355f5bde051128151757b9e27bb86ebd", "rental_uris": {"ios": "https://dc.lft.to/lastmile_qr_scan", "android": "https://dc.lft.to/lastmile_qr_scan"}},