{"data": {"bikes": [{"rental_uris": {"ios": "https://dc.lft.to/lastmile_qr_scan", "android": "https://dc.lft.to/lastmile_qr_scan"}, "lon": -77.05270133333333, "type": "electric_scooter", "fusion_lat": 0.0, "lat": 38.910153666666666, "name": "c7655fd6a99b39b13b3f21210bd923e5", "fusion_lon": 0.0, "bike_id": "c7655fd6a99b39b13b3f21210bd923e5", "is_disabled": 0, "is_reserved": 0}, {"rental_uris": {"ios": "https://dc.lft.to/lastmile_qr_scan", "android": "https://dc.lft.to/lastmile_qr_scan"}, "lon": -77.03958966666667, "type": "electric_scooter", "fusion_lat": 0.0, "lat": 38.919948166666664, "name": "ee3702af57221dac2da6a75aa1360bd9", "fusion_lon": 0.0, "bike_id": "ee3702af57221dac2da6a75aa1360bd9", "is_disabled": 0, "is_reserved": 0}, {"rental_uris": {"ios": "https://dc.lft.to/lastmile_qr_scan", "android": "https://dc.lft.to/lastmile_qr_scan"}, "lon": -77.0749275, "type": "electric_bike", "fusion_lat": 0.0, "lat": 38.892994333333334, "name": "f5db408a40027836fa5bec01a5ec4da0", "fusion_lon": 0.0, "bike_id": "f5db408a40027836fa5bec01a5ec4da0", "is_disabled": 0, "is_reserved": 0}, {"rental_uris": {"ios": "https://dc.lft.to/lastmile_qr_scan", "android": "https://dc.lft.to/lastmile_qr_scan"}, "lon": -77.0071425, "type": "electric_scooter", "fusion_lat": 0.0, "lat": 38.91339683333333, "name": "4c1568f8422d83799f94140fb4632fd4", "fusion_lon": 0.0, "bike_id": "4c1568f8422d83799f94140fb4632fd4", "is_disabled": 0, "is_reserved": 0}, {"rental_uris": {"ios": "https://dc.lft.to/lastmile_qr_scan", "android": "https://dc.lft.to/lastmile_qr_scan"}, "lon": -77.02620516666667, "type": "electric_scooter", "fusion_lat": 0.0, "lat": 38.91915266666667, "name": "f2586c0f5a33aea7757a59223c336472", "fusion_lon": 0.0, "bike_id": "f2586c0f5a33aea7757a59223c336472", "is_disabled": 0, "is_reserved": 0}, {"rental_uris": {"ios": "https://dc.lft.to/lastmile_qr_scan", "android": "https://dc.lft.to/lastmile_qr_scan"}, "lon": -77.04932016666666, "type": "electric_scooter", "fusion_lat": 0.0, "lat": 38.90075, "name": "ab7ef98a94d4d6e0b1c42bd057c1ff48", "fusion_lon": 0.0, "bike_id": "ab7ef98a94d4d6e0b1c42bd057c1ff48", "is_disabled": 0, "is_reserved": 0}, {"rental_uris": {"ios": "https://dc.lft.to/lastmile_qr_scan", "android": "https://dc.lft.to/lastmile_qr_scan"}, "lon": -77.00217966666666, "type": "electric_scooter", "fusion_lat": 0.0, "lat": 38.908347666666664, "name": "bb71fae1da559895f2d26ce2e35f5eda", "fusion_lon": 0.0, "bike_id": "bb71fae1da559895f2d26ce2e35f5eda", "is_disabled": 0, "is_reserved": 0}, {"rental_uris": {"ios": "https://dc.lft.to/lastmile_qr_scan", "android": "https://dc.lft.to/lastmile_qr_scan"}, "lon": -77.00874316666666, "type": "electric_scooter", "fusion_lat": 0.0, "lat": 38.87066816666667, "name": "0b44ec6945039f75022d9899a3026b47", "fusion_lon": 0.0, "bike_id": "0b44ec6945039f75022d9899a3026b47", "is_disabled": 0, "is_reserved": 0}, {"rental_uris": {"ios": "https://dc.lft.to/lastmile_qr_scan", "android": "https://dc.lft.to/lastmile_qr_scan"}, "lon": -77.01900133333334, "type": "electric_scooter", "fusion_lat": 0.0, "lat": 38.90562583333333, "name": "4090b435aceb1b93ce07b004ec508b45", "fusion_lon": 0.0, "bike_id": "4090b435aceb1b93ce07b004ec508b45", "is_disabled": 0, "is_reserved": 0}, {"rental_uris": {"ios": "https://dc.lft.to/lastmile_qr_scan", "android": "https://dc.lft.to/lastmile_qr_scan"}, "lon": -77.015973, "type": "electric_scooter", "fusion_lat": 0.0, "lat": 38.89621066666667, "name": "c55d32441e9e9bf5f560c610ad3bb998", "fusion_lon": 0.0, "bike_id": "c55d32441e9e9bf5f560c610ad3bb998", "is_disabled": 0, "is_reserved": 0}, {"rental_uris": {"ios": "https://dc.lft.to/lastmile_qr_scan", "android": "https://dc.lft.to/lastmile_qr_scan"}, "lon": -76.93737183333333, "type": "electric_scooter", "fusion_lat": 0.0, "lat": 38.89016016666667, "name": "d895900c7dc079c1d0f882f5b7a4ebfb", "fusion_lon": 0.0, "bike_id": "d895900c7dc079c1d0f882f5b7a4ebfb", "is_disabled": 0, "is_reserved": 0}, {"rental_uris": {"ios": "https://dc.lft.to/lastmile_qr_scan", "android": "https://dc.lft.to/lastmile_qr_scan"}, "lon": -77.013639, "type": "electric_scooter", "fusion_lat": 0.0, "lat": 38.875857333333336, "name": "5e36ea076636b34362d6dbe1fe98b607", "fusion_lon": 0.0, "bike_id": "5e36ea076636b34362d6dbe1fe98b607", "is_disabled": 0, "is_reserved": 0}, {"rental_uris": {"ios": "https://dc.lft.to/lastmile_qr_scan", "android": "https://dc.lft.to/lastmile_qr_scan"}, "lon": -76.92999566666667, "type": "electric_bike", "fusion_lat": 0.0, "lat": 38.887971666666665, "name": "13bd78d4043975afdb97d176a11734b4", "fusion_lon": 0.0, "bike_id": "13bd78d4043975afdb97d176a11734b4", "is_disabled": 0, "is_reserved": 0}, {"rental_uris": {"ios": "https://dc.lft.to/lastmile_qr_scan", "android": "https://dc.lft.to/lastmile_qr_scan"}, "lon": -77.030791, "type": "electric_scooter", "fusion_lat": 0.0, "lat": 38.89977, "name": "0040c648a8046ecec67ed35e00e3cead", "fusion_lon": 0.0, "bike_id": "0040c648a8046ecec67ed35e00e3cead", "is_disabled": 0, "is_reserved": 0}, {"rental_uris": {"ios": "https://dc.lft.to/lastmile_qr_scan", "android": "https://dc.lft.to/lastmile_qr_scan"}, "lon": -77.079353, "type": "electric_scooter", "fusion_lat": 0.0, "lat": 38.94873283333333, "name": "2efa13b503f187197d925b4fa09ee5cc", "fusion_lon": 0.0, "bike_id": "2efa13b503f187197d925b4fa09ee5cc", "is_disabled": 0, "is_reserved": 0}, {"rental_uris": {"ios": "https://dc.lft.to/lastmile_qr_scan", "android": "https://dc.lft.to/lastmile_qr_scan"}, "lon": -76.9573325, "type": "electric_scooter", "fusion_lat": 0.0, "lat": 38.8922495, "name": "524ba430e33373915325576a8556867a", "fusion_lon": 0.0, "bike_id": "524ba430e33373915325576a8556867a", "is_disabled": 0, "is_reserved": 0}, {"rental_uris": {"ios": "https://dc.lft.to/lastmile_qr_scan", "android": "https://dc.lft.to/lastmile_qr_scan"}, "lon": -77.03826566666666, "type": "electric_scooter", "fusion_lat": 0.0, "lat": 38.92173966666667, "name": "2ac06fe6e01f0427f92b1e2e70157b17", "fusion_lon": 0.0, "bike_id": "2ac06fe6e01f0427f92b1e2e70157b17", "is_disabled": 0, "is_reserved": 0}, {"rental_uris": {"ios": "https://dc.lft.to/lastmile_qr_scan", "android": "https://dc.lft.to/lastmile_qr_scan"}, "lon": -77.13180683333333, "type": "electric_bike", "fusion_lat": 0.0, "lat": 38.86909633333333, "name": "5385a27775761287cef762b8d405d250", "fusion_lon": 0.0, "bike_id": "5385a27775761287cef762b8d405d250", "is_disabled": 0, "is_reserved": 0}, {"rental_uris": {"ios": "https://dc.lft.to/lastmile_qr_scan", "android": "https://dc.lft.to/lastmile_qr_scan"}, "lon": -77.02996533333334, "type": "electric_bike", "fusion_lat": 0.0, "lat": 38.900473, "name": "1539fe169d2a5e0edd8963023b804a9b", "fusion_lon": 0.0, "bike_id": "1539fe169d2a5e0edd8963023b804a9b", "is_disabled": 0, "is_reserved": 0}, {"rental_uris": {"ios": "https://dc.lft.to/lastmile_qr_scan", "android": "https://dc.lft.to/lastmile_qr_scan"}, "lon": -77.03775983333334, "type": "electric_bike", "fusion_lat": 0.0, "lat": 38.996838, "name": "02148d2192b091b9b275ceff0ceefa3e", "fusion_lon": 0.0, "bike_id": "02148d2192b091b9b275ceff0ceefa3e", "is_disabled": 0, "is_reserved": 0}, {"rental_uris": {"ios": "https://dc.lft.to/lastmile_qr_scan", "android": "https://dc.lft.to/lastmile_qr_scan"}, "lon": -77.04803683333333, "type": "electric_scooter", "fusion_lat": 0.0, "lat": 38.916449666666665, "name": "c32cb17911ff5e720aaaafe8aed55c38", "fusion_lon": 0.0, "bike_id": "c32cb17911ff5e720aaaafe8aed55c38", "is_disabled": 0, "is_reserved": 0}, {"rental_uris": {"ios": "https://dc.lft.to/lastmile_qr_scan", "android": "https://dc.lft.to/lastmile_qr_scan"}, "lon": -77.0187685, "type": "electric_scooter", "fusion_lat": 0.0, "lat": 38.906158, "name": "5dff1b67a032c6f2adf43922307e9632", "fusion_lon": 0.0, "bike_id": "5dff1b67a032c6f2adf43922307e9632", "is_disabled": 0, "is_reserved": 0}, {"rental_uris": {"ios": "https://dc.lft.to/lastmile_qr_scan", "android": "https://dc.lft.to/lastmile_qr_scan"}, "lon": -77.05002433333334, "type": "electric_scooter", "fusion_lat": 0.0, "lat": 38.8923125, "name": "eaad5a74b66490c712dfda64a8a6b8b6", "fusion_lon": 0.0, "bike_id": "eaad5a74b66490c712dfda64a8a6b8b6", "is_disabled": 0, "is_reserved": 0}, {"rental_uris": {"ios": "https://dc.lft.to/lastmile_qr_scan", "android": "https://dc.lft.to/lastmile_qr_scan"}, "lon": -77.04029133333333, "type": "electric_scooter", "fusion_lat": 0.0, "lat": 38.92431283333333, "name": "793d39d83513e71663616a35ae4f7f59", "fusion_lon": 0.0, "bike_id": "793d39d83513e71663616a35ae4f7f59", "is_disabled": 0, "is_reserved": 0}, {"rental_uris": {"ios": "https://dc.lft.to/lastmile_qr_scan", "android": "https://dc.lft.to/lastmile_qr_scan"}, "lon": -77.04288466666667, "type": "electric_scooter", "fusion_lat": 0.0, "lat": 38.90735433333333, "name": "c63de9457420f09b3f487e5d7d94352b", "fusion_lon": 0.0, "bike_id": "c63de9457420f09b3f487e5d7d94352b", "is_disabled": 0, "is_reserved": 0}, {"rental_uris": {"ios": "https://dc.lft.to/lastmile_qr_scan", "android": "https://dc.lft.to/lastmile_qr_scan"}, "lon": -77.01365233333334, "type": "electric_scooter", "fusion_lat": 0.0, "lat": 38.919874166666666, "name": "b6cdf4d1dac7003be50daddceb7ea8f9", "fusion_lon": 0.0, "bike_id": "b6cdf4d1dac7003be50daddceb7ea8f9", "is_disabled": 0, "is_reserved": 0}, {"rental_uris": {"ios": "https://dc.lft.to/lastmile_qr_scan", "android": "https://dc.lft.to/lastmile_qr_scan"}, "lon": -77.03265083333334, "type": "electric_scooter", "fusion_lat": 0.0, "lat": 38.919859333333335, "name": "323a8fb7dec5765872b060319bfa6d3a", "fusion_lon": 0.0, "bike_id": "323a8fb7dec5765872b060319bfa6d3a", "is_disabled": 0, "is_reserved": 0}, {"rental_uris": {"ios": "https://dc.lft.to/lastmile_qr_scan", "android": "https://dc.lft.to/lastmile_qr_scan"}, "lon": -77.03335516666667, "type": "electric_scooter", "fusion_lat": 0.0, "lat": 38.90322883333333, "name": "f0bd7d412be2b3fbff20d20f97c461ec", "fusion_lon": 0.0, "bike_id": "f0bd7d412be2b3fbff20d20f97c461ec", "is_disabled": 0, "is_reserved": 0}, {"rental_uris": {"ios": "https://dc.lft.to/lastmile_qr_scan", "android": "https://dc.lft.to/lastmile_qr_scan"}, "lon": -77.03067733333333, "type": "electric_scooter", "fusion_lat": 0.0, "lat": 38.88046933333333, "name": "e5120f3f00f7b9a5e31861940ae17c23", "fusion_lon": 0.0, "bike_id": "e5120f3f00f7b9a5e31861940ae17c23", "is_disabled": 0, "is_reserved": 0}, {"rental_uris": {"ios": "https://dc.lft.to/lastmile_qr_scan", "android": "https://dc.lft.to/lastmile_qr_scan"}, "lon": -77.03945183333333, "type": "electric_scooter", "fusion_lat": 0.0, "lat": 38.931542, "name": "b7cf8bf3e3dda44257afe79b4e2a82eb", "fusion_lon": 0.0, "bike_id": "b7cf8bf3e3dda44257afe79b4e2a82eb", "is_disabled": 0, "is_reserved": 0}, {"rental_uris": {"ios": "https://dc.lft.to/lastmile_qr_scan", "android": "https://dc.lft.to/lastmile_qr_scan"}, "lon": -76.9772655, "type": "electric_scooter", "fusion_lat": 0.0, "lat": 38.872879833333336, "name": "921e827008d71fd5f919d276de361fcb", "fusion_lon": 0.0, "bike_id": "921e827008d71fd5f919d276de361fcb", "is_disabled": 0, "is_reserved": 0}, {"rental_uris": {"ios": "https://dc.lft.to/lastmile_qr_scan", "android": "https://dc.lft.to/lastmile_qr_scan"}, "lon": -77.05058383333333, "type": "electric_scooter", "fusion_lat": 0.0, "lat": 38.90562366666666, "name": "e7804298245064c0dcf84d42eedbda64", "fusion_lon": 0.0, "bike_id": "e7804298245064c0dcf84d42eedbda64", "is_disabled": 0, "is_reserved": 0}, {"rental_uris": {"ios": "https://dc.lft.to/lastmile_qr_scan", "android": "https://dc.lft.to/lastmile_qr_scan"}, "lon": -76.94942783333333, "type": "electric_scooter", "fusion_lat": 0.0, "lat": 38.8838235, "name": "826ca36cc0cf97bc708e4ce080050add", "fusion_lon": 0.0, "bike_id": "826ca36cc0cf97bc708e4ce080050add", "is_disabled": 0, "is_reserved": 0}, {"rental_uris": {"ios": "https://dc.lft.to/lastmile_qr_scan", "android": "https://dc.lft.to/lastmile_qr_scan"}, "lon": -77.02159633333333, "type": "electric_scooter", "fusion_lat": 0.0, "lat": 38.897239, "name": "a292346940b977c43f0ae901f58985e8", "fusion_lon": 0.0, "bike_id": "a292346940b977c43f0ae901f58985e8", "is_disabled": 0, "is_reserved": 0}, {"rental_uris": {"ios": "https://dc.lft.to/lastmile_qr_scan", "android": "https://dc.lft.to/lastmile_qr_scan"}, "lon": -77.03954833333333, "type": "electric_scooter", "fusion_lat": 0.0, "lat": 38.898558666666666, "name": "eb7c9524941035def78d5063fd50c880", "fusion_lon": 0.0, "bike_id": "eb7c9524941035def78d5063fd50c880", "is_disabled": 0, "is_reserved": 0}, {"rental_uris": {"ios": "https://dc.lft.to/lastmile_qr_scan", "android": "https://dc.lft.to/lastmile_qr_scan"}, "lon": -77.02485716666666, "type": "electric_scooter", "fusion_lat": 0.0, "lat": 38.901724, "name": "93cb88aa58355d342121ca28d257744d", "fusion_lon": 0.0, "bike_id": "93cb88aa58355d342121ca28d257744d", "is_disabled": 0, "is_reserved": 0}, {"rental_uris": {"ios": "https://dc.lft.to/lastmile_qr_scan", "android": "https://dc.lft.to/lastmile_qr_scan"}, "lon": -77.04208866666667, "type": "electric_scooter", "fusion_lat": 0.0, "lat": 38.9075165, "name": "900336369d485525de8a60a09cec2d81", "fusion_lon": 0.0, "bike_id": "900336369d485525de8a60a09cec2d81", "is_disabled": 0, "is_reserved": 0}, {"rental_uris": {"ios": "https://dc.lft.to/lastmile_qr_scan", "android": "https://dc.lft.to/lastmile_qr_scan"}, "lon": -77.02844116666667, "type": "electric_scooter", "fusion_lat": 0.0, "lat": 38.9307655, "name": "84fe5d24ca496cedcc786f1a5ad744f4", "fusion_lon": 0.0, "bike_id": "84fe5d24ca496cedcc786f1a5ad744f4", "is_disabled": 0, "is_reserved": 0}, {"rental_uris": {"ios": "https://dc.lft.to/lastmile_qr_scan", "android": "https://dc.lft.to/lastmile_qr_scan"}, "lon": -77.043878, "type": "electric_scooter", "fusion_lat": 0.0, "lat": 38.9294085, "name": "b47e5632cf3dfd43bb261fe621a9d858", "fusion_lon": 0.0, "bike_id": "b47e5632cf3dfd43bb261fe621a9d858", "is_disabled": 0, "is_reserved": 0}, {"rental_uris": {"ios": "https://dc.lft.to/lastmile_qr_scan", "android": "https://dc.lft.to/lastmile_qr_scan"}, "lon": -77.01386733333334, "type": "electric_scooter", "fusion_lat": 0.0, "lat": 38.928748666666664, "name": "bcaaba958ccd223214feac8a7870afb3", "fusion_lon": 0.0, "bike_id": "bcaaba958ccd223214feac8a7870afb3", "is_disabled": 0, "is_reserved": 0}, {"rental_uris": {"ios": "https://dc.lft.to/lastmile_qr_scan", "android": "https://dc.lft.to/lastmile_qr_scan"}, "lon": -77.030771, "type": "electric_scooter", "fusion_lat": 0.0, "lat": 38.922396, "name": "98d5a2eca63aa7a8ecda37dddccd9a33", "fusion_lon": 0.0, "bike_id": "98d5a2eca63aa7a8ecda37dddccd9a33", "is_disabled": 0, "is_reserved": 0}, {"rental_uris": {"ios": "https://dc.lft.to/lastmile_qr_scan", "android": "https://dc.lft.to/lastmile_qr_scan"}, "lon": -77.125006, "type": "electric_bike", "fusion_lat": 0.0, "lat": 39.024196833333335, "name": "5424fa8fd37d8e13a5a696a36fec5851", "fusion_lon": 0.0, "bike_id": "5424fa8fd37d8e13a5a696a36fec5851", "is_disabled": 0, "is_reserved": 0}, {"rental_uris": {"ios": "https://dc.lft.to/lastmile_qr_scan", "android": "https://dc.lft.to/lastmile_qr_scan"}, "lon": -77.0059265, "type": "electric_scooter", "fusion_lat": 0.0, "lat": 38.915625, "name": "cb8a8c5a60cb811f9e56aa90c4c32d4d", "fusion_lon": 0.0, "bike_id": "cb8a8c5a60cb811f9e56aa90c4c32d4d", "is_disabled": 0, "is_reserved": 0}, {"rental_uris": {"ios": "https://dc.lft.to/lastmile_qr_scan", "android": "https://dc.lft.to/lastmile_qr_scan"}, "lon": -77.03012083333333, "type": "electric_scooter", "fusion_lat": 0.0, "lat": 38.919279, "name": "4f4b6467e0ff22dd408afffaf5ad8308", "fusion_lon": 0.0, "bike_id": "4f4b6467e0ff22dd408afffaf5ad8308", "is_disabled": 0, "is_reserved": 0}, {"rental_uris": {"ios": "https://dc.lft.to/lastmile_qr_scan", "android": "https://dc.lft.to/lastmile_qr_scan"}, "lon": -77.22211483333334, "type": "electric_bike", "fusion_lat": 0.0, "lat": 38.92082383333333, "name": "c342472ce5ee09c0a0ef5c75a085fb8a", "fusion_lon": 0.0, "bike_id": "c342472ce5ee09c0a0ef5c75a085fb8a", "is_disabled": 0, "is_reserved": 0}, {"rental_uris": {"ios": "https://dc.lft.to/lastmile_qr_scan", "android": "https://dc.lft.to/lastmile_qr_scan"}, "lon": -77.02345216666667, "type": "electric_scooter", "fusion_lat": 0.0, "lat": 38.96209616666667, "name": "ade33157328c6b5534ab611cb513e0aa", "fusion_lon": 0.0, "bike_id": "ade33157328c6b5534ab611cb513e0aa", "is_disabled": 0, "is_reserved": 0}, {"rental_uris": {"ios": "https://dc.lft.to/lastmile_qr_scan", "android": "https://dc.lft.to/lastmile_qr_scan"}, "lon": -77.03895433333334, "type": "electric_scooter", "fusion_lat": 0.0, "lat": 38.9233035, "name": "891e243d46061ca690961e8b24341eb6", "fusion_lon": 0.0, "bike_id": "891e243d46061ca690961e8b24341eb6", "is_disabled": 0, "is_reserved": 0}, {"rental_uris": {"ios": "https://dc.lft.to/lastmile_qr_scan", "android": "https://dc.lft.to/lastmile_qr_scan"}, "lon": -77.02964283333333, "type": "electric_scooter", "fusion_lat": 0.0, "lat": 38.907871, "name": "87d6ea7823d85404ea4f71d539249985", "fusion_lon": 0.0, "bike_id": "87d6ea7823d85404ea4f71d539249985", "is_disabled": 0, "is_reserved": 0}, {"rental_uris": {"ios": "https://dc.lft.to/lastmile_qr_scan", "android": "https://dc.lft.to/lastmile_qr_scan"}, "lon": -77.028456, "type": "electric_scooter", "fusion_lat": 0.0, "lat": 38.93451683333333, "name": "f94748d3c1ca5c9f631ced7927612fcd", "fusion_lon": 0.0, "bike_id": "f94748d3c1ca5c9f631ced7927612fcd", "is_disabled": 0, "is_reserved": 0}, {"rental_uris": {"ios": "https://dc.lft.to/lastmile_qr_scan", "android": "https://dc.lft.to/lastmile_qr_scan"}, "lon": -77.02648616666667, "type": "electric_scooter", "fusion_lat": 0.0, "lat": 38.88116483333334, "name": "b1e964d381cdbddd675c60121eea6990", "fusion_lon": 0.0, "bike_id": "b1e964d381cdbddd675c60121eea6990", "is_disabled": 0, "is_reserved": 0}, {"rental_uris": {"ios": "https://dc.lft.to/lastmile_qr_scan", "android": "https://dc.lft.to/lastmile_qr_scan"}, "lon": -77.07304633333334, "type": "electric_scooter", "fusion_lat": 0.0, "lat": 38.93614733333333, "name": "914949a0d9d52c14ce71f268685d70fa", "fusion_lon": 0.0, "bike_id": "914949a0d9d52c14ce71f268685d70fa", "is_disabled": 0, "is_reserved": 0}, {"rental_uris": {"ios": "https://dc.lft.to/lastmile_qr_scan", "android": "https://dc.lft.to/lastmile_qr_scan"}, "lon": -77.006592, "type": "electric_scooter", "fusion_lat": 0.0, "lat": 38.876422166666664, "name": "bbb4fc6b95c4ec3df8654bad14d21e7e", "fusion_lon": 0.0, "bike_id": "bbb4fc6b95c4ec3df8654bad14d21e7e", "is_disabled": 0, "is_reserved": 0}, {"rental_uris": {"ios": "https://dc.lft.to/lastmile_qr_scan", "android": "https://dc.lft.to/lastmile_qr_scan"}, "lon": -77.03301433333333, "type": "electric_scooter", "fusion_lat": 0.0, "lat": 38.9091385, "name": "22c0aec92af9459b85b48eba75695081", "fusion_lon": 0.0, "bike_id": "22c0aec92af9459b85b48eba75695081", "is_disabled": 0, "is_reserved": 0}, {"rental_uris": {"ios": "https://dc.lft.to/lastmile_qr_scan", "android": "https://dc.lft.to/lastmile_qr_scan"}, "lon": -76.9906195, "type": "electric_scooter", "fusion_lat": 0.0, "lat": 38.86357783333333, "name": "2ffabea5bce3d4b0e99f297a66498e36", "fusion_lon": 0.0, "bike_id": "2ffabea5bce3d4b0e99f297a66498e36", "is_disabled": 0, "is_reserved": 0}, {"rental_uris": {"ios": "https://dc.lft.to/lastmile_qr_scan", "android": "https://dc.lft.to/lastmile_qr_scan"}, "lon": -77.03634866666667, "type": "electric_scooter", "fusion_lat": 0.0, "lat": 38.91294033333333, "name": "eba26b110cdad7aefd09c5dbc443199b", "fusion_lon": 0.0, "bike_id": "eba26b110cdad7aefd09c5dbc443199b", "is_disabled": 0, "is_reserved": 0}, {"rental_uris": {"ios": "https://dc.lft.to/lastmile_qr_scan", "android": "https://dc.lft.to/lastmile_qr_scan"}, "lon": -77.0385185, "type": "electric_scooter", "fusion_lat": 0.0, "lat": 38.9264795, "name": "03c0a00079abdf84dc6eb4b19d805017", "fusion_lon": 0.0, "bike_id": "03c0a00079abdf84dc6eb4b19d805017", "is_disabled": 0, "is_reserved": 0}, {"rental_uris": {"ios": "https://dc.lft.to/lastmile_qr_scan", "android": "https://dc.lft.to/lastmile_qr_scan"}, "lon": -77.055038, "type": "electric_scooter", "fusion_lat": 0.0, "lat": 38.89991066666666, "name": "99bb33d205d2952f553c18a1f73e7e85", "fusion_lon": 0.0, "bike_id": "99bb33d205d2952f553c18a1f73e7e85", "is_disabled": 0, "is_reserved": 0}, {"rental_uris": {"ios": "https://dc.lft.to/lastmile_qr_scan", "android": "https://dc.lft.to/lastmile_qr_scan"}, "lon": -77.0454025, "type": "electric_scooter", "fusion_lat": 0.0, "lat": 38.8948295, "name": "1c5915300cae67bc3af58fb70f96dc95", "fusion_lon": 0.0, "bike_id": "1c5915300cae67bc3af58fb70f96dc95", "is_disabled": 0, "is_reserved": 0}, {"rental_uris": {"ios": "https://dc.lft.to/lastmile_qr_scan", "android": "https://dc.lft.to/lastmile_qr_scan"}, "lon": -77.03186, "type": "electric_scooter", "fusion_lat": 0.0, "lat": 38.89841533333333, "name": "266e6ea547d6760aac96984dfd8e5587", "fusion_lon": 0.0, "bike_id": "266e6ea547d6760aac96984dfd8e5587", "is_disabled": 0, "is_reserved": 0}, {"rental_uris": {"ios": "https://dc.lft.to/lastmile_qr_scan", "android": "https://dc.lft.to/lastmile_qr_scan"}, "lon": -76.98334516666667, "type": "electric_scooter", "fusion_lat": 0.0, "lat": 38.915405, "name": "df431d61d1f20f6abeff59c1f2b43fd6", "fusion_lon": 0.0, "bike_id": "df431d61d1f20f6abeff59c1f2b43fd6", "is_disabled": 0, "is_reserved": 0}, {"rental_uris": {"ios": "https://dc.lft.to/lastmile_qr_scan", "android": "https://dc.lft.to/lastmile_qr_scan"}, "lon": -77.02707283333334, "type": "electric_scooter", "fusion_lat": 0.0, "lat": 38.90945966666666, "name": "69a56ef833676d9e10a4a5631a4ca235", "fusion_lon": 0.0, "bike_id": "69a56ef833676d9e10a4a5631a4ca235", "is_disabled": 0, "is_reserved": 0}, {"rental_uris": {"ios": "https://dc.lft.to/lastmile_qr_scan", "android": "https://dc.lft.to/lastmile_qr_scan"}, "lon": -77.027019, "type": "electric_scooter", "fusion_lat": 0.0, "lat": 38.90671283333333, "name": "637ca7133563437be5c6f2d25c3e756a", "fusion_lon": 0.0, "bike_id": "637ca7133563437be5c6f2d25c3e756a", "is_disabled": 0, "is_reserved": 0}, {"rental_uris": {"ios": "https://dc.lft.to/lastmile_qr_scan", "android": "https://dc.lft.to/lastmile_qr_scan"}, "lon": -77.0321775, "type": "electric_scooter", "fusion_lat": 0.0, "lat": 38.90039566666667, "name": "b2513b48eeed46265990d66bdc866b01", "fusion_lon": 0.0, "bike_id": "b2513b48eeed46265990d66bdc866b01", "is_disabled": 0, "is_reserved": 0}, {"rental_uris": {"ios": "https://dc.lft.to/lastmile_qr_scan", "android": "https://dc.lft.to/lastmile_qr_scan"}, "lon": -77.028795, "type": "electric_scooter", "fusion_lat": 0.0, "lat": 38.90465483333333, "name": "b11567c58cee3f04ec101d6011ae96d4", "fusion_lon": 0.0, "bike_id": "b11567c58cee3f04ec101d6011ae96d4", "is_disabled": 0, "is_reserved": 0}, {"rental_uris": {"ios": "https://dc.lft.to/lastmile_qr_scan", "android": "https://dc.lft.to/lastmile_qr_scan"}, "lon": -77.03926233333334, "type": "electric_scooter", "fusion_lat": 0.0, "lat": 38.917583, "name": "f5b84c4fa520c085ec9ac0d78902d210", "fusion_lon": 0.0, "bike_id": "f5b84c4fa520c085ec9ac0d78902d210", "is_disabled": 0, "is_reserved": 0}, {"rental_uris": {"ios": "https://dc.lft.to/lastmile_qr_scan", "android": "https://dc.lft.to/lastmile_qr_scan"}, "lon": -76.9617905, "type": "electric_bike", "fusion_lat": 0.0, "lat": 38.9186035, "name": "1bf990a83a42a474f1d373d3e1dc1bb1", "fusion_lon": 0.0, "bike_id": "1bf990a83a42a474f1d373d3e1dc1bb1", "is_disabled": 0, "is_reserved": 0}, {"rental_uris": {"ios": "https://dc.lft.to/lastmile_qr_scan", "android": "https://dc.lft.to/lastmile_qr_scan"}, "lon": -77.03442183333334, "type": "electric_scooter", "fusion_lat": 0.0, "lat": 38.907397, "name": "cde7f0a553062d5c58826bc269baf8cf", "fusion_lon": 0.0, "bike_id": "cde7f0a553062d5c58826bc269baf8cf", "is_disabled": 0, "is_reserved": 0}, {"rental_uris": {"ios": "https://dc.lft.to/lastmile_qr_scan", "android": "https://dc.lft.to/lastmile_qr_scan"}, "lon": -77.0916275, "type": "electric_bike", "fusion_lat": 0.0, "lat": 38.9676245, "name": "ae32dac74a969bf71ad4a761cbab7eee", "fusion_lon": 0.0, "bike_id": "ae32dac74a969bf71ad4a761cbab7eee", "is_disabled": 0, "is_reserved": 0}, {"rental_uris": {"ios": "https://dc.lft.to/lastmile_qr_scan", "android": "https://dc.lft.to/lastmile_qr_scan"}, "lon": -77.03777, "type": "electric_scooter", "fusion_lat": 0.0, "lat": 38.93608666666667, "name": "6d136e316b1cde976f08fcfc61855855", "fusion_lon": 0.0, "bike_id": "6d136e316b1cde976f08fcfc61855855", "is_disabled": 0, "is_reserved": 0}, {"rental_uris": {"ios": "https://dc.lft.to/lastmile_qr_scan", "android": "https://dc.lft.to/lastmile_qr_scan"}, "lon": -77.044085, "type": "electric_scooter", "fusion_lat": 0.0, "lat": 38.87429616666667, "name": "75a08bff89315adda0871a2f05f2755e", "fusion_lon": 0.0, "bike_id": "75a08bff89315adda0871a2f05f2755e", "is_disabled": 0, "is_reserved": 0}, {"rental_uris": {"ios": "https://dc.lft.to/lastmile_qr_scan", "android": "https://dc.lft.to/lastmile_qr_scan"}, "lon": -77.0235115, "type": "electric_scooter", "fusion_lat": 0.0, "lat": 38.88326633333333, "name": "4dc297eff758a663a84439a0e1098761", "fusion_lon": 0.0, "bike_id": "4dc297eff758a663a84439a0e1098761", "is_disabled": 0, "is_reserved": 0}, {"rental_uris": {"ios": "https://dc.lft.to/lastmile_qr_scan", "android": "https://dc.lft.to/lastmile_qr_scan"}, "lon": -77.03974916666667, "type": "electric_scooter", "fusion_lat": 0.0, "lat": 38.902786166666665, "name": "627602df46eb610e40d778dcab96da99", "fusion_lon": 0.0, "bike_id": "627602df46eb610e40d778dcab96da99", "is_disabled": 0, "is_reserved": 0}, {"rental_uris": {"ios": "https://dc.lft.to/lastmile_qr_scan", "android": "https://dc.lft.to/lastmile_qr_scan"}, "lon": -77.03455066666666, "type": "electric_scooter", "fusion_lat": 0.0, "lat": 38.92147166666667, "name": "6ed5a62903c1a991820ef1f7db4508b3", "fusion_lon": 0.0, "bike_id": "6ed5a62903c1a991820ef1f7db4508b3", "is_disabled": 0, "is_reserved": 0}, {"rental_uris": {"ios": "https://dc.lft.to/lastmile_qr_scan", "android": "https://dc.lft.to/lastmile_qr_scan"}, "lon": -77.04171216666667, "type": "electric_scooter", "fusion_lat": 0.0, "lat": 38.918551, "name": "a6fbbf94cb9148905eda37b368c49eed", "fusion_lon": 0.0, "bike_id": "a6fbbf94cb9148905eda37b368c49eed", "is_disabled": 0, "is_reserved": 0}, {"rental_uris": {"ios": "https://dc.lft.to/lastmile_qr_scan", "android": "https://dc.lft.to/lastmile_qr_scan"}, "lon": -77.04705366666667, "type": "electric_scooter", "fusion_lat": 0.0, "lat": 38.92106233333333, "name": "8da7d753d1781e1b0035c9b8aafdeb9f", "fusion_lon": 0.0, "bike_id": "8da7d753d1781e1b0035c9b8aafdeb9f", "is_disabled": 0, "is_reserved": 0}, {"rental_uris": {"ios": "https://dc.lft.to/lastmile_qr_scan", "android": "https://dc.lft.to/lastmile_qr_scan"}, "lon": -77.03237666666666, "type": "electric_scooter", "fusion_lat": 0.0, "lat": 38.89631033333333, "name": "b07f698482693054dffdfc06eee7fbe5", "fusion_lon": 0.0, "bike_id": "b07f698482693054dffdfc06eee7fbe5", "is_disabled": 0, "is_reserved": 0}, {"rental_uris": {"ios": "https://dc.lft.to/lastmile_qr_scan", "android": "https://dc.lft.to/lastmile_qr_scan"}, "lon": -77.05596233333333, "type": "electric_scooter", "fusion_lat": 0.0, "lat": 38.936997166666664, "name": "d4ed509a5d056e5094963fc58fb8c3b4", "fusion_lon": 0.0, "bike_id": "d4ed509a5d056e5094963fc58fb8c3b4", "is_disabled": 0, "is_reserved": 0}, {"rental_uris": {"ios": "https://dc.lft.to/lastmile_qr_scan", "android": "https://dc.lft.to/lastmile_qr_scan"}, "lon": -77.04390283333333, "type": "electric_scooter", "fusion_lat": 0.0, "lat": 38.91093733333334, "name": "45230e738beec3e0569d92a88541cfcf", "fusion_lon": 0.0, "bike_id": "45230e738beec3e0569d92a88541cfcf", "is_disabled": 0, "is_reserved": 0}, {"rental_uris": {"ios": "https://dc.lft.to/lastmile_qr_scan", "android": "https://dc.lft.to/lastmile_qr_scan"}, "lon": -77.0527355, "type": "electric_scooter", "fusion_lat": 0.0, "lat": 38.89842683333333, "name": "920c94b6b1fdc2b1897e2b6cf1b21547", "fusion_lon": 0.0, "bike_id": "920c94b6b1fdc2b1897e2b6cf1b21547", "is_disabled": 0, "is_reserved": 0}, {"rental_uris": {"ios": "https://dc.lft.to/lastmile_qr_scan", "android": "https://dc.lft.to/lastmile_qr_scan"}, "lon": -77.00203516666667, "type": "electric_scooter", "fusion_lat": 0.0, "lat": 38.90039016666667, "name": "68f229a0bfff4950d4ab8cc7a86274e9", "fusion_lon": 0.0, "bike_id": "68f229a0bfff4950d4ab8cc7a86274e9", "is_disabled": 0, "is_reserved": 0}, {"rental_uris": {"ios": "https://dc.lft.to/lastmile_qr_scan", "android": "https://dc.lft.to/lastmile_qr_scan"}, "lon": -77.00335516666667, "type": "electric_bike", "fusion_lat": 0.0, "lat": 38.919827, "name": "970a3ac0292cc373dc2514b6ebd8b90a", "fusion_lon": 0.0, "bike_id": "970a3ac0292cc373dc2514b6ebd8b90a", "is_disabled": 0, "is_reserved": 0}, {"rental_uris": {"ios": "https://dc.lft.to/lastmile_qr_scan", "android": "https://dc.lft.to/lastmile_qr_scan"}, "lon": -77.03869, "type": "electric_scooter", "fusion_lat": 0.0, "lat": 38.912637, "name": "d845ba26497912d63b54f4b3199c8a39", "fusion_lon": 0.0, "bike_id": "d845ba26497912d63b54f4b3199c8a39", "is_disabled": 0, "is_reserved": 0}, {"rental_uris": {"ios": "https://dc.lft.to/lastmile_qr_scan", "android": "https://dc.lft.to/lastmile_qr_scan"}, "lon": -77.06673233333333, "type": "electric_scooter", "fusion_lat": 0.0, "lat": 38.914081333333336, "name": "4045d976bd7c1a1da1d7c7fae4fe75cc", "fusion_lon": 0.0, "bike_id": "4045d976bd7c1a1da1d7c7fae4fe75cc", "is_disabled": 0, "is_reserved": 0}, {"rental_uris": {"ios": "https://dc.lft.to/lastmile_qr_scan", "android": "https://dc.lft.to/lastmile_qr_scan"}, "lon": -77.0152495, "type": "electric_scooter", "fusion_lat": 0.0, "lat": 38.872845833333336, "name": "34e7e5c0882c8fb557ab140f03bd151b", "fusion_lon": 0.0, "bike_id": "34e7e5c0882c8fb557ab140f03bd151b", "is_disabled": 0, "is_reserved": 0}, {"rental_uris": {"ios": "https://dc.lft.to/lastmile_qr_scan", "android": "https://dc.lft.to/lastmile_qr_scan"}, "lon": -77.0660265, "type": "electric_scooter", "fusion_lat": 0.0, "lat": 38.9052455, "name": "aa9dd09c2c7a5314b25c9e456e7d9016", "fusion_lon": 0.0, "bike_id": "aa9dd09c2c7a5314b25c9e456e7d9016", "is_disabled": 0, "is_reserved": 0}, {"rental_uris": {"ios": "https://dc.lft.to/lastmile_qr_scan", "android": "https://dc.lft.to/lastmile_qr_scan"}, "lon": -77.03861883333333, "type": "electric_scooter", "fusion_lat": 0.0, "lat": 38.915681666666664, "name": "3d7a4d669366e6327786451daf6291b8", "fusion_lon": 0.0, "bike_id": "3d7a4d669366e6327786451daf6291b8", "is_disabled": 0, "is_reserved": 0}, {"rental_uris": {"ios": "https://dc.lft.to/lastmile_qr_scan", "android": "https://dc.lft.to/lastmile_qr_scan"}, "lon": -77.03842566666667, "type": "electric_scooter", "fusion_lat": 0.0, "lat": 38.90753566666667, "name": "514512a8e4674351d93640829038b8da", "fusion_lon": 0.0, "bike_id": "514512a8e4674351d93640829038b8da", "is_disabled": 0, "is_reserved": 0}, {"rental_uris": {"ios": "https://dc.lft.to/lastmile_qr_scan", "android": "https://dc.lft.to/lastmile_qr_scan"}, "lon": -76.98516633333334, "type": "electric_scooter", "fusion_lat": 0.0, "lat": 38.910030166666665, "name": "bf447919e4815a26880a62cf9f67ad24", "fusion_lon": 0.0, "bike_id": "bf447919e4815a26880a62cf9f67ad24", "is_disabled": 0, "is_reserved": 0}, {"rental_uris": {"ios": "https://dc.lft.to/lastmile_qr_scan", "android": "https://dc.lft.to/lastmile_qr_scan"}, "lon": -76.97401533333333, "type": "electric_scooter", "fusion_lat": 0.0, "lat": 38.9024375, "name": "f9ac6ffbbd69b7f9ccc18b088e3e1217", "fusion_lon": 0.0, "bike_id": "f9ac6ffbbd69b7f9ccc18b088e3e1217", "is_disabled": 0, "is_reserved": 0}, {"rental_uris": {"ios": "https://dc.lft.to/lastmile_qr_scan", "android": "https://dc.lft.to/lastmile_qr_scan"}, "lon": -76.98605366666666, "type": "electric_scooter", "fusion_lat": 0.0, "lat": 38.878435833333334, "name": "d67ae8fab80366f06fe7f3effb8ad920", "fusion_lon": 0.0, "bike_id": "d67ae8fab80366f06fe7f3effb8ad920", "is_disabled": 0, "is_reserved": 0}, {"rental_uris": {"ios": "https://dc.lft.to/lastmile_qr_scan", "android": "https://dc.lft.to/lastmile_qr_scan"}, "lon": -77.00337633333334, "type": "electric_bike", "fusion_lat": 0.0, "lat": 38.87660733333333, "name": "d833588d59e7ed888f4687dd73ad8b54", "fusion_lon": 0.0, "bike_id": "d833588d59e7ed888f4687dd73ad8b54", "is_disabled": 0, "is_reserved": 0}, {"rental_uris": {"ios": "https://dc.lft.to/lastmile_qr_scan", "android": "https://dc.lft.to/lastmile_qr_scan"}, "lon": -77.0341045, "type": "electric_scooter", "fusion_lat": 0.0, "lat": 38.92428483333333, "name": "f8b5fc031bf78d5880920d77a32a4364", "fusion_lon": 0.0, "bike_id": "f8b5fc031bf78d5880920d77a32a4364", "is_disabled": 0, "is_reserved": 0}, {"rental_uris": {"ios": "https://dc.lft.to/lastmile_qr_scan", "android": "https://dc.lft.to/lastmile_qr_scan"}, "lon": -77.01109983333333, "type": "electric_scooter", "fusion_lat": 0.0, "lat": 38.87087066666667, "name": "9ac83e4d6f49be143ff5b7fd8bb5774a", "fusion_lon": 0.0, "bike_id": "9ac83e4d6f49be143ff5b7fd8bb5774a", "is_disabled": 0, "is_reserved": 0}, {"rental_uris": {"ios": "https://dc.lft.to/lastmile_qr_scan", "android": "https://dc.lft.to/lastmile_qr_scan"}, "lon": -76.92846283333333, "type": "electric_scooter", "fusion_lat": 0.0, "lat": 38.883596, "name": "f345fde1ead223686d024d967d4de379", "fusion_lon": 0.0, "bike_id": "f345fde1ead223686d024d967d4de379", "is_disabled": 0, "is_reserved": 0}, {"rental_uris": {"ios": "https://dc.lft.to/lastmile_qr_scan", "android": "https://dc.lft.to/lastmile_qr_scan"}, "lon": -77.0316935, "type": "electric_scooter", "fusion_lat": 0.0, "lat": 38.89356, "name": "d7675f8a86111e967da904db72395b83", "fusion_lon": 0.0, "bike_id": "d7675f8a86111e967da904db72395b83", "is_disabled": 0, "is_reserved": 0}, {"rental_uris": {"ios": "https://dc.lft.to/lastmile_qr_scan", "android": "https://dc.lft.to/lastmile_qr_scan"}, "lon": -76.99459983333334, "type": "electric_scooter", "fusion_lat": 0.0, "lat": 38.8516285, "name": "8149b81f5b7de0236c28782b5f625485", "fusion_lon": 0.0, "bike_id": "8149b81f5b7de0236c28782b5f625485", "is_disabled": 0, "is_reserved": 0}, {"rental_uris": {"ios": "https://dc.lft.to/lastmile_qr_scan", "android": "https://dc.lft.to/lastmile_qr_scan"}, "lon": -77.03969483333333, "type": "electric_scooter", "fusion_lat": 0.0, "lat": 38.902671833333336, "name": "9a3a5486ed5965ec03a7cfce1b445b9b", "fusion_lon": 0.0, "bike_id": "9a3a5486ed5965ec03a7cfce1b445b9b", "is_disabled": 0, "is_reserved": 0}, {"rental_uris": {"ios": "https://dc.lft.to/lastmile_qr_scan", "android": "https://dc.lft.to/lastmile_qr_scan"}, "lon": -77.03900083333333, "type": "electric_scooter", "fusion_lat": 0.0, "lat": 38.9224445, "name": "e9903fb62b6d0717b6f2e38ecd8e5600", "fusion_lon": 0.0, "bike_id": "e9903fb62b6d0717b6f2e38ecd8e5600", "is_disabled": 0, "is_reserved": 0}, {"rental_uris": {"ios": "https://dc.lft.to/lastmile_qr_scan", "android": "https://dc.lft.to/lastmile_qr_scan"}, "lon": -77.03571083333334, "type": "electric_scooter", "fusion_lat": 0.0, "lat": 38.939824333333334, "name": "a8246c872e85cb144dfac624455cf839", "fusion_lon": 0.0, "bike_id": "a8246c872e85cb144dfac624455cf839", "is_disabled": 0, "is_reserved": 0}, {"rental_uris": {"ios": "https://dc.lft.to/lastmile_qr_scan", "android": "https://dc.lft.to/lastmile_qr_scan"}, "lon": -76.95678783333334, "type": "electric_bike", "fusion_lat": 0.0, "lat": 38.947336, "name": "ca805976814b3ae6190f958d449b47c0", "fusion_lon": 0.0, "bike_id": "ca805976814b3ae6190f958d449b47c0", "is_disabled": 0, "is_reserved": 0}, {"rental_uris": {"ios": "https://dc.lft.to/lastmile_qr_scan", "android": "https://dc.lft.to/lastmile_qr_scan"}, "lon": -76.93160433333334, "type": "electric_scooter", "fusion_lat": 0.0, "lat": 38.898788833333334, "name": "dc5fb23c1cfb9c9b8b7513c40073e227", "fusion_lon": 0.0, "bike_id": "dc5fb23c1cfb9c9b8b7513c40073e227", "is_disabled": 0, "is_reserved": 0}, {"rental_uris": {"ios": "https://dc.lft.to/lastmile_qr_scan", "android": "https://dc.lft.to/lastmile_qr_scan"}, "lon": -77.04574616666666, "type": "electric_scooter", "fusion_lat": 0.0, "lat": 38.9105825, "name": "2a8889bbd550e134758d1096ec98c282", "fusion_lon": 0.0, "bike_id": "2a8889bbd550e134758d1096ec98c282", "is_disabled": 0, "is_reserved": 0}, {"rental_uris": {"ios": "https://dc.lft.to/lastmile_qr_scan", "android": "https://dc.lft.to/lastmile_qr_scan"}, "lon": -76.94830483333334, "type": "electric_scooter", "fusion_lat": 0.0, "lat": 38.88418983333333, "name": "ed2159a08a01610b361fff91e53ada48", "fusion_lon": 0.0, "bike_id": "ed2159a08a01610b361fff91e53ada48", "is_disabled": 0, "is_reserved": 0}, {"rental_uris": {"ios": "https://dc.lft.to/lastmile_qr_scan", "android": "https://dc.lft.to/lastmile_qr_scan"}, "lon": -76.92875366666667, "type": "electric_scooter", "fusion_lat": 0.0, "lat": 38.88443983333333, "name": "87774ff8b1038ad10dab1715ebba6d3f", "fusion_lon": 0.0, "bike_id": "87774ff8b1038ad10dab1715ebba6d3f", "is_disabled": 0, "is_reserved": 0}, {"rental_uris": {"ios": "https://dc.lft.to/lastmile_qr_scan", "android": "https://dc.lft.to/lastmile_qr_scan"}, "lon": -77.04821216666667, "type": "electric_scooter", "fusion_lat": 0.0, "lat": 38.909613, "name": "0ba5fba692da3d486cca95e2fa16917c", "fusion_lon": 0.0, "bike_id": "0ba5fba692da3d486cca95e2fa16917c", "is_disabled": 0, "is_reserved": 0}, {"rental_uris": {"ios": "https://dc.lft.to/lastmile_qr_scan", "android": "https://dc.lft.to/lastmile_qr_scan"}, "lon": -77.0201675, "type": "electric_bike", "fusion_lat": 0.0, "lat": 38.93725166666667, "name": "6a123d0d206eaad0f9eb78960dcb9b74", "fusion_lon": 0.0, "bike_id": "6a123d0d206eaad0f9eb78960dcb9b74", "is_disabled": 0, "is_reserved": 0}, {"rental_uris": {"ios": "https://dc.lft.to/lastmile_qr_scan", "android": "https://dc.lft.to/lastmile_qr_scan"}, "lon": -77.0363875, "type": "electric_scooter", "fusion_lat": 0.0, "lat": 38.902859, "name": "36a20c35bcac9351f584be153b846be0", "fusion_lon": 0.0, "bike_id": "36a20c35bcac9351f584be153b846be0", "is_disabled": 0, "is_reserved": 0}, {"rental_uris": {"ios": "https://dc.lft.to/lastmile_qr_scan", "android": "https://dc.lft.to/lastmile_qr_scan"}, "lon": -77.08049533333333, "type": "electric_bike", "fusion_lat": 0.0, "lat": 38.848424333333334, "name": "c998622afb912dc63f010aba5accd696", "fusion_lon": 0.0, "bike_id": "c998622afb912dc63f010aba5accd696", "is_disabled": 0, "is_reserved": 0}, {"rental_uris": {"ios": "https://dc.lft.to/lastmile_qr_scan", "android": "https://dc.lft.to/lastmile_qr_scan"}, "lon": -77.35305483333333, "type": "electric_bike", "fusion_lat": 0.0, "lat": 38.95, "name": "19f50ac8e3e5906dfeab1f738337156b", "fusion_lon": 0.0, "bike_id": "19f50ac8e3e5906dfeab1f738337156b", "is_disabled": 0, "is_reserved": 0}, {"rental_uris": {"ios": "https://dc.lft.to/lastmile_qr_scan", "android": "https://dc.lft.to/lastmile_qr_scan"}, "lon": -77.0284275, "type": "electric_scooter", "fusion_lat": 0.0, "lat": 38.9426345, "name": "896c62e1182057844cd32cadaf5b07d3", "fusion_lon": 0.0, "bike_id": "896c62e1182057844cd32cadaf5b07d3", "is_disabled": 0, "is_reserved": 0}, {"rental_uris": {"ios": "https://dc.lft.to/lastmile_qr_scan", "android": "https://dc.lft.to/lastmile_qr_scan"}, "lon": -77.00727483333333, "type": "electric_scooter", "fusion_lat": 0.0, "lat": 38.8849085, "name": "5af789b9fdebf8c151de4b4a973f0c29", "fusion_lon": 0.0, "bike_id": "5af789b9fdebf8c151de4b4a973f0c29", "is_disabled": 0, "is_reserved": 0}, {"rental_uris": {"ios": "https://dc.lft.to/lastmile_qr_scan", "android": "https://dc.lft.to/lastmile_qr_scan"}, "lon": -77.04738883333333, "type": "electric_scooter", "fusion_lat": 0.0, "lat": 38.917741666666664, "name": "f90471f1e8427119e675648f0a79aa62", "fusion_lon": 0.0, "bike_id": "f90471f1e8427119e675648f0a79aa62", "is_disabled": 0, "is_reserved": 0}, {"rental_uris": {"ios": "https://dc.lft.to/lastmile_qr_scan", "android": "https://dc.lft.to/lastmile_qr_scan"}, "lon": -77.0330025, "type": "electric_scooter", "fusion_lat": 0.0, "lat": 38.901551, "name": "d369a5580d1327d1c077b04db4b8782f", "fusion_lon": 0.0, "bike_id": "d369a5580d1327d1c077b04db4b8782f", "is_disabled": 0, "is_reserved": 0}, {"rental_uris": {"ios": "https://dc.lft.to/lastmile_qr_scan", "android": "https://dc.lft.to/lastmile_qr_scan"}, "lon": -76.99484266666667, "type": "electric_scooter", "fusion_lat": 0.0, "lat": 38.86238566666667, "name": "5a2c2230499f361f64a8cec425f91749", "fusion_lon": 0.0, "bike_id": "5a2c2230499f361f64a8cec425f91749", "is_disabled": 0, "is_reserved": 0}, {"rental_uris": {"ios": "https://dc.lft.to/lastmile_qr_scan", "android": "https://dc.lft.to/lastmile_qr_scan"}, "lon": -77.0318255, "type": "electric_scooter", "fusion_lat": 0.0, "lat": 38.91920433333333, "name": "4fec614242014041bcefe69dfb0b4d58", "fusion_lon": 0.0, "bike_id": "4fec614242014041bcefe69dfb0b4d58", "is_disabled": 0, "is_reserved": 0}, {"rental_uris": {"ios": "https://dc.lft.to/lastmile_qr_scan", "android": "https://dc.lft.to/lastmile_qr_scan"}, "lon": -76.93173066666667, "type": "electric_scooter", "fusion_lat": 0.0, "lat": 38.898855, "name": "893e9154b11528398bfc2465516cbcee", "fusion_lon": 0.0, "bike_id": "893e9154b11528398bfc2465516cbcee", "is_disabled": 0, "is_reserved": 0}, {"rental_uris": {"ios": "https://dc.lft.to/lastmile_qr_scan", "android": "https://dc.lft.to/lastmile_qr_scan"}, "lon": -76.9982935, "type": "electric_scooter", "fusion_lat": 0.0, "lat": 38.90014083333333, "name": "71ae12175e485f48079d8530d997c271", "fusion_lon": 0.0, "bike_id": "71ae12175e485f48079d8530d997c271", "is_disabled": 0, "is_reserved": 0}, {"rental_uris": {"ios": "https://dc.lft.to/lastmile_qr_scan", "android": "https://dc.lft.to/lastmile_qr_scan"}, "lon": -77.04272366666666, "type": "electric_scooter", "fusion_lat": 0.0, "lat": 38.90726433333333, "name": "79379cb1bea756154a123dfd93aaf9c3", "fusion_lon": 0.0, "bike_id": "79379cb1bea756154a123dfd93aaf9c3", "is_disabled": 0, "is_reserved": 0}, {"rental_uris": {"ios": "https://dc.lft.to/lastmile_qr_scan", "android": "https://dc.lft.to/lastmile_qr_scan"}, "lon": -77.03431266666666, "type": "electric_scooter", "fusion_lat": 0.0, "lat": 38.9034275, "name": "f2c2b00e16709a44d20c12edfb536a0c", "fusion_lon": 0.0, "bike_id": "f2c2b00e16709a44d20c12edfb536a0c", "is_disabled": 0, "is_reserved": 0}, {"rental_uris": {"ios": "https://dc.lft.to/lastmile_qr_scan", "android": "https://dc.lft.to/lastmile_qr_scan"}, "lon": -77.04175616666667, "type": "electric_scooter", "fusion_lat": 0.0, "lat": 38.9054395, "name": "61c4b25b989932b4480eb38e185f5e84", "fusion_lon": 0.0, "bike_id": "61c4b25b989932b4480eb38e185f5e84", "is_disabled": 0, "is_reserved": 0}, {"rental_uris": {"ios": "https://dc.lft.to/lastmile_qr_scan", "android": "https://dc.lft.to/lastmile_qr_scan"}, "lon": -76.93717333333333, "type": "electric_scooter", "fusion_lat": 0.0, "lat": 38.8958935, "name": "4f49896535a2db0f90065c67a7b1baea", "fusion_lon": 0.0, "bike_id": "4f49896535a2db0f90065c67a7b1baea", "is_disabled": 0, "is_reserved": 0}, {"rental_uris": {"ios": "https://dc.lft.to/lastmile_qr_scan", "android": "https://dc.lft.to/lastmile_qr_scan"}, "lon": -77.0411125, "type": "electric_scooter", "fusion_lat": 0.0, "lat": 38.924476166666665, "name": "ff94839aa8848ed1280c1a87a8df509f", "fusion_lon": 0.0, "bike_id": "ff94839aa8848ed1280c1a87a8df509f", "is_disabled": 0, "is_reserved": 0}, {"rental_uris": {"ios": "https://dc.lft.to/lastmile_qr_scan", "android": "https://dc.lft.to/lastmile_qr_scan"}, "lon": -77.03296166666667, "type": "electric_scooter", "fusion_lat": 0.0, "lat": 38.9097065, "name": "f41ae1fcda079505ef2f2ffbfe4a9cc9", "fusion_lon": 0.0, "bike_id": "f41ae1fcda079505ef2f2ffbfe4a9cc9", "is_disabled": 0, "is_reserved": 0}, {"rental_uris": {"ios": "https://dc.lft.to/lastmile_qr_scan", "android": "https://dc.lft.to/lastmile_qr_scan"}, "lon": -77.03995416666666, "type": "electric_scooter", "fusion_lat": 0.0, "lat": 38.90366366666667, "name": "13dc245e4798f560d9074b5d33280271", "fusion_lon": 0.0, "bike_id": "13dc245e4798f560d9074b5d33280271", "is_disabled": 0, "is_reserved": 0}, {"rental_uris": {"ios": "https://dc.lft.to/lastmile_qr_scan", "android": "https://dc.lft.to/lastmile_qr_scan"}, "lon": -77.01953333333333, "type": "electric_scooter", "fusion_lat": 0.0, "lat": 38.903620333333336, "name": "04214c7b3d5a4ea0931713c3d9c6ea3b", "fusion_lon": 0.0, "bike_id": "04214c7b3d5a4ea0931713c3d9c6ea3b", "is_disabled": 0, "is_reserved": 0}, {"rental_uris": {"ios": "https://dc.lft.to/lastmile_qr_scan", "android": "https://dc.lft.to/lastmile_qr_scan"}, "lon": -76.97406366666667, "type": "electric_scooter", "fusion_lat": 0.0, "lat": 38.9016195, "name": "e0b23c5464dba18c7c12d4610ff9ac7c", "fusion_lon": 0.0, "bike_id": "e0b23c5464dba18c7c12d4610ff9ac7c", "is_disabled": 0, "is_reserved": 0}, {"rental_uris": {"ios": "https://dc.lft.to/lastmile_qr_scan", "android": "https://dc.lft.to/lastmile_qr_scan"}, "lon": -76.97939166666667, "type": "electric_scooter", "fusion_lat": 0.0, "lat": 38.906739, "name": "583f8941f4610916560fb5e5ee6bd9df", "fusion_lon": 0.0, "bike_id": "583f8941f4610916560fb5e5ee6bd9df", "is_disabled": 0, "is_reserved": 0}, {"rental_uris": {"ios": "https://dc.lft.to/lastmile_qr_scan", "android": "https://dc.lft.to/lastmile_qr_scan"}, "lon": -77.03238583333334, "type": "electric_scooter", "fusion_lat": 0.0, "lat": 38.904543333333336, "name": "0211af929f5f91702b39da094143c54f", "fusion_lon": 0.0, "bike_id": "0211af929f5f91702b39da094143c54f", "is_disabled": 0, "is_reserved": 0}, {"rental_uris": {"ios": "https://dc.lft.to/lastmile_qr_scan", "android": "https://dc.lft.to/lastmile_qr_scan"}, "lon": -77.01075866666666, "type": "electric_scooter", "fusion_lat": 0.0, "lat": 38.89506433333333, "name": "2713620b85a4029914e6b815a6c60ca4", "fusion_lon": 0.0, "bike_id": "2713620b85a4029914e6b815a6c60ca4", "is_disabled": 0, "is_reserved": 0}, {"rental_uris": {"ios": "https://dc.lft.to/lastmile_qr_scan", "android": "https://dc.lft.to/lastmile_qr_scan"}, "lon": -77.04673733333334, "type": "electric_scooter", "fusion_lat": 0.0, "lat": 38.913247166666665, "name": "08ded96583fd5532488fc177b389ab48", "fusion_lon": 0.0, "bike_id": "08ded96583fd5532488fc177b389ab48", "is_disabled": 0, "is_reserved": 0}, {"rental_uris": {"ios": "https://dc.lft.to/lastmile_qr_scan", "android": "https://dc.lft.to/lastmile_qr_scan"}, "lon": -77.01111466666667, "type": "electric_scooter", "fusion_lat": 0.0, "lat": 38.91565216666667, "name": "eb3a8187e7be66dd9e75d13d1bfe8adc", "fusion_lon": 0.0, "bike_id": "eb3a8187e7be66dd9e75d13d1bfe8adc", "is_disabled": 0, "is_reserved": 0}, {"rental_uris": {"ios": "https://dc.lft.to/lastmile_qr_scan", "android": "https://dc.lft.to/lastmile_qr_scan"}, "lon": -77.00263, "type": "electric_scooter", "fusion_lat": 0.0, "lat": 38.911879166666665, "name": "9a8bec3638d4b911a62b34e8b02c8169", "fusion_lon": 0.0, "bike_id": "9a8bec3638d4b911a62b34e8b02c8169", "is_disabled": 0, "is_reserved": 0}, {"rental_uris": {"ios": "https://dc.lft.to/lastmile_qr_scan", "android": "https://dc.lft.to/lastmile_qr_scan"}, "lon": -77.01202, "type": "electric_scooter", "fusion_lat": 0.0, "lat": 38.87089533333334, "name": "54accb51831f942cec5dcb124f18ad5b", "fusion_lon": 0.0, "bike_id": "54accb51831f942cec5dcb124f18ad5b", "is_disabled": 0, "is_reserved": 0}, {"rental_uris": {"ios": "https://dc.lft.to/lastmile_qr_scan", "android": "https://dc.lft.to/lastmile_qr_scan"}, "lon": -77.04401716666666, "type": "electric_scooter", "fusion_lat": 0.0, "lat": 38.9057085, "name": "d45558fbf3d9f43b24c29e1ee86e7f87", "fusion_lon": 0.0, "bike_id": "d45558fbf3d9f43b24c29e1ee86e7f87", "is_disabled": 0, "is_reserved": 0}, {"rental_uris": {"ios": "https://dc.lft.to/lastmile_qr_scan", "android": "https://dc.lft.to/lastmile_qr_scan"}, "lon": -77.01655016666666, "type": "electric_scooter", "fusion_lat": 0.0, "lat": 38.953299333333334, "name": "da32ea8c3749a9913849a5d68bf63ed9", "fusion_lon": 0.0, "bike_id": "da32ea8c3749a9913849a5d68bf63ed9", "is_disabled": 0, "is_reserved": 0}, {"rental_uris": {"ios": "https://dc.lft.to/lastmile_qr_scan", "android": "https://dc.lft.to/lastmile_qr_scan"}, "lon": -77.04984716666667, "type": "electric_scooter", "fusion_lat": 0.0, "lat": 38.9010955, "name": "82fde7b7f95cc9e14106652b87dd8fd3", "fusion_lon": 0.0, "bike_id": "82fde7b7f95cc9e14106652b87dd8fd3", "is_disabled": 0, "is_reserved": 0}, {"rental_uris": {"ios": "https://dc.lft.to/lastmile_qr_scan", "android": "https://dc.lft.to/lastmile_qr_scan"}, "lon": -77.00261483333334, "type": "electric_scooter", "fusion_lat": 0.0, "lat": 38.877502666666665, "name": "e0c7b3a56218d4b37aa84b21d8479e79", "fusion_lon": 0.0, "bike_id": "e0c7b3a56218d4b37aa84b21d8479e79", "is_disabled": 0, "is_reserved": 0}, {"rental_uris": {"ios": "https://dc.lft.to/lastmile_qr_scan", "android": "https://dc.lft.to/lastmile_qr_scan"}, "lon": -77.04799183333333, "type": "electric_scooter", "fusion_lat": 0.0, "lat": 38.89373066666667, "name": "24a1bf54c09b3257a88da19669508e21", "fusion_lon": 0.0, "bike_id": "24a1bf54c09b3257a88da19669508e21", "is_disabled": 0, "is_reserved": 0}, {"rental_uris": {"ios": "https://dc.lft.to/lastmile_qr_scan", "android": "https://dc.lft.to/lastmile_qr_scan"}, "lon": -77.05435883333334, "type": "electric_scooter", "fusion_lat": 0.0, "lat": 38.896106833333334, "name": "be871dcffcb2f297a5463703e827c1a8", "fusion_lon": 0.0, "bike_id": "be871dcffcb2f297a5463703e827c1a8", "is_disabled": 0, "is_reserved": 0}, {"rental_uris": {"ios": "https://dc.lft.to/lastmile_qr_scan", "android": "https://dc.lft.to/lastmile_qr_scan"}, "lon": -77.02127816666666, "type": "electric_scooter", "fusion_lat": 0.0, "lat": 38.90972716666667, "name": "c03384476ba9af5a919847a9d42dcd9f", "fusion_lon": 0.0, "bike_id": "c03384476ba9af5a919847a9d42dcd9f", "is_disabled": 0, "is_reserved": 0}, {"rental_uris": {"ios": "https://dc.lft.to/lastmile_qr_scan", "android": "https://dc.lft.to/lastmile_qr_scan"}, "lon": -76.98264233333333, "type": "electric_scooter", "fusion_lat": 0.0, "lat": 38.86353733333333, "name": "96ff2fe7c2a145b2fd0e170c0a103c62", "fusion_lon": 0.0, "bike_id": "96ff2fe7c2a145b2fd0e170c0a103c62", "is_disabled": 0, "is_reserved": 0}, {"rental_uris": {"ios": "https://dc.lft.to/lastmile_qr_scan", "android": "https://dc.lft.to/lastmile_qr_scan"}, "lon": -77.03386983333333, "type": "electric_scooter", "fusion_lat": 0.0, "lat": 38.938471166666666, "name": "9441dc8eddbbbec5694f88808fad180f", "fusion_lon": 0.0, "bike_id": "9441dc8eddbbbec5694f88808fad180f", "is_disabled": 0, "is_reserved": 0}, {"rental_uris": {"ios": "https://dc.lft.to/lastmile_qr_scan", "android": "https://dc.lft.to/lastmile_qr_scan"}, "lon": -77.01834433333333, "type": "electric_scooter", "fusion_lat": 0.0, "lat": 38.90880933333333, "name": "75c0bfef591b19c794e456e5233dc664", "fusion_lon": 0.0, "bike_id": "75c0bfef591b19c794e456e5233dc664", "is_disabled": 0, "is_reserved": 0}, {"rental_uris": {"ios": "https://dc.lft.to/lastmile_qr_scan", "android": "https://dc.lft.to/lastmile_qr_scan"}, "lon": -77.01113466666666, "type": "electric_scooter", "fusion_lat": 0.0, "lat": 38.90019233333334, "name": "ade854c9344518342d3390b9cc668752", "fusion_lon": 0.0, "bike_id": "ade854c9344518342d3390b9cc668752", "is_disabled": 0, "is_reserved": 0}, {"rental_uris": {"ios": "https://dc.lft.to/lastmile_qr_scan", "android": "https://dc.lft.to/lastmile_qr_scan"}, "lon": -77.005276, "type": "electric_scooter", "fusion_lat": 0.0, "lat": 38.92899716666667, "name": "fb2a21a813587181de998efe422a9a3b", "fusion_lon": 0.0, "bike_id": "fb2a21a813587181de998efe422a9a3b", "is_disabled": 0, "is_reserved": 0}, {"rental_uris": {"ios": "https://dc.lft.to/lastmile_qr_scan", "android": "https://dc.lft.to/lastmile_qr_scan"}, "lon": -76.98558983333334, "type": "electric_bike", "fusion_lat": 0.0, "lat": 38.892128666666665, "name": "82b635cfa02392ce9c7e9a199df11e10", "fusion_lon": 0.0, "bike_id": "82b635cfa02392ce9c7e9a199df11e10", "is_disabled": 0, "is_reserved": 0}, {"rental_uris": {"ios": "https://dc.lft.to/lastmile_qr_scan", "android": "https://dc.lft.to/lastmile_qr_scan"}, "lon": -77.02504933333333, "type": "electric_scooter", "fusion_lat": 0.0, "lat": 38.918151333333334, "name": "298e22a2cc98bdaac2128005e769de81", "fusion_lon": 0.0, "bike_id": "298e22a2cc98bdaac2128005e769de81", "is_disabled": 0, "is_reserved": 0}, {"rental_uris": {"ios": "https://dc.lft.to/lastmile_qr_scan", "android": "https://dc.lft.to/lastmile_qr_scan"}, "lon": -77.0073795, "type": "electric_scooter", "fusion_lat": 0.0, "lat": 38.955177, "name": "dcce4b18b439037bc50b301cc5f06b70", "fusion_lon": 0.0, "bike_id": "dcce4b18b439037bc50b301cc5f06b70", "is_disabled": 0, "is_reserved": 0}, {"rental_uris": {"ios": "https://dc.lft.to/lastmile_qr_scan", "android": "https://dc.lft.to/lastmile_qr_scan"}, "lon": -76.9930815, "type": "electric_scooter", "fusion_lat": 0.0, "lat": 38.925585, "name": "9721e97032c4cf009f05083bbf850a3e", "fusion_lon": 0.0, "bike_id": "9721e97032c4cf009f05083bbf850a3e", "is_disabled": 0, "is_reserved": 0}, {"rental_uris": {"ios": "https://dc.lft.to/lastmile_qr_scan", "android": "https://dc.lft.to/lastmile_qr_scan"}, "lon": -77.0234775, "type": "electric_scooter", "fusion_lat": 0.0, "lat": 38.922753, "name": "386c86ad4d1b277aca264f42698e6232", "fusion_lon": 0.0, "bike_id": "386c86ad4d1b277aca264f42698e6232", "is_disabled": 0, "is_reserved": 0}, {"rental_uris": {"ios": "https://dc.lft.to/lastmile_qr_scan", "android": "https://dc.lft.to/lastmile_qr_scan"}, "lon": -77.034659, "type": "electric_scooter", "fusion_lat": 0.0, "lat": 38.90269516666667, "name": "a46a83d414a3e67cb06a71e2728cde3f", "fusion_lon": 0.0, "bike_id": "a46a83d414a3e67cb06a71e2728cde3f", "is_disabled": 0, "is_reserved": 0}, {"rental_uris": {"ios": "https://dc.lft.to/lastmile_qr_scan", "android": "https://dc.lft.to/lastmile_qr_scan"}, "lon": -77.02131616666667, "type": "electric_scooter", "fusion_lat": 0.0, "lat": 38.909695, "name": "b4ca4cf9c212add575ec4707167066d6", "fusion_lon": 0.0, "bike_id": "b4ca4cf9c212add575ec4707167066d6", "is_disabled": 0, "is_reserved": 0}, {"rental_uris": {"ios": "https://dc.lft.to/lastmile_qr_scan", "android": "https://dc.lft.to/lastmile_qr_scan"}, "lon": -77.06785466666666, "type": "electric_scooter", "fusion_lat": 0.0, "lat": 38.95204316666667, "name": "ef94564d9f7184a654bdfd57245a13d8", "fusion_lon": 0.0, "bike_id": "ef94564d9f7184a654bdfd57245a13d8", "is_disabled": 0, "is_reserved": 0}, {"rental_uris": {"ios": "https://dc.lft.to/lastmile_qr_scan", "android": "https://dc.lft.to/lastmile_qr_scan"}, "lon": -77.00210066666666, "type": "electric_scooter", "fusion_lat": 0.0, "lat": 38.902219333333335, "name": "e44dbdb6e090d2c29f4ec01817a6581c", "fusion_lon": 0.0, "bike_id": "e44dbdb6e090d2c29f4ec01817a6581c", "is_disabled": 0, "is_reserved": 0}, {"rental_uris": {"ios": "https://dc.lft.to/lastmile_qr_scan", "android": "https://dc.lft.to/lastmile_qr_scan"}, "lon": -77.03263233333334, "type": "electric_scooter", "fusion_lat": 0.0, "lat": 38.93234616666667, "name": "9d9dbd04b08ea588a589b261e64babae", "fusion_lon": 0.0, "bike_id": "9d9dbd04b08ea588a589b261e64babae", "is_disabled": 0, "is_reserved": 0}, {"rental_uris": {"ios": "https://dc.lft.to/lastmile_qr_scan", "android": "https://dc.lft.to/lastmile_qr_scan"}, "lon": -77.02649733333334, "type": "electric_scooter", "fusion_lat": 0.0, "lat": 38.898589333333334, "name": "7855af9c2ff06a49bdb60176dd59faf0", "fusion_lon": 0.0, "bike_id": "7855af9c2ff06a49bdb60176dd59faf0", "is_disabled": 0, "is_reserved": 0}, {"rental_uris": {"ios": "https://dc.lft.to/lastmile_qr_scan", "android": "https://dc.lft.to/lastmile_qr_scan"}, "lon": -77.00224216666666, "type": "electric_scooter", "fusion_lat": 0.0, "lat": 38.913398, "name": "4f3aa04fbbb45ed11aeaabdcb6de3f17", "fusion_lon": 0.0, "bike_id": "4f3aa04fbbb45ed11aeaabdcb6de3f17", "is_disabled": 0, "is_reserved": 0}, {"rental_uris": {"ios": "https://dc.lft.to/lastmile_qr_scan", "android": "https://dc.lft.to/lastmile_qr_scan"}, "lon": -77.04027983333333, "type": "electric_bike", "fusion_lat": 0.0, "lat": 38.923766666666666, "name": "0e864fd0fd56e555d5ddf70e419747c5", "fusion_lon": 0.0, "bike_id": "0e864fd0fd56e555d5ddf70e419747c5", "is_disabled": 0, "is_reserved": 0}, {"rental_uris": {"ios": "https://dc.lft.to/lastmile_qr_scan", "android": "https://dc.lft.to/lastmile_qr_scan"}, "lon": -77.02287866666667, "type": "electric_scooter", "fusion_lat": 0.0, "lat": 38.91970116666667, "name": "ae2d910aacd0197a910045de62a61347", "fusion_lon": 0.0, "bike_id": "ae2d910aacd0197a910045de62a61347", "is_disabled": 0, "is_reserved": 0}, {"rental_uris": {"ios": "https://dc.lft.to/lastmile_qr_scan", "android": "https://dc.lft.to/lastmile_qr_scan"}, "lon": -77.037147, "type": "electric_scooter", "fusion_lat": 0.0, "lat": 38.926354, "name": "e6d0c0dec58326d5ff74c3841ec76c8c", "fusion_lon": 0.0, "bike_id": "e6d0c0dec58326d5ff74c3841ec76c8c", "is_disabled": 0, "is_reserved": 0}, {"rental_uris": {"ios": "https://dc.lft.to/lastmile_qr_scan", "android": "https://dc.lft.to/lastmile_qr_scan"}, "lon": -77.12506233333333, "type": "electric_bike", "fusion_lat": 0.0, "lat": 39.02423483333333, "name": "fac8cd1069cada082e7da580ee5facf0", "fusion_lon": 0.0, "bike_id": "fac8cd1069cada082e7da580ee5facf0", "is_disabled": 0, "is_reserved": 0}, {"rental_uris": {"ios": "https://dc.lft.to/lastmile_qr_scan", "android": "https://dc.lft.to/lastmile_qr_scan"}, "lon": -76.97632133333333, "type": "electric_scooter", "fusion_lat": 0.0, "lat": 38.90573533333333, "name": "937cb75587d55a1a427243c37e2bcdc6", "fusion_lon": 0.0, "bike_id": "937cb75587d55a1a427243c37e2bcdc6", "is_disabled": 0, "is_reserved": 0}, {"rental_uris": {"ios": "https://dc.lft.to/lastmile_qr_scan", "android": "https://dc.lft.to/lastmile_qr_scan"}, "lon": -77.04812216666667, "type": "electric_scooter", "fusion_lat": 0.0, "lat": 38.8971635, "name": "6976f07d59bc9923d6886f62a5a94a36", "fusion_lon": 0.0, "bike_id": "6976f07d59bc9923d6886f62a5a94a36", "is_disabled": 0, "is_reserved": 0}, {"rental_uris": {"ios": "https://dc.lft.to/lastmile_qr_scan", "android": "https://dc.lft.to/lastmile_qr_scan"}, "lon": -77.06641266666666, "type": "electric_scooter", "fusion_lat": 0.0, "lat": 38.91382333333333, "name": "c99957ad6dff7f7d0adf8c6c30e0b2cb", "fusion_lon": 0.0, "bike_id": "c99957ad6dff7f7d0adf8c6c30e0b2cb", "is_disabled": 0, "is_reserved": 0}, {"rental_uris": {"ios": "https://dc.lft.to/lastmile_qr_scan", "android": "https://dc.lft.to/lastmile_qr_scan"}, "lon": -77.03179333333334, "type": "electric_scooter", "fusion_lat": 0.0, "lat": 38.90847483333334, "name": "ec510cabfa1867abb3db6191754e06fe", "fusion_lon": 0.0, "bike_id": "ec510cabfa1867abb3db6191754e06fe", "is_disabled": 0, "is_reserved": 0}, {"rental_uris": {"ios": "https://dc.lft.to/lastmile_qr_scan", "android": "https://dc.lft.to/lastmile_qr_scan"}, "lon": -76.96527433333333, "type": "electric_scooter", "fusion_lat": 0.0, "lat": 38.87625283333333, "name": "12e429301a223a5758d5e9bc2b6ba6a5", "fusion_lon": 0.0, "bike_id": "12e429301a223a5758d5e9bc2b6ba6a5", "is_disabled": 0, "is_reserved": 0}, {"rental_uris": {"ios": "https://dc.lft.to/lastmile_qr_scan", "android": "https://dc.lft.to/lastmile_qr_scan"}, "lon": -77.04607683333333, "type": "electric_scooter", "fusion_lat": 0.0, "lat": 38.902825666666665, "name": "4a21edf280b1bfeec9657dda762b13f9", "fusion_lon": 0.0, "bike_id": "4a21edf280b1bfeec9657dda762b13f9", "is_disabled": 0, "is_reserved": 0}, {"rental_uris": {"ios": "https://dc.lft.to/lastmile_qr_scan", "android": "https://dc.lft.to/lastmile_qr_scan"}, "lon": -77.01527116666666, "type": "electric_scooter", "fusion_lat": 0.0, "lat": 38.916109166666665, "name": "097452fc2a34849359f9512ce5351d2e", "fusion_lon": 0.0, "bike_id": "097452fc2a34849359f9512ce5351d2e", "is_disabled": 0, "is_reserved": 0}, {"rental_uris": {"ios": "https://dc.lft.to/lastmile_qr_scan", "android": "https://dc.lft.to/lastmile_qr_scan"}, "lon": -77.02979016666667, "type": "electric_bike", "fusion_lat": 0.0, "lat": 38.937019, "name": "bcd79b8e783730d5992b6b481afd97a4", "fusion_lon": 0.0, "bike_id": "bcd79b8e783730d5992b6b481afd97a4", "is_disabled": 0, "is_reserved": 0}, {"rental_uris": {"ios": "https://dc.lft.to/lastmile_qr_scan", "android": "https://dc.lft.to/lastmile_qr_scan"}, "lon": -77.02929416666667, "type": "electric_scooter", "fusion_lat": 0.0, "lat": 38.88218716666667, "name": "0204efc9cf4ba4ce61835223ed2f826f", "fusion_lon": 0.0, "bike_id": "0204efc9cf4ba4ce61835223ed2f826f", "is_disabled": 0, "is_reserved": 0}, {"rental_uris": {"ios": "https://dc.lft.to/lastmile_qr_scan", "android": "https://dc.lft.to/lastmile_qr_scan"}, "lon": -77.0736185, "type": "electric_scooter", "fusion_lat": 0.0, "lat": 38.9374705, "name": "395f90bda9084a9bd4b739019fb6ab51", "fusion_lon": 0.0, "bike_id": "395f90bda9084a9bd4b739019fb6ab51", "is_disabled": 0, "is_reserved": 0}, {"rental_uris": {"ios": "https://dc.lft.to/lastmile_qr_scan", "android": "https://dc.lft.to/lastmile_qr_scan"}, "lon": -76.99340533333333, "type": "electric_bike", "fusion_lat": 0.0, "lat": 38.961912, "name": "59b2696246bfbf55388d1389d52830df", "fusion_lon": 0.0, "bike_id": "59b2696246bfbf55388d1389d52830df", "is_disabled": 0, "is_reserved": 0}, {"rental_uris": {"ios": "https://dc.lft.to/lastmile_qr_scan", "android": "https://dc.lft.to/lastmile_qr_scan"}, "lon": -77.018694, "type": "electric_scooter", "fusion_lat": 0.0, "lat": 38.948904166666665, "name": "6d8c2d6879ae991b646c97a9a910916f", "fusion_lon": 0.0, "bike_id": "6d8c2d6879ae991b646c97a9a910916f", "is_disabled": 0, "is_reserved": 0}, {"rental_uris": {"ios": "https://dc.lft.to/lastmile_qr_scan", "android": "https://dc.lft.to/lastmile_qr_scan"}, "lon": -77.04221333333334, "type": "electric_scooter", "fusion_lat": 0.0, "lat": 38.91119833333333, "name": "7284ed8b57047e23272ddc45e873e064", "fusion_lon": 0.0, "bike_id": "7284ed8b57047e23272ddc45e873e064", "is_disabled": 0, "is_reserved": 0}, {"rental_uris": {"ios": "https://dc.lft.to/lastmile_qr_scan", "android": "https://dc.lft.to/lastmile_qr_scan"}, "lon": -77.05557566666667, "type": "electric_scooter", "fusion_lat": 0.0, "lat": 38.8998735, "name": "90b17ddd7d6eb1305511fd911ea7a066", "fusion_lon": 0.0, "bike_id": "90b17ddd7d6eb1305511fd911ea7a066", "is_disabled": 0, "is_reserved": 0}, {"rental_uris": {"ios": "https://dc.lft.to/lastmile_qr_scan", "android": "https://dc.lft.to/lastmile_qr_scan"}, "lon": -76.97503666666667, "type": "electric_bike", "fusion_lat": 0.0, "lat": 38.919345166666666, "name": "eea0698522256d78fa480d38e43d8e44", "fusion_lon": 0.0, "bike_id": "eea0698522256d78fa480d38e43d8e44", "is_disabled": 0, "is_reserved": 0}, {"rental_uris": {"ios": "https://dc.lft.to/lastmile_qr_scan", "android": "https://dc.lft.to/lastmile_qr_scan"}, "lon": -76.9732325, "type": "electric_scooter", "fusion_lat": 0.0, "lat": 38.93034816666667, "name": "7f6d4f0a0d21fa93469675e0357c7296", "fusion_lon": 0.0, "bike_id": "7f6d4f0a0d21fa93469675e0357c7296", "is_disabled": 0, "is_reserved": 0}, {"rental_uris": {"ios": "https://dc.lft.to/lastmile_qr_scan", "android": "https://dc.lft.to/lastmile_qr_scan"}, "lon": -76.97563433333333, "type": "electric_scooter", "fusion_lat": 0.0, "lat": 38.90446383333333, "name": "0adcd6a420f01605ce4a38dbcf38eb5e", "fusion_lon": 0.0, "bike_id": "0adcd6a420f01605ce4a38dbcf38eb5e", "is_disabled": 0, "is_reserved": 0}, {"rental_uris": {"ios": "https://dc.lft.to/lastmile_qr_scan", "android": "https://dc.lft.to/lastmile_qr_scan"}, "lon": -77.04327, "type": "electric_scooter", "fusion_lat": 0.0, "lat": 38.926184, "name": "ee7076b79bf1a3a54d203722eb80ac27", "fusion_lon": 0.0, "bike_id": "ee7076b79bf1a3a54d203722eb80ac27", "is_disabled": 0, "is_reserved": 0}, {"rental_uris": {"ios": "https://dc.lft.to/lastmile_qr_scan", "android": "https://dc.lft.to/lastmile_qr_scan"}, "lon": -77.0463475, "type": "electric_scooter", "fusion_lat": 0.0, "lat": 38.89668016666667, "name": "b25a95117b1bafb665a7bcb40fbe1a1e", "fusion_lon": 0.0, "bike_id": "b25a95117b1bafb665a7bcb40fbe1a1e", "is_disabled": 0, "is_reserved": 0}, {"rental_uris": {"ios": "https://dc.lft.to/lastmile_qr_scan", "android": "https://dc.lft.to/lastmile_qr_scan"}, "lon": -77.04030116666667, "type": "electric_bike", "fusion_lat": 0.0, "lat": 38.804205, "name": "410863290f628c648a301421eb365da3", "fusion_lon": 0.0, "bike_id": "410863290f628c648a301421eb365da3", "is_disabled": 0, "is_reserved": 0}, {"rental_uris": {"ios": "https://dc.lft.to/lastmile_qr_scan", "android": "https://dc.lft.to/lastmile_qr_scan"}, "lon": -76.99607916666666, "type": "electric_scooter", "fusion_lat": 0.0, "lat": 38.88625583333334, "name": "bad9150ab7a6913f4d87ef3b1e16d9ba", "fusion_lon": 0.0, "bike_id": "bad9150ab7a6913f4d87ef3b1e16d9ba", "is_disabled": 0, "is_reserved": 0}, {"rental_uris": {"ios": "https://dc.lft.to/lastmile_qr_scan", "android": "https://dc.lft.to/lastmile_qr_scan"}, "lon": -77.04492066666667, "type": "electric_scooter", "fusion_lat": 0.0, "lat": 38.91523433333333, "name": "627888ba98a561d44ed93ad8a3688883", "fusion_lon": 0.0, "bike_id": "627888ba98a561d44ed93ad8a3688883", "is_disabled": 0, "is_reserved": 0}, {"rental_uris": {"ios": "https://dc.lft.to/lastmile_qr_scan", "android": "https://dc.lft.to/lastmile_qr_scan"}, "lon": -77.01097483333334, "type": "electric_scooter", "fusion_lat": 0.0, "lat": 38.91567416666667, "name": "258a79ef0b8e4c1d84bf27b0389187cc", "fusion_lon": 0.0, "bike_id": "258a79ef0b8e4c1d84bf27b0389187cc", "is_disabled": 0, "is_reserved": 0}, {"rental_uris": {"ios": "https://dc.lft.to/lastmile_qr_scan", "android": "https://dc.lft.to/lastmile_qr_scan"}, "lon": -76.98566766666667, "type": "electric_scooter", "fusion_lat": 0.0, "lat": 38.86150633333333, "name": "cd3f4f8044c122fae3e7379eea5e7945", "fusion_lon": 0.0, "bike_id": "cd3f4f8044c122fae3e7379eea5e7945", "is_disabled": 0, "is_reserved": 0}, {"rental_uris": {"ios": "https://dc.lft.to/lastmile_qr_scan", "android": "https://dc.lft.to/lastmile_qr_scan"}, "lon": -77.04633266666667, "type": "electric_scooter", "fusion_lat": 0.0, "lat": 38.892215, "name": "f95189dd1b913129554c6c61399137c7", "fusion_lon": 0.0, "bike_id": "f95189dd1b913129554c6c61399137c7", "is_disabled": 0, "is_reserved": 0}, {"rental_uris": {"ios": "https://dc.lft.to/lastmile_qr_scan", "android": "https://dc.lft.to/lastmile_qr_scan"}, "lon": -76.99866483333334, "type": "electric_scooter", "fusion_lat": 0.0, "lat": 38.9003485, "name": "1c2da5b6bfde0f2d7668f7f661b61578", "fusion_lon": 0.0, "bike_id": "1c2da5b6bfde0f2d7668f7f661b61578", "is_disabled": 0, "is_reserved": 0}, {"rental_uris": {"ios": "https://dc.lft.to/lastmile_qr_scan", "android": "https://dc.lft.to/lastmile_qr_scan"}, "lon": -77.021793, "type": "electric_scooter", "fusion_lat": 0.0, "lat": 38.880383333333334, "name": "a63c2050059973cf24e1be331961bcd1", "fusion_lon": 0.0, "bike_id": "a63c2050059973cf24e1be331961bcd1", "is_disabled": 0, "is_reserved": 0}, {"rental_uris": {"ios": "https://dc.lft.to/lastmile_qr_scan", "android": "https://dc.lft.to/lastmile_qr_scan"}, "lon": -77.03730066666667, "type": "electric_scooter", "fusion_lat": 0.0, "lat": 38.9069395, "name": "b0cc5f6e02de21d07e923f5be0ab7356", "fusion_lon": 0.0, "bike_id": "b0cc5f6e02de21d07e923f5be0ab7356", "is_disabled": 0, "is_reserved": 0}, {"rental_uris": {"ios": "https://dc.lft.to/lastmile_qr_scan", "android": "https://dc.lft.to/lastmile_qr_scan"}, "lon": -77.07106483333334, "type": "electric_bike", "fusion_lat": 0.0, "lat": 38.914486333333336, "name": "b46979f94107c44f8238bac9baa96317", "fusion_lon": 0.0, "bike_id": "b46979f94107c44f8238bac9baa96317", "is_disabled": 0, "is_reserved": 0}, {"rental_uris": {"ios": "https://dc.lft.to/lastmile_qr_scan", "android": "https://dc.lft.to/lastmile_qr_scan"}, "lon": -76.98093433333334, "type": "electric_bike", "fusion_lat": 0.0, "lat": 38.881351, "name": "6b25bf9ff8f50bfae4426b5b9425f815", "fusion_lon": 0.0, "bike_id": "6b25bf9ff8f50bfae4426b5b9425f815", "is_disabled": 0, "is_reserved": 0}, {"rental_uris": {"ios": "https://dc.lft.to/lastmile_qr_scan", "android": "https://dc.lft.to/lastmile_qr_scan"}, "lon": -77.01209916666667, "type": "electric_bike", "fusion_lat": 0.0, "lat": 38.870996833333336, "name": "9dc5aa2e8af8c9d620fe6cc5392619a1", "fusion_lon": 0.0, "bike_id": "9dc5aa2e8af8c9d620fe6cc5392619a1", "is_disabled": 0, "is_reserved": 0}, {"rental_uris": {"ios": "https://dc.lft.to/lastmile_qr_scan", "android": "https://dc.lft.to/lastmile_qr_scan"}, "lon": -77.04681883333333, "type": "electric_scooter", "fusion_lat": 0.0, "lat": 38.8922385, "name": "370674d97c449852d6f962c32405409e", "fusion_lon": 0.0, "bike_id": "370674d97c449852d6f962c32405409e", "is_disabled": 0, "is_reserved": 0}, {"rental_uris": {"ios": "https://dc.lft.to/lastmile_qr_scan", "android": "https://dc.lft.to/lastmile_qr_scan"}, "lon": -77.0384045, "type": "electric_scooter", "fusion_lat": 0.0, "lat": 38.90754733333333, "name": "ac260610d4651a63caf069a53c41b568", "fusion_lon": 0.0, "bike_id": "ac260610d4651a63caf069a53c41b568", "is_disabled": 0, "is_reserved": 0}, {"rental_uris": {"ios": "https://dc.lft.to/lastmile_qr_scan", "android": "https://dc.lft.to/lastmile_qr_scan"}, "lon": -77.05303533333333, "type": "electric_scooter", "fusion_lat": 0.0, "lat": 38.902675, "name": "f2df7be559f113803f26e29d8222da20", "fusion_lon": 0.0, "bike_id": "f2df7be559f113803f26e29d8222da20", "is_disabled": 0, "is_reserved": 0}, {"rental_uris": {"ios": "https://dc.lft.to/lastmile_qr_scan", "android": "https://dc.lft.to/lastmile_qr_scan"}, "lon": -77.07721566666666, "type": "electric_scooter", "fusion_lat": 0.0, "lat": 38.947076333333335, "name": "5e4b575d770aa2afa816862b26571c18", "fusion_lon": 0.0, "bike_id": "5e4b575d770aa2afa816862b26571c18", "is_disabled": 0, "is_reserved": 0}, {"rental_uris": {"ios": "https://dc.lft.to/lastmile_qr_scan", "android": "https://dc.lft.to/lastmile_qr_scan"}, "lon": -77.03211966666667, "type": "electric_scooter", "fusion_lat": 0.0, "lat": 38.92011216666667, "name": "bba1aec7f68c78cfb1c0e7a683266b50", "fusion_lon": 0.0, "bike_id": "bba1aec7f68c78cfb1c0e7a683266b50", "is_disabled": 0, "is_reserved": 0}, {"rental_uris": {"ios": "https://dc.lft.to/lastmile_qr_scan", "android": "https://dc.lft.to/lastmile_qr_scan"}, "lon": -77.02779516666666, "type": "electric_scooter", "fusion_lat": 0.0, "lat": 38.953852499999996, "name": "76a98c4a1cc74e7e37bf9387c7977086", "fusion_lon": 0.0, "bike_id": "76a98c4a1cc74e7e37bf9387c7977086", "is_disabled": 0, "is_reserved": 0}, {"rental_uris": {"ios": "https://dc.lft.to/lastmile_qr_scan", "android": "https://dc.lft.to/lastmile_qr_scan"}, "lon": -77.02537033333333, "type": "electric_scooter", "fusion_lat": 0.0, "lat": 38.924059, "name": "8b2976f2d17ed9059836a2af34394b91", "fusion_lon": 0.0, "bike_id": "8b2976f2d17ed9059836a2af34394b91", "is_disabled": 0, "is_reserved": 0}, {"rental_uris": {"ios": "https://dc.lft.to/lastmile_qr_scan", "android": "https://dc.lft.to/lastmile_qr_scan"}, "lon": -76.97302033333334, "type": "electric_scooter", "fusion_lat": 0.0, "lat": 38.91992333333334, "name": "58f343fb23042547c7a4a9451e31329e", "fusion_lon": 0.0, "bike_id": "58f343fb23042547c7a4a9451e31329e", "is_disabled": 0, "is_reserved": 0}, {"rental_uris": {"ios": "https://dc.lft.to/lastmile_qr_scan", "android": "https://dc.lft.to/lastmile_qr_scan"}, "lon": -77.0366755, "type": "electric_scooter", "fusion_lat": 0.0, "lat": 38.9181775, "name": "09b1e7c9bfc898c2c8038b97384fba8d", "fusion_lon": 0.0, "bike_id": "09b1e7c9bfc898c2c8038b97384fba8d", "is_disabled": 0, "is_reserved": 0}, {"rental_uris": {"ios": "https://dc.lft.to/lastmile_qr_scan", "android": "https://dc.lft.to/lastmile_qr_scan"}, "lon": -77.03472083333334, "type": "electric_scooter", "fusion_lat": 0.0, "lat": 38.92355383333334, "name": "f1bb04fe67bf15044bbd60c8a880a1db", "fusion_lon": 0.0, "bike_id": "f1bb04fe67bf15044bbd60c8a880a1db", "is_disabled": 0, "is_reserved": 0}, {"rental_uris": {"ios": "https://dc.lft.to/lastmile_qr_scan", "android": "https://dc.lft.to/lastmile_qr_scan"}, "lon": -77.03368483333334, "type": "electric_scooter", "fusion_lat": 0.0, "lat": 38.932132, "name": "52052d5ecf3173be670e98548abf1af1", "fusion_lon": 0.0, "bike_id": "52052d5ecf3173be670e98548abf1af1", "is_disabled": 0, "is_reserved": 0}, {"rental_uris": {"ios": "https://dc.lft.to/lastmile_qr_scan", "android": "https://dc.lft.to/lastmile_qr_scan"}, "lon": -77.00598866666667, "type": "electric_scooter", "fusion_lat": 0.0, "lat": 38.8849245, "name": "0d328ec22409dd018b21570b3632de18", "fusion_lon": 0.0, "bike_id": "0d328ec22409dd018b21570b3632de18", "is_disabled": 0, "is_reserved": 0}, {"rental_uris": {"ios": "https://dc.lft.to/lastmile_qr_scan", "android": "https://dc.lft.to/lastmile_qr_scan"}, "lon": -77.04786916666667, "type": "electric_scooter", "fusion_lat": 0.0, "lat": 38.899541166666666, "name": "9a867b199bcb04787973b470d544acb9", "fusion_lon": 0.0, "bike_id": "9a867b199bcb04787973b470d544acb9", "is_disabled": 0, "is_reserved": 0}, {"rental_uris": {"ios": "https://dc.lft.to/lastmile_qr_scan", "android": "https://dc.lft.to/lastmile_qr_scan"}, "lon": -77.00051966666666, "type": "electric_scooter", "fusion_lat": 0.0, "lat": 38.8890205, "name": "1eda5644959dd1488b7c2650e61877a1", "fusion_lon": 0.0, "bike_id": "1eda5644959dd1488b7c2650e61877a1", "is_disabled": 0, "is_reserved": 0}, {"rental_uris": {"ios": "https://dc.lft.to/lastmile_qr_scan", "android": "https://dc.lft.to/lastmile_qr_scan"}, "lon": -77.0384085, "type": "electric_scooter", "fusion_lat": 0.0, "lat": 38.910898, "name": "b6f54faa6b3bbded486336cc5f9737ce", "fusion_lon": 0.0, "bike_id": "b6f54faa6b3bbded486336cc5f9737ce", "is_disabled": 0, "is_reserved": 0}, {"rental_uris": {"ios": "https://dc.lft.to/lastmile_qr_scan", "android": "https://dc.lft.to/lastmile_qr_scan"}, "lon": -77.01286166666667, "type": "electric_bike", "fusion_lat": 0.0, "lat": 39.00382583333333, "name": "7b1459f9e99ece7eba98e765ef2ac65c", "fusion_lon": 0.0, "bike_id": "7b1459f9e99ece7eba98e765ef2ac65c", "is_disabled": 0, "is_reserved": 0}, {"rental_uris": {"ios": "https://dc.lft.to/lastmile_qr_scan", "android": "https://dc.lft.to/lastmile_qr_scan"}, "lon": -77.08840833333333, "type": "electric_bike", "fusion_lat": 0.0, "lat": 38.840792, "name": "c62352d7d71106ca3656fbc8dcccbf96", "fusion_lon": 0.0, "bike_id": "c62352d7d71106ca3656fbc8dcccbf96", "is_disabled": 0, "is_reserved": 0}, {"rental_uris": {"ios": "https://dc.lft.to/lastmile_qr_scan", "android": "https://dc.lft.to/lastmile_qr_scan"}, "lon": -77.07558766666666, "type": "electric_bike", "fusion_lat": 0.0, "lat": 38.910388, "name": "b56a2931a07ce2d7100458d07d9417cc", "fusion_lon": 0.0, "bike_id": "b56a2931a07ce2d7100458d07d9417cc", "is_disabled": 0, "is_reserved": 0}, {"rental_uris": {"ios": "https://dc.lft.to/lastmile_qr_scan", "android": "https://dc.lft.to/lastmile_qr_scan"}, "lon": -77.02553716666667, "type": "electric_scooter", "fusion_lat": 0.0, "lat": 38.892321, "name": "81103e153af0174f07cd24d59edfa997", "fusion_lon": 0.0, "bike_id": "81103e153af0174f07cd24d59edfa997", "is_disabled": 0, "is_reserved": 0}, {"rental_uris": {"ios": "https://dc.lft.to/lastmile_qr_scan", "android": "https://dc.lft.to/lastmile_qr_scan"}, "lon": -77.05743866666667, "type": "electric_scooter", "fusion_lat": 0.0, "lat": 38.93540866666667, "name": "4d506df8eef3234f91e3f91729d40331", "fusion_lon": 0.0, "bike_id": "4d506df8eef3234f91e3f91729d40331", "is_disabled": 0, "is_reserved": 0}, {"rental_uris": {"ios": "https://dc.lft.to/lastmile_qr_scan", "android": "https://dc.lft.to/lastmile_qr_scan"}, "lon": -77.02218583333334, "type": "electric_scooter", "fusion_lat": 0.0, "lat": 38.891973666666665, "name": "12127d4e0f5242392b28b235802f1364", "fusion_lon": 0.0, "bike_id": "12127d4e0f5242392b28b235802f1364", "is_disabled": 0, "is_reserved": 0}, {"rental_uris": {"ios": "https://dc.lft.to/lastmile_qr_scan", "android": "https://dc.lft.to/lastmile_qr_scan"}, "lon": -77.01699116666667, "type": "electric_scooter", "fusion_lat": 0.0, "lat": 38.8792305, "name": "e2a8a07741d799ad73dab0dc9643c8e2", "fusion_lon": 0.0, "bike_id": "e2a8a07741d799ad73dab0dc9643c8e2", "is_disabled": 0, "is_reserved": 0}, {"rental_uris": {"ios": "https://dc.lft.to/lastmile_qr_scan", "android": "https://dc.lft.to/lastmile_qr_scan"}, "lon": -77.00771516666667, "type": "electric_scooter", "fusion_lat": 0.0, "lat": 38.870935333333335, "name": "d315811924be1d7390c9a908204aaa35", "fusion_lon": 0.0, "bike_id": "d315811924be1d7390c9a908204aaa35", "is_disabled": 0, "is_reserved": 0}, {"rental_uris": {"ios": "https://dc.lft.to/lastmile_qr_scan", "android": "https://dc.lft.to/lastmile_qr_scan"}, "lon": -77.02345533333333, "type": "electric_scooter", "fusion_lat": 0.0, "lat": 38.93383983333333, "name": "87a50fa3ba51d6e620eea1b6dfb6f56e", "fusion_lon": 0.0, "bike_id": "87a50fa3ba51d6e620eea1b6dfb6f56e", "is_disabled": 0, "is_reserved": 0}, {"rental_uris": {"ios": "https://dc.lft.to/lastmile_qr_scan", "android": "https://dc.lft.to/lastmile_qr_scan"}, "lon": -77.11440633333333, "type": "electric_bike", "fusion_lat": 0.0, "lat": 38.842962166666666, "name": "e61a0aaa65a78e9805587cd2d869bde9", "fusion_lon": 0.0, "bike_id": "e61a0aaa65a78e9805587cd2d869bde9", "is_disabled": 0, "is_reserved": 0}, {"rental_uris": {"ios": "https://dc.lft.to/lastmile_qr_scan", "android": "https://dc.lft.to/lastmile_qr_scan"}, "lon": -77.0234575, "type": "electric_scooter", "fusion_lat": 0.0, "lat": 38.93137216666667, "name": "6e20b2e785f66041dc90ffe207e0d227", "fusion_lon": 0.0, "bike_id": "6e20b2e785f66041dc90ffe207e0d227", "is_disabled": 0, "is_reserved": 0}, {"rental_uris": {"ios": "https://dc.lft.to/lastmile_qr_scan", "android": "https://dc.lft.to/lastmile_qr_scan"}, "lon": -77.0122815, "type": "electric_scooter", "fusion_lat": 0.0, "lat": 38.913248333333335, "name": "6bba5ae2ee5aaa665c1779a77aac55f9", "fusion_lon": 0.0, "bike_id": "6bba5ae2ee5aaa665c1779a77aac55f9", "is_disabled": 0, "is_reserved": 0}, {"rental_uris": {"ios": "https://dc.lft.to/lastmile_qr_scan", "android": "https://dc.lft.to/lastmile_qr_scan"}, "lon": -76.9725565, "type": "electric_bike", "fusion_lat": 0.0, "lat": 38.919226333333334, "name": "a4a7cafa7412553f333a3c1e5eb92811", "fusion_lon": 0.0, "bike_id": "a4a7cafa7412553f333a3c1e5eb92811", "is_disabled": 0, "is_reserved": 0}, {"rental_uris": {"ios": "https://dc.lft.to/lastmile_qr_scan", "android": "https://dc.lft.to/lastmile_qr_scan"}, "lon": -77.0509185, "type": "electric_bike", "fusion_lat": 0.0, "lat": 38.8132715, "name": "cc3caaed77bd462c1025bc3afb65a82a", "fusion_lon": 0.0, "bike_id": "cc3caaed77bd462c1025bc3afb65a82a", "is_disabled": 0, "is_reserved": 0}, {"rental_uris": {"ios": "https://dc.lft.to/lastmile_qr_scan", "android": "https://dc.lft.to/lastmile_qr_scan"}, "lon": -77.02975466666666, "type": "electric_scooter", "fusion_lat": 0.0, "lat": 38.89567866666667, "name": "4e12d737efa77b6e959d31a9c4a8df5f", "fusion_lon": 0.0, "bike_id": "4e12d737efa77b6e959d31a9c4a8df5f", "is_disabled": 0, "is_reserved": 0}, {"rental_uris": {"ios": "https://dc.lft.to/lastmile_qr_scan", "android": "https://dc.lft.to/lastmile_qr_scan"}, "lon": -77.01531816666666, "type": "electric_scooter", "fusion_lat": 0.0, "lat": 38.88740083333333, "name": "35cb39bdf027dd61f83d5e7c9dada089", "fusion_lon": 0.0, "bike_id": "35cb39bdf027dd61f83d5e7c9dada089", "is_disabled": 0, "is_reserved": 0}, {"rental_uris": {"ios": "https://dc.lft.to/lastmile_qr_scan", "android": "https://dc.lft.to/lastmile_qr_scan"}, "lon": -76.936165, "type": "electric_bike", "fusion_lat": 0.0, "lat": 38.970828, "name": "479b1c97669b66af0ce49d8da8bf0838", "fusion_lon": 0.0, "bike_id": "479b1c97669b66af0ce49d8da8bf0838", "is_disabled": 0, "is_reserved": 0}, {"rental_uris": {"ios": "https://dc.lft.to/lastmile_qr_scan", "android": "https://dc.lft.to/lastmile_qr_scan"}, "lon": -77.027113, "type": "electric_scooter", "fusion_lat": 0.0, "lat": 38.88156166666667, "name": "6281f3a3236ebcdcdc9c3e94192671e3", "fusion_lon": 0.0, "bike_id": "6281f3a3236ebcdcdc9c3e94192671e3", "is_disabled": 0, "is_reserved": 0}, {"rental_uris": {"ios": "https://dc.lft.to/lastmile_qr_scan", "android": "https://dc.lft.to/lastmile_qr_scan"}, "lon": -77.07903966666667, "type": "electric_bike", "fusion_lat": 0.0, "lat": 38.83935566666667, "name": "732d8fd4b8336a3010c48666e65f7b63", "fusion_lon": 0.0, "bike_id": "732d8fd4b8336a3010c48666e65f7b63", "is_disabled": 0, "is_reserved": 0}, {"rental_uris": {"ios": "https://dc.lft.to/lastmile_qr_scan", "android": "https://dc.lft.to/lastmile_qr_scan"}, "lon": -77.017059, "type": "electric_scooter", "fusion_lat": 0.0, "lat": 38.92044216666667, "name": "1939369929aab1ad87248e53f1dc5501", "fusion_lon": 0.0, "bike_id": "1939369929aab1ad87248e53f1dc5501", "is_disabled": 0, "is_reserved": 0}, {"rental_uris": {"ios": "https://dc.lft.to/lastmile_qr_scan", "android": "https://dc.lft.to/lastmile_qr_scan"}, "lon": -77.03868166666666, "type": "electric_scooter", "fusion_lat": 0.0, "lat": 38.915642, "name": "c845a0f939d558b081bc5b2570c69e2e", "fusion_lon": 0.0, "bike_id": "c845a0f939d558b081bc5b2570c69e2e", "is_disabled": 0, "is_reserved": 0}, {"rental_uris": {"ios": "https://dc.lft.to/lastmile_qr_scan", "android": "https://dc.lft.to/lastmile_qr_scan"}, "lon": -76.99933833333333, "type": "electric_scooter", "fusion_lat": 0.0, "lat": 38.89617283333333, "name": "7b4c199c7e4b688ad8e4024adc75f315", "fusion_lon": 0.0, "bike_id": "7b4c199c7e4b688ad8e4024adc75f315", "is_disabled": 0, "is_reserved": 0}, {"rental_uris": {"ios": "https://dc.lft.to/lastmile_qr_scan", "android": "https://dc.lft.to/lastmile_qr_scan"}, "lon": -77.045545, "type": "electric_scooter", "fusion_lat": 0.0, "lat": 38.917896166666665, "name": "72fee1a3e08cb87506d04605eb8ad733", "fusion_lon": 0.0, "bike_id": "72fee1a3e08cb87506d04605eb8ad733", "is_disabled": 0, "is_reserved": 0}, {"rental_uris": {"ios": "https://dc.lft.to/lastmile_qr_scan", "android": "https://dc.lft.to/lastmile_qr_scan"}, "lon": -77.01291316666666, "type": "electric_scooter", "fusion_lat": 0.0, "lat": 38.900537666666665, "name": "cf81dcba815cef7ba2b42a4151e45f03", "fusion_lon": 0.0, "bike_id": "cf81dcba815cef7ba2b42a4151e45f03", "is_disabled": 0, "is_reserved": 0}, {"rental_uris": {"ios": "https://dc.lft.to/lastmile_qr_scan", "android": "https://dc.lft.to/lastmile_qr_scan"}, "lon": -77.02833766666667, "type": "electric_scooter", "fusion_lat": 0.0, "lat": 38.887706333333334, "name": "6c36b385d83dbc8174d0683057ad803f", "fusion_lon": 0.0, "bike_id": "6c36b385d83dbc8174d0683057ad803f", "is_disabled": 0, "is_reserved": 0}, {"rental_uris": {"ios": "https://dc.lft.to/lastmile_qr_scan", "android": "https://dc.lft.to/lastmile_qr_scan"}, "lon": -77.03687983333333, "type": "electric_scooter", "fusion_lat": 0.0, "lat": 38.92266866666667, "name": "d44801b42988307d9ed745230d858ba2", "fusion_lon": 0.0, "bike_id": "d44801b42988307d9ed745230d858ba2", "is_disabled": 0, "is_reserved": 0}, {"rental_uris": {"ios": "https://dc.lft.to/lastmile_qr_scan", "android": "https://dc.lft.to/lastmile_qr_scan"}, "lon": -77.03823833333334, "type": "electric_scooter", "fusion_lat": 0.0, "lat": 38.907823666666665, "name": "06a3230e27df0208eb60a25a18e595d4", "fusion_lon": 0.0, "bike_id": "06a3230e27df0208eb60a25a18e595d4", "is_disabled": 0, "is_reserved": 0}, {"rental_uris": {"ios": "https://dc.lft.to/lastmile_qr_scan", "android": "https://dc.lft.to/lastmile_qr_scan"}, "lon": -77.04577366666666, "type": "electric_scooter", "fusion_lat": 0.0, "lat": 38.91049616666667, "name": "32cc98cbd1aab63999ee86a83b9de889", "fusion_lon": 0.0, "bike_id": "32cc98cbd1aab63999ee86a83b9de889", "is_disabled": 0, "is_reserved": 0}, {"rental_uris": {"ios": "https://dc.lft.to/lastmile_qr_scan", "android": "https://dc.lft.to/lastmile_qr_scan"}, "lon": -77.022221, "type": "electric_scooter", "fusion_lat": 0.0, "lat": 38.893592166666664, "name": "7eda7cca40509c2959461b3a494ddf95", "fusion_lon": 0.0, "bike_id": "7eda7cca40509c2959461b3a494ddf95", "is_disabled": 0, "is_reserved": 0}, {"rental_uris": {"ios": "https://dc.lft.to/lastmile_qr_scan", "android": "https://dc.lft.to/lastmile_qr_scan"}, "lon": -77.038872, "type": "electric_scooter", "fusion_lat": 0.0, "lat": 38.922310333333336, "name": "cfba575b29a6739246e34fb4fd0713e3", "fusion_lon": 0.0, "bike_id": "cfba575b29a6739246e34fb4fd0713e3", "is_disabled": 0, "is_reserved": 0}, {"rental_uris": {"ios": "https://dc.lft.to/lastmile_qr_scan", "android": "https://dc.lft.to/lastmile_qr_scan"}, "lon": -77.02405833333333, "type": "electric_scooter", "fusion_lat": 0.0, "lat": 38.911088166666666, "name": "953d944ad088cc8a992d4d32456a9909", "fusion_lon": 0.0, "bike_id": "953d944ad088cc8a992d4d32456a9909", "is_disabled": 0, "is_reserved": 0}, {"rental_uris": {"ios": "https://dc.lft.to/lastmile_qr_scan", "android": "https://dc.lft.to/lastmile_qr_scan"}, "lon": -77.031977, "type": "electric_scooter", "fusion_lat": 0.0, "lat": 38.917607333333336, "name": "fd61e03869e85dfdf63a9802a4a3caef", "fusion_lon": 0.0, "bike_id": "fd61e03869e85dfdf63a9802a4a3caef", "is_disabled": 0, "is_reserved": 0}, {"rental_uris": {"ios": "https://dc.lft.to/lastmile_qr_scan", "android": "https://dc.lft.to/lastmile_qr_scan"}, "lon": -77.02599416666666, "type": "electric_scooter", "fusion_lat": 0.0, "lat": 38.975893666666664, "name": "3269467b67713a23b25f390f47d80b0a", "fusion_lon": 0.0, "bike_id": "3269467b67713a23b25f390f47d80b0a", "is_disabled": 0, "is_reserved": 0}, {"rental_uris": {"ios": "https://dc.lft.to/lastmile_qr_scan", "android": "https://dc.lft.to/lastmile_qr_scan"}, "lon": -77.02692616666667, "type": "electric_scooter", "fusion_lat": 0.0, "lat": 38.90636633333333, "name": "2ac1788a6ffc76c13271e4cf595ff061", "fusion_lon": 0.0, "bike_id": "2ac1788a6ffc76c13271e4cf595ff061", "is_disabled": 0, "is_reserved": 0}, {"rental_uris": {"ios": "https://dc.lft.to/lastmile_qr_scan", "android": "https://dc.lft.to/lastmile_qr_scan"}, "lon": -77.05356283333333, "type": "electric_scooter", "fusion_lat": 0.0, "lat": 38.927991166666665, "name": "c6dae5fedfd2df4e1a6e820c049974eb", "fusion_lon": 0.0, "bike_id": "c6dae5fedfd2df4e1a6e820c049974eb", "is_disabled": 0, "is_reserved": 0}, {"rental_uris": {"ios": "https://dc.lft.to/lastmile_qr_scan", "android": "https://dc.lft.to/lastmile_qr_scan"}, "lon": -77.02386016666667, "type": "electric_scooter", "fusion_lat": 0.0, "lat": 38.915987, "name": "47f81d33aacdb8603cb565a6ae99880a", "fusion_lon": 0.0, "bike_id": "47f81d33aacdb8603cb565a6ae99880a", "is_disabled": 0, "is_reserved": 0}, {"rental_uris": {"ios": "https://dc.lft.to/lastmile_qr_scan", "android": "https://dc.lft.to/lastmile_qr_scan"}, "lon": -77.05220533333333, "type": "electric_scooter", "fusion_lat": 0.0, "lat": 38.92497566666667, "name": "f3c8ea079a10d5859a4c88f3f6b7b992", "fusion_lon": 0.0, "bike_id": "f3c8ea079a10d5859a4c88f3f6b7b992", "is_disabled": 0, "is_reserved": 0}, {"rental_uris": {"ios": "https://dc.lft.to/lastmile_qr_scan", "android": "https://dc.lft.to/lastmile_qr_scan"}, "lon": -77.05135666666666, "type": "electric_scooter", "fusion_lat": 0.0, "lat": 38.897817833333335, "name": "219f3578450211089721e0d2d7e3609f", "fusion_lon": 0.0, "bike_id": "219f3578450211089721e0d2d7e3609f", "is_disabled": 0, "is_reserved": 0}, {"rental_uris": {"ios": "https://dc.lft.to/lastmile_qr_scan", "android": "https://dc.lft.to/lastmile_qr_scan"}, "lon": -77.02695516666667, "type": "electric_scooter", "fusion_lat": 0.0, "lat": 38.908702, "name": "f3881f69c74f20257e232fd230b77d94", "fusion_lon": 0.0, "bike_id": "f3881f69c74f20257e232fd230b77d94", "is_disabled": 0, "is_reserved": 0}, {"rental_uris": {"ios": "https://dc.lft.to/lastmile_qr_scan", "android": "https://dc.lft.to/lastmile_qr_scan"}, "lon": -77.01826816666667, "type": "electric_scooter", "fusion_lat": 0.0, "lat": 38.87711483333333, "name": "5b89d28a87effe9e98f3c1934bc3151d", "fusion_lon": 0.0, "bike_id": "5b89d28a87effe9e98f3c1934bc3151d", "is_disabled": 0, "is_reserved": 0}, {"rental_uris": {"ios": "https://dc.lft.to/lastmile_qr_scan", "android": "https://dc.lft.to/lastmile_qr_scan"}, "lon": -77.04889433333334, "type": "electric_scooter", "fusion_lat": 0.0, "lat": 38.905924166666665, "name": "04dde8f53a64a604cdc2868958da79b6", "fusion_lon": 0.0, "bike_id": "04dde8f53a64a604cdc2868958da79b6", "is_disabled": 0, "is_reserved": 0}, {"rental_uris": {"ios": "https://dc.lft.to/lastmile_qr_scan", "android": "https://dc.lft.to/lastmile_qr_scan"}, "lon": -77.042604, "type": "electric_scooter", "fusion_lat": 0.0, "lat": 38.92061666666667, "name": "1657d9b6bc29afbfda8ff65a7990cfbc", "fusion_lon": 0.0, "bike_id": "1657d9b6bc29afbfda8ff65a7990cfbc", "is_disabled": 0, "is_reserved": 0}, {"rental_uris": {"ios": "https://dc.lft.to/lastmile_qr_scan", "android": "https://dc.lft.to/lastmile_qr_scan"}, "lon": -77.00784366666667, "type": "electric_scooter", "fusion_lat": 0.0, "lat": 38.89733716666667, "name": "e86f9f2c2ffd3100eb48b2371fb8ccec", "fusion_lon": 0.0, "bike_id": "e86f9f2c2ffd3100eb48b2371fb8ccec", "is_disabled": 0, "is_reserved": 0}, {"rental_uris": {"ios": "https://dc.lft.to/lastmile_qr_scan", "android": "https://dc.lft.to/lastmile_qr_scan"}, "lon": -77.1290535, "type": "electric_bike", "fusion_lat": 0.0, "lat": 38.86375733333333, "name": "53045bbf6862fd55c6b07c888374a241", "fusion_lon": 0.0, "bike_id": "53045bbf6862fd55c6b07c888374a241", "is_disabled": 0, "is_reserved": 0}, {"rental_uris": {"ios": "https://dc.lft.to/lastmile_qr_scan", "android": "https://dc.lft.to/lastmile_qr_scan"}, "lon": -77.03391166666667, "type": "electric_scooter", "fusion_lat": 0.0, "lat": 38.88656533333333, "name": "f554b3389cddf5be855c36b56001460a", "fusion_lon": 0.0, "bike_id": "f554b3389cddf5be855c36b56001460a", "is_disabled": 0, "is_reserved": 0}, {"rental_uris": {"ios": "https://dc.lft.to/lastmile_qr_scan", "android": "https://dc.lft.to/lastmile_qr_scan"}, "lon": -77.020793, "type": "electric_scooter", "fusion_lat": 0.0, "lat": 38.88187666666666, "name": "02797b6c016f10c83ce301bacd56f355", "fusion_lon": 0.0, "bike_id": "02797b6c016f10c83ce301bacd56f355", "is_disabled": 0, "is_reserved": 0}, {"rental_uris": {"ios": "https://dc.lft.to/lastmile_qr_scan", "android": "https://dc.lft.to/lastmile_qr_scan"}, "lon": -77.02116716666667, "type": "electric_scooter", "fusion_lat": 0.0, "lat": 38.89466566666667, "name": "8ee33fe70bed6f670628b2a44527ff2c", "fusion_lon": 0.0, "bike_id": "8ee33fe70bed6f670628b2a44527ff2c", "is_disabled": 0, "is_reserved": 0}, {"rental_uris": {"ios": "https://dc.lft.to/lastmile_qr_scan", "android": "https://dc.lft.to/lastmile_qr_scan"}, "lon": -77.05291666666666, "type": "electric_scooter", "fusion_lat": 0.0, "lat": 38.927931666666666, "name": "d01aee63a570a68f80a8fb1f3e04ea70", "fusion_lon": 0.0, "bike_id": "d01aee63a570a68f80a8fb1f3e04ea70", "is_disabled": 0, "is_reserved": 0}, {"rental_uris": {"ios": "https://dc.lft.to/lastmile_qr_scan", "android": "https://dc.lft.to/lastmile_qr_scan"}, "lon": -77.0416565, "type": "electric_scooter", "fusion_lat": 0.0, "lat": 38.91926866666667, "name": "8f76e2ea2d3843b6d581112e0ea7019f", "fusion_lon": 0.0, "bike_id": "8f76e2ea2d3843b6d581112e0ea7019f", "is_disabled": 0, "is_reserved": 0}, {"rental_uris": {"ios": "https://dc.lft.to/lastmile_qr_scan", "android": "https://dc.lft.to/lastmile_qr_scan"}, "lon": -77.0299915, "type": "electric_scooter", "fusion_lat": 0.0, "lat": 38.91022183333333, "name": "0c79498e22121644494a5b801dba4737", "fusion_lon": 0.0, "bike_id": "0c79498e22121644494a5b801dba4737", "is_disabled": 0, "is_reserved": 0}, {"rental_uris": {"ios": "https://dc.lft.to/lastmile_qr_scan", "android": "https://dc.lft.to/lastmile_qr_scan"}, "lon": -76.957566, "type": "electric_scooter", "fusion_lat": 0.0, "lat": 38.88428966666667, "name": "b9484395238777dc6b207a1edaca8f46", "fusion_lon": 0.0, "bike_id": "b9484395238777dc6b207a1edaca8f46", "is_disabled": 0, "is_reserved": 0}, {"rental_uris": {"ios": "https://dc.lft.to/lastmile_qr_scan", "android": "https://dc.lft.to/lastmile_qr_scan"}, "lon": -77.15267316666667, "type": "electric_bike", "fusion_lat": 0.0, "lat": 39.105663666666665, "name": "a11a7ec26fafe84a9b5cca0fd80cc427", "fusion_lon": 0.0, "bike_id": "a11a7ec26fafe84a9b5cca0fd80cc427", "is_disabled": 0, "is_reserved": 0}, {"rental_uris": {"ios": "https://dc.lft.to/lastmile_qr_scan", "android": "https://dc.lft.to/lastmile_qr_scan"}, "lon": -77.02357516666666, "type": "electric_scooter", "fusion_lat": 0.0, "lat": 38.925161, "name": "96b1c69f1a58daa373c671a26ec79d33", "fusion_lon": 0.0, "bike_id": "96b1c69f1a58daa373c671a26ec79d33", "is_disabled": 0, "is_reserved": 0}, {"rental_uris": {"ios": "https://dc.lft.to/lastmile_qr_scan", "android": "https://dc.lft.to/lastmile_qr_scan"}, "lon": -77.014061, "type": "electric_scooter", "fusion_lat": 0.0, "lat": 38.92855566666667, "name": "1c3ab7a863e7c9aafa4de9e414a9d35b", "fusion_lon": 0.0, "bike_id": "1c3ab7a863e7c9aafa4de9e414a9d35b", "is_disabled": 0, "is_reserved": 0}, {"rental_uris": {"ios": "https://dc.lft.to/lastmile_qr_scan", "android": "https://dc.lft.to/lastmile_qr_scan"}, "lon": -76.98327783333333, "type": "electric_scooter", "fusion_lat": 0.0, "lat": 38.8616805, "name": "b4f3453626265900e8cbc91f12ee267e", "fusion_lon": 0.0, "bike_id": "b4f3453626265900e8cbc91f12ee267e", "is_disabled": 0, "is_reserved": 0}, {"rental_uris": {"ios": "https://dc.lft.to/lastmile_qr_scan", "android": "https://dc.lft.to/lastmile_qr_scan"}, "lon": -77.02414266666666, "type": "electric_scooter", "fusion_lat": 0.0, "lat": 38.91709516666667, "name": "fde48dfb26cfe48e3ac62e94ebd85cbe", "fusion_lon": 0.0, "bike_id": "fde48dfb26cfe48e3ac62e94ebd85cbe", "is_disabled": 0, "is_reserved": 0}, {"rental_uris": {"ios": "https://dc.lft.to/lastmile_qr_scan", "android": "https://dc.lft.to/lastmile_qr_scan"}, "lon": -77.00261766666667, "type": "electric_scooter", "fusion_lat": 0.0, "lat": 38.877448, "name": "26168243a84e7eb914d525315e8da35f", "fusion_lon": 0.0, "bike_id": "26168243a84e7eb914d525315e8da35f", "is_disabled": 0, "is_reserved": 0}, {"rental_uris": {"ios": "https://dc.lft.to/lastmile_qr_scan", "android": "https://dc.lft.to/lastmile_qr_scan"}, "lon": -77.0296415, "type": "electric_scooter", "fusion_lat": 0.0, "lat": 38.922623333333334, "name": "0805a29008201e988f264d1f12e16762", "fusion_lon": 0.0, "bike_id": "0805a29008201e988f264d1f12e16762", "is_disabled": 0, "is_reserved": 0}, {"rental_uris": {"ios": "https://dc.lft.to/lastmile_qr_scan", "android": "https://dc.lft.to/lastmile_qr_scan"}, "lon": -77.04151966666667, "type": "electric_scooter", "fusion_lat": 0.0, "lat": 38.903527833333335, "name": "3768e8dd8c6a997304280ca258698b7e", "fusion_lon": 0.0, "bike_id": "3768e8dd8c6a997304280ca258698b7e", "is_disabled": 0, "is_reserved": 0}, {"rental_uris": {"ios": "https://dc.lft.to/lastmile_qr_scan", "android": "https://dc.lft.to/lastmile_qr_scan"}, "lon": -77.02535566666667, "type": "electric_scooter", "fusion_lat": 0.0, "lat": 38.91820716666667, "name": "769eb3436eb632f737f81be54df394c6", "fusion_lon": 0.0, "bike_id": "769eb3436eb632f737f81be54df394c6", "is_disabled": 0, "is_reserved": 0}, {"rental_uris": {"ios": "https://dc.lft.to/lastmile_qr_scan", "android": "https://dc.lft.to/lastmile_qr_scan"}, "lon": -77.019989, "type": "electric_bike", "fusion_lat": 0.0, "lat": 38.912302833333335, "name": "d158c24c1d2a214f7c45d9c9a23d03d8", "fusion_lon": 0.0, "bike_id": "d158c24c1d2a214f7c45d9c9a23d03d8", "is_disabled": 0, "is_reserved": 0}, {"rental_uris": {"ios": "https://dc.lft.to/lastmile_qr_scan", "android": "https://dc.lft.to/lastmile_qr_scan"}, "lon": -77.00861316666666, "type": "electric_scooter", "fusion_lat": 0.0, "lat": 38.870649666666665, "name": "162bb7a15b962c4e518053eb28ca5ac6", "fusion_lon": 0.0, "bike_id": "162bb7a15b962c4e518053eb28ca5ac6", "is_disabled": 0, "is_reserved": 0}, {"rental_uris": {"ios": "https://dc.lft.to/lastmile_qr_scan", "android": "https://dc.lft.to/lastmile_qr_scan"}, "lon": -77.0551435, "type": "electric_scooter", "fusion_lat": 0.0, "lat": 38.930004333333336, "name": "7e7a3c8258dc73532ed2d3db0c74bf17", "fusion_lon": 0.0, "bike_id": "7e7a3c8258dc73532ed2d3db0c74bf17", "is_disabled": 0, "is_reserved": 0}, {"rental_uris": {"ios": "https://dc.lft.to/lastmile_qr_scan", "android": "https://dc.lft.to/lastmile_qr_scan"}, "lon": -76.99628666666666, "type": "electric_scooter", "fusion_lat": 0.0, "lat": 38.885518166666664, "name": "2467759e20a049c980196c4014ae0649", "fusion_lon": 0.0, "bike_id": "2467759e20a049c980196c4014ae0649", "is_disabled": 0, "is_reserved": 0}, {"rental_uris": {"ios": "https://dc.lft.to/lastmile_qr_scan", "android": "https://dc.lft.to/lastmile_qr_scan"}, "lon": -77.04472483333333, "type": "electric_scooter", "fusion_lat": 0.0, "lat": 38.909347333333336, "name": "cce350483d5fa6c05e371153bd07bda1", "fusion_lon": 0.0, "bike_id": "cce350483d5fa6c05e371153bd07bda1", "is_disabled": 0, "is_reserved": 0}, {"rental_uris": {"ios": "https://dc.lft.to/lastmile_qr_scan", "android": "https://dc.lft.to/lastmile_qr_scan"}, "lon": -77.023054, "type": "electric_scooter", "fusion_lat": 0.0, "lat": 38.92864133333333, "name": "c8f68daedd06a25251e0dcd88ba453e5", "fusion_lon": 0.0, "bike_id": "c8f68daedd06a25251e0dcd88ba453e5", "is_disabled": 0, "is_reserved": 0}, {"rental_uris": {"ios": "https://dc.lft.to/lastmile_qr_scan", "android": "https://dc.lft.to/lastmile_qr_scan"}, "lon": -77.00581816666667, "type": "electric_scooter", "fusion_lat": 0.0, "lat": 38.844966166666666, "name": "c591bd28ef810bb1c11506fed62a1c08", "fusion_lon": 0.0, "bike_id": "c591bd28ef810bb1c11506fed62a1c08", "is_disabled": 0, "is_reserved": 0}, {"rental_uris": {"ios": "https://dc.lft.to/lastmile_qr_scan", "android": "https://dc.lft.to/lastmile_qr_scan"}, "lon": -77.05019833333333, "type": "electric_scooter", "fusion_lat": 0.0, "lat": 38.901604666666664, "name": "c24780280bbad4ac9b6e3ae0af6a4b76", "fusion_lon": 0.0, "bike_id": "c24780280bbad4ac9b6e3ae0af6a4b76", "is_disabled": 0, "is_reserved": 0}, {"rental_uris": {"ios": "https://dc.lft.to/lastmile_qr_scan", "android": "https://dc.lft.to/lastmile_qr_scan"}, "lon": -76.99260583333333, "type": "electric_scooter", "fusion_lat": 0.0, "lat": 38.919787666666664, "name": "110e1d5985c985fd6e1e2adf5ccafbe5", "fusion_lon": 0.0, "bike_id": "110e1d5985c985fd6e1e2adf5ccafbe5", "is_disabled": 0, "is_reserved": 0}, {"rental_uris": {"ios": "https://dc.lft.to/lastmile_qr_scan", "android": "https://dc.lft.to/lastmile_qr_scan"}, "lon": -77.02389516666666, "type": "electric_scooter", "fusion_lat": 0.0, "lat": 38.957361166666665, "name": "be499cc60b4ab6744e47e770b58dd3d0", "fusion_lon": 0.0, "bike_id": "be499cc60b4ab6744e47e770b58dd3d0", "is_disabled": 0, "is_reserved": 0}, {"rental_uris": {"ios": "https://dc.lft.to/lastmile_qr_scan", "android": "https://dc.lft.to/lastmile_qr_scan"}, "lon": -77.0298935, "type": "electric_scooter", "fusion_lat": 0.0, "lat": 38.95630516666667, "name": "41c3251110bd2d12e7aaba5461d5ea27", "fusion_lon": 0.0, "bike_id": "41c3251110bd2d12e7aaba5461d5ea27", "is_disabled": 0, "is_reserved": 0}, {"rental_uris": {"ios": "https://dc.lft.to/lastmile_qr_scan", "android": "https://dc.lft.to/lastmile_qr_scan"}, "lon": -77.05746566666667, "type": "electric_scooter", "fusion_lat": 0.0, "lat": 38.924614166666665, "name": "b17823438739fd49e80c25b32721db31", "fusion_lon": 0.0, "bike_id": "b17823438739fd49e80c25b32721db31", "is_disabled": 0, "is_reserved": 0}, {"rental_uris": {"ios": "https://dc.lft.to/lastmile_qr_scan", "android": "https://dc.lft.to/lastmile_qr_scan"}, "lon": -77.04076333333333, "type": "electric_bike", "fusion_lat": 0.0, "lat": 38.8123785, "name": "1f721de8b5cb0e2cf7f6b8b7c9cffbdd", "fusion_lon": 0.0, "bike_id": "1f721de8b5cb0e2cf7f6b8b7c9cffbdd", "is_disabled": 0, "is_reserved": 0}, {"rental_uris": {"ios": "https://dc.lft.to/lastmile_qr_scan", "android": "https://dc.lft.to/lastmile_qr_scan"}, "lon": -76.9938665, "type": "electric_scooter", "fusion_lat": 0.0, "lat": 38.900609833333334, "name": "ec214841e2886a412483c740cff8167e", "fusion_lon": 0.0, "bike_id": "ec214841e2886a412483c740cff8167e", "is_disabled": 0, "is_reserved": 0}, {"rental_uris": {"ios": "https://dc.lft.to/lastmile_qr_scan", "android": "https://dc.lft.to/lastmile_qr_scan"}, "lon": -77.064581, "type": "electric_scooter", "fusion_lat": 0.0, "lat": 38.946634333333336, "name": "66bb408a63dabeeec570f6f23b15ace6", "fusion_lon": 0.0, "bike_id": "66bb408a63dabeeec570f6f23b15ace6", "is_disabled": 0, "is_reserved": 0},