{"data": {"bikes": [{"lat": 38.9306045, "is_disabled": 0, "type": "electric_scooter", "lon": -77.041833, "bike_id": "6e385d522690686e80a75288abd2acab", "fusion_lat": 0.0, "name": "6e385d522690686e80a75288abd2acab", "is_reserved": 0, "rental_uris": {"android": "https://dc.lft.to/lastmile_qr_scan", "ios": "https://dc.lft.to/lastmile_qr_scan"}, "fusion_lon": 0.0}, {"lat": 38.892669833333336, "is_disabled": 0, "type": "electric_scooter", "lon": -77.03214283333334, "bike_id": "3ed9ed3d9abf38707439c6ff554ac3f5", "fusion_lat": 0.0, "name": "3ed9ed3d9abf38707439c6ff554ac3f5", "is_reserved": 0, "rental_uris": {"android": "https://dc.lft.to/lastmile_qr_scan", "ios": "https://dc.lft.to/lastmile_qr_scan"}, "fusion_lon": 0.0}, {"lat": 38.90587433333334, "is_disabled": 0, "type": "electric_scooter", "lon": -77.06280733333334, "bike_id": "1fbe201a382002b4a12b9244ffc66c06", "fusion_lat": 0.0, "name": "1fbe201a382002b4a12b9244ffc66c06", "is_reserved": 0, "rental_uris": {"android": "https://dc.lft.to/lastmile_qr_scan", "ios": "https://dc.lft.to/lastmile_qr_scan"}, "fusion_lon": 0.0}, {"lat": 38.89102666666667, "is_disabled": 0, "type": "electric_scooter", "lon": -76.94387966666666, "bike_id": "0fba06693f64ae0094c4341c32163ccc", "fusion_lat": 0.0, "name": "0fba06693f64ae0094c4341c32163ccc", "is_reserved": 0, "rental_uris": {"android": "https://dc.lft.to/lastmile_qr_scan", "ios": "https://dc.lft.to/lastmile_qr_scan"}, "fusion_lon": 0.0}, {"lat": 38.90044616666667, "is_disabled": 0, "type": "electric_scooter", "lon": -76.99380783333334, "bike_id": "06dc6fe37b4cf34a608cb0bb1558b393", "fusion_lat": 0.0, "name": "06dc6fe37b4cf34a608cb0bb1558b393", "is_reserved": 0, "rental_uris": {"android": "https://dc.lft.to/lastmile_qr_scan", "ios": "https://dc.lft.to/lastmile_qr_scan"}, "fusion_lon": 0.0}, {"lat": 38.90892233333334, "is_disabled": 0, "type": "electric_scooter", "lon": -77.00254983333333, "bike_id": "e9f5b30bb5b80c10b5c7dbbd19af6e37", "fusion_lat": 0.0, "name": "e9f5b30bb5b80c10b5c7dbbd19af6e37", "is_reserved": 0, "rental_uris": {"android": "https://dc.lft.to/lastmile_qr_scan", "ios": "https://dc.lft.to/lastmile_qr_scan"}, "fusion_lon": 0.0}, {"lat": 38.90617433333333, "is_disabled": 0, "type": "electric_scooter", "lon": -76.98990916666666, "bike_id": "c9e4fea0ac5bd7ca8bb708818c64a47c", "fusion_lat": 0.0, "name": "c9e4fea0ac5bd7ca8bb708818c64a47c", "is_reserved": 0, "rental_uris": {"android": "https://dc.lft.to/lastmile_qr_scan", "ios": "https://dc.lft.to/lastmile_qr_scan"}, "fusion_lon": 0.0}, {"lat": 38.919623333333334, "is_disabled": 0, "type": "electric_scooter", "lon": -77.02498216666666, "bike_id": "ef9baf6901df734181ff181252aaa8e6", "fusion_lat": 0.0, "name": "ef9baf6901df734181ff181252aaa8e6", "is_reserved": 0, "rental_uris": {"android": "https://dc.lft.to/lastmile_qr_scan", "ios": "https://dc.lft.to/lastmile_qr_scan"}, "fusion_lon": 0.0}, {"lat": 38.9227065, "is_disabled": 0, "type": "electric_scooter", "lon": -77.0423905, "bike_id": "e486902ebd8cdda5ba4e5cb3c2dede6b", "fusion_lat": 0.0, "name": "e486902ebd8cdda5ba4e5cb3c2dede6b", "is_reserved": 0, "rental_uris": {"android": "https://dc.lft.to/lastmile_qr_scan", "ios": "https://dc.lft.to/lastmile_qr_scan"}, "fusion_lon": 0.0}, {"lat": 38.85906466666667, "is_disabled": 0, "type": "electric_scooter", "lon": -76.99149283333334, "bike_id": "073db65f04f6441406206c62acbe3fca", "fusion_lat": 0.0, "name": "073db65f04f6441406206c62acbe3fca", "is_reserved": 0, "rental_uris": {"android": "https://dc.lft.to/lastmile_qr_scan", "ios": "https://dc.lft.to/lastmile_qr_scan"}, "fusion_lon": 0.0}, {"lat": 38.936871, "is_disabled": 0, "type": "electric_scooter", "lon": -77.05996316666666, "bike_id": "166ed0fae6ef0b205758ec94092dce11", "fusion_lat": 0.0, "name": "166ed0fae6ef0b205758ec94092dce11", "is_reserved": 0, "rental_uris": {"android": "https://dc.lft.to/lastmile_qr_scan", "ios": "https://dc.lft.to/lastmile_qr_scan"}, "fusion_lon": 0.0}, {"lat": 38.91583633333333, "is_disabled": 0, "type": "electric_scooter", "lon": -77.0321345, "bike_id": "9505f9a2869d432fe592b18ec6ff2729", "fusion_lat": 0.0, "name": "9505f9a2869d432fe592b18ec6ff2729", "is_reserved": 0, "rental_uris": {"android": "https://dc.lft.to/lastmile_qr_scan", "ios": "https://dc.lft.to/lastmile_qr_scan"}, "fusion_lon": 0.0}, {"lat": 38.899087333333334, "is_disabled": 0, "type": "electric_scooter", "lon": -76.93355933333333, "bike_id": "5025acddacb95e19b51a20635f0aa54d", "fusion_lat": 0.0, "name": "5025acddacb95e19b51a20635f0aa54d", "is_reserved": 0, "rental_uris": {"android": "https://dc.lft.to/lastmile_qr_scan", "ios": "https://dc.lft.to/lastmile_qr_scan"}, "fusion_lon": 0.0}, {"lat": 38.927467, "is_disabled": 0, "type": "electric_scooter", "lon": -77.02534983333334, "bike_id": "f6c46cad8794c911900e54fdde7ac758", "fusion_lat": 0.0, "name": "f6c46cad8794c911900e54fdde7ac758", "is_reserved": 0, "rental_uris": {"android": "https://dc.lft.to/lastmile_qr_scan", "ios": "https://dc.lft.to/lastmile_qr_scan"}, "fusion_lon": 0.0}, {"lat": 38.918511333333335, "is_disabled": 0, "type": "electric_scooter", "lon": -77.0321485, "bike_id": "97b70f5849da1d5dea3736f0a4d721fb", "fusion_lat": 0.0, "name": "97b70f5849da1d5dea3736f0a4d721fb", "is_reserved": 0, "rental_uris": {"android": "https://dc.lft.to/lastmile_qr_scan", "ios": "https://dc.lft.to/lastmile_qr_scan"}, "fusion_lon": 0.0}, {"lat": 38.9450065, "is_disabled": 0, "type": "electric_scooter", "lon": -77.01551216666667, "bike_id": "e9d6f3871337b913b78fa3c4d37ea37b", "fusion_lat": 0.0, "name": "e9d6f3871337b913b78fa3c4d37ea37b", "is_reserved": 0, "rental_uris": {"android": "https://dc.lft.to/lastmile_qr_scan", "ios": "https://dc.lft.to/lastmile_qr_scan"}, "fusion_lon": 0.0}, {"lat": 38.918123666666666, "is_disabled": 0, "type": "electric_scooter", "lon": -77.039887, "bike_id": "6dd9502ef1ab0cd99f313545e0ca4522", "fusion_lat": 0.0, "name": "6dd9502ef1ab0cd99f313545e0ca4522", "is_reserved": 0, "rental_uris": {"android": "https://dc.lft.to/lastmile_qr_scan", "ios": "https://dc.lft.to/lastmile_qr_scan"}, "fusion_lon": 0.0}, {"lat": 38.91634333333333, "is_disabled": 0, "type": "electric_scooter", "lon": -77.03179583333333, "bike_id": "7ae7450c9c35f129160f16d744df68cc", "fusion_lat": 0.0, "name": "7ae7450c9c35f129160f16d744df68cc", "is_reserved": 0, "rental_uris": {"android": "https://dc.lft.to/lastmile_qr_scan", "ios": "https://dc.lft.to/lastmile_qr_scan"}, "fusion_lon": 0.0}, {"lat": 38.93067, "is_disabled": 0, "type": "electric_scooter", "lon": -77.02820616666666, "bike_id": "bce319fef74e51b499b7838f37ba94e7", "fusion_lat": 0.0, "name": "bce319fef74e51b499b7838f37ba94e7", "is_reserved": 0, "rental_uris": {"android": "https://dc.lft.to/lastmile_qr_scan", "ios": "https://dc.lft.to/lastmile_qr_scan"}, "fusion_lon": 0.0}, {"lat": 38.91320483333333, "is_disabled": 0, "type": "electric_scooter", "lon": -77.01215533333334, "bike_id": "9d580eaa32da990e0aa1043d9714affb", "fusion_lat": 0.0, "name": "9d580eaa32da990e0aa1043d9714affb", "is_reserved": 0, "rental_uris": {"android": "https://dc.lft.to/lastmile_qr_scan", "ios": "https://dc.lft.to/lastmile_qr_scan"}, "fusion_lon": 0.0}, {"lat": 38.9090905, "is_disabled": 0, "type": "electric_scooter", "lon": -77.0271, "bike_id": "9bce62eaa9b9145b70df9879c5259f9e", "fusion_lat": 0.0, "name": "9bce62eaa9b9145b70df9879c5259f9e", "is_reserved": 0, "rental_uris": {"android": "https://dc.lft.to/lastmile_qr_scan", "ios": "https://dc.lft.to/lastmile_qr_scan"}, "fusion_lon": 0.0}, {"lat": 38.909606, "is_disabled": 0, "type": "electric_scooter", "lon": -77.0228495, "bike_id": "bcec8d57f13e41f6c51af31cc4fb9ba9", "fusion_lat": 0.0, "name": "bcec8d57f13e41f6c51af31cc4fb9ba9", "is_reserved": 0, "rental_uris": {"android": "https://dc.lft.to/lastmile_qr_scan", "ios": "https://dc.lft.to/lastmile_qr_scan"}, "fusion_lon": 0.0}, {"lat": 38.910376666666664, "is_disabled": 0, "type": "electric_scooter", "lon": -77.03835066666667, "bike_id": "d8eb8a0e32785216924c422663fa5cd5", "fusion_lat": 0.0, "name": "d8eb8a0e32785216924c422663fa5cd5", "is_reserved": 0, "rental_uris": {"android": "https://dc.lft.to/lastmile_qr_scan", "ios": "https://dc.lft.to/lastmile_qr_scan"}, "fusion_lon": 0.0}, {"lat": 38.923217, "is_disabled": 0, "type": "electric_scooter", "lon": -77.0296795, "bike_id": "15533377bac55c1cb1f82a693b8a3c71", "fusion_lat": 0.0, "name": "15533377bac55c1cb1f82a693b8a3c71", "is_reserved": 0, "rental_uris": {"android": "https://dc.lft.to/lastmile_qr_scan", "ios": "https://dc.lft.to/lastmile_qr_scan"}, "fusion_lon": 0.0}, {"lat": 38.92066616666666, "is_disabled": 0, "type": "electric_scooter", "lon": -77.02493633333333, "bike_id": "6af72aebf92f62ccba6202a2c5cfdfea", "fusion_lat": 0.0, "name": "6af72aebf92f62ccba6202a2c5cfdfea", "is_reserved": 0, "rental_uris": {"android": "https://dc.lft.to/lastmile_qr_scan", "ios": "https://dc.lft.to/lastmile_qr_scan"}, "fusion_lon": 0.0}, {"lat": 38.938242, "is_disabled": 0, "type": "electric_scooter", "lon": -77.06041083333334, "bike_id": "2f4edc0d99e38e12ced86efe8009ff73", "fusion_lat": 0.0, "name": "2f4edc0d99e38e12ced86efe8009ff73", "is_reserved": 0, "rental_uris": {"android": "https://dc.lft.to/lastmile_qr_scan", "ios": "https://dc.lft.to/lastmile_qr_scan"}, "fusion_lon": 0.0}, {"lat": 38.8983925, "is_disabled": 0, "type": "electric_scooter", "lon": -76.931047, "bike_id": "23fe113ff40f0c27384376f436edbca1", "fusion_lat": 0.0, "name": "23fe113ff40f0c27384376f436edbca1", "is_reserved": 0, "rental_uris": {"android": "https://dc.lft.to/lastmile_qr_scan", "ios": "https://dc.lft.to/lastmile_qr_scan"}, "fusion_lon": 0.0}, {"lat": 38.9056175, "is_disabled": 0, "type": "electric_scooter", "lon": -77.032934, "bike_id": "6684bf461ac78c67ce7211bc29b88fad", "fusion_lat": 0.0, "name": "6684bf461ac78c67ce7211bc29b88fad", "is_reserved": 0, "rental_uris": {"android": "https://dc.lft.to/lastmile_qr_scan", "ios": "https://dc.lft.to/lastmile_qr_scan"}, "fusion_lon": 0.0}, {"lat": 38.91708233333333, "is_disabled": 0, "type": "electric_scooter", "lon": -77.03872133333333, "bike_id": "0f805b9aa82179ae7ab16f4c8c1c24e7", "fusion_lat": 0.0, "name": "0f805b9aa82179ae7ab16f4c8c1c24e7", "is_reserved": 0, "rental_uris": {"android": "https://dc.lft.to/lastmile_qr_scan", "ios": "https://dc.lft.to/lastmile_qr_scan"}, "fusion_lon": 0.0}, {"lat": 38.892473833333334, "is_disabled": 0, "type": "electric_scooter", "lon": -77.04896233333334, "bike_id": "a790f05dc415c8aaaf64422079d9a631", "fusion_lat": 0.0, "name": "a790f05dc415c8aaaf64422079d9a631", "is_reserved": 0, "rental_uris": {"android": "https://dc.lft.to/lastmile_qr_scan", "ios": "https://dc.lft.to/lastmile_qr_scan"}, "fusion_lon": 0.0}, {"lat": 38.933533833333335, "is_disabled": 0, "type": "electric_scooter", "lon": -77.07378583333333, "bike_id": "a605afdd4a5b22c6f61767a5352ca9bc", "fusion_lat": 0.0, "name": "a605afdd4a5b22c6f61767a5352ca9bc", "is_reserved": 0, "rental_uris": {"android": "https://dc.lft.to/lastmile_qr_scan", "ios": "https://dc.lft.to/lastmile_qr_scan"}, "fusion_lon": 0.0}, {"lat": 38.917088, "is_disabled": 0, "type": "electric_scooter", "lon": -77.034754, "bike_id": "5bf4d99e521ee36c49e5e9b2313d6ff5", "fusion_lat": 0.0, "name": "5bf4d99e521ee36c49e5e9b2313d6ff5", "is_reserved": 0, "rental_uris": {"android": "https://dc.lft.to/lastmile_qr_scan", "ios": "https://dc.lft.to/lastmile_qr_scan"}, "fusion_lon": 0.0}, {"lat": 38.96601166666667, "is_disabled": 0, "type": "electric_bike", "lon": -76.98338466666667, "bike_id": "0edfec61282cc9b83b62743b60a4867f", "fusion_lat": 0.0, "name": "0edfec61282cc9b83b62743b60a4867f", "is_reserved": 0, "rental_uris": {"android": "https://dc.lft.to/lastmile_qr_scan", "ios": "https://dc.lft.to/lastmile_qr_scan"}, "fusion_lon": 0.0}, {"lat": 38.9091495, "is_disabled": 0, "type": "electric_scooter", "lon": -77.03645683333333, "bike_id": "da2743c3b7fa0a7bd363fc0b80741b83", "fusion_lat": 0.0, "name": "da2743c3b7fa0a7bd363fc0b80741b83", "is_reserved": 0, "rental_uris": {"android": "https://dc.lft.to/lastmile_qr_scan", "ios": "https://dc.lft.to/lastmile_qr_scan"}, "fusion_lon": 0.0}, {"lat": 38.8877595, "is_disabled": 0, "type": "electric_scooter", "lon": -77.00329983333333, "bike_id": "4d1e3b268951812bb42bfc8cc823c60f", "fusion_lat": 0.0, "name": "4d1e3b268951812bb42bfc8cc823c60f", "is_reserved": 0, "rental_uris": {"android": "https://dc.lft.to/lastmile_qr_scan", "ios": "https://dc.lft.to/lastmile_qr_scan"}, "fusion_lon": 0.0}, {"lat": 38.8655645, "is_disabled": 0, "type": "electric_scooter", "lon": -76.98954216666667, "bike_id": "b7cf5e6ffdd7636e6a1bec855777887e", "fusion_lat": 0.0, "name": "b7cf5e6ffdd7636e6a1bec855777887e", "is_reserved": 0, "rental_uris": {"android": "https://dc.lft.to/lastmile_qr_scan", "ios": "https://dc.lft.to/lastmile_qr_scan"}, "fusion_lon": 0.0}, {"lat": 38.9556455, "is_disabled": 0, "type": "electric_scooter", "lon": -77.02233733333334, "bike_id": "b88c9247aff60de7ac201872d2666c3d", "fusion_lat": 0.0, "name": "b88c9247aff60de7ac201872d2666c3d", "is_reserved": 0, "rental_uris": {"android": "https://dc.lft.to/lastmile_qr_scan", "ios": "https://dc.lft.to/lastmile_qr_scan"}, "fusion_lon": 0.0}, {"lat": 38.938747666666664, "is_disabled": 0, "type": "electric_scooter", "lon": -77.02449866666667, "bike_id": "c4dc29fcaafe9e938e9be9671cb6ce18", "fusion_lat": 0.0, "name": "c4dc29fcaafe9e938e9be9671cb6ce18", "is_reserved": 0, "rental_uris": {"android": "https://dc.lft.to/lastmile_qr_scan", "ios": "https://dc.lft.to/lastmile_qr_scan"}, "fusion_lon": 0.0}, {"lat": 38.988261333333334, "is_disabled": 0, "type": "electric_bike", "lon": -76.99651866666666, "bike_id": "d8b26b3feed8dc1bfeebbf410a6e70ae", "fusion_lat": 0.0, "name": "d8b26b3feed8dc1bfeebbf410a6e70ae", "is_reserved": 0, "rental_uris": {"android": "https://dc.lft.to/lastmile_qr_scan", "ios": "https://dc.lft.to/lastmile_qr_scan"}, "fusion_lon": 0.0}, {"lat": 38.902647, "is_disabled": 0, "type": "electric_scooter", "lon": -77.034853, "bike_id": "4969e9f25d81f0168cd0b8ee4693d398", "fusion_lat": 0.0, "name": "4969e9f25d81f0168cd0b8ee4693d398", "is_reserved": 0, "rental_uris": {"android": "https://dc.lft.to/lastmile_qr_scan", "ios": "https://dc.lft.to/lastmile_qr_scan"}, "fusion_lon": 0.0}, {"lat": 38.91679233333333, "is_disabled": 0, "type": "electric_scooter", "lon": -77.00202816666666, "bike_id": "9e8bd8369c8edeb14cc690800deb7532", "fusion_lat": 0.0, "name": "9e8bd8369c8edeb14cc690800deb7532", "is_reserved": 0, "rental_uris": {"android": "https://dc.lft.to/lastmile_qr_scan", "ios": "https://dc.lft.to/lastmile_qr_scan"}, "fusion_lon": 0.0}, {"lat": 38.8836155, "is_disabled": 0, "type": "electric_scooter", "lon": -76.94155166666667, "bike_id": "168072feb2f7dc5c325a0cce751cd1f4", "fusion_lat": 0.0, "name": "168072feb2f7dc5c325a0cce751cd1f4", "is_reserved": 0, "rental_uris": {"android": "https://dc.lft.to/lastmile_qr_scan", "ios": "https://dc.lft.to/lastmile_qr_scan"}, "fusion_lon": 0.0}, {"lat": 38.92484816666666, "is_disabled": 0, "type": "electric_scooter", "lon": -77.0306925, "bike_id": "241cce484d04e67ac385b2a90a651ba0", "fusion_lat": 0.0, "name": "241cce484d04e67ac385b2a90a651ba0", "is_reserved": 0, "rental_uris": {"android": "https://dc.lft.to/lastmile_qr_scan", "ios": "https://dc.lft.to/lastmile_qr_scan"}, "fusion_lon": 0.0}, {"lat": 38.925642333333336, "is_disabled": 0, "type": "electric_scooter", "lon": -77.037733, "bike_id": "a01a46cfc604c4ad19b000a6d9fdbb3d", "fusion_lat": 0.0, "name": "a01a46cfc604c4ad19b000a6d9fdbb3d", "is_reserved": 0, "rental_uris": {"android": "https://dc.lft.to/lastmile_qr_scan", "ios": "https://dc.lft.to/lastmile_qr_scan"}, "fusion_lon": 0.0}, {"lat": 38.91764666666667, "is_disabled": 0, "type": "electric_scooter", "lon": -76.97629283333333, "bike_id": "8263614a5f89ab5ae4f3edf65865548c", "fusion_lat": 0.0, "name": "8263614a5f89ab5ae4f3edf65865548c", "is_reserved": 0, "rental_uris": {"android": "https://dc.lft.to/lastmile_qr_scan", "ios": "https://dc.lft.to/lastmile_qr_scan"}, "fusion_lon": 0.0}, {"lat": 38.9262515, "is_disabled": 0, "type": "electric_scooter", "lon": -77.03790416666666, "bike_id": "02431f10c3f4100e0e07fbcbbc40234d", "fusion_lat": 0.0, "name": "02431f10c3f4100e0e07fbcbbc40234d", "is_reserved": 0, "rental_uris": {"android": "https://dc.lft.to/lastmile_qr_scan", "ios": "https://dc.lft.to/lastmile_qr_scan"}, "fusion_lon": 0.0}, {"lat": 38.94120916666667, "is_disabled": 0, "type": "electric_scooter", "lon": -77.00073133333333, "bike_id": "f62a87e7d3f3f0bbeef6f725f004613e", "fusion_lat": 0.0, "name": "f62a87e7d3f3f0bbeef6f725f004613e", "is_reserved": 0, "rental_uris": {"android": "https://dc.lft.to/lastmile_qr_scan", "ios": "https://dc.lft.to/lastmile_qr_scan"}, "fusion_lon": 0.0}, {"lat": 38.958893833333335, "is_disabled": 0, "type": "electric_bike", "lon": -76.9249935, "bike_id": "9c67b10a3e56ac99ae089d3bc2f0e846", "fusion_lat": 0.0, "name": "9c67b10a3e56ac99ae089d3bc2f0e846", "is_reserved": 0, "rental_uris": {"android": "https://dc.lft.to/lastmile_qr_scan", "ios": "https://dc.lft.to/lastmile_qr_scan"}, "fusion_lon": 0.0}, {"lat": 38.90544716666667, "is_disabled": 0, "type": "electric_scooter", "lon": -77.00595883333334, "bike_id": "2f36fe933926f206010ea58964a939fe", "fusion_lat": 0.0, "name": "2f36fe933926f206010ea58964a939fe", "is_reserved": 0, "rental_uris": {"android": "https://dc.lft.to/lastmile_qr_scan", "ios": "https://dc.lft.to/lastmile_qr_scan"}, "fusion_lon": 0.0}, {"lat": 38.903813666666665, "is_disabled": 0, "type": "electric_scooter", "lon": -77.0281615, "bike_id": "5718b723a0038cda9c38036ff4967fa7", "fusion_lat": 0.0, "name": "5718b723a0038cda9c38036ff4967fa7", "is_reserved": 0, "rental_uris": {"android": "https://dc.lft.to/lastmile_qr_scan", "ios": "https://dc.lft.to/lastmile_qr_scan"}, "fusion_lon": 0.0}, {"lat": 38.93080783333333, "is_disabled": 0, "type": "electric_scooter", "lon": -77.02796933333333, "bike_id": "662064768feedf180368f03f297c81ad", "fusion_lat": 0.0, "name": "662064768feedf180368f03f297c81ad", "is_reserved": 0, "rental_uris": {"android": "https://dc.lft.to/lastmile_qr_scan", "ios": "https://dc.lft.to/lastmile_qr_scan"}, "fusion_lon": 0.0}, {"lat": 38.89607816666667, "is_disabled": 0, "type": "electric_scooter", "lon": -77.01336783333333, "bike_id": "f729bb64b0ee339ea072bf1e5241b336", "fusion_lat": 0.0, "name": "f729bb64b0ee339ea072bf1e5241b336", "is_reserved": 0, "rental_uris": {"android": "https://dc.lft.to/lastmile_qr_scan", "ios": "https://dc.lft.to/lastmile_qr_scan"}, "fusion_lon": 0.0}, {"lat": 38.93113016666667, "is_disabled": 0, "type": "electric_scooter", "lon": -77.038256, "bike_id": "965a79a44cec3793cd6c59e0e83340f3", "fusion_lat": 0.0, "name": "965a79a44cec3793cd6c59e0e83340f3", "is_reserved": 0, "rental_uris": {"android": "https://dc.lft.to/lastmile_qr_scan", "ios": "https://dc.lft.to/lastmile_qr_scan"}, "fusion_lon": 0.0}, {"lat": 38.9186635, "is_disabled": 0, "type": "electric_scooter", "lon": -77.0403365, "bike_id": "4ccfc35ce31aca38c5bee49bd3aeb120", "fusion_lat": 0.0, "name": "4ccfc35ce31aca38c5bee49bd3aeb120", "is_reserved": 0, "rental_uris": {"android": "https://dc.lft.to/lastmile_qr_scan", "ios": "https://dc.lft.to/lastmile_qr_scan"}, "fusion_lon": 0.0}, {"lat": 38.934202666666664, "is_disabled": 0, "type": "electric_scooter", "lon": -77.04141166666666, "bike_id": "b8b45428ce7b35d36ce2dc9044d840a1", "fusion_lat": 0.0, "name": "b8b45428ce7b35d36ce2dc9044d840a1", "is_reserved": 0, "rental_uris": {"android": "https://dc.lft.to/lastmile_qr_scan", "ios": "https://dc.lft.to/lastmile_qr_scan"}, "fusion_lon": 0.0}, {"lat": 38.837262833333334, "is_disabled": 0, "type": "electric_bike", "lon": -76.99761316666667, "bike_id": "d9d4309d285c38b87d1fc25cea68efec", "fusion_lat": 0.0, "name": "d9d4309d285c38b87d1fc25cea68efec", "is_reserved": 0, "rental_uris": {"android": "https://dc.lft.to/lastmile_qr_scan", "ios": "https://dc.lft.to/lastmile_qr_scan"}, "fusion_lon": 0.0}, {"lat": 38.89960883333333, "is_disabled": 0, "type": "electric_scooter", "lon": -77.02501066666666, "bike_id": "e5454175aee1e8b2eb782f02fc7fdfa7", "fusion_lat": 0.0, "name": "e5454175aee1e8b2eb782f02fc7fdfa7", "is_reserved": 0, "rental_uris": {"android": "https://dc.lft.to/lastmile_qr_scan", "ios": "https://dc.lft.to/lastmile_qr_scan"}, "fusion_lon": 0.0}, {"lat": 38.911080166666665, "is_disabled": 0, "type": "electric_scooter", "lon": -77.04504866666667, "bike_id": "da14d8778836c89a0ccd0daf4a1c22e9", "fusion_lat": 0.0, "name": "da14d8778836c89a0ccd0daf4a1c22e9", "is_reserved": 0, "rental_uris": {"android": "https://dc.lft.to/lastmile_qr_scan", "ios": "https://dc.lft.to/lastmile_qr_scan"}, "fusion_lon": 0.0}, {"lat": 38.855056833333336, "is_disabled": 0, "type": "electric_bike", "lon": -76.98438616666667, "bike_id": "ef2e5eefeb628a407a87aa73423c3fca", "fusion_lat": 0.0, "name": "ef2e5eefeb628a407a87aa73423c3fca", "is_reserved": 0, "rental_uris": {"android": "https://dc.lft.to/lastmile_qr_scan", "ios": "https://dc.lft.to/lastmile_qr_scan"}, "fusion_lon": 0.0}, {"lat": 38.9199955, "is_disabled": 0, "type": "electric_scooter", "lon": -76.99295633333334, "bike_id": "314bd1734b093c7c7cd85850db4763da", "fusion_lat": 0.0, "name": "314bd1734b093c7c7cd85850db4763da", "is_reserved": 0, "rental_uris": {"android": "https://dc.lft.to/lastmile_qr_scan", "ios": "https://dc.lft.to/lastmile_qr_scan"}, "fusion_lon": 0.0}, {"lat": 38.856858833333334, "is_disabled": 0, "type": "electric_scooter", "lon": -76.9816515, "bike_id": "ce750a631ca7d62ff237e3f2929fc2df", "fusion_lat": 0.0, "name": "ce750a631ca7d62ff237e3f2929fc2df", "is_reserved": 0, "rental_uris": {"android": "https://dc.lft.to/lastmile_qr_scan", "ios": "https://dc.lft.to/lastmile_qr_scan"}, "fusion_lon": 0.0}, {"lat": 38.889949666666666, "is_disabled": 0, "type": "electric_scooter", "lon": -76.95569566666667, "bike_id": "bf3361197d8a2b8c3227b532bfc6ec40", "fusion_lat": 0.0, "name": "bf3361197d8a2b8c3227b532bfc6ec40", "is_reserved": 0, "rental_uris": {"android": "https://dc.lft.to/lastmile_qr_scan", "ios": "https://dc.lft.to/lastmile_qr_scan"}, "fusion_lon": 0.0}, {"lat": 38.98230016666667, "is_disabled": 0, "type": "electric_bike", "lon": -77.02605033333333, "bike_id": "ba07b4a8da1984ebb18dce1906a2d883", "fusion_lat": 0.0, "name": "ba07b4a8da1984ebb18dce1906a2d883", "is_reserved": 0, "rental_uris": {"android": "https://dc.lft.to/lastmile_qr_scan", "ios": "https://dc.lft.to/lastmile_qr_scan"}, "fusion_lon": 0.0}, {"lat": 38.91106766666667, "is_disabled": 0, "type": "electric_scooter", "lon": -77.03829483333334, "bike_id": "ae9e90c3af3bbbfb754079c3632ed0ee", "fusion_lat": 0.0, "name": "ae9e90c3af3bbbfb754079c3632ed0ee", "is_reserved": 0, "rental_uris": {"android": "https://dc.lft.to/lastmile_qr_scan", "ios": "https://dc.lft.to/lastmile_qr_scan"}, "fusion_lon": 0.0}, {"lat": 38.9000745, "is_disabled": 0, "type": "electric_scooter", "lon": -76.92238566666667, "bike_id": "812d8e85a8d4fcc108cf8d72ca9e6d62", "fusion_lat": 0.0, "name": "812d8e85a8d4fcc108cf8d72ca9e6d62", "is_reserved": 0, "rental_uris": {"android": "https://dc.lft.to/lastmile_qr_scan", "ios": "https://dc.lft.to/lastmile_qr_scan"}, "fusion_lon": 0.0}, {"lat": 38.90687366666667, "is_disabled": 0, "type": "electric_scooter", "lon": -77.03522683333334, "bike_id": "9a8d49389702c84040341114ce591401", "fusion_lat": 0.0, "name": "9a8d49389702c84040341114ce591401", "is_reserved": 0, "rental_uris": {"android": "https://dc.lft.to/lastmile_qr_scan", "ios": "https://dc.lft.to/lastmile_qr_scan"}, "fusion_lon": 0.0}, {"lat": 38.925415, "is_disabled": 0, "type": "electric_scooter", "lon": -77.052471, "bike_id": "40feb82b9d97610d10c9b915d8a80872", "fusion_lat": 0.0, "name": "40feb82b9d97610d10c9b915d8a80872", "is_reserved": 0, "rental_uris": {"android": "https://dc.lft.to/lastmile_qr_scan", "ios": "https://dc.lft.to/lastmile_qr_scan"}, "fusion_lon": 0.0}, {"lat": 38.91263983333333, "is_disabled": 0, "type": "electric_scooter", "lon": -77.03142383333333, "bike_id": "31a42602997578a682fa01113f9d9bc8", "fusion_lat": 0.0, "name": "31a42602997578a682fa01113f9d9bc8", "is_reserved": 0, "rental_uris": {"android": "https://dc.lft.to/lastmile_qr_scan", "ios": "https://dc.lft.to/lastmile_qr_scan"}, "fusion_lon": 0.0}, {"lat": 38.93959183333333, "is_disabled": 0, "type": "electric_scooter", "lon": -77.02752866666667, "bike_id": "b7e3861131421c3ee7abdebbafaf8e26", "fusion_lat": 0.0, "name": "b7e3861131421c3ee7abdebbafaf8e26", "is_reserved": 0, "rental_uris": {"android": "https://dc.lft.to/lastmile_qr_scan", "ios": "https://dc.lft.to/lastmile_qr_scan"}, "fusion_lon": 0.0}, {"lat": 38.934933666666666, "is_disabled": 0, "type": "electric_scooter", "lon": -77.03413633333334, "bike_id": "ea68fa66d0771467dbaf3f573bc957d2", "fusion_lat": 0.0, "name": "ea68fa66d0771467dbaf3f573bc957d2", "is_reserved": 0, "rental_uris": {"android": "https://dc.lft.to/lastmile_qr_scan", "ios": "https://dc.lft.to/lastmile_qr_scan"}, "fusion_lon": 0.0}, {"lat": 38.916693333333335, "is_disabled": 0, "type": "electric_scooter", "lon": -77.04378866666667, "bike_id": "9f9e98a7960798a4aee732115beedf70", "fusion_lat": 0.0, "name": "9f9e98a7960798a4aee732115beedf70", "is_reserved": 0, "rental_uris": {"android": "https://dc.lft.to/lastmile_qr_scan", "ios": "https://dc.lft.to/lastmile_qr_scan"}, "fusion_lon": 0.0}, {"lat": 38.8983645, "is_disabled": 0, "type": "electric_scooter", "lon": -77.02936, "bike_id": "e32d2d2744348bab97714077973541b6", "fusion_lat": 0.0, "name": "e32d2d2744348bab97714077973541b6", "is_reserved": 0, "rental_uris": {"android": "https://dc.lft.to/lastmile_qr_scan", "ios": "https://dc.lft.to/lastmile_qr_scan"}, "fusion_lon": 0.0}, {"lat": 38.87370683333333, "is_disabled": 0, "type": "electric_scooter", "lon": -77.00201266666667, "bike_id": "ae62cffdafa066928b6495cc6457c09f", "fusion_lat": 0.0, "name": "ae62cffdafa066928b6495cc6457c09f", "is_reserved": 0, "rental_uris": {"android": "https://dc.lft.to/lastmile_qr_scan", "ios": "https://dc.lft.to/lastmile_qr_scan"}, "fusion_lon": 0.0}, {"lat": 38.927560166666666, "is_disabled": 0, "type": "electric_scooter", "lon": -77.00598333333333, "bike_id": "c2b99c3ea8837e2c2c7157db47f5ead7", "fusion_lat": 0.0, "name": "c2b99c3ea8837e2c2c7157db47f5ead7", "is_reserved": 0, "rental_uris": {"android": "https://dc.lft.to/lastmile_qr_scan", "ios": "https://dc.lft.to/lastmile_qr_scan"}, "fusion_lon": 0.0}, {"lat": 38.905780166666666, "is_disabled": 0, "type": "electric_scooter", "lon": -77.00882883333334, "bike_id": "d4feb95e857c3e9b9c18c6e6614f950a", "fusion_lat": 0.0, "name": "d4feb95e857c3e9b9c18c6e6614f950a", "is_reserved": 0, "rental_uris": {"android": "https://dc.lft.to/lastmile_qr_scan", "ios": "https://dc.lft.to/lastmile_qr_scan"}, "fusion_lon": 0.0}, {"lat": 38.859305666666664, "is_disabled": 0, "type": "electric_scooter", "lon": -76.99721433333333, "bike_id": "49b40deadf071b0228e6f35f2f8769fa", "fusion_lat": 0.0, "name": "49b40deadf071b0228e6f35f2f8769fa", "is_reserved": 0, "rental_uris": {"android": "https://dc.lft.to/lastmile_qr_scan", "ios": "https://dc.lft.to/lastmile_qr_scan"}, "fusion_lon": 0.0}, {"lat": 38.91613783333333, "is_disabled": 0, "type": "electric_scooter", "lon": -77.03164383333333, "bike_id": "1e04839a51b4f64f4b9b8d323f91a07c", "fusion_lat": 0.0, "name": "1e04839a51b4f64f4b9b8d323f91a07c", "is_reserved": 0, "rental_uris": {"android": "https://dc.lft.to/lastmile_qr_scan", "ios": "https://dc.lft.to/lastmile_qr_scan"}, "fusion_lon": 0.0}, {"lat": 38.92406416666667, "is_disabled": 0, "type": "electric_scooter", "lon": -77.02750016666667, "bike_id": "505d66e3b12ea460eeccb3ffc8b70552", "fusion_lat": 0.0, "name": "505d66e3b12ea460eeccb3ffc8b70552", "is_reserved": 0, "rental_uris": {"android": "https://dc.lft.to/lastmile_qr_scan", "ios": "https://dc.lft.to/lastmile_qr_scan"}, "fusion_lon": 0.0}, {"lat": 38.903546666666664, "is_disabled": 0, "type": "electric_scooter", "lon": -77.04243633333333, "bike_id": "2d87695bd66c5d26efd3373e6f9d66c5", "fusion_lat": 0.0, "name": "2d87695bd66c5d26efd3373e6f9d66c5", "is_reserved": 0, "rental_uris": {"android": "https://dc.lft.to/lastmile_qr_scan", "ios": "https://dc.lft.to/lastmile_qr_scan"}, "fusion_lon": 0.0}, {"lat": 38.902864, "is_disabled": 0, "type": "electric_scooter", "lon": -77.040526, "bike_id": "67d0ec6ca7d7bb7a6eb23728d794e2ca", "fusion_lat": 0.0, "name": "67d0ec6ca7d7bb7a6eb23728d794e2ca", "is_reserved": 0, "rental_uris": {"android": "https://dc.lft.to/lastmile_qr_scan", "ios": "https://dc.lft.to/lastmile_qr_scan"}, "fusion_lon": 0.0}, {"lat": 38.88925583333334, "is_disabled": 0, "type": "electric_scooter", "lon": -76.997433, "bike_id": "5ef23c96aa52e496e5538bb748f236e2", "fusion_lat": 0.0, "name": "5ef23c96aa52e496e5538bb748f236e2", "is_reserved": 0, "rental_uris": {"android": "https://dc.lft.to/lastmile_qr_scan", "ios": "https://dc.lft.to/lastmile_qr_scan"}, "fusion_lon": 0.0}, {"lat": 38.87627633333334, "is_disabled": 0, "type": "electric_scooter", "lon": -76.965266, "bike_id": "e40187b29ba732228e9b2a84f0242bfe", "fusion_lat": 0.0, "name": "e40187b29ba732228e9b2a84f0242bfe", "is_reserved": 0, "rental_uris": {"android": "https://dc.lft.to/lastmile_qr_scan", "ios": "https://dc.lft.to/lastmile_qr_scan"}, "fusion_lon": 0.0}, {"lat": 38.844657833333336, "is_disabled": 0, "type": "electric_bike", "lon": -76.98755, "bike_id": "8a668480c962fc7b35ca7877b845c901", "fusion_lat": 0.0, "name": "8a668480c962fc7b35ca7877b845c901", "is_reserved": 0, "rental_uris": {"android": "https://dc.lft.to/lastmile_qr_scan", "ios": "https://dc.lft.to/lastmile_qr_scan"}, "fusion_lon": 0.0}, {"lat": 38.91697583333333, "is_disabled": 0, "type": "electric_scooter", "lon": -77.03108916666666, "bike_id": "fd8bc511d442c0ca3f5367f49d96d8d9", "fusion_lat": 0.0, "name": "fd8bc511d442c0ca3f5367f49d96d8d9", "is_reserved": 0, "rental_uris": {"android": "https://dc.lft.to/lastmile_qr_scan", "ios": "https://dc.lft.to/lastmile_qr_scan"}, "fusion_lon": 0.0}, {"lat": 38.8652375, "is_disabled": 0, "type": "electric_scooter", "lon": -76.99030033333334, "bike_id": "6fb72f8bc18a68c2870eb9d85f647cd4", "fusion_lat": 0.0, "name": "6fb72f8bc18a68c2870eb9d85f647cd4", "is_reserved": 0, "rental_uris": {"android": "https://dc.lft.to/lastmile_qr_scan", "ios": "https://dc.lft.to/lastmile_qr_scan"}, "fusion_lon": 0.0}, {"lat": 38.90278033333333, "is_disabled": 0, "type": "electric_scooter", "lon": -77.03443066666667, "bike_id": "c2a266d8dbc21bc1c8a00359eabfb8b6", "fusion_lat": 0.0, "name": "c2a266d8dbc21bc1c8a00359eabfb8b6", "is_reserved": 0, "rental_uris": {"android": "https://dc.lft.to/lastmile_qr_scan", "ios": "https://dc.lft.to/lastmile_qr_scan"}, "fusion_lon": 0.0}, {"lat": 38.83416883333334, "is_disabled": 0, "type": "electric_bike", "lon": -77.1038155, "bike_id": "95e1b8665521eae937ce4c51954b405e", "fusion_lat": 0.0, "name": "95e1b8665521eae937ce4c51954b405e", "is_reserved": 0, "rental_uris": {"android": "https://dc.lft.to/lastmile_qr_scan", "ios": "https://dc.lft.to/lastmile_qr_scan"}, "fusion_lon": 0.0}, {"lat": 38.932347, "is_disabled": 0, "type": "electric_scooter", "lon": -77.03092516666666, "bike_id": "4e1f8ec0e5b7c0dd093dbc6c904deb25", "fusion_lat": 0.0, "name": "4e1f8ec0e5b7c0dd093dbc6c904deb25", "is_reserved": 0, "rental_uris": {"android": "https://dc.lft.to/lastmile_qr_scan", "ios": "https://dc.lft.to/lastmile_qr_scan"}, "fusion_lon": 0.0}, {"lat": 38.901080666666665, "is_disabled": 0, "type": "electric_scooter", "lon": -77.02517966666667, "bike_id": "7e71a2db812a30161b575bdc2c776597", "fusion_lat": 0.0, "name": "7e71a2db812a30161b575bdc2c776597", "is_reserved": 0, "rental_uris": {"android": "https://dc.lft.to/lastmile_qr_scan", "ios": "https://dc.lft.to/lastmile_qr_scan"}, "fusion_lon": 0.0}, {"lat": 38.892265, "is_disabled": 0, "type": "electric_scooter", "lon": -77.03175633333333, "bike_id": "5caccafc8fb91372d205628638230a3b", "fusion_lat": 0.0, "name": "5caccafc8fb91372d205628638230a3b", "is_reserved": 0, "rental_uris": {"android": "https://dc.lft.to/lastmile_qr_scan", "ios": "https://dc.lft.to/lastmile_qr_scan"}, "fusion_lon": 0.0}, {"lat": 38.898362, "is_disabled": 0, "type": "electric_scooter", "lon": -77.0225975, "bike_id": "c42670543e0099e81016ff74772487e2", "fusion_lat": 0.0, "name": "c42670543e0099e81016ff74772487e2", "is_reserved": 0, "rental_uris": {"android": "https://dc.lft.to/lastmile_qr_scan", "ios": "https://dc.lft.to/lastmile_qr_scan"}, "fusion_lon": 0.0}, {"lat": 38.855081166666665, "is_disabled": 0, "type": "electric_bike", "lon": -77.12045316666666, "bike_id": "d823ff04c9dd02a1500b842b300c12ee", "fusion_lat": 0.0, "name": "d823ff04c9dd02a1500b842b300c12ee", "is_reserved": 0, "rental_uris": {"android": "https://dc.lft.to/lastmile_qr_scan", "ios": "https://dc.lft.to/lastmile_qr_scan"}, "fusion_lon": 0.0}, {"lat": 38.90978366666667, "is_disabled": 0, "type": "electric_scooter", "lon": -77.02401116666667, "bike_id": "a616f51f84b48bde9a6a160f311daa58", "fusion_lat": 0.0, "name": "a616f51f84b48bde9a6a160f311daa58", "is_reserved": 0, "rental_uris": {"android": "https://dc.lft.to/lastmile_qr_scan", "ios": "https://dc.lft.to/lastmile_qr_scan"}, "fusion_lon": 0.0}, {"lat": 38.90872933333333, "is_disabled": 0, "type": "electric_scooter", "lon": -77.06678183333334, "bike_id": "709442a8fb479314c74a27f5e2e8aeb5", "fusion_lat": 0.0, "name": "709442a8fb479314c74a27f5e2e8aeb5", "is_reserved": 0, "rental_uris": {"android": "https://dc.lft.to/lastmile_qr_scan", "ios": "https://dc.lft.to/lastmile_qr_scan"}, "fusion_lon": 0.0}, {"lat": 38.9169945, "is_disabled": 0, "type": "electric_scooter", "lon": -77.03726416666667, "bike_id": "2ac1ff552d165ae10c1b3f5146837542", "fusion_lat": 0.0, "name": "2ac1ff552d165ae10c1b3f5146837542", "is_reserved": 0, "rental_uris": {"android": "https://dc.lft.to/lastmile_qr_scan", "ios": "https://dc.lft.to/lastmile_qr_scan"}, "fusion_lon": 0.0}, {"lat": 38.917270333333335, "is_disabled": 0, "type": "electric_scooter", "lon": -77.02505766666667, "bike_id": "a6598fa2db22f4de379a29876a04c7dc", "fusion_lat": 0.0, "name": "a6598fa2db22f4de379a29876a04c7dc", "is_reserved": 0, "rental_uris": {"android": "https://dc.lft.to/lastmile_qr_scan", "ios": "https://dc.lft.to/lastmile_qr_scan"}, "fusion_lon": 0.0}, {"lat": 38.907763833333334, "is_disabled": 0, "type": "electric_scooter", "lon": -77.06926983333334, "bike_id": "31afc34b5a9bec5d1b098c48a61e9b73", "fusion_lat": 0.0, "name": "31afc34b5a9bec5d1b098c48a61e9b73", "is_reserved": 0, "rental_uris": {"android": "https://dc.lft.to/lastmile_qr_scan", "ios": "https://dc.lft.to/lastmile_qr_scan"}, "fusion_lon": 0.0}, {"lat": 38.866483833333334, "is_disabled": 0, "type": "electric_scooter", "lon": -76.98891333333333, "bike_id": "df2d622ad29120e78f3a44da302d8ab3", "fusion_lat": 0.0, "name": "df2d622ad29120e78f3a44da302d8ab3", "is_reserved": 0, "rental_uris": {"android": "https://dc.lft.to/lastmile_qr_scan", "ios": "https://dc.lft.to/lastmile_qr_scan"}, "fusion_lon": 0.0}, {"lat": 38.900293, "is_disabled": 0, "type": "electric_scooter", "lon": -76.996272, "bike_id": "006241856053613dc2fcaa2371aef9ad", "fusion_lat": 0.0, "name": "006241856053613dc2fcaa2371aef9ad", "is_reserved": 0, "rental_uris": {"android": "https://dc.lft.to/lastmile_qr_scan", "ios": "https://dc.lft.to/lastmile_qr_scan"}, "fusion_lon": 0.0}, {"lat": 38.89708183333333, "is_disabled": 0, "type": "electric_scooter", "lon": -77.00723866666667, "bike_id": "ea1887b6c497bcb807726d5c9575bcf8", "fusion_lat": 0.0, "name": "ea1887b6c497bcb807726d5c9575bcf8", "is_reserved": 0, "rental_uris": {"android": "https://dc.lft.to/lastmile_qr_scan", "ios": "https://dc.lft.to/lastmile_qr_scan"}, "fusion_lon": 0.0}, {"lat": 38.92312066666667, "is_disabled": 0, "type": "electric_scooter", "lon": -77.03968033333334, "bike_id": "d45ecea29c2c4c4827c8e7484bccbd45", "fusion_lat": 0.0, "name": "d45ecea29c2c4c4827c8e7484bccbd45", "is_reserved": 0, "rental_uris": {"android": "https://dc.lft.to/lastmile_qr_scan", "ios": "https://dc.lft.to/lastmile_qr_scan"}, "fusion_lon": 0.0}, {"lat": 38.9195025, "is_disabled": 0, "type": "electric_scooter", "lon": -77.02505866666667, "bike_id": "7363f8c00b18ecdacaf173ea88780a00", "fusion_lat": 0.0, "name": "7363f8c00b18ecdacaf173ea88780a00", "is_reserved": 0, "rental_uris": {"android": "https://dc.lft.to/lastmile_qr_scan", "ios": "https://dc.lft.to/lastmile_qr_scan"}, "fusion_lon": 0.0}, {"lat": 38.92482283333333, "is_disabled": 0, "type": "electric_scooter", "lon": -77.05223783333334, "bike_id": "153033d9a06b04ef9020ffa990eea803", "fusion_lat": 0.0, "name": "153033d9a06b04ef9020ffa990eea803", "is_reserved": 0, "rental_uris": {"android": "https://dc.lft.to/lastmile_qr_scan", "ios": "https://dc.lft.to/lastmile_qr_scan"}, "fusion_lon": 0.0}, {"lat": 38.905199833333334, "is_disabled": 0, "type": "electric_scooter", "lon": -77.03877633333333, "bike_id": "b5384c2e5fd495b0edd4e82f9d2ff5c1", "fusion_lat": 0.0, "name": "b5384c2e5fd495b0edd4e82f9d2ff5c1", "is_reserved": 0, "rental_uris": {"android": "https://dc.lft.to/lastmile_qr_scan", "ios": "https://dc.lft.to/lastmile_qr_scan"}, "fusion_lon": 0.0}, {"lat": 38.93347033333333, "is_disabled": 0, "type": "electric_scooter", "lon": -77.05867316666667, "bike_id": "04e1de2aad0016d60bc00512f49c5137", "fusion_lat": 0.0, "name": "04e1de2aad0016d60bc00512f49c5137", "is_reserved": 0, "rental_uris": {"android": "https://dc.lft.to/lastmile_qr_scan", "ios": "https://dc.lft.to/lastmile_qr_scan"}, "fusion_lon": 0.0}, {"lat": 38.842822, "is_disabled": 0, "type": "electric_bike", "lon": -76.98843866666667, "bike_id": "944920a1c7e77e1ccb165c9d581be8c7", "fusion_lat": 0.0, "name": "944920a1c7e77e1ccb165c9d581be8c7", "is_reserved": 0, "rental_uris": {"android": "https://dc.lft.to/lastmile_qr_scan", "ios": "https://dc.lft.to/lastmile_qr_scan"}, "fusion_lon": 0.0}, {"lat": 38.88763066666667, "is_disabled": 0, "type": "electric_scooter", "lon": -76.95594433333333, "bike_id": "c898154fa7f50743f21e18ae09eb0fdb", "fusion_lat": 0.0, "name": "c898154fa7f50743f21e18ae09eb0fdb", "is_reserved": 0, "rental_uris": {"android": "https://dc.lft.to/lastmile_qr_scan", "ios": "https://dc.lft.to/lastmile_qr_scan"}, "fusion_lon": 0.0}, {"lat": 38.84293233333333, "is_disabled": 0, "type": "electric_scooter", "lon": -76.999512, "bike_id": "8fb828ac7b4ef259435ee2ad0031cebd", "fusion_lat": 0.0, "name": "8fb828ac7b4ef259435ee2ad0031cebd", "is_reserved": 0, "rental_uris": {"android": "https://dc.lft.to/lastmile_qr_scan", "ios": "https://dc.lft.to/lastmile_qr_scan"}, "fusion_lon": 0.0}, {"lat": 38.8849575, "is_disabled": 0, "type": "electric_scooter", "lon": -77.00708533333334, "bike_id": "96a9a93439342c9886990639680616a1", "fusion_lat": 0.0, "name": "96a9a93439342c9886990639680616a1", "is_reserved": 0, "rental_uris": {"android": "https://dc.lft.to/lastmile_qr_scan", "ios": "https://dc.lft.to/lastmile_qr_scan"}, "fusion_lon": 0.0}, {"lat": 38.923696, "is_disabled": 0, "type": "electric_scooter", "lon": -77.04028033333333, "bike_id": "9169f26937fac5dcfec71d7a718af554", "fusion_lat": 0.0, "name": "9169f26937fac5dcfec71d7a718af554", "is_reserved": 0, "rental_uris": {"android": "https://dc.lft.to/lastmile_qr_scan", "ios": "https://dc.lft.to/lastmile_qr_scan"}, "fusion_lon": 0.0}, {"lat": 38.8493355, "is_disabled": 0, "type": "electric_bike", "lon": -77.10015816666667, "bike_id": "87458834f489db5838333dbb223e95b8", "fusion_lat": 0.0, "name": "87458834f489db5838333dbb223e95b8", "is_reserved": 0, "rental_uris": {"android": "https://dc.lft.to/lastmile_qr_scan", "ios": "https://dc.lft.to/lastmile_qr_scan"}, "fusion_lon": 0.0}, {"lat": 38.91782383333333, "is_disabled": 0, "type": "electric_scooter", "lon": -77.02310666666666, "bike_id": "44a676e00cd9ac2444063aa71bcfe741", "fusion_lat": 0.0, "name": "44a676e00cd9ac2444063aa71bcfe741", "is_reserved": 0, "rental_uris": {"android": "https://dc.lft.to/lastmile_qr_scan", "ios": "https://dc.lft.to/lastmile_qr_scan"}, "fusion_lon": 0.0}, {"lat": 38.921365, "is_disabled": 0, "type": "electric_scooter", "lon": -77.010358, "bike_id": "bd59167edffab7d3cb924be0f283140f", "fusion_lat": 0.0, "name": "bd59167edffab7d3cb924be0f283140f", "is_reserved": 0, "rental_uris": {"android": "https://dc.lft.to/lastmile_qr_scan", "ios": "https://dc.lft.to/lastmile_qr_scan"}, "fusion_lon": 0.0}, {"lat": 38.86623733333333, "is_disabled": 0, "type": "electric_scooter", "lon": -76.98699083333334, "bike_id": "fcdec610a1fc7dca7d1839cbe39bbedd", "fusion_lat": 0.0, "name": "fcdec610a1fc7dca7d1839cbe39bbedd", "is_reserved": 0, "rental_uris": {"android": "https://dc.lft.to/lastmile_qr_scan", "ios": "https://dc.lft.to/lastmile_qr_scan"}, "fusion_lon": 0.0}, {"lat": 38.906695666666664, "is_disabled": 0, "type": "electric_scooter", "lon": -77.06272916666667, "bike_id": "dd4011efe8825dada1d354b83d6f31ee", "fusion_lat": 0.0, "name": "dd4011efe8825dada1d354b83d6f31ee", "is_reserved": 0, "rental_uris": {"android": "https://dc.lft.to/lastmile_qr_scan", "ios": "https://dc.lft.to/lastmile_qr_scan"}, "fusion_lon": 0.0}, {"lat": 38.91681166666667, "is_disabled": 0, "type": "electric_scooter", "lon": -77.02970066666667, "bike_id": "19869d7c65f5b4ee0d9b63043ab901e3", "fusion_lat": 0.0, "name": "19869d7c65f5b4ee0d9b63043ab901e3", "is_reserved": 0, "rental_uris": {"android": "https://dc.lft.to/lastmile_qr_scan", "ios": "https://dc.lft.to/lastmile_qr_scan"}, "fusion_lon": 0.0}, {"lat": 38.905933166666664, "is_disabled": 0, "type": "electric_scooter", "lon": -77.062791, "bike_id": "8a233cec4dfe130db30600273c8712da", "fusion_lat": 0.0, "name": "8a233cec4dfe130db30600273c8712da", "is_reserved": 0, "rental_uris": {"android": "https://dc.lft.to/lastmile_qr_scan", "ios": "https://dc.lft.to/lastmile_qr_scan"}, "fusion_lon": 0.0}, {"lat": 38.986579166666665, "is_disabled": 0, "type": "electric_bike", "lon": -77.05659016666667, "bike_id": "df5be734743db5b51e218be5ac014291", "fusion_lat": 0.0, "name": "df5be734743db5b51e218be5ac014291", "is_reserved": 0, "rental_uris": {"android": "https://dc.lft.to/lastmile_qr_scan", "ios": "https://dc.lft.to/lastmile_qr_scan"}, "fusion_lon": 0.0}, {"lat": 38.919659833333334, "is_disabled": 0, "type": "electric_scooter", "lon": -77.02502266666667, "bike_id": "6eafb6b007efaa5be7d3cc0abae07f50", "fusion_lat": 0.0, "name": "6eafb6b007efaa5be7d3cc0abae07f50", "is_reserved": 0, "rental_uris": {"android": "https://dc.lft.to/lastmile_qr_scan", "ios": "https://dc.lft.to/lastmile_qr_scan"}, "fusion_lon": 0.0}, {"lat": 38.86917716666667, "is_disabled": 0, "type": "electric_scooter", "lon": -76.983066, "bike_id": "e86c3e4e95793383b444184422811a3c", "fusion_lat": 0.0, "name": "e86c3e4e95793383b444184422811a3c", "is_reserved": 0, "rental_uris": {"android": "https://dc.lft.to/lastmile_qr_scan", "ios": "https://dc.lft.to/lastmile_qr_scan"}, "fusion_lon": 0.0}, {"lat": 38.916379166666665, "is_disabled": 0, "type": "electric_scooter", "lon": -77.03209683333333, "bike_id": "32294b91f064d17c2012ebcddfe0a67a", "fusion_lat": 0.0, "name": "32294b91f064d17c2012ebcddfe0a67a", "is_reserved": 0, "rental_uris": {"android": "https://dc.lft.to/lastmile_qr_scan", "ios": "https://dc.lft.to/lastmile_qr_scan"}, "fusion_lon": 0.0}, {"lat": 38.91324066666667, "is_disabled": 0, "type": "electric_scooter", "lon": -77.0313005, "bike_id": "ad12fb9807ea67a11e2fe77abb854d96", "fusion_lat": 0.0, "name": "ad12fb9807ea67a11e2fe77abb854d96", "is_reserved": 0, "rental_uris": {"android": "https://dc.lft.to/lastmile_qr_scan", "ios": "https://dc.lft.to/lastmile_qr_scan"}, "fusion_lon": 0.0}, {"lat": 38.929196166666664, "is_disabled": 0, "type": "electric_scooter", "lon": -77.0374975, "bike_id": "ea862fb8fb36d0a1b72bbef468aa66cc", "fusion_lat": 0.0, "name": "ea862fb8fb36d0a1b72bbef468aa66cc", "is_reserved": 0, "rental_uris": {"android": "https://dc.lft.to/lastmile_qr_scan", "ios": "https://dc.lft.to/lastmile_qr_scan"}, "fusion_lon": 0.0}, {"lat": 38.90296766666667, "is_disabled": 0, "type": "electric_scooter", "lon": -77.0004635, "bike_id": "1df8025eeef3bdd3128b39b8c4a3fe68", "fusion_lat": 0.0, "name": "1df8025eeef3bdd3128b39b8c4a3fe68", "is_reserved": 0, "rental_uris": {"android": "https://dc.lft.to/lastmile_qr_scan", "ios": "https://dc.lft.to/lastmile_qr_scan"}, "fusion_lon": 0.0}, {"lat": 38.84425316666667, "is_disabled": 0, "type": "electric_scooter", "lon": -76.99778716666667, "bike_id": "ada3d571c2d49b0ea117367cf6d77110", "fusion_lat": 0.0, "name": "ada3d571c2d49b0ea117367cf6d77110", "is_reserved": 0, "rental_uris": {"android": "https://dc.lft.to/lastmile_qr_scan", "ios": "https://dc.lft.to/lastmile_qr_scan"}, "fusion_lon": 0.0}, {"lat": 38.91348583333333, "is_disabled": 0, "type": "electric_scooter", "lon": -77.031887, "bike_id": "8b07365cea15871e93ab7150bd64e7de", "fusion_lat": 0.0, "name": "8b07365cea15871e93ab7150bd64e7de", "is_reserved": 0, "rental_uris": {"android": "https://dc.lft.to/lastmile_qr_scan", "ios": "https://dc.lft.to/lastmile_qr_scan"}, "fusion_lon": 0.0}, {"lat": 38.863667666666665, "is_disabled": 0, "type": "electric_scooter", "lon": -76.99052866666666, "bike_id": "98afbb530e80978714727dcf8b120fbe", "fusion_lat": 0.0, "name": "98afbb530e80978714727dcf8b120fbe", "is_reserved": 0, "rental_uris": {"android": "https://dc.lft.to/lastmile_qr_scan", "ios": "https://dc.lft.to/lastmile_qr_scan"}, "fusion_lon": 0.0}, {"lat": 38.89259916666666, "is_disabled": 0, "type": "electric_scooter", "lon": -77.03342333333333, "bike_id": "c32154fde0d84a2adb03324ac7344104", "fusion_lat": 0.0, "name": "c32154fde0d84a2adb03324ac7344104", "is_reserved": 0, "rental_uris": {"android": "https://dc.lft.to/lastmile_qr_scan", "ios": "https://dc.lft.to/lastmile_qr_scan"}, "fusion_lon": 0.0}, {"lat": 38.95184966666667, "is_disabled": 0, "type": "electric_bike", "lon": -76.93548483333333, "bike_id": "1a365593b50f66dab3b981d1cfbbaba7", "fusion_lat": 0.0, "name": "1a365593b50f66dab3b981d1cfbbaba7", "is_reserved": 0, "rental_uris": {"android": "https://dc.lft.to/lastmile_qr_scan", "ios": "https://dc.lft.to/lastmile_qr_scan"}, "fusion_lon": 0.0}, {"lat": 38.87965633333334, "is_disabled": 0, "type": "electric_bike", "lon": -77.107224, "bike_id": "7a158e8c88734c33b56754f321973015", "fusion_lat": 0.0, "name": "7a158e8c88734c33b56754f321973015", "is_reserved": 0, "rental_uris": {"android": "https://dc.lft.to/lastmile_qr_scan", "ios": "https://dc.lft.to/lastmile_qr_scan"}, "fusion_lon": 0.0}, {"lat": 38.87081, "is_disabled": 0, "type": "electric_scooter", "lon": -77.01189466666666, "bike_id": "898cc23f15b7ea2da17e222164816f27", "fusion_lat": 0.0, "name": "898cc23f15b7ea2da17e222164816f27", "is_reserved": 0, "rental_uris": {"android": "https://dc.lft.to/lastmile_qr_scan", "ios": "https://dc.lft.to/lastmile_qr_scan"}, "fusion_lon": 0.0}, {"lat": 38.905523, "is_disabled": 0, "type": "electric_scooter", "lon": -77.01994233333333, "bike_id": "a46e30f132c9e57dcd91b98a99aa2c9a", "fusion_lat": 0.0, "name": "a46e30f132c9e57dcd91b98a99aa2c9a", "is_reserved": 0, "rental_uris": {"android": "https://dc.lft.to/lastmile_qr_scan", "ios": "https://dc.lft.to/lastmile_qr_scan"}, "fusion_lon": 0.0}, {"lat": 38.900412833333334, "is_disabled": 0, "type": "electric_scooter", "lon": -77.0320515, "bike_id": "13cef949ff5ae61728fc94debe68a441", "fusion_lat": 0.0, "name": "13cef949ff5ae61728fc94debe68a441", "is_reserved": 0, "rental_uris": {"android": "https://dc.lft.to/lastmile_qr_scan", "ios": "https://dc.lft.to/lastmile_qr_scan"}, "fusion_lon": 0.0}, {"lat": 38.89896533333334, "is_disabled": 0, "type": "electric_scooter", "lon": -77.07234433333333, "bike_id": "372c5e340b4c66108025a05c6b5231ba", "fusion_lat": 0.0, "name": "372c5e340b4c66108025a05c6b5231ba", "is_reserved": 0, "rental_uris": {"android": "https://dc.lft.to/lastmile_qr_scan", "ios": "https://dc.lft.to/lastmile_qr_scan"}, "fusion_lon": 0.0}, {"lat": 38.9229785, "is_disabled": 0, "type": "electric_scooter", "lon": -77.02331983333333, "bike_id": "7c766d5468bdda310f058fdf7e96ae8d", "fusion_lat": 0.0, "name": "7c766d5468bdda310f058fdf7e96ae8d", "is_reserved": 0, "rental_uris": {"android": "https://dc.lft.to/lastmile_qr_scan", "ios": "https://dc.lft.to/lastmile_qr_scan"}, "fusion_lon": 0.0}, {"lat": 38.912372500000004, "is_disabled": 0, "type": "electric_scooter", "lon": -77.04656783333333, "bike_id": "a92c1e398b571cd536ef71cf32c37b4a", "fusion_lat": 0.0, "name": "a92c1e398b571cd536ef71cf32c37b4a", "is_reserved": 0, "rental_uris": {"android": "https://dc.lft.to/lastmile_qr_scan", "ios": "https://dc.lft.to/lastmile_qr_scan"}, "fusion_lon": 0.0}, {"lat": 38.87636583333333, "is_disabled": 0, "type": "electric_scooter", "lon": -77.00917816666667, "bike_id": "deb0c00eb0c159c1341de3777d8d1f35", "fusion_lat": 0.0, "name": "deb0c00eb0c159c1341de3777d8d1f35", "is_reserved": 0, "rental_uris": {"android": "https://dc.lft.to/lastmile_qr_scan", "ios": "https://dc.lft.to/lastmile_qr_scan"}, "fusion_lon": 0.0}, {"lat": 38.917088666666665, "is_disabled": 0, "type": "electric_scooter", "lon": -77.01101983333334, "bike_id": "8a3aba791ff43b5bbf70d4e08a312332", "fusion_lat": 0.0, "name": "8a3aba791ff43b5bbf70d4e08a312332", "is_reserved": 0, "rental_uris": {"android": "https://dc.lft.to/lastmile_qr_scan", "ios": "https://dc.lft.to/lastmile_qr_scan"}, "fusion_lon": 0.0}, {"lat": 38.91695933333333, "is_disabled": 0, "type": "electric_scooter", "lon": -77.04595716666667, "bike_id": "73a31adc45abe22dd60f8159abe2d715", "fusion_lat": 0.0, "name": "73a31adc45abe22dd60f8159abe2d715", "is_reserved": 0, "rental_uris": {"android": "https://dc.lft.to/lastmile_qr_scan", "ios": "https://dc.lft.to/lastmile_qr_scan"}, "fusion_lon": 0.0}, {"lat": 38.901050833333336, "is_disabled": 0, "type": "electric_scooter", "lon": -77.05903866666667, "bike_id": "0e1eeb54f27bd10fd977e5746d7b1fc4", "fusion_lat": 0.0, "name": "0e1eeb54f27bd10fd977e5746d7b1fc4", "is_reserved": 0, "rental_uris": {"android": "https://dc.lft.to/lastmile_qr_scan", "ios": "https://dc.lft.to/lastmile_qr_scan"}, "fusion_lon": 0.0}, {"lat": 38.91563283333333, "is_disabled": 0, "type": "electric_scooter", "lon": -77.03156033333333, "bike_id": "ae432f1c2b0eeaf6d59fbfdbfc90d236", "fusion_lat": 0.0, "name": "ae432f1c2b0eeaf6d59fbfdbfc90d236", "is_reserved": 0, "rental_uris": {"android": "https://dc.lft.to/lastmile_qr_scan", "ios": "https://dc.lft.to/lastmile_qr_scan"}, "fusion_lon": 0.0}, {"lat": 38.84110666666667, "is_disabled": 0, "type": "electric_bike", "lon": -77.08951516666667, "bike_id": "e8fe2138d43b53b2028b9a2762357aab", "fusion_lat": 0.0, "name": "e8fe2138d43b53b2028b9a2762357aab", "is_reserved": 0, "rental_uris": {"android": "https://dc.lft.to/lastmile_qr_scan", "ios": "https://dc.lft.to/lastmile_qr_scan"}, "fusion_lon": 0.0}, {"lat": 38.9142605, "is_disabled": 0, "type": "electric_scooter", "lon": -77.032135, "bike_id": "50b423ee74ea53a1289c7bc59723b546", "fusion_lat": 0.0, "name": "50b423ee74ea53a1289c7bc59723b546", "is_reserved": 0, "rental_uris": {"android": "https://dc.lft.to/lastmile_qr_scan", "ios": "https://dc.lft.to/lastmile_qr_scan"}, "fusion_lon": 0.0}, {"lat": 38.9155505, "is_disabled": 0, "type": "electric_scooter", "lon": -77.03246016666667, "bike_id": "bbb82fe891e401fc55a8c4b783f5f237", "fusion_lat": 0.0, "name": "bbb82fe891e401fc55a8c4b783f5f237", "is_reserved": 0, "rental_uris": {"android": "https://dc.lft.to/lastmile_qr_scan", "ios": "https://dc.lft.to/lastmile_qr_scan"}, "fusion_lon": 0.0}, {"lat": 38.907935333333334, "is_disabled": 0, "type": "electric_scooter", "lon": -77.003784, "bike_id": "95b77956ca0f5c49207564e39ba38f4b", "fusion_lat": 0.0, "name": "95b77956ca0f5c49207564e39ba38f4b", "is_reserved": 0, "rental_uris": {"android": "https://dc.lft.to/lastmile_qr_scan", "ios": "https://dc.lft.to/lastmile_qr_scan"}, "fusion_lon": 0.0}, {"lat": 38.911930166666664, "is_disabled": 0, "type": "electric_scooter", "lon": -77.01198233333334, "bike_id": "35856c9d340c2e005b0e888282074fc5", "fusion_lat": 0.0, "name": "35856c9d340c2e005b0e888282074fc5", "is_reserved": 0, "rental_uris": {"android": "https://dc.lft.to/lastmile_qr_scan", "ios": "https://dc.lft.to/lastmile_qr_scan"}, "fusion_lon": 0.0}, {"lat": 38.8442705, "is_disabled": 0, "type": "electric_scooter", "lon": -76.997828, "bike_id": "3b77ef52f5d1c875f165fabce1985352", "fusion_lat": 0.0, "name": "3b77ef52f5d1c875f165fabce1985352", "is_reserved": 0, "rental_uris": {"android": "https://dc.lft.to/lastmile_qr_scan", "ios": "https://dc.lft.to/lastmile_qr_scan"}, "fusion_lon": 0.0}, {"lat": 38.914144, "is_disabled": 0, "type": "electric_scooter", "lon": -77.031638, "bike_id": "75491912bb9d8aa9f42951cff0d80618", "fusion_lat": 0.0, "name": "75491912bb9d8aa9f42951cff0d80618", "is_reserved": 0, "rental_uris": {"android": "https://dc.lft.to/lastmile_qr_scan", "ios": "https://dc.lft.to/lastmile_qr_scan"}, "fusion_lon": 0.0}, {"lat": 38.805037166666665, "is_disabled": 0, "type": "electric_bike", "lon": -77.04134816666667, "bike_id": "cd8348d632c4e3d80b7d8ec1b7607062", "fusion_lat": 0.0, "name": "cd8348d632c4e3d80b7d8ec1b7607062", "is_reserved": 0, "rental_uris": {"android": "https://dc.lft.to/lastmile_qr_scan", "ios": "https://dc.lft.to/lastmile_qr_scan"}, "fusion_lon": 0.0}, {"lat": 38.866202, "is_disabled": 0, "type": "electric_scooter", "lon": -76.9864345, "bike_id": "6ce5dc9309cb0b09c03cb8bef4ed0baf", "fusion_lat": 0.0, "name": "6ce5dc9309cb0b09c03cb8bef4ed0baf", "is_reserved": 0, "rental_uris": {"android": "https://dc.lft.to/lastmile_qr_scan", "ios": "https://dc.lft.to/lastmile_qr_scan"}, "fusion_lon": 0.0}, {"lat": 38.91704133333333, "is_disabled": 0, "type": "electric_scooter", "lon": -77.01105383333334, "bike_id": "cf478f1a13dbace19bf556a938a78b1b", "fusion_lat": 0.0, "name": "cf478f1a13dbace19bf556a938a78b1b", "is_reserved": 0, "rental_uris": {"android": "https://dc.lft.to/lastmile_qr_scan", "ios": "https://dc.lft.to/lastmile_qr_scan"}, "fusion_lon": 0.0}, {"lat": 38.932243, "is_disabled": 0, "type": "electric_scooter", "lon": -77.02382316666667, "bike_id": "2b90fdb3409d29f2d26ba9ceeedd6acd", "fusion_lat": 0.0, "name": "2b90fdb3409d29f2d26ba9ceeedd6acd", "is_reserved": 0, "rental_uris": {"android": "https://dc.lft.to/lastmile_qr_scan", "ios": "https://dc.lft.to/lastmile_qr_scan"}, "fusion_lon": 0.0}, {"lat": 38.9311505, "is_disabled": 0, "type": "electric_scooter", "lon": -77.02092466666667, "bike_id": "938ae4a00a8a2cd773ddfabeacdd8489", "fusion_lat": 0.0, "name": "938ae4a00a8a2cd773ddfabeacdd8489", "is_reserved": 0, "rental_uris": {"android": "https://dc.lft.to/lastmile_qr_scan", "ios": "https://dc.lft.to/lastmile_qr_scan"}, "fusion_lon": 0.0}, {"lat": 38.852120166666666, "is_disabled": 0, "type": "electric_bike", "lon": -76.99577283333333, "bike_id": "197f1bd8ea1818cfee77ec0774f0d604", "fusion_lat": 0.0, "name": "197f1bd8ea1818cfee77ec0774f0d604", "is_reserved": 0, "rental_uris": {"android": "https://dc.lft.to/lastmile_qr_scan", "ios": "https://dc.lft.to/lastmile_qr_scan"}, "fusion_lon": 0.0}, {"lat": 38.9533095, "is_disabled": 0, "type": "electric_bike", "lon": -76.98818616666667, "bike_id": "c901db72fed3ec8369ae12272b7c4d21", "fusion_lat": 0.0, "name": "c901db72fed3ec8369ae12272b7c4d21", "is_reserved": 0, "rental_uris": {"android": "https://dc.lft.to/lastmile_qr_scan", "ios": "https://dc.lft.to/lastmile_qr_scan"}, "fusion_lon": 0.0}, {"lat": 38.924011166666666, "is_disabled": 0, "type": "electric_scooter", "lon": -77.0269335, "bike_id": "cf3760664f6718198dab237695734d75", "fusion_lat": 0.0, "name": "cf3760664f6718198dab237695734d75", "is_reserved": 0, "rental_uris": {"android": "https://dc.lft.to/lastmile_qr_scan", "ios": "https://dc.lft.to/lastmile_qr_scan"}, "fusion_lon": 0.0}, {"lat": 38.94904316666667, "is_disabled": 0, "type": "electric_bike", "lon": -76.97238966666667, "bike_id": "c54e481be51b477fbbcb1faf3b77aa6f", "fusion_lat": 0.0, "name": "c54e481be51b477fbbcb1faf3b77aa6f", "is_reserved": 0, "rental_uris": {"android": "https://dc.lft.to/lastmile_qr_scan", "ios": "https://dc.lft.to/lastmile_qr_scan"}, "fusion_lon": 0.0}, {"lat": 38.911112, "is_disabled": 0, "type": "electric_scooter", "lon": -77.03246933333334, "bike_id": "ed783c0fc28c4a7ceacf44286fa7cb8f", "fusion_lat": 0.0, "name": "ed783c0fc28c4a7ceacf44286fa7cb8f", "is_reserved": 0, "rental_uris": {"android": "https://dc.lft.to/lastmile_qr_scan", "ios": "https://dc.lft.to/lastmile_qr_scan"}, "fusion_lon": 0.0}, {"lat": 38.8925215, "is_disabled": 0, "type": "electric_scooter", "lon": -77.03194066666667, "bike_id": "64e279177dd0dd8ad709e6a95c0e31ec", "fusion_lat": 0.0, "name": "64e279177dd0dd8ad709e6a95c0e31ec", "is_reserved": 0, "rental_uris": {"android": "https://dc.lft.to/lastmile_qr_scan", "ios": "https://dc.lft.to/lastmile_qr_scan"}, "fusion_lon": 0.0}, {"lat": 38.92539583333333, "is_disabled": 0, "type": "electric_scooter", "lon": -77.0256325, "bike_id": "7c9a0591b9bcc4cacb93e13d44bdf5c4", "fusion_lat": 0.0, "name": "7c9a0591b9bcc4cacb93e13d44bdf5c4", "is_reserved": 0, "rental_uris": {"android": "https://dc.lft.to/lastmile_qr_scan", "ios": "https://dc.lft.to/lastmile_qr_scan"}, "fusion_lon": 0.0}, {"lat": 38.8983685, "is_disabled": 0, "type": "electric_scooter", "lon": -77.02385583333333, "bike_id": "c6337dba9fcba9a75432dee61cb52281", "fusion_lat": 0.0, "name": "c6337dba9fcba9a75432dee61cb52281", "is_reserved": 0, "rental_uris": {"android": "https://dc.lft.to/lastmile_qr_scan", "ios": "https://dc.lft.to/lastmile_qr_scan"}, "fusion_lon": 0.0}, {"lat": 38.93076166666667, "is_disabled": 0, "type": "electric_scooter", "lon": -77.03143733333333, "bike_id": "2b2c9f84f6e0e46fd6f962c79d328a02", "fusion_lat": 0.0, "name": "2b2c9f84f6e0e46fd6f962c79d328a02", "is_reserved": 0, "rental_uris": {"android": "https://dc.lft.to/lastmile_qr_scan", "ios": "https://dc.lft.to/lastmile_qr_scan"}, "fusion_lon": 0.0}, {"lat": 38.94086216666667, "is_disabled": 0, "type": "electric_scooter", "lon": -77.0613605, "bike_id": "6d86d96457a2b1d3f14c83e1988640b8", "fusion_lat": 0.0, "name": "6d86d96457a2b1d3f14c83e1988640b8", "is_reserved": 0, "rental_uris": {"android": "https://dc.lft.to/lastmile_qr_scan", "ios": "https://dc.lft.to/lastmile_qr_scan"}, "fusion_lon": 0.0}, {"lat": 39.02930683333334, "is_disabled": 0, "type": "electric_bike", "lon": -77.04930133333333, "bike_id": "d20b56111a71c22526ca4b6601f9d3b9", "fusion_lat": 0.0, "name": "d20b56111a71c22526ca4b6601f9d3b9", "is_reserved": 0, "rental_uris": {"android": "https://dc.lft.to/lastmile_qr_scan", "ios": "https://dc.lft.to/lastmile_qr_scan"}, "fusion_lon": 0.0}, {"lat": 38.919813, "is_disabled": 0, "type": "electric_scooter", "lon": -76.97315916666666, "bike_id": "40df028a6f783b02704d886b3dcb308f", "fusion_lat": 0.0, "name": "40df028a6f783b02704d886b3dcb308f", "is_reserved": 0, "rental_uris": {"android": "https://dc.lft.to/lastmile_qr_scan", "ios": "https://dc.lft.to/lastmile_qr_scan"}, "fusion_lon": 0.0}, {"lat": 38.884881166666666, "is_disabled": 0, "type": "electric_scooter", "lon": -77.007126, "bike_id": "4437c579b780d632d753c5c294bde364", "fusion_lat": 0.0, "name": "4437c579b780d632d753c5c294bde364", "is_reserved": 0, "rental_uris": {"android": "https://dc.lft.to/lastmile_qr_scan", "ios": "https://dc.lft.to/lastmile_qr_scan"}, "fusion_lon": 0.0}, {"lat": 38.97345266666667, "is_disabled": 0, "type": "electric_scooter", "lon": -77.01796516666667, "bike_id": "19f9db2b6f483ca03d051ba33162efb7", "fusion_lat": 0.0, "name": "19f9db2b6f483ca03d051ba33162efb7", "is_reserved": 0, "rental_uris": {"android": "https://dc.lft.to/lastmile_qr_scan", "ios": "https://dc.lft.to/lastmile_qr_scan"}, "fusion_lon": 0.0}, {"lat": 38.902515, "is_disabled": 0, "type": "electric_bike", "lon": -77.01798716666667, "bike_id": "af28794cc08ecc154a8400849b7cda2b", "fusion_lat": 0.0, "name": "af28794cc08ecc154a8400849b7cda2b", "is_reserved": 0, "rental_uris": {"android": "https://dc.lft.to/lastmile_qr_scan", "ios": "https://dc.lft.to/lastmile_qr_scan"}, "fusion_lon": 0.0}, {"lat": 38.960177333333334, "is_disabled": 0, "type": "electric_bike", "lon": -77.017311, "bike_id": "d6190077fa42e486e4d7d2039fa6e5b1", "fusion_lat": 0.0, "name": "d6190077fa42e486e4d7d2039fa6e5b1", "is_reserved": 0, "rental_uris": {"android": "https://dc.lft.to/lastmile_qr_scan", "ios": "https://dc.lft.to/lastmile_qr_scan"}, "fusion_lon": 0.0}, {"lat": 38.95328933333333, "is_disabled": 0, "type": "electric_scooter", "lon": -77.027556, "bike_id": "867d51b9aa3fa08a470ca3c8d6c51986", "fusion_lat": 0.0, "name": "867d51b9aa3fa08a470ca3c8d6c51986", "is_reserved": 0, "rental_uris": {"android": "https://dc.lft.to/lastmile_qr_scan", "ios": "https://dc.lft.to/lastmile_qr_scan"}, "fusion_lon": 0.0}, {"lat": 38.8847045, "is_disabled": 0, "type": "electric_scooter", "lon": -76.9925855, "bike_id": "c3b2ec94b1d66433a8d0c7416d0fac1c", "fusion_lat": 0.0, "name": "c3b2ec94b1d66433a8d0c7416d0fac1c", "is_reserved": 0, "rental_uris": {"android": "https://dc.lft.to/lastmile_qr_scan", "ios": "https://dc.lft.to/lastmile_qr_scan"}, "fusion_lon": 0.0}, {"lat": 38.89770433333333, "is_disabled": 0, "type": "electric_scooter", "lon": -77.0271035, "bike_id": "afa6c20e014325b54768b7be2b19b03a", "fusion_lat": 0.0, "name": "afa6c20e014325b54768b7be2b19b03a", "is_reserved": 0, "rental_uris": {"android": "https://dc.lft.to/lastmile_qr_scan", "ios": "https://dc.lft.to/lastmile_qr_scan"}, "fusion_lon": 0.0}, {"lat": 38.909850166666665, "is_disabled": 0, "type": "electric_scooter", "lon": -77.03381616666667, "bike_id": "4cddef22e0470adfe49523d9f07c2df4", "fusion_lat": 0.0, "name": "4cddef22e0470adfe49523d9f07c2df4", "is_reserved": 0, "rental_uris": {"android": "https://dc.lft.to/lastmile_qr_scan", "ios": "https://dc.lft.to/lastmile_qr_scan"}, "fusion_lon": 0.0}, {"lat": 38.911202333333335, "is_disabled": 0, "type": "electric_scooter", "lon": -77.022207, "bike_id": "0ae12fa1f970465aabb57f8f575b2861", "fusion_lat": 0.0, "name": "0ae12fa1f970465aabb57f8f575b2861", "is_reserved": 0, "rental_uris": {"android": "https://dc.lft.to/lastmile_qr_scan", "ios": "https://dc.lft.to/lastmile_qr_scan"}, "fusion_lon": 0.0}, {"lat": 38.8876335, "is_disabled": 0, "type": "electric_scooter", "lon": -76.95581483333333, "bike_id": "4a172c0a967dc77227d2efb85cae42d0", "fusion_lat": 0.0, "name": "4a172c0a967dc77227d2efb85cae42d0", "is_reserved": 0, "rental_uris": {"android": "https://dc.lft.to/lastmile_qr_scan", "ios": "https://dc.lft.to/lastmile_qr_scan"}, "fusion_lon": 0.0}, {"lat": 38.877910166666666, "is_disabled": 0, "type": "electric_bike", "lon": -77.02339783333333, "bike_id": "fe83b0799bf98863d0e970a5161fd620", "fusion_lat": 0.0, "name": "fe83b0799bf98863d0e970a5161fd620", "is_reserved": 0, "rental_uris": {"android": "https://dc.lft.to/lastmile_qr_scan", "ios": "https://dc.lft.to/lastmile_qr_scan"}, "fusion_lon": 0.0}, {"lat": 38.905523, "is_disabled": 0, "type": "electric_scooter", "lon": -77.00548733333333, "bike_id": "10273b96e4d616ca541c2e14a45bb460", "fusion_lat": 0.0, "name": "10273b96e4d616ca541c2e14a45bb460", "is_reserved": 0, "rental_uris": {"android": "https://dc.lft.to/lastmile_qr_scan", "ios": "https://dc.lft.to/lastmile_qr_scan"}, "fusion_lon": 0.0}, {"lat": 38.92079433333333, "is_disabled": 0, "type": "electric_scooter", "lon": -77.02421383333333, "bike_id": "2efd20f3d13fd60d47339b625b5a5cfd", "fusion_lat": 0.0, "name": "2efd20f3d13fd60d47339b625b5a5cfd", "is_reserved": 0, "rental_uris": {"android": "https://dc.lft.to/lastmile_qr_scan", "ios": "https://dc.lft.to/lastmile_qr_scan"}, "fusion_lon": 0.0}, {"lat": 38.912182333333334, "is_disabled": 0, "type": "electric_scooter", "lon": -77.02713, "bike_id": "223bc5630caf00a36912784f13b27102", "fusion_lat": 0.0, "name": "223bc5630caf00a36912784f13b27102", "is_reserved": 0, "rental_uris": {"android": "https://dc.lft.to/lastmile_qr_scan", "ios": "https://dc.lft.to/lastmile_qr_scan"}, "fusion_lon": 0.0}, {"lat": 38.883628, "is_disabled": 0, "type": "electric_scooter", "lon": -76.99511566666666, "bike_id": "2520df8e2cb6e4f5e86f96bce5e525c7", "fusion_lat": 0.0, "name": "2520df8e2cb6e4f5e86f96bce5e525c7", "is_reserved": 0, "rental_uris": {"android": "https://dc.lft.to/lastmile_qr_scan", "ios": "https://dc.lft.to/lastmile_qr_scan"}, "fusion_lon": 0.0}, {"lat": 38.9163365, "is_disabled": 0, "type": "electric_scooter", "lon": -77.03215, "bike_id": "6b3eac8e96192d8865ca6623fbe3911a", "fusion_lat": 0.0, "name": "6b3eac8e96192d8865ca6623fbe3911a", "is_reserved": 0, "rental_uris": {"android": "https://dc.lft.to/lastmile_qr_scan", "ios": "https://dc.lft.to/lastmile_qr_scan"}, "fusion_lon": 0.0}, {"lat": 38.93191266666667, "is_disabled": 0, "type": "electric_scooter", "lon": -77.02568616666667, "bike_id": "2d2b128149ee92ded74774584fe9d9a6", "fusion_lat": 0.0, "name": "2d2b128149ee92ded74774584fe9d9a6", "is_reserved": 0, "rental_uris": {"android": "https://dc.lft.to/lastmile_qr_scan", "ios": "https://dc.lft.to/lastmile_qr_scan"}, "fusion_lon": 0.0}, {"lat": 38.932955, "is_disabled": 0, "type": "electric_scooter", "lon": -77.04541583333334, "bike_id": "60f3621d9a8f2ba536b872bc0e015be1", "fusion_lat": 0.0, "name": "60f3621d9a8f2ba536b872bc0e015be1", "is_reserved": 0, "rental_uris": {"android": "https://dc.lft.to/lastmile_qr_scan", "ios": "https://dc.lft.to/lastmile_qr_scan"}, "fusion_lon": 0.0}, {"lat": 38.88094016666667, "is_disabled": 0, "type": "electric_scooter", "lon": -76.99263666666667, "bike_id": "2f7410f83564ca0da310d92b606e86e4", "fusion_lat": 0.0, "name": "2f7410f83564ca0da310d92b606e86e4", "is_reserved": 0, "rental_uris": {"android": "https://dc.lft.to/lastmile_qr_scan", "ios": "https://dc.lft.to/lastmile_qr_scan"}, "fusion_lon": 0.0}, {"lat": 38.8879685, "is_disabled": 0, "type": "electric_scooter", "lon": -76.93364316666667, "bike_id": "7796fb42a03e6f1bb4646931c3703126", "fusion_lat": 0.0, "name": "7796fb42a03e6f1bb4646931c3703126", "is_reserved": 0, "rental_uris": {"android": "https://dc.lft.to/lastmile_qr_scan", "ios": "https://dc.lft.to/lastmile_qr_scan"}, "fusion_lon": 0.0}, {"lat": 38.984261333333336, "is_disabled": 0, "type": "electric_scooter", "lon": -77.02672883333334, "bike_id": "b47b34071ccfbb2090797848333ff2b8", "fusion_lat": 0.0, "name": "b47b34071ccfbb2090797848333ff2b8", "is_reserved": 0, "rental_uris": {"android": "https://dc.lft.to/lastmile_qr_scan", "ios": "https://dc.lft.to/lastmile_qr_scan"}, "fusion_lon": 0.0}, {"lat": 38.906011, "is_disabled": 0, "type": "electric_scooter", "lon": -77.024989, "bike_id": "97d74091e66def9bf124a009dcd9f040", "fusion_lat": 0.0, "name": "97d74091e66def9bf124a009dcd9f040", "is_reserved": 0, "rental_uris": {"android": "https://dc.lft.to/lastmile_qr_scan", "ios": "https://dc.lft.to/lastmile_qr_scan"}, "fusion_lon": 0.0}, {"lat": 38.827853166666664, "is_disabled": 0, "type": "electric_bike", "lon": -77.00920183333334, "bike_id": "dbafe40339d3353deb813a5217480adf", "fusion_lat": 0.0, "name": "dbafe40339d3353deb813a5217480adf", "is_reserved": 0, "rental_uris": {"android": "https://dc.lft.to/lastmile_qr_scan", "ios": "https://dc.lft.to/lastmile_qr_scan"}, "fusion_lon": 0.0}, {"lat": 38.9388775, "is_disabled": 0, "type": "electric_scooter", "lon": -77.03315233333333, "bike_id": "23748ee52d8959443f52ba677249473f", "fusion_lat": 0.0, "name": "23748ee52d8959443f52ba677249473f", "is_reserved": 0, "rental_uris": {"android": "https://dc.lft.to/lastmile_qr_scan", "ios": "https://dc.lft.to/lastmile_qr_scan"}, "fusion_lon": 0.0}, {"lat": 38.90771, "is_disabled": 0, "type": "electric_scooter", "lon": -77.00398833333334, "bike_id": "1891e66e782463569ec1a16f61d65654", "fusion_lat": 0.0, "name": "1891e66e782463569ec1a16f61d65654", "is_reserved": 0, "rental_uris": {"android": "https://dc.lft.to/lastmile_qr_scan", "ios": "https://dc.lft.to/lastmile_qr_scan"}, "fusion_lon": 0.0}, {"lat": 38.898868, "is_disabled": 0, "type": "electric_scooter", "lon": -77.0332875, "bike_id": "6cb22db1a836003d159fad8270c57647", "fusion_lat": 0.0, "name": "6cb22db1a836003d159fad8270c57647", "is_reserved": 0, "rental_uris": {"android": "https://dc.lft.to/lastmile_qr_scan", "ios": "https://dc.lft.to/lastmile_qr_scan"}, "fusion_lon": 0.0}, {"lat": 38.89321533333333, "is_disabled": 0, "type": "electric_scooter", "lon": -76.92998766666666, "bike_id": "2a5ad114c297e1193f5d4777ddcdae57", "fusion_lat": 0.0, "name": "2a5ad114c297e1193f5d4777ddcdae57", "is_reserved": 0, "rental_uris": {"android": "https://dc.lft.to/lastmile_qr_scan", "ios": "https://dc.lft.to/lastmile_qr_scan"}, "fusion_lon": 0.0}, {"lat": 38.8974875, "is_disabled": 0, "type": "electric_scooter", "lon": -77.02647433333334, "bike_id": "aa5a4e5096300d28f8f643da1e65f356", "fusion_lat": 0.0, "name": "aa5a4e5096300d28f8f643da1e65f356", "is_reserved": 0, "rental_uris": {"android": "https://dc.lft.to/lastmile_qr_scan", "ios": "https://dc.lft.to/lastmile_qr_scan"}, "fusion_lon": 0.0}, {"lat": 38.917088, "is_disabled": 0, "type": "electric_scooter", "lon": -77.035011, "bike_id": "61acd056beb0a7c426e831e8b0338983", "fusion_lat": 0.0, "name": "61acd056beb0a7c426e831e8b0338983", "is_reserved": 0, "rental_uris": {"android": "https://dc.lft.to/lastmile_qr_scan", "ios": "https://dc.lft.to/lastmile_qr_scan"}, "fusion_lon": 0.0}, {"lat": 38.898445833333334, "is_disabled": 0, "type": "electric_scooter", "lon": -77.04344116666667, "bike_id": "75b909a87eb6d2cb55002afc47778d09", "fusion_lat": 0.0, "name": "75b909a87eb6d2cb55002afc47778d09", "is_reserved": 0, "rental_uris": {"android": "https://dc.lft.to/lastmile_qr_scan", "ios": "https://dc.lft.to/lastmile_qr_scan"}, "fusion_lon": 0.0}, {"lat": 38.938591833333334, "is_disabled": 0, "type": "electric_scooter", "lon": -77.02656283333333, "bike_id": "b21824dd19d0f815eb20af4bdcb5f85d", "fusion_lat": 0.0, "name": "b21824dd19d0f815eb20af4bdcb5f85d", "is_reserved": 0, "rental_uris": {"android": "https://dc.lft.to/lastmile_qr_scan", "ios": "https://dc.lft.to/lastmile_qr_scan"}, "fusion_lon": 0.0}, {"lat": 38.89623616666667, "is_disabled": 0, "type": "electric_scooter", "lon": -76.998512, "bike_id": "61ea8f97020d2cb6cb9d08f2704e0125", "fusion_lat": 0.0, "name": "61ea8f97020d2cb6cb9d08f2704e0125", "is_reserved": 0, "rental_uris": {"android": "https://dc.lft.to/lastmile_qr_scan", "ios": "https://dc.lft.to/lastmile_qr_scan"}, "fusion_lon": 0.0}, {"lat": 39.03402116666667, "is_disabled": 0, "type": "electric_bike", "lon": -77.042226, "bike_id": "4857800b4bb3ba9e0a00cbf75622ea47", "fusion_lat": 0.0, "name": "4857800b4bb3ba9e0a00cbf75622ea47", "is_reserved": 0, "rental_uris": {"android": "https://dc.lft.to/lastmile_qr_scan", "ios": "https://dc.lft.to/lastmile_qr_scan"}, "fusion_lon": 0.0}, {"lat": 38.91694283333333, "is_disabled": 0, "type": "electric_scooter", "lon": -77.03313333333334, "bike_id": "455d41fa88507101038840a44427a67a", "fusion_lat": 0.0, "name": "455d41fa88507101038840a44427a67a", "is_reserved": 0, "rental_uris": {"android": "https://dc.lft.to/lastmile_qr_scan", "ios": "https://dc.lft.to/lastmile_qr_scan"}, "fusion_lon": 0.0}, {"lat": 38.87628333333333, "is_disabled": 0, "type": "electric_scooter", "lon": -76.9653, "bike_id": "74a137059ad448f41a92767d880515ce", "fusion_lat": 0.0, "name": "74a137059ad448f41a92767d880515ce", "is_reserved": 0, "rental_uris": {"android": "https://dc.lft.to/lastmile_qr_scan", "ios": "https://dc.lft.to/lastmile_qr_scan"}, "fusion_lon": 0.0}, {"lat": 38.922656, "is_disabled": 0, "type": "electric_scooter", "lon": -77.036406, "bike_id": "792c8b9629a42dae7f5c221191b58edd", "fusion_lat": 0.0, "name": "792c8b9629a42dae7f5c221191b58edd", "is_reserved": 0, "rental_uris": {"android": "https://dc.lft.to/lastmile_qr_scan", "ios": "https://dc.lft.to/lastmile_qr_scan"}, "fusion_lon": 0.0}, {"lat": 38.897391166666665, "is_disabled": 0, "type": "electric_scooter", "lon": -77.04536883333333, "bike_id": "09cbf12b4e11ecd99974482830640956", "fusion_lat": 0.0, "name": "09cbf12b4e11ecd99974482830640956", "is_reserved": 0, "rental_uris": {"android": "https://dc.lft.to/lastmile_qr_scan", "ios": "https://dc.lft.to/lastmile_qr_scan"}, "fusion_lon": 0.0}, {"lat": 38.899058333333336, "is_disabled": 0, "type": "electric_scooter", "lon": -76.9335285, "bike_id": "d3f539e53e2a9ce1a7d571ea7a1c97ee", "fusion_lat": 0.0, "name": "d3f539e53e2a9ce1a7d571ea7a1c97ee", "is_reserved": 0, "rental_uris": {"android": "https://dc.lft.to/lastmile_qr_scan", "ios": "https://dc.lft.to/lastmile_qr_scan"}, "fusion_lon": 0.0}, {"lat": 38.91678116666667, "is_disabled": 0, "type": "electric_scooter", "lon": -77.029767, "bike_id": "f5af685a97f54e0fea35ef8f65e20be2", "fusion_lat": 0.0, "name": "f5af685a97f54e0fea35ef8f65e20be2", "is_reserved": 0, "rental_uris": {"android": "https://dc.lft.to/lastmile_qr_scan", "ios": "https://dc.lft.to/lastmile_qr_scan"}, "fusion_lon": 0.0}, {"lat": 38.93264766666667, "is_disabled": 0, "type": "electric_scooter", "lon": -77.03278083333333, "bike_id": "2ffb20cafd52615fe0cd5e6dbbb18750", "fusion_lat": 0.0, "name": "2ffb20cafd52615fe0cd5e6dbbb18750", "is_reserved": 0, "rental_uris": {"android": "https://dc.lft.to/lastmile_qr_scan", "ios": "https://dc.lft.to/lastmile_qr_scan"}, "fusion_lon": 0.0}, {"lat": 38.879991, "is_disabled": 0, "type": "electric_scooter", "lon": -76.98541516666667, "bike_id": "b16c16fed9d2057ad152458e923879cf", "fusion_lat": 0.0, "name": "b16c16fed9d2057ad152458e923879cf", "is_reserved": 0, "rental_uris": {"android": "https://dc.lft.to/lastmile_qr_scan", "ios": "https://dc.lft.to/lastmile_qr_scan"}, "fusion_lon": 0.0}, {"lat": 38.8925775, "is_disabled": 0, "type": "electric_scooter", "lon": -76.94161083333333, "bike_id": "e629dcf907908f206c2ce495613f5441", "fusion_lat": 0.0, "name": "e629dcf907908f206c2ce495613f5441", "is_reserved": 0, "rental_uris": {"android": "https://dc.lft.to/lastmile_qr_scan", "ios": "https://dc.lft.to/lastmile_qr_scan"}, "fusion_lon": 0.0}, {"lat": 38.8068265, "is_disabled": 0, "type": "electric_bike", "lon": -77.0811915, "bike_id": "48db7dbf7a7345393e3e69b9f972d21b", "fusion_lat": 0.0, "name": "48db7dbf7a7345393e3e69b9f972d21b", "is_reserved": 0, "rental_uris": {"android": "https://dc.lft.to/lastmile_qr_scan", "ios": "https://dc.lft.to/lastmile_qr_scan"}, "fusion_lon": 0.0}, {"lat": 38.90308483333333, "is_disabled": 0, "type": "electric_scooter", "lon": -77.02709116666666, "bike_id": "3a7f9aa02a96f7af258d9b89299f92aa", "fusion_lat": 0.0, "name": "3a7f9aa02a96f7af258d9b89299f92aa", "is_reserved": 0, "rental_uris": {"android": "https://dc.lft.to/lastmile_qr_scan", "ios": "https://dc.lft.to/lastmile_qr_scan"}, "fusion_lon": 0.0}, {"lat": 38.80575416666667, "is_disabled": 0, "type": "electric_bike", "lon": -77.13245666666667, "bike_id": "e50cf21c6087bdc175ede226445c7fd2", "fusion_lat": 0.0, "name": "e50cf21c6087bdc175ede226445c7fd2", "is_reserved": 0, "rental_uris": {"android": "https://dc.lft.to/lastmile_qr_scan", "ios": "https://dc.lft.to/lastmile_qr_scan"}, "fusion_lon": 0.0}, {"lat": 38.90427416666667, "is_disabled": 0, "type": "electric_scooter", "lon": -77.02087533333334, "bike_id": "958768be5100222e25cf5ef777e56cc4", "fusion_lat": 0.0, "name": "958768be5100222e25cf5ef777e56cc4", "is_reserved": 0, "rental_uris": {"android": "https://dc.lft.to/lastmile_qr_scan", "ios": "https://dc.lft.to/lastmile_qr_scan"}, "fusion_lon": 0.0}, {"lat": 38.858132166666664, "is_disabled": 0, "type": "electric_scooter", "lon": -76.98991966666667, "bike_id": "e21101b66317fce22f0f5471b07e0037", "fusion_lat": 0.0, "name": "e21101b66317fce22f0f5471b07e0037", "is_reserved": 0, "rental_uris": {"android": "https://dc.lft.to/lastmile_qr_scan", "ios": "https://dc.lft.to/lastmile_qr_scan"}, "fusion_lon": 0.0}, {"lat": 38.89767533333333, "is_disabled": 0, "type": "electric_scooter", "lon": -77.03204733333334, "bike_id": "7e22ac282d4f5915698e26cdc389c234", "fusion_lat": 0.0, "name": "7e22ac282d4f5915698e26cdc389c234", "is_reserved": 0, "rental_uris": {"android": "https://dc.lft.to/lastmile_qr_scan", "ios": "https://dc.lft.to/lastmile_qr_scan"}, "fusion_lon": 0.0}, {"lat": 38.92754766666667, "is_disabled": 0, "type": "electric_scooter", "lon": -77.02317366666666, "bike_id": "0ade792b6a7fd057110e6a97e8acbb66", "fusion_lat": 0.0, "name": "0ade792b6a7fd057110e6a97e8acbb66", "is_reserved": 0, "rental_uris": {"android": "https://dc.lft.to/lastmile_qr_scan", "ios": "https://dc.lft.to/lastmile_qr_scan"}, "fusion_lon": 0.0}, {"lat": 38.916986666666666, "is_disabled": 0, "type": "electric_scooter", "lon": -77.04342083333333, "bike_id": "254c4718bb94e43385fe72066a52037a", "fusion_lat": 0.0, "name": "254c4718bb94e43385fe72066a52037a", "is_reserved": 0, "rental_uris": {"android": "https://dc.lft.to/lastmile_qr_scan", "ios": "https://dc.lft.to/lastmile_qr_scan"}, "fusion_lon": 0.0}, {"lat": 38.9228555, "is_disabled": 0, "type": "electric_scooter", "lon": -77.02972966666667, "bike_id": "31b077d9683863339c3d94622d2ef64a", "fusion_lat": 0.0, "name": "31b077d9683863339c3d94622d2ef64a", "is_reserved": 0, "rental_uris": {"android": "https://dc.lft.to/lastmile_qr_scan", "ios": "https://dc.lft.to/lastmile_qr_scan"}, "fusion_lon": 0.0}, {"lat": 38.86657316666667, "is_disabled": 0, "type": "electric_scooter", "lon": -76.98882266666666, "bike_id": "33988df54b31e389979b484d4903a2c8", "fusion_lat": 0.0, "name": "33988df54b31e389979b484d4903a2c8", "is_reserved": 0, "rental_uris": {"android": "https://dc.lft.to/lastmile_qr_scan", "ios": "https://dc.lft.to/lastmile_qr_scan"}, "fusion_lon": 0.0}, {"lat": 38.9279645, "is_disabled": 0, "type": "electric_scooter", "lon": -77.04323366666667, "bike_id": "d738b0da8d36728f35990e1fa03629ec", "fusion_lat": 0.0, "name": "d738b0da8d36728f35990e1fa03629ec", "is_reserved": 0, "rental_uris": {"android": "https://dc.lft.to/lastmile_qr_scan", "ios": "https://dc.lft.to/lastmile_qr_scan"}, "fusion_lon": 0.0}, {"lat": 38.907302333333334, "is_disabled": 0, "type": "electric_scooter", "lon": -77.04288683333333, "bike_id": "1f5e80fd3b28ab301a4eed3a2c054c39", "fusion_lat": 0.0, "name": "1f5e80fd3b28ab301a4eed3a2c054c39", "is_reserved": 0, "rental_uris": {"android": "https://dc.lft.to/lastmile_qr_scan", "ios": "https://dc.lft.to/lastmile_qr_scan"}, "fusion_lon": 0.0}, {"lat": 38.93985466666667, "is_disabled": 0, "type": "electric_scooter", "lon": -77.071798, "bike_id": "be60fce5896c768afa016f4e736b5ad1", "fusion_lat": 0.0, "name": "be60fce5896c768afa016f4e736b5ad1", "is_reserved": 0, "rental_uris": {"android": "https://dc.lft.to/lastmile_qr_scan", "ios": "https://dc.lft.to/lastmile_qr_scan"}, "fusion_lon": 0.0}, {"lat": 38.97371833333333, "is_disabled": 0, "type": "electric_scooter", "lon": -77.018502, "bike_id": "5599c10af2b1423ef7260d20e0787bdb", "fusion_lat": 0.0, "name": "5599c10af2b1423ef7260d20e0787bdb", "is_reserved": 0, "rental_uris": {"android": "https://dc.lft.to/lastmile_qr_scan", "ios": "https://dc.lft.to/lastmile_qr_scan"}, "fusion_lon": 0.0}, {"lat": 38.92569566666667, "is_disabled": 0, "type": "electric_scooter", "lon": -77.05768616666667, "bike_id": "1a18a39454464b85c44e3ab337a0d60e", "fusion_lat": 0.0, "name": "1a18a39454464b85c44e3ab337a0d60e", "is_reserved": 0, "rental_uris": {"android": "https://dc.lft.to/lastmile_qr_scan", "ios": "https://dc.lft.to/lastmile_qr_scan"}, "fusion_lon": 0.0}, {"lat": 38.89919916666667, "is_disabled": 0, "type": "electric_scooter", "lon": -77.03941966666666, "bike_id": "96e4e4a4e16ab7755654a5ed4e7afac7", "fusion_lat": 0.0, "name": "96e4e4a4e16ab7755654a5ed4e7afac7", "is_reserved": 0, "rental_uris": {"android": "https://dc.lft.to/lastmile_qr_scan", "ios": "https://dc.lft.to/lastmile_qr_scan"}, "fusion_lon": 0.0}, {"lat": 38.972249166666664, "is_disabled": 0, "type": "electric_bike", "lon": -76.99347283333333, "bike_id": "83402827761976479e2fc94ae4acb109", "fusion_lat": 0.0, "name": "83402827761976479e2fc94ae4acb109", "is_reserved": 0, "rental_uris": {"android": "https://dc.lft.to/lastmile_qr_scan", "ios": "https://dc.lft.to/lastmile_qr_scan"}, "fusion_lon": 0.0}, {"lat": 38.86052216666667, "is_disabled": 0, "type": "electric_scooter", "lon": -77.0575705, "bike_id": "fcfceb42245df89e81d6f92d50729ca3", "fusion_lat": 0.0, "name": "fcfceb42245df89e81d6f92d50729ca3", "is_reserved": 0, "rental_uris": {"android": "https://dc.lft.to/lastmile_qr_scan", "ios": "https://dc.lft.to/lastmile_qr_scan"}, "fusion_lon": 0.0}, {"lat": 38.892375666666666, "is_disabled": 0, "type": "electric_scooter", "lon": -77.0321565, "bike_id": "23c05e296bcc0df1bb054c912308aa20", "fusion_lat": 0.0, "name": "23c05e296bcc0df1bb054c912308aa20", "is_reserved": 0, "rental_uris": {"android": "https://dc.lft.to/lastmile_qr_scan", "ios": "https://dc.lft.to/lastmile_qr_scan"}, "fusion_lon": 0.0}, {"lat": 38.9224005, "is_disabled": 0, "type": "electric_scooter", "lon": -77.04573533333334, "bike_id": "316b0145f5fddf84f37f8a868c665924", "fusion_lat": 0.0, "name": "316b0145f5fddf84f37f8a868c665924", "is_reserved": 0, "rental_uris": {"android": "https://dc.lft.to/lastmile_qr_scan", "ios": "https://dc.lft.to/lastmile_qr_scan"}, "fusion_lon": 0.0}, {"lat": 38.915857833333334, "is_disabled": 0, "type": "electric_scooter", "lon": -77.03215116666667, "bike_id": "4d009afb119af1b1f264a37407041715", "fusion_lat": 0.0, "name": "4d009afb119af1b1f264a37407041715", "is_reserved": 0, "rental_uris": {"android": "https://dc.lft.to/lastmile_qr_scan", "ios": "https://dc.lft.to/lastmile_qr_scan"}, "fusion_lon": 0.0}, {"lat": 38.919492, "is_disabled": 0, "type": "electric_scooter", "lon": -76.9808205, "bike_id": "324fa6839a59db0fcf69868c470ca8b1", "fusion_lat": 0.0, "name": "324fa6839a59db0fcf69868c470ca8b1", "is_reserved": 0, "rental_uris": {"android": "https://dc.lft.to/lastmile_qr_scan", "ios": "https://dc.lft.to/lastmile_qr_scan"}, "fusion_lon": 0.0}, {"lat": 38.91162283333333, "is_disabled": 0, "type": "electric_scooter", "lon": -77.045007, "bike_id": "2658e69f4d1928ad758edbe66181fce3", "fusion_lat": 0.0, "name": "2658e69f4d1928ad758edbe66181fce3", "is_reserved": 0, "rental_uris": {"android": "https://dc.lft.to/lastmile_qr_scan", "ios": "https://dc.lft.to/lastmile_qr_scan"}, "fusion_lon": 0.0}, {"lat": 38.9030925, "is_disabled": 0, "type": "electric_scooter", "lon": -77.03788866666666, "bike_id": "bf13414bb58b3ded81a9fa263a2206b4", "fusion_lat": 0.0, "name": "bf13414bb58b3ded81a9fa263a2206b4", "is_reserved": 0, "rental_uris": {"android": "https://dc.lft.to/lastmile_qr_scan", "ios": "https://dc.lft.to/lastmile_qr_scan"}, "fusion_lon": 0.0}, {"lat": 38.9173705, "is_disabled": 0, "type": "electric_scooter", "lon": -77.02280683333333, "bike_id": "bc0f4d3c5047d3c165a6369a75b5c9a0", "fusion_lat": 0.0, "name": "bc0f4d3c5047d3c165a6369a75b5c9a0", "is_reserved": 0, "rental_uris": {"android": "https://dc.lft.to/lastmile_qr_scan", "ios": "https://dc.lft.to/lastmile_qr_scan"}, "fusion_lon": 0.0}, {"lat": 38.90104933333333, "is_disabled": 0, "type": "electric_scooter", "lon": -77.05903733333334, "bike_id": "73950bf605eb2d710db96c6c0f7e6b11", "fusion_lat": 0.0, "name": "73950bf605eb2d710db96c6c0f7e6b11", "is_reserved": 0, "rental_uris": {"android": "https://dc.lft.to/lastmile_qr_scan", "ios": "https://dc.lft.to/lastmile_qr_scan"}, "fusion_lon": 0.0}, {"lat": 38.924229, "is_disabled": 0, "type": "electric_scooter", "lon": -77.05183883333333, "bike_id": "fee93e6bdc4fad147ba292ff8c549b2e", "fusion_lat": 0.0, "name": "fee93e6bdc4fad147ba292ff8c549b2e", "is_reserved": 0, "rental_uris": {"android": "https://dc.lft.to/lastmile_qr_scan", "ios": "https://dc.lft.to/lastmile_qr_scan"}, "fusion_lon": 0.0}, {"lat": 38.90548916666667, "is_disabled": 0, "type": "electric_scooter", "lon": -77.03409816666667, "bike_id": "2c1876b2023308fcb313f246e63ecef1", "fusion_lat": 0.0, "name": "2c1876b2023308fcb313f246e63ecef1", "is_reserved": 0, "rental_uris": {"android": "https://dc.lft.to/lastmile_qr_scan", "ios": "https://dc.lft.to/lastmile_qr_scan"}, "fusion_lon": 0.0}, {"lat": 38.90977683333333, "is_disabled": 0, "type": "electric_bike", "lon": -76.98527733333333, "bike_id": "b17f2cf9b779ed5090c8611801d54420", "fusion_lat": 0.0, "name": "b17f2cf9b779ed5090c8611801d54420", "is_reserved": 0, "rental_uris": {"android": "https://dc.lft.to/lastmile_qr_scan", "ios": "https://dc.lft.to/lastmile_qr_scan"}, "fusion_lon": 0.0}, {"lat": 38.889860666666664, "is_disabled": 0, "type": "electric_bike", "lon": -77.07132183333333, "bike_id": "5bcca1528bcafe855f3d59757da2de95", "fusion_lat": 0.0, "name": "5bcca1528bcafe855f3d59757da2de95", "is_reserved": 0, "rental_uris": {"android": "https://dc.lft.to/lastmile_qr_scan", "ios": "https://dc.lft.to/lastmile_qr_scan"}, "fusion_lon": 0.0}, {"lat": 38.90861666666667, "is_disabled": 0, "type": "electric_scooter", "lon": -77.02413216666666, "bike_id": "f493c2c8a824549ab444d87bd0bb374f", "fusion_lat": 0.0, "name": "f493c2c8a824549ab444d87bd0bb374f", "is_reserved": 0, "rental_uris": {"android": "https://dc.lft.to/lastmile_qr_scan", "ios": "https://dc.lft.to/lastmile_qr_scan"}, "fusion_lon": 0.0}, {"lat": 38.89346033333333, "is_disabled": 0, "type": "electric_scooter", "lon": -76.9493715, "bike_id": "108dab000ea43d91cb0456f09a6191f6", "fusion_lat": 0.0, "name": "108dab000ea43d91cb0456f09a6191f6", "is_reserved": 0, "rental_uris": {"android": "https://dc.lft.to/lastmile_qr_scan", "ios": "https://dc.lft.to/lastmile_qr_scan"}, "fusion_lon": 0.0}, {"lat": 38.8861445, "is_disabled": 0, "type": "electric_scooter", "lon": -77.02182116666667, "bike_id": "971d5da968b51746ed6a92f1950d1492", "fusion_lat": 0.0, "name": "971d5da968b51746ed6a92f1950d1492", "is_reserved": 0, "rental_uris": {"android": "https://dc.lft.to/lastmile_qr_scan", "ios": "https://dc.lft.to/lastmile_qr_scan"}, "fusion_lon": 0.0}, {"lat": 38.90579116666667, "is_disabled": 0, "type": "electric_scooter", "lon": -77.0304805, "bike_id": "555212f217a163f54eca2df96848c3d4", "fusion_lat": 0.0, "name": "555212f217a163f54eca2df96848c3d4", "is_reserved": 0, "rental_uris": {"android": "https://dc.lft.to/lastmile_qr_scan", "ios": "https://dc.lft.to/lastmile_qr_scan"}, "fusion_lon": 0.0}, {"lat": 38.971929333333335, "is_disabled": 0, "type": "electric_bike", "lon": -77.0272045, "bike_id": "32cc4455d85d29ae060751af724c0677", "fusion_lat": 0.0, "name": "32cc4455d85d29ae060751af724c0677", "is_reserved": 0, "rental_uris": {"android": "https://dc.lft.to/lastmile_qr_scan", "ios": "https://dc.lft.to/lastmile_qr_scan"}, "fusion_lon": 0.0}, {"lat": 38.9096725, "is_disabled": 0, "type": "electric_scooter", "lon": -77.00927283333333, "bike_id": "60fe7e2f37e2f6bb9385d993d997dc92", "fusion_lat": 0.0, "name": "60fe7e2f37e2f6bb9385d993d997dc92", "is_reserved": 0, "rental_uris": {"android": "https://dc.lft.to/lastmile_qr_scan", "ios": "https://dc.lft.to/lastmile_qr_scan"}, "fusion_lon": 0.0}, {"lat": 38.908387, "is_disabled": 0, "type": "electric_scooter", "lon": -77.06358133333333, "bike_id": "83a44f375e82118835a127d152346a35", "fusion_lat": 0.0, "name": "83a44f375e82118835a127d152346a35", "is_reserved": 0, "rental_uris": {"android": "https://dc.lft.to/lastmile_qr_scan", "ios": "https://dc.lft.to/lastmile_qr_scan"}, "fusion_lon": 0.0}, {"lat": 38.92920783333334, "is_disabled": 0, "type": "electric_scooter", "lon": -77.03182683333333, "bike_id": "71e36e5dfb8458421f00d06dad8f936b", "fusion_lat": 0.0, "name": "71e36e5dfb8458421f00d06dad8f936b", "is_reserved": 0, "rental_uris": {"android": "https://dc.lft.to/lastmile_qr_scan", "ios": "https://dc.lft.to/lastmile_qr_scan"}, "fusion_lon": 0.0}, {"lat": 38.90687233333333, "is_disabled": 0, "type": "electric_scooter", "lon": -77.02455716666667, "bike_id": "53b6b0b0c7f60b79c80d0eb2b92ec116", "fusion_lat": 0.0, "name": "53b6b0b0c7f60b79c80d0eb2b92ec116", "is_reserved": 0, "rental_uris": {"android": "https://dc.lft.to/lastmile_qr_scan", "ios": "https://dc.lft.to/lastmile_qr_scan"}, "fusion_lon": 0.0}, {"lat": 38.92065066666667, "is_disabled": 0, "type": "electric_scooter", "lon": -77.02498316666667, "bike_id": "9c0e8ccdf74cead2b8844fb8707e4164", "fusion_lat": 0.0, "name": "9c0e8ccdf74cead2b8844fb8707e4164", "is_reserved": 0, "rental_uris": {"android": "https://dc.lft.to/lastmile_qr_scan", "ios": "https://dc.lft.to/lastmile_qr_scan"}, "fusion_lon": 0.0}, {"lat": 38.890448, "is_disabled": 0, "type": "electric_scooter", "lon": -76.94085266666667, "bike_id": "42725ed1737862aa77514c94e53ab35b", "fusion_lat": 0.0, "name": "42725ed1737862aa77514c94e53ab35b", "is_reserved": 0, "rental_uris": {"android": "https://dc.lft.to/lastmile_qr_scan", "ios": "https://dc.lft.to/lastmile_qr_scan"}, "fusion_lon": 0.0}, {"lat": 38.9211145, "is_disabled": 0, "type": "electric_bike", "lon": -76.985764, "bike_id": "7207955c081e94fee549acbae8bec212", "fusion_lat": 0.0, "name": "7207955c081e94fee549acbae8bec212", "is_reserved": 0, "rental_uris": {"android": "https://dc.lft.to/lastmile_qr_scan", "ios": "https://dc.lft.to/lastmile_qr_scan"}, "fusion_lon": 0.0}, {"lat": 38.895356166666666, "is_disabled": 0, "type": "electric_scooter", "lon": -77.050217, "bike_id": "51e29b007b6737535cb1227dd2d56b27", "fusion_lat": 0.0, "name": "51e29b007b6737535cb1227dd2d56b27", "is_reserved": 0, "rental_uris": {"android": "https://dc.lft.to/lastmile_qr_scan", "ios": "https://dc.lft.to/lastmile_qr_scan"}, "fusion_lon": 0.0}, {"lat": 38.858495833333336, "is_disabled": 0, "type": "electric_bike", "lon": -77.09756833333333, "bike_id": "bb6bb13a125a78b073c1a7f5cf90833a", "fusion_lat": 0.0, "name": "bb6bb13a125a78b073c1a7f5cf90833a", "is_reserved": 0, "rental_uris": {"android": "https://dc.lft.to/lastmile_qr_scan", "ios": "https://dc.lft.to/lastmile_qr_scan"}, "fusion_lon": 0.0}, {"lat": 38.91736983333333, "is_disabled": 0, "type": "electric_scooter", "lon": -77.0229655, "bike_id": "0c35ab4cf41fe9da65bb8fff7b653c00", "fusion_lat": 0.0, "name": "0c35ab4cf41fe9da65bb8fff7b653c00", "is_reserved": 0, "rental_uris": {"android": "https://dc.lft.to/lastmile_qr_scan", "ios": "https://dc.lft.to/lastmile_qr_scan"}, "fusion_lon": 0.0}, {"lat": 38.94419216666667, "is_disabled": 0, "type": "electric_scooter", "lon": -77.03192966666667, "bike_id": "45b9f5a806b18c8255b8dd29e7935ed2", "fusion_lat": 0.0, "name": "45b9f5a806b18c8255b8dd29e7935ed2", "is_reserved": 0, "rental_uris": {"android": "https://dc.lft.to/lastmile_qr_scan", "ios": "https://dc.lft.to/lastmile_qr_scan"}, "fusion_lon": 0.0}, {"lat": 38.95890883333333, "is_disabled": 0, "type": "electric_bike", "lon": -76.92490183333334, "bike_id": "c2c60b586699a0eb4626266bb82852d9", "fusion_lat": 0.0, "name": "c2c60b586699a0eb4626266bb82852d9", "is_reserved": 0, "rental_uris": {"android": "https://dc.lft.to/lastmile_qr_scan", "ios": "https://dc.lft.to/lastmile_qr_scan"}, "fusion_lon": 0.0}, {"lat": 38.90963816666667, "is_disabled": 0, "type": "electric_scooter", "lon": -77.0334865, "bike_id": "a7f4700fa0387e0afae9be9fbc702a2c", "fusion_lat": 0.0, "name": "a7f4700fa0387e0afae9be9fbc702a2c", "is_reserved": 0, "rental_uris": {"android": "https://dc.lft.to/lastmile_qr_scan", "ios": "https://dc.lft.to/lastmile_qr_scan"}, "fusion_lon": 0.0}, {"lat": 38.9035765, "is_disabled": 0, "type": "electric_scooter", "lon": -77.01879216666667, "bike_id": "7d5cbe364c01656ce4620e91ab65e619", "fusion_lat": 0.0, "name": "7d5cbe364c01656ce4620e91ab65e619", "is_reserved": 0, "rental_uris": {"android": "https://dc.lft.to/lastmile_qr_scan", "ios": "https://dc.lft.to/lastmile_qr_scan"}, "fusion_lon": 0.0}, {"lat": 38.924971666666664, "is_disabled": 0, "type": "electric_scooter", "lon": -77.05226983333333, "bike_id": "60d01a4ae916a8963d1bb8fe826fee7e", "fusion_lat": 0.0, "name": "60d01a4ae916a8963d1bb8fe826fee7e", "is_reserved": 0, "rental_uris": {"android": "https://dc.lft.to/lastmile_qr_scan", "ios": "https://dc.lft.to/lastmile_qr_scan"}, "fusion_lon": 0.0}, {"lat": 38.92471033333333, "is_disabled": 0, "type": "electric_scooter", "lon": -77.03969716666667, "bike_id": "52844d14b1b2c60596d2a75faf2cef8d", "fusion_lat": 0.0, "name": "52844d14b1b2c60596d2a75faf2cef8d", "is_reserved": 0, "rental_uris": {"android": "https://dc.lft.to/lastmile_qr_scan", "ios": "https://dc.lft.to/lastmile_qr_scan"}, "fusion_lon": 0.0}, {"lat": 38.90367483333333, "is_disabled": 0, "type": "electric_scooter", "lon": -76.9765905, "bike_id": "3630a72d7518615fbb2885bef49032cc", "fusion_lat": 0.0, "name": "3630a72d7518615fbb2885bef49032cc", "is_reserved": 0, "rental_uris": {"android": "https://dc.lft.to/lastmile_qr_scan", "ios": "https://dc.lft.to/lastmile_qr_scan"}, "fusion_lon": 0.0}, {"lat": 38.90209266666667, "is_disabled": 0, "type": "electric_scooter", "lon": -76.9884835, "bike_id": "9bd5e76f64055459ed1b07bb6e254864", "fusion_lat": 0.0, "name": "9bd5e76f64055459ed1b07bb6e254864", "is_reserved": 0, "rental_uris": {"android": "https://dc.lft.to/lastmile_qr_scan", "ios": "https://dc.lft.to/lastmile_qr_scan"}, "fusion_lon": 0.0}, {"lat": 38.91099033333333, "is_disabled": 0, "type": "electric_scooter", "lon": -77.0279995, "bike_id": "574d578e3a8f52ee87c120c888df0724", "fusion_lat": 0.0, "name": "574d578e3a8f52ee87c120c888df0724", "is_reserved": 0, "rental_uris": {"android": "https://dc.lft.to/lastmile_qr_scan", "ios": "https://dc.lft.to/lastmile_qr_scan"}, "fusion_lon": 0.0}, {"lat": 38.90282033333333, "is_disabled": 0, "type": "electric_scooter", "lon": -77.03440116666667, "bike_id": "9cf5ad127906d6a3b5f541d814fd12ac", "fusion_lat": 0.0, "name": "9cf5ad127906d6a3b5f541d814fd12ac", "is_reserved": 0, "rental_uris": {"android": "https://dc.lft.to/lastmile_qr_scan", "ios": "https://dc.lft.to/lastmile_qr_scan"}, "fusion_lon": 0.0}, {"lat": 38.920563666666666, "is_disabled": 0, "type": "electric_scooter", "lon": -77.03344766666666, "bike_id": "57ba99d0758393fa5c1a47c04ed874bd", "fusion_lat": 0.0, "name": "57ba99d0758393fa5c1a47c04ed874bd", "is_reserved": 0, "rental_uris": {"android": "https://dc.lft.to/lastmile_qr_scan", "ios": "https://dc.lft.to/lastmile_qr_scan"}, "fusion_lon": 0.0}, {"lat": 38.94649066666667, "is_disabled": 0, "type": "electric_scooter", "lon": -77.06480883333333, "bike_id": "9fda9e801dbe0e311badfc2d311bd092", "fusion_lat": 0.0, "name": "9fda9e801dbe0e311badfc2d311bd092", "is_reserved": 0, "rental_uris": {"android": "https://dc.lft.to/lastmile_qr_scan", "ios": "https://dc.lft.to/lastmile_qr_scan"}, "fusion_lon": 0.0}, {"lat": 38.9171455, "is_disabled": 0, "type": "electric_scooter", "lon": -77.0385995, "bike_id": "0e1fdc1ddbf5ef630275688b961b772f", "fusion_lat": 0.0, "name": "0e1fdc1ddbf5ef630275688b961b772f", "is_reserved": 0, "rental_uris": {"android": "https://dc.lft.to/lastmile_qr_scan", "ios": "https://dc.lft.to/lastmile_qr_scan"}, "fusion_lon": 0.0}, {"lat": 38.8958735, "is_disabled": 0, "type": "electric_scooter", "lon": -77.04364016666666, "bike_id": "0c5fa6f512d61ed2f53b5d757bfd3697", "fusion_lat": 0.0, "name": "0c5fa6f512d61ed2f53b5d757bfd3697", "is_reserved": 0, "rental_uris": {"android": "https://dc.lft.to/lastmile_qr_scan", "ios": "https://dc.lft.to/lastmile_qr_scan"}, "fusion_lon": 0.0}, {"lat": 38.926627333333336, "is_disabled": 0, "type": "electric_scooter", "lon": -77.05601466666667, "bike_id": "abe7f4c366b68601e68d56837f1105ac", "fusion_lat": 0.0, "name": "abe7f4c366b68601e68d56837f1105ac", "is_reserved": 0, "rental_uris": {"android": "https://dc.lft.to/lastmile_qr_scan", "ios": "https://dc.lft.to/lastmile_qr_scan"}, "fusion_lon": 0.0}, {"lat": 38.9135105, "is_disabled": 0, "type": "electric_scooter", "lon": -77.03183133333333, "bike_id": "bd4ce36a9ac5403f61793dc15f86f349", "fusion_lat": 0.0, "name": "bd4ce36a9ac5403f61793dc15f86f349", "is_reserved": 0, "rental_uris": {"android": "https://dc.lft.to/lastmile_qr_scan", "ios": "https://dc.lft.to/lastmile_qr_scan"}, "fusion_lon": 0.0}, {"lat": 38.89555466666667, "is_disabled": 0, "type": "electric_scooter", "lon": -76.93380616666667, "bike_id": "7c733e8868ce3768845bcd80a4d7f644", "fusion_lat": 0.0, "name": "7c733e8868ce3768845bcd80a4d7f644", "is_reserved": 0, "rental_uris": {"android": "https://dc.lft.to/lastmile_qr_scan", "ios": "https://dc.lft.to/lastmile_qr_scan"}, "fusion_lon": 0.0}, {"lat": 38.927583, "is_disabled": 0, "type": "electric_scooter", "lon": -77.03211733333333, "bike_id": "ece51d5fea75fb1cf33ffe44d1666c59", "fusion_lat": 0.0, "name": "ece51d5fea75fb1cf33ffe44d1666c59", "is_reserved": 0, "rental_uris": {"android": "https://dc.lft.to/lastmile_qr_scan", "ios": "https://dc.lft.to/lastmile_qr_scan"}, "fusion_lon": 0.0}, {"lat": 38.9172875, "is_disabled": 0, "type": "electric_scooter", "lon": -77.024085, "bike_id": "1163d12375272066db9c15a28b3a358d", "fusion_lat": 0.0, "name": "1163d12375272066db9c15a28b3a358d", "is_reserved": 0, "rental_uris": {"android": "https://dc.lft.to/lastmile_qr_scan", "ios": "https://dc.lft.to/lastmile_qr_scan"}, "fusion_lon": 0.0}, {"lat": 38.90897416666667, "is_disabled": 0, "type": "electric_scooter", "lon": -77.043191, "bike_id": "b788e2e297d47f9f98f8734fc1e94909", "fusion_lat": 0.0, "name": "b788e2e297d47f9f98f8734fc1e94909", "is_reserved": 0, "rental_uris": {"android": "https://dc.lft.to/lastmile_qr_scan", "ios": "https://dc.lft.to/lastmile_qr_scan"}, "fusion_lon": 0.0}, {"lat": 38.939549666666665, "is_disabled": 0, "type": "electric_bike", "lon": -77.36092333333333, "bike_id": "82bb78133be8046820721abc8b275695", "fusion_lat": 0.0, "name": "82bb78133be8046820721abc8b275695", "is_reserved": 0, "rental_uris": {"android": "https://dc.lft.to/lastmile_qr_scan", "ios": "https://dc.lft.to/lastmile_qr_scan"}, "fusion_lon": 0.0}, {"lat": 38.9170685, "is_disabled": 0, "type": "electric_scooter", "lon": -77.00116733333333, "bike_id": "77fb85de13e3433265822f3ac4a45a4d", "fusion_lat": 0.0, "name": "77fb85de13e3433265822f3ac4a45a4d", "is_reserved": 0, "rental_uris": {"android": "https://dc.lft.to/lastmile_qr_scan", "ios": "https://dc.lft.to/lastmile_qr_scan"}, "fusion_lon": 0.0}, {"lat": 38.93119216666667, "is_disabled": 0, "type": "electric_scooter", "lon": -77.03017366666667, "bike_id": "46a8b53a78e7ba1abb491720da6c59e8", "fusion_lat": 0.0, "name": "46a8b53a78e7ba1abb491720da6c59e8", "is_reserved": 0, "rental_uris": {"android": "https://dc.lft.to/lastmile_qr_scan", "ios": "https://dc.lft.to/lastmile_qr_scan"}, "fusion_lon": 0.0}, {"lat": 38.95290883333333, "is_disabled": 0, "type": "electric_bike", "lon": -76.94600866666667, "bike_id": "3e4c60356ddcd85724b88cde43532036", "fusion_lat": 0.0, "name": "3e4c60356ddcd85724b88cde43532036", "is_reserved": 0, "rental_uris": {"android": "https://dc.lft.to/lastmile_qr_scan", "ios": "https://dc.lft.to/lastmile_qr_scan"}, "fusion_lon": 0.0}, {"lat": 38.895557333333336, "is_disabled": 0, "type": "electric_scooter", "lon": -76.93081383333333, "bike_id": "2a240900c4d7a52e8d3026feeac6529f", "fusion_lat": 0.0, "name": "2a240900c4d7a52e8d3026feeac6529f", "is_reserved": 0, "rental_uris": {"android": "https://dc.lft.to/lastmile_qr_scan", "ios": "https://dc.lft.to/lastmile_qr_scan"}, "fusion_lon": 0.0}, {"lat": 38.956272166666665, "is_disabled": 0, "type": "electric_bike", "lon": -77.022971, "bike_id": "9753a59ed46014b76fe6b0ea945e08d6", "fusion_lat": 0.0, "name": "9753a59ed46014b76fe6b0ea945e08d6", "is_reserved": 0, "rental_uris": {"android": "https://dc.lft.to/lastmile_qr_scan", "ios": "https://dc.lft.to/lastmile_qr_scan"}, "fusion_lon": 0.0}, {"lat": 38.9058445, "is_disabled": 0, "type": "electric_scooter", "lon": -77.04683733333333, "bike_id": "d41c84aa0df06d73342cf0f9777eaa31", "fusion_lat": 0.0, "name": "d41c84aa0df06d73342cf0f9777eaa31", "is_reserved": 0, "rental_uris": {"android": "https://dc.lft.to/lastmile_qr_scan", "ios": "https://dc.lft.to/lastmile_qr_scan"}, "fusion_lon": 0.0}, {"lat": 38.92007533333334, "is_disabled": 0, "type": "electric_scooter", "lon": -77.0387665, "bike_id": "514f690abbef5ef82ca2068b720660ca", "fusion_lat": 0.0, "name": "514f690abbef5ef82ca2068b720660ca", "is_reserved": 0, "rental_uris": {"android": "https://dc.lft.to/lastmile_qr_scan", "ios": "https://dc.lft.to/lastmile_qr_scan"}, "fusion_lon": 0.0}, {"lat": 38.922414833333335, "is_disabled": 0, "type": "electric_scooter", "lon": -77.02187566666667, "bike_id": "d73c6f49a23929d95b5fbaef94caac54", "fusion_lat": 0.0, "name": "d73c6f49a23929d95b5fbaef94caac54", "is_reserved": 0, "rental_uris": {"android": "https://dc.lft.to/lastmile_qr_scan", "ios": "https://dc.lft.to/lastmile_qr_scan"}, "fusion_lon": 0.0}, {"lat": 38.900447166666666, "is_disabled": 0, "type": "electric_scooter", "lon": -76.99017966666666, "bike_id": "573cda5f50cba8747b3e953d3b36c905", "fusion_lat": 0.0, "name": "573cda5f50cba8747b3e953d3b36c905", "is_reserved": 0, "rental_uris": {"android": "https://dc.lft.to/lastmile_qr_scan", "ios": "https://dc.lft.to/lastmile_qr_scan"}, "fusion_lon": 0.0},