{"data": {"bikes": [{"name": "32bd8cef38a20f93e9588b1836e5a876", "is_reserved": 0, "type": "electric_scooter", "rental_uris": {"ios": "https://dc.lft.to/lastmile_qr_scan", "android": "https://dc.lft.to/lastmile_qr_scan"}, "lat": 38.90300516666667, "lon": -76.9878335, "bike_id": "32bd8cef38a20f93e9588b1836e5a876", "fusion_lat": 0.0, "is_disabled": 0, "fusion_lon": 0.0}, {"name": "ca4bb95ffd869402cb94ea67508b74de", "is_reserved": 0, "type": "electric_scooter", "rental_uris": {"ios": "https://dc.lft.to/lastmile_qr_scan", "android": "https://dc.lft.to/lastmile_qr_scan"}, "lat": 38.909733333333335, "lon": -77.0328825, "bike_id": "ca4bb95ffd869402cb94ea67508b74de", "fusion_lat": 0.0, "is_disabled": 0, "fusion_lon": 0.0}, {"name": "17a34693cafe1136b3b398419f964e6a", "is_reserved": 0, "type": "electric_scooter", "rental_uris": {"ios": "https://dc.lft.to/lastmile_qr_scan", "android": "https://dc.lft.to/lastmile_qr_scan"}, "lat": 38.923829, "lon": -77.052462, "bike_id": "17a34693cafe1136b3b398419f964e6a", "fusion_lat": 0.0, "is_disabled": 0, "fusion_lon": 0.0}, {"name": "4121d2cf9df43925942367316618e710", "is_reserved": 0, "type": "electric_scooter", "rental_uris": {"ios": "https://dc.lft.to/lastmile_qr_scan", "android": "https://dc.lft.to/lastmile_qr_scan"}, "lat": 38.92326033333333, "lon": -77.03665266666667, "bike_id": "4121d2cf9df43925942367316618e710", "fusion_lat": 0.0, "is_disabled": 0, "fusion_lon": 0.0}, {"name": "ee53817d46b13601f1e4546717a286b4", "is_reserved": 0, "type": "electric_scooter", "rental_uris": {"ios": "https://dc.lft.to/lastmile_qr_scan", "android": "https://dc.lft.to/lastmile_qr_scan"}, "lat": 38.909811166666664, "lon": -76.995058, "bike_id": "ee53817d46b13601f1e4546717a286b4", "fusion_lat": 0.0, "is_disabled": 0, "fusion_lon": 0.0}, {"name": "a94cbf4624e48e17552b308c0a188a2d", "is_reserved": 0, "type": "electric_scooter", "rental_uris": {"ios": "https://dc.lft.to/lastmile_qr_scan", "android": "https://dc.lft.to/lastmile_qr_scan"}, "lat": 38.890902, "lon": -76.997874, "bike_id": "a94cbf4624e48e17552b308c0a188a2d", "fusion_lat": 0.0, "is_disabled": 0, "fusion_lon": 0.0}, {"name": "93a35b2376e2fc96139d49702a0e7d68", "is_reserved": 0, "type": "electric_scooter", "rental_uris": {"ios": "https://dc.lft.to/lastmile_qr_scan", "android": "https://dc.lft.to/lastmile_qr_scan"}, "lat": 38.914872833333334, "lon": -76.99348233333333, "bike_id": "93a35b2376e2fc96139d49702a0e7d68", "fusion_lat": 0.0, "is_disabled": 0, "fusion_lon": 0.0}, {"name": "251d0f77c4ff830e1d11b6cf1fd7961a", "is_reserved": 0, "type": "electric_scooter", "rental_uris": {"ios": "https://dc.lft.to/lastmile_qr_scan", "android": "https://dc.lft.to/lastmile_qr_scan"}, "lat": 38.93864516666667, "lon": -77.07575766666666, "bike_id": "251d0f77c4ff830e1d11b6cf1fd7961a", "fusion_lat": 0.0, "is_disabled": 0, "fusion_lon": 0.0}, {"name": "6e93a461352a8c8c4a622b053ef4c27e", "is_reserved": 0, "type": "electric_scooter", "rental_uris": {"ios": "https://dc.lft.to/lastmile_qr_scan", "android": "https://dc.lft.to/lastmile_qr_scan"}, "lat": 38.89998766666667, "lon": -77.01211433333333, "bike_id": "6e93a461352a8c8c4a622b053ef4c27e", "fusion_lat": 0.0, "is_disabled": 0, "fusion_lon": 0.0}, {"name": "e6b80c6d7a5ddafc73683e1d54729350", "is_reserved": 0, "type": "electric_scooter", "rental_uris": {"ios": "https://dc.lft.to/lastmile_qr_scan", "android": "https://dc.lft.to/lastmile_qr_scan"}, "lat": 38.92750366666667, "lon": -77.02538266666667, "bike_id": "e6b80c6d7a5ddafc73683e1d54729350", "fusion_lat": 0.0, "is_disabled": 0, "fusion_lon": 0.0}, {"name": "ef886817fe81e47643a05cc1c478cb8e", "is_reserved": 0, "type": "electric_scooter", "rental_uris": {"ios": "https://dc.lft.to/lastmile_qr_scan", "android": "https://dc.lft.to/lastmile_qr_scan"}, "lat": 38.927782666666666, "lon": -77.0370785, "bike_id": "ef886817fe81e47643a05cc1c478cb8e", "fusion_lat": 0.0, "is_disabled": 0, "fusion_lon": 0.0}, {"name": "90b9030d6d568ea09aa3babfcc4a5982", "is_reserved": 0, "type": "electric_bike", "rental_uris": {"ios": "https://dc.lft.to/lastmile_qr_scan", "android": "https://dc.lft.to/lastmile_qr_scan"}, "lat": 38.877319, "lon": -76.98105483333333, "bike_id": "90b9030d6d568ea09aa3babfcc4a5982", "fusion_lat": 0.0, "is_disabled": 0, "fusion_lon": 0.0}, {"name": "4aacb32299fa4c67bd32293242237bc2", "is_reserved": 0, "type": "electric_scooter", "rental_uris": {"ios": "https://dc.lft.to/lastmile_qr_scan", "android": "https://dc.lft.to/lastmile_qr_scan"}, "lat": 38.9199135, "lon": -77.01956383333334, "bike_id": "4aacb32299fa4c67bd32293242237bc2", "fusion_lat": 0.0, "is_disabled": 0, "fusion_lon": 0.0}, {"name": "f98cec9384d238459e93b038c3c7aba9", "is_reserved": 0, "type": "electric_scooter", "rental_uris": {"ios": "https://dc.lft.to/lastmile_qr_scan", "android": "https://dc.lft.to/lastmile_qr_scan"}, "lat": 38.90040033333333, "lon": -77.00553266666667, "bike_id": "f98cec9384d238459e93b038c3c7aba9", "fusion_lat": 0.0, "is_disabled": 0, "fusion_lon": 0.0}, {"name": "2a2ae6ed6bd1e7d67acf19b8d9ba4e52", "is_reserved": 0, "type": "electric_scooter", "rental_uris": {"ios": "https://dc.lft.to/lastmile_qr_scan", "android": "https://dc.lft.to/lastmile_qr_scan"}, "lat": 38.900783833333335, "lon": -77.027831, "bike_id": "2a2ae6ed6bd1e7d67acf19b8d9ba4e52", "fusion_lat": 0.0, "is_disabled": 0, "fusion_lon": 0.0}, {"name": "a22b72b19b2bba8cba674bca6a6e3054", "is_reserved": 0, "type": "electric_scooter", "rental_uris": {"ios": "https://dc.lft.to/lastmile_qr_scan", "android": "https://dc.lft.to/lastmile_qr_scan"}, "lat": 38.90414583333333, "lon": -77.0310815, "bike_id": "a22b72b19b2bba8cba674bca6a6e3054", "fusion_lat": 0.0, "is_disabled": 0, "fusion_lon": 0.0}, {"name": "b32fab4b9c8deb925c04bc404c9b806b", "is_reserved": 0, "type": "electric_scooter", "rental_uris": {"ios": "https://dc.lft.to/lastmile_qr_scan", "android": "https://dc.lft.to/lastmile_qr_scan"}, "lat": 38.949411, "lon": -77.01597366666667, "bike_id": "b32fab4b9c8deb925c04bc404c9b806b", "fusion_lat": 0.0, "is_disabled": 0, "fusion_lon": 0.0}, {"name": "182bec45bd39e7c29ee0358f2c15692f", "is_reserved": 0, "type": "electric_scooter", "rental_uris": {"ios": "https://dc.lft.to/lastmile_qr_scan", "android": "https://dc.lft.to/lastmile_qr_scan"}, "lat": 38.924106, "lon": -77.0517155, "bike_id": "182bec45bd39e7c29ee0358f2c15692f", "fusion_lat": 0.0, "is_disabled": 0, "fusion_lon": 0.0}, {"name": "517010476a33c5256af8d01ef2d78ed9", "is_reserved": 0, "type": "electric_scooter", "rental_uris": {"ios": "https://dc.lft.to/lastmile_qr_scan", "android": "https://dc.lft.to/lastmile_qr_scan"}, "lat": 38.90929783333333, "lon": -77.04428416666667, "bike_id": "517010476a33c5256af8d01ef2d78ed9", "fusion_lat": 0.0, "is_disabled": 0, "fusion_lon": 0.0}, {"name": "4570f75fd917d19ad71c43f48023f007", "is_reserved": 0, "type": "electric_scooter", "rental_uris": {"ios": "https://dc.lft.to/lastmile_qr_scan", "android": "https://dc.lft.to/lastmile_qr_scan"}, "lat": 38.91552516666667, "lon": -77.0206615, "bike_id": "4570f75fd917d19ad71c43f48023f007", "fusion_lat": 0.0, "is_disabled": 0, "fusion_lon": 0.0}, {"name": "39eeacbe4679f011e75ae35960cbf04e", "is_reserved": 0, "type": "electric_scooter", "rental_uris": {"ios": "https://dc.lft.to/lastmile_qr_scan", "android": "https://dc.lft.to/lastmile_qr_scan"}, "lat": 38.88722766666667, "lon": -76.996435, "bike_id": "39eeacbe4679f011e75ae35960cbf04e", "fusion_lat": 0.0, "is_disabled": 0, "fusion_lon": 0.0}, {"name": "9f71c84f3764faa0584d6df94ec8a944", "is_reserved": 0, "type": "electric_scooter", "rental_uris": {"ios": "https://dc.lft.to/lastmile_qr_scan", "android": "https://dc.lft.to/lastmile_qr_scan"}, "lat": 38.891567, "lon": -77.00058766666666, "bike_id": "9f71c84f3764faa0584d6df94ec8a944", "fusion_lat": 0.0, "is_disabled": 0, "fusion_lon": 0.0}, {"name": "b915e1352ae254853f944d86da969f7d", "is_reserved": 0, "type": "electric_scooter", "rental_uris": {"ios": "https://dc.lft.to/lastmile_qr_scan", "android": "https://dc.lft.to/lastmile_qr_scan"}, "lat": 38.91031433333333, "lon": -76.9855355, "bike_id": "b915e1352ae254853f944d86da969f7d", "fusion_lat": 0.0, "is_disabled": 0, "fusion_lon": 0.0}, {"name": "58a059e3f0d89f51a3a12130d4e66f90", "is_reserved": 0, "type": "electric_scooter", "rental_uris": {"ios": "https://dc.lft.to/lastmile_qr_scan", "android": "https://dc.lft.to/lastmile_qr_scan"}, "lat": 38.927863, "lon": -77.02698683333334, "bike_id": "58a059e3f0d89f51a3a12130d4e66f90", "fusion_lat": 0.0, "is_disabled": 0, "fusion_lon": 0.0}, {"name": "96d850629ff60192957d8188e4315993", "is_reserved": 0, "type": "electric_scooter", "rental_uris": {"ios": "https://dc.lft.to/lastmile_qr_scan", "android": "https://dc.lft.to/lastmile_qr_scan"}, "lat": 38.896087666666666, "lon": -77.00926883333334, "bike_id": "96d850629ff60192957d8188e4315993", "fusion_lat": 0.0, "is_disabled": 0, "fusion_lon": 0.0}, {"name": "193e07f304c39427f3af890c08a9e8a5", "is_reserved": 0, "type": "electric_scooter", "rental_uris": {"ios": "https://dc.lft.to/lastmile_qr_scan", "android": "https://dc.lft.to/lastmile_qr_scan"}, "lat": 38.898529333333336, "lon": -77.0327195, "bike_id": "193e07f304c39427f3af890c08a9e8a5", "fusion_lat": 0.0, "is_disabled": 0, "fusion_lon": 0.0}, {"name": "f3e0d75e6efe42a982991f04d9e91f27", "is_reserved": 0, "type": "electric_scooter", "rental_uris": {"ios": "https://dc.lft.to/lastmile_qr_scan", "android": "https://dc.lft.to/lastmile_qr_scan"}, "lat": 38.927339, "lon": -77.03684466666667, "bike_id": "f3e0d75e6efe42a982991f04d9e91f27", "fusion_lat": 0.0, "is_disabled": 0, "fusion_lon": 0.0}, {"name": "8816cc68cb170d9a43aa95a54ea9dcb6", "is_reserved": 0, "type": "electric_scooter", "rental_uris": {"ios": "https://dc.lft.to/lastmile_qr_scan", "android": "https://dc.lft.to/lastmile_qr_scan"}, "lat": 38.913270833333335, "lon": -77.031841, "bike_id": "8816cc68cb170d9a43aa95a54ea9dcb6", "fusion_lat": 0.0, "is_disabled": 0, "fusion_lon": 0.0}, {"name": "9b02374fd7343e2ec0456399f0d709bb", "is_reserved": 0, "type": "electric_bike", "rental_uris": {"ios": "https://dc.lft.to/lastmile_qr_scan", "android": "https://dc.lft.to/lastmile_qr_scan"}, "lat": 38.99949683333333, "lon": -77.03158683333334, "bike_id": "9b02374fd7343e2ec0456399f0d709bb", "fusion_lat": 0.0, "is_disabled": 0, "fusion_lon": 0.0}, {"name": "53b6105d80f2ed709365f3a5f10d99ef", "is_reserved": 0, "type": "electric_scooter", "rental_uris": {"ios": "https://dc.lft.to/lastmile_qr_scan", "android": "https://dc.lft.to/lastmile_qr_scan"}, "lat": 38.9281985, "lon": -77.02875633333333, "bike_id": "53b6105d80f2ed709365f3a5f10d99ef", "fusion_lat": 0.0, "is_disabled": 0, "fusion_lon": 0.0}, {"name": "8c8560979c3413fe52e384c6535fa3f2", "is_reserved": 0, "type": "electric_scooter", "rental_uris": {"ios": "https://dc.lft.to/lastmile_qr_scan", "android": "https://dc.lft.to/lastmile_qr_scan"}, "lat": 38.94293016666666, "lon": -77.021742, "bike_id": "8c8560979c3413fe52e384c6535fa3f2", "fusion_lat": 0.0, "is_disabled": 0, "fusion_lon": 0.0}, {"name": "680dea4d4a149bb0a91d9bfb1e13f27b", "is_reserved": 0, "type": "electric_bike", "rental_uris": {"ios": "https://dc.lft.to/lastmile_qr_scan", "android": "https://dc.lft.to/lastmile_qr_scan"}, "lat": 38.9622565, "lon": -77.02629533333334, "bike_id": "680dea4d4a149bb0a91d9bfb1e13f27b", "fusion_lat": 0.0, "is_disabled": 0, "fusion_lon": 0.0}, {"name": "486c6aaaf03d21a25d9886dd089fa1a6", "is_reserved": 0, "type": "electric_scooter", "rental_uris": {"ios": "https://dc.lft.to/lastmile_qr_scan", "android": "https://dc.lft.to/lastmile_qr_scan"}, "lat": 38.899232, "lon": -77.02174733333334, "bike_id": "486c6aaaf03d21a25d9886dd089fa1a6", "fusion_lat": 0.0, "is_disabled": 0, "fusion_lon": 0.0}, {"name": "9c705700b3293bad3eecbdd722f80581", "is_reserved": 0, "type": "electric_scooter", "rental_uris": {"ios": "https://dc.lft.to/lastmile_qr_scan", "android": "https://dc.lft.to/lastmile_qr_scan"}, "lat": 38.95426233333333, "lon": -77.027801, "bike_id": "9c705700b3293bad3eecbdd722f80581", "fusion_lat": 0.0, "is_disabled": 0, "fusion_lon": 0.0}, {"name": "7429c8ecea823d431eac5e563d583013", "is_reserved": 0, "type": "electric_scooter", "rental_uris": {"ios": "https://dc.lft.to/lastmile_qr_scan", "android": "https://dc.lft.to/lastmile_qr_scan"}, "lat": 38.87628866666667, "lon": -76.96531283333333, "bike_id": "7429c8ecea823d431eac5e563d583013", "fusion_lat": 0.0, "is_disabled": 0, "fusion_lon": 0.0}, {"name": "fd7f02c5ea78e471325546671bd68df9", "is_reserved": 0, "type": "electric_scooter", "rental_uris": {"ios": "https://dc.lft.to/lastmile_qr_scan", "android": "https://dc.lft.to/lastmile_qr_scan"}, "lat": 38.92150316666667, "lon": -77.038669, "bike_id": "fd7f02c5ea78e471325546671bd68df9", "fusion_lat": 0.0, "is_disabled": 0, "fusion_lon": 0.0}, {"name": "99f8beeb740330a6259ae0f307b82f9a", "is_reserved": 0, "type": "electric_scooter", "rental_uris": {"ios": "https://dc.lft.to/lastmile_qr_scan", "android": "https://dc.lft.to/lastmile_qr_scan"}, "lat": 38.933592, "lon": -77.07265116666666, "bike_id": "99f8beeb740330a6259ae0f307b82f9a", "fusion_lat": 0.0, "is_disabled": 0, "fusion_lon": 0.0}, {"name": "7515dbfbbfe9255769a085ede60f7c74", "is_reserved": 0, "type": "electric_scooter", "rental_uris": {"ios": "https://dc.lft.to/lastmile_qr_scan", "android": "https://dc.lft.to/lastmile_qr_scan"}, "lat": 38.908996, "lon": -77.03209616666666, "bike_id": "7515dbfbbfe9255769a085ede60f7c74", "fusion_lat": 0.0, "is_disabled": 0, "fusion_lon": 0.0}, {"name": "113ef3334f609e646b2ba372196daad5", "is_reserved": 0, "type": "electric_scooter", "rental_uris": {"ios": "https://dc.lft.to/lastmile_qr_scan", "android": "https://dc.lft.to/lastmile_qr_scan"}, "lat": 38.9142835, "lon": -77.043875, "bike_id": "113ef3334f609e646b2ba372196daad5", "fusion_lat": 0.0, "is_disabled": 0, "fusion_lon": 0.0}, {"name": "b091031ea90755dfda9178d3fc4d3efb", "is_reserved": 0, "type": "electric_scooter", "rental_uris": {"ios": "https://dc.lft.to/lastmile_qr_scan", "android": "https://dc.lft.to/lastmile_qr_scan"}, "lat": 38.921375833333336, "lon": -77.04362416666666, "bike_id": "b091031ea90755dfda9178d3fc4d3efb", "fusion_lat": 0.0, "is_disabled": 0, "fusion_lon": 0.0}, {"name": "3077e12c1f5892cb9cbfd389d3884e36", "is_reserved": 0, "type": "electric_scooter", "rental_uris": {"ios": "https://dc.lft.to/lastmile_qr_scan", "android": "https://dc.lft.to/lastmile_qr_scan"}, "lat": 38.91813366666667, "lon": -77.03440033333334, "bike_id": "3077e12c1f5892cb9cbfd389d3884e36", "fusion_lat": 0.0, "is_disabled": 0, "fusion_lon": 0.0}, {"name": "1365881c6c120fff29194500947ce388", "is_reserved": 0, "type": "electric_scooter", "rental_uris": {"ios": "https://dc.lft.to/lastmile_qr_scan", "android": "https://dc.lft.to/lastmile_qr_scan"}, "lat": 38.9084365, "lon": -77.0330685, "bike_id": "1365881c6c120fff29194500947ce388", "fusion_lat": 0.0, "is_disabled": 0, "fusion_lon": 0.0}, {"name": "70b635ab9607814d24be82fe4a7c516e", "is_reserved": 0, "type": "electric_scooter", "rental_uris": {"ios": "https://dc.lft.to/lastmile_qr_scan", "android": "https://dc.lft.to/lastmile_qr_scan"}, "lat": 38.90528666666667, "lon": -77.06532916666667, "bike_id": "70b635ab9607814d24be82fe4a7c516e", "fusion_lat": 0.0, "is_disabled": 0, "fusion_lon": 0.0}, {"name": "11131fc5f3fcada1766b155fa0281dcc", "is_reserved": 0, "type": "electric_bike", "rental_uris": {"ios": "https://dc.lft.to/lastmile_qr_scan", "android": "https://dc.lft.to/lastmile_qr_scan"}, "lat": 38.85508183333334, "lon": -77.120599, "bike_id": "11131fc5f3fcada1766b155fa0281dcc", "fusion_lat": 0.0, "is_disabled": 0, "fusion_lon": 0.0}, {"name": "e26fc962a52f7d62a6205ac3b7e883a3", "is_reserved": 0, "type": "electric_scooter", "rental_uris": {"ios": "https://dc.lft.to/lastmile_qr_scan", "android": "https://dc.lft.to/lastmile_qr_scan"}, "lat": 38.89667816666667, "lon": -77.03353083333333, "bike_id": "e26fc962a52f7d62a6205ac3b7e883a3", "fusion_lat": 0.0, "is_disabled": 0, "fusion_lon": 0.0}, {"name": "ad010981d64cde02f6c6af5a9dee95df", "is_reserved": 0, "type": "electric_scooter", "rental_uris": {"ios": "https://dc.lft.to/lastmile_qr_scan", "android": "https://dc.lft.to/lastmile_qr_scan"}, "lat": 38.917478, "lon": -77.022946, "bike_id": "ad010981d64cde02f6c6af5a9dee95df", "fusion_lat": 0.0, "is_disabled": 0, "fusion_lon": 0.0}, {"name": "0577a73cdcb85316211f518bc39e4bf5", "is_reserved": 0, "type": "electric_scooter", "rental_uris": {"ios": "https://dc.lft.to/lastmile_qr_scan", "android": "https://dc.lft.to/lastmile_qr_scan"}, "lat": 38.930860333333335, "lon": -77.02563716666667, "bike_id": "0577a73cdcb85316211f518bc39e4bf5", "fusion_lat": 0.0, "is_disabled": 0, "fusion_lon": 0.0}, {"name": "fac3f0ff81956c929ee0f6cdf92ef560", "is_reserved": 0, "type": "electric_scooter", "rental_uris": {"ios": "https://dc.lft.to/lastmile_qr_scan", "android": "https://dc.lft.to/lastmile_qr_scan"}, "lat": 38.876844166666665, "lon": -77.01761866666666, "bike_id": "fac3f0ff81956c929ee0f6cdf92ef560", "fusion_lat": 0.0, "is_disabled": 0, "fusion_lon": 0.0}, {"name": "51b4a4c36533accf21cda8db208f505e", "is_reserved": 0, "type": "electric_scooter", "rental_uris": {"ios": "https://dc.lft.to/lastmile_qr_scan", "android": "https://dc.lft.to/lastmile_qr_scan"}, "lat": 38.901885, "lon": -76.9794145, "bike_id": "51b4a4c36533accf21cda8db208f505e", "fusion_lat": 0.0, "is_disabled": 0, "fusion_lon": 0.0}, {"name": "2c3561225e6d653abd2aec6db6eeb9b9", "is_reserved": 0, "type": "electric_scooter", "rental_uris": {"ios": "https://dc.lft.to/lastmile_qr_scan", "android": "https://dc.lft.to/lastmile_qr_scan"}, "lat": 38.900264, "lon": -76.994483, "bike_id": "2c3561225e6d653abd2aec6db6eeb9b9", "fusion_lat": 0.0, "is_disabled": 0, "fusion_lon": 0.0}, {"name": "270545c768213e205ffe194d09c024ca", "is_reserved": 0, "type": "electric_scooter", "rental_uris": {"ios": "https://dc.lft.to/lastmile_qr_scan", "android": "https://dc.lft.to/lastmile_qr_scan"}, "lat": 38.907683, "lon": -77.05956366666666, "bike_id": "270545c768213e205ffe194d09c024ca", "fusion_lat": 0.0, "is_disabled": 0, "fusion_lon": 0.0}, {"name": "c3d785e911f9e62bee9d463d23773713", "is_reserved": 0, "type": "electric_scooter", "rental_uris": {"ios": "https://dc.lft.to/lastmile_qr_scan", "android": "https://dc.lft.to/lastmile_qr_scan"}, "lat": 38.90973416666667, "lon": -77.02165733333334, "bike_id": "c3d785e911f9e62bee9d463d23773713", "fusion_lat": 0.0, "is_disabled": 0, "fusion_lon": 0.0}, {"name": "7663c1751e4ad09acc5114aff64d9954", "is_reserved": 0, "type": "electric_scooter", "rental_uris": {"ios": "https://dc.lft.to/lastmile_qr_scan", "android": "https://dc.lft.to/lastmile_qr_scan"}, "lat": 38.91871866666666, "lon": -77.04476633333333, "bike_id": "7663c1751e4ad09acc5114aff64d9954", "fusion_lat": 0.0, "is_disabled": 0, "fusion_lon": 0.0}, {"name": "4de73df8846678d2d2a3e0389eb12831", "is_reserved": 0, "type": "electric_scooter", "rental_uris": {"ios": "https://dc.lft.to/lastmile_qr_scan", "android": "https://dc.lft.to/lastmile_qr_scan"}, "lat": 38.89384033333333, "lon": -77.02810016666666, "bike_id": "4de73df8846678d2d2a3e0389eb12831", "fusion_lat": 0.0, "is_disabled": 0, "fusion_lon": 0.0}, {"name": "ebb36c15fdd4b49eeb7363a0821516e9", "is_reserved": 0, "type": "electric_scooter", "rental_uris": {"ios": "https://dc.lft.to/lastmile_qr_scan", "android": "https://dc.lft.to/lastmile_qr_scan"}, "lat": 38.900468333333336, "lon": -77.002241, "bike_id": "ebb36c15fdd4b49eeb7363a0821516e9", "fusion_lat": 0.0, "is_disabled": 0, "fusion_lon": 0.0}, {"name": "c8e842c5c230fce27d8c28e90af18856", "is_reserved": 0, "type": "electric_scooter", "rental_uris": {"ios": "https://dc.lft.to/lastmile_qr_scan", "android": "https://dc.lft.to/lastmile_qr_scan"}, "lat": 38.89685033333333, "lon": -76.93609316666667, "bike_id": "c8e842c5c230fce27d8c28e90af18856", "fusion_lat": 0.0, "is_disabled": 0, "fusion_lon": 0.0}, {"name": "5aec9d5278cc62c9a0442315c96503c5", "is_reserved": 0, "type": "electric_scooter", "rental_uris": {"ios": "https://dc.lft.to/lastmile_qr_scan", "android": "https://dc.lft.to/lastmile_qr_scan"}, "lat": 38.896860833333335, "lon": -77.00511233333333, "bike_id": "5aec9d5278cc62c9a0442315c96503c5", "fusion_lat": 0.0, "is_disabled": 0, "fusion_lon": 0.0}, {"name": "be657b594f519d6d73505554190e3800", "is_reserved": 0, "type": "electric_scooter", "rental_uris": {"ios": "https://dc.lft.to/lastmile_qr_scan", "android": "https://dc.lft.to/lastmile_qr_scan"}, "lat": 38.90956333333333, "lon": -77.0339715, "bike_id": "be657b594f519d6d73505554190e3800", "fusion_lat": 0.0, "is_disabled": 0, "fusion_lon": 0.0}, {"name": "acff70a2cb546d69e192a1b2a5fc257e", "is_reserved": 0, "type": "electric_scooter", "rental_uris": {"ios": "https://dc.lft.to/lastmile_qr_scan", "android": "https://dc.lft.to/lastmile_qr_scan"}, "lat": 38.923253, "lon": -77.01971033333334, "bike_id": "acff70a2cb546d69e192a1b2a5fc257e", "fusion_lat": 0.0, "is_disabled": 0, "fusion_lon": 0.0}, {"name": "63078849296b1c098d9d11c68f2cf074", "is_reserved": 0, "type": "electric_scooter", "rental_uris": {"ios": "https://dc.lft.to/lastmile_qr_scan", "android": "https://dc.lft.to/lastmile_qr_scan"}, "lat": 38.9218445, "lon": -76.9975805, "bike_id": "63078849296b1c098d9d11c68f2cf074", "fusion_lat": 0.0, "is_disabled": 0, "fusion_lon": 0.0}, {"name": "6727c12cb4eab3f3d112853cefe42c72", "is_reserved": 0, "type": "electric_scooter", "rental_uris": {"ios": "https://dc.lft.to/lastmile_qr_scan", "android": "https://dc.lft.to/lastmile_qr_scan"}, "lat": 38.92302133333333, "lon": -77.043056, "bike_id": "6727c12cb4eab3f3d112853cefe42c72", "fusion_lat": 0.0, "is_disabled": 0, "fusion_lon": 0.0}, {"name": "11d85a0142218fc766e6af15e78875f8", "is_reserved": 0, "type": "electric_scooter", "rental_uris": {"ios": "https://dc.lft.to/lastmile_qr_scan", "android": "https://dc.lft.to/lastmile_qr_scan"}, "lat": 38.9019055, "lon": -76.92994483333334, "bike_id": "11d85a0142218fc766e6af15e78875f8", "fusion_lat": 0.0, "is_disabled": 0, "fusion_lon": 0.0}, {"name": "4adba8485e566782bb53cbbc6152a935", "is_reserved": 0, "type": "electric_scooter", "rental_uris": {"ios": "https://dc.lft.to/lastmile_qr_scan", "android": "https://dc.lft.to/lastmile_qr_scan"}, "lat": 38.93560083333333, "lon": -77.03702916666667, "bike_id": "4adba8485e566782bb53cbbc6152a935", "fusion_lat": 0.0, "is_disabled": 0, "fusion_lon": 0.0}, {"name": "cc68c5b761755f19e30effd6ca1fad30", "is_reserved": 0, "type": "electric_scooter", "rental_uris": {"ios": "https://dc.lft.to/lastmile_qr_scan", "android": "https://dc.lft.to/lastmile_qr_scan"}, "lat": 38.925288333333334, "lon": -77.03223383333334, "bike_id": "cc68c5b761755f19e30effd6ca1fad30", "fusion_lat": 0.0, "is_disabled": 0, "fusion_lon": 0.0}, {"name": "06c8d4edbae325e3b0ccd0e4f7053eeb", "is_reserved": 0, "type": "electric_bike", "rental_uris": {"ios": "https://dc.lft.to/lastmile_qr_scan", "android": "https://dc.lft.to/lastmile_qr_scan"}, "lat": 39.051965, "lon": -77.1091965, "bike_id": "06c8d4edbae325e3b0ccd0e4f7053eeb", "fusion_lat": 0.0, "is_disabled": 0, "fusion_lon": 0.0}, {"name": "644ad0a013fb5b0937833c0ff0aeba3c", "is_reserved": 0, "type": "electric_scooter", "rental_uris": {"ios": "https://dc.lft.to/lastmile_qr_scan", "android": "https://dc.lft.to/lastmile_qr_scan"}, "lat": 38.90347, "lon": -77.04668033333333, "bike_id": "644ad0a013fb5b0937833c0ff0aeba3c", "fusion_lat": 0.0, "is_disabled": 0, "fusion_lon": 0.0}, {"name": "3a7ff58d7d799a2e0ac776cf5645320e", "is_reserved": 0, "type": "electric_bike", "rental_uris": {"ios": "https://dc.lft.to/lastmile_qr_scan", "android": "https://dc.lft.to/lastmile_qr_scan"}, "lat": 38.89799566666667, "lon": -77.00594933333333, "bike_id": "3a7ff58d7d799a2e0ac776cf5645320e", "fusion_lat": 0.0, "is_disabled": 0, "fusion_lon": 0.0}, {"name": "134a6bb3a2bce1d02d137ce8932275fb", "is_reserved": 0, "type": "electric_scooter", "rental_uris": {"ios": "https://dc.lft.to/lastmile_qr_scan", "android": "https://dc.lft.to/lastmile_qr_scan"}, "lat": 38.931930666666666, "lon": -77.0283245, "bike_id": "134a6bb3a2bce1d02d137ce8932275fb", "fusion_lat": 0.0, "is_disabled": 0, "fusion_lon": 0.0}, {"name": "1f9d453eb713caf6cfebb6fd5db49257", "is_reserved": 0, "type": "electric_scooter", "rental_uris": {"ios": "https://dc.lft.to/lastmile_qr_scan", "android": "https://dc.lft.to/lastmile_qr_scan"}, "lat": 38.93023983333333, "lon": -77.0336895, "bike_id": "1f9d453eb713caf6cfebb6fd5db49257", "fusion_lat": 0.0, "is_disabled": 0, "fusion_lon": 0.0}, {"name": "fdefcf98d16ad076e15821d17aa0d6e4", "is_reserved": 0, "type": "electric_scooter", "rental_uris": {"ios": "https://dc.lft.to/lastmile_qr_scan", "android": "https://dc.lft.to/lastmile_qr_scan"}, "lat": 38.9281525, "lon": -77.01424966666667, "bike_id": "fdefcf98d16ad076e15821d17aa0d6e4", "fusion_lat": 0.0, "is_disabled": 0, "fusion_lon": 0.0}, {"name": "dc6773b70c467018bcf11cb19e3f6b73", "is_reserved": 0, "type": "electric_scooter", "rental_uris": {"ios": "https://dc.lft.to/lastmile_qr_scan", "android": "https://dc.lft.to/lastmile_qr_scan"}, "lat": 38.92552233333333, "lon": -77.04176083333333, "bike_id": "dc6773b70c467018bcf11cb19e3f6b73", "fusion_lat": 0.0, "is_disabled": 0, "fusion_lon": 0.0}, {"name": "ede0b74334eda674c36eb8bd8729cef9", "is_reserved": 0, "type": "electric_scooter", "rental_uris": {"ios": "https://dc.lft.to/lastmile_qr_scan", "android": "https://dc.lft.to/lastmile_qr_scan"}, "lat": 38.895087333333336, "lon": -77.02111866666667, "bike_id": "ede0b74334eda674c36eb8bd8729cef9", "fusion_lat": 0.0, "is_disabled": 0, "fusion_lon": 0.0}, {"name": "316e2b189a2ce32b84258b639e285beb", "is_reserved": 0, "type": "electric_scooter", "rental_uris": {"ios": "https://dc.lft.to/lastmile_qr_scan", "android": "https://dc.lft.to/lastmile_qr_scan"}, "lat": 38.916089666666664, "lon": -77.02291483333333, "bike_id": "316e2b189a2ce32b84258b639e285beb", "fusion_lat": 0.0, "is_disabled": 0, "fusion_lon": 0.0}, {"name": "53e8ed2263cb9b6f8799ac56da2d94b3", "is_reserved": 0, "type": "electric_scooter", "rental_uris": {"ios": "https://dc.lft.to/lastmile_qr_scan", "android": "https://dc.lft.to/lastmile_qr_scan"}, "lat": 38.89488866666667, "lon": -77.02175216666667, "bike_id": "53e8ed2263cb9b6f8799ac56da2d94b3", "fusion_lat": 0.0, "is_disabled": 0, "fusion_lon": 0.0}, {"name": "2ac1d04d512f91b5cf913b933a66c6eb", "is_reserved": 0, "type": "electric_scooter", "rental_uris": {"ios": "https://dc.lft.to/lastmile_qr_scan", "android": "https://dc.lft.to/lastmile_qr_scan"}, "lat": 38.926352, "lon": -77.03235, "bike_id": "2ac1d04d512f91b5cf913b933a66c6eb", "fusion_lat": 0.0, "is_disabled": 0, "fusion_lon": 0.0}, {"name": "accff8fdddad08073c7ff752a4c5cb8c", "is_reserved": 0, "type": "electric_scooter", "rental_uris": {"ios": "https://dc.lft.to/lastmile_qr_scan", "android": "https://dc.lft.to/lastmile_qr_scan"}, "lat": 38.92803416666667, "lon": -77.04108016666666, "bike_id": "accff8fdddad08073c7ff752a4c5cb8c", "fusion_lat": 0.0, "is_disabled": 0, "fusion_lon": 0.0}, {"name": "2a644c839c82010f158b1f7dd9d3c90c", "is_reserved": 0, "type": "electric_scooter", "rental_uris": {"ios": "https://dc.lft.to/lastmile_qr_scan", "android": "https://dc.lft.to/lastmile_qr_scan"}, "lat": 38.8924985, "lon": -77.0240885, "bike_id": "2a644c839c82010f158b1f7dd9d3c90c", "fusion_lat": 0.0, "is_disabled": 0, "fusion_lon": 0.0}, {"name": "76cda777f8c2f94c465c012a3bc4a584", "is_reserved": 0, "type": "electric_scooter", "rental_uris": {"ios": "https://dc.lft.to/lastmile_qr_scan", "android": "https://dc.lft.to/lastmile_qr_scan"}, "lat": 38.93602633333333, "lon": -77.02326616666667, "bike_id": "76cda777f8c2f94c465c012a3bc4a584", "fusion_lat": 0.0, "is_disabled": 0, "fusion_lon": 0.0}, {"name": "dd4c5492069687c31aabc85fd4a398aa", "is_reserved": 0, "type": "electric_scooter", "rental_uris": {"ios": "https://dc.lft.to/lastmile_qr_scan", "android": "https://dc.lft.to/lastmile_qr_scan"}, "lat": 38.91682316666667, "lon": -77.0235265, "bike_id": "dd4c5492069687c31aabc85fd4a398aa", "fusion_lat": 0.0, "is_disabled": 0, "fusion_lon": 0.0}, {"name": "b1131550db7391365d543449d5d18594", "is_reserved": 0, "type": "electric_scooter", "rental_uris": {"ios": "https://dc.lft.to/lastmile_qr_scan", "android": "https://dc.lft.to/lastmile_qr_scan"}, "lat": 38.933012, "lon": -77.02467516666667, "bike_id": "b1131550db7391365d543449d5d18594", "fusion_lat": 0.0, "is_disabled": 0, "fusion_lon": 0.0}, {"name": "50099d04423a0542417d390759ebcafc", "is_reserved": 0, "type": "electric_scooter", "rental_uris": {"ios": "https://dc.lft.to/lastmile_qr_scan", "android": "https://dc.lft.to/lastmile_qr_scan"}, "lat": 38.924173833333334, "lon": -77.0213215, "bike_id": "50099d04423a0542417d390759ebcafc", "fusion_lat": 0.0, "is_disabled": 0, "fusion_lon": 0.0}, {"name": "64838cfe46ab39af2c4a66a0ab5573b7", "is_reserved": 0, "type": "electric_scooter", "rental_uris": {"ios": "https://dc.lft.to/lastmile_qr_scan", "android": "https://dc.lft.to/lastmile_qr_scan"}, "lat": 38.895635166666665, "lon": -77.00916116666667, "bike_id": "64838cfe46ab39af2c4a66a0ab5573b7", "fusion_lat": 0.0, "is_disabled": 0, "fusion_lon": 0.0}, {"name": "e7ab180c7f0dbe7a702ad9ec0c67202f", "is_reserved": 0, "type": "electric_scooter", "rental_uris": {"ios": "https://dc.lft.to/lastmile_qr_scan", "android": "https://dc.lft.to/lastmile_qr_scan"}, "lat": 38.896436, "lon": -77.02403766666667, "bike_id": "e7ab180c7f0dbe7a702ad9ec0c67202f", "fusion_lat": 0.0, "is_disabled": 0, "fusion_lon": 0.0}, {"name": "215f20edcbf31af7a3ec582d90cec6e5", "is_reserved": 0, "type": "electric_scooter", "rental_uris": {"ios": "https://dc.lft.to/lastmile_qr_scan", "android": "https://dc.lft.to/lastmile_qr_scan"}, "lat": 38.91767183333333, "lon": -77.0455705, "bike_id": "215f20edcbf31af7a3ec582d90cec6e5", "fusion_lat": 0.0, "is_disabled": 0, "fusion_lon": 0.0}, {"name": "27af07ccf80cc243d8f76de07f9ef3ca", "is_reserved": 0, "type": "electric_scooter", "rental_uris": {"ios": "https://dc.lft.to/lastmile_qr_scan", "android": "https://dc.lft.to/lastmile_qr_scan"}, "lat": 38.915462166666664, "lon": -76.98370583333333, "bike_id": "27af07ccf80cc243d8f76de07f9ef3ca", "fusion_lat": 0.0, "is_disabled": 0, "fusion_lon": 0.0}, {"name": "1ea7bb288a3a5af87181a5bf882521e1", "is_reserved": 0, "type": "electric_scooter", "rental_uris": {"ios": "https://dc.lft.to/lastmile_qr_scan", "android": "https://dc.lft.to/lastmile_qr_scan"}, "lat": 38.898547, "lon": -77.05308983333333, "bike_id": "1ea7bb288a3a5af87181a5bf882521e1", "fusion_lat": 0.0, "is_disabled": 0, "fusion_lon": 0.0}, {"name": "4d96b0215627d9247af6cf187aff0c46", "is_reserved": 0, "type": "electric_scooter", "rental_uris": {"ios": "https://dc.lft.to/lastmile_qr_scan", "android": "https://dc.lft.to/lastmile_qr_scan"}, "lat": 38.910362, "lon": -76.98560216666667, "bike_id": "4d96b0215627d9247af6cf187aff0c46", "fusion_lat": 0.0, "is_disabled": 0, "fusion_lon": 0.0}, {"name": "b894bebb99fd74d13d72dd11e1b46eb0", "is_reserved": 0, "type": "electric_scooter", "rental_uris": {"ios": "https://dc.lft.to/lastmile_qr_scan", "android": "https://dc.lft.to/lastmile_qr_scan"}, "lat": 38.92673166666667, "lon": -77.00753566666667, "bike_id": "b894bebb99fd74d13d72dd11e1b46eb0", "fusion_lat": 0.0, "is_disabled": 0, "fusion_lon": 0.0}, {"name": "66828de8efaead88a07fdf3fa123246e", "is_reserved": 0, "type": "electric_scooter", "rental_uris": {"ios": "https://dc.lft.to/lastmile_qr_scan", "android": "https://dc.lft.to/lastmile_qr_scan"}, "lat": 38.89844266666667, "lon": -77.04375066666667, "bike_id": "66828de8efaead88a07fdf3fa123246e", "fusion_lat": 0.0, "is_disabled": 0, "fusion_lon": 0.0}, {"name": "6b546a82b9f753ba977a85002bead2a9", "is_reserved": 0, "type": "electric_scooter", "rental_uris": {"ios": "https://dc.lft.to/lastmile_qr_scan", "android": "https://dc.lft.to/lastmile_qr_scan"}, "lat": 38.912705333333335, "lon": -77.07622516666666, "bike_id": "6b546a82b9f753ba977a85002bead2a9", "fusion_lat": 0.0, "is_disabled": 0, "fusion_lon": 0.0}, {"name": "cf7458d39cd2a34053d3f7c6518a22c0", "is_reserved": 0, "type": "electric_scooter", "rental_uris": {"ios": "https://dc.lft.to/lastmile_qr_scan", "android": "https://dc.lft.to/lastmile_qr_scan"}, "lat": 38.86258516666667, "lon": -76.9954835, "bike_id": "cf7458d39cd2a34053d3f7c6518a22c0", "fusion_lat": 0.0, "is_disabled": 0, "fusion_lon": 0.0}, {"name": "d88d2ecac8400d199bf9fb8df87fbe4a", "is_reserved": 0, "type": "electric_scooter", "rental_uris": {"ios": "https://dc.lft.to/lastmile_qr_scan", "android": "https://dc.lft.to/lastmile_qr_scan"}, "lat": 38.9103625, "lon": -77.03861983333333, "bike_id": "d88d2ecac8400d199bf9fb8df87fbe4a", "fusion_lat": 0.0, "is_disabled": 0, "fusion_lon": 0.0}, {"name": "eb868e07d8d1ae41d095c3c17946c193", "is_reserved": 0, "type": "electric_bike", "rental_uris": {"ios": "https://dc.lft.to/lastmile_qr_scan", "android": "https://dc.lft.to/lastmile_qr_scan"}, "lat": 38.926309, "lon": -77.03304683333333, "bike_id": "eb868e07d8d1ae41d095c3c17946c193", "fusion_lat": 0.0, "is_disabled": 0, "fusion_lon": 0.0}, {"name": "03e645a2efd280b3a96fbe4ae517476a", "is_reserved": 0, "type": "electric_scooter", "rental_uris": {"ios": "https://dc.lft.to/lastmile_qr_scan", "android": "https://dc.lft.to/lastmile_qr_scan"}, "lat": 38.916804666666664, "lon": -77.02898016666667, "bike_id": "03e645a2efd280b3a96fbe4ae517476a", "fusion_lat": 0.0, "is_disabled": 0, "fusion_lon": 0.0}, {"name": "bb5990f29039227f722ac875082ee443", "is_reserved": 0, "type": "electric_scooter", "rental_uris": {"ios": "https://dc.lft.to/lastmile_qr_scan", "android": "https://dc.lft.to/lastmile_qr_scan"}, "lat": 38.907671, "lon": -77.043505, "bike_id": "bb5990f29039227f722ac875082ee443", "fusion_lat": 0.0, "is_disabled": 0, "fusion_lon": 0.0}, {"name": "c62b348078bbc1d5db430a4c8fde026f", "is_reserved": 0, "type": "electric_bike", "rental_uris": {"ios": "https://dc.lft.to/lastmile_qr_scan", "android": "https://dc.lft.to/lastmile_qr_scan"}, "lat": 38.852210666666664, "lon": -77.12962416666667, "bike_id": "c62b348078bbc1d5db430a4c8fde026f", "fusion_lat": 0.0, "is_disabled": 0, "fusion_lon": 0.0}, {"name": "77ca757221f00a6eb9765fdb9fa43f2d", "is_reserved": 0, "type": "electric_scooter", "rental_uris": {"ios": "https://dc.lft.to/lastmile_qr_scan", "android": "https://dc.lft.to/lastmile_qr_scan"}, "lat": 38.9151735, "lon": -77.01229366666666, "bike_id": "77ca757221f00a6eb9765fdb9fa43f2d", "fusion_lat": 0.0, "is_disabled": 0, "fusion_lon": 0.0}, {"name": "9d4a922ef85108f70782d2cea6c9dd7d", "is_reserved": 0, "type": "electric_scooter", "rental_uris": {"ios": "https://dc.lft.to/lastmile_qr_scan", "android": "https://dc.lft.to/lastmile_qr_scan"}, "lat": 38.92028533333333, "lon": -77.04401716666666, "bike_id": "9d4a922ef85108f70782d2cea6c9dd7d", "fusion_lat": 0.0, "is_disabled": 0, "fusion_lon": 0.0}, {"name": "14ba95ff8905cd98c6dd0de721bc6dbc", "is_reserved": 0, "type": "electric_scooter", "rental_uris": {"ios": "https://dc.lft.to/lastmile_qr_scan", "android": "https://dc.lft.to/lastmile_qr_scan"}, "lat": 38.960795166666664, "lon": -77.02821466666667, "bike_id": "14ba95ff8905cd98c6dd0de721bc6dbc", "fusion_lat": 0.0, "is_disabled": 0, "fusion_lon": 0.0}, {"name": "1c5e1fb60eedf25eaf2752b2084d59bf", "is_reserved": 0, "type": "electric_scooter", "rental_uris": {"ios": "https://dc.lft.to/lastmile_qr_scan", "android": "https://dc.lft.to/lastmile_qr_scan"}, "lat": 38.90856, "lon": -76.99789583333333, "bike_id": "1c5e1fb60eedf25eaf2752b2084d59bf", "fusion_lat": 0.0, "is_disabled": 0, "fusion_lon": 0.0}, {"name": "5fffcea2d62f17dc2a0c7a736d59d682", "is_reserved": 0, "type": "electric_scooter", "rental_uris": {"ios": "https://dc.lft.to/lastmile_qr_scan", "android": "https://dc.lft.to/lastmile_qr_scan"}, "lat": 38.88672016666666, "lon": -76.93617616666667, "bike_id": "5fffcea2d62f17dc2a0c7a736d59d682", "fusion_lat": 0.0, "is_disabled": 0, "fusion_lon": 0.0}, {"name": "5a1735e8b25e457667408106fc5df055", "is_reserved": 0, "type": "electric_scooter", "rental_uris": {"ios": "https://dc.lft.to/lastmile_qr_scan", "android": "https://dc.lft.to/lastmile_qr_scan"}, "lat": 38.907618166666666, "lon": -77.03586583333333, "bike_id": "5a1735e8b25e457667408106fc5df055", "fusion_lat": 0.0, "is_disabled": 0, "fusion_lon": 0.0}, {"name": "f93db9b6a68221f1f233a3986ee1025c", "is_reserved": 0, "type": "electric_scooter", "rental_uris": {"ios": "https://dc.lft.to/lastmile_qr_scan", "android": "https://dc.lft.to/lastmile_qr_scan"}, "lat": 38.927261, "lon": -77.03669016666667, "bike_id": "f93db9b6a68221f1f233a3986ee1025c", "fusion_lat": 0.0, "is_disabled": 0, "fusion_lon": 0.0}, {"name": "d325b80ec154890596a2ef7259fd3734", "is_reserved": 0, "type": "electric_scooter", "rental_uris": {"ios": "https://dc.lft.to/lastmile_qr_scan", "android": "https://dc.lft.to/lastmile_qr_scan"}, "lat": 38.9250945, "lon": -77.0381675, "bike_id": "d325b80ec154890596a2ef7259fd3734", "fusion_lat": 0.0, "is_disabled": 0, "fusion_lon": 0.0}, {"name": "fb718b492a1c7848c91deb212f8907b2", "is_reserved": 0, "type": "electric_scooter", "rental_uris": {"ios": "https://dc.lft.to/lastmile_qr_scan", "android": "https://dc.lft.to/lastmile_qr_scan"}, "lat": 38.9288025, "lon": -77.033283, "bike_id": "fb718b492a1c7848c91deb212f8907b2", "fusion_lat": 0.0, "is_disabled": 0, "fusion_lon": 0.0}, {"name": "c93ccb42b75a50fc1e5c592466a7a225", "is_reserved": 0, "type": "electric_scooter", "rental_uris": {"ios": "https://dc.lft.to/lastmile_qr_scan", "android": "https://dc.lft.to/lastmile_qr_scan"}, "lat": 38.897270166666665, "lon": -77.0266025, "bike_id": "c93ccb42b75a50fc1e5c592466a7a225", "fusion_lat": 0.0, "is_disabled": 0, "fusion_lon": 0.0}, {"name": "89ba7aa42750cb997d4e0bddb942bd2a", "is_reserved": 0, "type": "electric_scooter", "rental_uris": {"ios": "https://dc.lft.to/lastmile_qr_scan", "android": "https://dc.lft.to/lastmile_qr_scan"}, "lat": 38.91381916666667, "lon": -77.00444383333334, "bike_id": "89ba7aa42750cb997d4e0bddb942bd2a", "fusion_lat": 0.0, "is_disabled": 0, "fusion_lon": 0.0}, {"name": "12fa98a07f866089f71ff8f408a0ee9b", "is_reserved": 0, "type": "electric_scooter", "rental_uris": {"ios": "https://dc.lft.to/lastmile_qr_scan", "android": "https://dc.lft.to/lastmile_qr_scan"}, "lat": 38.94959033333333, "lon": -77.027242, "bike_id": "12fa98a07f866089f71ff8f408a0ee9b", "fusion_lat": 0.0, "is_disabled": 0, "fusion_lon": 0.0}, {"name": "ac9a73f7f93c4ff80497b52ffd335a1a", "is_reserved": 0, "type": "electric_scooter", "rental_uris": {"ios": "https://dc.lft.to/lastmile_qr_scan", "android": "https://dc.lft.to/lastmile_qr_scan"}, "lat": 38.961475666666665, "lon": -77.0281365, "bike_id": "ac9a73f7f93c4ff80497b52ffd335a1a", "fusion_lat": 0.0, "is_disabled": 0, "fusion_lon": 0.0}, {"name": "7ad9d5711a7cf8fd6b81a855a7893498", "is_reserved": 0, "type": "electric_scooter", "rental_uris": {"ios": "https://dc.lft.to/lastmile_qr_scan", "android": "https://dc.lft.to/lastmile_qr_scan"}, "lat": 38.902597, "lon": -77.0088665, "bike_id": "7ad9d5711a7cf8fd6b81a855a7893498", "fusion_lat": 0.0, "is_disabled": 0, "fusion_lon": 0.0}, {"name": "741d59da874f89f9097d9e1a75c8a3d1", "is_reserved": 0, "type": "electric_scooter", "rental_uris": {"ios": "https://dc.lft.to/lastmile_qr_scan", "android": "https://dc.lft.to/lastmile_qr_scan"}, "lat": 38.8961445, "lon": -77.03027683333333, "bike_id": "741d59da874f89f9097d9e1a75c8a3d1", "fusion_lat": 0.0, "is_disabled": 0, "fusion_lon": 0.0}, {"name": "5463072b454c9ad225f5c49e51a794c4", "is_reserved": 0, "type": "electric_scooter", "rental_uris": {"ios": "https://dc.lft.to/lastmile_qr_scan", "android": "https://dc.lft.to/lastmile_qr_scan"}, "lat": 38.915690166666664, "lon": -77.05213683333334, "bike_id": "5463072b454c9ad225f5c49e51a794c4", "fusion_lat": 0.0, "is_disabled": 0, "fusion_lon": 0.0}, {"name": "0af007b178f0092530d6a6bcec6752a7", "is_reserved": 0, "type": "electric_scooter", "rental_uris": {"ios": "https://dc.lft.to/lastmile_qr_scan", "android": "https://dc.lft.to/lastmile_qr_scan"}, "lat": 38.91904233333333, "lon": -77.01765633333333, "bike_id": "0af007b178f0092530d6a6bcec6752a7", "fusion_lat": 0.0, "is_disabled": 0, "fusion_lon": 0.0}, {"name": "fea1efe825e55f9ed20b908a98d2046c", "is_reserved": 0, "type": "electric_scooter", "rental_uris": {"ios": "https://dc.lft.to/lastmile_qr_scan", "android": "https://dc.lft.to/lastmile_qr_scan"}, "lat": 38.92352233333333, "lon": -77.0348015, "bike_id": "fea1efe825e55f9ed20b908a98d2046c", "fusion_lat": 0.0, "is_disabled": 0, "fusion_lon": 0.0}, {"name": "36f4b5e04e792a295241597864e17e5c", "is_reserved": 0, "type": "electric_scooter", "rental_uris": {"ios": "https://dc.lft.to/lastmile_qr_scan", "android": "https://dc.lft.to/lastmile_qr_scan"}, "lat": 38.92252466666667, "lon": -77.01842066666667, "bike_id": "36f4b5e04e792a295241597864e17e5c", "fusion_lat": 0.0, "is_disabled": 0, "fusion_lon": 0.0}, {"name": "d9159f73c631d636d85e2e5a6080b8f4", "is_reserved": 0, "type": "electric_scooter", "rental_uris": {"ios": "https://dc.lft.to/lastmile_qr_scan", "android": "https://dc.lft.to/lastmile_qr_scan"}, "lat": 38.923392166666666, "lon": -77.02131283333334, "bike_id": "d9159f73c631d636d85e2e5a6080b8f4", "fusion_lat": 0.0, "is_disabled": 0, "fusion_lon": 0.0}, {"name": "d7f4af4d1197cab6924ef5faed8af5fe", "is_reserved": 0, "type": "electric_scooter", "rental_uris": {"ios": "https://dc.lft.to/lastmile_qr_scan", "android": "https://dc.lft.to/lastmile_qr_scan"}, "lat": 38.902840166666664, "lon": -77.03661016666666, "bike_id": "d7f4af4d1197cab6924ef5faed8af5fe", "fusion_lat": 0.0, "is_disabled": 0, "fusion_lon": 0.0}, {"name": "89a71a11ddb8073fdc8668cfde1679c3", "is_reserved": 0, "type": "electric_scooter", "rental_uris": {"ios": "https://dc.lft.to/lastmile_qr_scan", "android": "https://dc.lft.to/lastmile_qr_scan"}, "lat": 38.883608333333335, "lon": -76.961564, "bike_id": "89a71a11ddb8073fdc8668cfde1679c3", "fusion_lat": 0.0, "is_disabled": 0, "fusion_lon": 0.0}, {"name": "27c60539c4b732a89ed1fa1dc8b67d8e", "is_reserved": 0, "type": "electric_scooter", "rental_uris": {"ios": "https://dc.lft.to/lastmile_qr_scan", "android": "https://dc.lft.to/lastmile_qr_scan"}, "lat": 38.910284833333336, "lon": -76.98536216666666, "bike_id": "27c60539c4b732a89ed1fa1dc8b67d8e", "fusion_lat": 0.0, "is_disabled": 0, "fusion_lon": 0.0}, {"name": "9d91c9e0e9f402128dd34e56bc0081f8", "is_reserved": 0, "type": "electric_scooter", "rental_uris": {"ios": "https://dc.lft.to/lastmile_qr_scan", "android": "https://dc.lft.to/lastmile_qr_scan"}, "lat": 38.910920833333336, "lon": -77.02184433333333, "bike_id": "9d91c9e0e9f402128dd34e56bc0081f8", "fusion_lat": 0.0, "is_disabled": 0, "fusion_lon": 0.0}, {"name": "66384c32a731e1158b33e0b11c97e70b", "is_reserved": 0, "type": "electric_scooter", "rental_uris": {"ios": "https://dc.lft.to/lastmile_qr_scan", "android": "https://dc.lft.to/lastmile_qr_scan"}, "lat": 38.9009535, "lon": -77.04757833333333, "bike_id": "66384c32a731e1158b33e0b11c97e70b", "fusion_lat": 0.0, "is_disabled": 0, "fusion_lon": 0.0}, {"name": "bfa49e64305686d6cb67552fdca7d2f3", "is_reserved": 0, "type": "electric_scooter", "rental_uris": {"ios": "https://dc.lft.to/lastmile_qr_scan", "android": "https://dc.lft.to/lastmile_qr_scan"}, "lat": 38.84426766666667, "lon": -76.99778166666667, "bike_id": "bfa49e64305686d6cb67552fdca7d2f3", "fusion_lat": 0.0, "is_disabled": 0, "fusion_lon": 0.0}, {"name": "27024db68be8f55af614f9563c8b0870", "is_reserved": 0, "type": "electric_scooter", "rental_uris": {"ios": "https://dc.lft.to/lastmile_qr_scan", "android": "https://dc.lft.to/lastmile_qr_scan"}, "lat": 38.91183066666667, "lon": -77.002174, "bike_id": "27024db68be8f55af614f9563c8b0870", "fusion_lat": 0.0, "is_disabled": 0, "fusion_lon": 0.0}, {"name": "db952710084911f6a511c005267f2625", "is_reserved": 0, "type": "electric_scooter", "rental_uris": {"ios": "https://dc.lft.to/lastmile_qr_scan", "android": "https://dc.lft.to/lastmile_qr_scan"}, "lat": 38.9305635, "lon": -77.0232185, "bike_id": "db952710084911f6a511c005267f2625", "fusion_lat": 0.0, "is_disabled": 0, "fusion_lon": 0.0}, {"name": "5153edbc5c5dd285096c915c44d00932", "is_reserved": 0, "type": "electric_bike", "rental_uris": {"ios": "https://dc.lft.to/lastmile_qr_scan", "android": "https://dc.lft.to/lastmile_qr_scan"}, "lat": 38.92900983333333, "lon": -77.10602016666667, "bike_id": "5153edbc5c5dd285096c915c44d00932", "fusion_lat": 0.0, "is_disabled": 0, "fusion_lon": 0.0}, {"name": "af482124968a7afe6eb47d14b569b378", "is_reserved": 0, "type": "electric_scooter", "rental_uris": {"ios": "https://dc.lft.to/lastmile_qr_scan", "android": "https://dc.lft.to/lastmile_qr_scan"}, "lat": 38.917141666666666, "lon": -77.0410515, "bike_id": "af482124968a7afe6eb47d14b569b378", "fusion_lat": 0.0, "is_disabled": 0, "fusion_lon": 0.0}, {"name": "b7814bfd64d4acb196144e025cbb46ca", "is_reserved": 0, "type": "electric_scooter", "rental_uris": {"ios": "https://dc.lft.to/lastmile_qr_scan", "android": "https://dc.lft.to/lastmile_qr_scan"}, "lat": 38.901563, "lon": -76.93057733333333, "bike_id": "b7814bfd64d4acb196144e025cbb46ca", "fusion_lat": 0.0, "is_disabled": 0, "fusion_lon": 0.0}, {"name": "907c77d305a8d9d05f45dd7471a68cc4", "is_reserved": 0, "type": "electric_scooter", "rental_uris": {"ios": "https://dc.lft.to/lastmile_qr_scan", "android": "https://dc.lft.to/lastmile_qr_scan"}, "lat": 38.90387183333333, "lon": -77.0368665, "bike_id": "907c77d305a8d9d05f45dd7471a68cc4", "fusion_lat": 0.0, "is_disabled": 0, "fusion_lon": 0.0}, {"name": "9cd3f94d58c9ed2daad2f22e3a5a00f3", "is_reserved": 0, "type": "electric_scooter", "rental_uris": {"ios": "https://dc.lft.to/lastmile_qr_scan", "android": "https://dc.lft.to/lastmile_qr_scan"}, "lat": 38.9065065, "lon": -77.034785, "bike_id": "9cd3f94d58c9ed2daad2f22e3a5a00f3", "fusion_lat": 0.0, "is_disabled": 0, "fusion_lon": 0.0}, {"name": "4d9bdba191cb9a478fff20ef9f5e7136", "is_reserved": 0, "type": "electric_scooter", "rental_uris": {"ios": "https://dc.lft.to/lastmile_qr_scan", "android": "https://dc.lft.to/lastmile_qr_scan"}, "lat": 38.86701716666666, "lon": -76.98398833333333, "bike_id": "4d9bdba191cb9a478fff20ef9f5e7136", "fusion_lat": 0.0, "is_disabled": 0, "fusion_lon": 0.0}, {"name": "a7ff46e3d41f70e0cdcfd2b1aa731784", "is_reserved": 0, "type": "electric_scooter", "rental_uris": {"ios": "https://dc.lft.to/lastmile_qr_scan", "android": "https://dc.lft.to/lastmile_qr_scan"}, "lat": 38.90214533333334, "lon": -77.04362483333334, "bike_id": "a7ff46e3d41f70e0cdcfd2b1aa731784", "fusion_lat": 0.0, "is_disabled": 0, "fusion_lon": 0.0}, {"name": "771b14d0215e042b8287dbb8f873a797", "is_reserved": 0, "type": "electric_scooter", "rental_uris": {"ios": "https://dc.lft.to/lastmile_qr_scan", "android": "https://dc.lft.to/lastmile_qr_scan"}, "lat": 38.894916333333335, "lon": -77.00294416666667, "bike_id": "771b14d0215e042b8287dbb8f873a797", "fusion_lat": 0.0, "is_disabled": 0, "fusion_lon": 0.0}, {"name": "ba178fcd3396ac731916e67a80c509f0", "is_reserved": 0, "type": "electric_scooter", "rental_uris": {"ios": "https://dc.lft.to/lastmile_qr_scan", "android": "https://dc.lft.to/lastmile_qr_scan"}, "lat": 38.892966666666666, "lon": -76.92917916666667, "bike_id": "ba178fcd3396ac731916e67a80c509f0", "fusion_lat": 0.0, "is_disabled": 0, "fusion_lon": 0.0}, {"name": "ab77eeecceecf52911acbef0ac784f75", "is_reserved": 0, "type": "electric_scooter", "rental_uris": {"ios": "https://dc.lft.to/lastmile_qr_scan", "android": "https://dc.lft.to/lastmile_qr_scan"}, "lat": 38.899792833333336, "lon": -77.03085316666666, "bike_id": "ab77eeecceecf52911acbef0ac784f75", "fusion_lat": 0.0, "is_disabled": 0, "fusion_lon": 0.0}, {"name": "2a3669fcb717df0531be95507984c63c", "is_reserved": 0, "type": "electric_scooter", "rental_uris": {"ios": "https://dc.lft.to/lastmile_qr_scan", "android": "https://dc.lft.to/lastmile_qr_scan"}, "lat": 38.9242175, "lon": -77.03907416666667, "bike_id": "2a3669fcb717df0531be95507984c63c", "fusion_lat": 0.0, "is_disabled": 0, "fusion_lon": 0.0}, {"name": "d1d47f7712844e68f6a4dca66b4b620e", "is_reserved": 0, "type": "electric_scooter", "rental_uris": {"ios": "https://dc.lft.to/lastmile_qr_scan", "android": "https://dc.lft.to/lastmile_qr_scan"}, "lat": 38.832688166666664, "lon": -77.00634433333333, "bike_id": "d1d47f7712844e68f6a4dca66b4b620e", "fusion_lat": 0.0, "is_disabled": 0, "fusion_lon": 0.0}, {"name": "c456713314c84d9640bc093af7aad121", "is_reserved": 0, "type": "electric_scooter", "rental_uris": {"ios": "https://dc.lft.to/lastmile_qr_scan", "android": "https://dc.lft.to/lastmile_qr_scan"}, "lat": 38.900396, "lon": -77.04682016666666, "bike_id": "c456713314c84d9640bc093af7aad121", "fusion_lat": 0.0, "is_disabled": 0, "fusion_lon": 0.0}, {"name": "1083a779d75c306e1c36d65f2e30277d", "is_reserved": 0, "type": "electric_scooter", "rental_uris": {"ios": "https://dc.lft.to/lastmile_qr_scan", "android": "https://dc.lft.to/lastmile_qr_scan"}, "lat": 38.92421216666666, "lon": -77.04557083333333, "bike_id": "1083a779d75c306e1c36d65f2e30277d", "fusion_lat": 0.0, "is_disabled": 0, "fusion_lon": 0.0}, {"name": "3954a4bc6d2e2198ff84277b0aa0048e", "is_reserved": 0, "type": "electric_scooter", "rental_uris": {"ios": "https://dc.lft.to/lastmile_qr_scan", "android": "https://dc.lft.to/lastmile_qr_scan"}, "lat": 38.909676, "lon": -77.046555, "bike_id": "3954a4bc6d2e2198ff84277b0aa0048e", "fusion_lat": 0.0, "is_disabled": 0, "fusion_lon": 0.0}, {"name": "4072bd8522eb97d948a02624ba101663", "is_reserved": 0, "type": "electric_scooter", "rental_uris": {"ios": "https://dc.lft.to/lastmile_qr_scan", "android": "https://dc.lft.to/lastmile_qr_scan"}, "lat": 38.90940916666667, "lon": -77.02298266666666, "bike_id": "4072bd8522eb97d948a02624ba101663", "fusion_lat": 0.0, "is_disabled": 0, "fusion_lon": 0.0}, {"name": "362f7ece567046c9c4858b6666defeda", "is_reserved": 0, "type": "electric_scooter", "rental_uris": {"ios": "https://dc.lft.to/lastmile_qr_scan", "android": "https://dc.lft.to/lastmile_qr_scan"}, "lat": 38.921228, "lon": -77.01209666666666, "bike_id": "362f7ece567046c9c4858b6666defeda", "fusion_lat": 0.0, "is_disabled": 0, "fusion_lon": 0.0}, {"name": "d01e7bc801f479d86275f27102943a66", "is_reserved": 0, "type": "electric_scooter", "rental_uris": {"ios": "https://dc.lft.to/lastmile_qr_scan", "android": "https://dc.lft.to/lastmile_qr_scan"}, "lat": 38.894074, "lon": -77.021484, "bike_id": "d01e7bc801f479d86275f27102943a66", "fusion_lat": 0.0, "is_disabled": 0, "fusion_lon": 0.0}, {"name": "4423c904cd8153dd3b1587ff04c0e9ac", "is_reserved": 0, "type": "electric_scooter", "rental_uris": {"ios": "https://dc.lft.to/lastmile_qr_scan", "android": "https://dc.lft.to/lastmile_qr_scan"}, "lat": 38.88044333333333, "lon": -77.01136933333333, "bike_id": "4423c904cd8153dd3b1587ff04c0e9ac", "fusion_lat": 0.0, "is_disabled": 0, "fusion_lon": 0.0}, {"name": "448b9b4ec57442321ee9bf126dcae3b8", "is_reserved": 0, "type": "electric_scooter", "rental_uris": {"ios": "https://dc.lft.to/lastmile_qr_scan", "android": "https://dc.lft.to/lastmile_qr_scan"}, "lat": 38.919185, "lon": -77.04812933333334, "bike_id": "448b9b4ec57442321ee9bf126dcae3b8", "fusion_lat": 0.0, "is_disabled": 0, "fusion_lon": 0.0}, {"name": "9f9b36d27306b60df8cbd7f05d4aa1d0", "is_reserved": 0, "type": "electric_scooter", "rental_uris": {"ios": "https://dc.lft.to/lastmile_qr_scan", "android": "https://dc.lft.to/lastmile_qr_scan"}, "lat": 38.91700066666667, "lon": -77.02674633333334, "bike_id": "9f9b36d27306b60df8cbd7f05d4aa1d0", "fusion_lat": 0.0, "is_disabled": 0, "fusion_lon": 0.0}, {"name": "894162216a3777c2beb4adb815991e31", "is_reserved": 0, "type": "electric_scooter", "rental_uris": {"ios": "https://dc.lft.to/lastmile_qr_scan", "android": "https://dc.lft.to/lastmile_qr_scan"}, "lat": 38.876668, "lon": -77.00068616666667, "bike_id": "894162216a3777c2beb4adb815991e31", "fusion_lat": 0.0, "is_disabled": 0, "fusion_lon": 0.0}, {"name": "0d338a4d211290ebfa84e85ac29f31ee", "is_reserved": 0, "type": "electric_scooter", "rental_uris": {"ios": "https://dc.lft.to/lastmile_qr_scan", "android": "https://dc.lft.to/lastmile_qr_scan"}, "lat": 38.91761283333334, "lon": -77.0398785, "bike_id": "0d338a4d211290ebfa84e85ac29f31ee", "fusion_lat": 0.0, "is_disabled": 0, "fusion_lon": 0.0}, {"name": "bd93a9d9ac28d0a317151d0ed17a2984", "is_reserved": 0, "type": "electric_scooter", "rental_uris": {"ios": "https://dc.lft.to/lastmile_qr_scan", "android": "https://dc.lft.to/lastmile_qr_scan"}, "lat": 38.908654, "lon": -76.9996445, "bike_id": "bd93a9d9ac28d0a317151d0ed17a2984", "fusion_lat": 0.0, "is_disabled": 0, "fusion_lon": 0.0}, {"name": "ab791c934100c120693465a43e9e84aa", "is_reserved": 0, "type": "electric_scooter", "rental_uris": {"ios": "https://dc.lft.to/lastmile_qr_scan", "android": "https://dc.lft.to/lastmile_qr_scan"}, "lat": 38.9169195, "lon": -77.02599066666667, "bike_id": "ab791c934100c120693465a43e9e84aa", "fusion_lat": 0.0, "is_disabled": 0, "fusion_lon": 0.0}, {"name": "d9668c6d74050c36acd62395ac58c37f", "is_reserved": 0, "type": "electric_scooter", "rental_uris": {"ios": "https://dc.lft.to/lastmile_qr_scan", "android": "https://dc.lft.to/lastmile_qr_scan"}, "lat": 38.9041745, "lon": -77.00613083333333, "bike_id": "d9668c6d74050c36acd62395ac58c37f", "fusion_lat": 0.0, "is_disabled": 0, "fusion_lon": 0.0}, {"name": "452689d98e27e728f701ce33ac9073dc", "is_reserved": 0, "type": "electric_scooter", "rental_uris": {"ios": "https://dc.lft.to/lastmile_qr_scan", "android": "https://dc.lft.to/lastmile_qr_scan"}, "lat": 38.892487833333334, "lon": -77.03346483333333, "bike_id": "452689d98e27e728f701ce33ac9073dc", "fusion_lat": 0.0, "is_disabled": 0, "fusion_lon": 0.0}, {"name": "cc18d975af1d32cb6ca97f1b0b0e3481", "is_reserved": 0, "type": "electric_scooter", "rental_uris": {"ios": "https://dc.lft.to/lastmile_qr_scan", "android": "https://dc.lft.to/lastmile_qr_scan"}, "lat": 38.923328833333336, "lon": -77.0269225, "bike_id": "cc18d975af1d32cb6ca97f1b0b0e3481", "fusion_lat": 0.0, "is_disabled": 0, "fusion_lon": 0.0}, {"name": "be9e0013dcede7eb35b417856f35f149", "is_reserved": 0, "type": "electric_scooter", "rental_uris": {"ios": "https://dc.lft.to/lastmile_qr_scan", "android": "https://dc.lft.to/lastmile_qr_scan"}, "lat": 38.896149666666666, "lon": -77.03134883333334, "bike_id": "be9e0013dcede7eb35b417856f35f149", "fusion_lat": 0.0, "is_disabled": 0, "fusion_lon": 0.0}, {"name": "766d85b57a1130f487573da6bf625bde", "is_reserved": 0, "type": "electric_scooter", "rental_uris": {"ios": "https://dc.lft.to/lastmile_qr_scan", "android": "https://dc.lft.to/lastmile_qr_scan"}, "lat": 38.91127683333333, "lon": -77.02203, "bike_id": "766d85b57a1130f487573da6bf625bde", "fusion_lat": 0.0, "is_disabled": 0, "fusion_lon": 0.0}, {"name": "4dfe20fa586f6694b6a54c89ad19d521", "is_reserved": 0, "type": "electric_bike", "rental_uris": {"ios": "https://dc.lft.to/lastmile_qr_scan", "android": "https://dc.lft.to/lastmile_qr_scan"}, "lat": 38.956314, "lon": -76.93890083333334, "bike_id": "4dfe20fa586f6694b6a54c89ad19d521", "fusion_lat": 0.0, "is_disabled": 0, "fusion_lon": 0.0}, {"name": "832fbe36106259865d0668da657c27e6", "is_reserved": 0, "type": "electric_bike", "rental_uris": {"ios": "https://dc.lft.to/lastmile_qr_scan", "android": "https://dc.lft.to/lastmile_qr_scan"}, "lat": 38.853551, "lon": -77.13468233333333, "bike_id": "832fbe36106259865d0668da657c27e6", "fusion_lat": 0.0, "is_disabled": 0, "fusion_lon": 0.0}, {"name": "1d68143bc57b0c027d4fa0134555b3a3", "is_reserved": 0, "type": "electric_scooter", "rental_uris": {"ios": "https://dc.lft.to/lastmile_qr_scan", "android": "https://dc.lft.to/lastmile_qr_scan"}, "lat": 38.8973675, "lon": -77.0037355, "bike_id": "1d68143bc57b0c027d4fa0134555b3a3", "fusion_lat": 0.0, "is_disabled": 0, "fusion_lon": 0.0}, {"name": "b7efe8d41d0ac5db4a03148e55a220fe", "is_reserved": 0, "type": "electric_scooter", "rental_uris": {"ios": "https://dc.lft.to/lastmile_qr_scan", "android": "https://dc.lft.to/lastmile_qr_scan"}, "lat": 38.909184333333336, "lon": -77.03180666666667, "bike_id": "b7efe8d41d0ac5db4a03148e55a220fe", "fusion_lat": 0.0, "is_disabled": 0, "fusion_lon": 0.0}, {"name": "fe0840121e217595de064856ae3e7c99", "is_reserved": 0, "type": "electric_scooter", "rental_uris": {"ios": "https://dc.lft.to/lastmile_qr_scan", "android": "https://dc.lft.to/lastmile_qr_scan"}, "lat": 38.950592, "lon": -76.99419333333333, "bike_id": "fe0840121e217595de064856ae3e7c99", "fusion_lat": 0.0, "is_disabled": 0, "fusion_lon": 0.0}, {"name": "6a5240b7e3219022bf9515d2e0d2db68", "is_reserved": 0, "type": "electric_scooter", "rental_uris": {"ios": "https://dc.lft.to/lastmile_qr_scan", "android": "https://dc.lft.to/lastmile_qr_scan"}, "lat": 38.924005, "lon": -77.04452833333333, "bike_id": "6a5240b7e3219022bf9515d2e0d2db68", "fusion_lat": 0.0, "is_disabled": 0, "fusion_lon": 0.0}, {"name": "d7de9b43ee997c0bc6069b0dbf1eeadc", "is_reserved": 0, "type": "electric_scooter", "rental_uris": {"ios": "https://dc.lft.to/lastmile_qr_scan", "android": "https://dc.lft.to/lastmile_qr_scan"}, "lat": 38.91105783333333, "lon": -77.02724616666667, "bike_id": "d7de9b43ee997c0bc6069b0dbf1eeadc", "fusion_lat": 0.0, "is_disabled": 0, "fusion_lon": 0.0}, {"name": "d07bc41a9f21d2e48285714d047e2264", "is_reserved": 0, "type": "electric_scooter", "rental_uris": {"ios": "https://dc.lft.to/lastmile_qr_scan", "android": "https://dc.lft.to/lastmile_qr_scan"}, "lat": 38.9232605, "lon": -77.046243, "bike_id": "d07bc41a9f21d2e48285714d047e2264", "fusion_lat": 0.0, "is_disabled": 0, "fusion_lon": 0.0}, {"name": "a2ce08fb9db97496533bf739ae32ca57", "is_reserved": 0, "type": "electric_scooter", "rental_uris": {"ios": "https://dc.lft.to/lastmile_qr_scan", "android": "https://dc.lft.to/lastmile_qr_scan"}, "lat": 38.8999205, "lon": -77.03359583333334, "bike_id": "a2ce08fb9db97496533bf739ae32ca57", "fusion_lat": 0.0, "is_disabled": 0, "fusion_lon": 0.0}, {"name": "aa69b141d7fe9058b7318d37cc87ff26", "is_reserved": 0, "type": "electric_scooter", "rental_uris": {"ios": "https://dc.lft.to/lastmile_qr_scan", "android": "https://dc.lft.to/lastmile_qr_scan"}, "lat": 38.911347, "lon": -77.04418783333334, "bike_id": "aa69b141d7fe9058b7318d37cc87ff26", "fusion_lat": 0.0, "is_disabled": 0, "fusion_lon": 0.0}, {"name": "590060d5adeb582426d8354cd83436e6", "is_reserved": 0, "type": "electric_scooter", "rental_uris": {"ios": "https://dc.lft.to/lastmile_qr_scan", "android": "https://dc.lft.to/lastmile_qr_scan"}, "lat": 38.9157545, "lon": -77.03185233333333, "bike_id": "590060d5adeb582426d8354cd83436e6", "fusion_lat": 0.0, "is_disabled": 0, "fusion_lon": 0.0}, {"name": "c5a56c6e9d672214a034473b2603a43e", "is_reserved": 0, "type": "electric_scooter", "rental_uris": {"ios": "https://dc.lft.to/lastmile_qr_scan", "android": "https://dc.lft.to/lastmile_qr_scan"}, "lat": 38.927935, "lon": -77.0541365, "bike_id": "c5a56c6e9d672214a034473b2603a43e", "fusion_lat": 0.0, "is_disabled": 0, "fusion_lon": 0.0}, {"name": "0e46a6797b6feac06ae001a244e4b945", "is_reserved": 0, "type": "electric_scooter", "rental_uris": {"ios": "https://dc.lft.to/lastmile_qr_scan", "android": "https://dc.lft.to/lastmile_qr_scan"}, "lat": 38.943070166666665, "lon": -77.05931933333333, "bike_id": "0e46a6797b6feac06ae001a244e4b945", "fusion_lat": 0.0, "is_disabled": 0, "fusion_lon": 0.0}, {"name": "71b1b8f55bec9da9515760d639044f3b", "is_reserved": 0, "type": "electric_scooter", "rental_uris": {"ios": "https://dc.lft.to/lastmile_qr_scan", "android": "https://dc.lft.to/lastmile_qr_scan"}, "lat": 38.887199833333334, "lon": -77.0198455, "bike_id": "71b1b8f55bec9da9515760d639044f3b", "fusion_lat": 0.0, "is_disabled": 0, "fusion_lon": 0.0}, {"name": "d963d71774b0a4d5051d2a0c41ccd0fd", "is_reserved": 0, "type": "electric_scooter", "rental_uris": {"ios": "https://dc.lft.to/lastmile_qr_scan", "android": "https://dc.lft.to/lastmile_qr_scan"}, "lat": 38.9169035, "lon": -77.03439116666667, "bike_id": "d963d71774b0a4d5051d2a0c41ccd0fd", "fusion_lat": 0.0, "is_disabled": 0, "fusion_lon": 0.0}, {"name": "cd34ef8f7403ba7232c4067aeccd1f5b", "is_reserved": 0, "type": "electric_scooter", "rental_uris": {"ios": "https://dc.lft.to/lastmile_qr_scan", "android": "https://dc.lft.to/lastmile_qr_scan"}, "lat": 38.886529833333334, "lon": -77.01528366666666, "bike_id": "cd34ef8f7403ba7232c4067aeccd1f5b", "fusion_lat": 0.0, "is_disabled": 0, "fusion_lon": 0.0}, {"name": "3d041907fd621dd9b8b6316999c1ca36", "is_reserved": 0, "type": "electric_scooter", "rental_uris": {"ios": "https://dc.lft.to/lastmile_qr_scan", "android": "https://dc.lft.to/lastmile_qr_scan"}, "lat": 38.897369, "lon": -77.0242055, "bike_id": "3d041907fd621dd9b8b6316999c1ca36", "fusion_lat": 0.0, "is_disabled": 0, "fusion_lon": 0.0}, {"name": "36900f01ebd59acc8479b67e0a94f35f", "is_reserved": 0, "type": "electric_scooter", "rental_uris": {"ios": "https://dc.lft.to/lastmile_qr_scan", "android": "https://dc.lft.to/lastmile_qr_scan"}, "lat": 38.863257, "lon": -76.99158333333334, "bike_id": "36900f01ebd59acc8479b67e0a94f35f", "fusion_lat": 0.0, "is_disabled": 0, "fusion_lon": 0.0}, {"name": "dfdd4f915ba7b97cfe5ff53d96d3748f", "is_reserved": 0, "type": "electric_scooter", "rental_uris": {"ios": "https://dc.lft.to/lastmile_qr_scan", "android": "https://dc.lft.to/lastmile_qr_scan"}, "lat": 38.9367565, "lon": -77.03592383333333, "bike_id": "dfdd4f915ba7b97cfe5ff53d96d3748f", "fusion_lat": 0.0, "is_disabled": 0, "fusion_lon": 0.0}, {"name": "b71520ca2d090958336c0f932cfa44fd", "is_reserved": 0, "type": "electric_scooter", "rental_uris": {"ios": "https://dc.lft.to/lastmile_qr_scan", "android": "https://dc.lft.to/lastmile_qr_scan"}, "lat": 38.930879166666664, "lon": -77.02789433333334, "bike_id": "b71520ca2d090958336c0f932cfa44fd", "fusion_lat": 0.0, "is_disabled": 0, "fusion_lon": 0.0}, {"name": "155ad03f994e3aa026f16d7b94e6824c", "is_reserved": 0, "type": "electric_scooter", "rental_uris": {"ios": "https://dc.lft.to/lastmile_qr_scan", "android": "https://dc.lft.to/lastmile_qr_scan"}, "lat": 38.91784366666667, "lon": -77.0321755, "bike_id": "155ad03f994e3aa026f16d7b94e6824c", "fusion_lat": 0.0, "is_disabled": 0, "fusion_lon": 0.0}, {"name": "bdb4b4f7bfb185ea5fe6495a8b0946a7", "is_reserved": 0, "type": "electric_scooter", "rental_uris": {"ios": "https://dc.lft.to/lastmile_qr_scan", "android": "https://dc.lft.to/lastmile_qr_scan"}, "lat": 38.946169166666664, "lon": -77.02350133333333, "bike_id": "bdb4b4f7bfb185ea5fe6495a8b0946a7", "fusion_lat": 0.0, "is_disabled": 0, "fusion_lon": 0.0}, {"name": "79f1580dab5618e4549de4b372af8b60", "is_reserved": 0, "type": "electric_scooter", "rental_uris": {"ios": "https://dc.lft.to/lastmile_qr_scan", "android": "https://dc.lft.to/lastmile_qr_scan"}, "lat": 38.872446833333335, "lon": -76.97729466666667, "bike_id": "79f1580dab5618e4549de4b372af8b60", "fusion_lat": 0.0, "is_disabled": 0, "fusion_lon": 0.0}, {"name": "0f83fc4b9cfb538c8a0e13c916d7f99c", "is_reserved": 0, "type": "electric_scooter", "rental_uris": {"ios": "https://dc.lft.to/lastmile_qr_scan", "android": "https://dc.lft.to/lastmile_qr_scan"}, "lat": 38.9257475, "lon": -77.02141083333333, "bike_id": "0f83fc4b9cfb538c8a0e13c916d7f99c", "fusion_lat": 0.0, "is_disabled": 0, "fusion_lon": 0.0}, {"name": "3d99b9351d509bbc8f840767d2e79651", "is_reserved": 0, "type": "electric_scooter", "rental_uris": {"ios": "https://dc.lft.to/lastmile_qr_scan", "android": "https://dc.lft.to/lastmile_qr_scan"}, "lat": 38.8635595, "lon": -76.9906245, "bike_id": "3d99b9351d509bbc8f840767d2e79651", "fusion_lat": 0.0, "is_disabled": 0, "fusion_lon": 0.0}, {"name": "a82cd5ec96124031d73ca9475a3d1cc7", "is_reserved": 0, "type": "electric_scooter", "rental_uris": {"ios": "https://dc.lft.to/lastmile_qr_scan", "android": "https://dc.lft.to/lastmile_qr_scan"}, "lat": 38.930683, "lon": -77.0238555, "bike_id": "a82cd5ec96124031d73ca9475a3d1cc7", "fusion_lat": 0.0, "is_disabled": 0, "fusion_lon": 0.0}, {"name": "d12685fb6e29ece342ec965ee3f8c76c", "is_reserved": 0, "type": "electric_scooter", "rental_uris": {"ios": "https://dc.lft.to/lastmile_qr_scan", "android": "https://dc.lft.to/lastmile_qr_scan"}, "lat": 38.87659266666667, "lon": -77.004641, "bike_id": "d12685fb6e29ece342ec965ee3f8c76c", "fusion_lat": 0.0, "is_disabled": 0, "fusion_lon": 0.0}, {"name": "f597a83cc77a258eb1acb4fb2fb7286f", "is_reserved": 0, "type": "electric_scooter", "rental_uris": {"ios": "https://dc.lft.to/lastmile_qr_scan", "android": "https://dc.lft.to/lastmile_qr_scan"}, "lat": 38.92158383333334, "lon": -77.02099383333334, "bike_id": "f597a83cc77a258eb1acb4fb2fb7286f", "fusion_lat": 0.0, "is_disabled": 0, "fusion_lon": 0.0}, {"name": "54d859c5104f16e732758ef698022364", "is_reserved": 0, "type": "electric_scooter", "rental_uris": {"ios": "https://dc.lft.to/lastmile_qr_scan", "android": "https://dc.lft.to/lastmile_qr_scan"}, "lat": 38.921736, "lon": -77.044318, "bike_id": "54d859c5104f16e732758ef698022364", "fusion_lat": 0.0, "is_disabled": 0, "fusion_lon": 0.0}, {"name": "511fed85a3fc4389a25a1ac9a352ac29", "is_reserved": 0, "type": "electric_scooter", "rental_uris": {"ios": "https://dc.lft.to/lastmile_qr_scan", "android": "https://dc.lft.to/lastmile_qr_scan"}, "lat": 38.94695166666666, "lon": -76.99922983333333, "bike_id": "511fed85a3fc4389a25a1ac9a352ac29", "fusion_lat": 0.0, "is_disabled": 0, "fusion_lon": 0.0}, {"name": "08da184eb5394bfc1d0c2d809818bd64", "is_reserved": 0, "type": "electric_bike", "rental_uris": {"ios": "https://dc.lft.to/lastmile_qr_scan", "android": "https://dc.lft.to/lastmile_qr_scan"}, "lat": 38.805799, "lon": -77.06866066666667, "bike_id": "08da184eb5394bfc1d0c2d809818bd64", "fusion_lat": 0.0, "is_disabled": 0, "fusion_lon": 0.0}, {"name": "6d908ac5c387e7c7d1f26a4f9e82781e", "is_reserved": 0, "type": "electric_scooter", "rental_uris": {"ios": "https://dc.lft.to/lastmile_qr_scan", "android": "https://dc.lft.to/lastmile_qr_scan"}, "lat": 38.890163666666666, "lon": -76.9373045, "bike_id": "6d908ac5c387e7c7d1f26a4f9e82781e", "fusion_lat": 0.0, "is_disabled": 0, "fusion_lon": 0.0}, {"name": "0166723cd7d9ce669e15af43e1159f5c", "is_reserved": 0, "type": "electric_scooter", "rental_uris": {"ios": "https://dc.lft.to/lastmile_qr_scan", "android": "https://dc.lft.to/lastmile_qr_scan"}, "lat": 38.9127515, "lon": -77.03319566666667, "bike_id": "0166723cd7d9ce669e15af43e1159f5c", "fusion_lat": 0.0, "is_disabled": 0, "fusion_lon": 0.0}, {"name": "290844f6543af7415a9224bdc14fb809", "is_reserved": 0, "type": "electric_scooter", "rental_uris": {"ios": "https://dc.lft.to/lastmile_qr_scan", "android": "https://dc.lft.to/lastmile_qr_scan"}, "lat": 38.940900166666665, "lon": -77.02732866666666, "bike_id": "290844f6543af7415a9224bdc14fb809", "fusion_lat": 0.0, "is_disabled": 0, "fusion_lon": 0.0}, {"name": "88e8bb60202a5e4153de7a86199f496e", "is_reserved": 0, "type": "electric_scooter", "rental_uris": {"ios": "https://dc.lft.to/lastmile_qr_scan", "android": "https://dc.lft.to/lastmile_qr_scan"}, "lat": 38.909734666666665, "lon": -77.04625033333333, "bike_id": "88e8bb60202a5e4153de7a86199f496e", "fusion_lat": 0.0, "is_disabled": 0, "fusion_lon": 0.0}, {"name": "2dfb1136cc49435d995979318cce22a0", "is_reserved": 0, "type": "electric_scooter", "rental_uris": {"ios": "https://dc.lft.to/lastmile_qr_scan", "android": "https://dc.lft.to/lastmile_qr_scan"}, "lat": 38.917322166666665, "lon": -77.0344865, "bike_id": "2dfb1136cc49435d995979318cce22a0", "fusion_lat": 0.0, "is_disabled": 0, "fusion_lon": 0.0}, {"name": "723b83b3e5a9ce81211e91b06d591901", "is_reserved": 0, "type": "electric_scooter", "rental_uris": {"ios": "https://dc.lft.to/lastmile_qr_scan", "android": "https://dc.lft.to/lastmile_qr_scan"}, "lat": 38.9182075, "lon": -77.0256105, "bike_id": "723b83b3e5a9ce81211e91b06d591901", "fusion_lat": 0.0, "is_disabled": 0, "fusion_lon": 0.0}, {"name": "0b236f0741ecc5629fa75e44525fda9c", "is_reserved": 0, "type": "electric_bike", "rental_uris": {"ios": "https://dc.lft.to/lastmile_qr_scan", "android": "https://dc.lft.to/lastmile_qr_scan"}, "lat": 38.945504166666666, "lon": -76.89546433333334, "bike_id": "0b236f0741ecc5629fa75e44525fda9c", "fusion_lat": 0.0, "is_disabled": 0, "fusion_lon": 0.0}, {"name": "faad97dd6bf4b4dc2468335baa8d1376", "is_reserved": 0, "type": "electric_scooter", "rental_uris": {"ios": "https://dc.lft.to/lastmile_qr_scan", "android": "https://dc.lft.to/lastmile_qr_scan"}, "lat": 38.89231316666667, "lon": -77.01534166666667, "bike_id": "faad97dd6bf4b4dc2468335baa8d1376", "fusion_lat": 0.0, "is_disabled": 0, "fusion_lon": 0.0}, {"name": "6a5eadc1499a6eb520dbf3c7c45aad47", "is_reserved": 0, "type": "electric_scooter", "rental_uris": {"ios": "https://dc.lft.to/lastmile_qr_scan", "android": "https://dc.lft.to/lastmile_qr_scan"}, "lat": 38.90397333333333, "lon": -77.04574216666667, "bike_id": "6a5eadc1499a6eb520dbf3c7c45aad47", "fusion_lat": 0.0, "is_disabled": 0, "fusion_lon": 0.0}, {"name": "28f3b456a777d4856c000c3f2a7745b3", "is_reserved": 0, "type": "electric_scooter", "rental_uris": {"ios": "https://dc.lft.to/lastmile_qr_scan", "android": "https://dc.lft.to/lastmile_qr_scan"}, "lat": 38.94420916666667, "lon": -77.06333033333334, "bike_id": "28f3b456a777d4856c000c3f2a7745b3", "fusion_lat": 0.0, "is_disabled": 0, "fusion_lon": 0.0}, {"name": "0c84e9a39cf82ce9fc37957650bab389", "is_reserved": 0, "type": "electric_scooter", "rental_uris": {"ios": "https://dc.lft.to/lastmile_qr_scan", "android": "https://dc.lft.to/lastmile_qr_scan"}, "lat": 38.897855, "lon": -77.01097433333334, "bike_id": "0c84e9a39cf82ce9fc37957650bab389", "fusion_lat": 0.0, "is_disabled": 0, "fusion_lon": 0.0}, {"name": "029b2d87fdba5812222ee8b15f219030", "is_reserved": 0, "type": "electric_scooter", "rental_uris": {"ios": "https://dc.lft.to/lastmile_qr_scan", "android": "https://dc.lft.to/lastmile_qr_scan"}, "lat": 38.915876833333336, "lon": -77.03183716666666, "bike_id": "029b2d87fdba5812222ee8b15f219030", "fusion_lat": 0.0, "is_disabled": 0, "fusion_lon": 0.0}, {"name": "5a34d07fa5a9cc1fe115758ab2695f9d", "is_reserved": 0, "type": "electric_scooter", "rental_uris": {"ios": "https://dc.lft.to/lastmile_qr_scan", "android": "https://dc.lft.to/lastmile_qr_scan"}, "lat": 38.902811, "lon": -77.04524, "bike_id": "5a34d07fa5a9cc1fe115758ab2695f9d", "fusion_lat": 0.0, "is_disabled": 0, "fusion_lon": 0.0}, {"name": "094adcdb549044361f770dde17f9dba2", "is_reserved": 0, "type": "electric_scooter", "rental_uris": {"ios": "https://dc.lft.to/lastmile_qr_scan", "android": "https://dc.lft.to/lastmile_qr_scan"}, "lat": 38.89345516666667, "lon": -76.991487, "bike_id": "094adcdb549044361f770dde17f9dba2", "fusion_lat": 0.0, "is_disabled": 0, "fusion_lon": 0.0}, {"name": "fafecc9221da36e55c83cd258fdc9c46", "is_reserved": 0, "type": "electric_scooter", "rental_uris": {"ios": "https://dc.lft.to/lastmile_qr_scan", "android": "https://dc.lft.to/lastmile_qr_scan"}, "lat": 38.93971, "lon": -77.03256266666666, "bike_id": "fafecc9221da36e55c83cd258fdc9c46", "fusion_lat": 0.0, "is_disabled": 0, "fusion_lon": 0.0}, {"name": "a1939424d6925212b18aeca33662e0e4", "is_reserved": 0, "type": "electric_bike", "rental_uris": {"ios": "https://dc.lft.to/lastmile_qr_scan", "android": "https://dc.lft.to/lastmile_qr_scan"}, "lat": 38.94889933333333, "lon": -77.0150435, "bike_id": "a1939424d6925212b18aeca33662e0e4", "fusion_lat": 0.0, "is_disabled": 0, "fusion_lon": 0.0}, {"name": "498b4c7f8d0c3078614f996fcceedfed", "is_reserved": 0, "type": "electric_scooter", "rental_uris": {"ios": "https://dc.lft.to/lastmile_qr_scan", "android": "https://dc.lft.to/lastmile_qr_scan"}, "lat": 38.8874715, "lon": -77.022314, "bike_id": "498b4c7f8d0c3078614f996fcceedfed", "fusion_lat": 0.0, "is_disabled": 0, "fusion_lon": 0.0}, {"name": "273e6437c68eaff3a289b499c4b42ab4", "is_reserved": 0, "type": "electric_scooter", "rental_uris": {"ios": "https://dc.lft.to/lastmile_qr_scan", "android": "https://dc.lft.to/lastmile_qr_scan"}, "lat": 38.933918, "lon": -77.05741883333333, "bike_id": "273e6437c68eaff3a289b499c4b42ab4", "fusion_lat": 0.0, "is_disabled": 0, "fusion_lon": 0.0}, {"name": "2efff1406f2cb3dba8d512b65174a869", "is_reserved": 0, "type": "electric_scooter", "rental_uris": {"ios": "https://dc.lft.to/lastmile_qr_scan", "android": "https://dc.lft.to/lastmile_qr_scan"}, "lat": 38.91942916666667, "lon": -77.03437216666667, "bike_id": "2efff1406f2cb3dba8d512b65174a869", "fusion_lat": 0.0, "is_disabled": 0, "fusion_lon": 0.0}, {"name": "574c149966973f029e238a1594eed183", "is_reserved": 0, "type": "electric_bike", "rental_uris": {"ios": "https://dc.lft.to/lastmile_qr_scan", "android": "https://dc.lft.to/lastmile_qr_scan"}, "lat": 38.84440983333333, "lon": -77.08588316666666, "bike_id": "574c149966973f029e238a1594eed183", "fusion_lat": 0.0, "is_disabled": 0, "fusion_lon": 0.0}, {"name": "f6d53e8fb08b5c32a9a247497a01d573", "is_reserved": 0, "type": "electric_scooter", "rental_uris": {"ios": "https://dc.lft.to/lastmile_qr_scan", "android": "https://dc.lft.to/lastmile_qr_scan"}, "lat": 38.92153833333333, "lon": -77.03487283333334, "bike_id": "f6d53e8fb08b5c32a9a247497a01d573", "fusion_lat": 0.0, "is_disabled": 0, "fusion_lon": 0.0}, {"name": "6520b7e19a0e774b8c2f9c9380c883b1", "is_reserved": 0, "type": "electric_scooter", "rental_uris": {"ios": "https://dc.lft.to/lastmile_qr_scan", "android": "https://dc.lft.to/lastmile_qr_scan"}, "lat": 38.90957216666666, "lon": -77.02310683333333, "bike_id": "6520b7e19a0e774b8c2f9c9380c883b1", "fusion_lat": 0.0, "is_disabled": 0, "fusion_lon": 0.0}, {"name": "3ef5942f4361775e6623f2af42d68eb8", "is_reserved": 0, "type": "electric_scooter", "rental_uris": {"ios": "https://dc.lft.to/lastmile_qr_scan", "android": "https://dc.lft.to/lastmile_qr_scan"}, "lat": 38.923278333333336, "lon": -77.0430775, "bike_id": "3ef5942f4361775e6623f2af42d68eb8", "fusion_lat": 0.0, "is_disabled": 0, "fusion_lon": 0.0}, {"name": "af4814a65563dda1ca0aa71dd7b50b05", "is_reserved": 0, "type": "electric_bike", "rental_uris": {"ios": "https://dc.lft.to/lastmile_qr_scan", "android": "https://dc.lft.to/lastmile_qr_scan"}, "lat": 38.9490635, "lon": -76.97235333333333, "bike_id": "af4814a65563dda1ca0aa71dd7b50b05", "fusion_lat": 0.0, "is_disabled": 0, "fusion_lon": 0.0}, {"name": "b1f4be13e5ebac4b02f2b7b429efb1b1", "is_reserved": 0, "type": "electric_scooter", "rental_uris": {"ios": "https://dc.lft.to/lastmile_qr_scan", "android": "https://dc.lft.to/lastmile_qr_scan"}, "lat": 38.91776866666667, "lon": -76.97329383333333, "bike_id": "b1f4be13e5ebac4b02f2b7b429efb1b1", "fusion_lat": 0.0, "is_disabled": 0, "fusion_lon": 0.0}, {"name": "fa2ac52fb42faf3f5e1ad1215e00549c", "is_reserved": 0, "type": "electric_scooter", "rental_uris": {"ios": "https://dc.lft.to/lastmile_qr_scan", "android": "https://dc.lft.to/lastmile_qr_scan"}, "lat": 38.903165333333334, "lon": -77.0434435, "bike_id": "fa2ac52fb42faf3f5e1ad1215e00549c", "fusion_lat": 0.0, "is_disabled": 0, "fusion_lon": 0.0}, {"name": "5b078412dcd4782e59dd4d8112b7b90c", "is_reserved": 0, "type": "electric_scooter", "rental_uris": {"ios": "https://dc.lft.to/lastmile_qr_scan", "android": "https://dc.lft.to/lastmile_qr_scan"}, "lat": 38.91512783333334, "lon": -76.9849805, "bike_id": "5b078412dcd4782e59dd4d8112b7b90c", "fusion_lat": 0.0, "is_disabled": 0, "fusion_lon": 0.0}, {"name": "ca9a8700cdd63150b708e41c9524cddf", "is_reserved": 0, "type": "electric_scooter", "rental_uris": {"ios": "https://dc.lft.to/lastmile_qr_scan", "android": "https://dc.lft.to/lastmile_qr_scan"}, "lat": 38.90016033333333, "lon": -77.00677, "bike_id": "ca9a8700cdd63150b708e41c9524cddf", "fusion_lat": 0.0, "is_disabled": 0, "fusion_lon": 0.0}, {"name": "f7543806d31d5a8dfa166d259349d62b", "is_reserved": 0, "type": "electric_scooter", "rental_uris": {"ios": "https://dc.lft.to/lastmile_qr_scan", "android": "https://dc.lft.to/lastmile_qr_scan"}, "lat": 38.91556833333333, "lon": -77.0382805, "bike_id": "f7543806d31d5a8dfa166d259349d62b", "fusion_lat": 0.0, "is_disabled": 0, "fusion_lon": 0.0}, {"name": "607b8baafa3acd3edaa5f8b43a94424f", "is_reserved": 0, "type": "electric_scooter", "rental_uris": {"ios": "https://dc.lft.to/lastmile_qr_scan", "android": "https://dc.lft.to/lastmile_qr_scan"}, "lat": 38.931164333333335, "lon": -77.03609883333333, "bike_id": "607b8baafa3acd3edaa5f8b43a94424f", "fusion_lat": 0.0, "is_disabled": 0, "fusion_lon": 0.0}, {"name": "96b494349c0336511f2831f1ab7f3468", "is_reserved": 0, "type": "electric_scooter", "rental_uris": {"ios": "https://dc.lft.to/lastmile_qr_scan", "android": "https://dc.lft.to/lastmile_qr_scan"}, "lat": 38.90035116666667, "lon": -76.98766816666667, "bike_id": "96b494349c0336511f2831f1ab7f3468", "fusion_lat": 0.0, "is_disabled": 0, "fusion_lon": 0.0}, {"name": "7c61a7b55076d0a0fdb96d96c4431238", "is_reserved": 0, "type": "electric_scooter", "rental_uris": {"ios": "https://dc.lft.to/lastmile_qr_scan", "android": "https://dc.lft.to/lastmile_qr_scan"}, "lat": 38.90769, "lon": -77.05649116666666, "bike_id": "7c61a7b55076d0a0fdb96d96c4431238", "fusion_lat": 0.0, "is_disabled": 0, "fusion_lon": 0.0}, {"name": "e161747eae8b1575022e4d6a2b6e7f54", "is_reserved": 0, "type": "electric_bike", "rental_uris": {"ios": "https://dc.lft.to/lastmile_qr_scan", "android": "https://dc.lft.to/lastmile_qr_scan"}, "lat": 38.92471916666667, "lon": -77.20836616666666, "bike_id": "e161747eae8b1575022e4d6a2b6e7f54", "fusion_lat": 0.0, "is_disabled": 0, "fusion_lon": 0.0}, {"name": "b88f00007ff07f2005d3fe4f2aad755b", "is_reserved": 0, "type": "electric_scooter", "rental_uris": {"ios": "https://dc.lft.to/lastmile_qr_scan", "android": "https://dc.lft.to/lastmile_qr_scan"}, "lat": 38.92055533333333, "lon": -76.99884916666667, "bike_id": "b88f00007ff07f2005d3fe4f2aad755b", "fusion_lat": 0.0, "is_disabled": 0, "fusion_lon": 0.0}, {"name": "a4e52499ff18134eba4da78cb0149fdf", "is_reserved": 0, "type": "electric_scooter", "rental_uris": {"ios": "https://dc.lft.to/lastmile_qr_scan", "android": "https://dc.lft.to/lastmile_qr_scan"}, "lat": 38.935696166666666, "lon": -77.03737383333333, "bike_id": "a4e52499ff18134eba4da78cb0149fdf", "fusion_lat": 0.0, "is_disabled": 0, "fusion_lon": 0.0}, {"name": "5743fb6cd90c080afe32f1213350d7b7", "is_reserved": 0, "type": "electric_scooter", "rental_uris": {"ios": "https://dc.lft.to/lastmile_qr_scan", "android": "https://dc.lft.to/lastmile_qr_scan"}, "lat": 38.927043833333336, "lon": -77.0210775, "bike_id": "5743fb6cd90c080afe32f1213350d7b7", "fusion_lat": 0.0, "is_disabled": 0, "fusion_lon": 0.0}, {"name": "6b706df7ad2a5de35cd786f9178eed04", "is_reserved": 0, "type": "electric_scooter", "rental_uris": {"ios": "https://dc.lft.to/lastmile_qr_scan", "android": "https://dc.lft.to/lastmile_qr_scan"}, "lat": 38.91949233333333, "lon": -77.034342, "bike_id": "6b706df7ad2a5de35cd786f9178eed04", "fusion_lat": 0.0, "is_disabled": 0, "fusion_lon": 0.0}, {"name": "93c1e2218bfe2f2f78022d1d2d94b83f", "is_reserved": 0, "type": "electric_scooter", "rental_uris": {"ios": "https://dc.lft.to/lastmile_qr_scan", "android": "https://dc.lft.to/lastmile_qr_scan"}, "lat": 38.909584, "lon": -77.032716, "bike_id": "93c1e2218bfe2f2f78022d1d2d94b83f", "fusion_lat": 0.0, "is_disabled": 0, "fusion_lon": 0.0}, {"name": "0231673671b15f8c612fa6490be17a71", "is_reserved": 0, "type": "electric_scooter", "rental_uris": {"ios": "https://dc.lft.to/lastmile_qr_scan", "android": "https://dc.lft.to/lastmile_qr_scan"}, "lat": 38.89879416666667, "lon": -77.02173083333334, "bike_id": "0231673671b15f8c612fa6490be17a71", "fusion_lat": 0.0, "is_disabled": 0, "fusion_lon": 0.0}, {"name": "58377aa5328c13e848eac6c01402bb4b", "is_reserved": 0, "type": "electric_scooter", "rental_uris": {"ios": "https://dc.lft.to/lastmile_qr_scan", "android": "https://dc.lft.to/lastmile_qr_scan"}, "lat": 38.900886, "lon": -77.02965316666666, "bike_id": "58377aa5328c13e848eac6c01402bb4b", "fusion_lat": 0.0, "is_disabled": 0, "fusion_lon": 0.0}, {"name": "1d307ef49bebc6508e244aa851678c83", "is_reserved": 0, "type": "electric_scooter", "rental_uris": {"ios": "https://dc.lft.to/lastmile_qr_scan", "android": "https://dc.lft.to/lastmile_qr_scan"}, "lat": 38.903709166666665, "lon": -76.93746766666666, "bike_id": "1d307ef49bebc6508e244aa851678c83", "fusion_lat": 0.0, "is_disabled": 0, "fusion_lon": 0.0}, {"name": "903dad9d88dac4182059c8b011cbf359", "is_reserved": 0, "type": "electric_scooter", "rental_uris": {"ios": "https://dc.lft.to/lastmile_qr_scan", "android": "https://dc.lft.to/lastmile_qr_scan"}, "lat": 38.916986333333334, "lon": -77.02892266666667, "bike_id": "903dad9d88dac4182059c8b011cbf359", "fusion_lat": 0.0, "is_disabled": 0, "fusion_lon": 0.0}, {"name": "0e1ec0b412f16828346d08f6d439d6dc", "is_reserved": 0, "type": "electric_scooter", "rental_uris": {"ios": "https://dc.lft.to/lastmile_qr_scan", "android": "https://dc.lft.to/lastmile_qr_scan"}, "lat": 38.933584, "lon": -77.04124366666667, "bike_id": "0e1ec0b412f16828346d08f6d439d6dc", "fusion_lat": 0.0, "is_disabled": 0, "fusion_lon": 0.0}, {"name": "d789d45b63c6f44785971de60d2b0862", "is_reserved": 0, "type": "electric_scooter", "rental_uris": {"ios": "https://dc.lft.to/lastmile_qr_scan", "android": "https://dc.lft.to/lastmile_qr_scan"}, "lat": 38.921518, "lon": -77.03866266666667, "bike_id": "d789d45b63c6f44785971de60d2b0862", "fusion_lat": 0.0, "is_disabled": 0, "fusion_lon": 0.0}, {"name": "0deb5b20bafb0630636f8519c552d308", "is_reserved": 0, "type": "electric_scooter", "rental_uris": {"ios": "https://dc.lft.to/lastmile_qr_scan", "android": "https://dc.lft.to/lastmile_qr_scan"}, "lat": 38.877157, "lon": -76.96372066666666, "bike_id": "0deb5b20bafb0630636f8519c552d308", "fusion_lat": 0.0, "is_disabled": 0, "fusion_lon": 0.0}, {"name": "b6ca48805ada0a936c86e4bbf26337b9", "is_reserved": 0, "type": "electric_scooter", "rental_uris": {"ios": "https://dc.lft.to/lastmile_qr_scan", "android": "https://dc.lft.to/lastmile_qr_scan"}, "lat": 38.928605833333336, "lon": -77.02952133333334, "bike_id": "b6ca48805ada0a936c86e4bbf26337b9", "fusion_lat": 0.0, "is_disabled": 0, "fusion_lon": 0.0}, {"name": "7c9421cf3cf8f17b11c7bd8d20594c80", "is_reserved": 0, "type": "electric_scooter", "rental_uris": {"ios": "https://dc.lft.to/lastmile_qr_scan", "android": "https://dc.lft.to/lastmile_qr_scan"}, "lat": 38.91835966666667, "lon": -77.012129, "bike_id": "7c9421cf3cf8f17b11c7bd8d20594c80", "fusion_lat": 0.0, "is_disabled": 0, "fusion_lon": 0.0}, {"name": "2cc74f0044b8dcd118babedf359acfee", "is_reserved": 0, "type": "electric_scooter", "rental_uris": {"ios": "https://dc.lft.to/lastmile_qr_scan", "android": "https://dc.lft.to/lastmile_qr_scan"}, "lat": 38.919737833333336, "lon": -77.01219883333333, "bike_id": "2cc74f0044b8dcd118babedf359acfee", "fusion_lat": 0.0, "is_disabled": 0, "fusion_lon": 0.0}, {"name": "ddc1377a3d6f5fed0368d8336a0af84e", "is_reserved": 0, "type": "electric_scooter", "rental_uris": {"ios": "https://dc.lft.to/lastmile_qr_scan", "android": "https://dc.lft.to/lastmile_qr_scan"}, "lat": 38.9183925, "lon": -77.04019816666667, "bike_id": "ddc1377a3d6f5fed0368d8336a0af84e", "fusion_lat": 0.0, "is_disabled": 0, "fusion_lon": 0.0}, {"name": "877ad58142b30e4c40cd4476380bbf9a", "is_reserved": 0, "type": "electric_scooter", "rental_uris": {"ios": "https://dc.lft.to/lastmile_qr_scan", "android": "https://dc.lft.to/lastmile_qr_scan"}, "lat": 38.9175585, "lon": -77.03935483333333, "bike_id": "877ad58142b30e4c40cd4476380bbf9a", "fusion_lat": 0.0, "is_disabled": 0, "fusion_lon": 0.0}, {"name": "491d18b90e9c1d8a072f0528160f293a", "is_reserved": 0, "type": "electric_scooter", "rental_uris": {"ios": "https://dc.lft.to/lastmile_qr_scan", "android": "https://dc.lft.to/lastmile_qr_scan"}, "lat": 38.917187, "lon": -77.04403683333334, "bike_id": "491d18b90e9c1d8a072f0528160f293a", "fusion_lat": 0.0, "is_disabled": 0, "fusion_lon": 0.0}, {"name": "7cf40ef40289531b37efe2f3d102385a", "is_reserved": 0, "type": "electric_scooter", "rental_uris": {"ios": "https://dc.lft.to/lastmile_qr_scan", "android": "https://dc.lft.to/lastmile_qr_scan"}, "lat": 38.9055305, "lon": -77.02181816666666, "bike_id": "7cf40ef40289531b37efe2f3d102385a", "fusion_lat": 0.0, "is_disabled": 0, "fusion_lon": 0.0}, {"name": "748ed7d11f4db4a73275b405de004d02", "is_reserved": 0, "type": "electric_scooter", "rental_uris": {"ios": "https://dc.lft.to/lastmile_qr_scan", "android": "https://dc.lft.to/lastmile_qr_scan"}, "lat": 38.90631783333333, "lon": -77.07026316666666, "bike_id": "748ed7d11f4db4a73275b405de004d02", "fusion_lat": 0.0, "is_disabled": 0, "fusion_lon": 0.0}, {"name": "1f3761f8cfe2082fda635df491570144", "is_reserved": 0, "type": "electric_scooter", "rental_uris": {"ios": "https://dc.lft.to/lastmile_qr_scan", "android": "https://dc.lft.to/lastmile_qr_scan"}, "lat": 38.90031966666667, "lon": -76.9887635, "bike_id": "1f3761f8cfe2082fda635df491570144", "fusion_lat": 0.0, "is_disabled": 0, "fusion_lon": 0.0}, {"name": "af7cdcf52ecd7fa438bfc6bdf725ad2a", "is_reserved": 0, "type": "electric_scooter", "rental_uris": {"ios": "https://dc.lft.to/lastmile_qr_scan", "android": "https://dc.lft.to/lastmile_qr_scan"}, "lat": 38.8789115, "lon": -77.02205566666666, "bike_id": "af7cdcf52ecd7fa438bfc6bdf725ad2a", "fusion_lat": 0.0, "is_disabled": 0, "fusion_lon": 0.0}, {"name": "0d824aa6a6f551aec7824ba637c48b9d", "is_reserved": 0, "type": "electric_scooter", "rental_uris": {"ios": "https://dc.lft.to/lastmile_qr_scan", "android": "https://dc.lft.to/lastmile_qr_scan"}, "lat": 38.916934, "lon": -77.03723733333334, "bike_id": "0d824aa6a6f551aec7824ba637c48b9d", "fusion_lat": 0.0, "is_disabled": 0, "fusion_lon": 0.0}, {"name": "b3066b2ad5d4cf68afe4996dd6199aa6", "is_reserved": 0, "type": "electric_scooter", "rental_uris": {"ios": "https://dc.lft.to/lastmile_qr_scan", "android": "https://dc.lft.to/lastmile_qr_scan"}, "lat": 38.9481615, "lon": -76.99902816666666, "bike_id": "b3066b2ad5d4cf68afe4996dd6199aa6", "fusion_lat": 0.0, "is_disabled": 0, "fusion_lon": 0.0}, {"name": "338786d050417985184b3186c4106306", "is_reserved": 0, "type": "electric_bike", "rental_uris": {"ios": "https://dc.lft.to/lastmile_qr_scan", "android": "https://dc.lft.to/lastmile_qr_scan"}, "lat": 38.872986, "lon": -77.13926883333333, "bike_id": "338786d050417985184b3186c4106306", "fusion_lat": 0.0, "is_disabled": 0, "fusion_lon": 0.0}, {"name": "3014c38d514cc2ba0be270eb411b396d", "is_reserved": 0, "type": "electric_scooter", "rental_uris": {"ios": "https://dc.lft.to/lastmile_qr_scan", "android": "https://dc.lft.to/lastmile_qr_scan"}, "lat": 38.930634, "lon": -77.03157666666667, "bike_id": "3014c38d514cc2ba0be270eb411b396d", "fusion_lat": 0.0, "is_disabled": 0, "fusion_lon": 0.0}, {"name": "3dfb8560b49d8f35892c5aa60b390a24", "is_reserved": 0, "type": "electric_scooter", "rental_uris": {"ios": "https://dc.lft.to/lastmile_qr_scan", "android": "https://dc.lft.to/lastmile_qr_scan"}, "lat": 38.910542, "lon": -77.03181366666666, "bike_id": "3dfb8560b49d8f35892c5aa60b390a24", "fusion_lat": 0.0, "is_disabled": 0, "fusion_lon": 0.0}, {"name": "6f05f74693790835e1273752f9925990", "is_reserved": 0, "type": "electric_scooter", "rental_uris": {"ios": "https://dc.lft.to/lastmile_qr_scan", "android": "https://dc.lft.to/lastmile_qr_scan"}, "lat": 38.90164933333333, "lon": -76.9307825, "bike_id": "6f05f74693790835e1273752f9925990", "fusion_lat": 0.0, "is_disabled": 0, "fusion_lon": 0.0}, {"name": "7b1cdb9d335339edd3762f8c6c28c0a1", "is_reserved": 0, "type": "electric_bike", "rental_uris": {"ios": "https://dc.lft.to/lastmile_qr_scan", "android": "https://dc.lft.to/lastmile_qr_scan"}, "lat": 38.895620666666666, "lon": -77.12732766666667, "bike_id": "7b1cdb9d335339edd3762f8c6c28c0a1", "fusion_lat": 0.0, "is_disabled": 0, "fusion_lon": 0.0}, {"name": "eb03fdafe8e95c7081b384388d1db6f3", "is_reserved": 0, "type": "electric_scooter", "rental_uris": {"ios": "https://dc.lft.to/lastmile_qr_scan", "android": "https://dc.lft.to/lastmile_qr_scan"}, "lat": 38.927442666666664, "lon": -77.03637416666666, "bike_id": "eb03fdafe8e95c7081b384388d1db6f3", "fusion_lat": 0.0, "is_disabled": 0, "fusion_lon": 0.0}, {"name": "74f7a56b0c74a56cedfbbc5c73961f74", "is_reserved": 0, "type": "electric_scooter", "rental_uris": {"ios": "https://dc.lft.to/lastmile_qr_scan", "android": "https://dc.lft.to/lastmile_qr_scan"}, "lat": 38.906886666666665, "lon": -77.06737983333333, "bike_id": "74f7a56b0c74a56cedfbbc5c73961f74", "fusion_lat": 0.0, "is_disabled": 0, "fusion_lon": 0.0}, {"name": "b1e478e7feea3f907d1ea587eaa59008", "is_reserved": 0, "type": "electric_scooter", "rental_uris": {"ios": "https://dc.lft.to/lastmile_qr_scan", "android": "https://dc.lft.to/lastmile_qr_scan"}, "lat": 38.918330833333336, "lon": -77.03912116666666, "bike_id": "b1e478e7feea3f907d1ea587eaa59008", "fusion_lat": 0.0, "is_disabled": 0, "fusion_lon": 0.0}, {"name": "14d5d5ce5ca8aec9a799d5bd6ca971b3", "is_reserved": 0, "type": "electric_scooter", "rental_uris": {"ios": "https://dc.lft.to/lastmile_qr_scan", "android": "https://dc.lft.to/lastmile_qr_scan"}, "lat": 38.92190866666667, "lon": -77.02096033333333, "bike_id": "14d5d5ce5ca8aec9a799d5bd6ca971b3", "fusion_lat": 0.0, "is_disabled": 0, "fusion_lon": 0.0}, {"name": "6c820a9aae4477070a8912bfadd76871", "is_reserved": 0, "type": "electric_scooter", "rental_uris": {"ios": "https://dc.lft.to/lastmile_qr_scan", "android": "https://dc.lft.to/lastmile_qr_scan"}, "lat": 38.91270016666667, "lon": -77.02683833333333, "bike_id": "6c820a9aae4477070a8912bfadd76871", "fusion_lat": 0.0, "is_disabled": 0, "fusion_lon": 0.0}, {"name": "8f2b3cb21f11f0319eb3a5070655a99e", "is_reserved": 0, "type": "electric_bike", "rental_uris": {"ios": "https://dc.lft.to/lastmile_qr_scan", "android": "https://dc.lft.to/lastmile_qr_scan"}, "lat": 38.988313, "lon": -76.99649716666667, "bike_id": "8f2b3cb21f11f0319eb3a5070655a99e", "fusion_lat": 0.0, "is_disabled": 0, "fusion_lon": 0.0}, {"name": "745faa7bb5e9b2d03e9777d545f6b372", "is_reserved": 0, "type": "electric_scooter", "rental_uris": {"ios": "https://dc.lft.to/lastmile_qr_scan", "android": "https://dc.lft.to/lastmile_qr_scan"}, "lat": 38.931756, "lon": -77.028522, "bike_id": "745faa7bb5e9b2d03e9777d545f6b372", "fusion_lat": 0.0, "is_disabled": 0, "fusion_lon": 0.0}, {"name": "bd3359e59840f8d09db17e4bde29a5de", "is_reserved": 0, "type": "electric_scooter", "rental_uris": {"ios": "https://dc.lft.to/lastmile_qr_scan", "android": "https://dc.lft.to/lastmile_qr_scan"}, "lat": 38.91548816666667, "lon": -76.98380183333333, "bike_id": "bd3359e59840f8d09db17e4bde29a5de", "fusion_lat": 0.0, "is_disabled": 0, "fusion_lon": 0.0}, {"name": "3fb0cb541780216eb7b57ccbe5202819", "is_reserved": 0, "type": "electric_scooter", "rental_uris": {"ios": "https://dc.lft.to/lastmile_qr_scan", "android": "https://dc.lft.to/lastmile_qr_scan"}, "lat": 38.8922485, "lon": -77.04508516666667, "bike_id": "3fb0cb541780216eb7b57ccbe5202819", "fusion_lat": 0.0, "is_disabled": 0, "fusion_lon": 0.0}, {"name": "6700d21ea536373411dba0f2b929d6bd", "is_reserved": 0, "type": "electric_scooter", "rental_uris": {"ios": "https://dc.lft.to/lastmile_qr_scan", "android": "https://dc.lft.to/lastmile_qr_scan"}, "lat": 38.91050233333333, "lon": -77.03682933333333, "bike_id": "6700d21ea536373411dba0f2b929d6bd", "fusion_lat": 0.0, "is_disabled": 0, "fusion_lon": 0.0}, {"name": "cd49163f03640391828c7830caa3f24c", "is_reserved": 0, "type": "electric_scooter", "rental_uris": {"ios": "https://dc.lft.to/lastmile_qr_scan", "android": "https://dc.lft.to/lastmile_qr_scan"}, "lat": 38.90466, "lon": -77.047933, "bike_id": "cd49163f03640391828c7830caa3f24c", "fusion_lat": 0.0, "is_disabled": 0, "fusion_lon": 0.0}, {"name": "3b93624cd92d1b68f046d5c7d46b9d46", "is_reserved": 0, "type": "electric_scooter", "rental_uris": {"ios": "https://dc.lft.to/lastmile_qr_scan", "android": "https://dc.lft.to/lastmile_qr_scan"}, "lat": 38.89094933333333, "lon": -76.9186885, "bike_id": "3b93624cd92d1b68f046d5c7d46b9d46", "fusion_lat": 0.0, "is_disabled": 0, "fusion_lon": 0.0}, {"name": "b28147b1408a691250ebec60f6b4ef00", "is_reserved": 0, "type": "electric_scooter", "rental_uris": {"ios": "https://dc.lft.to/lastmile_qr_scan", "android": "https://dc.lft.to/lastmile_qr_scan"}, "lat": 38.900221, "lon": -77.006771, "bike_id": "b28147b1408a691250ebec60f6b4ef00", "fusion_lat": 0.0, "is_disabled": 0, "fusion_lon": 0.0}, {"name": "8e66e6945e71f663509a881da1e21b25", "is_reserved": 0, "type": "electric_scooter", "rental_uris": {"ios": "https://dc.lft.to/lastmile_qr_scan", "android": "https://dc.lft.to/lastmile_qr_scan"}, "lat": 38.949549, "lon": -77.08023833333333, "bike_id": "8e66e6945e71f663509a881da1e21b25", "fusion_lat": 0.0, "is_disabled": 0, "fusion_lon": 0.0}, {"name": "8da24be5387f06e470b511235d3a518e", "is_reserved": 0, "type": "electric_scooter", "rental_uris": {"ios": "https://dc.lft.to/lastmile_qr_scan", "android": "https://dc.lft.to/lastmile_qr_scan"}, "lat": 38.904026, "lon": -77.01713216666667, "bike_id": "8da24be5387f06e470b511235d3a518e", "fusion_lat": 0.0, "is_disabled": 0, "fusion_lon": 0.0}, {"name": "7d537883be99ce5ad851e3ca8721e29b", "is_reserved": 0, "type": "electric_scooter", "rental_uris": {"ios": "https://dc.lft.to/lastmile_qr_scan", "android": "https://dc.lft.to/lastmile_qr_scan"}, "lat": 38.9248375, "lon": -77.03498533333334, "bike_id": "7d537883be99ce5ad851e3ca8721e29b", "fusion_lat": 0.0, "is_disabled": 0, "fusion_lon": 0.0}, {"name": "231190c27b19b136a42e7e075eb193da", "is_reserved": 0, "type": "electric_bike", "rental_uris": {"ios": "https://dc.lft.to/lastmile_qr_scan", "android": "https://dc.lft.to/lastmile_qr_scan"}, "lat": 38.937449, "lon": -76.94578966666667, "bike_id": "231190c27b19b136a42e7e075eb193da", "fusion_lat": 0.0, "is_disabled": 0, "fusion_lon": 0.0}, {"name": "68eb5075427712137736cbfb0028392e", "is_reserved": 0, "type": "electric_scooter", "rental_uris": {"ios": "https://dc.lft.to/lastmile_qr_scan", "android": "https://dc.lft.to/lastmile_qr_scan"}, "lat": 38.892453, "lon": -77.03958883333334, "bike_id": "68eb5075427712137736cbfb0028392e", "fusion_lat": 0.0, "is_disabled": 0, "fusion_lon": 0.0}, {"name": "a1ec1df0f1a4b0e46dd0b0baa2c4bab4", "is_reserved": 0, "type": "electric_scooter", "rental_uris": {"ios": "https://dc.lft.to/lastmile_qr_scan", "android": "https://dc.lft.to/lastmile_qr_scan"}, "lat": 38.916675, "lon": -77.034706, "bike_id": "a1ec1df0f1a4b0e46dd0b0baa2c4bab4", "fusion_lat": 0.0, "is_disabled": 0, "fusion_lon": 0.0}, {"name": "b9fcdd254acaf7ab7a7c4ce73f28d2a6", "is_reserved": 0, "type": "electric_scooter", "rental_uris": {"ios": "https://dc.lft.to/lastmile_qr_scan", "android": "https://dc.lft.to/lastmile_qr_scan"}, "lat": 38.936578, "lon": -77.036859, "bike_id": "b9fcdd254acaf7ab7a7c4ce73f28d2a6", "fusion_lat": 0.0, "is_disabled": 0, "fusion_lon": 0.0}, {"name": "d0dba53a5a1a12a8a6e07955e6997e1d", "is_reserved": 0, "type": "electric_scooter", "rental_uris": {"ios": "https://dc.lft.to/lastmile_qr_scan", "android": "https://dc.lft.to/lastmile_qr_scan"}, "lat": 38.92469533333333, "lon": -77.00231966666666, "bike_id": "d0dba53a5a1a12a8a6e07955e6997e1d", "fusion_lat": 0.0, "is_disabled": 0, "fusion_lon": 0.0}, {"name": "7b0ff55aa7dce5f2721fe19a06370863", "is_reserved": 0, "type": "electric_scooter", "rental_uris": {"ios": "https://dc.lft.to/lastmile_qr_scan", "android": "https://dc.lft.to/lastmile_qr_scan"}, "lat": 38.892405833333335, "lon": -77.0125855, "bike_id": "7b0ff55aa7dce5f2721fe19a06370863", "fusion_lat": 0.0, "is_disabled": 0, "fusion_lon": 0.0}, {"name": "104f4eb7d044371701309b86b214c60a", "is_reserved": 0, "type": "electric_scooter", "rental_uris": {"ios": "https://dc.lft.to/lastmile_qr_scan", "android": "https://dc.lft.to/lastmile_qr_scan"}, "lat": 38.8922325, "lon": -77.03376016666667, "bike_id": "104f4eb7d044371701309b86b214c60a", "fusion_lat": 0.0, "is_disabled": 0, "fusion_lon": 0.0}, {"name": "47e0d1e45eefa33e7dbe2b185e3a77e9", "is_reserved": 0, "type": "electric_scooter", "rental_uris": {"ios": "https://dc.lft.to/lastmile_qr_scan", "android": "https://dc.lft.to/lastmile_qr_scan"}, "lat": 38.88015816666667, "lon": -76.995136, "bike_id": "47e0d1e45eefa33e7dbe2b185e3a77e9", "fusion_lat": 0.0, "is_disabled": 0, "fusion_lon": 0.0}, {"name": "a4c1c4ac49668458b2b8473f9d297976", "is_reserved": 0, "type": "electric_scooter", "rental_uris": {"ios": "https://dc.lft.to/lastmile_qr_scan", "android": "https://dc.lft.to/lastmile_qr_scan"}, "lat": 38.93356683333333, "lon": -77.024194, "bike_id": "a4c1c4ac49668458b2b8473f9d297976", "fusion_lat": 0.0, "is_disabled": 0, "fusion_lon": 0.0}, {"name": "74995a1b9f6f6cc99d32d82f58f5b4de", "is_reserved": 0, "type": "electric_scooter", "rental_uris": {"ios": "https://dc.lft.to/lastmile_qr_scan", "android": "https://dc.lft.to/lastmile_qr_scan"}, "lat": 38.921284666666665, "lon": -77.025436, "bike_id": "74995a1b9f6f6cc99d32d82f58f5b4de", "fusion_lat": 0.0, "is_disabled": 0, "fusion_lon": 0.0}, {"name": "f5807f6caa6d2caff3fe11e62ae21083", "is_reserved": 0, "type": "electric_scooter", "rental_uris": {"ios": "https://dc.lft.to/lastmile_qr_scan", "android": "https://dc.lft.to/lastmile_qr_scan"}, "lat": 38.909699, "lon": -77.04627333333333, "bike_id": "f5807f6caa6d2caff3fe11e62ae21083", "fusion_lat": 0.0, "is_disabled": 0, "fusion_lon": 0.0}, {"name": "70913d163cb32821cb3d58babed3028d", "is_reserved": 0, "type": "electric_scooter", "rental_uris": {"ios": "https://dc.lft.to/lastmile_qr_scan", "android": "https://dc.lft.to/lastmile_qr_scan"}, "lat": 38.90063816666667, "lon": -76.936396, "bike_id": "70913d163cb32821cb3d58babed3028d", "fusion_lat": 0.0, "is_disabled": 0, "fusion_lon": 0.0}, {"name": "8f9df840cecd3d7c3e41ff1e005d3953", "is_reserved": 0, "type": "electric_scooter", "rental_uris": {"ios": "https://dc.lft.to/lastmile_qr_scan", "android": "https://dc.lft.to/lastmile_qr_scan"}, "lat": 38.904829, "lon": -77.02722483333334, "bike_id": "8f9df840cecd3d7c3e41ff1e005d3953", "fusion_lat": 0.0, "is_disabled": 0, "fusion_lon": 0.0}, {"name": "0311c701234be8d8010163b4e02c5b79", "is_reserved": 0, "type": "electric_scooter", "rental_uris": {"ios": "https://dc.lft.to/lastmile_qr_scan", "android": "https://dc.lft.to/lastmile_qr_scan"}, "lat": 38.90802033333333, "lon": -77.08401366666666, "bike_id": "0311c701234be8d8010163b4e02c5b79", "fusion_lat": 0.0, "is_disabled": 0, "fusion_lon": 0.0}, {"name": "78cee7a0fa41751801db6fe8f9b99465", "is_reserved": 0, "type": "electric_scooter", "rental_uris": {"ios": "https://dc.lft.to/lastmile_qr_scan", "android": "https://dc.lft.to/lastmile_qr_scan"}, "lat": 38.893460833333336, "lon": -76.94935633333333, "bike_id": "78cee7a0fa41751801db6fe8f9b99465", "fusion_lat": 0.0, "is_disabled": 0, "fusion_lon": 0.0}, {"name": "bd1de0eba9d622bc6e819a4974800503", "is_reserved": 0, "type": "electric_scooter", "rental_uris": {"ios": "https://dc.lft.to/lastmile_qr_scan", "android": "https://dc.lft.to/lastmile_qr_scan"}, "lat": 38.950771333333336, "lon": -77.0310055, "bike_id": "bd1de0eba9d622bc6e819a4974800503", "fusion_lat": 0.0, "is_disabled": 0, "fusion_lon": 0.0}, {"name": "616db4c0a29c1e99a388ce11a9806e60", "is_reserved": 0, "type": "electric_scooter", "rental_uris": {"ios": "https://dc.lft.to/lastmile_qr_scan", "android": "https://dc.lft.to/lastmile_qr_scan"}, "lat": 38.902598166666664, "lon": -77.01765283333333, "bike_id": "616db4c0a29c1e99a388ce11a9806e60", "fusion_lat": 0.0, "is_disabled": 0, "fusion_lon": 0.0}, {"name": "2f7291f95b1149d719df4054137f6009", "is_reserved": 0, "type": "electric_scooter", "rental_uris": {"ios": "https://dc.lft.to/lastmile_qr_scan", "android": "https://dc.lft.to/lastmile_qr_scan"}, "lat": 38.9103085, "lon": -77.04883133333334, "bike_id": "2f7291f95b1149d719df4054137f6009", "fusion_lat": 0.0, "is_disabled": 0, "fusion_lon": 0.0}, {"name": "8a3c64ca2b326de989b28cab3e2d8b53", "is_reserved": 0, "type": "electric_bike", "rental_uris": {"ios": "https://dc.lft.to/lastmile_qr_scan", "android": "https://dc.lft.to/lastmile_qr_scan"}, "lat": 38.84611016666667, "lon": -76.96908866666666, "bike_id": "8a3c64ca2b326de989b28cab3e2d8b53", "fusion_lat": 0.0, "is_disabled": 0, "fusion_lon": 0.0}, {"name": "e5fc255a9cdec0372ba0d86c1c4f78da", "is_reserved": 0, "type": "electric_bike", "rental_uris": {"ios": "https://dc.lft.to/lastmile_qr_scan", "android": "https://dc.lft.to/lastmile_qr_scan"},