{"data": {"bikes": [{"lon": -77.04563066666667, "is_reserved": 0, "is_disabled": 0, "type": "electric_scooter", "lat": 38.9074445, "rental_uris": {"ios": "https://dc.lft.to/lastmile_qr_scan", "android": "https://dc.lft.to/lastmile_qr_scan"}, "fusion_lat": 0.0, "fusion_lon": 0.0, "bike_id": "c0eb834d61a3536d55a05d71bf89754f", "name": "c0eb834d61a3536d55a05d71bf89754f"}, {"lon": -77.02266166666666, "is_reserved": 0, "is_disabled": 0, "type": "electric_scooter", "lat": 38.88746716666667, "rental_uris": {"ios": "https://dc.lft.to/lastmile_qr_scan", "android": "https://dc.lft.to/lastmile_qr_scan"}, "fusion_lat": 0.0, "fusion_lon": 0.0, "bike_id": "448ec420c1c51cbafd7b956c3a67da1c", "name": "448ec420c1c51cbafd7b956c3a67da1c"}, {"lon": -77.02483866666667, "is_reserved": 0, "is_disabled": 0, "type": "electric_scooter", "lat": 38.927392833333336, "rental_uris": {"ios": "https://dc.lft.to/lastmile_qr_scan", "android": "https://dc.lft.to/lastmile_qr_scan"}, "fusion_lat": 0.0, "fusion_lon": 0.0, "bike_id": "aa83ca531e718fb14c04d4a6f5a6666b", "name": "aa83ca531e718fb14c04d4a6f5a6666b"}, {"lon": -77.01577483333334, "is_reserved": 0, "is_disabled": 0, "type": "electric_scooter", "lat": 38.87654783333333, "rental_uris": {"ios": "https://dc.lft.to/lastmile_qr_scan", "android": "https://dc.lft.to/lastmile_qr_scan"}, "fusion_lat": 0.0, "fusion_lon": 0.0, "bike_id": "5442324332e85fdc27e5a39b60ebb671", "name": "5442324332e85fdc27e5a39b60ebb671"}, {"lon": -77.00343716666667, "is_reserved": 0, "is_disabled": 0, "type": "electric_scooter", "lat": 38.899232166666664, "rental_uris": {"ios": "https://dc.lft.to/lastmile_qr_scan", "android": "https://dc.lft.to/lastmile_qr_scan"}, "fusion_lat": 0.0, "fusion_lon": 0.0, "bike_id": "5db0a21b30e977f73122191a152468d0", "name": "5db0a21b30e977f73122191a152468d0"}, {"lon": -77.03821783333333, "is_reserved": 0, "is_disabled": 0, "type": "electric_scooter", "lat": 38.9077805, "rental_uris": {"ios": "https://dc.lft.to/lastmile_qr_scan", "android": "https://dc.lft.to/lastmile_qr_scan"}, "fusion_lat": 0.0, "fusion_lon": 0.0, "bike_id": "ab05529c4350eb6f32dcf040a9a0c72f", "name": "ab05529c4350eb6f32dcf040a9a0c72f"}, {"lon": -77.03163433333333, "is_reserved": 0, "is_disabled": 0, "type": "electric_scooter", "lat": 38.901342, "rental_uris": {"ios": "https://dc.lft.to/lastmile_qr_scan", "android": "https://dc.lft.to/lastmile_qr_scan"}, "fusion_lat": 0.0, "fusion_lon": 0.0, "bike_id": "6cfb56e436eea8d2586904f5422c25da", "name": "6cfb56e436eea8d2586904f5422c25da"}, {"lon": -77.04136283333334, "is_reserved": 0, "is_disabled": 0, "type": "electric_scooter", "lat": 38.90628483333333, "rental_uris": {"ios": "https://dc.lft.to/lastmile_qr_scan", "android": "https://dc.lft.to/lastmile_qr_scan"}, "fusion_lat": 0.0, "fusion_lon": 0.0, "bike_id": "3b0ecbde2964e81ff4522921946d3737", "name": "3b0ecbde2964e81ff4522921946d3737"}, {"lon": -77.02529083333333, "is_reserved": 0, "is_disabled": 0, "type": "electric_scooter", "lat": 38.920912333333334, "rental_uris": {"ios": "https://dc.lft.to/lastmile_qr_scan", "android": "https://dc.lft.to/lastmile_qr_scan"}, "fusion_lat": 0.0, "fusion_lon": 0.0, "bike_id": "060497a55f9e6dadbefd29b6684158a8", "name": "060497a55f9e6dadbefd29b6684158a8"}, {"lon": -77.04670166666666, "is_reserved": 0, "is_disabled": 0, "type": "electric_scooter", "lat": 38.90511133333333, "rental_uris": {"ios": "https://dc.lft.to/lastmile_qr_scan", "android": "https://dc.lft.to/lastmile_qr_scan"}, "fusion_lat": 0.0, "fusion_lon": 0.0, "bike_id": "2e3656c7e5fa6fbccc618366d67763f6", "name": "2e3656c7e5fa6fbccc618366d67763f6"}, {"lon": -77.065272, "is_reserved": 0, "is_disabled": 0, "type": "electric_scooter", "lat": 38.90528116666667, "rental_uris": {"ios": "https://dc.lft.to/lastmile_qr_scan", "android": "https://dc.lft.to/lastmile_qr_scan"}, "fusion_lat": 0.0, "fusion_lon": 0.0, "bike_id": "4733153ad6ad1419db97c08b7868028d", "name": "4733153ad6ad1419db97c08b7868028d"}, {"lon": -77.0175805, "is_reserved": 0, "is_disabled": 0, "type": "electric_scooter", "lat": 38.88639283333333, "rental_uris": {"ios": "https://dc.lft.to/lastmile_qr_scan", "android": "https://dc.lft.to/lastmile_qr_scan"}, "fusion_lat": 0.0, "fusion_lon": 0.0, "bike_id": "dea93b9d735bcb468dc0dd39986180ab", "name": "dea93b9d735bcb468dc0dd39986180ab"}, {"lon": -76.96178233333333, "is_reserved": 0, "is_disabled": 0, "type": "electric_bike", "lat": 38.91857516666666, "rental_uris": {"ios": "https://dc.lft.to/lastmile_qr_scan", "android": "https://dc.lft.to/lastmile_qr_scan"}, "fusion_lat": 0.0, "fusion_lon": 0.0, "bike_id": "6b1db37d61519b39522d06a2d702c7b8", "name": "6b1db37d61519b39522d06a2d702c7b8"}, {"lon": -77.017447, "is_reserved": 0, "is_disabled": 0, "type": "electric_scooter", "lat": 38.8727995, "rental_uris": {"ios": "https://dc.lft.to/lastmile_qr_scan", "android": "https://dc.lft.to/lastmile_qr_scan"}, "fusion_lat": 0.0, "fusion_lon": 0.0, "bike_id": "71b03ffbdd9d5fd156ff177e819d2e9b", "name": "71b03ffbdd9d5fd156ff177e819d2e9b"}, {"lon": -77.03262116666667, "is_reserved": 0, "is_disabled": 0, "type": "electric_scooter", "lat": 38.929118833333334, "rental_uris": {"ios": "https://dc.lft.to/lastmile_qr_scan", "android": "https://dc.lft.to/lastmile_qr_scan"}, "fusion_lat": 0.0, "fusion_lon": 0.0, "bike_id": "3de276371f50642f4c868c158ea15234", "name": "3de276371f50642f4c868c158ea15234"}, {"lon": -77.08156883333334, "is_reserved": 0, "is_disabled": 0, "type": "electric_bike", "lat": 38.88866466666666, "rental_uris": {"ios": "https://dc.lft.to/lastmile_qr_scan", "android": "https://dc.lft.to/lastmile_qr_scan"}, "fusion_lat": 0.0, "fusion_lon": 0.0, "bike_id": "e75c068001621909216b35a4b1e2327a", "name": "e75c068001621909216b35a4b1e2327a"}, {"lon": -77.03900616666667, "is_reserved": 0, "is_disabled": 0, "type": "electric_scooter", "lat": 38.922407, "rental_uris": {"ios": "https://dc.lft.to/lastmile_qr_scan", "android": "https://dc.lft.to/lastmile_qr_scan"}, "fusion_lat": 0.0, "fusion_lon": 0.0, "bike_id": "bad2123c854803acd7a870f6ed35c1b3", "name": "bad2123c854803acd7a870f6ed35c1b3"}, {"lon": -77.03356566666666, "is_reserved": 0, "is_disabled": 0, "type": "electric_scooter", "lat": 38.92445133333333, "rental_uris": {"ios": "https://dc.lft.to/lastmile_qr_scan", "android": "https://dc.lft.to/lastmile_qr_scan"}, "fusion_lat": 0.0, "fusion_lon": 0.0, "bike_id": "a4928884b361456f279f61a7c99cc8df", "name": "a4928884b361456f279f61a7c99cc8df"}, {"lon": -77.02601966666667, "is_reserved": 0, "is_disabled": 0, "type": "electric_scooter", "lat": 38.975879666666664, "rental_uris": {"ios": "https://dc.lft.to/lastmile_qr_scan", "android": "https://dc.lft.to/lastmile_qr_scan"}, "fusion_lat": 0.0, "fusion_lon": 0.0, "bike_id": "0ba32158e116dadf2836e2c4cc5db6b1", "name": "0ba32158e116dadf2836e2c4cc5db6b1"}, {"lon": -77.01883283333333, "is_reserved": 0, "is_disabled": 0, "type": "electric_scooter", "lat": 38.90277716666667, "rental_uris": {"ios": "https://dc.lft.to/lastmile_qr_scan", "android": "https://dc.lft.to/lastmile_qr_scan"}, "fusion_lat": 0.0, "fusion_lon": 0.0, "bike_id": "ca98d9875382e5f082c3cad3805a9365", "name": "ca98d9875382e5f082c3cad3805a9365"}, {"lon": -76.988808, "is_reserved": 0, "is_disabled": 0, "type": "electric_scooter", "lat": 38.906374166666666, "rental_uris": {"ios": "https://dc.lft.to/lastmile_qr_scan", "android": "https://dc.lft.to/lastmile_qr_scan"}, "fusion_lat": 0.0, "fusion_lon": 0.0, "bike_id": "cca08dbc40d4e86a616395e2a0a9d89e", "name": "cca08dbc40d4e86a616395e2a0a9d89e"}, {"lon": -77.04656116666666, "is_reserved": 0, "is_disabled": 0, "type": "electric_scooter", "lat": 38.89339483333333, "rental_uris": {"ios": "https://dc.lft.to/lastmile_qr_scan", "android": "https://dc.lft.to/lastmile_qr_scan"}, "fusion_lat": 0.0, "fusion_lon": 0.0, "bike_id": "81e24596735cc13de9cfb4620c6f566a", "name": "81e24596735cc13de9cfb4620c6f566a"}, {"lon": -77.080544, "is_reserved": 0, "is_disabled": 0, "type": "electric_bike", "lat": 38.84839216666667, "rental_uris": {"ios": "https://dc.lft.to/lastmile_qr_scan", "android": "https://dc.lft.to/lastmile_qr_scan"}, "fusion_lat": 0.0, "fusion_lon": 0.0, "bike_id": "7c4ba17d3cfaa2d1f511419b97180191", "name": "7c4ba17d3cfaa2d1f511419b97180191"}, {"lon": -77.05130116666666, "is_reserved": 0, "is_disabled": 0, "type": "electric_scooter", "lat": 38.923635, "rental_uris": {"ios": "https://dc.lft.to/lastmile_qr_scan", "android": "https://dc.lft.to/lastmile_qr_scan"}, "fusion_lat": 0.0, "fusion_lon": 0.0, "bike_id": "40b462024867bec5092b1397aafbcff7", "name": "40b462024867bec5092b1397aafbcff7"}, {"lon": -77.04373266666667, "is_reserved": 0, "is_disabled": 0, "type": "electric_scooter", "lat": 38.92576366666667, "rental_uris": {"ios": "https://dc.lft.to/lastmile_qr_scan", "android": "https://dc.lft.to/lastmile_qr_scan"}, "fusion_lat": 0.0, "fusion_lon": 0.0, "bike_id": "1af8a072a5eb7ba82e288f7cba4c4e37", "name": "1af8a072a5eb7ba82e288f7cba4c4e37"}, {"lon": -76.96668149999999, "is_reserved": 0, "is_disabled": 0, "type": "electric_bike", "lat": 38.958647166666665, "rental_uris": {"ios": "https://dc.lft.to/lastmile_qr_scan", "android": "https://dc.lft.to/lastmile_qr_scan"}, "fusion_lat": 0.0, "fusion_lon": 0.0, "bike_id": "57fd189725bbe91303cce69add969935", "name": "57fd189725bbe91303cce69add969935"}, {"lon": -76.98160416666667, "is_reserved": 0, "is_disabled": 0, "type": "electric_bike", "lat": 38.959605833333335, "rental_uris": {"ios": "https://dc.lft.to/lastmile_qr_scan", "android": "https://dc.lft.to/lastmile_qr_scan"}, "fusion_lat": 0.0, "fusion_lon": 0.0, "bike_id": "121c8158d85cc7e7292e438ca391b129", "name": "121c8158d85cc7e7292e438ca391b129"}, {"lon": -77.02694383333333, "is_reserved": 0, "is_disabled": 0, "type": "electric_scooter", "lat": 38.901591, "rental_uris": {"ios": "https://dc.lft.to/lastmile_qr_scan", "android": "https://dc.lft.to/lastmile_qr_scan"}, "fusion_lat": 0.0, "fusion_lon": 0.0, "bike_id": "42ea1137478d8c8cd4b42b151809bf18", "name": "42ea1137478d8c8cd4b42b151809bf18"}, {"lon": -77.04668033333333, "is_reserved": 0, "is_disabled": 0, "type": "electric_scooter", "lat": 38.899184166666664, "rental_uris": {"ios": "https://dc.lft.to/lastmile_qr_scan", "android": "https://dc.lft.to/lastmile_qr_scan"}, "fusion_lat": 0.0, "fusion_lon": 0.0, "bike_id": "1eb675b7692cfc973a727aa928c36ce5", "name": "1eb675b7692cfc973a727aa928c36ce5"}, {"lon": -77.02676766666667, "is_reserved": 0, "is_disabled": 0, "type": "electric_scooter", "lat": 38.9107875, "rental_uris": {"ios": "https://dc.lft.to/lastmile_qr_scan", "android": "https://dc.lft.to/lastmile_qr_scan"}, "fusion_lat": 0.0, "fusion_lon": 0.0, "bike_id": "2b9caabb6d0379708cae268aa7da1026", "name": "2b9caabb6d0379708cae268aa7da1026"}, {"lon": -77.02669333333333, "is_reserved": 0, "is_disabled": 0, "type": "electric_scooter", "lat": 38.898436833333335, "rental_uris": {"ios": "https://dc.lft.to/lastmile_qr_scan", "android": "https://dc.lft.to/lastmile_qr_scan"}, "fusion_lat": 0.0, "fusion_lon": 0.0, "bike_id": "49b74e8f0c988c833ad49f319a9dd6d0", "name": "49b74e8f0c988c833ad49f319a9dd6d0"}, {"lon": -76.99456083333334, "is_reserved": 0, "is_disabled": 0, "type": "electric_scooter", "lat": 38.85156283333333, "rental_uris": {"ios": "https://dc.lft.to/lastmile_qr_scan", "android": "https://dc.lft.to/lastmile_qr_scan"}, "fusion_lat": 0.0, "fusion_lon": 0.0, "bike_id": "16d83d8378fe585671fdadaefd65f01c", "name": "16d83d8378fe585671fdadaefd65f01c"}, {"lon": -77.03199733333334, "is_reserved": 0, "is_disabled": 0, "type": "electric_scooter", "lat": 38.913439, "rental_uris": {"ios": "https://dc.lft.to/lastmile_qr_scan", "android": "https://dc.lft.to/lastmile_qr_scan"}, "fusion_lat": 0.0, "fusion_lon": 0.0, "bike_id": "64a93bb70f3ee2fd75517855149963ff", "name": "64a93bb70f3ee2fd75517855149963ff"}, {"lon": -77.01162483333333, "is_reserved": 0, "is_disabled": 0, "type": "electric_scooter", "lat": 38.872002, "rental_uris": {"ios": "https://dc.lft.to/lastmile_qr_scan", "android": "https://dc.lft.to/lastmile_qr_scan"}, "fusion_lat": 0.0, "fusion_lon": 0.0, "bike_id": "b510e25288936a7c608a15e998438bc2", "name": "b510e25288936a7c608a15e998438bc2"}, {"lon": -77.04623266666667, "is_reserved": 0, "is_disabled": 0, "type": "electric_scooter", "lat": 38.905491166666664, "rental_uris": {"ios": "https://dc.lft.to/lastmile_qr_scan", "android": "https://dc.lft.to/lastmile_qr_scan"}, "fusion_lat": 0.0, "fusion_lon": 0.0, "bike_id": "6149d61ffeb608a6739c4f0ca610cf54", "name": "6149d61ffeb608a6739c4f0ca610cf54"}, {"lon": -77.01624866666667, "is_reserved": 0, "is_disabled": 0, "type": "electric_scooter", "lat": 38.9060725, "rental_uris": {"ios": "https://dc.lft.to/lastmile_qr_scan", "android": "https://dc.lft.to/lastmile_qr_scan"}, "fusion_lat": 0.0, "fusion_lon": 0.0, "bike_id": "40220e844f97489d37dfee0f3306feaa", "name": "40220e844f97489d37dfee0f3306feaa"}, {"lon": -76.9375095, "is_reserved": 0, "is_disabled": 0, "type": "electric_scooter", "lat": 38.89012366666667, "rental_uris": {"ios": "https://dc.lft.to/lastmile_qr_scan", "android": "https://dc.lft.to/lastmile_qr_scan"}, "fusion_lat": 0.0, "fusion_lon": 0.0, "bike_id": "5937496fb6a45b636f5f961a804a5a23", "name": "5937496fb6a45b636f5f961a804a5a23"}, {"lon": -77.01384483333334, "is_reserved": 0, "is_disabled": 0, "type": "electric_scooter", "lat": 38.92829666666667, "rental_uris": {"ios": "https://dc.lft.to/lastmile_qr_scan", "android": "https://dc.lft.to/lastmile_qr_scan"}, "fusion_lat": 0.0, "fusion_lon": 0.0, "bike_id": "9e8b8f325023de2f664be5c1332869ec", "name": "9e8b8f325023de2f664be5c1332869ec"}, {"lon": -76.95110383333333, "is_reserved": 0, "is_disabled": 0, "type": "electric_scooter", "lat": 38.88792516666667, "rental_uris": {"ios": "https://dc.lft.to/lastmile_qr_scan", "android": "https://dc.lft.to/lastmile_qr_scan"}, "fusion_lat": 0.0, "fusion_lon": 0.0, "bike_id": "50812570ce8fc7400ee4a4363219d8b1", "name": "50812570ce8fc7400ee4a4363219d8b1"}, {"lon": -76.98320716666667, "is_reserved": 0, "is_disabled": 0, "type": "electric_scooter", "lat": 38.8881635, "rental_uris": {"ios": "https://dc.lft.to/lastmile_qr_scan", "android": "https://dc.lft.to/lastmile_qr_scan"}, "fusion_lat": 0.0, "fusion_lon": 0.0, "bike_id": "ba3e4d4aae4b6e8ed73e68feb99f842b", "name": "ba3e4d4aae4b6e8ed73e68feb99f842b"}, {"lon": -77.03837333333334, "is_reserved": 0, "is_disabled": 0, "type": "electric_scooter", "lat": 38.911444833333334, "rental_uris": {"ios": "https://dc.lft.to/lastmile_qr_scan", "android": "https://dc.lft.to/lastmile_qr_scan"}, "fusion_lat": 0.0, "fusion_lon": 0.0, "bike_id": "b66ba4b5dde4e91312da6874b9408c1b", "name": "b66ba4b5dde4e91312da6874b9408c1b"}, {"lon": -77.05195516666667, "is_reserved": 0, "is_disabled": 0, "type": "electric_scooter", "lat": 38.92548333333333, "rental_uris": {"ios": "https://dc.lft.to/lastmile_qr_scan", "android": "https://dc.lft.to/lastmile_qr_scan"}, "fusion_lat": 0.0, "fusion_lon": 0.0, "bike_id": "dbe93a3c4fd219e87a90773098b50679", "name": "dbe93a3c4fd219e87a90773098b50679"}, {"lon": -77.05048533333333, "is_reserved": 0, "is_disabled": 0, "type": "electric_scooter", "lat": 38.92359733333333, "rental_uris": {"ios": "https://dc.lft.to/lastmile_qr_scan", "android": "https://dc.lft.to/lastmile_qr_scan"}, "fusion_lat": 0.0, "fusion_lon": 0.0, "bike_id": "57ffc31e4066b2bbe01087b3a9f78d6c", "name": "57ffc31e4066b2bbe01087b3a9f78d6c"}, {"lon": -77.04746683333333, "is_reserved": 0, "is_disabled": 0, "type": "electric_scooter", "lat": 38.9128705, "rental_uris": {"ios": "https://dc.lft.to/lastmile_qr_scan", "android": "https://dc.lft.to/lastmile_qr_scan"}, "fusion_lat": 0.0, "fusion_lon": 0.0, "bike_id": "098cd19ea4930210a6f18c733f4a0599", "name": "098cd19ea4930210a6f18c733f4a0599"}, {"lon": -77.00758666666667, "is_reserved": 0, "is_disabled": 0, "type": "electric_scooter", "lat": 38.91552266666667, "rental_uris": {"ios": "https://dc.lft.to/lastmile_qr_scan", "android": "https://dc.lft.to/lastmile_qr_scan"}, "fusion_lat": 0.0, "fusion_lon": 0.0, "bike_id": "e7c759cd3f8887789f839d26cea47472", "name": "e7c759cd3f8887789f839d26cea47472"}, {"lon": -77.085677, "is_reserved": 0, "is_disabled": 0, "type": "electric_bike", "lat": 38.874156166666666, "rental_uris": {"ios": "https://dc.lft.to/lastmile_qr_scan", "android": "https://dc.lft.to/lastmile_qr_scan"}, "fusion_lat": 0.0, "fusion_lon": 0.0, "bike_id": "8815b8b01ba48cb9ee7033587642e740", "name": "8815b8b01ba48cb9ee7033587642e740"}, {"lon": -77.02376033333333, "is_reserved": 0, "is_disabled": 0, "type": "electric_scooter", "lat": 38.90729, "rental_uris": {"ios": "https://dc.lft.to/lastmile_qr_scan", "android": "https://dc.lft.to/lastmile_qr_scan"}, "fusion_lat": 0.0, "fusion_lon": 0.0, "bike_id": "4a373e54893163a5a06a4b4b7e9570c9", "name": "4a373e54893163a5a06a4b4b7e9570c9"}, {"lon": -77.041641, "is_reserved": 0, "is_disabled": 0, "type": "electric_scooter", "lat": 38.909308333333335, "rental_uris": {"ios": "https://dc.lft.to/lastmile_qr_scan", "android": "https://dc.lft.to/lastmile_qr_scan"}, "fusion_lat": 0.0, "fusion_lon": 0.0, "bike_id": "2f2707f3688727600530fac2796fa1cb", "name": "2f2707f3688727600530fac2796fa1cb"}, {"lon": -77.04011566666667, "is_reserved": 0, "is_disabled": 0, "type": "electric_scooter", "lat": 38.9002795, "rental_uris": {"ios": "https://dc.lft.to/lastmile_qr_scan", "android": "https://dc.lft.to/lastmile_qr_scan"}, "fusion_lat": 0.0, "fusion_lon": 0.0, "bike_id": "1b7ff8eb46ac410b37a717bcce1bf6bf", "name": "1b7ff8eb46ac410b37a717bcce1bf6bf"}, {"lon": -77.0335285, "is_reserved": 0, "is_disabled": 0, "type": "electric_scooter", "lat": 38.92233066666667, "rental_uris": {"ios": "https://dc.lft.to/lastmile_qr_scan", "android": "https://dc.lft.to/lastmile_qr_scan"}, "fusion_lat": 0.0, "fusion_lon": 0.0, "bike_id": "dc3bc57925c880d2e27d817cbe66f6ff", "name": "dc3bc57925c880d2e27d817cbe66f6ff"}, {"lon": -77.126262, "is_reserved": 0, "is_disabled": 0, "type": "electric_bike", "lat": 39.058107, "rental_uris": {"ios": "https://dc.lft.to/lastmile_qr_scan", "android": "https://dc.lft.to/lastmile_qr_scan"}, "fusion_lat": 0.0, "fusion_lon": 0.0, "bike_id": "d621f1ea25108e2fc16c6d6b788254b9", "name": "d621f1ea25108e2fc16c6d6b788254b9"}, {"lon": -77.0296195, "is_reserved": 0, "is_disabled": 0, "type": "electric_scooter", "lat": 38.892272, "rental_uris": {"ios": "https://dc.lft.to/lastmile_qr_scan", "android": "https://dc.lft.to/lastmile_qr_scan"}, "fusion_lat": 0.0, "fusion_lon": 0.0, "bike_id": "1c1c451de6deacd48f48029b140faa3d", "name": "1c1c451de6deacd48f48029b140faa3d"}, {"lon": -77.00051966666666, "is_reserved": 0, "is_disabled": 0, "type": "electric_scooter", "lat": 38.89000633333333, "rental_uris": {"ios": "https://dc.lft.to/lastmile_qr_scan", "android": "https://dc.lft.to/lastmile_qr_scan"}, "fusion_lat": 0.0, "fusion_lon": 0.0, "bike_id": "d78abc147726b9a9f263c9165d091e3a", "name": "d78abc147726b9a9f263c9165d091e3a"}, {"lon": -77.02678983333334, "is_reserved": 0, "is_disabled": 0, "type": "electric_scooter", "lat": 38.90224833333333, "rental_uris": {"ios": "https://dc.lft.to/lastmile_qr_scan", "android": "https://dc.lft.to/lastmile_qr_scan"}, "fusion_lat": 0.0, "fusion_lon": 0.0, "bike_id": "ee67fb682d405578a741664194d14e33", "name": "ee67fb682d405578a741664194d14e33"}, {"lon": -77.0403485, "is_reserved": 0, "is_disabled": 0, "type": "electric_scooter", "lat": 38.90478983333333, "rental_uris": {"ios": "https://dc.lft.to/lastmile_qr_scan", "android": "https://dc.lft.to/lastmile_qr_scan"}, "fusion_lat": 0.0, "fusion_lon": 0.0, "bike_id": "ba537c67225b25f97478f2c6a3699b0e", "name": "ba537c67225b25f97478f2c6a3699b0e"}, {"lon": -76.99821266666666, "is_reserved": 0, "is_disabled": 0, "type": "electric_scooter", "lat": 38.844332666666666, "rental_uris": {"ios": "https://dc.lft.to/lastmile_qr_scan", "android": "https://dc.lft.to/lastmile_qr_scan"}, "fusion_lat": 0.0, "fusion_lon": 0.0, "bike_id": "c90bb0977e313686fad981e96d32f7ff", "name": "c90bb0977e313686fad981e96d32f7ff"}, {"lon": -76.98743466666667, "is_reserved": 0, "is_disabled": 0, "type": "electric_bike", "lat": 38.857907, "rental_uris": {"ios": "https://dc.lft.to/lastmile_qr_scan", "android": "https://dc.lft.to/lastmile_qr_scan"}, "fusion_lat": 0.0, "fusion_lon": 0.0, "bike_id": "45e223cdab6d6771c9d31ce1bf1df7dc", "name": "45e223cdab6d6771c9d31ce1bf1df7dc"}, {"lon": -76.97948966666667, "is_reserved": 0, "is_disabled": 0, "type": "electric_bike", "lat": 38.95237483333333, "rental_uris": {"ios": "https://dc.lft.to/lastmile_qr_scan", "android": "https://dc.lft.to/lastmile_qr_scan"}, "fusion_lat": 0.0, "fusion_lon": 0.0, "bike_id": "9181d88d94096153d8c6de45b366d207", "name": "9181d88d94096153d8c6de45b366d207"}, {"lon": -77.01091583333333, "is_reserved": 0, "is_disabled": 0, "type": "electric_scooter", "lat": 38.895878, "rental_uris": {"ios": "https://dc.lft.to/lastmile_qr_scan", "android": "https://dc.lft.to/lastmile_qr_scan"}, "fusion_lat": 0.0, "fusion_lon": 0.0, "bike_id": "29c4b8fc5ed3cd76929960cea4286556", "name": "29c4b8fc5ed3cd76929960cea4286556"}, {"lon": -77.02686583333333, "is_reserved": 0, "is_disabled": 0, "type": "electric_scooter", "lat": 38.912568666666665, "rental_uris": {"ios": "https://dc.lft.to/lastmile_qr_scan", "android": "https://dc.lft.to/lastmile_qr_scan"}, "fusion_lat": 0.0, "fusion_lon": 0.0, "bike_id": "6492d16fea1ce7ee24e44ed9617359b2", "name": "6492d16fea1ce7ee24e44ed9617359b2"}, {"lon": -77.02711966666666, "is_reserved": 0, "is_disabled": 0, "type": "electric_scooter", "lat": 38.9066315, "rental_uris": {"ios": "https://dc.lft.to/lastmile_qr_scan", "android": "https://dc.lft.to/lastmile_qr_scan"}, "fusion_lat": 0.0, "fusion_lon": 0.0, "bike_id": "06a50d8ba94702a10875af216180c917", "name": "06a50d8ba94702a10875af216180c917"}, {"lon": -77.03263366666667, "is_reserved": 0, "is_disabled": 0, "type": "electric_scooter", "lat": 38.93521283333333, "rental_uris": {"ios": "https://dc.lft.to/lastmile_qr_scan", "android": "https://dc.lft.to/lastmile_qr_scan"}, "fusion_lat": 0.0, "fusion_lon": 0.0, "bike_id": "d361c85e09768702f70d8484abdcf1e3", "name": "d361c85e09768702f70d8484abdcf1e3"}, {"lon": -77.0039185, "is_reserved": 0, "is_disabled": 0, "type": "electric_scooter", "lat": 38.90606116666667, "rental_uris": {"ios": "https://dc.lft.to/lastmile_qr_scan", "android": "https://dc.lft.to/lastmile_qr_scan"}, "fusion_lat": 0.0, "fusion_lon": 0.0, "bike_id": "1390fb21ef9835945982c3f80565bfbc", "name": "1390fb21ef9835945982c3f80565bfbc"}, {"lon": -76.923432, "is_reserved": 0, "is_disabled": 0, "type": "electric_bike", "lat": 38.887903666666666, "rental_uris": {"ios": "https://dc.lft.to/lastmile_qr_scan", "android": "https://dc.lft.to/lastmile_qr_scan"}, "fusion_lat": 0.0, "fusion_lon": 0.0, "bike_id": "4a2eaa3ea61f38af173a976f68d93208", "name": "4a2eaa3ea61f38af173a976f68d93208"}, {"lon": -77.03434916666667, "is_reserved": 0, "is_disabled": 0, "type": "electric_scooter", "lat": 38.90503916666667, "rental_uris": {"ios": "https://dc.lft.to/lastmile_qr_scan", "android": "https://dc.lft.to/lastmile_qr_scan"}, "fusion_lat": 0.0, "fusion_lon": 0.0, "bike_id": "58d023c67679df24b5f7f7d7cb9758a8", "name": "58d023c67679df24b5f7f7d7cb9758a8"}, {"lon": -77.03298066666666, "is_reserved": 0, "is_disabled": 0, "type": "electric_scooter", "lat": 38.92253633333333, "rental_uris": {"ios": "https://dc.lft.to/lastmile_qr_scan", "android": "https://dc.lft.to/lastmile_qr_scan"}, "fusion_lat": 0.0, "fusion_lon": 0.0, "bike_id": "3a0a205d1e2fadd1c6e4181fd0587ffd", "name": "3a0a205d1e2fadd1c6e4181fd0587ffd"}, {"lon": -77.1141585, "is_reserved": 0, "is_disabled": 0, "type": "electric_bike", "lat": 38.84291066666667, "rental_uris": {"ios": "https://dc.lft.to/lastmile_qr_scan", "android": "https://dc.lft.to/lastmile_qr_scan"}, "fusion_lat": 0.0, "fusion_lon": 0.0, "bike_id": "b2b8bed6285df4d35b7d18baa9106e91", "name": "b2b8bed6285df4d35b7d18baa9106e91"}, {"lon": -77.03933816666667, "is_reserved": 0, "is_disabled": 0, "type": "electric_scooter", "lat": 38.908232, "rental_uris": {"ios": "https://dc.lft.to/lastmile_qr_scan", "android": "https://dc.lft.to/lastmile_qr_scan"}, "fusion_lat": 0.0, "fusion_lon": 0.0, "bike_id": "ce22ad4b30be54146bad31695aac6042", "name": "ce22ad4b30be54146bad31695aac6042"}, {"lon": -77.0339695, "is_reserved": 0, "is_disabled": 0, "type": "electric_scooter", "lat": 38.91964, "rental_uris": {"ios": "https://dc.lft.to/lastmile_qr_scan", "android": "https://dc.lft.to/lastmile_qr_scan"}, "fusion_lat": 0.0, "fusion_lon": 0.0, "bike_id": "597c9e5076bbde1957093685955c3b4b", "name": "597c9e5076bbde1957093685955c3b4b"}, {"lon": -76.98360466666666, "is_reserved": 0, "is_disabled": 0, "type": "electric_scooter", "lat": 38.861025833333336, "rental_uris": {"ios": "https://dc.lft.to/lastmile_qr_scan", "android": "https://dc.lft.to/lastmile_qr_scan"}, "fusion_lat": 0.0, "fusion_lon": 0.0, "bike_id": "884434b03357ead2674fab0b07b2b8c3", "name": "884434b03357ead2674fab0b07b2b8c3"}, {"lon": -76.944663, "is_reserved": 0, "is_disabled": 0, "type": "electric_bike", "lat": 38.94555033333334, "rental_uris": {"ios": "https://dc.lft.to/lastmile_qr_scan", "android": "https://dc.lft.to/lastmile_qr_scan"}, "fusion_lat": 0.0, "fusion_lon": 0.0, "bike_id": "7fa4e7b9b7c17beaad12cb492a5144ef", "name": "7fa4e7b9b7c17beaad12cb492a5144ef"}, {"lon": -77.0254365, "is_reserved": 0, "is_disabled": 0, "type": "electric_scooter", "lat": 38.90723116666667, "rental_uris": {"ios": "https://dc.lft.to/lastmile_qr_scan", "android": "https://dc.lft.to/lastmile_qr_scan"}, "fusion_lat": 0.0, "fusion_lon": 0.0, "bike_id": "7c9c0324d2e37e66223c08bec41f08e9", "name": "7c9c0324d2e37e66223c08bec41f08e9"}, {"lon": -77.07899533333334, "is_reserved": 0, "is_disabled": 0, "type": "electric_bike", "lat": 38.83935483333333, "rental_uris": {"ios": "https://dc.lft.to/lastmile_qr_scan", "android": "https://dc.lft.to/lastmile_qr_scan"}, "fusion_lat": 0.0, "fusion_lon": 0.0, "bike_id": "10b64373d3adac386760c9666e938d9a", "name": "10b64373d3adac386760c9666e938d9a"}, {"lon": -77.02496083333334, "is_reserved": 0, "is_disabled": 0, "type": "electric_scooter", "lat": 38.87999166666667, "rental_uris": {"ios": "https://dc.lft.to/lastmile_qr_scan", "android": "https://dc.lft.to/lastmile_qr_scan"}, "fusion_lat": 0.0, "fusion_lon": 0.0, "bike_id": "dc2c8be7d90238de64ad0ae7d9c6985b", "name": "dc2c8be7d90238de64ad0ae7d9c6985b"}, {"lon": -77.00280666666667, "is_reserved": 0, "is_disabled": 0, "type": "electric_scooter", "lat": 38.905911833333334, "rental_uris": {"ios": "https://dc.lft.to/lastmile_qr_scan", "android": "https://dc.lft.to/lastmile_qr_scan"}, "fusion_lat": 0.0, "fusion_lon": 0.0, "bike_id": "2595f9f10168d427c89f58bb042a2f88", "name": "2595f9f10168d427c89f58bb042a2f88"}, {"lon": -77.02872683333334, "is_reserved": 0, "is_disabled": 0, "type": "electric_scooter", "lat": 38.9327965, "rental_uris": {"ios": "https://dc.lft.to/lastmile_qr_scan", "android": "https://dc.lft.to/lastmile_qr_scan"}, "fusion_lat": 0.0, "fusion_lon": 0.0, "bike_id": "06602e3a0e15043364a21678561d2f71", "name": "06602e3a0e15043364a21678561d2f71"}, {"lon": -77.03462783333333, "is_reserved": 0, "is_disabled": 0, "type": "electric_scooter", "lat": 38.91717366666666, "rental_uris": {"ios": "https://dc.lft.to/lastmile_qr_scan", "android": "https://dc.lft.to/lastmile_qr_scan"}, "fusion_lat": 0.0, "fusion_lon": 0.0, "bike_id": "18ece2da24f1fa203fa303a8aa589110", "name": "18ece2da24f1fa203fa303a8aa589110"}, {"lon": -76.942878, "is_reserved": 0, "is_disabled": 0, "type": "electric_scooter", "lat": 38.883029, "rental_uris": {"ios": "https://dc.lft.to/lastmile_qr_scan", "android": "https://dc.lft.to/lastmile_qr_scan"}, "fusion_lat": 0.0, "fusion_lon": 0.0, "bike_id": "87d3027f92e9e006e65585612567d621", "name": "87d3027f92e9e006e65585612567d621"}, {"lon": -76.9833825, "is_reserved": 0, "is_disabled": 0, "type": "electric_scooter", "lat": 38.862530166666666, "rental_uris": {"ios": "https://dc.lft.to/lastmile_qr_scan", "android": "https://dc.lft.to/lastmile_qr_scan"}, "fusion_lat": 0.0, "fusion_lon": 0.0, "bike_id": "fd211fd540c5c54cf3ee16f1b82f280b", "name": "fd211fd540c5c54cf3ee16f1b82f280b"}, {"lon": -77.03294033333333, "is_reserved": 0, "is_disabled": 0, "type": "electric_scooter", "lat": 38.9303145, "rental_uris": {"ios": "https://dc.lft.to/lastmile_qr_scan", "android": "https://dc.lft.to/lastmile_qr_scan"}, "fusion_lat": 0.0, "fusion_lon": 0.0, "bike_id": "7f3464c5bb9e683eb351faeb44deac6a", "name": "7f3464c5bb9e683eb351faeb44deac6a"}, {"lon": -77.0270655, "is_reserved": 0, "is_disabled": 0, "type": "electric_scooter", "lat": 38.91765383333333, "rental_uris": {"ios": "https://dc.lft.to/lastmile_qr_scan", "android": "https://dc.lft.to/lastmile_qr_scan"}, "fusion_lat": 0.0, "fusion_lon": 0.0, "bike_id": "f1461b534e4e6ece625ef7b478006458", "name": "f1461b534e4e6ece625ef7b478006458"}, {"lon": -77.023096, "is_reserved": 0, "is_disabled": 0, "type": "electric_scooter", "lat": 38.916001, "rental_uris": {"ios": "https://dc.lft.to/lastmile_qr_scan", "android": "https://dc.lft.to/lastmile_qr_scan"}, "fusion_lat": 0.0, "fusion_lon": 0.0, "bike_id": "70b5c83627c655d7d07fbc719f405f42", "name": "70b5c83627c655d7d07fbc719f405f42"}, {"lon": -76.94124333333333, "is_reserved": 0, "is_disabled": 0, "type": "electric_scooter", "lat": 38.9079535, "rental_uris": {"ios": "https://dc.lft.to/lastmile_qr_scan", "android": "https://dc.lft.to/lastmile_qr_scan"}, "fusion_lat": 0.0, "fusion_lon": 0.0, "bike_id": "4ae7befa0f58553089af26a352773f5f", "name": "4ae7befa0f58553089af26a352773f5f"}, {"lon": -77.03657, "is_reserved": 0, "is_disabled": 0, "type": "electric_scooter", "lat": 38.91279183333333, "rental_uris": {"ios": "https://dc.lft.to/lastmile_qr_scan", "android": "https://dc.lft.to/lastmile_qr_scan"}, "fusion_lat": 0.0, "fusion_lon": 0.0, "bike_id": "81e1c862b0c858a50a088ce423425fd0", "name": "81e1c862b0c858a50a088ce423425fd0"}, {"lon": -77.04244316666667, "is_reserved": 0, "is_disabled": 0, "type": "electric_scooter", "lat": 38.945563166666666, "rental_uris": {"ios": "https://dc.lft.to/lastmile_qr_scan", "android": "https://dc.lft.to/lastmile_qr_scan"}, "fusion_lat": 0.0, "fusion_lon": 0.0, "bike_id": "7ab51304ad904a5568f7590f7187e1b6", "name": "7ab51304ad904a5568f7590f7187e1b6"}, {"lon": -77.007053, "is_reserved": 0, "is_disabled": 0, "type": "electric_scooter", "lat": 38.89673883333333, "rental_uris": {"ios": "https://dc.lft.to/lastmile_qr_scan", "android": "https://dc.lft.to/lastmile_qr_scan"}, "fusion_lat": 0.0, "fusion_lon": 0.0, "bike_id": "3a5d9f31d1db88b5d23b10fcf417f144", "name": "3a5d9f31d1db88b5d23b10fcf417f144"}, {"lon": -77.04509133333333, "is_reserved": 0, "is_disabled": 0, "type": "electric_scooter", "lat": 38.9127875, "rental_uris": {"ios": "https://dc.lft.to/lastmile_qr_scan", "android": "https://dc.lft.to/lastmile_qr_scan"}, "fusion_lat": 0.0, "fusion_lon": 0.0, "bike_id": "e0b4ae1edc9136807a8dff0c6c0d8c8b", "name": "e0b4ae1edc9136807a8dff0c6c0d8c8b"}, {"lon": -77.027555, "is_reserved": 0, "is_disabled": 0, "type": "electric_scooter", "lat": 38.95412966666667, "rental_uris": {"ios": "https://dc.lft.to/lastmile_qr_scan", "android": "https://dc.lft.to/lastmile_qr_scan"}, "fusion_lat": 0.0, "fusion_lon": 0.0, "bike_id": "b0949261294c80919011e14f4cddcd3f", "name": "b0949261294c80919011e14f4cddcd3f"}, {"lon": -77.03291316666666, "is_reserved": 0, "is_disabled": 0, "type": "electric_scooter", "lat": 38.8987865, "rental_uris": {"ios": "https://dc.lft.to/lastmile_qr_scan", "android": "https://dc.lft.to/lastmile_qr_scan"}, "fusion_lat": 0.0, "fusion_lon": 0.0, "bike_id": "9535131dce8114cd585f4759e7de2f75", "name": "9535131dce8114cd585f4759e7de2f75"}, {"lon": -77.06393666666666, "is_reserved": 0, "is_disabled": 0, "type": "electric_scooter", "lat": 38.92908333333333, "rental_uris": {"ios": "https://dc.lft.to/lastmile_qr_scan", "android": "https://dc.lft.to/lastmile_qr_scan"}, "fusion_lat": 0.0, "fusion_lon": 0.0, "bike_id": "e5f815b04a34b776f5d2674fe36dcc8c", "name": "e5f815b04a34b776f5d2674fe36dcc8c"}, {"lon": -77.06060466666666, "is_reserved": 0, "is_disabled": 0, "type": "electric_scooter", "lat": 38.939059, "rental_uris": {"ios": "https://dc.lft.to/lastmile_qr_scan", "android": "https://dc.lft.to/lastmile_qr_scan"}, "fusion_lat": 0.0, "fusion_lon": 0.0, "bike_id": "358a0f7280483fe8ca4cc883616ec07f", "name": "358a0f7280483fe8ca4cc883616ec07f"}, {"lon": -77.04509483333334, "is_reserved": 0, "is_disabled": 0, "type": "electric_scooter", "lat": 38.886027, "rental_uris": {"ios": "https://dc.lft.to/lastmile_qr_scan", "android": "https://dc.lft.to/lastmile_qr_scan"}, "fusion_lat": 0.0, "fusion_lon": 0.0, "bike_id": "d26fe7c64598055ed12ded159987513f", "name": "d26fe7c64598055ed12ded159987513f"}, {"lon": -77.03193116666667, "is_reserved": 0, "is_disabled": 0, "type": "electric_scooter", "lat": 38.92011216666667, "rental_uris": {"ios": "https://dc.lft.to/lastmile_qr_scan", "android": "https://dc.lft.to/lastmile_qr_scan"}, "fusion_lat": 0.0, "fusion_lon": 0.0, "bike_id": "2cd39081721a69892087b03295d462aa", "name": "2cd39081721a69892087b03295d462aa"}, {"lon": -77.0380205, "is_reserved": 0, "is_disabled": 0, "type": "electric_scooter", "lat": 38.910325, "rental_uris": {"ios": "https://dc.lft.to/lastmile_qr_scan", "android": "https://dc.lft.to/lastmile_qr_scan"}, "fusion_lat": 0.0, "fusion_lon": 0.0, "bike_id": "a24c6880aaca608c828e61ab73239ae1", "name": "a24c6880aaca608c828e61ab73239ae1"}, {"lon": -77.03327366666667, "is_reserved": 0, "is_disabled": 0, "type": "electric_scooter", "lat": 38.89836116666667, "rental_uris": {"ios": "https://dc.lft.to/lastmile_qr_scan", "android": "https://dc.lft.to/lastmile_qr_scan"}, "fusion_lat": 0.0, "fusion_lon": 0.0, "bike_id": "f46a9dc975502b4bac60ba0daff37f13", "name": "f46a9dc975502b4bac60ba0daff37f13"}, {"lon": -77.03703383333334, "is_reserved": 0, "is_disabled": 0, "type": "electric_scooter", "lat": 38.9202675, "rental_uris": {"ios": "https://dc.lft.to/lastmile_qr_scan", "android": "https://dc.lft.to/lastmile_qr_scan"}, "fusion_lat": 0.0, "fusion_lon": 0.0, "bike_id": "ad9c7b9f58bb2400a1c45a783c4af123", "name": "ad9c7b9f58bb2400a1c45a783c4af123"}, {"lon": -77.1012835, "is_reserved": 0, "is_disabled": 0, "type": "electric_bike", "lat": 38.852063, "rental_uris": {"ios": "https://dc.lft.to/lastmile_qr_scan", "android": "https://dc.lft.to/lastmile_qr_scan"}, "fusion_lat": 0.0, "fusion_lon": 0.0, "bike_id": "e4d0cd51bacabe5d133618f6ef4ae7c8", "name": "e4d0cd51bacabe5d133618f6ef4ae7c8"}, {"lon": -77.02916916666666, "is_reserved": 0, "is_disabled": 0, "type": "electric_scooter", "lat": 38.89993716666667, "rental_uris": {"ios": "https://dc.lft.to/lastmile_qr_scan", "android": "https://dc.lft.to/lastmile_qr_scan"}, "fusion_lat": 0.0, "fusion_lon": 0.0, "bike_id": "894b9aee4b454e38d739e7c1448d26dd", "name": "894b9aee4b454e38d739e7c1448d26dd"}, {"lon": -76.99092733333333, "is_reserved": 0, "is_disabled": 0, "type": "electric_scooter", "lat": 38.86357133333333, "rental_uris": {"ios": "https://dc.lft.to/lastmile_qr_scan", "android": "https://dc.lft.to/lastmile_qr_scan"}, "fusion_lat": 0.0, "fusion_lon": 0.0, "bike_id": "c0aa4466ee36cbc2f8be660b76dba40c", "name": "c0aa4466ee36cbc2f8be660b76dba40c"}, {"lon": -77.045966, "is_reserved": 0, "is_disabled": 0, "type": "electric_scooter", "lat": 38.8960715, "rental_uris": {"ios": "https://dc.lft.to/lastmile_qr_scan", "android": "https://dc.lft.to/lastmile_qr_scan"}, "fusion_lat": 0.0, "fusion_lon": 0.0, "bike_id": "72c7ce4f70c81329a79fb64551d8b879", "name": "72c7ce4f70c81329a79fb64551d8b879"}, {"lon": -77.0083015, "is_reserved": 0, "is_disabled": 0, "type": "electric_bike", "lat": 38.887168833333334, "rental_uris": {"ios": "https://dc.lft.to/lastmile_qr_scan", "android": "https://dc.lft.to/lastmile_qr_scan"}, "fusion_lat": 0.0, "fusion_lon": 0.0, "bike_id": "9b7ee7a31f2162a3cf1855490eef9c2b", "name": "9b7ee7a31f2162a3cf1855490eef9c2b"}, {"lon": -77.0352355, "is_reserved": 0, "is_disabled": 0, "type": "electric_scooter", "lat": 38.93277616666666, "rental_uris": {"ios": "https://dc.lft.to/lastmile_qr_scan", "android": "https://dc.lft.to/lastmile_qr_scan"}, "fusion_lat": 0.0, "fusion_lon": 0.0, "bike_id": "d8fd843bc1b991365cf7af7c9e686f5b", "name": "d8fd843bc1b991365cf7af7c9e686f5b"}, {"lon": -77.01927633333334, "is_reserved": 0, "is_disabled": 0, "type": "electric_scooter", "lat": 38.9447745, "rental_uris": {"ios": "https://dc.lft.to/lastmile_qr_scan", "android": "https://dc.lft.to/lastmile_qr_scan"}, "fusion_lat": 0.0, "fusion_lon": 0.0, "bike_id": "9a459f42961b542b05bf099f116e31c4", "name": "9a459f42961b542b05bf099f116e31c4"}, {"lon": -77.02207333333334, "is_reserved": 0, "is_disabled": 0, "type": "electric_scooter", "lat": 38.903212333333336, "rental_uris": {"ios": "https://dc.lft.to/lastmile_qr_scan", "android": "https://dc.lft.to/lastmile_qr_scan"}, "fusion_lat": 0.0, "fusion_lon": 0.0, "bike_id": "4245ffb5fef02afc2e8aa47998b453a2", "name": "4245ffb5fef02afc2e8aa47998b453a2"}, {"lon": -77.04186033333333, "is_reserved": 0, "is_disabled": 0, "type": "electric_scooter", "lat": 38.9112625, "rental_uris": {"ios": "https://dc.lft.to/lastmile_qr_scan", "android": "https://dc.lft.to/lastmile_qr_scan"}, "fusion_lat": 0.0, "fusion_lon": 0.0, "bike_id": "5b924d2e8e873651b6d838738692429a", "name": "5b924d2e8e873651b6d838738692429a"}, {"lon": -77.0380425, "is_reserved": 0, "is_disabled": 0, "type": "electric_scooter", "lat": 38.907078, "rental_uris": {"ios": "https://dc.lft.to/lastmile_qr_scan", "android": "https://dc.lft.to/lastmile_qr_scan"}, "fusion_lat": 0.0, "fusion_lon": 0.0, "bike_id": "9dbd1c54fadfadb26b1f56748042e7a6", "name": "9dbd1c54fadfadb26b1f56748042e7a6"}, {"lon": -77.02252983333334, "is_reserved": 0, "is_disabled": 0, "type": "electric_scooter", "lat": 38.91633983333333, "rental_uris": {"ios": "https://dc.lft.to/lastmile_qr_scan", "android": "https://dc.lft.to/lastmile_qr_scan"}, "fusion_lat": 0.0, "fusion_lon": 0.0, "bike_id": "41f1447a8ce5d69b7c682f9f8695419d", "name": "41f1447a8ce5d69b7c682f9f8695419d"}, {"lon": -77.06842583333334, "is_reserved": 0, "is_disabled": 0, "type": "electric_scooter", "lat": 38.951946, "rental_uris": {"ios": "https://dc.lft.to/lastmile_qr_scan", "android": "https://dc.lft.to/lastmile_qr_scan"}, "fusion_lat": 0.0, "fusion_lon": 0.0, "bike_id": "f2af44f27e4d6dde6a4783b16f0a4ba8", "name": "f2af44f27e4d6dde6a4783b16f0a4ba8"}, {"lon": -76.97987566666667, "is_reserved": 0, "is_disabled": 0, "type": "electric_scooter", "lat": 38.8876715, "rental_uris": {"ios": "https://dc.lft.to/lastmile_qr_scan", "android": "https://dc.lft.to/lastmile_qr_scan"}, "fusion_lat": 0.0, "fusion_lon": 0.0, "bike_id": "bf665f395f5a22fd2df6a28c8b694648", "name": "bf665f395f5a22fd2df6a28c8b694648"}, {"lon": -77.02716716666667, "is_reserved": 0, "is_disabled": 0, "type": "electric_scooter", "lat": 38.8961295, "rental_uris": {"ios": "https://dc.lft.to/lastmile_qr_scan", "android": "https://dc.lft.to/lastmile_qr_scan"}, "fusion_lat": 0.0, "fusion_lon": 0.0, "bike_id": "04179dc3213abc807aeedd82f974b503", "name": "04179dc3213abc807aeedd82f974b503"}, {"lon": -77.015606, "is_reserved": 0, "is_disabled": 0, "type": "electric_scooter", "lat": 38.8917445, "rental_uris": {"ios": "https://dc.lft.to/lastmile_qr_scan", "android": "https://dc.lft.to/lastmile_qr_scan"}, "fusion_lat": 0.0, "fusion_lon": 0.0, "bike_id": "d18f3ff0e568d31063b7d6738df7ed5c", "name": "d18f3ff0e568d31063b7d6738df7ed5c"}, {"lon": -77.02313216666667, "is_reserved": 0, "is_disabled": 0, "type": "electric_scooter", "lat": 38.92787466666667, "rental_uris": {"ios": "https://dc.lft.to/lastmile_qr_scan", "android": "https://dc.lft.to/lastmile_qr_scan"}, "fusion_lat": 0.0, "fusion_lon": 0.0, "bike_id": "f314054e5f5aba3de3352682ba2dcb43", "name": "f314054e5f5aba3de3352682ba2dcb43"}, {"lon": -77.02816783333333, "is_reserved": 0, "is_disabled": 0, "type": "electric_scooter", "lat": 38.8924335, "rental_uris": {"ios": "https://dc.lft.to/lastmile_qr_scan", "android": "https://dc.lft.to/lastmile_qr_scan"}, "fusion_lat": 0.0, "fusion_lon": 0.0, "bike_id": "202cdf5fb212e5d27f3995fbbe804bcf", "name": "202cdf5fb212e5d27f3995fbbe804bcf"}, {"lon": -77.02637283333334, "is_reserved": 0, "is_disabled": 0, "type": "electric_scooter", "lat": 38.98056583333333, "rental_uris": {"ios": "https://dc.lft.to/lastmile_qr_scan", "android": "https://dc.lft.to/lastmile_qr_scan"}, "fusion_lat": 0.0, "fusion_lon": 0.0, "bike_id": "cd9006e64fff70b22550f3a02e3956e8", "name": "cd9006e64fff70b22550f3a02e3956e8"}, {"lon": -77.06887233333333, "is_reserved": 0, "is_disabled": 0, "type": "electric_scooter", "lat": 38.90514983333333, "rental_uris": {"ios": "https://dc.lft.to/lastmile_qr_scan", "android": "https://dc.lft.to/lastmile_qr_scan"}, "fusion_lat": 0.0, "fusion_lon": 0.0, "bike_id": "dbc273d72a160b4a6d80df72e9096f1a", "name": "dbc273d72a160b4a6d80df72e9096f1a"}, {"lon": -76.94574716666666, "is_reserved": 0, "is_disabled": 0, "type": "electric_bike", "lat": 38.8661965, "rental_uris": {"ios": "https://dc.lft.to/lastmile_qr_scan", "android": "https://dc.lft.to/lastmile_qr_scan"}, "fusion_lat": 0.0, "fusion_lon": 0.0, "bike_id": "c65c8f4b42cb4a1753d88d407d3c47ce", "name": "c65c8f4b42cb4a1753d88d407d3c47ce"}, {"lon": -77.0260835, "is_reserved": 0, "is_disabled": 0, "type": "electric_scooter", "lat": 38.924417, "rental_uris": {"ios": "https://dc.lft.to/lastmile_qr_scan", "android": "https://dc.lft.to/lastmile_qr_scan"}, "fusion_lat": 0.0, "fusion_lon": 0.0, "bike_id": "db2b84c9a499d228af4c6853d4decb4f", "name": "db2b84c9a499d228af4c6853d4decb4f"}, {"lon": -77.031117, "is_reserved": 0, "is_disabled": 0, "type": "electric_scooter", "lat": 38.929674, "rental_uris": {"ios": "https://dc.lft.to/lastmile_qr_scan", "android": "https://dc.lft.to/lastmile_qr_scan"}, "fusion_lat": 0.0, "fusion_lon": 0.0, "bike_id": "7a48fef0ee9bcc47859e13d7f6306163", "name": "7a48fef0ee9bcc47859e13d7f6306163"}, {"lon": -76.996828, "is_reserved": 0, "is_disabled": 0, "type": "electric_scooter", "lat": 38.886999, "rental_uris": {"ios": "https://dc.lft.to/lastmile_qr_scan", "android": "https://dc.lft.to/lastmile_qr_scan"}, "fusion_lat": 0.0, "fusion_lon": 0.0, "bike_id": "322e5326689758a47fd9d735fd04554c", "name": "322e5326689758a47fd9d735fd04554c"}, {"lon": -77.0621635, "is_reserved": 0, "is_disabled": 0, "type": "electric_scooter", "lat": 38.905312333333335, "rental_uris": {"ios": "https://dc.lft.to/lastmile_qr_scan", "android": "https://dc.lft.to/lastmile_qr_scan"}, "fusion_lat": 0.0, "fusion_lon": 0.0, "bike_id": "23ab280fd1b6a5766f5c0cda76f05b38", "name": "23ab280fd1b6a5766f5c0cda76f05b38"}, {"lon": -77.03219383333334, "is_reserved": 0, "is_disabled": 0, "type": "electric_scooter", "lat": 38.918602166666666, "rental_uris": {"ios": "https://dc.lft.to/lastmile_qr_scan", "android": "https://dc.lft.to/lastmile_qr_scan"}, "fusion_lat": 0.0, "fusion_lon": 0.0, "bike_id": "5b45623f418a47ab9918dcfbee527ba3", "name": "5b45623f418a47ab9918dcfbee527ba3"}, {"lon": -77.00336816666666, "is_reserved": 0, "is_disabled": 0, "type": "electric_scooter", "lat": 38.895065, "rental_uris": {"ios": "https://dc.lft.to/lastmile_qr_scan", "android": "https://dc.lft.to/lastmile_qr_scan"}, "fusion_lat": 0.0, "fusion_lon": 0.0, "bike_id": "1b6d822a9f898c8ce3673b7939f501e4", "name": "1b6d822a9f898c8ce3673b7939f501e4"}, {"lon": -77.11217733333334, "is_reserved": 0, "is_disabled": 0, "type": "electric_bike", "lat": 38.82872183333333, "rental_uris": {"ios": "https://dc.lft.to/lastmile_qr_scan", "android": "https://dc.lft.to/lastmile_qr_scan"}, "fusion_lat": 0.0, "fusion_lon": 0.0, "bike_id": "89d5f64aea16200a2131ebbfd64e8c45", "name": "89d5f64aea16200a2131ebbfd64e8c45"}, {"lon": -77.038232, "is_reserved": 0, "is_disabled": 0, "type": "electric_scooter", "lat": 38.9077655, "rental_uris": {"ios": "https://dc.lft.to/lastmile_qr_scan", "android": "https://dc.lft.to/lastmile_qr_scan"}, "fusion_lat": 0.0, "fusion_lon": 0.0, "bike_id": "adc42c0107ea2b12ed436745c1a97e6f", "name": "adc42c0107ea2b12ed436745c1a97e6f"}, {"lon": -76.983757, "is_reserved": 0, "is_disabled": 0, "type": "electric_scooter", "lat": 38.89973083333334, "rental_uris": {"ios": "https://dc.lft.to/lastmile_qr_scan", "android": "https://dc.lft.to/lastmile_qr_scan"}, "fusion_lat": 0.0, "fusion_lon": 0.0, "bike_id": "3a58906e43aae92d11887a177204e98c", "name": "3a58906e43aae92d11887a177204e98c"}, {"lon": -77.0318245, "is_reserved": 0, "is_disabled": 0, "type": "electric_scooter", "lat": 38.921036666666666, "rental_uris": {"ios": "https://dc.lft.to/lastmile_qr_scan", "android": "https://dc.lft.to/lastmile_qr_scan"}, "fusion_lat": 0.0, "fusion_lon": 0.0, "bike_id": "76d5ebc08c0ccf1b18d31ff06f050411", "name": "76d5ebc08c0ccf1b18d31ff06f050411"}, {"lon": -77.022282, "is_reserved": 0, "is_disabled": 0, "type": "electric_scooter", "lat": 38.9126875, "rental_uris": {"ios": "https://dc.lft.to/lastmile_qr_scan", "android": "https://dc.lft.to/lastmile_qr_scan"}, "fusion_lat": 0.0, "fusion_lon": 0.0, "bike_id": "95c9bcb3facdef118fba195d40c017e7", "name": "95c9bcb3facdef118fba195d40c017e7"}, {"lon": -77.01511183333334, "is_reserved": 0, "is_disabled": 0, "type": "electric_scooter", "lat": 38.89921666666667, "rental_uris": {"ios": "https://dc.lft.to/lastmile_qr_scan", "android": "https://dc.lft.to/lastmile_qr_scan"}, "fusion_lat": 0.0, "fusion_lon": 0.0, "bike_id": "b5b17375b1d343fb84db59dafed1ec0d", "name": "b5b17375b1d343fb84db59dafed1ec0d"}, {"lon": -77.02710266666666, "is_reserved": 0, "is_disabled": 0, "type": "electric_scooter", "lat": 38.901148, "rental_uris": {"ios": "https://dc.lft.to/lastmile_qr_scan", "android": "https://dc.lft.to/lastmile_qr_scan"}, "fusion_lat": 0.0, "fusion_lon": 0.0, "bike_id": "94227620b5bf26d8c33de8d22b383ded", "name": "94227620b5bf26d8c33de8d22b383ded"}, {"lon": -77.02527383333333, "is_reserved": 0, "is_disabled": 0, "type": "electric_scooter", "lat": 38.90563, "rental_uris": {"ios": "https://dc.lft.to/lastmile_qr_scan", "android": "https://dc.lft.to/lastmile_qr_scan"}, "fusion_lat": 0.0, "fusion_lon": 0.0, "bike_id": "27910237d8e95a230c271307b606bd02", "name": "27910237d8e95a230c271307b606bd02"}, {"lon": -76.93158533333333, "is_reserved": 0, "is_disabled": 0, "type": "electric_scooter", "lat": 38.89879116666667, "rental_uris": {"ios": "https://dc.lft.to/lastmile_qr_scan", "android": "https://dc.lft.to/lastmile_qr_scan"}, "fusion_lat": 0.0, "fusion_lon": 0.0, "bike_id": "417951ef930333507aaaea3c961b64e8", "name": "417951ef930333507aaaea3c961b64e8"}, {"lon": -76.87497883333333, "is_reserved": 0, "is_disabled": 0, "type": "electric_bike", "lat": 38.99088066666667, "rental_uris": {"ios": "https://dc.lft.to/lastmile_qr_scan", "android": "https://dc.lft.to/lastmile_qr_scan"}, "fusion_lat": 0.0, "fusion_lon": 0.0, "bike_id": "8724da9f416d5c4df70e30890df87357", "name": "8724da9f416d5c4df70e30890df87357"}, {"lon": -77.038434, "is_reserved": 0, "is_disabled": 0, "type": "electric_scooter", "lat": 38.912106, "rental_uris": {"ios": "https://dc.lft.to/lastmile_qr_scan", "android": "https://dc.lft.to/lastmile_qr_scan"}, "fusion_lat": 0.0, "fusion_lon": 0.0, "bike_id": "300e93ccf86669ea3060ecb047dbe66b", "name": "300e93ccf86669ea3060ecb047dbe66b"}, {"lon": -77.04153616666666, "is_reserved": 0, "is_disabled": 0, "type": "electric_scooter", "lat": 38.91715633333333, "rental_uris": {"ios": "https://dc.lft.to/lastmile_qr_scan", "android": "https://dc.lft.to/lastmile_qr_scan"}, "fusion_lat": 0.0, "fusion_lon": 0.0, "bike_id": "53c9606a3dba0f4f5a0a72880ce47b02", "name": "53c9606a3dba0f4f5a0a72880ce47b02"}, {"lon": -77.05700166666666, "is_reserved": 0, "is_disabled": 0, "type": "electric_scooter", "lat": 38.91052633333334, "rental_uris": {"ios": "https://dc.lft.to/lastmile_qr_scan", "android": "https://dc.lft.to/lastmile_qr_scan"}, "fusion_lat": 0.0, "fusion_lon": 0.0, "bike_id": "1e9e1b4c2284731628d65c870cfc23b7", "name": "1e9e1b4c2284731628d65c870cfc23b7"}, {"lon": -77.0031935, "is_reserved": 0, "is_disabled": 0, "type": "electric_scooter", "lat": 38.88989683333333, "rental_uris": {"ios": "https://dc.lft.to/lastmile_qr_scan", "android": "https://dc.lft.to/lastmile_qr_scan"}, "fusion_lat": 0.0, "fusion_lon": 0.0, "bike_id": "6d2871705585d41de097089c117a57aa", "name": "6d2871705585d41de097089c117a57aa"}, {"lon": -77.00333, "is_reserved": 0, "is_disabled": 0, "type": "electric_scooter", "lat": 38.90135516666667, "rental_uris": {"ios": "https://dc.lft.to/lastmile_qr_scan", "android": "https://dc.lft.to/lastmile_qr_scan"}, "fusion_lat": 0.0, "fusion_lon": 0.0, "bike_id": "117352c3e9ba13fedd2557ead19e13c8", "name": "117352c3e9ba13fedd2557ead19e13c8"}, {"lon": -77.032636, "is_reserved": 0, "is_disabled": 0, "type": "electric_scooter", "lat": 38.93341616666667, "rental_uris": {"ios": "https://dc.lft.to/lastmile_qr_scan", "android": "https://dc.lft.to/lastmile_qr_scan"}, "fusion_lat": 0.0, "fusion_lon": 0.0, "bike_id": "872f2b0b95f3f3b79e12d1b2187d0446", "name": "872f2b0b95f3f3b79e12d1b2187d0446"}, {"lon": -77.03863883333334, "is_reserved": 0, "is_disabled": 0, "type": "electric_scooter", "lat": 38.93210716666667, "rental_uris": {"ios": "https://dc.lft.to/lastmile_qr_scan", "android": "https://dc.lft.to/lastmile_qr_scan"}, "fusion_lat": 0.0, "fusion_lon": 0.0, "bike_id": "ec1c3df5e083bac9eb10eea005b42f45", "name": "ec1c3df5e083bac9eb10eea005b42f45"}, {"lon": -76.99374316666666, "is_reserved": 0, "is_disabled": 0, "type": "electric_scooter", "lat": 38.9101845, "rental_uris": {"ios": "https://dc.lft.to/lastmile_qr_scan", "android": "https://dc.lft.to/lastmile_qr_scan"}, "fusion_lat": 0.0, "fusion_lon": 0.0, "bike_id": "9d89619cf2fc802e81be10142f23bafa", "name": "9d89619cf2fc802e81be10142f23bafa"}, {"lon": -77.02655383333334, "is_reserved": 0, "is_disabled": 0, "type": "electric_scooter", "lat": 38.90244416666667, "rental_uris": {"ios": "https://dc.lft.to/lastmile_qr_scan", "android": "https://dc.lft.to/lastmile_qr_scan"}, "fusion_lat": 0.0, "fusion_lon": 0.0, "bike_id": "e09480c6d7097613d60f68b7940cbc7e", "name": "e09480c6d7097613d60f68b7940cbc7e"}, {"lon": -76.93747566666667, "is_reserved": 0, "is_disabled": 0, "type": "electric_scooter", "lat": 38.8901455, "rental_uris": {"ios": "https://dc.lft.to/lastmile_qr_scan", "android": "https://dc.lft.to/lastmile_qr_scan"}, "fusion_lat": 0.0, "fusion_lon": 0.0, "bike_id": "b1d3ec4c3b5a91a286c50159d6428a30", "name": "b1d3ec4c3b5a91a286c50159d6428a30"}, {"lon": -77.00542616666667, "is_reserved": 0, "is_disabled": 0, "type": "electric_scooter", "lat": 38.874581, "rental_uris": {"ios": "https://dc.lft.to/lastmile_qr_scan", "android": "https://dc.lft.to/lastmile_qr_scan"}, "fusion_lat": 0.0, "fusion_lon": 0.0, "bike_id": "39406b588416caa8b566ede5cf97f878", "name": "39406b588416caa8b566ede5cf97f878"}, {"lon": -77.02827283333333, "is_reserved": 0, "is_disabled": 0, "type": "electric_scooter", "lat": 38.905567833333336, "rental_uris": {"ios": "https://dc.lft.to/lastmile_qr_scan", "android": "https://dc.lft.to/lastmile_qr_scan"}, "fusion_lat": 0.0, "fusion_lon": 0.0, "bike_id": "b8c1f8d5dd7ee7450e4613c4c5c67e83", "name": "b8c1f8d5dd7ee7450e4613c4c5c67e83"}, {"lon": -76.9484265, "is_reserved": 0, "is_disabled": 0, "type": "electric_scooter", "lat": 38.89486183333333, "rental_uris": {"ios": "https://dc.lft.to/lastmile_qr_scan", "android": "https://dc.lft.to/lastmile_qr_scan"}, "fusion_lat": 0.0, "fusion_lon": 0.0, "bike_id": "7f4763e1f6973e7e5e5404cd811e2ff8", "name": "7f4763e1f6973e7e5e5404cd811e2ff8"}, {"lon": -77.08211033333333, "is_reserved": 0, "is_disabled": 0, "type": "electric_scooter", "lat": 38.93553516666667, "rental_uris": {"ios": "https://dc.lft.to/lastmile_qr_scan", "android": "https://dc.lft.to/lastmile_qr_scan"}, "fusion_lat": 0.0, "fusion_lon": 0.0, "bike_id": "e4051f970c33375217db21330d5490e9", "name": "e4051f970c33375217db21330d5490e9"}, {"lon": -77.02853833333333, "is_reserved": 0, "is_disabled": 0, "type": "electric_scooter", "lat": 38.93267083333333, "rental_uris": {"ios": "https://dc.lft.to/lastmile_qr_scan", "android": "https://dc.lft.to/lastmile_qr_scan"}, "fusion_lat": 0.0, "fusion_lon": 0.0, "bike_id": "071fc71f10864f4ff4c56d33b50733d3", "name": "071fc71f10864f4ff4c56d33b50733d3"}, {"lon": -76.9917045, "is_reserved": 0, "is_disabled": 0, "type": "electric_scooter", "lat": 38.882119333333335, "rental_uris": {"ios": "https://dc.lft.to/lastmile_qr_scan", "android": "https://dc.lft.to/lastmile_qr_scan"}, "fusion_lat": 0.0, "fusion_lon": 0.0, "bike_id": "b47ec47ca241054fdef87fcd2d76f1fa", "name": "b47ec47ca241054fdef87fcd2d76f1fa"}, {"lon": -77.03114183333334, "is_reserved": 0, "is_disabled": 0, "type": "electric_scooter", "lat": 38.92037216666667, "rental_uris": {"ios": "https://dc.lft.to/lastmile_qr_scan", "android": "https://dc.lft.to/lastmile_qr_scan"}, "fusion_lat": 0.0, "fusion_lon": 0.0, "bike_id": "4663e00908df1deb29b88f1d4df7ff9b", "name": "4663e00908df1deb29b88f1d4df7ff9b"}, {"lon": -77.0419325, "is_reserved": 0, "is_disabled": 0, "type": "electric_scooter", "lat": 38.91139366666667, "rental_uris": {"ios": "https://dc.lft.to/lastmile_qr_scan", "android": "https://dc.lft.to/lastmile_qr_scan"}, "fusion_lat": 0.0, "fusion_lon": 0.0, "bike_id": "c7ad6d8128342ffc4fbdc0660ed10301", "name": "c7ad6d8128342ffc4fbdc0660ed10301"}, {"lon": -77.0137255, "is_reserved": 0, "is_disabled": 0, "type": "electric_scooter", "lat": 38.892234, "rental_uris": {"ios": "https://dc.lft.to/lastmile_qr_scan", "android": "https://dc.lft.to/lastmile_qr_scan"}, "fusion_lat": 0.0, "fusion_lon": 0.0, "bike_id": "c8915193695787b9960e9464a566c5d3", "name": "c8915193695787b9960e9464a566c5d3"}, {"lon": -76.90534383333333, "is_reserved": 0, "is_disabled": 0, "type": "electric_bike", "lat": 38.89732433333333, "rental_uris": {"ios": "https://dc.lft.to/lastmile_qr_scan", "android": "https://dc.lft.to/lastmile_qr_scan"}, "fusion_lat": 0.0, "fusion_lon": 0.0, "bike_id": "39900616429fb1d31864cdb08529c8d9", "name": "39900616429fb1d31864cdb08529c8d9"}, {"lon": -77.0216685, "is_reserved": 0, "is_disabled": 0, "type": "electric_scooter", "lat": 38.8874415, "rental_uris": {"ios": "https://dc.lft.to/lastmile_qr_scan", "android": "https://dc.lft.to/lastmile_qr_scan"}, "fusion_lat": 0.0, "fusion_lon": 0.0, "bike_id": "8e51e3ebe3ce1585927d5cd71ec3bcca", "name": "8e51e3ebe3ce1585927d5cd71ec3bcca"}, {"lon": -77.04182383333334, "is_reserved": 0, "is_disabled": 0, "type": "electric_scooter", "lat": 38.90345, "rental_uris": {"ios": "https://dc.lft.to/lastmile_qr_scan", "android": "https://dc.lft.to/lastmile_qr_scan"}, "fusion_lat": 0.0, "fusion_lon": 0.0, "bike_id": "d8f1d5677bccf9d8e2c91ff7bc50067c", "name": "d8f1d5677bccf9d8e2c91ff7bc50067c"}, {"lon": -77.0435325, "is_reserved": 0, "is_disabled": 0, "type": "electric_scooter", "lat": 38.90414916666667, "rental_uris": {"ios": "https://dc.lft.to/lastmile_qr_scan", "android": "https://dc.lft.to/lastmile_qr_scan"}, "fusion_lat": 0.0, "fusion_lon": 0.0, "bike_id": "707ccb4bdd9ad8a1bbbc392e5741229c", "name": "707ccb4bdd9ad8a1bbbc392e5741229c"}, {"lon": -77.03256483333334, "is_reserved": 0, "is_disabled": 0, "type": "electric_scooter", "lat": 38.91932533333333, "rental_uris": {"ios": "https://dc.lft.to/lastmile_qr_scan", "android": "https://dc.lft.to/lastmile_qr_scan"}, "fusion_lat": 0.0, "fusion_lon": 0.0, "bike_id": "db438296b7607700fb44ae7f42d5c70e", "name": "db438296b7607700fb44ae7f42d5c70e"}, {"lon": -77.01236016666667, "is_reserved": 0, "is_disabled": 0, "type": "electric_scooter", "lat": 38.907177, "rental_uris": {"ios": "https://dc.lft.to/lastmile_qr_scan", "android": "https://dc.lft.to/lastmile_qr_scan"}, "fusion_lat": 0.0, "fusion_lon": 0.0, "bike_id": "c1740ceb9d2a6835328e612f98dddc6f", "name": "c1740ceb9d2a6835328e612f98dddc6f"}, {"lon": -77.02187683333334, "is_reserved": 0, "is_disabled": 0, "type": "electric_scooter", "lat": 38.918813166666666, "rental_uris": {"ios": "https://dc.lft.to/lastmile_qr_scan", "android": "https://dc.lft.to/lastmile_qr_scan"}, "fusion_lat": 0.0, "fusion_lon": 0.0, "bike_id": "257ab0f7208dbb1f9776cf65cd63fc57", "name": "257ab0f7208dbb1f9776cf65cd63fc57"}, {"lon": -77.01377516666666, "is_reserved": 0, "is_disabled": 0, "type": "electric_scooter", "lat": 38.8864095, "rental_uris": {"ios": "https://dc.lft.to/lastmile_qr_scan", "android": "https://dc.lft.to/lastmile_qr_scan"}, "fusion_lat": 0.0, "fusion_lon": 0.0, "bike_id": "ccf7a7925edb6e671b2df2854ad19cc8", "name": "ccf7a7925edb6e671b2df2854ad19cc8"}, {"lon": -76.96555666666667, "is_reserved": 0, "is_disabled": 0, "type": "electric_scooter", "lat": 38.91846866666667, "rental_uris": {"ios": "https://dc.lft.to/lastmile_qr_scan", "android": "https://dc.lft.to/lastmile_qr_scan"}, "fusion_lat": 0.0, "fusion_lon": 0.0, "bike_id": "db11457693fedbdba81d36a0707deb0d", "name": "db11457693fedbdba81d36a0707deb0d"}, {"lon": -77.04264233333333, "is_reserved": 0, "is_disabled": 0, "type": "electric_scooter", "lat": 38.897250166666666, "rental_uris": {"ios": "https://dc.lft.to/lastmile_qr_scan", "android": "https://dc.lft.to/lastmile_qr_scan"}, "fusion_lat": 0.0, "fusion_lon": 0.0, "bike_id": "48b7e664eeb7c1c06eb15113a1447bdd", "name": "48b7e664eeb7c1c06eb15113a1447bdd"}, {"lon": -77.050107, "is_reserved": 0, "is_disabled": 0, "type": "electric_scooter", "lat": 38.90530166666667, "rental_uris": {"ios": "https://dc.lft.to/lastmile_qr_scan", "android": "https://dc.lft.to/lastmile_qr_scan"}, "fusion_lat": 0.0, "fusion_lon": 0.0, "bike_id": "ce66eeb1a89aebc28c76c345c34322b8", "name": "ce66eeb1a89aebc28c76c345c34322b8"}, {"lon": -77.06924016666666, "is_reserved": 0, "is_disabled": 0, "type": "electric_scooter", "lat": 38.913348166666665, "rental_uris": {"ios": "https://dc.lft.to/lastmile_qr_scan", "android": "https://dc.lft.to/lastmile_qr_scan"}, "fusion_lat": 0.0, "fusion_lon": 0.0, "bike_id": "1326507aa8fdae3687e3375b958d0a69", "name": "1326507aa8fdae3687e3375b958d0a69"}, {"lon": -77.00484133333333, "is_reserved": 0, "is_disabled": 0, "type": "electric_scooter", "lat": 38.92594666666667, "rental_uris": {"ios": "https://dc.lft.to/lastmile_qr_scan", "android": "https://dc.lft.to/lastmile_qr_scan"}, "fusion_lat": 0.0, "fusion_lon": 0.0, "bike_id": "1fce7dfb145b9bbcbc206e4215a0686d", "name": "1fce7dfb145b9bbcbc206e4215a0686d"}, {"lon": -76.94118316666666, "is_reserved": 0, "is_disabled": 0, "type": "electric_scooter", "lat": 38.907911, "rental_uris": {"ios": "https://dc.lft.to/lastmile_qr_scan", "android": "https://dc.lft.to/lastmile_qr_scan"}, "fusion_lat": 0.0, "fusion_lon": 0.0, "bike_id": "5c55913f71f0c308da64439d6b1ac39b", "name": "5c55913f71f0c308da64439d6b1ac39b"}, {"lon": -76.9316165, "is_reserved": 0, "is_disabled": 0, "type": "electric_scooter", "lat": 38.898791333333335, "rental_uris": {"ios": "https://dc.lft.to/lastmile_qr_scan", "android": "https://dc.lft.to/lastmile_qr_scan"}, "fusion_lat": 0.0, "fusion_lon": 0.0, "bike_id": "125d2fc8b6612b62c9d400291de3bbb9", "name": "125d2fc8b6612b62c9d400291de3bbb9"}, {"lon": -77.0615755, "is_reserved": 0, "is_disabled": 0, "type": "electric_scooter", "lat": 38.942291166666664, "rental_uris": {"ios": "https://dc.lft.to/lastmile_qr_scan", "android": "https://dc.lft.to/lastmile_qr_scan"}, "fusion_lat": 0.0, "fusion_lon": 0.0, "bike_id": "b1411a3a7ca192830a7467208e4449ac", "name": "b1411a3a7ca192830a7467208e4449ac"}, {"lon": -77.02710316666666, "is_reserved": 0, "is_disabled": 0, "type": "electric_scooter", "lat": 38.906659166666664, "rental_uris": {"ios": "https://dc.lft.to/lastmile_qr_scan", "android": "https://dc.lft.to/lastmile_qr_scan"}, "fusion_lat": 0.0, "fusion_lon": 0.0, "bike_id": "949a5d0245462661ee6128f3d275737c", "name": "949a5d0245462661ee6128f3d275737c"}, {"lon": -77.03823416666667, "is_reserved": 0, "is_disabled": 0, "type": "electric_scooter", "lat": 38.90777283333333, "rental_uris": {"ios": "https://dc.lft.to/lastmile_qr_scan", "android": "https://dc.lft.to/lastmile_qr_scan"}, "fusion_lat": 0.0, "fusion_lon": 0.0, "bike_id": "454b26a963515833129655b62b9a6d94", "name": "454b26a963515833129655b62b9a6d94"}, {"lon": -76.98683483333333, "is_reserved": 0, "is_disabled": 0, "type": "electric_scooter", "lat": 38.855606, "rental_uris": {"ios": "https://dc.lft.to/lastmile_qr_scan", "android": "https://dc.lft.to/lastmile_qr_scan"}, "fusion_lat": 0.0, "fusion_lon": 0.0, "bike_id": "ea6d187f605878675070426be06124e6", "name": "ea6d187f605878675070426be06124e6"}, {"lon": -77.0276835, "is_reserved": 0, "is_disabled": 0, "type": "electric_scooter", "lat": 38.92982416666667, "rental_uris": {"ios": "https://dc.lft.to/lastmile_qr_scan", "android": "https://dc.lft.to/lastmile_qr_scan"}, "fusion_lat": 0.0, "fusion_lon": 0.0, "bike_id": "212a3cc5083cdb336b6bf48de5f888e6", "name": "212a3cc5083cdb336b6bf48de5f888e6"}, {"lon": -77.01539883333334, "is_reserved": 0, "is_disabled": 0, "type": "electric_scooter", "lat": 38.88480466666667, "rental_uris": {"ios": "https://dc.lft.to/lastmile_qr_scan", "android": "https://dc.lft.to/lastmile_qr_scan"}, "fusion_lat": 0.0, "fusion_lon": 0.0, "bike_id": "f54733c5d765d327e1e59cca891b257d", "name": "f54733c5d765d327e1e59cca891b257d"}, {"lon": -77.026563, "is_reserved": 0, "is_disabled": 0, "type": "electric_scooter", "lat": 38.90244916666666, "rental_uris": {"ios": "https://dc.lft.to/lastmile_qr_scan", "android": "https://dc.lft.to/lastmile_qr_scan"}, "fusion_lat": 0.0, "fusion_lon": 0.0, "bike_id": "d66493df626b00a59044d5f83b6f91c5", "name": "d66493df626b00a59044d5f83b6f91c5"}, {"lon": -76.98771233333333, "is_reserved": 0, "is_disabled": 0, "type": "electric_scooter", "lat": 38.912002333333334, "rental_uris": {"ios": "https://dc.lft.to/lastmile_qr_scan", "android": "https://dc.lft.to/lastmile_qr_scan"}, "fusion_lat": 0.0, "fusion_lon": 0.0, "bike_id": "b316b81add4105916632f670d73bcf1d", "name": "b316b81add4105916632f670d73bcf1d"}, {"lon": -77.00754316666666, "is_reserved": 0, "is_disabled": 0, "type": "electric_scooter", "lat": 38.90024016666667, "rental_uris": {"ios": "https://dc.lft.to/lastmile_qr_scan", "android": "https://dc.lft.to/lastmile_qr_scan"}, "fusion_lat": 0.0, "fusion_lon": 0.0, "bike_id": "b32acee179ce02864487449217e84144", "name": "b32acee179ce02864487449217e84144"}, {"lon": -77.01588266666667, "is_reserved": 0, "is_disabled": 0, "type": "electric_scooter", "lat": 38.89728916666667, "rental_uris": {"ios": "https://dc.lft.to/lastmile_qr_scan", "android": "https://dc.lft.to/lastmile_qr_scan"}, "fusion_lat": 0.0, "fusion_lon": 0.0, "bike_id": "66331c8bf43c6fafc5ff2b3bdc0981b3", "name": "66331c8bf43c6fafc5ff2b3bdc0981b3"}, {"lon": -77.04402116666667, "is_reserved": 0, "is_disabled": 0, "type": "electric_scooter", "lat": 38.893942, "rental_uris": {"ios": "https://dc.lft.to/lastmile_qr_scan", "android": "https://dc.lft.to/lastmile_qr_scan"}, "fusion_lat": 0.0, "fusion_lon": 0.0, "bike_id": "86db86930f3fb2b9d31dc55bcba8453d", "name": "86db86930f3fb2b9d31dc55bcba8453d"}, {"lon": -77.0388145, "is_reserved": 0, "is_disabled": 0, "type": "electric_scooter", "lat": 38.90473683333333, "rental_uris": {"ios": "https://dc.lft.to/lastmile_qr_scan", "android": "https://dc.lft.to/lastmile_qr_scan"}, "fusion_lat": 0.0, "fusion_lon": 0.0, "bike_id": "8ed9a8e93ffa567e5b3619a145b5d8d8", "name": "8ed9a8e93ffa567e5b3619a145b5d8d8"}, {"lon": -76.9719655, "is_reserved": 0, "is_disabled": 0, "type": "electric_bike", "lat": 38.8924515, "rental_uris": {"ios": "https://dc.lft.to/lastmile_qr_scan", "android": "https://dc.lft.to/lastmile_qr_scan"}, "fusion_lat": 0.0, "fusion_lon": 0.0, "bike_id": "2cc563a7a21e2c3d459679ebbc5eaf98", "name": "2cc563a7a21e2c3d459679ebbc5eaf98"}, {"lon": -77.01760666666667, "is_reserved": 0, "is_disabled": 0, "type": "electric_scooter", "lat": 38.921102166666664, "rental_uris": {"ios": "https://dc.lft.to/lastmile_qr_scan", "android": "https://dc.lft.to/lastmile_qr_scan"}, "fusion_lat": 0.0, "fusion_lon": 0.0, "bike_id": "9302486511dfbc12970b116ee342963b", "name": "9302486511dfbc12970b116ee342963b"}, {"lon": -77.03791816666667, "is_reserved": 0, "is_disabled": 0, "type": "electric_scooter", "lat": 38.919836, "rental_uris": {"ios": "https://dc.lft.to/lastmile_qr_scan", "android": "https://dc.lft.to/lastmile_qr_scan"}, "fusion_lat": 0.0, "fusion_lon": 0.0, "bike_id": "0e395c3c7cdb25443d6af4f3939de4b5", "name": "0e395c3c7cdb25443d6af4f3939de4b5"}, {"lon": -77.0318395, "is_reserved": 0, "is_disabled": 0, "type": "electric_scooter", "lat": 38.9094875, "rental_uris": {"ios": "https://dc.lft.to/lastmile_qr_scan", "android": "https://dc.lft.to/lastmile_qr_scan"}, "fusion_lat": 0.0, "fusion_lon": 0.0, "bike_id": "5f12d433053d3d7f557f951393bedda0", "name": "5f12d433053d3d7f557f951393bedda0"}, {"lon": -77.0266985, "is_reserved": 0, "is_disabled": 0, "type": "electric_scooter", "lat": 38.89845016666666, "rental_uris": {"ios": "https://dc.lft.to/lastmile_qr_scan", "android": "https://dc.lft.to/lastmile_qr_scan"}, "fusion_lat": 0.0, "fusion_lon": 0.0, "bike_id": "1f447cf9649e00b870770ab2addce0b3", "name": "1f447cf9649e00b870770ab2addce0b3"}, {"lon": -77.0461395, "is_reserved": 0, "is_disabled": 0, "type": "electric_scooter", "lat": 38.90062316666667, "rental_uris": {"ios": "https://dc.lft.to/lastmile_qr_scan", "android": "https://dc.lft.to/lastmile_qr_scan"}, "fusion_lat": 0.0, "fusion_lon": 0.0, "bike_id": "b921372222628fed1fd0c639da01723e", "name": "b921372222628fed1fd0c639da01723e"}, {"lon": -77.00565333333333, "is_reserved": 0, "is_disabled": 0, "type": "electric_scooter", "lat": 38.885033, "rental_uris": {"ios": "https://dc.lft.to/lastmile_qr_scan", "android": "https://dc.lft.to/lastmile_qr_scan"}, "fusion_lat": 0.0, "fusion_lon": 0.0, "bike_id": "2311b289adfbc48ab17f69c0c38c6c5b", "name": "2311b289adfbc48ab17f69c0c38c6c5b"}, {"lon": -76.98686716666667, "is_reserved": 0, "is_disabled": 0, "type": "electric_scooter", "lat": 38.88526133333333, "rental_uris": {"ios": "https://dc.lft.to/lastmile_qr_scan", "android": "https://dc.lft.to/lastmile_qr_scan"}, "fusion_lat": 0.0, "fusion_lon": 0.0, "bike_id": "410680099382f826bc87c08777e62208", "name": "410680099382f826bc87c08777e62208"}, {"lon": -77.013682, "is_reserved": 0, "is_disabled": 0, "type": "electric_scooter", "lat": 38.892239333333336, "rental_uris": {"ios": "https://dc.lft.to/lastmile_qr_scan", "android": "https://dc.lft.to/lastmile_qr_scan"}, "fusion_lat": 0.0, "fusion_lon": 0.0, "bike_id": "769ea2facb617a8e17f52a0b089a94d4", "name": "769ea2facb617a8e17f52a0b089a94d4"}, {"lon": -77.035096, "is_reserved": 0, "is_disabled": 0, "type": "electric_scooter", "lat": 38.935686833333335, "rental_uris": {"ios": "https://dc.lft.to/lastmile_qr_scan", "android": "https://dc.lft.to/lastmile_qr_scan"}, "fusion_lat": 0.0, "fusion_lon": 0.0, "bike_id": "c7b48eb981d7aaa9749f382ce8d04ecf", "name": "c7b48eb981d7aaa9749f382ce8d04ecf"}, {"lon": -76.99261016666667, "is_reserved": 0, "is_disabled": 0, "type": "electric_bike", "lat": 38.92659233333333, "rental_uris": {"ios": "https://dc.lft.to/lastmile_qr_scan", "android": "https://dc.lft.to/lastmile_qr_scan"}, "fusion_lat": 0.0, "fusion_lon": 0.0, "bike_id": "32066c982500ee1f06bc144326aa02f4", "name": "32066c982500ee1f06bc144326aa02f4"}, {"lon": -77.10748783333334, "is_reserved": 0, "is_disabled": 0, "type": "electric_bike", "lat": 38.855065833333335, "rental_uris": {"ios": "https://dc.lft.to/lastmile_qr_scan", "android": "https://dc.lft.to/lastmile_qr_scan"}, "fusion_lat": 0.0, "fusion_lon": 0.0, "bike_id": "656c91e2614fa5771ca8f6e28671ccf2", "name": "656c91e2614fa5771ca8f6e28671ccf2"}, {"lon": -77.0239, "is_reserved": 0, "is_disabled": 0, "type": "electric_scooter", "lat": 38.91669566666667, "rental_uris": {"ios": "https://dc.lft.to/lastmile_qr_scan", "android": "https://dc.lft.to/lastmile_qr_scan"}, "fusion_lat": 0.0, "fusion_lon": 0.0, "bike_id": "700ccb6e2fb0025f74a82e777d1aa300", "name": "700ccb6e2fb0025f74a82e777d1aa300"}, {"lon": -76.877825, "is_reserved": 0, "is_disabled": 0, "type": "electric_bike", "lat": 38.992321, "rental_uris": {"ios": "https://dc.lft.to/lastmile_qr_scan", "android": "https://dc.lft.to/lastmile_qr_scan"}, "fusion_lat": 0.0, "fusion_lon": 0.0, "bike_id": "0bc58ea5b3e918da75645d918893cd85", "name": "0bc58ea5b3e918da75645d918893cd85"}, {"lon": -77.03296566666667, "is_reserved": 0, "is_disabled": 0, "type": "electric_scooter", "lat": 38.8988975, "rental_uris": {"ios": "https://dc.lft.to/lastmile_qr_scan", "android": "https://dc.lft.to/lastmile_qr_scan"}, "fusion_lat": 0.0, "fusion_lon": 0.0, "bike_id": "1f9427d5ece649f47d7a0e10ebf8be16", "name": "1f9427d5ece649f47d7a0e10ebf8be16"}, {"lon": -76.96390116666667, "is_reserved": 0, "is_disabled": 0, "type": "electric_bike", "lat": 38.97575466666667, "rental_uris": {"ios": "https://dc.lft.to/lastmile_qr_scan", "android": "https://dc.lft.to/lastmile_qr_scan"}, "fusion_lat": 0.0, "fusion_lon": 0.0, "bike_id": "f3fc8012c139b08ff694684abbc2c57f", "name": "f3fc8012c139b08ff694684abbc2c57f"}, {"lon": -77.033039, "is_reserved": 0, "is_disabled": 0, "type": "electric_scooter", "lat": 38.896456666666666, "rental_uris": {"ios": "https://dc.lft.to/lastmile_qr_scan", "android": "https://dc.lft.to/lastmile_qr_scan"}, "fusion_lat": 0.0, "fusion_lon": 0.0, "bike_id": "99bc88cc632ed81d24ad64a2a6245359", "name": "99bc88cc632ed81d24ad64a2a6245359"}, {"lon": -77.04164633333333, "is_reserved": 0, "is_disabled": 0, "type": "electric_scooter", "lat": 38.9145855, "rental_uris": {"ios": "https://dc.lft.to/lastmile_qr_scan", "android": "https://dc.lft.to/lastmile_qr_scan"}, "fusion_lat": 0.0, "fusion_lon": 0.0, "bike_id": "d0bb56bd13d0e43ad4e69bb6749fc525", "name": "d0bb56bd13d0e43ad4e69bb6749fc525"}, {"lon": -76.98752833333333, "is_reserved": 0, "is_disabled": 0, "type": "electric_scooter", "lat": 38.84465016666667, "rental_uris": {"ios": "https://dc.lft.to/lastmile_qr_scan", "android": "https://dc.lft.to/lastmile_qr_scan"}, "fusion_lat": 0.0, "fusion_lon": 0.0, "bike_id": "c78cf59a809bc51bbd02f0655f99b120", "name": "c78cf59a809bc51bbd02f0655f99b120"}, {"lon": -77.023729, "is_reserved": 0, "is_disabled": 0, "type": "electric_scooter", "lat": 38.9044195, "rental_uris": {"ios": "https://dc.lft.to/lastmile_qr_scan", "android": "https://dc.lft.to/lastmile_qr_scan"}, "fusion_lat": 0.0, "fusion_lon": 0.0, "bike_id": "95a4a85d93d3535a0376bdb740ad618f", "name": "95a4a85d93d3535a0376bdb740ad618f"}, {"lon": -77.03700283333333, "is_reserved": 0, "is_disabled": 0, "type": "electric_scooter", "lat": 38.92644633333333, "rental_uris": {"ios": "https://dc.lft.to/lastmile_qr_scan", "android": "https://dc.lft.to/lastmile_qr_scan"}, "fusion_lat": 0.0, "fusion_lon": 0.0, "bike_id": "1b6a25611288871d3cf1bcfa63175ced", "name": "1b6a25611288871d3cf1bcfa63175ced"}, {"lon": -76.9486865, "is_reserved": 0, "is_disabled": 0, "type": "electric_bike", "lat": 38.889631666666666, "rental_uris": {"ios": "https://dc.lft.to/lastmile_qr_scan", "android": "https://dc.lft.to/lastmile_qr_scan"}, "fusion_lat": 0.0, "fusion_lon": 0.0, "bike_id": "ff4cb392e5dfa6b65ba975bce9ce9e49", "name": "ff4cb392e5dfa6b65ba975bce9ce9e49"}, {"lon": -76.98522816666667, "is_reserved": 0, "is_disabled": 0, "type": "electric_bike", "lat": 38.91993566666667, "rental_uris": {"ios": "https://dc.lft.to/lastmile_qr_scan", "android": "https://dc.lft.to/lastmile_qr_scan"}, "fusion_lat": 0.0, "fusion_lon": 0.0, "bike_id": "3e94fecbbccdef489b5969875be54667", "name": "3e94fecbbccdef489b5969875be54667"}, {"lon": -77.0415465, "is_reserved": 0, "is_disabled": 0, "type": "electric_scooter", "lat": 38.91755083333334, "rental_uris": {"ios": "https://dc.lft.to/lastmile_qr_scan", "android": "https://dc.lft.to/lastmile_qr_scan"}, "fusion_lat": 0.0, "fusion_lon": 0.0, "bike_id": "12c73b6e11fc9af572d937b8a19cf5c4", "name": "12c73b6e11fc9af572d937b8a19cf5c4"}, {"lon": -77.02511766666667, "is_reserved": 0, "is_disabled": 0, "type": "electric_scooter", "lat": 38.901651333333334, "rental_uris": {"ios": "https://dc.lft.to/lastmile_qr_scan", "android": "https://dc.lft.to/lastmile_qr_scan"}, "fusion_lat": 0.0, "fusion_lon": 0.0, "bike_id": "c69c7621f746bfa570bb74ec80a6bf17", "name": "c69c7621f746bfa570bb74ec80a6bf17"}, {"lon": -76.993817, "is_reserved": 0, "is_disabled": 0, "type": "electric_scooter", "lat": 38.9240245, "rental_uris": {"ios": "https://dc.lft.to/lastmile_qr_scan", "android": "https://dc.lft.to/lastmile_qr_scan"}, "fusion_lat": 0.0, "fusion_lon": 0.0, "bike_id": "f275b4e18cf7cbae80ed36730f095142", "name": "f275b4e18cf7cbae80ed36730f095142"}, {"lon": -76.98992583333333, "is_reserved": 0, "is_disabled": 0, "type": "electric_scooter", "lat": 38.86442183333333, "rental_uris": {"ios": "https://dc.lft.to/lastmile_qr_scan", "android": "https://dc.lft.to/lastmile_qr_scan"}, "fusion_lat": 0.0, "fusion_lon": 0.0, "bike_id": "fb5f61f31caa8935799096c82d8b68f8", "name": "fb5f61f31caa8935799096c82d8b68f8"}, {"lon": -77.03210116666666, "is_reserved": 0, "is_disabled": 0, "type": "electric_scooter", "lat": 38.89219216666667, "rental_uris": {"ios": "https://dc.lft.to/lastmile_qr_scan", "android": "https://dc.lft.to/lastmile_qr_scan"}, "fusion_lat": 0.0, "fusion_lon": 0.0, "bike_id": "18f560a33a9b3bedc68f71f67830b5e6", "name": "18f560a33a9b3bedc68f71f67830b5e6"}, {"lon": -77.0022305, "is_reserved": 0, "is_disabled": 0, "type": "electric_scooter", "lat": 38.87494316666667, "rental_uris": {"ios": "https://dc.lft.to/lastmile_qr_scan", "android": "https://dc.lft.to/lastmile_qr_scan"}, "fusion_lat": 0.0, "fusion_lon": 0.0, "bike_id": "9a07543d9c7b07660f3ecb7b202946f6", "name": "9a07543d9c7b07660f3ecb7b202946f6"}, {"lon": -77.03771816666666, "is_reserved": 0, "is_disabled": 0, "type": "electric_scooter", "lat": 38.9168365, "rental_uris": {"ios": "https://dc.lft.to/lastmile_qr_scan", "android": "https://dc.lft.to/lastmile_qr_scan"}, "fusion_lat": 0.0, "fusion_lon": 0.0, "bike_id": "ef3f461605d12c2519356edbd5fa22bf", "name": "ef3f461605d12c2519356edbd5fa22bf"}, {"lon": -77.02151233333333, "is_reserved": 0, "is_disabled": 0, "type": "electric_scooter", "lat": 38.885084, "rental_uris": {"ios": "https://dc.lft.to/lastmile_qr_scan", "android": "https://dc.lft.to/lastmile_qr_scan"}, "fusion_lat": 0.0, "fusion_lon": 0.0, "bike_id": "d05859263db2439dcab236f09a6949f2", "name": "d05859263db2439dcab236f09a6949f2"}, {"lon": -77.04168233333333, "is_reserved": 0, "is_disabled": 0, "type": "electric_scooter", "lat": 38.913424, "rental_uris": {"ios": "https://dc.lft.to/lastmile_qr_scan", "android": "https://dc.lft.to/lastmile_qr_scan"}, "fusion_lat": 0.0, "fusion_lon": 0.0, "bike_id": "46ffa7ebe427fbe44c129b2433b7a874", "name": "46ffa7ebe427fbe44c129b2433b7a874"}, {"lon": -77.03294316666667, "is_reserved": 0, "is_disabled": 0, "type": "electric_scooter", "lat": 38.95649366666667, "rental_uris": {"ios": "https://dc.lft.to/lastmile_qr_scan", "android": "https://dc.lft.to/lastmile_qr_scan"}, "fusion_lat": 0.0, "fusion_lon": 0.0, "bike_id": "b06894c74ae89c950417119fb9b62ee0", "name": "b06894c74ae89c950417119fb9b62ee0"}, {"lon": -76.94634, "is_reserved": 0, "is_disabled": 0, "type": "electric_scooter", "lat": 38.8984395, "rental_uris": {"ios": "https://dc.lft.to/lastmile_qr_scan", "android": "https://dc.lft.to/lastmile_qr_scan"}, "fusion_lat": 0.0, "fusion_lon": 0.0, "bike_id": "aae5627bd2d36db08daf587b0dfe7901", "name": "aae5627bd2d36db08daf587b0dfe7901"}, {"lon": -77.0656215, "is_reserved": 0, "is_disabled": 0, "type": "electric_scooter", "lat": 38.947556166666665, "rental_uris": {"ios": "https://dc.lft.to/lastmile_qr_scan", "android": "https://dc.lft.to/lastmile_qr_scan"}, "fusion_lat": 0.0, "fusion_lon": 0.0, "bike_id": "8e6d5c9b594d691558abb648cc263178", "name": "8e6d5c9b594d691558abb648cc263178"}, {"lon": -77.02629633333333, "is_reserved": 0, "is_disabled": 0, "type": "electric_scooter", "lat": 38.8975955, "rental_uris": {"ios": "https://dc.lft.to/lastmile_qr_scan", "android": "https://dc.lft.to/lastmile_qr_scan"}, "fusion_lat": 0.0, "fusion_lon": 0.0, "bike_id": "a38569300b747e2170214a8658984cc1", "name": "a38569300b747e2170214a8658984cc1"}, {"lon": -77.0498185, "is_reserved": 0, "is_disabled": 0, "type": "electric_scooter", "lat": 38.8966985, "rental_uris": {"ios": "https://dc.lft.to/lastmile_qr_scan", "android": "https://dc.lft.to/lastmile_qr_scan"}, "fusion_lat": 0.0, "fusion_lon": 0.0, "bike_id": "5a5c9c5127e0d2190d73b4dc624e94e6", "name": "5a5c9c5127e0d2190d73b4dc624e94e6"}, {"lon": -77.02959716666666, "is_reserved": 0, "is_disabled": 0, "type": "electric_scooter", "lat": 38.92071083333333, "rental_uris": {"ios": "https://dc.lft.to/lastmile_qr_scan", "android": "https://dc.lft.to/lastmile_qr_scan"}, "fusion_lat": 0.0, "fusion_lon": 0.0, "bike_id": "be19901d8b3c5ebc7cc67b9a91f0886c", "name": "be19901d8b3c5ebc7cc67b9a91f0886c"}, {"lon": -77.00584033333334, "is_reserved": 0, "is_disabled": 0, "type": "electric_scooter", "lat": 38.90569166666667, "rental_uris": {"ios": "https://dc.lft.to/lastmile_qr_scan", "android": "https://dc.lft.to/lastmile_qr_scan"}, "fusion_lat": 0.0, "fusion_lon": 0.0, "bike_id": "499f9dec83746a0c03415eeec66db68c", "name": "499f9dec83746a0c03415eeec66db68c"}, {"lon": -76.983323, "is_reserved": 0, "is_disabled": 0, "type": "electric_scooter", "lat": 38.8898555, "rental_uris": {"ios": "https://dc.lft.to/lastmile_qr_scan", "android": "https://dc.lft.to/lastmile_qr_scan"}, "fusion_lat": 0.0, "fusion_lon": 0.0, "bike_id": "28edab81e11db45e4cdd0a9c3e6172f7", "name": "28edab81e11db45e4cdd0a9c3e6172f7"}, {"lon": -76.99090783333334, "is_reserved": 0, "is_disabled": 0, "type": "electric_scooter", "lat": 38.863543666666665, "rental_uris": {"ios": "https://dc.lft.to/lastmile_qr_scan", "android": "https://dc.lft.to/lastmile_qr_scan"}, "fusion_lat": 0.0, "fusion_lon": 0.0, "bike_id": "c3862012c6aacfb6e8ea4b5d4ff41cf6", "name": "c3862012c6aacfb6e8ea4b5d4ff41cf6"}, {"lon": -77.00121916666667, "is_reserved": 0, "is_disabled": 0, "type": "electric_scooter", "lat": 38.873859, "rental_uris": {"ios": "https://dc.lft.to/lastmile_qr_scan", "android": "https://dc.lft.to/lastmile_qr_scan"}, "fusion_lat": 0.0, "fusion_lon": 0.0, "bike_id": "d6ee29d97b8fc3202641f616af0e0495", "name": "d6ee29d97b8fc3202641f616af0e0495"}, {"lon": -76.99518783333333, "is_reserved": 0, "is_disabled": 0, "type": "electric_scooter", "lat": 38.86257483333333, "rental_uris": {"ios": "https://dc.lft.to/lastmile_qr_scan", "android": "https://dc.lft.to/lastmile_qr_scan"}, "fusion_lat": 0.0, "fusion_lon": 0.0, "bike_id": "e352ccfafa6f084c855f89ef0a81ff39", "name": "e352ccfafa6f084c855f89ef0a81ff39"}, {"lon": -77.0640175, "is_reserved": 0, "is_disabled": 0, "type": "electric_scooter", "lat": 38.9093005, "rental_uris": {"ios": "https://dc.lft.to/lastmile_qr_scan", "android": "https://dc.lft.to/lastmile_qr_scan"}, "fusion_lat": 0.0, "fusion_lon": 0.0, "bike_id": "059c2f5633bed38077b1c0e4c901037d", "name": "059c2f5633bed38077b1c0e4c901037d"}, {"lon": -77.0341125, "is_reserved": 0, "is_disabled": 0, "type": "electric_scooter", "lat": 38.93177816666667, "rental_uris": {"ios": "https://dc.lft.to/lastmile_qr_scan", "android": "https://dc.lft.to/lastmile_qr_scan"}, "fusion_lat": 0.0, "fusion_lon": 0.0, "bike_id": "51702f3987d6ece1d0f9ba47255842d9", "name": "51702f3987d6ece1d0f9ba47255842d9"}, {"lon": -77.04784166666667, "is_reserved": 0, "is_disabled": 0, "type": "electric_scooter", "lat": 38.9133505, "rental_uris": {"ios": "https://dc.lft.to/lastmile_qr_scan", "android": "https://dc.lft.to/lastmile_qr_scan"}, "fusion_lat": 0.0, "fusion_lon": 0.0, "bike_id": "bba31393488e8ff77af83a2e7f61f6fc", "name": "bba31393488e8ff77af83a2e7f61f6fc"}, {"lon": -77.00331366666667, "is_reserved": 0, "is_disabled": 0, "type": "electric_scooter", "lat": 38.893621833333334, "rental_uris": {"ios": "https://dc.lft.to/lastmile_qr_scan", "android": "https://dc.lft.to/lastmile_qr_scan"}, "fusion_lat": 0.0, "fusion_lon": 0.0, "bike_id": "b5cdc229a3ae218f944126fafcab0bb3", "name": "b5cdc229a3ae218f944126fafcab0bb3"}, {"lon": -77.02977416666667, "is_reserved": 0, "is_disabled": 0, "type": "electric_scooter", "lat": 38.89618933333333, "rental_uris": {"ios": "https://dc.lft.to/lastmile_qr_scan", "android": "https://dc.lft.to/lastmile_qr_scan"}, "fusion_lat": 0.0, "fusion_lon": 0.0, "bike_id": "9f7b0c191fb9d358c463752fa7f6ec40", "name": "9f7b0c191fb9d358c463752fa7f6ec40"}, {"lon": -77.0067355, "is_reserved": 0, "is_disabled": 0, "type": "electric_bike", "lat": 38.945127, "rental_uris": {"ios": "https://dc.lft.to/lastmile_qr_scan", "android": "https://dc.lft.to/lastmile_qr_scan"}, "fusion_lat": 0.0, "fusion_lon": 0.0, "bike_id": "784e48f26cf7148fc8908e0fb025c53a", "name": "784e48f26cf7148fc8908e0fb025c53a"}, {"lon": -77.00026433333333, "is_reserved": 0, "is_disabled": 0, "type": "electric_scooter", "lat": 38.9001185, "rental_uris": {"ios": "https://dc.lft.to/lastmile_qr_scan", "android": "https://dc.lft.to/lastmile_qr_scan"}, "fusion_lat": 0.0, "fusion_lon": 0.0, "bike_id": "4a0ad2d3e7db0df0eaa48417167467c4", "name": "4a0ad2d3e7db0df0eaa48417167467c4"}, {"lon": -77.021127, "is_reserved": 0, "is_disabled": 0, "type": "electric_scooter", "lat": 38.90342033333334, "rental_uris": {"ios": "https://dc.lft.to/lastmile_qr_scan", "android": "https://dc.lft.to/lastmile_qr_scan"}, "fusion_lat": 0.0, "fusion_lon": 0.0, "bike_id": "6acba65dc06d42592d717748f58c282b", "name": "6acba65dc06d42592d717748f58c282b"}, {"lon": -77.02160516666666, "is_reserved": 0, "is_disabled": 0, "type": "electric_scooter", "lat": 38.92610833333333, "rental_uris": {"ios": "https://dc.lft.to/lastmile_qr_scan", "android": "https://dc.lft.to/lastmile_qr_scan"}, "fusion_lat": 0.0, "fusion_lon": 0.0, "bike_id": "7cdeaaf05fddc5e8a9177795a9693050", "name": "7cdeaaf05fddc5e8a9177795a9693050"}, {"lon": -77.04492766666667, "is_reserved": 0, "is_disabled": 0, "type": "electric_scooter", "lat": 38.903792333333335, "rental_uris": {"ios": "https://dc.lft.to/lastmile_qr_scan", "android": "https://dc.lft.to/lastmile_qr_scan"}, "fusion_lat": 0.0, "fusion_lon": 0.0, "bike_id": "c4153fa53633e41433c12919aa054fb0", "name": "c4153fa53633e41433c12919aa054fb0"}, {"lon": -77.00591383333334, "is_reserved": 0, "is_disabled": 0, "type": "electric_scooter", "lat": 38.90561433333333, "rental_uris": {"ios": "https://dc.lft.to/lastmile_qr_scan", "android": "https://dc.lft.to/lastmile_qr_scan"}, "fusion_lat": 0.0, "fusion_lon": 0.0, "bike_id": "a7aff05973d29971f72ee91bb48e20ec", "name": "a7aff05973d29971f72ee91bb48e20ec"}, {"lon": -77.03184583333334, "is_reserved": 0, "is_disabled": 0, "type": "electric_scooter", "lat": 38.89768, "rental_uris": {"ios": "https://dc.lft.to/lastmile_qr_scan", "android": "https://dc.lft.to/lastmile_qr_scan"}, "fusion_lat": 0.0, "fusion_lon": 0.0, "bike_id": "863f841753a0d9be15d3ee43932ea9ac", "name": "863f841753a0d9be15d3ee43932ea9ac"}, {"lon": -77.08444866666666, "is_reserved": 0, "is_disabled": 0, "type": "electric_scooter", "lat": 38.91177533333333, "rental_uris": {"ios": "https://dc.lft.to/lastmile_qr_scan", "android": "https://dc.lft.to/lastmile_qr_scan"}, "fusion_lat": 0.0, "fusion_lon": 0.0, "bike_id": "5b60a4d3deaed7116758db792df142cb", "name": "5b60a4d3deaed7116758db792df142cb"}, {"lon": -77.0266395, "is_reserved": 0, "is_disabled": 0, "type": "electric_scooter", "lat": 38.896006166666666, "rental_uris": {"ios": "https://dc.lft.to/lastmile_qr_scan", "android": "https://dc.lft.to/lastmile_qr_scan"}, "fusion_lat": 0.0, "fusion_lon": 0.0, "bike_id": "5d79d7ee217c8b8cdeed79cd34878789", "name": "5d79d7ee217c8b8cdeed79cd34878789"}, {"lon": -77.03530816666667, "is_reserved": 0, "is_disabled": 0, "type": "electric_scooter", "lat": 38.9246545, "rental_uris": {"ios": "https://dc.lft.to/lastmile_qr_scan", "android": "https://dc.lft.to/lastmile_qr_scan"}, "fusion_lat": 0.0, "fusion_lon": 0.0, "bike_id": "fd0e313e37cc4bf90bd413bed512498c", "name": "fd0e313e37cc4bf90bd413bed512498c"}, {"lon": -77.0635655, "is_reserved": 0, "is_disabled": 0, "type": "electric_scooter", "lat": 38.94448, "rental_uris": {"ios": "https://dc.lft.to/lastmile_qr_scan", "android": "https://dc.lft.to/lastmile_qr_scan"}, "fusion_lat": 0.0, "fusion_lon": 0.0, "bike_id": "b8f33fad7fc80a9d37d5446daebc8edd", "name": "b8f33fad7fc80a9d37d5446daebc8edd"}, {"lon": -76.99569816666667, "is_reserved": 0, "is_disabled": 0, "type": "electric_bike", "lat": 39.0077885, "rental_uris": {"ios": "https://dc.lft.to/lastmile_qr_scan", "android": "https://dc.lft.to/lastmile_qr_scan"}, "fusion_lat": 0.0, "fusion_lon": 0.0, "bike_id": "84e260d611d6a59367ff271e7353cc36", "name": "84e260d611d6a59367ff271e7353cc36"}, {"lon": -77.00894183333334, "is_reserved": 0, "is_disabled": 0, "type": "electric_scooter", "lat": 38.87333916666667, "rental_uris": {"ios": "https://dc.lft.to/lastmile_qr_scan", "android": "https://dc.lft.to/lastmile_qr_scan"}, "fusion_lat": 0.0, "fusion_lon": 0.0, "bike_id": "866a7e58d73d8a49dd5bdd80abf7f4a4", "name": "866a7e58d73d8a49dd5bdd80abf7f4a4"}, {"lon": -77.03194483333333, "is_reserved": 0, "is_disabled": 0, "type": "electric_bike", "lat": 38.94180933333333, "rental_uris": {"ios": "https://dc.lft.to/lastmile_qr_scan", "android": "https://dc.lft.to/lastmile_qr_scan"}, "fusion_lat": 0.0, "fusion_lon": 0.0, "bike_id": "c60fd039542c0c4ce309fef6f832976b", "name": "c60fd039542c0c4ce309fef6f832976b"}, {"lon": -77.046782, "is_reserved": 0, "is_disabled": 0, "type": "electric_scooter", "lat": 38.895068333333334, "rental_uris": {"ios": "https://dc.lft.to/lastmile_qr_scan", "android": "https://dc.lft.to/lastmile_qr_scan"}, "fusion_lat": 0.0, "fusion_lon": 0.0, "bike_id": "8f17e1521a6492b551a1045cbf729246", "name": "8f17e1521a6492b551a1045cbf729246"}, {"lon": -77.02947016666667, "is_reserved": 0, "is_disabled": 0, "type": "electric_scooter", "lat": 38.89877116666667, "rental_uris": {"ios": "https://dc.lft.to/lastmile_qr_scan", "android": "https://dc.lft.to/lastmile_qr_scan"}, "fusion_lat": 0.0, "fusion_lon": 0.0, "bike_id": "347f9adeb09421a0f0e1211d95b3c328", "name": "347f9adeb09421a0f0e1211d95b3c328"}, {"lon": -77.09561, "is_reserved": 0, "is_disabled": 0, "type": "electric_bike", "lat": 38.91705233333333, "rental_uris": {"ios": "https://dc.lft.to/lastmile_qr_scan", "android": "https://dc.lft.to/lastmile_qr_scan"}, "fusion_lat": 0.0, "fusion_lon": 0.0, "bike_id": "e89e7589ab22f6dd1773bf6ea962ab78", "name": "e89e7589ab22f6dd1773bf6ea962ab78"}, {"lon": -77.00296, "is_reserved": 0, "is_disabled": 0, "type": "electric_scooter", "lat": 38.891935, "rental_uris": {"ios": "https://dc.lft.to/lastmile_qr_scan", "android": "https://dc.lft.to/lastmile_qr_scan"}, "fusion_lat": 0.0, "fusion_lon": 0.0, "bike_id": "5a437be5e4228fd70ec046f3d58fac80", "name": "5a437be5e4228fd70ec046f3d58fac80"}, {"lon": -77.01814966666667, "is_reserved": 0, "is_disabled": 0, "type": "electric_scooter", "lat": 38.9216725, "rental_uris": {"ios": "https://dc.lft.to/lastmile_qr_scan", "android": "https://dc.lft.to/lastmile_qr_scan"}, "fusion_lat": 0.0, "fusion_lon": 0.0, "bike_id": "354a42e6e2f20b6468327dec063d12e5", "name": "354a42e6e2f20b6468327dec063d12e5"}, {"lon": -76.9871545, "is_reserved": 0, "is_disabled": 0, "type": "electric_scooter", "lat": 38.866984333333335, "rental_uris": {"ios": "https://dc.lft.to/lastmile_qr_scan", "android": "https://dc.lft.to/lastmile_qr_scan"}, "fusion_lat": 0.0, "fusion_lon": 0.0, "bike_id": "59dc6e5cf0e7a2cd366fbe1dae796e3f", "name": "59dc6e5cf0e7a2cd366fbe1dae796e3f"}, {"lon": -77.12506283333333, "is_reserved": 0, "is_disabled": 0, "type": "electric_bike", "lat": 39.02418883333333, "rental_uris": {"ios": "https://dc.lft.to/lastmile_qr_scan", "android": "https://dc.lft.to/lastmile_qr_scan"}, "fusion_lat": 0.0, "fusion_lon": 0.0, "bike_id": "7aabcb656e907952494bc6b77eda925d", "name": "7aabcb656e907952494bc6b77eda925d"}, {"lon": -77.03021833333334, "is_reserved": 0, "is_disabled": 0, "type": "electric_scooter", "lat": 38.922496333333335, "rental_uris": {"ios": "https://dc.lft.to/lastmile_qr_scan", "android": "https://dc.lft.to/lastmile_qr_scan"}, "fusion_lat": 0.0, "fusion_lon": 0.0, "bike_id": "68dad9b3e73fb942700c87b2d824eed9", "name": "68dad9b3e73fb942700c87b2d824eed9"}, {"lon": -77.02390466666667, "is_reserved": 0, "is_disabled": 0, "type": "electric_scooter", "lat": 38.9573355, "rental_uris": {"ios": "https://dc.lft.to/lastmile_qr_scan", "android": "https://dc.lft.to/lastmile_qr_scan"}, "fusion_lat": 0.0, "fusion_lon": 0.0, "bike_id": "2340b8e985381123a62b4aeff79b7285", "name": "2340b8e985381123a62b4aeff79b7285"}, {"lon": -77.04870616666666, "is_reserved": 0, "is_disabled": 0, "type": "electric_scooter", "lat": 38.9004865, "rental_uris": {"ios": "https://dc.lft.to/lastmile_qr_scan", "android": "https://dc.lft.to/lastmile_qr_scan"}, "fusion_lat": 0.0, "fusion_lon": 0.0, "bike_id": "f1380bca59f06a508f3091df3453cae5", "name": "f1380bca59f06a508f3091df3453cae5"}, {"lon": -77.00227983333333, "is_reserved": 0, "is_disabled": 0, "type": "electric_bike", "lat": 38.940761333333334, "rental_uris": {"ios": "https://dc.lft.to/lastmile_qr_scan", "android": "https://dc.lft.to/lastmile_qr_scan"}, "fusion_lat": 0.0, "fusion_lon": 0.0, "bike_id": "ddb5107b7e1e94275cde3e431f171ab4", "name": "ddb5107b7e1e94275cde3e431f171ab4"}, {"lon": -77.03947316666667, "is_reserved": 0, "is_disabled": 0, "type": "electric_scooter", "lat": 38.9026195, "rental_uris": {"ios": "https://dc.lft.to/lastmile_qr_scan", "android": "https://dc.lft.to/lastmile_qr_scan"}, "fusion_lat": 0.0, "fusion_lon": 0.0, "bike_id": "74667e1bf739ac580bfce384203e3398", "name": "74667e1bf739ac580bfce384203e3398"}, {"lon": -77.02322066666666, "is_reserved": 0, "is_disabled": 0, "type": "electric_scooter", "lat": 38.92787966666667, "rental_uris": {"ios": "https://dc.lft.to/lastmile_qr_scan", "android": "https://dc.lft.to/lastmile_qr_scan"}, "fusion_lat": 0.0, "fusion_lon": 0.0, "bike_id": "b80e3bc5cae841f5fcc3a08b66aaf00c", "name": "b80e3bc5cae841f5fcc3a08b66aaf00c"}, {"lon": -77.04780233333334, "is_reserved": 0, "is_disabled": 0, "type": "electric_scooter", "lat": 38.90793133333333, "rental_uris": {"ios": "https://dc.lft.to/lastmile_qr_scan", "android": "https://dc.lft.to/lastmile_qr_scan"}, "fusion_lat": 0.0, "fusion_lon": 0.0, "bike_id": "63c586b6607576b19d94c7b18a8283c8", "name": "63c586b6607576b19d94c7b18a8283c8"}, {"lon": -77.04346783333334, "is_reserved": 0, "is_disabled": 0, "type": "electric_scooter", "lat": 38.908358666666665, "rental_uris": {"ios": "https://dc.lft.to/lastmile_qr_scan", "android": "https://dc.lft.to/lastmile_qr_scan"}, "fusion_lat": 0.0, "fusion_lon": 0.0, "bike_id": "c2af31ee7b94977b253a789032654622", "name": "c2af31ee7b94977b253a789032654622"}, {"lon": -77.002094, "is_reserved": 0, "is_disabled": 0, "type": "electric_scooter", "lat": 38.89996033333333, "rental_uris": {"ios": "https://dc.lft.to/lastmile_qr_scan", "android": "https://dc.lft.to/lastmile_qr_scan"}, "fusion_lat": 0.0, "fusion_lon": 0.0, "bike_id": "59a6cfadbe680b034867bc5fdc0d406c", "name": "59a6cfadbe680b034867bc5fdc0d406c"}, {"lon": -76.988318, "is_reserved": 0, "is_disabled": 0, "type": "electric_bike", "lat": 38.985606, "rental_uris": {"ios": "https://dc.lft.to/lastmile_qr_scan", "android": "https://dc.lft.to/lastmile_qr_scan"}, "fusion_lat": 0.0, "fusion_lon": 0.0, "bike_id": "264fc926e99b4c77bcc87f32dca2c9f1", "name": "264fc926e99b4c77bcc87f32dca2c9f1"}, {"lon": -77.045872, "is_reserved": 0, "is_disabled": 0, "type": "electric_scooter", "lat": 38.92142316666666, "rental_uris": {"ios": "https://dc.lft.to/lastmile_qr_scan", "android": "https://dc.lft.to/lastmile_qr_scan"}, "fusion_lat": 0.0, "fusion_lon": 0.0, "bike_id": "22baf9abe7dd32f877bcb936f3cff02f", "name": "22baf9abe7dd32f877bcb936f3cff02f"}, {"lon": -77.02445766666666, "is_reserved": 0, "is_disabled": 0, "type": "electric_scooter", "lat": 38.92799383333333, "rental_uris": {"ios": "https://dc.lft.to/lastmile_qr_scan", "android": "https://dc.lft.to/lastmile_qr_scan"}, "fusion_lat": 0.0, "fusion_lon": 0.0, "bike_id": "3761444a76293f1ceb87ef44af8b8b90", "name": "3761444a76293f1ceb87ef44af8b8b90"}, {"lon": -77.0450105, "is_reserved": 0, "is_disabled": 0, "type": "electric_scooter", "lat": 38.91110883333333, "rental_uris": {"ios": "https://dc.lft.to/lastmile_qr_scan", "android": "https://dc.lft.to/lastmile_qr_scan"}, "fusion_lat": 0.0, "fusion_lon": 0.0, "bike_id": "53dccabf5efc2ec35027cbdcc667b980", "name": "53dccabf5efc2ec35027cbdcc667b980"}, {"lon": -77.026622, "is_reserved": 0, "is_disabled": 0, "type": "electric_scooter", "lat": 38.979387833333334, "rental_uris": {"ios": "https://dc.lft.to/lastmile_qr_scan", "android": "https://dc.lft.to/lastmile_qr_scan"}, "fusion_lat": 0.0, "fusion_lon": 0.0, "bike_id": "9dc49c27d43e2f299ec318452ab60208", "name": "9dc49c27d43e2f299ec318452ab60208"}, {"lon": -77.034406, "is_reserved": 0, "is_disabled": 0, "type": "electric_scooter", "lat": 38.90500483333334, "rental_uris": {"ios": "https://dc.lft.to/lastmile_qr_scan", "android": "https://dc.lft.to/lastmile_qr_scan"}, "fusion_lat": 0.0, "fusion_lon": 0.0, "bike_id": "e929f485cb1a4054ff1bb6228c8437e5", "name": "e929f485cb1a4054ff1bb6228c8437e5"}, {"lon": -77.03264383333334, "is_reserved": 0, "is_disabled": 0, "type": "electric_scooter", "lat": 38.93212183333333, "rental_uris": {"ios": "https://dc.lft.to/lastmile_qr_scan", "android": "https://dc.lft.to/lastmile_qr_scan"}, "fusion_lat": 0.0, "fusion_lon": 0.0, "bike_id": "b6f7eb6309b849710468dcac151254d6", "name": "b6f7eb6309b849710468dcac151254d6"}, {"lon": -77.35312783333333, "is_reserved": 0, "is_disabled": 0, "type": "electric_bike", "lat": 38.949996166666665, "rental_uris": {"ios": "https://dc.lft.to/lastmile_qr_scan", "android": "https://dc.lft.to/lastmile_qr_scan"}, "fusion_lat": 0.0, "fusion_lon": 0.0, "bike_id": "1b8de61a222f1f8ef5ff090dd035a7e5", "name": "1b8de61a222f1f8ef5ff090dd035a7e5"}, {"lon": -76.99716016666666, "is_reserved": 0, "is_disabled": 0, "type": "electric_scooter", "lat": 38.91100983333333, "rental_uris": {"ios": "https://dc.lft.to/lastmile_qr_scan", "android": "https://dc.lft.to/lastmile_qr_scan"}, "fusion_lat": 0.0, "fusion_lon": 0.0, "bike_id": "b3d6ba7e7c1ca506993169725a52bd18", "name": "b3d6ba7e7c1ca506993169725a52bd18"}, {"lon": -77.06346566666667, "is_reserved": 0, "is_disabled": 0, "type": "electric_scooter", "lat": 38.91336666666667, "rental_uris": {"ios": "https://dc.lft.to/lastmile_qr_scan", "android": "https://dc.lft.to/lastmile_qr_scan"}, "fusion_lat": 0.0, "fusion_lon": 0.0, "bike_id": "5b8915934ef107a2e6636b33cfe2ab88", "name": "5b8915934ef107a2e6636b33cfe2ab88"}, {"lon": -76.94653233333334, "is_reserved": 0, "is_disabled": 0, "type": "electric_scooter", "lat": 38.898255166666665, "rental_uris": {"ios": "https://dc.lft.to/lastmile_qr_scan", "android": "https://dc.lft.to/lastmile_qr_scan"}, "fusion_lat": 0.0, "fusion_lon": 0.0, "bike_id": "e4bbb8a786f9e644e2cba255db1f6084", "name": "e4bbb8a786f9e644e2cba255db1f6084"}, {"lon": -77.048292, "is_reserved": 0, "is_disabled": 0, "type": "electric_scooter", "lat": 38.898419, "rental_uris": {"ios": "https://dc.lft.to/lastmile_qr_scan", "android": "https://dc.lft.to/lastmile_qr_scan"}, "fusion_lat": 0.0, "fusion_lon": 0.0, "bike_id": "f69e6b42d222ab98dbbe581f4bbf6d7b", "name": "f69e6b42d222ab98dbbe581f4bbf6d7b"}, {"lon": -77.03184283333333, "is_reserved": 0, "is_disabled": 0, "type": "electric_scooter", "lat": 38.919239166666664, "rental_uris": {"ios": "https://dc.lft.to/lastmile_qr_scan", "android": "https://dc.lft.to/lastmile_qr_scan"}, "fusion_lat": 0.0, "fusion_lon": 0.0, "bike_id": "a229ee4d9c36ec903bfc648faa975377", "name": "a229ee4d9c36ec903bfc648faa975377"}, {"lon": -77.039987, "is_reserved": 0, "is_disabled": 0, "type": "electric_scooter", "lat": 38.914104333333334, "rental_uris": {"ios": "https://dc.lft.to/lastmile_qr_scan", "android": "https://dc.lft.to/lastmile_qr_scan"}, "fusion_lat": 0.0, "fusion_lon": 0.0, "bike_id": "15fd428ae0534aeaf928800dcd11b68b", "name": "15fd428ae0534aeaf928800dcd11b68b"}, {"lon": -77.02993283333333, "is_reserved": 0, "is_disabled": 0, "type": "electric_scooter", "lat": 38.89750733333333, "rental_uris": {"ios": "https://dc.lft.to/lastmile_qr_scan", "android": "https://dc.lft.to/lastmile_qr_scan"}, "fusion_lat": 0.0, "fusion_lon": 0.0, "bike_id": "89fc097089138efc72d30a7d86cee705", "name": "89fc097089138efc72d30a7d86cee705"}, {"lon": -77.01922683333333, "is_reserved": 0, "is_disabled": 0, "type": "electric_scooter", "lat": 38.902441, "rental_uris": {"ios": "https://dc.lft.to/lastmile_qr_scan", "android": "https://dc.lft.to/lastmile_qr_scan"}, "fusion_lat": 0.0, "fusion_lon": 0.0, "bike_id": "25b01aadee76a1164334bd34b22b74d4", "name": "25b01aadee76a1164334bd34b22b74d4"}, {"lon": -77.01460733333333, "is_reserved": 0, "is_disabled": 0, "type": "electric_scooter", "lat": 38.9103615, "rental_uris": {"ios": "https://dc.lft.to/lastmile_qr_scan", "android": "https://dc.lft.to/lastmile_qr_scan"}, "fusion_lat": 0.0, "fusion_lon": 0.0, "bike_id": "dc1fc819cee01ca064b7f6431788632f", "name": "dc1fc819cee01ca064b7f6431788632f"}, {"lon": -77.04417083333334, "is_reserved": 0, "is_disabled": 0, "type": "electric_scooter", "lat": 38.911308166666664, "rental_uris": {"ios": "https://dc.lft.to/lastmile_qr_scan", "android": "https://dc.lft.to/lastmile_qr_scan"}, "fusion_lat": 0.0, "fusion_lon": 0.0, "bike_id": "b2f4915bd53733c68849565c0d33902c", "name": "b2f4915bd53733c68849565c0d33902c"}, {"lon": -77.01996333333334, "is_reserved": 0, "is_disabled": 0, "type": "electric_scooter", "lat": 38.96628533333333, "rental_uris": {"ios": "https://dc.lft.to/lastmile_qr_scan", "android": "https://dc.lft.to/lastmile_qr_scan"}, "fusion_lat": 0.0, "fusion_lon": 0.0, "bike_id": "cdf5a745cde3b56574ff5d894193a33e", "name": "cdf5a745cde3b56574ff5d894193a33e"}, {"lon": -76.99166366666667, "is_reserved": 0, "is_disabled": 0, "type": "electric_scooter", "lat": 38.87342566666667, "rental_uris": {"ios": "https://dc.lft.to/lastmile_qr_scan", "android": "https://dc.lft.to/lastmile_qr_scan"}, "fusion_lat": 0.0, "fusion_lon": 0.0, "bike_id": "2e80e975b8db5175f27797374fd0307e", "name": "2e80e975b8db5175f27797374fd0307e"}, {"lon": -77.03, "is_reserved": 0, "is_disabled": 0, "type": "electric_scooter", "lat": 38.9026465, "rental_uris": {"ios": "https://dc.lft.to/lastmile_qr_scan", "android": "https://dc.lft.to/lastmile_qr_scan"}, "fusion_lat": 0.0, "fusion_lon": 0.0, "bike_id": "2befce468c92fb02d5cfaefd4cf26f88", "name": "2befce468c92fb02d5cfaefd4cf26f88"}, {"lon": -77.0117665, "is_reserved": 0, "is_disabled": 0, "type": "electric_scooter", "lat": 38.90026783333333, "rental_uris": {"ios": "https://dc.lft.to/lastmile_qr_scan", "android": "https://dc.lft.to/lastmile_qr_scan"}, "fusion_lat": 0.0, "fusion_lon": 0.0, "bike_id": "6490439239c0f2aee1febdde73d2aef9", "name": "6490439239c0f2aee1febdde73d2aef9"}, {"lon": -77.02883933333334, "is_reserved": 0, "is_disabled": 0, "type": "electric_scooter", "lat": 38.9141305, "rental_uris": {"ios": "https://dc.lft.to/lastmile_qr_scan", "android": "https://dc.lft.to/lastmile_qr_scan"}, "fusion_lat": 0.0, "fusion_lon": 0.0, "bike_id": "6452565912d12b4706d4b1041c144a7e", "name": "6452565912d12b4706d4b1041c144a7e"}, {"lon": -77.0144085, "is_reserved": 0, "is_disabled": 0, "type": "electric_scooter", "lat": 38.9131035, "rental_uris": {"ios": "https://dc.lft.to/lastmile_qr_scan", "android": "https://dc.lft.to/lastmile_qr_scan"}, "fusion_lat": 0.0, "fusion_lon": 0.0, "bike_id": "5ed75d61f0eb92b6e764658031322052", "name": "5ed75d61f0eb92b6e764658031322052"}, {"lon": -77.0364035, "is_reserved": 0, "is_disabled": 0, "type": "electric_scooter", "lat": 38.91222616666667, "rental_uris": {"ios": "https://dc.lft.to/lastmile_qr_scan", "android": "https://dc.lft.to/lastmile_qr_scan"}, "fusion_lat": 0.0, "fusion_lon": 0.0, "bike_id": "b5f4164d2d04a6d8ba6a10e3b1bfed03", "name": "b5f4164d2d04a6d8ba6a10e3b1bfed03"}, {"lon": -77.034019, "is_reserved": 0, "is_disabled": 0, "type": "electric_scooter", "lat": 38.919181333333334, "rental_uris": {"ios": "https://dc.lft.to/lastmile_qr_scan", "android": "https://dc.lft.to/lastmile_qr_scan"}, "fusion_lat": 0.0, "fusion_lon": 0.0, "bike_id": "79c29d26215aa6d2ca329fc662e67fdc", "name": "79c29d26215aa6d2ca329fc662e67fdc"}, {"lon": -77.04401716666666, "is_reserved": 0, "is_disabled": 0, "type": "electric_scooter", "lat": 38.929499666666665, "rental_uris": {"ios": "https://dc.lft.to/lastmile_qr_scan", "android": "https://dc.lft.to/lastmile_qr_scan"},