{"data": {"bikes": [{"lat": 38.890908833333334, "is_disabled": 0, "type": "electric_scooter", "lon": -76.98680083333333, "bike_id": "ed6941f298c008006bd9a82fb8c32c9e", "fusion_lat": 0.0, "name": "ed6941f298c008006bd9a82fb8c32c9e", "is_reserved": 0, "rental_uris": {"android": "https://dc.lft.to/lastmile_qr_scan", "ios": "https://dc.lft.to/lastmile_qr_scan"}, "fusion_lon": 0.0}, {"lat": 38.86614133333333, "is_disabled": 0, "type": "electric_scooter", "lon": -76.98655283333333, "bike_id": "e392a8df8cfd07d874c014df3d823c3c", "fusion_lat": 0.0, "name": "e392a8df8cfd07d874c014df3d823c3c", "is_reserved": 0, "rental_uris": {"android": "https://dc.lft.to/lastmile_qr_scan", "ios": "https://dc.lft.to/lastmile_qr_scan"}, "fusion_lon": 0.0}, {"lat": 38.915558, "is_disabled": 0, "type": "electric_scooter", "lon": -77.03241683333333, "bike_id": "59c7ca91e1d9dc2c40178e87f174c3e6", "fusion_lat": 0.0, "name": "59c7ca91e1d9dc2c40178e87f174c3e6", "is_reserved": 0, "rental_uris": {"android": "https://dc.lft.to/lastmile_qr_scan", "ios": "https://dc.lft.to/lastmile_qr_scan"}, "fusion_lon": 0.0}, {"lat": 38.909475666666665, "is_disabled": 0, "type": "electric_scooter", "lon": -77.04425666666667, "bike_id": "3bca8986d1fa50187d1df67d2f28b5e6", "fusion_lat": 0.0, "name": "3bca8986d1fa50187d1df67d2f28b5e6", "is_reserved": 0, "rental_uris": {"android": "https://dc.lft.to/lastmile_qr_scan", "ios": "https://dc.lft.to/lastmile_qr_scan"}, "fusion_lon": 0.0}, {"lat": 38.91494483333334, "is_disabled": 0, "type": "electric_scooter", "lon": -77.01997333333334, "bike_id": "211db5d543c72fdf19433182e7f3503e", "fusion_lat": 0.0, "name": "211db5d543c72fdf19433182e7f3503e", "is_reserved": 0, "rental_uris": {"android": "https://dc.lft.to/lastmile_qr_scan", "ios": "https://dc.lft.to/lastmile_qr_scan"}, "fusion_lon": 0.0}, {"lat": 38.8442255, "is_disabled": 0, "type": "electric_scooter", "lon": -76.9978545, "bike_id": "287a2c7512e149151af979a3e162d172", "fusion_lat": 0.0, "name": "287a2c7512e149151af979a3e162d172", "is_reserved": 0, "rental_uris": {"android": "https://dc.lft.to/lastmile_qr_scan", "ios": "https://dc.lft.to/lastmile_qr_scan"}, "fusion_lon": 0.0}, {"lat": 38.912804666666666, "is_disabled": 0, "type": "electric_scooter", "lon": -77.0226185, "bike_id": "3f8b5ec1a942d42735e6d2faac02a998", "fusion_lat": 0.0, "name": "3f8b5ec1a942d42735e6d2faac02a998", "is_reserved": 0, "rental_uris": {"android": "https://dc.lft.to/lastmile_qr_scan", "ios": "https://dc.lft.to/lastmile_qr_scan"}, "fusion_lon": 0.0}, {"lat": 38.922434333333335, "is_disabled": 0, "type": "electric_scooter", "lon": -77.03905616666667, "bike_id": "a96233243db3c32459350eb6ff552dd0", "fusion_lat": 0.0, "name": "a96233243db3c32459350eb6ff552dd0", "is_reserved": 0, "rental_uris": {"android": "https://dc.lft.to/lastmile_qr_scan", "ios": "https://dc.lft.to/lastmile_qr_scan"}, "fusion_lon": 0.0}, {"lat": 38.953283, "is_disabled": 0, "type": "electric_bike", "lon": -76.988191, "bike_id": "c448523b2f54dcdfb88acec764d6419b", "fusion_lat": 0.0, "name": "c448523b2f54dcdfb88acec764d6419b", "is_reserved": 0, "rental_uris": {"android": "https://dc.lft.to/lastmile_qr_scan", "ios": "https://dc.lft.to/lastmile_qr_scan"}, "fusion_lon": 0.0}, {"lat": 38.9076305, "is_disabled": 0, "type": "electric_scooter", "lon": -77.0206625, "bike_id": "b98aecf110c45b14670e73b6fe500e7b", "fusion_lat": 0.0, "name": "b98aecf110c45b14670e73b6fe500e7b", "is_reserved": 0, "rental_uris": {"android": "https://dc.lft.to/lastmile_qr_scan", "ios": "https://dc.lft.to/lastmile_qr_scan"}, "fusion_lon": 0.0}, {"lat": 38.906832666666666, "is_disabled": 0, "type": "electric_bike", "lon": -76.95197633333333, "bike_id": "27d776eec64b4b4e49018b14ab7405d4", "fusion_lat": 0.0, "name": "27d776eec64b4b4e49018b14ab7405d4", "is_reserved": 0, "rental_uris": {"android": "https://dc.lft.to/lastmile_qr_scan", "ios": "https://dc.lft.to/lastmile_qr_scan"}, "fusion_lon": 0.0}, {"lat": 38.807535333333334, "is_disabled": 0, "type": "electric_bike", "lon": -77.09454766666667, "bike_id": "bd9170f7efd677733165166c3cb647e6", "fusion_lat": 0.0, "name": "bd9170f7efd677733165166c3cb647e6", "is_reserved": 0, "rental_uris": {"android": "https://dc.lft.to/lastmile_qr_scan", "ios": "https://dc.lft.to/lastmile_qr_scan"}, "fusion_lon": 0.0}, {"lat": 38.86271416666666, "is_disabled": 0, "type": "electric_scooter", "lon": -76.9922865, "bike_id": "650abba4cb068221dca759edd6914922", "fusion_lat": 0.0, "name": "650abba4cb068221dca759edd6914922", "is_reserved": 0, "rental_uris": {"android": "https://dc.lft.to/lastmile_qr_scan", "ios": "https://dc.lft.to/lastmile_qr_scan"}, "fusion_lon": 0.0}, {"lat": 38.93141583333333, "is_disabled": 0, "type": "electric_scooter", "lon": -77.02826033333334, "bike_id": "bd46685723cfd3b36c6db966c373a259", "fusion_lat": 0.0, "name": "bd46685723cfd3b36c6db966c373a259", "is_reserved": 0, "rental_uris": {"android": "https://dc.lft.to/lastmile_qr_scan", "ios": "https://dc.lft.to/lastmile_qr_scan"}, "fusion_lon": 0.0}, {"lat": 38.9494085, "is_disabled": 0, "type": "electric_scooter", "lon": -77.020224, "bike_id": "2e670207638975c3a4281fff0faa31d2", "fusion_lat": 0.0, "name": "2e670207638975c3a4281fff0faa31d2", "is_reserved": 0, "rental_uris": {"android": "https://dc.lft.to/lastmile_qr_scan", "ios": "https://dc.lft.to/lastmile_qr_scan"}, "fusion_lon": 0.0}, {"lat": 38.921674333333335, "is_disabled": 0, "type": "electric_scooter", "lon": -77.042394, "bike_id": "d5b915c9a248ba571c5128c7d208ee10", "fusion_lat": 0.0, "name": "d5b915c9a248ba571c5128c7d208ee10", "is_reserved": 0, "rental_uris": {"android": "https://dc.lft.to/lastmile_qr_scan", "ios": "https://dc.lft.to/lastmile_qr_scan"}, "fusion_lon": 0.0}, {"lat": 38.919504, "is_disabled": 0, "type": "electric_scooter", "lon": -77.03192583333333, "bike_id": "a562782b8390a4bff3be99c000069bc1", "fusion_lat": 0.0, "name": "a562782b8390a4bff3be99c000069bc1", "is_reserved": 0, "rental_uris": {"android": "https://dc.lft.to/lastmile_qr_scan", "ios": "https://dc.lft.to/lastmile_qr_scan"}, "fusion_lon": 0.0}, {"lat": 38.89644766666667, "is_disabled": 0, "type": "electric_scooter", "lon": -77.00784133333333, "bike_id": "af6f7e70408bbc46af60a88913b1f144", "fusion_lat": 0.0, "name": "af6f7e70408bbc46af60a88913b1f144", "is_reserved": 0, "rental_uris": {"android": "https://dc.lft.to/lastmile_qr_scan", "ios": "https://dc.lft.to/lastmile_qr_scan"}, "fusion_lon": 0.0}, {"lat": 38.9357005, "is_disabled": 0, "type": "electric_scooter", "lon": -77.0326645, "bike_id": "b86e2daa7c24a750037de2b728d6955f", "fusion_lat": 0.0, "name": "b86e2daa7c24a750037de2b728d6955f", "is_reserved": 0, "rental_uris": {"android": "https://dc.lft.to/lastmile_qr_scan", "ios": "https://dc.lft.to/lastmile_qr_scan"}, "fusion_lon": 0.0}, {"lat": 38.90486833333333, "is_disabled": 0, "type": "electric_scooter", "lon": -77.05743033333333, "bike_id": "80d130b0bce084c50c9866b53b67a4ac", "fusion_lat": 0.0, "name": "80d130b0bce084c50c9866b53b67a4ac", "is_reserved": 0, "rental_uris": {"android": "https://dc.lft.to/lastmile_qr_scan", "ios": "https://dc.lft.to/lastmile_qr_scan"}, "fusion_lon": 0.0}, {"lat": 38.87207316666667, "is_disabled": 0, "type": "electric_bike", "lon": -77.01527616666667, "bike_id": "072470e114e5dc535d85709146582763", "fusion_lat": 0.0, "name": "072470e114e5dc535d85709146582763", "is_reserved": 0, "rental_uris": {"android": "https://dc.lft.to/lastmile_qr_scan", "ios": "https://dc.lft.to/lastmile_qr_scan"}, "fusion_lon": 0.0}, {"lat": 38.905287333333334, "is_disabled": 0, "type": "electric_scooter", "lon": -77.00593933333333, "bike_id": "4867f89d8581ed8fda51c4088b52de3f", "fusion_lat": 0.0, "name": "4867f89d8581ed8fda51c4088b52de3f", "is_reserved": 0, "rental_uris": {"android": "https://dc.lft.to/lastmile_qr_scan", "ios": "https://dc.lft.to/lastmile_qr_scan"}, "fusion_lon": 0.0}, {"lat": 38.8845845, "is_disabled": 0, "type": "electric_scooter", "lon": -76.92950733333333, "bike_id": "0fd0faef6f1fdaff68662aca27f1ac45", "fusion_lat": 0.0, "name": "0fd0faef6f1fdaff68662aca27f1ac45", "is_reserved": 0, "rental_uris": {"android": "https://dc.lft.to/lastmile_qr_scan", "ios": "https://dc.lft.to/lastmile_qr_scan"}, "fusion_lon": 0.0}, {"lat": 38.90788883333333, "is_disabled": 0, "type": "electric_scooter", "lon": -77.0347205, "bike_id": "a2c997629260844094b10779ad3d61ee", "fusion_lat": 0.0, "name": "a2c997629260844094b10779ad3d61ee", "is_reserved": 0, "rental_uris": {"android": "https://dc.lft.to/lastmile_qr_scan", "ios": "https://dc.lft.to/lastmile_qr_scan"}, "fusion_lon": 0.0}, {"lat": 38.933789166666664, "is_disabled": 0, "type": "electric_scooter", "lon": -77.03559466666667, "bike_id": "bb258c82ca53e0b915e90eef86822223", "fusion_lat": 0.0, "name": "bb258c82ca53e0b915e90eef86822223", "is_reserved": 0, "rental_uris": {"android": "https://dc.lft.to/lastmile_qr_scan", "ios": "https://dc.lft.to/lastmile_qr_scan"}, "fusion_lon": 0.0}, {"lat": 38.88710533333333, "is_disabled": 0, "type": "electric_bike", "lon": -77.13306866666667, "bike_id": "f584486863a69fe06ef69de761892ecb", "fusion_lat": 0.0, "name": "f584486863a69fe06ef69de761892ecb", "is_reserved": 0, "rental_uris": {"android": "https://dc.lft.to/lastmile_qr_scan", "ios": "https://dc.lft.to/lastmile_qr_scan"}, "fusion_lon": 0.0}, {"lat": 38.93429483333333, "is_disabled": 0, "type": "electric_scooter", "lon": -76.96509033333334, "bike_id": "33f0d7427cdc26e442fe095d84bed44c", "fusion_lat": 0.0, "name": "33f0d7427cdc26e442fe095d84bed44c", "is_reserved": 0, "rental_uris": {"android": "https://dc.lft.to/lastmile_qr_scan", "ios": "https://dc.lft.to/lastmile_qr_scan"}, "fusion_lon": 0.0}, {"lat": 38.957038833333336, "is_disabled": 0, "type": "electric_scooter", "lon": -77.02398666666667, "bike_id": "c80dc06bf1e2c27db5201c12ec881d57", "fusion_lat": 0.0, "name": "c80dc06bf1e2c27db5201c12ec881d57", "is_reserved": 0, "rental_uris": {"android": "https://dc.lft.to/lastmile_qr_scan", "ios": "https://dc.lft.to/lastmile_qr_scan"}, "fusion_lon": 0.0}, {"lat": 38.998758333333335, "is_disabled": 0, "type": "electric_bike", "lon": -77.02899283333333, "bike_id": "d12bb99309d2824ea2e20f378be35a77", "fusion_lat": 0.0, "name": "d12bb99309d2824ea2e20f378be35a77", "is_reserved": 0, "rental_uris": {"android": "https://dc.lft.to/lastmile_qr_scan", "ios": "https://dc.lft.to/lastmile_qr_scan"}, "fusion_lon": 0.0}, {"lat": 38.885492, "is_disabled": 0, "type": "electric_bike", "lon": -77.11789216666666, "bike_id": "0107c5df0f7d069b1918b8f3161e6880", "fusion_lat": 0.0, "name": "0107c5df0f7d069b1918b8f3161e6880", "is_reserved": 0, "rental_uris": {"android": "https://dc.lft.to/lastmile_qr_scan", "ios": "https://dc.lft.to/lastmile_qr_scan"}, "fusion_lon": 0.0}, {"lat": 38.8584845, "is_disabled": 0, "type": "electric_scooter", "lon": -76.99562983333334, "bike_id": "ed37ff4d1454e341932122d3a6dfef5c", "fusion_lat": 0.0, "name": "ed37ff4d1454e341932122d3a6dfef5c", "is_reserved": 0, "rental_uris": {"android": "https://dc.lft.to/lastmile_qr_scan", "ios": "https://dc.lft.to/lastmile_qr_scan"}, "fusion_lon": 0.0}, {"lat": 38.876676333333336, "is_disabled": 0, "type": "electric_scooter", "lon": -77.0175975, "bike_id": "50aae3d7551556ab0582390c76a6de9b", "fusion_lat": 0.0, "name": "50aae3d7551556ab0582390c76a6de9b", "is_reserved": 0, "rental_uris": {"android": "https://dc.lft.to/lastmile_qr_scan", "ios": "https://dc.lft.to/lastmile_qr_scan"}, "fusion_lon": 0.0}, {"lat": 38.91965916666667, "is_disabled": 0, "type": "electric_scooter", "lon": -77.01440983333333, "bike_id": "37c8007fb5e6aff0ab12fab250c52d66", "fusion_lat": 0.0, "name": "37c8007fb5e6aff0ab12fab250c52d66", "is_reserved": 0, "rental_uris": {"android": "https://dc.lft.to/lastmile_qr_scan", "ios": "https://dc.lft.to/lastmile_qr_scan"}, "fusion_lon": 0.0}, {"lat": 38.8982055, "is_disabled": 0, "type": "electric_scooter", "lon": -77.03314633333333, "bike_id": "6a4f08f4f2b376245fea8d7dafba81f4", "fusion_lat": 0.0, "name": "6a4f08f4f2b376245fea8d7dafba81f4", "is_reserved": 0, "rental_uris": {"android": "https://dc.lft.to/lastmile_qr_scan", "ios": "https://dc.lft.to/lastmile_qr_scan"}, "fusion_lon": 0.0}, {"lat": 38.90286483333333, "is_disabled": 0, "type": "electric_scooter", "lon": -77.03851866666666, "bike_id": "7d30bd3a9562b5d01e524fa44afae1d6", "fusion_lat": 0.0, "name": "7d30bd3a9562b5d01e524fa44afae1d6", "is_reserved": 0, "rental_uris": {"android": "https://dc.lft.to/lastmile_qr_scan", "ios": "https://dc.lft.to/lastmile_qr_scan"}, "fusion_lon": 0.0}, {"lat": 38.89749583333333, "is_disabled": 0, "type": "electric_scooter", "lon": -77.01853683333333, "bike_id": "8773f364552bd746b06882fdf526b34e", "fusion_lat": 0.0, "name": "8773f364552bd746b06882fdf526b34e", "is_reserved": 0, "rental_uris": {"android": "https://dc.lft.to/lastmile_qr_scan", "ios": "https://dc.lft.to/lastmile_qr_scan"}, "fusion_lon": 0.0}, {"lat": 38.9003325, "is_disabled": 0, "type": "electric_scooter", "lon": -77.002027, "bike_id": "63b12df5e31fabfacb6cae625ef5895e", "fusion_lat": 0.0, "name": "63b12df5e31fabfacb6cae625ef5895e", "is_reserved": 0, "rental_uris": {"android": "https://dc.lft.to/lastmile_qr_scan", "ios": "https://dc.lft.to/lastmile_qr_scan"}, "fusion_lon": 0.0}, {"lat": 38.932649, "is_disabled": 0, "type": "electric_scooter", "lon": -77.03279916666666, "bike_id": "b5b5198629e790f62110b850bb929e0c", "fusion_lat": 0.0, "name": "b5b5198629e790f62110b850bb929e0c", "is_reserved": 0, "rental_uris": {"android": "https://dc.lft.to/lastmile_qr_scan", "ios": "https://dc.lft.to/lastmile_qr_scan"}, "fusion_lon": 0.0}, {"lat": 38.90684316666667, "is_disabled": 0, "type": "electric_scooter", "lon": -77.0626755, "bike_id": "1aa0f96d46ac626df875ca9116f259cf", "fusion_lat": 0.0, "name": "1aa0f96d46ac626df875ca9116f259cf", "is_reserved": 0, "rental_uris": {"android": "https://dc.lft.to/lastmile_qr_scan", "ios": "https://dc.lft.to/lastmile_qr_scan"}, "fusion_lon": 0.0}, {"lat": 38.92183166666667, "is_disabled": 0, "type": "electric_scooter", "lon": -77.04712983333333, "bike_id": "39eeed03e5760d8234ed4a14cda17503", "fusion_lat": 0.0, "name": "39eeed03e5760d8234ed4a14cda17503", "is_reserved": 0, "rental_uris": {"android": "https://dc.lft.to/lastmile_qr_scan", "ios": "https://dc.lft.to/lastmile_qr_scan"}, "fusion_lon": 0.0}, {"lat": 38.96492033333333, "is_disabled": 0, "type": "electric_scooter", "lon": -77.02788933333333, "bike_id": "3a807badb31b400eb25dea3db90ad7d1", "fusion_lat": 0.0, "name": "3a807badb31b400eb25dea3db90ad7d1", "is_reserved": 0, "rental_uris": {"android": "https://dc.lft.to/lastmile_qr_scan", "ios": "https://dc.lft.to/lastmile_qr_scan"}, "fusion_lon": 0.0}, {"lat": 38.86659066666667, "is_disabled": 0, "type": "electric_scooter", "lon": -76.988817, "bike_id": "91cb13b06f0453c8e13d5829afff6d43", "fusion_lat": 0.0, "name": "91cb13b06f0453c8e13d5829afff6d43", "is_reserved": 0, "rental_uris": {"android": "https://dc.lft.to/lastmile_qr_scan", "ios": "https://dc.lft.to/lastmile_qr_scan"}, "fusion_lon": 0.0}, {"lat": 38.92027783333333, "is_disabled": 0, "type": "electric_scooter", "lon": -77.038493, "bike_id": "267d5d3b6ea69364000bca6699af7f3a", "fusion_lat": 0.0, "name": "267d5d3b6ea69364000bca6699af7f3a", "is_reserved": 0, "rental_uris": {"android": "https://dc.lft.to/lastmile_qr_scan", "ios": "https://dc.lft.to/lastmile_qr_scan"}, "fusion_lon": 0.0}, {"lat": 38.92295383333333, "is_disabled": 0, "type": "electric_scooter", "lon": -77.04145316666667, "bike_id": "74eb7b0fa88c2ffd248fcc82f86bdacf", "fusion_lat": 0.0, "name": "74eb7b0fa88c2ffd248fcc82f86bdacf", "is_reserved": 0, "rental_uris": {"android": "https://dc.lft.to/lastmile_qr_scan", "ios": "https://dc.lft.to/lastmile_qr_scan"}, "fusion_lon": 0.0}, {"lat": 38.90523616666667, "is_disabled": 0, "type": "electric_scooter", "lon": -76.986225, "bike_id": "3ed8b2f56c9788639243cdd8daf7405f", "fusion_lat": 0.0, "name": "3ed8b2f56c9788639243cdd8daf7405f", "is_reserved": 0, "rental_uris": {"android": "https://dc.lft.to/lastmile_qr_scan", "ios": "https://dc.lft.to/lastmile_qr_scan"}, "fusion_lon": 0.0}, {"lat": 38.919213666666664, "is_disabled": 0, "type": "electric_scooter", "lon": -77.0339635, "bike_id": "04c701dc88bc958d52e8fd9482c00fbf", "fusion_lat": 0.0, "name": "04c701dc88bc958d52e8fd9482c00fbf", "is_reserved": 0, "rental_uris": {"android": "https://dc.lft.to/lastmile_qr_scan", "ios": "https://dc.lft.to/lastmile_qr_scan"}, "fusion_lon": 0.0}, {"lat": 38.932363, "is_disabled": 0, "type": "electric_scooter", "lon": -77.03261466666666, "bike_id": "2df8732d098099946e19176fb3d1c12a", "fusion_lat": 0.0, "name": "2df8732d098099946e19176fb3d1c12a", "is_reserved": 0, "rental_uris": {"android": "https://dc.lft.to/lastmile_qr_scan", "ios": "https://dc.lft.to/lastmile_qr_scan"}, "fusion_lon": 0.0}, {"lat": 38.903737666666665, "is_disabled": 0, "type": "electric_scooter", "lon": -77.0027265, "bike_id": "8aeff7953f52579f2f241eb58cb276fa", "fusion_lat": 0.0, "name": "8aeff7953f52579f2f241eb58cb276fa", "is_reserved": 0, "rental_uris": {"android": "https://dc.lft.to/lastmile_qr_scan", "ios": "https://dc.lft.to/lastmile_qr_scan"}, "fusion_lon": 0.0}, {"lat": 38.86785316666667, "is_disabled": 0, "type": "electric_scooter", "lon": -76.965758, "bike_id": "c603a4c1252f47abdd8fda007f1c7e5c", "fusion_lat": 0.0, "name": "c603a4c1252f47abdd8fda007f1c7e5c", "is_reserved": 0, "rental_uris": {"android": "https://dc.lft.to/lastmile_qr_scan", "ios": "https://dc.lft.to/lastmile_qr_scan"}, "fusion_lon": 0.0}, {"lat": 38.91599333333333, "is_disabled": 0, "type": "electric_scooter", "lon": -77.02411283333333, "bike_id": "d024300fbd95b865e08538b4720434ab", "fusion_lat": 0.0, "name": "d024300fbd95b865e08538b4720434ab", "is_reserved": 0, "rental_uris": {"android": "https://dc.lft.to/lastmile_qr_scan", "ios": "https://dc.lft.to/lastmile_qr_scan"}, "fusion_lon": 0.0}, {"lat": 38.924300833333334, "is_disabled": 0, "type": "electric_scooter", "lon": -77.05181116666667, "bike_id": "5e201f531336bbdd0f8b7f362f287a93", "fusion_lat": 0.0, "name": "5e201f531336bbdd0f8b7f362f287a93", "is_reserved": 0, "rental_uris": {"android": "https://dc.lft.to/lastmile_qr_scan", "ios": "https://dc.lft.to/lastmile_qr_scan"}, "fusion_lon": 0.0}, {"lat": 38.96560566666667, "is_disabled": 0, "type": "electric_bike", "lon": -77.0229875, "bike_id": "7a592861158bba124e9fa3df0ddd312e", "fusion_lat": 0.0, "name": "7a592861158bba124e9fa3df0ddd312e", "is_reserved": 0, "rental_uris": {"android": "https://dc.lft.to/lastmile_qr_scan", "ios": "https://dc.lft.to/lastmile_qr_scan"}, "fusion_lon": 0.0}, {"lat": 38.927369666666664, "is_disabled": 0, "type": "electric_scooter", "lon": -77.03418183333334, "bike_id": "a531247082a4b8eee4879c5279f6b842", "fusion_lat": 0.0, "name": "a531247082a4b8eee4879c5279f6b842", "is_reserved": 0, "rental_uris": {"android": "https://dc.lft.to/lastmile_qr_scan", "ios": "https://dc.lft.to/lastmile_qr_scan"}, "fusion_lon": 0.0}, {"lat": 38.90865516666667, "is_disabled": 0, "type": "electric_scooter", "lon": -77.04661816666666, "bike_id": "5a9224115db13fa52284254b58d4b3fb", "fusion_lat": 0.0, "name": "5a9224115db13fa52284254b58d4b3fb", "is_reserved": 0, "rental_uris": {"android": "https://dc.lft.to/lastmile_qr_scan", "ios": "https://dc.lft.to/lastmile_qr_scan"}, "fusion_lon": 0.0}, {"lat": 38.92878233333333, "is_disabled": 0, "type": "electric_bike", "lon": -77.03695066666667, "bike_id": "b56c86060fbbd113e09c1e88af315e8c", "fusion_lat": 0.0, "name": "b56c86060fbbd113e09c1e88af315e8c", "is_reserved": 0, "rental_uris": {"android": "https://dc.lft.to/lastmile_qr_scan", "ios": "https://dc.lft.to/lastmile_qr_scan"}, "fusion_lon": 0.0}, {"lat": 38.919846166666666, "is_disabled": 0, "type": "electric_scooter", "lon": -76.973034, "bike_id": "de983cdafd1ec23e39ed028e1a9d0188", "fusion_lat": 0.0, "name": "de983cdafd1ec23e39ed028e1a9d0188", "is_reserved": 0, "rental_uris": {"android": "https://dc.lft.to/lastmile_qr_scan", "ios": "https://dc.lft.to/lastmile_qr_scan"}, "fusion_lon": 0.0}, {"lat": 38.87616766666667, "is_disabled": 0, "type": "electric_scooter", "lon": -77.014773, "bike_id": "4d264c021a5f891b0441ad02ff7ef4e8", "fusion_lat": 0.0, "name": "4d264c021a5f891b0441ad02ff7ef4e8", "is_reserved": 0, "rental_uris": {"android": "https://dc.lft.to/lastmile_qr_scan", "ios": "https://dc.lft.to/lastmile_qr_scan"}, "fusion_lon": 0.0}, {"lat": 38.90310233333334, "is_disabled": 0, "type": "electric_scooter", "lon": -77.02062333333333, "bike_id": "908013b0dd52bd11e05a13f18ab9a986", "fusion_lat": 0.0, "name": "908013b0dd52bd11e05a13f18ab9a986", "is_reserved": 0, "rental_uris": {"android": "https://dc.lft.to/lastmile_qr_scan", "ios": "https://dc.lft.to/lastmile_qr_scan"}, "fusion_lon": 0.0}, {"lat": 38.88438883333333, "is_disabled": 0, "type": "electric_scooter", "lon": -77.0303905, "bike_id": "e40d80de301b656492e7d53ae1a630ce", "fusion_lat": 0.0, "name": "e40d80de301b656492e7d53ae1a630ce", "is_reserved": 0, "rental_uris": {"android": "https://dc.lft.to/lastmile_qr_scan", "ios": "https://dc.lft.to/lastmile_qr_scan"}, "fusion_lon": 0.0}, {"lat": 38.92274316666666, "is_disabled": 0, "type": "electric_scooter", "lon": -77.029762, "bike_id": "46b299bf0da8b72d54606d87d8ebaed3", "fusion_lat": 0.0, "name": "46b299bf0da8b72d54606d87d8ebaed3", "is_reserved": 0, "rental_uris": {"android": "https://dc.lft.to/lastmile_qr_scan", "ios": "https://dc.lft.to/lastmile_qr_scan"}, "fusion_lon": 0.0}, {"lat": 38.928987, "is_disabled": 0, "type": "electric_scooter", "lon": -77.07448466666666, "bike_id": "8085e8e9f2d0d66250fdf3e9f2762a80", "fusion_lat": 0.0, "name": "8085e8e9f2d0d66250fdf3e9f2762a80", "is_reserved": 0, "rental_uris": {"android": "https://dc.lft.to/lastmile_qr_scan", "ios": "https://dc.lft.to/lastmile_qr_scan"}, "fusion_lon": 0.0}, {"lat": 38.92576283333333, "is_disabled": 0, "type": "electric_scooter", "lon": -77.05759916666666, "bike_id": "fca8e51bd754ee565e3d307b5f177683", "fusion_lat": 0.0, "name": "fca8e51bd754ee565e3d307b5f177683", "is_reserved": 0, "rental_uris": {"android": "https://dc.lft.to/lastmile_qr_scan", "ios": "https://dc.lft.to/lastmile_qr_scan"}, "fusion_lon": 0.0}, {"lat": 38.9288715, "is_disabled": 0, "type": "electric_scooter", "lon": -77.0333485, "bike_id": "b47e06c0561bfd408f6331caca961cfc", "fusion_lat": 0.0, "name": "b47e06c0561bfd408f6331caca961cfc", "is_reserved": 0, "rental_uris": {"android": "https://dc.lft.to/lastmile_qr_scan", "ios": "https://dc.lft.to/lastmile_qr_scan"}, "fusion_lon": 0.0}, {"lat": 38.87876216666667, "is_disabled": 0, "type": "electric_scooter", "lon": -77.0231285, "bike_id": "2a46a5b0992f848cf89e929a8ce4f224", "fusion_lat": 0.0, "name": "2a46a5b0992f848cf89e929a8ce4f224", "is_reserved": 0, "rental_uris": {"android": "https://dc.lft.to/lastmile_qr_scan", "ios": "https://dc.lft.to/lastmile_qr_scan"}, "fusion_lon": 0.0}, {"lat": 38.9182515, "is_disabled": 0, "type": "electric_scooter", "lon": -77.03184283333333, "bike_id": "74fb0f287961ce483ecde90dc91afbdd", "fusion_lat": 0.0, "name": "74fb0f287961ce483ecde90dc91afbdd", "is_reserved": 0, "rental_uris": {"android": "https://dc.lft.to/lastmile_qr_scan", "ios": "https://dc.lft.to/lastmile_qr_scan"}, "fusion_lon": 0.0}, {"lat": 38.8544625, "is_disabled": 0, "type": "electric_scooter", "lon": -76.98578583333334, "bike_id": "b81b5cf2881a10838b37015e12950c56", "fusion_lat": 0.0, "name": "b81b5cf2881a10838b37015e12950c56", "is_reserved": 0, "rental_uris": {"android": "https://dc.lft.to/lastmile_qr_scan", "ios": "https://dc.lft.to/lastmile_qr_scan"}, "fusion_lon": 0.0}, {"lat": 38.91736266666667, "is_disabled": 0, "type": "electric_scooter", "lon": -77.02123683333333, "bike_id": "066a31dfc8ba874088a0858c42e93d53", "fusion_lat": 0.0, "name": "066a31dfc8ba874088a0858c42e93d53", "is_reserved": 0, "rental_uris": {"android": "https://dc.lft.to/lastmile_qr_scan", "ios": "https://dc.lft.to/lastmile_qr_scan"}, "fusion_lon": 0.0}, {"lat": 38.895161333333334, "is_disabled": 0, "type": "electric_scooter", "lon": -77.02197333333334, "bike_id": "6f762c4b93134285cd9a164ec946515d", "fusion_lat": 0.0, "name": "6f762c4b93134285cd9a164ec946515d", "is_reserved": 0, "rental_uris": {"android": "https://dc.lft.to/lastmile_qr_scan", "ios": "https://dc.lft.to/lastmile_qr_scan"}, "fusion_lon": 0.0}, {"lat": 38.8896995, "is_disabled": 0, "type": "electric_scooter", "lon": -76.979362, "bike_id": "a6deda03c2e7e2cf7fd8131902246bb9", "fusion_lat": 0.0, "name": "a6deda03c2e7e2cf7fd8131902246bb9", "is_reserved": 0, "rental_uris": {"android": "https://dc.lft.to/lastmile_qr_scan", "ios": "https://dc.lft.to/lastmile_qr_scan"}, "fusion_lon": 0.0}, {"lat": 38.914059, "is_disabled": 0, "type": "electric_scooter", "lon": -77.02930766666667, "bike_id": "a533353cf0e60a14bf60db3a5f74fcda", "fusion_lat": 0.0, "name": "a533353cf0e60a14bf60db3a5f74fcda", "is_reserved": 0, "rental_uris": {"android": "https://dc.lft.to/lastmile_qr_scan", "ios": "https://dc.lft.to/lastmile_qr_scan"}, "fusion_lon": 0.0}, {"lat": 38.910283666666665, "is_disabled": 0, "type": "electric_scooter", "lon": -76.998118, "bike_id": "035e3144b198a1b845e4ae730727b3de", "fusion_lat": 0.0, "name": "035e3144b198a1b845e4ae730727b3de", "is_reserved": 0, "rental_uris": {"android": "https://dc.lft.to/lastmile_qr_scan", "ios": "https://dc.lft.to/lastmile_qr_scan"}, "fusion_lon": 0.0}, {"lat": 38.8645105, "is_disabled": 0, "type": "electric_bike", "lon": -76.9453645, "bike_id": "350bce417048945a502e37febb49b299", "fusion_lat": 0.0, "name": "350bce417048945a502e37febb49b299", "is_reserved": 0, "rental_uris": {"android": "https://dc.lft.to/lastmile_qr_scan", "ios": "https://dc.lft.to/lastmile_qr_scan"}, "fusion_lon": 0.0}, {"lat": 38.87144166666667, "is_disabled": 0, "type": "electric_bike", "lon": -76.937025, "bike_id": "8a666ec2b74b24a31cf886a8bdcd46d0", "fusion_lat": 0.0, "name": "8a666ec2b74b24a31cf886a8bdcd46d0", "is_reserved": 0, "rental_uris": {"android": "https://dc.lft.to/lastmile_qr_scan", "ios": "https://dc.lft.to/lastmile_qr_scan"}, "fusion_lon": 0.0}, {"lat": 38.958046333333336, "is_disabled": 0, "type": "electric_scooter", "lon": -77.0316195, "bike_id": "4bcd552edf218a4cf086ccfe3adbe0aa", "fusion_lat": 0.0, "name": "4bcd552edf218a4cf086ccfe3adbe0aa", "is_reserved": 0, "rental_uris": {"android": "https://dc.lft.to/lastmile_qr_scan", "ios": "https://dc.lft.to/lastmile_qr_scan"}, "fusion_lon": 0.0}, {"lat": 38.93014566666667, "is_disabled": 0, "type": "electric_scooter", "lon": -77.01289366666667, "bike_id": "add4dbbc2725641b8b7f99078b06747a", "fusion_lat": 0.0, "name": "add4dbbc2725641b8b7f99078b06747a", "is_reserved": 0, "rental_uris": {"android": "https://dc.lft.to/lastmile_qr_scan", "ios": "https://dc.lft.to/lastmile_qr_scan"}, "fusion_lon": 0.0}, {"lat": 38.91820583333333, "is_disabled": 0, "type": "electric_scooter", "lon": -77.01213266666667, "bike_id": "53ac30be886a63d64899f9263f4c4e3b", "fusion_lat": 0.0, "name": "53ac30be886a63d64899f9263f4c4e3b", "is_reserved": 0, "rental_uris": {"android": "https://dc.lft.to/lastmile_qr_scan", "ios": "https://dc.lft.to/lastmile_qr_scan"}, "fusion_lon": 0.0}, {"lat": 38.848106333333334, "is_disabled": 0, "type": "electric_bike", "lon": -77.07902983333334, "bike_id": "8d274340dc04cb1a69b6533a0afebea4", "fusion_lat": 0.0, "name": "8d274340dc04cb1a69b6533a0afebea4", "is_reserved": 0, "rental_uris": {"android": "https://dc.lft.to/lastmile_qr_scan", "ios": "https://dc.lft.to/lastmile_qr_scan"}, "fusion_lon": 0.0}, {"lat": 38.914139666666664, "is_disabled": 0, "type": "electric_scooter", "lon": -77.03997316666667, "bike_id": "fe3c69d55f33463dbcf59b1955e667b8", "fusion_lat": 0.0, "name": "fe3c69d55f33463dbcf59b1955e667b8", "is_reserved": 0, "rental_uris": {"android": "https://dc.lft.to/lastmile_qr_scan", "ios": "https://dc.lft.to/lastmile_qr_scan"}, "fusion_lon": 0.0}, {"lat": 38.92265733333333, "is_disabled": 0, "type": "electric_scooter", "lon": -77.019628, "bike_id": "733e14cf4450a3214594eb4273ecc0a0", "fusion_lat": 0.0, "name": "733e14cf4450a3214594eb4273ecc0a0", "is_reserved": 0, "rental_uris": {"android": "https://dc.lft.to/lastmile_qr_scan", "ios": "https://dc.lft.to/lastmile_qr_scan"}, "fusion_lon": 0.0}, {"lat": 38.905472833333334, "is_disabled": 0, "type": "electric_scooter", "lon": -77.032447, "bike_id": "e7bcb2816cbaa04822a00aa939e628eb", "fusion_lat": 0.0, "name": "e7bcb2816cbaa04822a00aa939e628eb", "is_reserved": 0, "rental_uris": {"android": "https://dc.lft.to/lastmile_qr_scan", "ios": "https://dc.lft.to/lastmile_qr_scan"}, "fusion_lon": 0.0}, {"lat": 38.88428583333334, "is_disabled": 0, "type": "electric_scooter", "lon": -76.95752666666667, "bike_id": "30906bda6bf0d0f56aa23731810809f2", "fusion_lat": 0.0, "name": "30906bda6bf0d0f56aa23731810809f2", "is_reserved": 0, "rental_uris": {"android": "https://dc.lft.to/lastmile_qr_scan", "ios": "https://dc.lft.to/lastmile_qr_scan"}, "fusion_lon": 0.0}, {"lat": 38.8976745, "is_disabled": 0, "type": "electric_scooter", "lon": -77.03224633333333, "bike_id": "db67da04e82fcacafb090dddfe599760", "fusion_lat": 0.0, "name": "db67da04e82fcacafb090dddfe599760", "is_reserved": 0, "rental_uris": {"android": "https://dc.lft.to/lastmile_qr_scan", "ios": "https://dc.lft.to/lastmile_qr_scan"}, "fusion_lon": 0.0}, {"lat": 38.898445833333334, "is_disabled": 0, "type": "electric_scooter", "lon": -77.02523483333333, "bike_id": "75dd0cfdef408bb423d572ac0aef1cd3", "fusion_lat": 0.0, "name": "75dd0cfdef408bb423d572ac0aef1cd3", "is_reserved": 0, "rental_uris": {"android": "https://dc.lft.to/lastmile_qr_scan", "ios": "https://dc.lft.to/lastmile_qr_scan"}, "fusion_lon": 0.0}, {"lat": 38.90864416666667, "is_disabled": 0, "type": "electric_scooter", "lon": -77.0463505, "bike_id": "8b50615e9c1f5d6599ba8bb74eff39f8", "fusion_lat": 0.0, "name": "8b50615e9c1f5d6599ba8bb74eff39f8", "is_reserved": 0, "rental_uris": {"android": "https://dc.lft.to/lastmile_qr_scan", "ios": "https://dc.lft.to/lastmile_qr_scan"}, "fusion_lon": 0.0}, {"lat": 38.897544, "is_disabled": 0, "type": "electric_scooter", "lon": -76.94188066666666, "bike_id": "465b3e418c745a661d8a64418995e1de", "fusion_lat": 0.0, "name": "465b3e418c745a661d8a64418995e1de", "is_reserved": 0, "rental_uris": {"android": "https://dc.lft.to/lastmile_qr_scan", "ios": "https://dc.lft.to/lastmile_qr_scan"}, "fusion_lon": 0.0}, {"lat": 38.896317833333335, "is_disabled": 0, "type": "electric_scooter", "lon": -77.03216283333333, "bike_id": "09a15d47af87843d5c95d7018cee545c", "fusion_lat": 0.0, "name": "09a15d47af87843d5c95d7018cee545c", "is_reserved": 0, "rental_uris": {"android": "https://dc.lft.to/lastmile_qr_scan", "ios": "https://dc.lft.to/lastmile_qr_scan"}, "fusion_lon": 0.0}, {"lat": 38.85518283333333, "is_disabled": 0, "type": "electric_bike", "lon": -76.98416883333333, "bike_id": "cb569e54815839b5694824dfced44b83", "fusion_lat": 0.0, "name": "cb569e54815839b5694824dfced44b83", "is_reserved": 0, "rental_uris": {"android": "https://dc.lft.to/lastmile_qr_scan", "ios": "https://dc.lft.to/lastmile_qr_scan"}, "fusion_lon": 0.0}, {"lat": 38.90494666666667, "is_disabled": 0, "type": "electric_scooter", "lon": -76.99541383333333, "bike_id": "fcd89371bd39fbce421e48cf3662351d", "fusion_lat": 0.0, "name": "fcd89371bd39fbce421e48cf3662351d", "is_reserved": 0, "rental_uris": {"android": "https://dc.lft.to/lastmile_qr_scan", "ios": "https://dc.lft.to/lastmile_qr_scan"}, "fusion_lon": 0.0}, {"lat": 38.923864333333334, "is_disabled": 0, "type": "electric_scooter", "lon": -77.027563, "bike_id": "a8eade10a7697715c76692badbdd31dc", "fusion_lat": 0.0, "name": "a8eade10a7697715c76692badbdd31dc", "is_reserved": 0, "rental_uris": {"android": "https://dc.lft.to/lastmile_qr_scan", "ios": "https://dc.lft.to/lastmile_qr_scan"}, "fusion_lon": 0.0}, {"lat": 38.87744516666667, "is_disabled": 0, "type": "electric_bike", "lon": -76.99522266666666, "bike_id": "de63f28d26121367e53eebebf11c7cf9", "fusion_lat": 0.0, "name": "de63f28d26121367e53eebebf11c7cf9", "is_reserved": 0, "rental_uris": {"android": "https://dc.lft.to/lastmile_qr_scan", "ios": "https://dc.lft.to/lastmile_qr_scan"}, "fusion_lon": 0.0}, {"lat": 38.91873566666666, "is_disabled": 0, "type": "electric_scooter", "lon": -77.03507716666667, "bike_id": "14142b2a02ea83d9838fd0e0b4c867fe", "fusion_lat": 0.0, "name": "14142b2a02ea83d9838fd0e0b4c867fe", "is_reserved": 0, "rental_uris": {"android": "https://dc.lft.to/lastmile_qr_scan", "ios": "https://dc.lft.to/lastmile_qr_scan"}, "fusion_lon": 0.0}, {"lat": 38.810517833333336, "is_disabled": 0, "type": "electric_bike", "lon": -77.08508116666667, "bike_id": "ae9d050029093fb5f645de32df03bbfb", "fusion_lat": 0.0, "name": "ae9d050029093fb5f645de32df03bbfb", "is_reserved": 0, "rental_uris": {"android": "https://dc.lft.to/lastmile_qr_scan", "ios": "https://dc.lft.to/lastmile_qr_scan"}, "fusion_lon": 0.0}, {"lat": 38.844236333333335, "is_disabled": 0, "type": "electric_scooter", "lon": -76.99776216666666, "bike_id": "7e9755640a2008ce27663845f47faa6f", "fusion_lat": 0.0, "name": "7e9755640a2008ce27663845f47faa6f", "is_reserved": 0, "rental_uris": {"android": "https://dc.lft.to/lastmile_qr_scan", "ios": "https://dc.lft.to/lastmile_qr_scan"}, "fusion_lon": 0.0}, {"lat": 38.94599083333333, "is_disabled": 0, "type": "electric_scooter", "lon": -77.070354, "bike_id": "97386e8719799211084b43c8904bc005", "fusion_lat": 0.0, "name": "97386e8719799211084b43c8904bc005", "is_reserved": 0, "rental_uris": {"android": "https://dc.lft.to/lastmile_qr_scan", "ios": "https://dc.lft.to/lastmile_qr_scan"}, "fusion_lon": 0.0}, {"lat": 38.926065666666666, "is_disabled": 0, "type": "electric_scooter", "lon": -77.05693, "bike_id": "9bd5efcaa046f1d3f76d8eb7734c2d41", "fusion_lat": 0.0, "name": "9bd5efcaa046f1d3f76d8eb7734c2d41", "is_reserved": 0, "rental_uris": {"android": "https://dc.lft.to/lastmile_qr_scan", "ios": "https://dc.lft.to/lastmile_qr_scan"}, "fusion_lon": 0.0}, {"lat": 38.903870833333336, "is_disabled": 0, "type": "electric_scooter", "lon": -77.05322, "bike_id": "fff4f3acef7267a0744a55c15628b63a", "fusion_lat": 0.0, "name": "fff4f3acef7267a0744a55c15628b63a", "is_reserved": 0, "rental_uris": {"android": "https://dc.lft.to/lastmile_qr_scan", "ios": "https://dc.lft.to/lastmile_qr_scan"}, "fusion_lon": 0.0}, {"lat": 38.893636, "is_disabled": 0, "type": "electric_scooter", "lon": -76.991078, "bike_id": "880c97cf33b8b9636fd61a777618a973", "fusion_lat": 0.0, "name": "880c97cf33b8b9636fd61a777618a973", "is_reserved": 0, "rental_uris": {"android": "https://dc.lft.to/lastmile_qr_scan", "ios": "https://dc.lft.to/lastmile_qr_scan"}, "fusion_lon": 0.0}, {"lat": 38.920995833333336, "is_disabled": 0, "type": "electric_scooter", "lon": -77.042079, "bike_id": "03323f36199f75de9c8bb818c9cd76d6", "fusion_lat": 0.0, "name": "03323f36199f75de9c8bb818c9cd76d6", "is_reserved": 0, "rental_uris": {"android": "https://dc.lft.to/lastmile_qr_scan", "ios": "https://dc.lft.to/lastmile_qr_scan"}, "fusion_lon": 0.0}, {"lat": 38.915508833333334, "is_disabled": 0, "type": "electric_scooter", "lon": -77.00976533333333, "bike_id": "8c720f1aea7501b7f1163f54ba68aafb", "fusion_lat": 0.0, "name": "8c720f1aea7501b7f1163f54ba68aafb", "is_reserved": 0, "rental_uris": {"android": "https://dc.lft.to/lastmile_qr_scan", "ios": "https://dc.lft.to/lastmile_qr_scan"}, "fusion_lon": 0.0}, {"lat": 38.85431283333333, "is_disabled": 0, "type": "electric_bike", "lon": -76.90974116666666, "bike_id": "9a44a6804d4b26282e102c40316b8323", "fusion_lat": 0.0, "name": "9a44a6804d4b26282e102c40316b8323", "is_reserved": 0, "rental_uris": {"android": "https://dc.lft.to/lastmile_qr_scan", "ios": "https://dc.lft.to/lastmile_qr_scan"}, "fusion_lon": 0.0}, {"lat": 38.9239345, "is_disabled": 0, "type": "electric_scooter", "lon": -77.02701483333334, "bike_id": "11724fd78078f96644ddf1bba2a5db3f", "fusion_lat": 0.0, "name": "11724fd78078f96644ddf1bba2a5db3f", "is_reserved": 0, "rental_uris": {"android": "https://dc.lft.to/lastmile_qr_scan", "ios": "https://dc.lft.to/lastmile_qr_scan"}, "fusion_lon": 0.0}, {"lat": 38.93744433333333, "is_disabled": 0, "type": "electric_scooter", "lon": -77.0361655, "bike_id": "70a918414d7e7fd02f24078470ca8598", "fusion_lat": 0.0, "name": "70a918414d7e7fd02f24078470ca8598", "is_reserved": 0, "rental_uris": {"android": "https://dc.lft.to/lastmile_qr_scan", "ios": "https://dc.lft.to/lastmile_qr_scan"}, "fusion_lon": 0.0}, {"lat": 38.898469666666664, "is_disabled": 0, "type": "electric_scooter", "lon": -77.03033083333334, "bike_id": "100726495123d8b0fd451d6e9b56e5fc", "fusion_lat": 0.0, "name": "100726495123d8b0fd451d6e9b56e5fc", "is_reserved": 0, "rental_uris": {"android": "https://dc.lft.to/lastmile_qr_scan", "ios": "https://dc.lft.to/lastmile_qr_scan"}, "fusion_lon": 0.0}, {"lat": 38.940842, "is_disabled": 0, "type": "electric_scooter", "lon": -77.06134916666667, "bike_id": "fb60d5d442ebb0e278772c60697b3322", "fusion_lat": 0.0, "name": "fb60d5d442ebb0e278772c60697b3322", "is_reserved": 0, "rental_uris": {"android": "https://dc.lft.to/lastmile_qr_scan", "ios": "https://dc.lft.to/lastmile_qr_scan"}, "fusion_lon": 0.0}, {"lat": 38.91641283333333, "is_disabled": 0, "type": "electric_scooter", "lon": -77.03156016666667, "bike_id": "7a4ce67f53c6a04f5dad78b88eea88ce", "fusion_lat": 0.0, "name": "7a4ce67f53c6a04f5dad78b88eea88ce", "is_reserved": 0, "rental_uris": {"android": "https://dc.lft.to/lastmile_qr_scan", "ios": "https://dc.lft.to/lastmile_qr_scan"}, "fusion_lon": 0.0}, {"lat": 38.93073233333333, "is_disabled": 0, "type": "electric_scooter", "lon": -77.0311575, "bike_id": "9dcc316314ee9b4af498b831b92fbe09", "fusion_lat": 0.0, "name": "9dcc316314ee9b4af498b831b92fbe09", "is_reserved": 0, "rental_uris": {"android": "https://dc.lft.to/lastmile_qr_scan", "ios": "https://dc.lft.to/lastmile_qr_scan"}, "fusion_lon": 0.0}, {"lat": 38.93985333333333, "is_disabled": 0, "type": "electric_scooter", "lon": -77.02882333333334, "bike_id": "f97aac529aba8e0809fdcc1cb4b0d91c", "fusion_lat": 0.0, "name": "f97aac529aba8e0809fdcc1cb4b0d91c", "is_reserved": 0, "rental_uris": {"android": "https://dc.lft.to/lastmile_qr_scan", "ios": "https://dc.lft.to/lastmile_qr_scan"}, "fusion_lon": 0.0}, {"lat": 38.9490555, "is_disabled": 0, "type": "electric_bike", "lon": -76.9723905, "bike_id": "593bc1b7e46fb13feebdd2d2d8e359e5", "fusion_lat": 0.0, "name": "593bc1b7e46fb13feebdd2d2d8e359e5", "is_reserved": 0, "rental_uris": {"android": "https://dc.lft.to/lastmile_qr_scan", "ios": "https://dc.lft.to/lastmile_qr_scan"}, "fusion_lon": 0.0}, {"lat": 38.9120405, "is_disabled": 0, "type": "electric_scooter", "lon": -77.03849333333334, "bike_id": "e121fd1f9ef176ab2f7dde4706af2952", "fusion_lat": 0.0, "name": "e121fd1f9ef176ab2f7dde4706af2952", "is_reserved": 0, "rental_uris": {"android": "https://dc.lft.to/lastmile_qr_scan", "ios": "https://dc.lft.to/lastmile_qr_scan"}, "fusion_lon": 0.0}, {"lat": 38.90382316666667, "is_disabled": 0, "type": "electric_scooter", "lon": -77.04341566666666, "bike_id": "a7639648b3d77cc7f30cbdc64abc2a36", "fusion_lat": 0.0, "name": "a7639648b3d77cc7f30cbdc64abc2a36", "is_reserved": 0, "rental_uris": {"android": "https://dc.lft.to/lastmile_qr_scan", "ios": "https://dc.lft.to/lastmile_qr_scan"}, "fusion_lon": 0.0}, {"lat": 38.89942283333333, "is_disabled": 0, "type": "electric_scooter", "lon": -77.02128816666666, "bike_id": "bf1da8423e57679cc1880952aec40cb8", "fusion_lat": 0.0, "name": "bf1da8423e57679cc1880952aec40cb8", "is_reserved": 0, "rental_uris": {"android": "https://dc.lft.to/lastmile_qr_scan", "ios": "https://dc.lft.to/lastmile_qr_scan"}, "fusion_lon": 0.0}, {"lat": 38.865156666666664, "is_disabled": 0, "type": "electric_scooter", "lon": -76.99054133333334, "bike_id": "a908bd62edbda2a622e46589b5c414ec", "fusion_lat": 0.0, "name": "a908bd62edbda2a622e46589b5c414ec", "is_reserved": 0, "rental_uris": {"android": "https://dc.lft.to/lastmile_qr_scan", "ios": "https://dc.lft.to/lastmile_qr_scan"}, "fusion_lon": 0.0}, {"lat": 38.9140105, "is_disabled": 0, "type": "electric_scooter", "lon": -77.018033, "bike_id": "462301f4d10ae0df28a18d3dfc28d32d", "fusion_lat": 0.0, "name": "462301f4d10ae0df28a18d3dfc28d32d", "is_reserved": 0, "rental_uris": {"android": "https://dc.lft.to/lastmile_qr_scan", "ios": "https://dc.lft.to/lastmile_qr_scan"}, "fusion_lon": 0.0}, {"lat": 38.89818266666666, "is_disabled": 0, "type": "electric_scooter", "lon": -77.00578616666667, "bike_id": "b9ea2988110733193f9cab9c4cc86eab", "fusion_lat": 0.0, "name": "b9ea2988110733193f9cab9c4cc86eab", "is_reserved": 0, "rental_uris": {"android": "https://dc.lft.to/lastmile_qr_scan", "ios": "https://dc.lft.to/lastmile_qr_scan"}, "fusion_lon": 0.0}, {"lat": 38.909652666666666, "is_disabled": 0, "type": "electric_scooter", "lon": -77.04798566666666, "bike_id": "41a9320185a546fda6116321680f7ed2", "fusion_lat": 0.0, "name": "41a9320185a546fda6116321680f7ed2", "is_reserved": 0, "rental_uris": {"android": "https://dc.lft.to/lastmile_qr_scan", "ios": "https://dc.lft.to/lastmile_qr_scan"}, "fusion_lon": 0.0}, {"lat": 38.876739666666666, "is_disabled": 0, "type": "electric_scooter", "lon": -77.01792566666667, "bike_id": "f105aaa6177d6618156b1e3744e9d168", "fusion_lat": 0.0, "name": "f105aaa6177d6618156b1e3744e9d168", "is_reserved": 0, "rental_uris": {"android": "https://dc.lft.to/lastmile_qr_scan", "ios": "https://dc.lft.to/lastmile_qr_scan"}, "fusion_lon": 0.0}, {"lat": 38.86367416666667, "is_disabled": 0, "type": "electric_scooter", "lon": -76.99059066666666, "bike_id": "9fb59b9a751e758c6bb9db663bfc0a86", "fusion_lat": 0.0, "name": "9fb59b9a751e758c6bb9db663bfc0a86", "is_reserved": 0, "rental_uris": {"android": "https://dc.lft.to/lastmile_qr_scan", "ios": "https://dc.lft.to/lastmile_qr_scan"}, "fusion_lon": 0.0}, {"lat": 38.91909666666667, "is_disabled": 0, "type": "electric_scooter", "lon": -77.04627916666666, "bike_id": "9453e06b1b728eb5269b71586b0780a4", "fusion_lat": 0.0, "name": "9453e06b1b728eb5269b71586b0780a4", "is_reserved": 0, "rental_uris": {"android": "https://dc.lft.to/lastmile_qr_scan", "ios": "https://dc.lft.to/lastmile_qr_scan"}, "fusion_lon": 0.0}, {"lat": 38.90969783333333, "is_disabled": 0, "type": "electric_scooter", "lon": -77.05268266666667, "bike_id": "1d4e8aef8b63819fd6f51cdccad085d3", "fusion_lat": 0.0, "name": "1d4e8aef8b63819fd6f51cdccad085d3", "is_reserved": 0, "rental_uris": {"android": "https://dc.lft.to/lastmile_qr_scan", "ios": "https://dc.lft.to/lastmile_qr_scan"}, "fusion_lon": 0.0}, {"lat": 38.866584, "is_disabled": 0, "type": "electric_scooter", "lon": -76.98901566666666, "bike_id": "651c7814b2203eaea2ceabb097bbd423", "fusion_lat": 0.0, "name": "651c7814b2203eaea2ceabb097bbd423", "is_reserved": 0, "rental_uris": {"android": "https://dc.lft.to/lastmile_qr_scan", "ios": "https://dc.lft.to/lastmile_qr_scan"}, "fusion_lon": 0.0}, {"lat": 38.89630533333333, "is_disabled": 0, "type": "electric_scooter", "lon": -77.04680733333333, "bike_id": "50884da535306d0831881bce560d9a72", "fusion_lat": 0.0, "name": "50884da535306d0831881bce560d9a72", "is_reserved": 0, "rental_uris": {"android": "https://dc.lft.to/lastmile_qr_scan", "ios": "https://dc.lft.to/lastmile_qr_scan"}, "fusion_lon": 0.0}, {"lat": 38.92957, "is_disabled": 0, "type": "electric_scooter", "lon": -77.03183666666666, "bike_id": "2fb8815b6b6010c4d992c8449859a2ab", "fusion_lat": 0.0, "name": "2fb8815b6b6010c4d992c8449859a2ab", "is_reserved": 0, "rental_uris": {"android": "https://dc.lft.to/lastmile_qr_scan", "ios": "https://dc.lft.to/lastmile_qr_scan"}, "fusion_lon": 0.0}, {"lat": 38.910112, "is_disabled": 0, "type": "electric_scooter", "lon": -77.0301625, "bike_id": "5c0b4c072be3b1cf5ad4dab833eb93e8", "fusion_lat": 0.0, "name": "5c0b4c072be3b1cf5ad4dab833eb93e8", "is_reserved": 0, "rental_uris": {"android": "https://dc.lft.to/lastmile_qr_scan", "ios": "https://dc.lft.to/lastmile_qr_scan"}, "fusion_lon": 0.0}, {"lat": 38.9283815, "is_disabled": 0, "type": "electric_scooter", "lon": -77.0542735, "bike_id": "97f171fb88a3025c0420095b26c1e954", "fusion_lat": 0.0, "name": "97f171fb88a3025c0420095b26c1e954", "is_reserved": 0, "rental_uris": {"android": "https://dc.lft.to/lastmile_qr_scan", "ios": "https://dc.lft.to/lastmile_qr_scan"}, "fusion_lon": 0.0}, {"lat": 38.927508333333336, "is_disabled": 0, "type": "electric_scooter", "lon": -77.03560733333333, "bike_id": "cb4cd810eb764c6198133ab8abe8e2b1", "fusion_lat": 0.0, "name": "cb4cd810eb764c6198133ab8abe8e2b1", "is_reserved": 0, "rental_uris": {"android": "https://dc.lft.to/lastmile_qr_scan", "ios": "https://dc.lft.to/lastmile_qr_scan"}, "fusion_lon": 0.0}, {"lat": 38.932528166666664, "is_disabled": 0, "type": "electric_scooter", "lon": -77.04011566666667, "bike_id": "53a9cbc6617befba270296a1d631c8fb", "fusion_lat": 0.0, "name": "53a9cbc6617befba270296a1d631c8fb", "is_reserved": 0, "rental_uris": {"android": "https://dc.lft.to/lastmile_qr_scan", "ios": "https://dc.lft.to/lastmile_qr_scan"}, "fusion_lon": 0.0}, {"lat": 38.90648566666667, "is_disabled": 0, "type": "electric_scooter", "lon": -77.00827966666667, "bike_id": "b7cbccd412bbb334313f28528cfbbfb4", "fusion_lat": 0.0, "name": "b7cbccd412bbb334313f28528cfbbfb4", "is_reserved": 0, "rental_uris": {"android": "https://dc.lft.to/lastmile_qr_scan", "ios": "https://dc.lft.to/lastmile_qr_scan"}, "fusion_lon": 0.0}, {"lat": 38.9169525, "is_disabled": 0, "type": "electric_scooter", "lon": -77.03039466666667, "bike_id": "9515df24e76075ee8987a98684978acf", "fusion_lat": 0.0, "name": "9515df24e76075ee8987a98684978acf", "is_reserved": 0, "rental_uris": {"android": "https://dc.lft.to/lastmile_qr_scan", "ios": "https://dc.lft.to/lastmile_qr_scan"}, "fusion_lon": 0.0}, {"lat": 38.89741583333333, "is_disabled": 0, "type": "electric_scooter", "lon": -77.00013533333333, "bike_id": "f8637a568877bab3ef510242d577c3ff", "fusion_lat": 0.0, "name": "f8637a568877bab3ef510242d577c3ff", "is_reserved": 0, "rental_uris": {"android": "https://dc.lft.to/lastmile_qr_scan", "ios": "https://dc.lft.to/lastmile_qr_scan"}, "fusion_lon": 0.0}, {"lat": 38.9186945, "is_disabled": 0, "type": "electric_scooter", "lon": -77.042542, "bike_id": "c0800da2de0c0a4e4eb4d84266cfbe38", "fusion_lat": 0.0, "name": "c0800da2de0c0a4e4eb4d84266cfbe38", "is_reserved": 0, "rental_uris": {"android": "https://dc.lft.to/lastmile_qr_scan", "ios": "https://dc.lft.to/lastmile_qr_scan"}, "fusion_lon": 0.0}, {"lat": 38.916043333333334, "is_disabled": 0, "type": "electric_scooter", "lon": -77.03849966666667, "bike_id": "8e6d154205d15b3da155bed74d8b38a0", "fusion_lat": 0.0, "name": "8e6d154205d15b3da155bed74d8b38a0", "is_reserved": 0, "rental_uris": {"android": "https://dc.lft.to/lastmile_qr_scan", "ios": "https://dc.lft.to/lastmile_qr_scan"}, "fusion_lon": 0.0}, {"lat": 38.900437833333335, "is_disabled": 0, "type": "electric_scooter", "lon": -77.03357933333334, "bike_id": "98765483b24e1997dd9adbd9135ce143", "fusion_lat": 0.0, "name": "98765483b24e1997dd9adbd9135ce143", "is_reserved": 0, "rental_uris": {"android": "https://dc.lft.to/lastmile_qr_scan", "ios": "https://dc.lft.to/lastmile_qr_scan"}, "fusion_lon": 0.0}, {"lat": 38.92152166666666, "is_disabled": 0, "type": "electric_scooter", "lon": -77.03657666666666, "bike_id": "7ac7f867793d3b0003af27bdc8acc7a7", "fusion_lat": 0.0, "name": "7ac7f867793d3b0003af27bdc8acc7a7", "is_reserved": 0, "rental_uris": {"android": "https://dc.lft.to/lastmile_qr_scan", "ios": "https://dc.lft.to/lastmile_qr_scan"}, "fusion_lon": 0.0}, {"lat": 38.9722855, "is_disabled": 0, "type": "electric_bike", "lon": -76.9934655, "bike_id": "7231633185061b359e81ed54f21eeb17", "fusion_lat": 0.0, "name": "7231633185061b359e81ed54f21eeb17", "is_reserved": 0, "rental_uris": {"android": "https://dc.lft.to/lastmile_qr_scan", "ios": "https://dc.lft.to/lastmile_qr_scan"}, "fusion_lon": 0.0}, {"lat": 38.938588333333335, "is_disabled": 0, "type": "electric_scooter", "lon": -77.025635, "bike_id": "e9cf3fe1a7cebfc73661adefe01bc1e6", "fusion_lat": 0.0, "name": "e9cf3fe1a7cebfc73661adefe01bc1e6", "is_reserved": 0, "rental_uris": {"android": "https://dc.lft.to/lastmile_qr_scan", "ios": "https://dc.lft.to/lastmile_qr_scan"}, "fusion_lon": 0.0}, {"lat": 38.895372333333334, "is_disabled": 0, "type": "electric_scooter", "lon": -77.01108166666667, "bike_id": "31ac7fa3c88b79dd07acc2e59453526c", "fusion_lat": 0.0, "name": "31ac7fa3c88b79dd07acc2e59453526c", "is_reserved": 0, "rental_uris": {"android": "https://dc.lft.to/lastmile_qr_scan", "ios": "https://dc.lft.to/lastmile_qr_scan"}, "fusion_lon": 0.0}, {"lat": 38.905233833333334, "is_disabled": 0, "type": "electric_scooter", "lon": -77.06059716666667, "bike_id": "b7ddc5842b857b9fe3669f34195dc7fe", "fusion_lat": 0.0, "name": "b7ddc5842b857b9fe3669f34195dc7fe", "is_reserved": 0, "rental_uris": {"android": "https://dc.lft.to/lastmile_qr_scan", "ios": "https://dc.lft.to/lastmile_qr_scan"}, "fusion_lon": 0.0}, {"lat": 38.918609333333336, "is_disabled": 0, "type": "electric_scooter", "lon": -77.04594433333334, "bike_id": "aa9069e8fc01d33335a33c6dacfab535", "fusion_lat": 0.0, "name": "aa9069e8fc01d33335a33c6dacfab535", "is_reserved": 0, "rental_uris": {"android": "https://dc.lft.to/lastmile_qr_scan", "ios": "https://dc.lft.to/lastmile_qr_scan"}, "fusion_lon": 0.0}, {"lat": 38.905244833333334, "is_disabled": 0, "type": "electric_scooter", "lon": -77.0473465, "bike_id": "6372bb85e881026e39a9344c13c26462", "fusion_lat": 0.0, "name": "6372bb85e881026e39a9344c13c26462", "is_reserved": 0, "rental_uris": {"android": "https://dc.lft.to/lastmile_qr_scan", "ios": "https://dc.lft.to/lastmile_qr_scan"}, "fusion_lon": 0.0}, {"lat": 38.9125415, "is_disabled": 0, "type": "electric_scooter", "lon": -77.00624566666667, "bike_id": "987fb4d9f8551e6014ee28f45be7fd94", "fusion_lat": 0.0, "name": "987fb4d9f8551e6014ee28f45be7fd94", "is_reserved": 0, "rental_uris": {"android": "https://dc.lft.to/lastmile_qr_scan", "ios": "https://dc.lft.to/lastmile_qr_scan"}, "fusion_lon": 0.0}, {"lat": 38.919486666666664, "is_disabled": 0, "type": "electric_scooter", "lon": -76.98078483333333, "bike_id": "fcccc81ac25ed6a56b30ba3ecc9a8e2b", "fusion_lat": 0.0, "name": "fcccc81ac25ed6a56b30ba3ecc9a8e2b", "is_reserved": 0, "rental_uris": {"android": "https://dc.lft.to/lastmile_qr_scan", "ios": "https://dc.lft.to/lastmile_qr_scan"}, "fusion_lon": 0.0}, {"lat": 38.90643466666667, "is_disabled": 0, "type": "electric_scooter", "lon": -77.03983833333334, "bike_id": "1fc2d0d7485189bb6a4399786cbf4355", "fusion_lat": 0.0, "name": "1fc2d0d7485189bb6a4399786cbf4355", "is_reserved": 0, "rental_uris": {"android": "https://dc.lft.to/lastmile_qr_scan", "ios": "https://dc.lft.to/lastmile_qr_scan"}, "fusion_lon": 0.0}, {"lat": 38.90337016666667, "is_disabled": 0, "type": "electric_scooter", "lon": -77.03772366666666, "bike_id": "df0898c5d0482bbd3a0f00b2c5842fc1", "fusion_lat": 0.0, "name": "df0898c5d0482bbd3a0f00b2c5842fc1", "is_reserved": 0, "rental_uris": {"android": "https://dc.lft.to/lastmile_qr_scan", "ios": "https://dc.lft.to/lastmile_qr_scan"}, "fusion_lon": 0.0}, {"lat": 38.9162955, "is_disabled": 0, "type": "electric_scooter", "lon": -77.04862316666667, "bike_id": "3ad9fe7ab125a09d62996208773f1529", "fusion_lat": 0.0, "name": "3ad9fe7ab125a09d62996208773f1529", "is_reserved": 0, "rental_uris": {"android": "https://dc.lft.to/lastmile_qr_scan", "ios": "https://dc.lft.to/lastmile_qr_scan"}, "fusion_lon": 0.0}, {"lat": 38.86046016666667, "is_disabled": 0, "type": "electric_scooter", "lon": -77.05771666666666, "bike_id": "2d5a0227ffadb2eb38dcd5ed236c484d", "fusion_lat": 0.0, "name": "2d5a0227ffadb2eb38dcd5ed236c484d", "is_reserved": 0, "rental_uris": {"android": "https://dc.lft.to/lastmile_qr_scan", "ios": "https://dc.lft.to/lastmile_qr_scan"}, "fusion_lon": 0.0}, {"lat": 38.90139633333333, "is_disabled": 0, "type": "electric_scooter", "lon": -77.0007545, "bike_id": "9933480665653df3414e744d8cddf7d5", "fusion_lat": 0.0, "name": "9933480665653df3414e744d8cddf7d5", "is_reserved": 0, "rental_uris": {"android": "https://dc.lft.to/lastmile_qr_scan", "ios": "https://dc.lft.to/lastmile_qr_scan"}, "fusion_lon": 0.0}, {"lat": 38.84273, "is_disabled": 0, "type": "electric_bike", "lon": -76.988449, "bike_id": "5cf1cee3fef3741fc1036751c260f901", "fusion_lat": 0.0, "name": "5cf1cee3fef3741fc1036751c260f901", "is_reserved": 0, "rental_uris": {"android": "https://dc.lft.to/lastmile_qr_scan", "ios": "https://dc.lft.to/lastmile_qr_scan"}, "fusion_lon": 0.0}, {"lat": 38.95635166666667, "is_disabled": 0, "type": "electric_bike", "lon": -76.93889233333333, "bike_id": "581ccda8800cb6062186364e5b080881", "fusion_lat": 0.0, "name": "581ccda8800cb6062186364e5b080881", "is_reserved": 0, "rental_uris": {"android": "https://dc.lft.to/lastmile_qr_scan", "ios": "https://dc.lft.to/lastmile_qr_scan"}, "fusion_lon": 0.0}, {"lat": 38.90958066666666, "is_disabled": 0, "type": "electric_scooter", "lon": -77.023101, "bike_id": "e05668e9921611dfdd069ab5b37fe6b8", "fusion_lat": 0.0, "name": "e05668e9921611dfdd069ab5b37fe6b8", "is_reserved": 0, "rental_uris": {"android": "https://dc.lft.to/lastmile_qr_scan", "ios": "https://dc.lft.to/lastmile_qr_scan"}, "fusion_lon": 0.0}, {"lat": 38.90611283333333, "is_disabled": 0, "type": "electric_scooter", "lon": -77.01283316666667, "bike_id": "6d9c8e0c9d5138e37a5ea35c4b9f4c16", "fusion_lat": 0.0, "name": "6d9c8e0c9d5138e37a5ea35c4b9f4c16", "is_reserved": 0, "rental_uris": {"android": "https://dc.lft.to/lastmile_qr_scan", "ios": "https://dc.lft.to/lastmile_qr_scan"}, "fusion_lon": 0.0}, {"lat": 38.944304, "is_disabled": 0, "type": "electric_scooter", "lon": -77.06307766666667, "bike_id": "f185fea4274bc0b3e66cc13a3ae0fb3d", "fusion_lat": 0.0, "name": "f185fea4274bc0b3e66cc13a3ae0fb3d", "is_reserved": 0, "rental_uris": {"android": "https://dc.lft.to/lastmile_qr_scan", "ios": "https://dc.lft.to/lastmile_qr_scan"}, "fusion_lon": 0.0}, {"lat": 38.86627433333334, "is_disabled": 0, "type": "electric_scooter", "lon": -76.98716316666666, "bike_id": "db9c3c59d9ae1d5c44c8cb8d4f104cd1", "fusion_lat": 0.0, "name": "db9c3c59d9ae1d5c44c8cb8d4f104cd1", "is_reserved": 0, "rental_uris": {"android": "https://dc.lft.to/lastmile_qr_scan", "ios": "https://dc.lft.to/lastmile_qr_scan"}, "fusion_lon": 0.0}, {"lat": 38.89235, "is_disabled": 0, "type": "electric_scooter", "lon": -77.0279245, "bike_id": "16f244e061772d8763c24ec77cd757df", "fusion_lat": 0.0, "name": "16f244e061772d8763c24ec77cd757df", "is_reserved": 0, "rental_uris": {"android": "https://dc.lft.to/lastmile_qr_scan", "ios": "https://dc.lft.to/lastmile_qr_scan"}, "fusion_lon": 0.0}, {"lat": 38.91533366666667, "is_disabled": 0, "type": "electric_scooter", "lon": -77.01364866666667, "bike_id": "cd5100e80d92ee736d398aa0ad08f11b", "fusion_lat": 0.0, "name": "cd5100e80d92ee736d398aa0ad08f11b", "is_reserved": 0, "rental_uris": {"android": "https://dc.lft.to/lastmile_qr_scan", "ios": "https://dc.lft.to/lastmile_qr_scan"}, "fusion_lon": 0.0}, {"lat": 38.924625, "is_disabled": 0, "type": "electric_scooter", "lon": -77.05237, "bike_id": "b02c0cdbccd28a104490bb7c379e7913", "fusion_lat": 0.0, "name": "b02c0cdbccd28a104490bb7c379e7913", "is_reserved": 0, "rental_uris": {"android": "https://dc.lft.to/lastmile_qr_scan", "ios": "https://dc.lft.to/lastmile_qr_scan"}, "fusion_lon": 0.0}, {"lat": 38.8999945, "is_disabled": 0, "type": "electric_scooter", "lon": -77.05085866666667, "bike_id": "142efc9cfcf8db5469f495d4d70cba3f", "fusion_lat": 0.0, "name": "142efc9cfcf8db5469f495d4d70cba3f", "is_reserved": 0, "rental_uris": {"android": "https://dc.lft.to/lastmile_qr_scan", "ios": "https://dc.lft.to/lastmile_qr_scan"}, "fusion_lon": 0.0}, {"lat": 38.90677683333333, "is_disabled": 0, "type": "electric_scooter", "lon": -77.03642816666667, "bike_id": "4e5fee5edeed28f0321d9930857eb26b", "fusion_lat": 0.0, "name": "4e5fee5edeed28f0321d9930857eb26b", "is_reserved": 0, "rental_uris": {"android": "https://dc.lft.to/lastmile_qr_scan", "ios": "https://dc.lft.to/lastmile_qr_scan"}, "fusion_lon": 0.0}, {"lat": 38.89766683333333, "is_disabled": 0, "type": "electric_bike", "lon": -76.904374, "bike_id": "12e859f6e7d62db3b9bfb37fef527361", "fusion_lat": 0.0, "name": "12e859f6e7d62db3b9bfb37fef527361", "is_reserved": 0, "rental_uris": {"android": "https://dc.lft.to/lastmile_qr_scan", "ios": "https://dc.lft.to/lastmile_qr_scan"}, "fusion_lon": 0.0}, {"lat": 38.88515833333334, "is_disabled": 0, "type": "electric_scooter", "lon": -77.00277583333333, "bike_id": "43f6872741194242932c2e3246f86155", "fusion_lat": 0.0, "name": "43f6872741194242932c2e3246f86155", "is_reserved": 0, "rental_uris": {"android": "https://dc.lft.to/lastmile_qr_scan", "ios": "https://dc.lft.to/lastmile_qr_scan"}, "fusion_lon": 0.0}, {"lat": 38.905625, "is_disabled": 0, "type": "electric_scooter", "lon": -77.005982, "bike_id": "fae4a9833138432dc802b69faa1bf260", "fusion_lat": 0.0, "name": "fae4a9833138432dc802b69faa1bf260", "is_reserved": 0, "rental_uris": {"android": "https://dc.lft.to/lastmile_qr_scan", "ios": "https://dc.lft.to/lastmile_qr_scan"}, "fusion_lon": 0.0}, {"lat": 38.90037366666667, "is_disabled": 0, "type": "electric_scooter", "lon": -76.9884045, "bike_id": "a00aac56bf77bc9a609899282213b7fd", "fusion_lat": 0.0, "name": "a00aac56bf77bc9a609899282213b7fd", "is_reserved": 0, "rental_uris": {"android": "https://dc.lft.to/lastmile_qr_scan", "ios": "https://dc.lft.to/lastmile_qr_scan"}, "fusion_lon": 0.0}, {"lat": 38.925675166666664, "is_disabled": 0, "type": "electric_scooter", "lon": -77.0284155, "bike_id": "26e9d3d37cf58bedf1f6835d57cf0267", "fusion_lat": 0.0, "name": "26e9d3d37cf58bedf1f6835d57cf0267", "is_reserved": 0, "rental_uris": {"android": "https://dc.lft.to/lastmile_qr_scan", "ios": "https://dc.lft.to/lastmile_qr_scan"}, "fusion_lon": 0.0}, {"lat": 38.91451716666667, "is_disabled": 0, "type": "electric_scooter", "lon": -77.04591583333334, "bike_id": "9740c1ff0411fdb7f31ca13acf509473", "fusion_lat": 0.0, "name": "9740c1ff0411fdb7f31ca13acf509473", "is_reserved": 0, "rental_uris": {"android": "https://dc.lft.to/lastmile_qr_scan", "ios": "https://dc.lft.to/lastmile_qr_scan"}, "fusion_lon": 0.0}, {"lat": 38.92359016666666, "is_disabled": 0, "type": "electric_scooter", "lon": -77.0509655, "bike_id": "9a2f800ee495947da85a4a5147047e16", "fusion_lat": 0.0, "name": "9a2f800ee495947da85a4a5147047e16", "is_reserved": 0, "rental_uris": {"android": "https://dc.lft.to/lastmile_qr_scan", "ios": "https://dc.lft.to/lastmile_qr_scan"}, "fusion_lon": 0.0}, {"lat": 38.91415333333333, "is_disabled": 0, "type": "electric_scooter", "lon": -77.022317, "bike_id": "c934d7b5e3617de9adad2949d5860afc", "fusion_lat": 0.0, "name": "c934d7b5e3617de9adad2949d5860afc", "is_reserved": 0, "rental_uris": {"android": "https://dc.lft.to/lastmile_qr_scan", "ios": "https://dc.lft.to/lastmile_qr_scan"}, "fusion_lon": 0.0}, {"lat": 38.905700333333336, "is_disabled": 0, "type": "electric_scooter", "lon": -77.02492216666667, "bike_id": "3f963b1d7b11cd62f42194ae260d201e", "fusion_lat": 0.0, "name": "3f963b1d7b11cd62f42194ae260d201e", "is_reserved": 0, "rental_uris": {"android": "https://dc.lft.to/lastmile_qr_scan", "ios": "https://dc.lft.to/lastmile_qr_scan"}, "fusion_lon": 0.0}, {"lat": 38.96700033333333, "is_disabled": 0, "type": "electric_bike", "lon": -77.10223933333333, "bike_id": "143abf02ac6494d56b50bd59ca1089d9", "fusion_lat": 0.0, "name": "143abf02ac6494d56b50bd59ca1089d9", "is_reserved": 0, "rental_uris": {"android": "https://dc.lft.to/lastmile_qr_scan", "ios": "https://dc.lft.to/lastmile_qr_scan"}, "fusion_lon": 0.0}, {"lat": 38.861630166666664, "is_disabled": 0, "type": "electric_bike", "lon": -77.13095483333333, "bike_id": "185de3066b204d9ee22b4cc808689ac9", "fusion_lat": 0.0, "name": "185de3066b204d9ee22b4cc808689ac9", "is_reserved": 0, "rental_uris": {"android": "https://dc.lft.to/lastmile_qr_scan", "ios": "https://dc.lft.to/lastmile_qr_scan"}, "fusion_lon": 0.0}, {"lat": 38.941983666666665, "is_disabled": 0, "type": "electric_scooter", "lon": -77.01833383333333, "bike_id": "cebf8d7fdd7d7ecdbc64676a0baf4855", "fusion_lat": 0.0, "name": "cebf8d7fdd7d7ecdbc64676a0baf4855", "is_reserved": 0, "rental_uris": {"android": "https://dc.lft.to/lastmile_qr_scan", "ios": "https://dc.lft.to/lastmile_qr_scan"}, "fusion_lon": 0.0}, {"lat": 38.88731133333334, "is_disabled": 0, "type": "electric_scooter", "lon": -77.0138575, "bike_id": "da056c00bb61c53742b1eb5f2c6fdb05", "fusion_lat": 0.0, "name": "da056c00bb61c53742b1eb5f2c6fdb05", "is_reserved": 0, "rental_uris": {"android": "https://dc.lft.to/lastmile_qr_scan", "ios": "https://dc.lft.to/lastmile_qr_scan"}, "fusion_lon": 0.0}, {"lat": 38.93258483333334, "is_disabled": 0, "type": "electric_scooter", "lon": -77.032606, "bike_id": "dd8021348b7be66de038ebd21dd4167a", "fusion_lat": 0.0, "name": "dd8021348b7be66de038ebd21dd4167a", "is_reserved": 0, "rental_uris": {"android": "https://dc.lft.to/lastmile_qr_scan", "ios": "https://dc.lft.to/lastmile_qr_scan"}, "fusion_lon": 0.0}, {"lat": 38.920639333333334, "is_disabled": 0, "type": "electric_scooter", "lon": -77.0329425, "bike_id": "dd6cfd6f950ecf369e7eccda39d22756", "fusion_lat": 0.0, "name": "dd6cfd6f950ecf369e7eccda39d22756", "is_reserved": 0, "rental_uris": {"android": "https://dc.lft.to/lastmile_qr_scan", "ios": "https://dc.lft.to/lastmile_qr_scan"}, "fusion_lon": 0.0}, {"lat": 38.8892555, "is_disabled": 0, "type": "electric_scooter", "lon": -76.973735, "bike_id": "277717ffbb42ba6416dcebaf52bbe39b", "fusion_lat": 0.0, "name": "277717ffbb42ba6416dcebaf52bbe39b", "is_reserved": 0, "rental_uris": {"android": "https://dc.lft.to/lastmile_qr_scan", "ios": "https://dc.lft.to/lastmile_qr_scan"}, "fusion_lon": 0.0}, {"lat": 38.90637016666667, "is_disabled": 0, "type": "electric_scooter", "lon": -77.06293766666667, "bike_id": "b34aafe38212797f64126dd13eb8e83a", "fusion_lat": 0.0, "name": "b34aafe38212797f64126dd13eb8e83a", "is_reserved": 0, "rental_uris": {"android": "https://dc.lft.to/lastmile_qr_scan", "ios": "https://dc.lft.to/lastmile_qr_scan"}, "fusion_lon": 0.0}, {"lat": 38.921108833333335, "is_disabled": 0, "type": "electric_scooter", "lon": -77.0392785, "bike_id": "7a0c795c0beb9df047cb7027f7f14ad6", "fusion_lat": 0.0, "name": "7a0c795c0beb9df047cb7027f7f14ad6", "is_reserved": 0, "rental_uris": {"android": "https://dc.lft.to/lastmile_qr_scan", "ios": "https://dc.lft.to/lastmile_qr_scan"}, "fusion_lon": 0.0}, {"lat": 38.90235166666667, "is_disabled": 0, "type": "electric_scooter", "lon": -77.0163685, "bike_id": "ae42e1cafecda7b8d205c1fc9c07c0b8", "fusion_lat": 0.0, "name": "ae42e1cafecda7b8d205c1fc9c07c0b8", "is_reserved": 0, "rental_uris": {"android": "https://dc.lft.to/lastmile_qr_scan", "ios": "https://dc.lft.to/lastmile_qr_scan"}, "fusion_lon": 0.0}, {"lat": 38.880464333333336, "is_disabled": 0, "type": "electric_scooter", "lon": -77.01773233333333, "bike_id": "7a4bc55034568142443258dbed7f1d86", "fusion_lat": 0.0, "name": "7a4bc55034568142443258dbed7f1d86", "is_reserved": 0, "rental_uris": {"android": "https://dc.lft.to/lastmile_qr_scan", "ios": "https://dc.lft.to/lastmile_qr_scan"}, "fusion_lon": 0.0}, {"lat": 38.8429125, "is_disabled": 0, "type": "electric_scooter", "lon": -76.999491, "bike_id": "5c7418ef3316463b04d397a6338e9d4b", "fusion_lat": 0.0, "name": "5c7418ef3316463b04d397a6338e9d4b", "is_reserved": 0, "rental_uris": {"android": "https://dc.lft.to/lastmile_qr_scan", "ios": "https://dc.lft.to/lastmile_qr_scan"}, "fusion_lon": 0.0}, {"lat": 38.8634375, "is_disabled": 0, "type": "electric_scooter", "lon": -76.9900325, "bike_id": "343c8bf8e0362e4efc08503d51f90ef2", "fusion_lat": 0.0, "name": "343c8bf8e0362e4efc08503d51f90ef2", "is_reserved": 0, "rental_uris": {"android": "https://dc.lft.to/lastmile_qr_scan", "ios": "https://dc.lft.to/lastmile_qr_scan"}, "fusion_lon": 0.0}, {"lat": 38.9126905, "is_disabled": 0, "type": "electric_scooter", "lon": -77.01305266666667, "bike_id": "4f97551e28b1ea8ec22ac3248bfe0bbe", "fusion_lat": 0.0, "name": "4f97551e28b1ea8ec22ac3248bfe0bbe", "is_reserved": 0, "rental_uris": {"android": "https://dc.lft.to/lastmile_qr_scan", "ios": "https://dc.lft.to/lastmile_qr_scan"}, "fusion_lon": 0.0}, {"lat": 38.8991655, "is_disabled": 0, "type": "electric_scooter", "lon": -76.93382033333333, "bike_id": "463f4197109c5e50ee2a9868c0336c75", "fusion_lat": 0.0, "name": "463f4197109c5e50ee2a9868c0336c75", "is_reserved": 0, "rental_uris": {"android": "https://dc.lft.to/lastmile_qr_scan", "ios": "https://dc.lft.to/lastmile_qr_scan"}, "fusion_lon": 0.0}, {"lat": 38.93192666666667, "is_disabled": 0, "type": "electric_bike", "lon": -77.07825883333334, "bike_id": "a3b806b87d5dfd1bc9c2945f1295a7eb", "fusion_lat": 0.0, "name": "a3b806b87d5dfd1bc9c2945f1295a7eb", "is_reserved": 0, "rental_uris": {"android": "https://dc.lft.to/lastmile_qr_scan", "ios": "https://dc.lft.to/lastmile_qr_scan"}, "fusion_lon": 0.0}, {"lat": 38.9555255, "is_disabled": 0, "type": "electric_bike", "lon": -76.93543416666667, "bike_id": "842e967c2d5b9149b0d28bda63198739", "fusion_lat": 0.0, "name": "842e967c2d5b9149b0d28bda63198739", "is_reserved": 0, "rental_uris": {"android": "https://dc.lft.to/lastmile_qr_scan", "ios": "https://dc.lft.to/lastmile_qr_scan"}, "fusion_lon": 0.0}, {"lat": 38.9267895, "is_disabled": 0, "type": "electric_scooter", "lon": -77.051115, "bike_id": "fcc8956f2722081b81902746daa12a61", "fusion_lat": 0.0, "name": "fcc8956f2722081b81902746daa12a61", "is_reserved": 0, "rental_uris": {"android": "https://dc.lft.to/lastmile_qr_scan", "ios": "https://dc.lft.to/lastmile_qr_scan"}, "fusion_lon": 0.0}, {"lat": 38.95776733333334, "is_disabled": 0, "type": "electric_scooter", "lon": -77.0246375, "bike_id": "bc07e9bc677e5dcbf49e70297b7a6187", "fusion_lat": 0.0, "name": "bc07e9bc677e5dcbf49e70297b7a6187", "is_reserved": 0, "rental_uris": {"android": "https://dc.lft.to/lastmile_qr_scan", "ios": "https://dc.lft.to/lastmile_qr_scan"}, "fusion_lon": 0.0}, {"lat": 38.894946833333336, "is_disabled": 0, "type": "electric_scooter", "lon": -77.022953, "bike_id": "a5749fb0282621f23b5d2d5a59ce1260", "fusion_lat": 0.0, "name": "a5749fb0282621f23b5d2d5a59ce1260", "is_reserved": 0, "rental_uris": {"android": "https://dc.lft.to/lastmile_qr_scan", "ios": "https://dc.lft.to/lastmile_qr_scan"}, "fusion_lon": 0.0}, {"lat": 38.85314, "is_disabled": 0, "type": "electric_bike", "lon": -76.98015366666667, "bike_id": "f1cc2b0d7dfafa2b6e449979070d6993", "fusion_lat": 0.0, "name": "f1cc2b0d7dfafa2b6e449979070d6993", "is_reserved": 0, "rental_uris": {"android": "https://dc.lft.to/lastmile_qr_scan", "ios": "https://dc.lft.to/lastmile_qr_scan"}, "fusion_lon": 0.0}, {"lat": 38.89681516666667, "is_disabled": 0, "type": "electric_scooter", "lon": -76.93608966666666, "bike_id": "d0d3e10f7c2dd6b719aecc91b6d1d259", "fusion_lat": 0.0, "name": "d0d3e10f7c2dd6b719aecc91b6d1d259", "is_reserved": 0, "rental_uris": {"android": "https://dc.lft.to/lastmile_qr_scan", "ios": "https://dc.lft.to/lastmile_qr_scan"}, "fusion_lon": 0.0}, {"lat": 38.930786166666664, "is_disabled": 0, "type": "electric_scooter", "lon": -77.01663783333333, "bike_id": "2adf46d470f59e459988b088ca569350", "fusion_lat": 0.0, "name": "2adf46d470f59e459988b088ca569350", "is_reserved": 0, "rental_uris": {"android": "https://dc.lft.to/lastmile_qr_scan", "ios": "https://dc.lft.to/lastmile_qr_scan"}, "fusion_lon": 0.0}, {"lat": 38.887176333333336, "is_disabled": 0, "type": "electric_scooter", "lon": -76.954755, "bike_id": "941b602c3536de4414a6f24037d65092", "fusion_lat": 0.0, "name": "941b602c3536de4414a6f24037d65092", "is_reserved": 0, "rental_uris": {"android": "https://dc.lft.to/lastmile_qr_scan", "ios": "https://dc.lft.to/lastmile_qr_scan"}, "fusion_lon": 0.0}, {"lat": 38.90697566666667, "is_disabled": 0, "type": "electric_scooter", "lon": -77.03445766666667, "bike_id": "b81ab4b378a3039d4f3dc21fa3ae6518", "fusion_lat": 0.0, "name": "b81ab4b378a3039d4f3dc21fa3ae6518", "is_reserved": 0, "rental_uris": {"android": "https://dc.lft.to/lastmile_qr_scan", "ios": "https://dc.lft.to/lastmile_qr_scan"}, "fusion_lon": 0.0}, {"lat": 38.916047, "is_disabled": 0, "type": "electric_scooter", "lon": -77.03214016666666, "bike_id": "604c9174c515d5190d8c8dafbbbe9323", "fusion_lat": 0.0, "name": "604c9174c515d5190d8c8dafbbbe9323", "is_reserved": 0, "rental_uris": {"android": "https://dc.lft.to/lastmile_qr_scan", "ios": "https://dc.lft.to/lastmile_qr_scan"}, "fusion_lon": 0.0}, {"lat": 38.925766, "is_disabled": 0, "type": "electric_scooter", "lon": -77.02761283333334, "bike_id": "a7019e6b3ce6604dba19a8ac1869efc3", "fusion_lat": 0.0, "name": "a7019e6b3ce6604dba19a8ac1869efc3", "is_reserved": 0, "rental_uris": {"android": "https://dc.lft.to/lastmile_qr_scan", "ios": "https://dc.lft.to/lastmile_qr_scan"}, "fusion_lon": 0.0}, {"lat": 38.9182215, "is_disabled": 0, "type": "electric_scooter", "lon": -77.03441933333333, "bike_id": "5c12804d52160228be6c4eaea922b0c8", "fusion_lat": 0.0, "name": "5c12804d52160228be6c4eaea922b0c8", "is_reserved": 0, "rental_uris": {"android": "https://dc.lft.to/lastmile_qr_scan", "ios": "https://dc.lft.to/lastmile_qr_scan"}, "fusion_lon": 0.0}, {"lat": 38.907109, "is_disabled": 0, "type": "electric_bike", "lon": -77.00119666666667, "bike_id": "dc8be14e282b80f2f6c70660d96d1936", "fusion_lat": 0.0, "name": "dc8be14e282b80f2f6c70660d96d1936", "is_reserved": 0, "rental_uris": {"android": "https://dc.lft.to/lastmile_qr_scan", "ios": "https://dc.lft.to/lastmile_qr_scan"}, "fusion_lon": 0.0}, {"lat": 38.92443566666667, "is_disabled": 0, "type": "electric_scooter", "lon": -77.03378, "bike_id": "f91a4d926bb89fd2cbe57f7f18d1ab48", "fusion_lat": 0.0, "name": "f91a4d926bb89fd2cbe57f7f18d1ab48", "is_reserved": 0, "rental_uris": {"android": "https://dc.lft.to/lastmile_qr_scan", "ios": "https://dc.lft.to/lastmile_qr_scan"}, "fusion_lon": 0.0}, {"lat": 38.923306333333336, "is_disabled": 0, "type": "electric_scooter", "lon": -77.04450883333334, "bike_id": "f078382db5aaf9e5649d0b003218488c", "fusion_lat": 0.0, "name": "f078382db5aaf9e5649d0b003218488c", "is_reserved": 0, "rental_uris": {"android": "https://dc.lft.to/lastmile_qr_scan", "ios": "https://dc.lft.to/lastmile_qr_scan"}, "fusion_lon": 0.0}, {"lat": 38.91984266666667, "is_disabled": 0, "type": "electric_scooter", "lon": -77.04103083333334, "bike_id": "011823e56c575f908ae5094f3d5bbaac", "fusion_lat": 0.0, "name": "011823e56c575f908ae5094f3d5bbaac", "is_reserved": 0, "rental_uris": {"android": "https://dc.lft.to/lastmile_qr_scan", "ios": "https://dc.lft.to/lastmile_qr_scan"}, "fusion_lon": 0.0}, {"lat": 38.941297666666664, "is_disabled": 0, "type": "electric_bike", "lon": -76.99627216666667, "bike_id": "94c7098ae29a82fbf90155563b8457c4", "fusion_lat": 0.0, "name": "94c7098ae29a82fbf90155563b8457c4", "is_reserved": 0, "rental_uris": {"android": "https://dc.lft.to/lastmile_qr_scan", "ios": "https://dc.lft.to/lastmile_qr_scan"}, "fusion_lon": 0.0}, {"lat": 38.895156166666666, "is_disabled": 0, "type": "electric_scooter", "lon": -77.04364633333333, "bike_id": "7e18e0cb446aa2a9403d7267d6f746e5", "fusion_lat": 0.0, "name": "7e18e0cb446aa2a9403d7267d6f746e5", "is_reserved": 0, "rental_uris": {"android": "https://dc.lft.to/lastmile_qr_scan", "ios": "https://dc.lft.to/lastmile_qr_scan"}, "fusion_lon": 0.0}, {"lat": 38.90669183333333, "is_disabled": 0, "type": "electric_scooter", "lon": -77.03638033333333, "bike_id": "ec39f14f07208ba21a2de10327a7c74c", "fusion_lat": 0.0, "name": "ec39f14f07208ba21a2de10327a7c74c", "is_reserved": 0, "rental_uris": {"android": "https://dc.lft.to/lastmile_qr_scan", "ios": "https://dc.lft.to/lastmile_qr_scan"}, "fusion_lon": 0.0}, {"lat": 38.9094705, "is_disabled": 0, "type": "electric_scooter", "lon": -77.04680733333333, "bike_id": "f57bafd5039fee01b8287b33723397fa", "fusion_lat": 0.0, "name": "f57bafd5039fee01b8287b33723397fa", "is_reserved": 0, "rental_uris": {"android": "https://dc.lft.to/lastmile_qr_scan", "ios": "https://dc.lft.to/lastmile_qr_scan"}, "fusion_lon": 0.0}, {"lat": 39.0943585, "is_disabled": 0, "type": "electric_bike", "lon": -77.134595, "bike_id": "0c8d9cf97d9443ec37c2a18ea0283cd7", "fusion_lat": 0.0, "name": "0c8d9cf97d9443ec37c2a18ea0283cd7", "is_reserved": 0, "rental_uris": {"android": "https://dc.lft.to/lastmile_qr_scan", "ios": "https://dc.lft.to/lastmile_qr_scan"}, "fusion_lon": 0.0}, {"lat": 38.86283933333333, "is_disabled": 0, "type": "electric_scooter", "lon": -76.99239533333333, "bike_id": "64682e9827c2f0a4046664284c02ce29", "fusion_lat": 0.0, "name": "64682e9827c2f0a4046664284c02ce29", "is_reserved": 0, "rental_uris": {"android": "https://dc.lft.to/lastmile_qr_scan", "ios": "https://dc.lft.to/lastmile_qr_scan"}, "fusion_lon": 0.0}, {"lat": 38.93947133333333, "is_disabled": 0, "type": "electric_scooter", "lon": -77.02187716666667, "bike_id": "bf06fec9df781676ea3b1b6c1f92b254", "fusion_lat": 0.0, "name": "bf06fec9df781676ea3b1b6c1f92b254", "is_reserved": 0, "rental_uris": {"android": "https://dc.lft.to/lastmile_qr_scan", "ios": "https://dc.lft.to/lastmile_qr_scan"}, "fusion_lon": 0.0}, {"lat": 38.89844933333333, "is_disabled": 0, "type": "electric_scooter", "lon": -76.944706, "bike_id": "1b66ba06180d1f3a9c2e0179043abd2c", "fusion_lat": 0.0, "name": "1b66ba06180d1f3a9c2e0179043abd2c", "is_reserved": 0, "rental_uris": {"android": "https://dc.lft.to/lastmile_qr_scan", "ios": "https://dc.lft.to/lastmile_qr_scan"}, "fusion_lon": 0.0}, {"lat": 38.905275, "is_disabled": 0, "type": "electric_scooter", "lon": -77.00586566666666, "bike_id": "5a3647f4c474602f151b37db3c867ba9", "fusion_lat": 0.0, "name": "5a3647f4c474602f151b37db3c867ba9", "is_reserved": 0, "rental_uris": {"android": "https://dc.lft.to/lastmile_qr_scan", "ios": "https://dc.lft.to/lastmile_qr_scan"}, "fusion_lon": 0.0}, {"lat": 38.9335685, "is_disabled": 0, "type": "electric_scooter", "lon": -77.03724983333333, "bike_id": "67f365bde1547148e39381e970ac54ec", "fusion_lat": 0.0, "name": "67f365bde1547148e39381e970ac54ec", "is_reserved": 0, "rental_uris": {"android": "https://dc.lft.to/lastmile_qr_scan", "ios": "https://dc.lft.to/lastmile_qr_scan"}, "fusion_lon": 0.0}, {"lat": 38.884794, "is_disabled": 0, "type": "electric_scooter", "lon": -76.94523866666667, "bike_id": "ef4e9c9fed4bf727ebed77e7ad8fa730", "fusion_lat": 0.0, "name": "ef4e9c9fed4bf727ebed77e7ad8fa730", "is_reserved": 0, "rental_uris": {"android": "https://dc.lft.to/lastmile_qr_scan", "ios": "https://dc.lft.to/lastmile_qr_scan"}, "fusion_lon": 0.0}, {"lat": 38.899702833333336, "is_disabled": 0, "type": "electric_scooter", "lon": -77.01612416666667, "bike_id": "a7dac051a93643aae8d7e9e0c4e7d598", "fusion_lat": 0.0, "name": "a7dac051a93643aae8d7e9e0c4e7d598", "is_reserved": 0, "rental_uris": {"android": "https://dc.lft.to/lastmile_qr_scan", "ios": "https://dc.lft.to/lastmile_qr_scan"}, "fusion_lon": 0.0}, {"lat": 38.89599166666667, "is_disabled": 0, "type": "electric_scooter", "lon": -76.95521166666667, "bike_id": "d0e8759630a5dedfaa29570c8f282599", "fusion_lat": 0.0, "name": "d0e8759630a5dedfaa29570c8f282599", "is_reserved": 0, "rental_uris": {"android": "https://dc.lft.to/lastmile_qr_scan", "ios": "https://dc.lft.to/lastmile_qr_scan"}, "fusion_lon": 0.0}, {"lat": 38.92475066666667, "is_disabled": 0, "type": "electric_scooter", "lon": -77.03373133333334, "bike_id": "ad65166675f4f857921e4123bb444f32", "fusion_lat": 0.0, "name": "ad65166675f4f857921e4123bb444f32", "is_reserved": 0, "rental_uris": {"android": "https://dc.lft.to/lastmile_qr_scan", "ios": "https://dc.lft.to/lastmile_qr_scan"}, "fusion_lon": 0.0}, {"lat": 38.9081305, "is_disabled": 0, "type": "electric_scooter", "lon": -76.98287816666667, "bike_id": "88cb4d906ec266b24ca7693376095e71", "fusion_lat": 0.0, "name": "88cb4d906ec266b24ca7693376095e71", "is_reserved": 0, "rental_uris": {"android": "https://dc.lft.to/lastmile_qr_scan", "ios": "https://dc.lft.to/lastmile_qr_scan"}, "fusion_lon": 0.0}, {"lat": 38.923626666666664, "is_disabled": 0, "type": "electric_scooter", "lon": -77.076772, "bike_id": "c0dcc98b7c353467fca5a62816cf01fc", "fusion_lat": 0.0, "name": "c0dcc98b7c353467fca5a62816cf01fc", "is_reserved": 0, "rental_uris": {"android": "https://dc.lft.to/lastmile_qr_scan", "ios": "https://dc.lft.to/lastmile_qr_scan"}, "fusion_lon": 0.0}, {"lat": 38.93483033333333, "is_disabled": 0, "type": "electric_scooter", "lon": -77.03658116666666, "bike_id": "88ebf1721cc038d040426f90a1b42cc4", "fusion_lat": 0.0, "name": "88ebf1721cc038d040426f90a1b42cc4", "is_reserved": 0, "rental_uris": {"android": "https://dc.lft.to/lastmile_qr_scan", "ios": "https://dc.lft.to/lastmile_qr_scan"}, "fusion_lon": 0.0}, {"lat": 38.92991216666667, "is_disabled": 0, "type": "electric_bike", "lon": -77.023159, "bike_id": "3159196dc7e32e9cdcd0b47b0cf818be", "fusion_lat": 0.0, "name": "3159196dc7e32e9cdcd0b47b0cf818be", "is_reserved": 0, "rental_uris": {"android": "https://dc.lft.to/lastmile_qr_scan", "ios": "https://dc.lft.to/lastmile_qr_scan"}, "fusion_lon": 0.0}, {"lat": 38.9147115, "is_disabled": 0, "type": "electric_scooter", "lon": -77.01911066666666, "bike_id": "d460f9d0c4e11ef324d6bb53655dc353", "fusion_lat": 0.0, "name": "d460f9d0c4e11ef324d6bb53655dc353", "is_reserved": 0, "rental_uris": {"android": "https://dc.lft.to/lastmile_qr_scan", "ios": "https://dc.lft.to/lastmile_qr_scan"}, "fusion_lon": 0.0}, {"lat": 38.90313833333333, "is_disabled": 0, "type": "electric_scooter", "lon": -77.03321833333334, "bike_id": "2d7a0f81a2fc5eb0e8d4db8eefa90261", "fusion_lat": 0.0, "name": "2d7a0f81a2fc5eb0e8d4db8eefa90261", "is_reserved": 0, "rental_uris": {"android": "https://dc.lft.to/lastmile_qr_scan", "ios": "https://dc.lft.to/lastmile_qr_scan"}, "fusion_lon": 0.0}, {"lat": 38.9060355, "is_disabled": 0, "type": "electric_scooter", "lon": -77.05856633333333, "bike_id": "7bc0d44a7b583f125bbe1601254e35af", "fusion_lat": 0.0, "name": "7bc0d44a7b583f125bbe1601254e35af", "is_reserved": 0, "rental_uris": {"android": "https://dc.lft.to/lastmile_qr_scan", "ios": "https://dc.lft.to/lastmile_qr_scan"}, "fusion_lon": 0.0}, {"lat": 38.907120166666665, "is_disabled": 0, "type": "electric_scooter", "lon": -77.0439745, "bike_id": "23419e94304038e83e8d2b0ead249f4c", "fusion_lat": 0.0, "name": "23419e94304038e83e8d2b0ead249f4c", "is_reserved": 0, "rental_uris": {"android": "https://dc.lft.to/lastmile_qr_scan", "ios": "https://dc.lft.to/lastmile_qr_scan"}, "fusion_lon": 0.0}, {"lat": 38.892897833333336, "is_disabled": 0, "type": "electric_bike", "lon": -77.0014575, "bike_id": "1fafa2acc7ffe15a821b8c3381657582", "fusion_lat": 0.0, "name": "1fafa2acc7ffe15a821b8c3381657582", "is_reserved": 0, "rental_uris": {"android": "https://dc.lft.to/lastmile_qr_scan", "ios": "https://dc.lft.to/lastmile_qr_scan"}, "fusion_lon": 0.0}, {"lat": 38.89200366666667, "is_disabled": 0, "type": "electric_bike", "lon": -76.97052116666667, "bike_id": "94e444b613398cbf39692b8ec361cffa", "fusion_lat": 0.0, "name": "94e444b613398cbf39692b8ec361cffa", "is_reserved": 0, "rental_uris": {"android": "https://dc.lft.to/lastmile_qr_scan", "ios": "https://dc.lft.to/lastmile_qr_scan"}, "fusion_lon": 0.0}, {"lat": 38.88428283333333, "is_disabled": 0, "type": "electric_bike", "lon": -76.98088083333333, "bike_id": "d09e49d3f5b41c6bf2cb62b09866400c", "fusion_lat": 0.0, "name": "d09e49d3f5b41c6bf2cb62b09866400c", "is_reserved": 0, "rental_uris": {"android": "https://dc.lft.to/lastmile_qr_scan", "ios": "https://dc.lft.to/lastmile_qr_scan"}, "fusion_lon": 0.0}, {"lat": 38.89531133333333, "is_disabled": 0, "type": "electric_scooter", "lon": -77.01111866666666, "bike_id": "5b31e007b1f30fd722a1fef86a65d0c2", "fusion_lat": 0.0, "name": "5b31e007b1f30fd722a1fef86a65d0c2", "is_reserved": 0, "rental_uris": {"android": "https://dc.lft.to/lastmile_qr_scan", "ios": "https://dc.lft.to/lastmile_qr_scan"}, "fusion_lon": 0.0}, {"lat": 38.879130333333336, "is_disabled": 0, "type": "electric_scooter", "lon": -77.0071295, "bike_id": "e6973ab0637e203d714333038ff97545", "fusion_lat": 0.0, "name": "e6973ab0637e203d714333038ff97545", "is_reserved": 0, "rental_uris": {"android": "https://dc.lft.to/lastmile_qr_scan", "ios": "https://dc.lft.to/lastmile_qr_scan"}, "fusion_lon": 0.0}, {"lat": 38.918592, "is_disabled": 0, "type": "electric_scooter", "lon": -77.07424133333333, "bike_id": "bdf87b444f09c3f30038224d17dcfb63", "fusion_lat": 0.0, "name": "bdf87b444f09c3f30038224d17dcfb63", "is_reserved": 0, "rental_uris": {"android": "https://dc.lft.to/lastmile_qr_scan", "ios": "https://dc.lft.to/lastmile_qr_scan"}, "fusion_lon": 0.0}, {"lat": 38.907909833333335, "is_disabled": 0, "type": "electric_scooter", "lon": -77.0347435, "bike_id": "b40c0a2954f283cdd3ebc0f3febce7cf", "fusion_lat": 0.0, "name": "b40c0a2954f283cdd3ebc0f3febce7cf", "is_reserved": 0, "rental_uris": {"android": "https://dc.lft.to/lastmile_qr_scan", "ios": "https://dc.lft.to/lastmile_qr_scan"}, "fusion_lon": 0.0}, {"lat": 38.90718316666667, "is_disabled": 0, "type": "electric_scooter", "lon": -77.04793033333333, "bike_id": "03db640b26b1a2d1ae295327cbc582f4", "fusion_lat": 0.0, "name": "03db640b26b1a2d1ae295327cbc582f4", "is_reserved": 0, "rental_uris": {"android": "https://dc.lft.to/lastmile_qr_scan", "ios": "https://dc.lft.to/lastmile_qr_scan"}, "fusion_lon": 0.0}, {"lat": 38.925889, "is_disabled": 0, "type": "electric_scooter", "lon": -77.03444883333333, "bike_id": "c37474e14cf96efea633b161bbefff4d", "fusion_lat": 0.0, "name": "c37474e14cf96efea633b161bbefff4d", "is_reserved": 0, "rental_uris": {"android": "https://dc.lft.to/lastmile_qr_scan", "ios": "https://dc.lft.to/lastmile_qr_scan"}, "fusion_lon": 0.0}, {"lat": 38.902160333333335, "is_disabled": 0, "type": "electric_scooter", "lon": -77.02177716666667, "bike_id": "40799a36d5e9caa4b7c8fbc14b1ac635", "fusion_lat": 0.0, "name": "40799a36d5e9caa4b7c8fbc14b1ac635", "is_reserved": 0, "rental_uris": {"android": "https://dc.lft.to/lastmile_qr_scan", "ios": "https://dc.lft.to/lastmile_qr_scan"}, "fusion_lon": 0.0}, {"lat": 38.9121865, "is_disabled": 0, "type": "electric_scooter", "lon": -77.03435333333333, "bike_id": "d9f20ec768483cebad83054674212f5a", "fusion_lat": 0.0, "name": "d9f20ec768483cebad83054674212f5a", "is_reserved": 0, "rental_uris": {"android": "https://dc.lft.to/lastmile_qr_scan", "ios": "https://dc.lft.to/lastmile_qr_scan"}, "fusion_lon": 0.0}, {"lat": 38.859969166666666, "is_disabled": 0, "type": "electric_scooter", "lon": -76.98545433333334, "bike_id": "9b082aa7c1a0df1e49ea5f01360bc6c0", "fusion_lat": 0.0, "name": "9b082aa7c1a0df1e49ea5f01360bc6c0", "is_reserved": 0, "rental_uris": {"android": "https://dc.lft.to/lastmile_qr_scan", "ios": "https://dc.lft.to/lastmile_qr_scan"}, "fusion_lon": 0.0}, {"lat": 38.8962125, "is_disabled": 0, "type": "electric_scooter", "lon": -77.0450185, "bike_id": "e2ed59d6189bb0f5a6773078bb6a1752", "fusion_lat": 0.0, "name": "e2ed59d6189bb0f5a6773078bb6a1752", "is_reserved": 0, "rental_uris": {"android": "https://dc.lft.to/lastmile_qr_scan", "ios": "https://dc.lft.to/lastmile_qr_scan"}, "fusion_lon": 0.0}, {"lat": 38.842914666666665, "is_disabled": 0, "type": "electric_scooter", "lon": -76.99942116666666, "bike_id": "67f33cf308bf979b968f7ec794c92487", "fusion_lat": 0.0, "name": "67f33cf308bf979b968f7ec794c92487", "is_reserved": 0, "rental_uris": {"android": "https://dc.lft.to/lastmile_qr_scan", "ios": "https://dc.lft.to/lastmile_qr_scan"}, "fusion_lon": 0.0}, {"lat": 38.92669016666667, "is_disabled": 0, "type": "electric_scooter", "lon": -77.037948, "bike_id": "135a94e4e7640d8c60651cbad6b42993", "fusion_lat": 0.0, "name": "135a94e4e7640d8c60651cbad6b42993", "is_reserved": 0, "rental_uris": {"android": "https://dc.lft.to/lastmile_qr_scan", "ios": "https://dc.lft.to/lastmile_qr_scan"}, "fusion_lon": 0.0}, {"lat": 38.900368, "is_disabled": 0, "type": "electric_scooter", "lon": -77.001922, "bike_id": "6ddf8d84350faa183913924167e14ca8", "fusion_lat": 0.0, "name": "6ddf8d84350faa183913924167e14ca8", "is_reserved": 0, "rental_uris": {"android": "https://dc.lft.to/lastmile_qr_scan", "ios": "https://dc.lft.to/lastmile_qr_scan"}, "fusion_lon": 0.0}, {"lat": 38.950685666666665, "is_disabled": 0, "type": "electric_scooter", "lon": -77.06649633333333, "bike_id": "0bdce4573e123fbc666217452ca65a05", "fusion_lat": 0.0, "name": "0bdce4573e123fbc666217452ca65a05", "is_reserved": 0, "rental_uris": {"android": "https://dc.lft.to/lastmile_qr_scan", "ios": "https://dc.lft.to/lastmile_qr_scan"}, "fusion_lon": 0.0}, {"lat": 38.901394, "is_disabled": 0, "type": "electric_scooter", "lon": -77.01825933333333, "bike_id": "b53dd39a7b3023901899fa4b2e22de74", "fusion_lat": 0.0, "name": "b53dd39a7b3023901899fa4b2e22de74", "is_reserved": 0, "rental_uris": {"android": "https://dc.lft.to/lastmile_qr_scan", "ios": "https://dc.lft.to/lastmile_qr_scan"}, "fusion_lon": 0.0}, {"lat": 38.898371166666664, "is_disabled": 0, "type": "electric_scooter", "lon": -77.024403, "bike_id": "5fd798e71b71c48407cf977f45210c48", "fusion_lat": 0.0, "name": "5fd798e71b71c48407cf977f45210c48", "is_reserved": 0, "rental_uris": {"android": "https://dc.lft.to/lastmile_qr_scan", "ios": "https://dc.lft.to/lastmile_qr_scan"}, "fusion_lon": 0.0}, {"lat": 38.940962999999996, "is_disabled": 0, "type": "electric_scooter", "lon": -77.03283083333334, "bike_id": "c01242bc5a1493e79e6d3cb0b1d75403", "fusion_lat": 0.0, "name": "c01242bc5a1493e79e6d3cb0b1d75403", "is_reserved": 0, "rental_uris": {"android": "https://dc.lft.to/lastmile_qr_scan", "ios": "https://dc.lft.to/lastmile_qr_scan"}, "fusion_lon": 0.0}, {"lat": 38.876306, "is_disabled": 0, "type": "electric_scooter", "lon": -76.96530216666666, "bike_id": "6b34d981074c101ad553e4db0aa59a01", "fusion_lat": 0.0, "name": "6b34d981074c101ad553e4db0aa59a01", "is_reserved": 0, "rental_uris": {"android": "https://dc.lft.to/lastmile_qr_scan", "ios": "https://dc.lft.to/lastmile_qr_scan"}, "fusion_lon": 0.0}, {"lat": 38.93772516666667, "is_disabled": 0, "type": "electric_scooter", "lon": -77.023753, "bike_id": "5ff632d0749e48cc65e17314b20238ad", "fusion_lat": 0.0, "name": "5ff632d0749e48cc65e17314b20238ad", "is_reserved": 0, "rental_uris": {"android": "https://dc.lft.to/lastmile_qr_scan", "ios": "https://dc.lft.to/lastmile_qr_scan"}, "fusion_lon": 0.0}, {"lat": 38.89999233333333, "is_disabled": 0, "type": "electric_scooter", "lon": -76.99855383333333, "bike_id": "259b2f7850df031ac401c0e866e1a17a", "fusion_lat": 0.0, "name": "259b2f7850df031ac401c0e866e1a17a", "is_reserved": 0, "rental_uris": {"android": "https://dc.lft.to/lastmile_qr_scan", "ios": "https://dc.lft.to/lastmile_qr_scan"}, "fusion_lon": 0.0}, {"lat": 38.90514266666667, "is_disabled": 0, "type": "electric_scooter", "lon": -77.06877216666666, "bike_id": "bce7cfacca278ebd17d31d3f44f76bdd", "fusion_lat": 0.0, "name": "bce7cfacca278ebd17d31d3f44f76bdd", "is_reserved": 0, "rental_uris": {"android": "https://dc.lft.to/lastmile_qr_scan", "ios": "https://dc.lft.to/lastmile_qr_scan"}, "fusion_lon": 0.0}, {"lat": 38.9333175, "is_disabled": 0, "type": "electric_scooter", "lon": -77.05710633333334, "bike_id": "4c90cc8b39bfa4ea8dc2636d034502e6", "fusion_lat": 0.0, "name": "4c90cc8b39bfa4ea8dc2636d034502e6", "is_reserved": 0, "rental_uris": {"android": "https://dc.lft.to/lastmile_qr_scan", "ios": "https://dc.lft.to/lastmile_qr_scan"}, "fusion_lon": 0.0}, {"lat": 39.01591766666667, "is_disabled": 0, "type": "electric_bike", "lon": -77.04424283333333, "bike_id": "8432b40a609ae1e307fd09e8959a955b", "fusion_lat": 0.0, "name": "8432b40a609ae1e307fd09e8959a955b", "is_reserved": 0, "rental_uris": {"android": "https://dc.lft.to/lastmile_qr_scan", "ios": "https://dc.lft.to/lastmile_qr_scan"}, "fusion_lon": 0.0}, {"lat": 38.901332, "is_disabled": 0, "type": "electric_scooter", "lon": -77.01813483333333, "bike_id": "207a1ad16b21d0e01cb3fe71c42ffcc9", "fusion_lat": 0.0, "name": "207a1ad16b21d0e01cb3fe71c42ffcc9", "is_reserved": 0, "rental_uris": {"android": "https://dc.lft.to/lastmile_qr_scan", "ios": "https://dc.lft.to/lastmile_qr_scan"}, "fusion_lon": 0.0}, {"lat": 38.9353965, "is_disabled": 0, "type": "electric_scooter", "lon": -77.03411616666666, "bike_id": "85fe3c73b05bd2884e9977d97affaba7", "fusion_lat": 0.0, "name": "85fe3c73b05bd2884e9977d97affaba7", "is_reserved": 0, "rental_uris": {"android": "https://dc.lft.to/lastmile_qr_scan", "ios": "https://dc.lft.to/lastmile_qr_scan"}, "fusion_lon": 0.0}, {"lat": 38.9049875, "is_disabled": 0, "type": "electric_scooter", "lon": -77.03265466666667, "bike_id": "e018e946f7fcbbe9cf69f295e696fd7d", "fusion_lat": 0.0, "name": "e018e946f7fcbbe9cf69f295e696fd7d", "is_reserved": 0, "rental_uris": {"android": "https://dc.lft.to/lastmile_qr_scan", "ios": "https://dc.lft.to/lastmile_qr_scan"}, "fusion_lon": 0.0}, {"lat": 38.9480235, "is_disabled": 0, "type": "electric_scooter", "lon": -77.0791025, "bike_id": "afc0fb30963d98014001d39942d295aa", "fusion_lat": 0.0, "name": "afc0fb30963d98014001d39942d295aa", "is_reserved": 0, "rental_uris": {"android": "https://dc.lft.to/lastmile_qr_scan", "ios": "https://dc.lft.to/lastmile_qr_scan"}, "fusion_lon": 0.0}, {"lat": 38.884243833333336, "is_disabled": 0, "type": "electric_scooter", "lon": -77.03050716666667, "bike_id": "e311a1270363778f866fc83ab1ad2454", "fusion_lat": 0.0, "name": "e311a1270363778f866fc83ab1ad2454", "is_reserved": 0, "rental_uris": {"android": "https://dc.lft.to/lastmile_qr_scan", "ios": "https://dc.lft.to/lastmile_qr_scan"}, "fusion_lon": 0.0}, {"lat": 38.91966566666667, "is_disabled": 0, "type": "electric_scooter", "lon": -77.04314, "bike_id": "7e7c8c691cf6134909ec20de3287f005", "fusion_lat": 0.0, "name": "7e7c8c691cf6134909ec20de3287f005", "is_reserved": 0, "rental_uris": {"android": "https://dc.lft.to/lastmile_qr_scan", "ios": "https://dc.lft.to/lastmile_qr_scan"}, "fusion_lon": 0.0}, {"lat": 38.917555166666666, "is_disabled": 0, "type": "electric_bike", "lon": -77.047658, "bike_id": "abdc7743ad09b4def6102d6256759077", "fusion_lat": 0.0, "name": "abdc7743ad09b4def6102d6256759077", "is_reserved": 0, "rental_uris": {"android": "https://dc.lft.to/lastmile_qr_scan", "ios": "https://dc.lft.to/lastmile_qr_scan"}, "fusion_lon": 0.0}, {"lat": 38.8912125, "is_disabled": 0, "type": "electric_scooter", "lon": -76.9409365, "bike_id": "1b64f0b39996e3233b630e2e20428073", "fusion_lat": 0.0, "name": "1b64f0b39996e3233b630e2e20428073", "is_reserved": 0, "rental_uris": {"android": "https://dc.lft.to/lastmile_qr_scan", "ios": "https://dc.lft.to/lastmile_qr_scan"}, "fusion_lon": 0.0}, {"lat": 38.910769, "is_disabled": 0, "type": "electric_scooter", "lon": -77.07642083333333, "bike_id": "080d5fb83637bc1243f088251ed70d2c", "fusion_lat": 0.0, "name": "080d5fb83637bc1243f088251ed70d2c", "is_reserved": 0, "rental_uris": {"android": "https://dc.lft.to/lastmile_qr_scan", "ios": "https://dc.lft.to/lastmile_qr_scan"}, "fusion_lon": 0.0}, {"lat": 38.89975316666667, "is_disabled": 0, "type": "electric_scooter", "lon": -77.0228755, "bike_id": "c9f5559c3159d0dbc61b2286a6849b29", "fusion_lat": 0.0, "name": "c9f5559c3159d0dbc61b2286a6849b29", "is_reserved": 0, "rental_uris": {"android": "https://dc.lft.to/lastmile_qr_scan", "ios": "https://dc.lft.to/lastmile_qr_scan"}, "fusion_lon": 0.0}, {"lat": 38.8764705, "is_disabled": 0, "type": "electric_scooter", "lon": -77.00409066666667, "bike_id": "c7de39ba1dcd3d68988bc52430c4c634", "fusion_lat": 0.0, "name": "c7de39ba1dcd3d68988bc52430c4c634", "is_reserved": 0, "rental_uris": {"android": "https://dc.lft.to/lastmile_qr_scan", "ios": "https://dc.lft.to/lastmile_qr_scan"}, "fusion_lon": 0.0}, {"lat": 38.95922516666667, "is_disabled": 0, "type": "electric_bike", "lon": -77.03121683333333, "bike_id": "6af281d11cb65a0b42d53444565cf72d", "fusion_lat": 0.0, "name": "6af281d11cb65a0b42d53444565cf72d", "is_reserved": 0, "rental_uris": {"android": "https://dc.lft.to/lastmile_qr_scan", "ios": "https://dc.lft.to/lastmile_qr_scan"}, "fusion_lon": 0.0}, {"lat": 38.95402466666667, "is_disabled": 0, "type": "electric_scooter", "lon": -77.0275565, "bike_id": "9e312c264b6a64ee12c8770c4c7c3b4e", "fusion_lat": 0.0, "name": "9e312c264b6a64ee12c8770c4c7c3b4e", "is_reserved": 0, "rental_uris": {"android": "https://dc.lft.to/lastmile_qr_scan", "ios": "https://dc.lft.to/lastmile_qr_scan"}, "fusion_lon": 0.0}, {"lat": 38.90860266666667, "is_disabled": 0, "type": "electric_bike", "lon": -77.08083666666667, "bike_id": "60428c359758e720e9ac395dcaf34055", "fusion_lat": 0.0, "name": "60428c359758e720e9ac395dcaf34055", "is_reserved": 0, "rental_uris": {"android": "https://dc.lft.to/lastmile_qr_scan", "ios": "https://dc.lft.to/lastmile_qr_scan"}, "fusion_lon": 0.0}, {"lat": 38.9172075, "is_disabled": 0, "type": "electric_scooter", "lon": -77.04105383333334, "bike_id": "550e45f5684b35a96db937fa38581fa1", "fusion_lat": 0.0, "name": "550e45f5684b35a96db937fa38581fa1", "is_reserved": 0, "rental_uris": {"android": "https://dc.lft.to/lastmile_qr_scan", "ios": "https://dc.lft.to/lastmile_qr_scan"}, "fusion_lon": 0.0}, {"lat": 38.9234025, "is_disabled": 0, "type": "electric_scooter", "lon": -77.03371566666667, "bike_id": "deae7142d9ef9d9b71aebdf4096e2150", "fusion_lat": 0.0, "name": "deae7142d9ef9d9b71aebdf4096e2150", "is_reserved": 0, "rental_uris": {"android": "https://dc.lft.to/lastmile_qr_scan", "ios": "https://dc.lft.to/lastmile_qr_scan"}, "fusion_lon": 0.0}, {"lat": 38.88468183333333, "is_disabled": 0, "type": "electric_scooter", "lon": -76.992641, "bike_id": "ddeaa5faf33538278f8debad48e58646", "fusion_lat": 0.0, "name": "ddeaa5faf33538278f8debad48e58646", "is_reserved": 0, "rental_uris": {"android": "https://dc.lft.to/lastmile_qr_scan", "ios": "https://dc.lft.to/lastmile_qr_scan"}, "fusion_lon": 0.0}, {"lat": 38.9602015, "is_disabled": 0, "type": "electric_bike", "lon": -77.01729583333334, "bike_id": "7604ea6510e09ecc41849d86cdfe3b86", "fusion_lat": 0.0, "name": "7604ea6510e09ecc41849d86cdfe3b86", "is_reserved": 0, "rental_uris": {"android": "https://dc.lft.to/lastmile_qr_scan", "ios": "https://dc.lft.to/lastmile_qr_scan"}, "fusion_lon": 0.0}, {"lat": 38.91987483333333, "is_disabled": 0, "type": "electric_scooter", "lon": -76.97309133333333, "bike_id": "69401eb59ef3803f6895576c14ebc4a1", "fusion_lat": 0.0, "name": "69401eb59ef3803f6895576c14ebc4a1", "is_reserved": 0, "rental_uris": {"android": "https://dc.lft.to/lastmile_qr_scan", "ios": "https://dc.lft.to/lastmile_qr_scan"}, "fusion_lon": 0.0}, {"lat": 38.95071516666667, "is_disabled": 0, "type": "electric_scooter", "lon": -77.0088005, "bike_id": "eb0624477af3d52f5ccd5cccec610bf6", "fusion_lat": 0.0, "name": "eb0624477af3d52f5ccd5cccec610bf6", "is_reserved": 0, "rental_uris": {"android": "https://dc.lft.to/lastmile_qr_scan", "ios": "https://dc.lft.to/lastmile_qr_scan"}, "fusion_lon": 0.0}, {"lat": 38.8757855, "is_disabled": 0, "type": "electric_scooter", "lon": -77.013278, "bike_id": "09c06a96f5b4d0666ddeed0d4a39e800", "fusion_lat": 0.0, "name": "09c06a96f5b4d0666ddeed0d4a39e800", "is_reserved": 0, "rental_uris": {"android": "https://dc.lft.to/lastmile_qr_scan", "ios": "https://dc.lft.to/lastmile_qr_scan"}, "fusion_lon": 0.0}, {"lat": 39.029298833333335, "is_disabled": 0, "type": "electric_bike", "lon": -77.04928366666667, "bike_id": "6f64ce9c2d7a24e8697bbd42790cfa3e", "fusion_lat": 0.0, "name": "6f64ce9c2d7a24e8697bbd42790cfa3e", "is_reserved": 0, "rental_uris": {"android": "https://dc.lft.to/lastmile_qr_scan", "ios": "https://dc.lft.to/lastmile_qr_scan"}, "fusion_lon": 0.0}, {"lat": 38.8808075, "is_disabled": 0, "type": "electric_scooter", "lon": -76.9853265, "bike_id": "844552afacb2c4243fe7e1ecac349716", "fusion_lat": 0.0, "name": "844552afacb2c4243fe7e1ecac349716", "is_reserved": 0, "rental_uris": {"android": "https://dc.lft.to/lastmile_qr_scan", "ios": "https://dc.lft.to/lastmile_qr_scan"}, "fusion_lon": 0.0}, {"lat": 38.861055, "is_disabled": 0, "type": "electric_scooter", "lon": -76.98357033333333, "bike_id": "668095dc1b244a6eef6f0f0ccc883453", "fusion_lat": 0.0, "name": "668095dc1b244a6eef6f0f0ccc883453", "is_reserved": 0, "rental_uris": {"android": "https://dc.lft.to/lastmile_qr_scan", "ios": "https://dc.lft.to/lastmile_qr_scan"}, "fusion_lon": 0.0}, {"lat": 38.9101175, "is_disabled": 0, "type": "electric_scooter", "lon": -76.99391316666667, "bike_id": "80dc59f304b29756e7d47a642a402986", "fusion_lat": 0.0, "name": "80dc59f304b29756e7d47a642a402986", "is_reserved": 0, "rental_uris": {"android": "https://dc.lft.to/lastmile_qr_scan", "ios": "https://dc.lft.to/lastmile_qr_scan"}, "fusion_lon": 0.0}, {"lat": 38.901025833333335, "is_disabled": 0, "type": "electric_scooter", "lon": -77.04987383333334, "bike_id": "0e52d31081b9726a0b92cafcacf3dad0", "fusion_lat": 0.0, "name": "0e52d31081b9726a0b92cafcacf3dad0", "is_reserved": 0, "rental_uris": {"android": "https://dc.lft.to/lastmile_qr_scan", "ios": "https://dc.lft.to/lastmile_qr_scan"}, "fusion_lon": 0.0}, {"lat": 38.91264416666667, "is_disabled": 0, "type": "electric_scooter", "lon": -77.00286066666666, "bike_id": "a2c25e8d79e183248987a07701ddf4a6", "fusion_lat": 0.0, "name": "a2c25e8d79e183248987a07701ddf4a6", "is_reserved": 0, "rental_uris": {"android": "https://dc.lft.to/lastmile_qr_scan", "ios": "https://dc.lft.to/lastmile_qr_scan"}, "fusion_lon": 0.0}, {"lat": 38.91335383333333, "is_disabled": 0, "type": "electric_scooter", "lon": -77.00223316666667, "bike_id": "4c384aa95a963a2377e437ae4ebb60d0", "fusion_lat": 0.0, "name": "4c384aa95a963a2377e437ae4ebb60d0", "is_reserved": 0, "rental_uris": {"android": "https://dc.lft.to/lastmile_qr_scan", "ios": "https://dc.lft.to/lastmile_qr_scan"}, "fusion_lon": 0.0}, {"lat": 38.883400333333334, "is_disabled": 0, "type": "electric_scooter", "lon": -77.03141316666667, "bike_id": "ea68c9aac1e504b153395fe84c603dc6", "fusion_lat": 0.0, "name": "ea68c9aac1e504b153395fe84c603dc6", "is_reserved": 0, "rental_uris": {"android": "https://dc.lft.to/lastmile_qr_scan", "ios": "https://dc.lft.to/lastmile_qr_scan"}, "fusion_lon": 0.0}, {"lat": 38.923411, "is_disabled": 0, "type": "electric_scooter", "lon": -77.0190385, "bike_id": "2ae164053c25311eb254930149e9d336", "fusion_lat": 0.0, "name": "2ae164053c25311eb254930149e9d336", "is_reserved": 0, "rental_uris": {"android": "https://dc.lft.to/lastmile_qr_scan", "ios": "https://dc.lft.to/lastmile_qr_scan"}, "fusion_lon": 0.0}, {"lat": 38.900224, "is_disabled": 0, "type": "electric_scooter", "lon": -76.9873795, "bike_id": "9f5dc979ff63a2fbdbb44060970f00eb", "fusion_lat": 0.0, "name": "9f5dc979ff63a2fbdbb44060970f00eb", "is_reserved": 0, "rental_uris": {"android": "https://dc.lft.to/lastmile_qr_scan", "ios": "https://dc.lft.to/lastmile_qr_scan"}, "fusion_lon": 0.0}, {"lat": 38.91119166666667, "is_disabled": 0, "type": "electric_scooter", "lon": -77.0025355, "bike_id": "31c333d9372a228e67bec3acc7413012", "fusion_lat": 0.0, "name": "31c333d9372a228e67bec3acc7413012", "is_reserved": 0, "rental_uris": {"android": "https://dc.lft.to/lastmile_qr_scan", "ios": "https://dc.lft.to/lastmile_qr_scan"}, "fusion_lon": 0.0}, {"lat": 38.897340666666665, "is_disabled": 0, "type": "electric_scooter", "lon": -77.05524566666666, "bike_id": "935fe245208d56860a441563e7b4890c", "fusion_lat": 0.0, "name": "935fe245208d56860a441563e7b4890c", "is_reserved": 0, "rental_uris": {"android": "https://dc.lft.to/lastmile_qr_scan", "ios": "https://dc.lft.to/lastmile_qr_scan"}, "fusion_lon": 0.0}, {"lat": 38.893428166666666, "is_disabled": 0, "type": "electric_scooter", "lon": -76.94935183333334, "bike_id": "091cf0cf17f64051f84c0b777b7ae219", "fusion_lat": 0.0, "name": "091cf0cf17f64051f84c0b777b7ae219", "is_reserved": 0, "rental_uris": {"android": "https://dc.lft.to/lastmile_qr_scan", "ios": "https://dc.lft.to/lastmile_qr_scan"}, "fusion_lon": 0.0}, {"lat": 38.918166166666666, "is_disabled": 0, "type": "electric_scooter", "lon": -77.03443766666666, "bike_id": "dfc2b1ff8e7eafc7cf0b52f754582547", "fusion_lat": 0.0, "name": "dfc2b1ff8e7eafc7cf0b52f754582547", "is_reserved": 0, "rental_uris": {"android": "https://dc.lft.to/lastmile_qr_scan", "ios": "https://dc.lft.to/lastmile_qr_scan"}, "fusion_lon": 0.0}, {"lat": 38.92421133333333, "is_disabled": 0, "type": "electric_scooter", "lon": -77.05180633333333, "bike_id": "81f164458a80128868f4ab9220c44ccb", "fusion_lat": 0.0, "name": "81f164458a80128868f4ab9220c44ccb", "is_reserved": 0, "rental_uris": {"android": "https://dc.lft.to/lastmile_qr_scan", "ios": "https://dc.lft.to/lastmile_qr_scan"}, "fusion_lon": 0.0},