{"data": {"bikes": [{"name": "8c58ac37da0e858ade156a90916bedda", "fusion_lat": 0.0, "type": "electric_scooter", "lat": 38.90033783333333, "is_reserved": 0, "is_disabled": 0, "fusion_lon": 0.0, "bike_id": "8c58ac37da0e858ade156a90916bedda", "lon": -77.01184216666667, "rental_uris": {"ios": "https://dc.lft.to/lastmile_qr_scan", "android": "https://dc.lft.to/lastmile_qr_scan"}}, {"name": "480779c8aa41d9633f382fad0850a862", "fusion_lat": 0.0, "type": "electric_scooter", "lat": 38.96386283333333, "is_reserved": 0, "is_disabled": 0, "fusion_lon": 0.0, "bike_id": "480779c8aa41d9633f382fad0850a862", "lon": -77.03504166666667, "rental_uris": {"ios": "https://dc.lft.to/lastmile_qr_scan", "android": "https://dc.lft.to/lastmile_qr_scan"}}, {"name": "7365529d3da81cfbfdc46f8c0ac5abef", "fusion_lat": 0.0, "type": "electric_scooter", "lat": 38.93525316666667, "is_reserved": 0, "is_disabled": 0, "fusion_lon": 0.0, "bike_id": "7365529d3da81cfbfdc46f8c0ac5abef", "lon": -77.03263183333334, "rental_uris": {"ios": "https://dc.lft.to/lastmile_qr_scan", "android": "https://dc.lft.to/lastmile_qr_scan"}}, {"name": "b60dadf30a3c02eac6271b9840f2fd47", "fusion_lat": 0.0, "type": "electric_scooter", "lat": 38.922679333333335, "is_reserved": 0, "is_disabled": 0, "fusion_lon": 0.0, "bike_id": "b60dadf30a3c02eac6271b9840f2fd47", "lon": -77.034034, "rental_uris": {"ios": "https://dc.lft.to/lastmile_qr_scan", "android": "https://dc.lft.to/lastmile_qr_scan"}}, {"name": "6a2a7146e497146eb55b0590a9acb780", "fusion_lat": 0.0, "type": "electric_bike", "lat": 39.024244333333336, "is_reserved": 0, "is_disabled": 0, "fusion_lon": 0.0, "bike_id": "6a2a7146e497146eb55b0590a9acb780", "lon": -77.125006, "rental_uris": {"ios": "https://dc.lft.to/lastmile_qr_scan", "android": "https://dc.lft.to/lastmile_qr_scan"}}, {"name": "d0fdfc1af65d933b2e3df9236889c6cb", "fusion_lat": 0.0, "type": "electric_scooter", "lat": 38.905267, "is_reserved": 0, "is_disabled": 0, "fusion_lon": 0.0, "bike_id": "d0fdfc1af65d933b2e3df9236889c6cb", "lon": -77.06612583333333, "rental_uris": {"ios": "https://dc.lft.to/lastmile_qr_scan", "android": "https://dc.lft.to/lastmile_qr_scan"}}, {"name": "6386f7807a80012aae18cfbb0a2f1a49", "fusion_lat": 0.0, "type": "electric_scooter", "lat": 38.90608, "is_reserved": 0, "is_disabled": 0, "fusion_lon": 0.0, "bike_id": "6386f7807a80012aae18cfbb0a2f1a49", "lon": -77.05620366666666, "rental_uris": {"ios": "https://dc.lft.to/lastmile_qr_scan", "android": "https://dc.lft.to/lastmile_qr_scan"}}, {"name": "03b6add58e59d1f519c3a0632872c3b9", "fusion_lat": 0.0, "type": "electric_scooter", "lat": 38.912338, "is_reserved": 0, "is_disabled": 0, "fusion_lon": 0.0, "bike_id": "03b6add58e59d1f519c3a0632872c3b9", "lon": -77.0510845, "rental_uris": {"ios": "https://dc.lft.to/lastmile_qr_scan", "android": "https://dc.lft.to/lastmile_qr_scan"}}, {"name": "338703e53fa759195261e82815e84b14", "fusion_lat": 0.0, "type": "electric_scooter", "lat": 38.885214833333336, "is_reserved": 0, "is_disabled": 0, "fusion_lon": 0.0, "bike_id": "338703e53fa759195261e82815e84b14", "lon": -77.03353333333334, "rental_uris": {"ios": "https://dc.lft.to/lastmile_qr_scan", "android": "https://dc.lft.to/lastmile_qr_scan"}}, {"name": "b41cf7c4e6320e22424e1456b2cd3250", "fusion_lat": 0.0, "type": "electric_bike", "lat": 38.984564666666664, "is_reserved": 0, "is_disabled": 0, "fusion_lon": 0.0, "bike_id": "b41cf7c4e6320e22424e1456b2cd3250", "lon": -76.95526, "rental_uris": {"ios": "https://dc.lft.to/lastmile_qr_scan", "android": "https://dc.lft.to/lastmile_qr_scan"}}, {"name": "7e9defc0566d453edd4a444e9a64a4d5", "fusion_lat": 0.0, "type": "electric_scooter", "lat": 38.93921, "is_reserved": 0, "is_disabled": 0, "fusion_lon": 0.0, "bike_id": "7e9defc0566d453edd4a444e9a64a4d5", "lon": -77.036639, "rental_uris": {"ios": "https://dc.lft.to/lastmile_qr_scan", "android": "https://dc.lft.to/lastmile_qr_scan"}}, {"name": "a74d7757acf5c3f68cfc8a95a4c5d483", "fusion_lat": 0.0, "type": "electric_scooter", "lat": 38.895528666666664, "is_reserved": 0, "is_disabled": 0, "fusion_lon": 0.0, "bike_id": "a74d7757acf5c3f68cfc8a95a4c5d483", "lon": -76.98373366666667, "rental_uris": {"ios": "https://dc.lft.to/lastmile_qr_scan", "android": "https://dc.lft.to/lastmile_qr_scan"}}, {"name": "d9dbb808e581043f61bbf2a30494e3cc", "fusion_lat": 0.0, "type": "electric_scooter", "lat": 38.8783115, "is_reserved": 0, "is_disabled": 0, "fusion_lon": 0.0, "bike_id": "d9dbb808e581043f61bbf2a30494e3cc", "lon": -77.01752233333333, "rental_uris": {"ios": "https://dc.lft.to/lastmile_qr_scan", "android": "https://dc.lft.to/lastmile_qr_scan"}}, {"name": "c6ac3d98e445931209566deaa314eee7", "fusion_lat": 0.0, "type": "electric_scooter", "lat": 38.88045183333333, "is_reserved": 0, "is_disabled": 0, "fusion_lon": 0.0, "bike_id": "c6ac3d98e445931209566deaa314eee7", "lon": -76.959835, "rental_uris": {"ios": "https://dc.lft.to/lastmile_qr_scan", "android": "https://dc.lft.to/lastmile_qr_scan"}}, {"name": "a36e350bf8706b600f57e26055e0d185", "fusion_lat": 0.0, "type": "electric_scooter", "lat": 38.900657333333335, "is_reserved": 0, "is_disabled": 0, "fusion_lon": 0.0, "bike_id": "a36e350bf8706b600f57e26055e0d185", "lon": -76.94771683333333, "rental_uris": {"ios": "https://dc.lft.to/lastmile_qr_scan", "android": "https://dc.lft.to/lastmile_qr_scan"}}, {"name": "11e31c1fa2d512570400089cc7f250ae", "fusion_lat": 0.0, "type": "electric_bike", "lat": 38.8659655, "is_reserved": 0, "is_disabled": 0, "fusion_lon": 0.0, "bike_id": "11e31c1fa2d512570400089cc7f250ae", "lon": -76.93229883333333, "rental_uris": {"ios": "https://dc.lft.to/lastmile_qr_scan", "android": "https://dc.lft.to/lastmile_qr_scan"}}, {"name": "da0e3a42f374a55a4a3060433b84b7cc", "fusion_lat": 0.0, "type": "electric_bike", "lat": 38.852180833333335, "is_reserved": 0, "is_disabled": 0, "fusion_lon": 0.0, "bike_id": "da0e3a42f374a55a4a3060433b84b7cc", "lon": -77.12961, "rental_uris": {"ios": "https://dc.lft.to/lastmile_qr_scan", "android": "https://dc.lft.to/lastmile_qr_scan"}}, {"name": "30f0df78bacfbc50b1b24e736c6e1003", "fusion_lat": 0.0, "type": "electric_scooter", "lat": 38.930611166666665, "is_reserved": 0, "is_disabled": 0, "fusion_lon": 0.0, "bike_id": "30f0df78bacfbc50b1b24e736c6e1003", "lon": -77.02317966666666, "rental_uris": {"ios": "https://dc.lft.to/lastmile_qr_scan", "android": "https://dc.lft.to/lastmile_qr_scan"}}, {"name": "2a6651c5a4debd87abe5c1fb4a6b91aa", "fusion_lat": 0.0, "type": "electric_scooter", "lat": 38.89390816666667, "is_reserved": 0, "is_disabled": 0, "fusion_lon": 0.0, "bike_id": "2a6651c5a4debd87abe5c1fb4a6b91aa", "lon": -77.05473883333333, "rental_uris": {"ios": "https://dc.lft.to/lastmile_qr_scan", "android": "https://dc.lft.to/lastmile_qr_scan"}}, {"name": "18e71820c0fd4fb3c532f358c177c493", "fusion_lat": 0.0, "type": "electric_scooter", "lat": 38.87668433333333, "is_reserved": 0, "is_disabled": 0, "fusion_lon": 0.0, "bike_id": "18e71820c0fd4fb3c532f358c177c493", "lon": -77.00342533333334, "rental_uris": {"ios": "https://dc.lft.to/lastmile_qr_scan", "android": "https://dc.lft.to/lastmile_qr_scan"}}, {"name": "50c9576443060f594bcdd36a1f72bf1a", "fusion_lat": 0.0, "type": "electric_scooter", "lat": 38.90140666666667, "is_reserved": 0, "is_disabled": 0, "fusion_lon": 0.0, "bike_id": "50c9576443060f594bcdd36a1f72bf1a", "lon": -77.03928216666667, "rental_uris": {"ios": "https://dc.lft.to/lastmile_qr_scan", "android": "https://dc.lft.to/lastmile_qr_scan"}}, {"name": "d985ba26093ca63414240bd1fe4afe7f", "fusion_lat": 0.0, "type": "electric_scooter", "lat": 38.8838545, "is_reserved": 0, "is_disabled": 0, "fusion_lon": 0.0, "bike_id": "d985ba26093ca63414240bd1fe4afe7f", "lon": -76.98546583333334, "rental_uris": {"ios": "https://dc.lft.to/lastmile_qr_scan", "android": "https://dc.lft.to/lastmile_qr_scan"}}, {"name": "e9aabc81c2602ad8a428aaad9f1dd19d", "fusion_lat": 0.0, "type": "electric_scooter", "lat": 38.904908166666665, "is_reserved": 0, "is_disabled": 0, "fusion_lon": 0.0, "bike_id": "e9aabc81c2602ad8a428aaad9f1dd19d", "lon": -77.0346685, "rental_uris": {"ios": "https://dc.lft.to/lastmile_qr_scan", "android": "https://dc.lft.to/lastmile_qr_scan"}}, {"name": "7607bb303aa666371c7005d2eba8c72f", "fusion_lat": 0.0, "type": "electric_scooter", "lat": 38.933409, "is_reserved": 0, "is_disabled": 0, "fusion_lon": 0.0, "bike_id": "7607bb303aa666371c7005d2eba8c72f", "lon": -77.04371733333333, "rental_uris": {"ios": "https://dc.lft.to/lastmile_qr_scan", "android": "https://dc.lft.to/lastmile_qr_scan"}}, {"name": "76dd197067ba0cac2849227421d4596c", "fusion_lat": 0.0, "type": "electric_scooter", "lat": 38.8929685, "is_reserved": 0, "is_disabled": 0, "fusion_lon": 0.0, "bike_id": "76dd197067ba0cac2849227421d4596c", "lon": -76.9392935, "rental_uris": {"ios": "https://dc.lft.to/lastmile_qr_scan", "android": "https://dc.lft.to/lastmile_qr_scan"}}, {"name": "6b506f8c225f4d0c4f19620af0bd06a3", "fusion_lat": 0.0, "type": "electric_scooter", "lat": 38.8863165, "is_reserved": 0, "is_disabled": 0, "fusion_lon": 0.0, "bike_id": "6b506f8c225f4d0c4f19620af0bd06a3", "lon": -77.0153735, "rental_uris": {"ios": "https://dc.lft.to/lastmile_qr_scan", "android": "https://dc.lft.to/lastmile_qr_scan"}}, {"name": "bb0c4ab55a22604e1914fc164287478e", "fusion_lat": 0.0, "type": "electric_scooter", "lat": 38.90682316666667, "is_reserved": 0, "is_disabled": 0, "fusion_lon": 0.0, "bike_id": "bb0c4ab55a22604e1914fc164287478e", "lon": -77.038404, "rental_uris": {"ios": "https://dc.lft.to/lastmile_qr_scan", "android": "https://dc.lft.to/lastmile_qr_scan"}}, {"name": "35f7ed134b00f38759e18b9bb4ae7190", "fusion_lat": 0.0, "type": "electric_scooter", "lat": 38.89910283333333, "is_reserved": 0, "is_disabled": 0, "fusion_lon": 0.0, "bike_id": "35f7ed134b00f38759e18b9bb4ae7190", "lon": -77.03932883333333, "rental_uris": {"ios": "https://dc.lft.to/lastmile_qr_scan", "android": "https://dc.lft.to/lastmile_qr_scan"}}, {"name": "fd92861e401dcf720af749954a105ce3", "fusion_lat": 0.0, "type": "electric_bike", "lat": 38.8323635, "is_reserved": 0, "is_disabled": 0, "fusion_lon": 0.0, "bike_id": "fd92861e401dcf720af749954a105ce3", "lon": -76.946194, "rental_uris": {"ios": "https://dc.lft.to/lastmile_qr_scan", "android": "https://dc.lft.to/lastmile_qr_scan"}}, {"name": "7d9cdc420713e980af3a87a0df59dad7", "fusion_lat": 0.0, "type": "electric_scooter", "lat": 38.939657, "is_reserved": 0, "is_disabled": 0, "fusion_lon": 0.0, "bike_id": "7d9cdc420713e980af3a87a0df59dad7", "lon": -77.0274935, "rental_uris": {"ios": "https://dc.lft.to/lastmile_qr_scan", "android": "https://dc.lft.to/lastmile_qr_scan"}}, {"name": "8906bb4ced79814fe092871bc6a168d4", "fusion_lat": 0.0, "type": "electric_scooter", "lat": 38.892319, "is_reserved": 0, "is_disabled": 0, "fusion_lon": 0.0, "bike_id": "8906bb4ced79814fe092871bc6a168d4", "lon": -77.02829316666667, "rental_uris": {"ios": "https://dc.lft.to/lastmile_qr_scan", "android": "https://dc.lft.to/lastmile_qr_scan"}}, {"name": "1b238daeb3252480b60bc0275863a738", "fusion_lat": 0.0, "type": "electric_scooter", "lat": 38.885840333333334, "is_reserved": 0, "is_disabled": 0, "fusion_lon": 0.0, "bike_id": "1b238daeb3252480b60bc0275863a738", "lon": -76.99503533333333, "rental_uris": {"ios": "https://dc.lft.to/lastmile_qr_scan", "android": "https://dc.lft.to/lastmile_qr_scan"}}, {"name": "39cf6c2e7fed59653e55c997e94d49a8", "fusion_lat": 0.0, "type": "electric_scooter", "lat": 38.90200883333333, "is_reserved": 0, "is_disabled": 0, "fusion_lon": 0.0, "bike_id": "39cf6c2e7fed59653e55c997e94d49a8", "lon": -77.05013166666667, "rental_uris": {"ios": "https://dc.lft.to/lastmile_qr_scan", "android": "https://dc.lft.to/lastmile_qr_scan"}}, {"name": "4970e466a1d274e49e74e4e92c6c7329", "fusion_lat": 0.0, "type": "electric_scooter", "lat": 38.91946266666667, "is_reserved": 0, "is_disabled": 0, "fusion_lon": 0.0, "bike_id": "4970e466a1d274e49e74e4e92c6c7329", "lon": -77.045472, "rental_uris": {"ios": "https://dc.lft.to/lastmile_qr_scan", "android": "https://dc.lft.to/lastmile_qr_scan"}}, {"name": "8ce1a0b81e44249e12ffb4b6e66540cc", "fusion_lat": 0.0, "type": "electric_scooter", "lat": 38.93255966666667, "is_reserved": 0, "is_disabled": 0, "fusion_lon": 0.0, "bike_id": "8ce1a0b81e44249e12ffb4b6e66540cc", "lon": -77.03833183333333, "rental_uris": {"ios": "https://dc.lft.to/lastmile_qr_scan", "android": "https://dc.lft.to/lastmile_qr_scan"}}, {"name": "3a05669fa79b9cf19a7fd87413fd28b6", "fusion_lat": 0.0, "type": "electric_scooter", "lat": 38.89976983333333, "is_reserved": 0, "is_disabled": 0, "fusion_lon": 0.0, "bike_id": "3a05669fa79b9cf19a7fd87413fd28b6", "lon": -77.02946866666667, "rental_uris": {"ios": "https://dc.lft.to/lastmile_qr_scan", "android": "https://dc.lft.to/lastmile_qr_scan"}}, {"name": "6ac39328031f0cdb9f35aee32037295d", "fusion_lat": 0.0, "type": "electric_scooter", "lat": 38.8607505, "is_reserved": 0, "is_disabled": 0, "fusion_lon": 0.0, "bike_id": "6ac39328031f0cdb9f35aee32037295d", "lon": -76.96741566666667, "rental_uris": {"ios": "https://dc.lft.to/lastmile_qr_scan", "android": "https://dc.lft.to/lastmile_qr_scan"}}, {"name": "da0293b5f8290c5db34eb161637c80d8", "fusion_lat": 0.0, "type": "electric_scooter", "lat": 38.914708, "is_reserved": 0, "is_disabled": 0, "fusion_lon": 0.0, "bike_id": "da0293b5f8290c5db34eb161637c80d8", "lon": -76.98111383333334, "rental_uris": {"ios": "https://dc.lft.to/lastmile_qr_scan", "android": "https://dc.lft.to/lastmile_qr_scan"}}, {"name": "9c0d40479159c83d7399dd257b63e1a8", "fusion_lat": 0.0, "type": "electric_scooter", "lat": 38.92212283333333, "is_reserved": 0, "is_disabled": 0, "fusion_lon": 0.0, "bike_id": "9c0d40479159c83d7399dd257b63e1a8", "lon": -77.0431725, "rental_uris": {"ios": "https://dc.lft.to/lastmile_qr_scan", "android": "https://dc.lft.to/lastmile_qr_scan"}}, {"name": "3f2f0c79bb237822760eba133b3c048d", "fusion_lat": 0.0, "type": "electric_scooter", "lat": 38.93486133333333, "is_reserved": 0, "is_disabled": 0, "fusion_lon": 0.0, "bike_id": "3f2f0c79bb237822760eba133b3c048d", "lon": -77.0726965, "rental_uris": {"ios": "https://dc.lft.to/lastmile_qr_scan", "android": "https://dc.lft.to/lastmile_qr_scan"}}, {"name": "f0d96ae2f82fad9b0b08f2d6d2fa546f", "fusion_lat": 0.0, "type": "electric_bike", "lat": 38.8811, "is_reserved": 0, "is_disabled": 0, "fusion_lon": 0.0, "bike_id": "f0d96ae2f82fad9b0b08f2d6d2fa546f", "lon": -77.114537, "rental_uris": {"ios": "https://dc.lft.to/lastmile_qr_scan", "android": "https://dc.lft.to/lastmile_qr_scan"}}, {"name": "cdd635b6f456c22da83bb0bc707dc159", "fusion_lat": 0.0, "type": "electric_scooter", "lat": 38.9013775, "is_reserved": 0, "is_disabled": 0, "fusion_lon": 0.0, "bike_id": "cdd635b6f456c22da83bb0bc707dc159", "lon": -77.049943, "rental_uris": {"ios": "https://dc.lft.to/lastmile_qr_scan", "android": "https://dc.lft.to/lastmile_qr_scan"}}, {"name": "7622f68e6418f9edbb3a645320d5b4aa", "fusion_lat": 0.0, "type": "electric_bike", "lat": 38.94075566666667, "is_reserved": 0, "is_disabled": 0, "fusion_lon": 0.0, "bike_id": "7622f68e6418f9edbb3a645320d5b4aa", "lon": -77.03819383333334, "rental_uris": {"ios": "https://dc.lft.to/lastmile_qr_scan", "android": "https://dc.lft.to/lastmile_qr_scan"}}, {"name": "c1efc2d9dc893bdd614ed9640715958b", "fusion_lat": 0.0, "type": "electric_scooter", "lat": 38.90665966666667, "is_reserved": 0, "is_disabled": 0, "fusion_lon": 0.0, "bike_id": "c1efc2d9dc893bdd614ed9640715958b", "lon": -77.02712116666666, "rental_uris": {"ios": "https://dc.lft.to/lastmile_qr_scan", "android": "https://dc.lft.to/lastmile_qr_scan"}}, {"name": "47a6e345abcec671a484e9dde4aad1ee", "fusion_lat": 0.0, "type": "electric_scooter", "lat": 38.91182216666667, "is_reserved": 0, "is_disabled": 0, "fusion_lon": 0.0, "bike_id": "47a6e345abcec671a484e9dde4aad1ee", "lon": -77.036463, "rental_uris": {"ios": "https://dc.lft.to/lastmile_qr_scan", "android": "https://dc.lft.to/lastmile_qr_scan"}}, {"name": "45afc8ce50c2c0322237a000e954c50a", "fusion_lat": 0.0, "type": "electric_scooter", "lat": 38.901307333333335, "is_reserved": 0, "is_disabled": 0, "fusion_lon": 0.0, "bike_id": "45afc8ce50c2c0322237a000e954c50a", "lon": -77.04355233333334, "rental_uris": {"ios": "https://dc.lft.to/lastmile_qr_scan", "android": "https://dc.lft.to/lastmile_qr_scan"}}, {"name": "84fe682f2d9c32ba3da1db50d8c1cf36", "fusion_lat": 0.0, "type": "electric_scooter", "lat": 38.885955833333334, "is_reserved": 0, "is_disabled": 0, "fusion_lon": 0.0, "bike_id": "84fe682f2d9c32ba3da1db50d8c1cf36", "lon": -77.02205533333333, "rental_uris": {"ios": "https://dc.lft.to/lastmile_qr_scan", "android": "https://dc.lft.to/lastmile_qr_scan"}}, {"name": "c2af99127aa7e0317f6d2733b74ee8a5", "fusion_lat": 0.0, "type": "electric_scooter", "lat": 38.924189, "is_reserved": 0, "is_disabled": 0, "fusion_lon": 0.0, "bike_id": "c2af99127aa7e0317f6d2733b74ee8a5", "lon": -77.01945533333334, "rental_uris": {"ios": "https://dc.lft.to/lastmile_qr_scan", "android": "https://dc.lft.to/lastmile_qr_scan"}}, {"name": "183f01bb53eaf5556727423c16bb1f6a", "fusion_lat": 0.0, "type": "electric_bike", "lat": 38.854282, "is_reserved": 0, "is_disabled": 0, "fusion_lon": 0.0, "bike_id": "183f01bb53eaf5556727423c16bb1f6a", "lon": -76.9097155, "rental_uris": {"ios": "https://dc.lft.to/lastmile_qr_scan", "android": "https://dc.lft.to/lastmile_qr_scan"}}, {"name": "b88cff3ddc3484f2a453d6701b896e18", "fusion_lat": 0.0, "type": "electric_bike", "lat": 38.810490333333334, "is_reserved": 0, "is_disabled": 0, "fusion_lon": 0.0, "bike_id": "b88cff3ddc3484f2a453d6701b896e18", "lon": -77.08505183333334, "rental_uris": {"ios": "https://dc.lft.to/lastmile_qr_scan", "android": "https://dc.lft.to/lastmile_qr_scan"}}, {"name": "6854d6da8dddf5023ce7084f1a640eee", "fusion_lat": 0.0, "type": "electric_scooter", "lat": 38.902657, "is_reserved": 0, "is_disabled": 0, "fusion_lon": 0.0, "bike_id": "6854d6da8dddf5023ce7084f1a640eee", "lon": -77.044313, "rental_uris": {"ios": "https://dc.lft.to/lastmile_qr_scan", "android": "https://dc.lft.to/lastmile_qr_scan"}}, {"name": "bbcefcff1f5b3f1fefa6bb722cc63eff", "fusion_lat": 0.0, "type": "electric_scooter", "lat": 38.89235816666667, "is_reserved": 0, "is_disabled": 0, "fusion_lon": 0.0, "bike_id": "bbcefcff1f5b3f1fefa6bb722cc63eff", "lon": -77.05001933333334, "rental_uris": {"ios": "https://dc.lft.to/lastmile_qr_scan", "android": "https://dc.lft.to/lastmile_qr_scan"}}, {"name": "500649d82b12e9d237a1b50085195be8", "fusion_lat": 0.0, "type": "electric_scooter", "lat": 38.903779166666666, "is_reserved": 0, "is_disabled": 0, "fusion_lon": 0.0, "bike_id": "500649d82b12e9d237a1b50085195be8", "lon": -77.0267685, "rental_uris": {"ios": "https://dc.lft.to/lastmile_qr_scan", "android": "https://dc.lft.to/lastmile_qr_scan"}}, {"name": "98fccd2dfe889e9ba28d3322e5669369", "fusion_lat": 0.0, "type": "electric_scooter", "lat": 38.929954, "is_reserved": 0, "is_disabled": 0, "fusion_lon": 0.0, "bike_id": "98fccd2dfe889e9ba28d3322e5669369", "lon": -77.02304166666667, "rental_uris": {"ios": "https://dc.lft.to/lastmile_qr_scan", "android": "https://dc.lft.to/lastmile_qr_scan"}}, {"name": "b35c0b04bde44236353f4e7ebdb2bcca", "fusion_lat": 0.0, "type": "electric_scooter", "lat": 38.939315666666666, "is_reserved": 0, "is_disabled": 0, "fusion_lon": 0.0, "bike_id": "b35c0b04bde44236353f4e7ebdb2bcca", "lon": -77.036727, "rental_uris": {"ios": "https://dc.lft.to/lastmile_qr_scan", "android": "https://dc.lft.to/lastmile_qr_scan"}}, {"name": "24abb1530153fbe73293b46ed06fed15", "fusion_lat": 0.0, "type": "electric_scooter", "lat": 38.90673133333333, "is_reserved": 0, "is_disabled": 0, "fusion_lon": 0.0, "bike_id": "24abb1530153fbe73293b46ed06fed15", "lon": -77.0272495, "rental_uris": {"ios": "https://dc.lft.to/lastmile_qr_scan", "android": "https://dc.lft.to/lastmile_qr_scan"}}, {"name": "d2a4d2ecddc7e663667b0490f73ee115", "fusion_lat": 0.0, "type": "electric_scooter", "lat": 38.9353545, "is_reserved": 0, "is_disabled": 0, "fusion_lon": 0.0, "bike_id": "d2a4d2ecddc7e663667b0490f73ee115", "lon": -77.0339585, "rental_uris": {"ios": "https://dc.lft.to/lastmile_qr_scan", "android": "https://dc.lft.to/lastmile_qr_scan"}}, {"name": "aec656739bcfaed9366747555efdeca2", "fusion_lat": 0.0, "type": "electric_scooter", "lat": 38.895255, "is_reserved": 0, "is_disabled": 0, "fusion_lon": 0.0, "bike_id": "aec656739bcfaed9366747555efdeca2", "lon": -76.94891266666667, "rental_uris": {"ios": "https://dc.lft.to/lastmile_qr_scan", "android": "https://dc.lft.to/lastmile_qr_scan"}}, {"name": "5b6339d6692900a73e8c37349a410a34", "fusion_lat": 0.0, "type": "electric_scooter", "lat": 38.87667583333333, "is_reserved": 0, "is_disabled": 0, "fusion_lon": 0.0, "bike_id": "5b6339d6692900a73e8c37349a410a34", "lon": -77.00068333333333, "rental_uris": {"ios": "https://dc.lft.to/lastmile_qr_scan", "android": "https://dc.lft.to/lastmile_qr_scan"}}, {"name": "cb941dd859c554d25ddae3bc37064dd2", "fusion_lat": 0.0, "type": "electric_scooter", "lat": 38.89687466666667, "is_reserved": 0, "is_disabled": 0, "fusion_lon": 0.0, "bike_id": "cb941dd859c554d25ddae3bc37064dd2", "lon": -77.00501733333333, "rental_uris": {"ios": "https://dc.lft.to/lastmile_qr_scan", "android": "https://dc.lft.to/lastmile_qr_scan"}}, {"name": "5a624d2f4e56ea0bdbe4a04ff819b1ae", "fusion_lat": 0.0, "type": "electric_scooter", "lat": 38.91710666666667, "is_reserved": 0, "is_disabled": 0, "fusion_lon": 0.0, "bike_id": "5a624d2f4e56ea0bdbe4a04ff819b1ae", "lon": -77.033349, "rental_uris": {"ios": "https://dc.lft.to/lastmile_qr_scan", "android": "https://dc.lft.to/lastmile_qr_scan"}}, {"name": "982d7fb960e31945a2febc07dc6ec78c", "fusion_lat": 0.0, "type": "electric_scooter", "lat": 38.91601416666666, "is_reserved": 0, "is_disabled": 0, "fusion_lon": 0.0, "bike_id": "982d7fb960e31945a2febc07dc6ec78c", "lon": -77.0386165, "rental_uris": {"ios": "https://dc.lft.to/lastmile_qr_scan", "android": "https://dc.lft.to/lastmile_qr_scan"}}, {"name": "ef9af77ec5f29a4453ad913892b57659", "fusion_lat": 0.0, "type": "electric_scooter", "lat": 38.8955085, "is_reserved": 0, "is_disabled": 0, "fusion_lon": 0.0, "bike_id": "ef9af77ec5f29a4453ad913892b57659", "lon": -76.9487425, "rental_uris": {"ios": "https://dc.lft.to/lastmile_qr_scan", "android": "https://dc.lft.to/lastmile_qr_scan"}}, {"name": "cb973888c58d091a929b4f99f8e953f8", "fusion_lat": 0.0, "type": "electric_scooter", "lat": 38.866599, "is_reserved": 0, "is_disabled": 0, "fusion_lon": 0.0, "bike_id": "cb973888c58d091a929b4f99f8e953f8", "lon": -76.98882833333333, "rental_uris": {"ios": "https://dc.lft.to/lastmile_qr_scan", "android": "https://dc.lft.to/lastmile_qr_scan"}}, {"name": "2efd41da3d6abc7ac6e2fa90204a8f33", "fusion_lat": 0.0, "type": "electric_scooter", "lat": 38.91115933333333, "is_reserved": 0, "is_disabled": 0, "fusion_lon": 0.0, "bike_id": "2efd41da3d6abc7ac6e2fa90204a8f33", "lon": -77.02462033333333, "rental_uris": {"ios": "https://dc.lft.to/lastmile_qr_scan", "android": "https://dc.lft.to/lastmile_qr_scan"}}, {"name": "efce492b658dd9a5d6d5566c042695af", "fusion_lat": 0.0, "type": "electric_scooter", "lat": 38.89628166666667, "is_reserved": 0, "is_disabled": 0, "fusion_lon": 0.0, "bike_id": "efce492b658dd9a5d6d5566c042695af", "lon": -77.04464433333334, "rental_uris": {"ios": "https://dc.lft.to/lastmile_qr_scan", "android": "https://dc.lft.to/lastmile_qr_scan"}}, {"name": "2f2dde857fe06c9cd041027ec9e943cf", "fusion_lat": 0.0, "type": "electric_scooter", "lat": 38.907456333333336, "is_reserved": 0, "is_disabled": 0, "fusion_lon": 0.0, "bike_id": "2f2dde857fe06c9cd041027ec9e943cf", "lon": -77.04669133333333, "rental_uris": {"ios": "https://dc.lft.to/lastmile_qr_scan", "android": "https://dc.lft.to/lastmile_qr_scan"}}, {"name": "293590ebb60c15911081edd8beca1c3e", "fusion_lat": 0.0, "type": "electric_scooter", "lat": 38.9098015, "is_reserved": 0, "is_disabled": 0, "fusion_lon": 0.0, "bike_id": "293590ebb60c15911081edd8beca1c3e", "lon": -77.04261866666667, "rental_uris": {"ios": "https://dc.lft.to/lastmile_qr_scan", "android": "https://dc.lft.to/lastmile_qr_scan"}}, {"name": "b0956fff8441551e70d0c82b725e7d2c", "fusion_lat": 0.0, "type": "electric_scooter", "lat": 38.87583383333333, "is_reserved": 0, "is_disabled": 0, "fusion_lon": 0.0, "bike_id": "b0956fff8441551e70d0c82b725e7d2c", "lon": -77.010592, "rental_uris": {"ios": "https://dc.lft.to/lastmile_qr_scan", "android": "https://dc.lft.to/lastmile_qr_scan"}}, {"name": "531256f59469fc67547c678534befbe9", "fusion_lat": 0.0, "type": "electric_scooter", "lat": 38.89226983333333, "is_reserved": 0, "is_disabled": 0, "fusion_lon": 0.0, "bike_id": "531256f59469fc67547c678534befbe9", "lon": -77.0316125, "rental_uris": {"ios": "https://dc.lft.to/lastmile_qr_scan", "android": "https://dc.lft.to/lastmile_qr_scan"}}, {"name": "611ffc22ae0e289489d214bd4f623f05", "fusion_lat": 0.0, "type": "electric_scooter", "lat": 38.9025635, "is_reserved": 0, "is_disabled": 0, "fusion_lon": 0.0, "bike_id": "611ffc22ae0e289489d214bd4f623f05", "lon": -76.9770435, "rental_uris": {"ios": "https://dc.lft.to/lastmile_qr_scan", "android": "https://dc.lft.to/lastmile_qr_scan"}}, {"name": "5df759d778183cdf42ba3b4ab7d3621e", "fusion_lat": 0.0, "type": "electric_scooter", "lat": 38.91293616666667, "is_reserved": 0, "is_disabled": 0, "fusion_lon": 0.0, "bike_id": "5df759d778183cdf42ba3b4ab7d3621e", "lon": -76.9374115, "rental_uris": {"ios": "https://dc.lft.to/lastmile_qr_scan", "android": "https://dc.lft.to/lastmile_qr_scan"}}, {"name": "e4d640cc92d308ea4786fbb8716e4240", "fusion_lat": 0.0, "type": "electric_scooter", "lat": 38.90798683333333, "is_reserved": 0, "is_disabled": 0, "fusion_lon": 0.0, "bike_id": "e4d640cc92d308ea4786fbb8716e4240", "lon": -77.01815983333333, "rental_uris": {"ios": "https://dc.lft.to/lastmile_qr_scan", "android": "https://dc.lft.to/lastmile_qr_scan"}}, {"name": "c38c00d38d76b71bc9eaee8e30605618", "fusion_lat": 0.0, "type": "electric_scooter", "lat": 38.9169455, "is_reserved": 0, "is_disabled": 0, "fusion_lon": 0.0, "bike_id": "c38c00d38d76b71bc9eaee8e30605618", "lon": -77.01877216666666, "rental_uris": {"ios": "https://dc.lft.to/lastmile_qr_scan", "android": "https://dc.lft.to/lastmile_qr_scan"}}, {"name": "d8291572e40f2912af1e8ba8a79bd71e", "fusion_lat": 0.0, "type": "electric_scooter", "lat": 38.925153, "is_reserved": 0, "is_disabled": 0, "fusion_lon": 0.0, "bike_id": "d8291572e40f2912af1e8ba8a79bd71e", "lon": -77.0017225, "rental_uris": {"ios": "https://dc.lft.to/lastmile_qr_scan", "android": "https://dc.lft.to/lastmile_qr_scan"}}, {"name": "4b7960a6293c34fcc8c5818482feaa27", "fusion_lat": 0.0, "type": "electric_scooter", "lat": 38.9296915, "is_reserved": 0, "is_disabled": 0, "fusion_lon": 0.0, "bike_id": "4b7960a6293c34fcc8c5818482feaa27", "lon": -77.041127, "rental_uris": {"ios": "https://dc.lft.to/lastmile_qr_scan", "android": "https://dc.lft.to/lastmile_qr_scan"}}, {"name": "2a430c037a3b3c1b27fd09ce205a9508", "fusion_lat": 0.0, "type": "electric_scooter", "lat": 38.917666833333335, "is_reserved": 0, "is_disabled": 0, "fusion_lon": 0.0, "bike_id": "2a430c037a3b3c1b27fd09ce205a9508", "lon": -77.09671866666666, "rental_uris": {"ios": "https://dc.lft.to/lastmile_qr_scan", "android": "https://dc.lft.to/lastmile_qr_scan"}}, {"name": "ce08d66f26058cb2b2355dafc6a13971", "fusion_lat": 0.0, "type": "electric_scooter", "lat": 38.93243783333333, "is_reserved": 0, "is_disabled": 0, "fusion_lon": 0.0, "bike_id": "ce08d66f26058cb2b2355dafc6a13971", "lon": -77.03850666666666, "rental_uris": {"ios": "https://dc.lft.to/lastmile_qr_scan", "android": "https://dc.lft.to/lastmile_qr_scan"}}, {"name": "142738a89bf37e8216e5aa772288b8c4", "fusion_lat": 0.0, "type": "electric_scooter", "lat": 38.905820166666665, "is_reserved": 0, "is_disabled": 0, "fusion_lon": 0.0, "bike_id": "142738a89bf37e8216e5aa772288b8c4", "lon": -77.02399866666667, "rental_uris": {"ios": "https://dc.lft.to/lastmile_qr_scan", "android": "https://dc.lft.to/lastmile_qr_scan"}}, {"name": "dfe2a5f525b36101ba6c65cdc23dbd06", "fusion_lat": 0.0, "type": "electric_scooter", "lat": 38.90280516666667, "is_reserved": 0, "is_disabled": 0, "fusion_lon": 0.0, "bike_id": "dfe2a5f525b36101ba6c65cdc23dbd06", "lon": -77.0366685, "rental_uris": {"ios": "https://dc.lft.to/lastmile_qr_scan", "android": "https://dc.lft.to/lastmile_qr_scan"}}, {"name": "893015aec3a8544dfe1dc492e31bc713", "fusion_lat": 0.0, "type": "electric_scooter", "lat": 38.87667883333334, "is_reserved": 0, "is_disabled": 0, "fusion_lon": 0.0, "bike_id": "893015aec3a8544dfe1dc492e31bc713", "lon": -77.00068433333334, "rental_uris": {"ios": "https://dc.lft.to/lastmile_qr_scan", "android": "https://dc.lft.to/lastmile_qr_scan"}}, {"name": "e5f9a7a8db3cc11cc9c07189f2b63302", "fusion_lat": 0.0, "type": "electric_scooter", "lat": 38.86698666666667, "is_reserved": 0, "is_disabled": 0, "fusion_lon": 0.0, "bike_id": "e5f9a7a8db3cc11cc9c07189f2b63302", "lon": -76.989052, "rental_uris": {"ios": "https://dc.lft.to/lastmile_qr_scan", "android": "https://dc.lft.to/lastmile_qr_scan"}}, {"name": "2c13e17126071fa7458c9125f745613b", "fusion_lat": 0.0, "type": "electric_bike", "lat": 38.92860966666667, "is_reserved": 0, "is_disabled": 0, "fusion_lon": 0.0, "bike_id": "2c13e17126071fa7458c9125f745613b", "lon": -77.22221633333334, "rental_uris": {"ios": "https://dc.lft.to/lastmile_qr_scan", "android": "https://dc.lft.to/lastmile_qr_scan"}}, {"name": "a4cf7aab43f2ba275e44f09f267cb3f3", "fusion_lat": 0.0, "type": "electric_bike", "lat": 39.053172333333336, "is_reserved": 0, "is_disabled": 0, "fusion_lon": 0.0, "bike_id": "a4cf7aab43f2ba275e44f09f267cb3f3", "lon": -77.04767616666666, "rental_uris": {"ios": "https://dc.lft.to/lastmile_qr_scan", "android": "https://dc.lft.to/lastmile_qr_scan"}}, {"name": "c718700017c6d206acbd874f086b4137", "fusion_lat": 0.0, "type": "electric_scooter", "lat": 38.905219, "is_reserved": 0, "is_disabled": 0, "fusion_lon": 0.0, "bike_id": "c718700017c6d206acbd874f086b4137", "lon": -77.04344766666667, "rental_uris": {"ios": "https://dc.lft.to/lastmile_qr_scan", "android": "https://dc.lft.to/lastmile_qr_scan"}}, {"name": "1a7e12f5645992ce3305a31de5b26002", "fusion_lat": 0.0, "type": "electric_bike", "lat": 39.08859016666667, "is_reserved": 0, "is_disabled": 0, "fusion_lon": 0.0, "bike_id": "1a7e12f5645992ce3305a31de5b26002", "lon": -77.17837566666667, "rental_uris": {"ios": "https://dc.lft.to/lastmile_qr_scan", "android": "https://dc.lft.to/lastmile_qr_scan"}}, {"name": "0db7eafa7451bac59e8df796d28055a7", "fusion_lat": 0.0, "type": "electric_scooter", "lat": 38.90271116666667, "is_reserved": 0, "is_disabled": 0, "fusion_lon": 0.0, "bike_id": "0db7eafa7451bac59e8df796d28055a7", "lon": -76.98710516666667, "rental_uris": {"ios": "https://dc.lft.to/lastmile_qr_scan", "android": "https://dc.lft.to/lastmile_qr_scan"}}, {"name": "617809925288c272395cc21b6b1d6f75", "fusion_lat": 0.0, "type": "electric_scooter", "lat": 38.911044, "is_reserved": 0, "is_disabled": 0, "fusion_lon": 0.0, "bike_id": "617809925288c272395cc21b6b1d6f75", "lon": -77.00347833333333, "rental_uris": {"ios": "https://dc.lft.to/lastmile_qr_scan", "android": "https://dc.lft.to/lastmile_qr_scan"}}, {"name": "2691fc7e1bc0cfb8403f36e674b3533f", "fusion_lat": 0.0, "type": "electric_scooter", "lat": 38.865385833333335, "is_reserved": 0, "is_disabled": 0, "fusion_lon": 0.0, "bike_id": "2691fc7e1bc0cfb8403f36e674b3533f", "lon": -76.98709216666667, "rental_uris": {"ios": "https://dc.lft.to/lastmile_qr_scan", "android": "https://dc.lft.to/lastmile_qr_scan"}}, {"name": "82f0a100f73caaec4b8b7ff72fb24ce9", "fusion_lat": 0.0, "type": "electric_bike", "lat": 38.935231, "is_reserved": 0, "is_disabled": 0, "fusion_lon": 0.0, "bike_id": "82f0a100f73caaec4b8b7ff72fb24ce9", "lon": -76.950636, "rental_uris": {"ios": "https://dc.lft.to/lastmile_qr_scan", "android": "https://dc.lft.to/lastmile_qr_scan"}}, {"name": "1f4dcc57c859046dd76abff77df358fb", "fusion_lat": 0.0, "type": "electric_scooter", "lat": 38.903694333333334, "is_reserved": 0, "is_disabled": 0, "fusion_lon": 0.0, "bike_id": "1f4dcc57c859046dd76abff77df358fb", "lon": -77.03659983333333, "rental_uris": {"ios": "https://dc.lft.to/lastmile_qr_scan", "android": "https://dc.lft.to/lastmile_qr_scan"}}, {"name": "60a011d51a0e77a7e577db674b71a2dd", "fusion_lat": 0.0, "type": "electric_scooter", "lat": 38.907047666666664, "is_reserved": 0, "is_disabled": 0, "fusion_lon": 0.0, "bike_id": "60a011d51a0e77a7e577db674b71a2dd", "lon": -77.04175216666667, "rental_uris": {"ios": "https://dc.lft.to/lastmile_qr_scan", "android": "https://dc.lft.to/lastmile_qr_scan"}}, {"name": "4e5e6696fc3dd0220bac7dc4bb52dd80", "fusion_lat": 0.0, "type": "electric_scooter", "lat": 38.9027245, "is_reserved": 0, "is_disabled": 0, "fusion_lon": 0.0, "bike_id": "4e5e6696fc3dd0220bac7dc4bb52dd80", "lon": -76.99852616666666, "rental_uris": {"ios": "https://dc.lft.to/lastmile_qr_scan", "android": "https://dc.lft.to/lastmile_qr_scan"}}, {"name": "0c830ccb29a46e3de2eef2bdd5b59280", "fusion_lat": 0.0, "type": "electric_scooter", "lat": 38.90565683333333, "is_reserved": 0, "is_disabled": 0, "fusion_lon": 0.0, "bike_id": "0c830ccb29a46e3de2eef2bdd5b59280", "lon": -77.0444535, "rental_uris": {"ios": "https://dc.lft.to/lastmile_qr_scan", "android": "https://dc.lft.to/lastmile_qr_scan"}}, {"name": "0c7a957dc90cd591772c0466c24ec55a", "fusion_lat": 0.0, "type": "electric_scooter", "lat": 38.8980055, "is_reserved": 0, "is_disabled": 0, "fusion_lon": 0.0, "bike_id": "0c7a957dc90cd591772c0466c24ec55a", "lon": -76.9442325, "rental_uris": {"ios": "https://dc.lft.to/lastmile_qr_scan", "android": "https://dc.lft.to/lastmile_qr_scan"}}, {"name": "94036b7672a3403b9bfa47e4688fd473", "fusion_lat": 0.0, "type": "electric_scooter", "lat": 38.92494516666667, "is_reserved": 0, "is_disabled": 0, "fusion_lon": 0.0, "bike_id": "94036b7672a3403b9bfa47e4688fd473", "lon": -77.03942016666667, "rental_uris": {"ios": "https://dc.lft.to/lastmile_qr_scan", "android": "https://dc.lft.to/lastmile_qr_scan"}}, {"name": "6c17c85baec5e4bd6ca3e1b4314e36b2", "fusion_lat": 0.0, "type": "electric_scooter", "lat": 38.91239616666667, "is_reserved": 0, "is_disabled": 0, "fusion_lon": 0.0, "bike_id": "6c17c85baec5e4bd6ca3e1b4314e36b2", "lon": -77.00916816666667, "rental_uris": {"ios": "https://dc.lft.to/lastmile_qr_scan", "android": "https://dc.lft.to/lastmile_qr_scan"}}, {"name": "f247902a73438bff9d834d6b4152b281", "fusion_lat": 0.0, "type": "electric_scooter", "lat": 38.90504983333334, "is_reserved": 0, "is_disabled": 0, "fusion_lon": 0.0, "bike_id": "f247902a73438bff9d834d6b4152b281", "lon": -77.06105133333334, "rental_uris": {"ios": "https://dc.lft.to/lastmile_qr_scan", "android": "https://dc.lft.to/lastmile_qr_scan"}}, {"name": "e2c371af6bb2d1158d85b7b07e4f63df", "fusion_lat": 0.0, "type": "electric_scooter", "lat": 38.92125583333333, "is_reserved": 0, "is_disabled": 0, "fusion_lon": 0.0, "bike_id": "e2c371af6bb2d1158d85b7b07e4f63df", "lon": -77.041268, "rental_uris": {"ios": "https://dc.lft.to/lastmile_qr_scan", "android": "https://dc.lft.to/lastmile_qr_scan"}}, {"name": "85984db23ab18f044c3e27691000b21d", "fusion_lat": 0.0, "type": "electric_scooter", "lat": 38.9185835, "is_reserved": 0, "is_disabled": 0, "fusion_lon": 0.0, "bike_id": "85984db23ab18f044c3e27691000b21d", "lon": -77.02455633333334, "rental_uris": {"ios": "https://dc.lft.to/lastmile_qr_scan", "android": "https://dc.lft.to/lastmile_qr_scan"}}, {"name": "00f398a07d7313464c23be3bb5daadb4", "fusion_lat": 0.0, "type": "electric_scooter", "lat": 38.932928833333335, "is_reserved": 0, "is_disabled": 0, "fusion_lon": 0.0, "bike_id": "00f398a07d7313464c23be3bb5daadb4", "lon": -77.02329983333334, "rental_uris": {"ios": "https://dc.lft.to/lastmile_qr_scan", "android": "https://dc.lft.to/lastmile_qr_scan"}}, {"name": "9511d36566ef01c06b1cd382e7995bea", "fusion_lat": 0.0, "type": "electric_scooter", "lat": 38.8997755, "is_reserved": 0, "is_disabled": 0, "fusion_lon": 0.0, "bike_id": "9511d36566ef01c06b1cd382e7995bea", "lon": -77.0295365, "rental_uris": {"ios": "https://dc.lft.to/lastmile_qr_scan", "android": "https://dc.lft.to/lastmile_qr_scan"}}, {"name": "1df6ba16288efadb1b4d92bc11981a8a", "fusion_lat": 0.0, "type": "electric_scooter", "lat": 38.925728166666666, "is_reserved": 0, "is_disabled": 0, "fusion_lon": 0.0, "bike_id": "1df6ba16288efadb1b4d92bc11981a8a", "lon": -77.02841733333334, "rental_uris": {"ios": "https://dc.lft.to/lastmile_qr_scan", "android": "https://dc.lft.to/lastmile_qr_scan"}}, {"name": "248f34cb2ab5d28008a8da2e9669e1d7", "fusion_lat": 0.0, "type": "electric_bike", "lat": 38.96497, "is_reserved": 0, "is_disabled": 0, "fusion_lon": 0.0, "bike_id": "248f34cb2ab5d28008a8da2e9669e1d7", "lon": -77.0649205, "rental_uris": {"ios": "https://dc.lft.to/lastmile_qr_scan", "android": "https://dc.lft.to/lastmile_qr_scan"}}, {"name": "10520290ff36e7ea3adfa43f121e6e32", "fusion_lat": 0.0, "type": "electric_scooter", "lat": 38.89486216666667, "is_reserved": 0, "is_disabled": 0, "fusion_lon": 0.0, "bike_id": "10520290ff36e7ea3adfa43f121e6e32", "lon": -76.94869883333334, "rental_uris": {"ios": "https://dc.lft.to/lastmile_qr_scan", "android": "https://dc.lft.to/lastmile_qr_scan"}}, {"name": "f551c0c9aead717ace2274bcf24c02a7", "fusion_lat": 0.0, "type": "electric_scooter", "lat": 38.915707, "is_reserved": 0, "is_disabled": 0, "fusion_lon": 0.0, "bike_id": "f551c0c9aead717ace2274bcf24c02a7", "lon": -77.0119285, "rental_uris": {"ios": "https://dc.lft.to/lastmile_qr_scan", "android": "https://dc.lft.to/lastmile_qr_scan"}}, {"name": "47398cc5dc550d41bff8bdf2a5cd1418", "fusion_lat": 0.0, "type": "electric_scooter", "lat": 38.911936, "is_reserved": 0, "is_disabled": 0, "fusion_lon": 0.0, "bike_id": "47398cc5dc550d41bff8bdf2a5cd1418", "lon": -77.06096683333334, "rental_uris": {"ios": "https://dc.lft.to/lastmile_qr_scan", "android": "https://dc.lft.to/lastmile_qr_scan"}}, {"name": "0a5dabd1aa8f7bd85edf4c044acfcda6", "fusion_lat": 0.0, "type": "electric_scooter", "lat": 38.923433333333335, "is_reserved": 0, "is_disabled": 0, "fusion_lon": 0.0, "bike_id": "0a5dabd1aa8f7bd85edf4c044acfcda6", "lon": -77.05010666666666, "rental_uris": {"ios": "https://dc.lft.to/lastmile_qr_scan", "android": "https://dc.lft.to/lastmile_qr_scan"}}, {"name": "da67c77b43bd4d74c4cea2f6fb6fccc8", "fusion_lat": 0.0, "type": "electric_scooter", "lat": 38.896729666666666, "is_reserved": 0, "is_disabled": 0, "fusion_lon": 0.0, "bike_id": "da67c77b43bd4d74c4cea2f6fb6fccc8", "lon": -77.0259505, "rental_uris": {"ios": "https://dc.lft.to/lastmile_qr_scan", "android": "https://dc.lft.to/lastmile_qr_scan"}}, {"name": "a733fbe88aa7883517fe2f728bba73d0", "fusion_lat": 0.0, "type": "electric_scooter", "lat": 38.90135133333333, "is_reserved": 0, "is_disabled": 0, "fusion_lon": 0.0, "bike_id": "a733fbe88aa7883517fe2f728bba73d0", "lon": -77.0397015, "rental_uris": {"ios": "https://dc.lft.to/lastmile_qr_scan", "android": "https://dc.lft.to/lastmile_qr_scan"}}, {"name": "c89fbc5427a2ddef94d6880d3c1d96bc", "fusion_lat": 0.0, "type": "electric_scooter", "lat": 38.91218283333333, "is_reserved": 0, "is_disabled": 0, "fusion_lon": 0.0, "bike_id": "c89fbc5427a2ddef94d6880d3c1d96bc", "lon": -77.07585183333333, "rental_uris": {"ios": "https://dc.lft.to/lastmile_qr_scan", "android": "https://dc.lft.to/lastmile_qr_scan"}}, {"name": "160226afd29a41f79ad7ec33ecc230e4", "fusion_lat": 0.0, "type": "electric_scooter", "lat": 38.90259616666667, "is_reserved": 0, "is_disabled": 0, "fusion_lon": 0.0, "bike_id": "160226afd29a41f79ad7ec33ecc230e4", "lon": -77.04362066666667, "rental_uris": {"ios": "https://dc.lft.to/lastmile_qr_scan", "android": "https://dc.lft.to/lastmile_qr_scan"}}, {"name": "f512d3f85047826002ba35502e7be930", "fusion_lat": 0.0, "type": "electric_scooter", "lat": 38.889975166666666, "is_reserved": 0, "is_disabled": 0, "fusion_lon": 0.0, "bike_id": "f512d3f85047826002ba35502e7be930", "lon": -76.95414283333334, "rental_uris": {"ios": "https://dc.lft.to/lastmile_qr_scan", "android": "https://dc.lft.to/lastmile_qr_scan"}}, {"name": "387ae36048f01a7bb533601e420442be", "fusion_lat": 0.0, "type": "electric_scooter", "lat": 38.9013775, "is_reserved": 0, "is_disabled": 0, "fusion_lon": 0.0, "bike_id": "387ae36048f01a7bb533601e420442be", "lon": -76.99123183333333, "rental_uris": {"ios": "https://dc.lft.to/lastmile_qr_scan", "android": "https://dc.lft.to/lastmile_qr_scan"}}, {"name": "ac11aa6b1a06a3f92ccd272420c5850c", "fusion_lat": 0.0, "type": "electric_scooter", "lat": 38.9003125, "is_reserved": 0, "is_disabled": 0, "fusion_lon": 0.0, "bike_id": "ac11aa6b1a06a3f92ccd272420c5850c", "lon": -76.99964966666667, "rental_uris": {"ios": "https://dc.lft.to/lastmile_qr_scan", "android": "https://dc.lft.to/lastmile_qr_scan"}}, {"name": "32a0c4db403b6def8e353eb6e3b8dedd", "fusion_lat": 0.0, "type": "electric_scooter", "lat": 38.9237195, "is_reserved": 0, "is_disabled": 0, "fusion_lon": 0.0, "bike_id": "32a0c4db403b6def8e353eb6e3b8dedd", "lon": -77.01914166666667, "rental_uris": {"ios": "https://dc.lft.to/lastmile_qr_scan", "android": "https://dc.lft.to/lastmile_qr_scan"}}, {"name": "f507272c166d4f8df0f1802faed951b3", "fusion_lat": 0.0, "type": "electric_scooter", "lat": 38.918041, "is_reserved": 0, "is_disabled": 0, "fusion_lon": 0.0, "bike_id": "f507272c166d4f8df0f1802faed951b3", "lon": -77.04015716666666, "rental_uris": {"ios": "https://dc.lft.to/lastmile_qr_scan", "android": "https://dc.lft.to/lastmile_qr_scan"}}, {"name": "c54275db09f7082c4d89c987c92a21b7", "fusion_lat": 0.0, "type": "electric_scooter", "lat": 38.879535833333335, "is_reserved": 0, "is_disabled": 0, "fusion_lon": 0.0, "bike_id": "c54275db09f7082c4d89c987c92a21b7", "lon": -77.0082595, "rental_uris": {"ios": "https://dc.lft.to/lastmile_qr_scan", "android": "https://dc.lft.to/lastmile_qr_scan"}}, {"name": "3f31946ac5262ef7454cc58fb21de854", "fusion_lat": 0.0, "type": "electric_bike", "lat": 39.052018833333335, "is_reserved": 0, "is_disabled": 0, "fusion_lon": 0.0, "bike_id": "3f31946ac5262ef7454cc58fb21de854", "lon": -77.10913983333333, "rental_uris": {"ios": "https://dc.lft.to/lastmile_qr_scan", "android": "https://dc.lft.to/lastmile_qr_scan"}}, {"name": "523751418790a9cc9d37723321662b5a", "fusion_lat": 0.0, "type": "electric_bike", "lat": 38.84162883333333, "is_reserved": 0, "is_disabled": 0, "fusion_lon": 0.0, "bike_id": "523751418790a9cc9d37723321662b5a", "lon": -77.088927, "rental_uris": {"ios": "https://dc.lft.to/lastmile_qr_scan", "android": "https://dc.lft.to/lastmile_qr_scan"}}, {"name": "10b70877659aad7c897cf3ec7281d5a9", "fusion_lat": 0.0, "type": "electric_scooter", "lat": 38.89711333333333, "is_reserved": 0, "is_disabled": 0, "fusion_lon": 0.0, "bike_id": "10b70877659aad7c897cf3ec7281d5a9", "lon": -77.020568, "rental_uris": {"ios": "https://dc.lft.to/lastmile_qr_scan", "android": "https://dc.lft.to/lastmile_qr_scan"}}, {"name": "11bf8687d959f8ed71f05247532ca805", "fusion_lat": 0.0, "type": "electric_scooter", "lat": 38.8580955, "is_reserved": 0, "is_disabled": 0, "fusion_lon": 0.0, "bike_id": "11bf8687d959f8ed71f05247532ca805", "lon": -76.986517, "rental_uris": {"ios": "https://dc.lft.to/lastmile_qr_scan", "android": "https://dc.lft.to/lastmile_qr_scan"}}, {"name": "4126760727c68cfcfc7dfa853c5a1b05", "fusion_lat": 0.0, "type": "electric_bike", "lat": 38.93583266666667, "is_reserved": 0, "is_disabled": 0, "fusion_lon": 0.0, "bike_id": "4126760727c68cfcfc7dfa853c5a1b05", "lon": -77.10683033333333, "rental_uris": {"ios": "https://dc.lft.to/lastmile_qr_scan", "android": "https://dc.lft.to/lastmile_qr_scan"}}, {"name": "0b283569cdbe3210c9df7151f8dfa3a4", "fusion_lat": 0.0, "type": "electric_scooter", "lat": 38.927095, "is_reserved": 0, "is_disabled": 0, "fusion_lon": 0.0, "bike_id": "0b283569cdbe3210c9df7151f8dfa3a4", "lon": -77.03729833333334, "rental_uris": {"ios": "https://dc.lft.to/lastmile_qr_scan", "android": "https://dc.lft.to/lastmile_qr_scan"}}, {"name": "7e49c518758a0e37618e9e6088c1d1e3", "fusion_lat": 0.0, "type": "electric_scooter", "lat": 38.930588, "is_reserved": 0, "is_disabled": 0, "fusion_lon": 0.0, "bike_id": "7e49c518758a0e37618e9e6088c1d1e3", "lon": -77.02321366666666, "rental_uris": {"ios": "https://dc.lft.to/lastmile_qr_scan", "android": "https://dc.lft.to/lastmile_qr_scan"}}, {"name": "5753dddce0d70babe0501c06f97ae8b4", "fusion_lat": 0.0, "type": "electric_scooter", "lat": 38.863755833333336, "is_reserved": 0, "is_disabled": 0, "fusion_lon": 0.0, "bike_id": "5753dddce0d70babe0501c06f97ae8b4", "lon": -77.01367216666667, "rental_uris": {"ios": "https://dc.lft.to/lastmile_qr_scan", "android": "https://dc.lft.to/lastmile_qr_scan"}}, {"name": "e2edbe1b1e0042b622f2e553ea2a607e", "fusion_lat": 0.0, "type": "electric_scooter", "lat": 38.91689816666667, "is_reserved": 0, "is_disabled": 0, "fusion_lon": 0.0, "bike_id": "e2edbe1b1e0042b622f2e553ea2a607e", "lon": -77.01214366666666, "rental_uris": {"ios": "https://dc.lft.to/lastmile_qr_scan", "android": "https://dc.lft.to/lastmile_qr_scan"}}, {"name": "0bcc248e1dfdb1d313ed160e3ca74f88", "fusion_lat": 0.0, "type": "electric_scooter", "lat": 38.932707, "is_reserved": 0, "is_disabled": 0, "fusion_lon": 0.0, "bike_id": "0bcc248e1dfdb1d313ed160e3ca74f88", "lon": -77.0326615, "rental_uris": {"ios": "https://dc.lft.to/lastmile_qr_scan", "android": "https://dc.lft.to/lastmile_qr_scan"}}, {"name": "65763bb3803073f62f5b1de3b71aa520", "fusion_lat": 0.0, "type": "electric_scooter", "lat": 38.89016983333333, "is_reserved": 0, "is_disabled": 0, "fusion_lon": 0.0, "bike_id": "65763bb3803073f62f5b1de3b71aa520", "lon": -76.93734616666667, "rental_uris": {"ios": "https://dc.lft.to/lastmile_qr_scan", "android": "https://dc.lft.to/lastmile_qr_scan"}}, {"name": "b7fbbc5b497f3754c161b10d2c2d7452", "fusion_lat": 0.0, "type": "electric_scooter", "lat": 38.91256166666667, "is_reserved": 0, "is_disabled": 0, "fusion_lon": 0.0, "bike_id": "b7fbbc5b497f3754c161b10d2c2d7452", "lon": -77.00760116666666, "rental_uris": {"ios": "https://dc.lft.to/lastmile_qr_scan", "android": "https://dc.lft.to/lastmile_qr_scan"}}, {"name": "a3e54826ed0f7645a88f1a9c579fb3c2", "fusion_lat": 0.0, "type": "electric_scooter", "lat": 38.9026215, "is_reserved": 0, "is_disabled": 0, "fusion_lon": 0.0, "bike_id": "a3e54826ed0f7645a88f1a9c579fb3c2", "lon": -77.04270833333334, "rental_uris": {"ios": "https://dc.lft.to/lastmile_qr_scan", "android": "https://dc.lft.to/lastmile_qr_scan"}}, {"name": "935c1732f1935b195e02a9e0ac0cb7c8", "fusion_lat": 0.0, "type": "electric_scooter", "lat": 38.9014705, "is_reserved": 0, "is_disabled": 0, "fusion_lon": 0.0, "bike_id": "935c1732f1935b195e02a9e0ac0cb7c8", "lon": -77.02544183333333, "rental_uris": {"ios": "https://dc.lft.to/lastmile_qr_scan", "android": "https://dc.lft.to/lastmile_qr_scan"}}, {"name": "ad7695d2b04f66348615826d7a7d3a9d", "fusion_lat": 0.0, "type": "electric_bike", "lat": 38.92987, "is_reserved": 0, "is_disabled": 0, "fusion_lon": 0.0, "bike_id": "ad7695d2b04f66348615826d7a7d3a9d", "lon": -77.22560316666667, "rental_uris": {"ios": "https://dc.lft.to/lastmile_qr_scan", "android": "https://dc.lft.to/lastmile_qr_scan"}}, {"name": "bd7dedd4150d3a84919ebf95a31c4b62", "fusion_lat": 0.0, "type": "electric_scooter", "lat": 38.91067783333333, "is_reserved": 0, "is_disabled": 0, "fusion_lon": 0.0, "bike_id": "bd7dedd4150d3a84919ebf95a31c4b62", "lon": -77.05322866666667, "rental_uris": {"ios": "https://dc.lft.to/lastmile_qr_scan", "android": "https://dc.lft.to/lastmile_qr_scan"}}, {"name": "c397272efa29f01053d6bb4c0cb0fd6b", "fusion_lat": 0.0, "type": "electric_scooter", "lat": 38.89257, "is_reserved": 0, "is_disabled": 0, "fusion_lon": 0.0, "bike_id": "c397272efa29f01053d6bb4c0cb0fd6b", "lon": -77.0240775, "rental_uris": {"ios": "https://dc.lft.to/lastmile_qr_scan", "android": "https://dc.lft.to/lastmile_qr_scan"}}, {"name": "7dae74d8e500eb5a458f9288ffe50cb2", "fusion_lat": 0.0, "type": "electric_scooter", "lat": 38.906675666666665, "is_reserved": 0, "is_disabled": 0, "fusion_lon": 0.0, "bike_id": "7dae74d8e500eb5a458f9288ffe50cb2", "lon": -77.02804216666667, "rental_uris": {"ios": "https://dc.lft.to/lastmile_qr_scan", "android": "https://dc.lft.to/lastmile_qr_scan"}}, {"name": "7da2efb0edf2e2805ab419483468ea27", "fusion_lat": 0.0, "type": "electric_scooter", "lat": 38.91712016666666, "is_reserved": 0, "is_disabled": 0, "fusion_lon": 0.0, "bike_id": "7da2efb0edf2e2805ab419483468ea27", "lon": -77.02901666666666, "rental_uris": {"ios": "https://dc.lft.to/lastmile_qr_scan", "android": "https://dc.lft.to/lastmile_qr_scan"}}, {"name": "f258a5a463f70df966810274c5316f02", "fusion_lat": 0.0, "type": "electric_bike", "lat": 38.83194616666667, "is_reserved": 0, "is_disabled": 0, "fusion_lon": 0.0, "bike_id": "f258a5a463f70df966810274c5316f02", "lon": -77.0768175, "rental_uris": {"ios": "https://dc.lft.to/lastmile_qr_scan", "android": "https://dc.lft.to/lastmile_qr_scan"}}, {"name": "9248947c3ef0b09d3ba3b73220faef8d", "fusion_lat": 0.0, "type": "electric_scooter", "lat": 38.89609516666667, "is_reserved": 0, "is_disabled": 0, "fusion_lon": 0.0, "bike_id": "9248947c3ef0b09d3ba3b73220faef8d", "lon": -77.04690966666666, "rental_uris": {"ios": "https://dc.lft.to/lastmile_qr_scan", "android": "https://dc.lft.to/lastmile_qr_scan"}}, {"name": "98c4a7c4eb17ed45c8ff91bc0e0a34d1", "fusion_lat": 0.0, "type": "electric_scooter", "lat": 38.902309, "is_reserved": 0, "is_disabled": 0, "fusion_lon": 0.0, "bike_id": "98c4a7c4eb17ed45c8ff91bc0e0a34d1", "lon": -77.05139666666666, "rental_uris": {"ios": "https://dc.lft.to/lastmile_qr_scan", "android": "https://dc.lft.to/lastmile_qr_scan"}}, {"name": "2fd2702cd6450a64575257caf4a7ae68", "fusion_lat": 0.0, "type": "electric_scooter", "lat": 38.921825, "is_reserved": 0, "is_disabled": 0, "fusion_lon": 0.0, "bike_id": "2fd2702cd6450a64575257caf4a7ae68", "lon": -77.0424955, "rental_uris": {"ios": "https://dc.lft.to/lastmile_qr_scan", "android": "https://dc.lft.to/lastmile_qr_scan"}}, {"name": "470c123af8551e6bc8597609ef441b80", "fusion_lat": 0.0, "type": "electric_bike", "lat": 38.9554605, "is_reserved": 0, "is_disabled": 0, "fusion_lon": 0.0, "bike_id": "470c123af8551e6bc8597609ef441b80", "lon": -76.9353865, "rental_uris": {"ios": "https://dc.lft.to/lastmile_qr_scan", "android": "https://dc.lft.to/lastmile_qr_scan"}}, {"name": "8fad908c702b11496e27ed65317bb5cd", "fusion_lat": 0.0, "type": "electric_scooter", "lat": 38.922572, "is_reserved": 0, "is_disabled": 0, "fusion_lon": 0.0, "bike_id": "8fad908c702b11496e27ed65317bb5cd", "lon": -77.01950133333334, "rental_uris": {"ios": "https://dc.lft.to/lastmile_qr_scan", "android": "https://dc.lft.to/lastmile_qr_scan"}}, {"name": "80d8b1a25fcd06257244c4dcdd884c76", "fusion_lat": 0.0, "type": "electric_scooter", "lat": 38.912315666666665, "is_reserved": 0, "is_disabled": 0, "fusion_lon": 0.0, "bike_id": "80d8b1a25fcd06257244c4dcdd884c76", "lon": -77.0384105, "rental_uris": {"ios": "https://dc.lft.to/lastmile_qr_scan", "android": "https://dc.lft.to/lastmile_qr_scan"}}, {"name": "edd3304320f2e88740a2c9c66f0d7b5e", "fusion_lat": 0.0, "type": "electric_scooter", "lat": 38.933614666666664, "is_reserved": 0, "is_disabled": 0, "fusion_lon": 0.0, "bike_id": "edd3304320f2e88740a2c9c66f0d7b5e", "lon": -77.03723283333333, "rental_uris": {"ios": "https://dc.lft.to/lastmile_qr_scan", "android": "https://dc.lft.to/lastmile_qr_scan"}}, {"name": "f9ccca46e1a5f82a90e77ec58c35d7e8", "fusion_lat": 0.0, "type": "electric_scooter", "lat": 38.892291, "is_reserved": 0, "is_disabled": 0, "fusion_lon": 0.0, "bike_id": "f9ccca46e1a5f82a90e77ec58c35d7e8", "lon": -77.050046, "rental_uris": {"ios": "https://dc.lft.to/lastmile_qr_scan", "android": "https://dc.lft.to/lastmile_qr_scan"}}, {"name": "25d1a6e30522dcbfedad31ab4c24a125", "fusion_lat": 0.0, "type": "electric_scooter", "lat": 38.904753, "is_reserved": 0, "is_disabled": 0, "fusion_lon": 0.0, "bike_id": "25d1a6e30522dcbfedad31ab4c24a125", "lon": -77.03853116666667, "rental_uris": {"ios": "https://dc.lft.to/lastmile_qr_scan", "android": "https://dc.lft.to/lastmile_qr_scan"}}, {"name": "50b40302ed565b14f0c7bf12ecac05b4", "fusion_lat": 0.0, "type": "electric_bike", "lat": 38.813091, "is_reserved": 0, "is_disabled": 0, "fusion_lon": 0.0, "bike_id": "50b40302ed565b14f0c7bf12ecac05b4", "lon": -77.11214266666667, "rental_uris": {"ios": "https://dc.lft.to/lastmile_qr_scan", "android": "https://dc.lft.to/lastmile_qr_scan"}}, {"name": "9580b376ed7b0332deb394dd28d8f318", "fusion_lat": 0.0, "type": "electric_bike", "lat": 38.89188883333333, "is_reserved": 0, "is_disabled": 0, "fusion_lon": 0.0, "bike_id": "9580b376ed7b0332deb394dd28d8f318", "lon": -77.122598, "rental_uris": {"ios": "https://dc.lft.to/lastmile_qr_scan", "android": "https://dc.lft.to/lastmile_qr_scan"}}, {"name": "91a251a81a2a362e6311ff567c9870b6", "fusion_lat": 0.0, "type": "electric_scooter", "lat": 38.90674116666667, "is_reserved": 0, "is_disabled": 0, "fusion_lon": 0.0, "bike_id": "91a251a81a2a362e6311ff567c9870b6", "lon": -76.9781035, "rental_uris": {"ios": "https://dc.lft.to/lastmile_qr_scan", "android": "https://dc.lft.to/lastmile_qr_scan"}}, {"name": "97b45c44cc8aacb0762f81b27176b2ac", "fusion_lat": 0.0, "type": "electric_bike", "lat": 39.000158166666665, "is_reserved": 0, "is_disabled": 0, "fusion_lon": 0.0, "bike_id": "97b45c44cc8aacb0762f81b27176b2ac", "lon": -77.01743683333333, "rental_uris": {"ios": "https://dc.lft.to/lastmile_qr_scan", "android": "https://dc.lft.to/lastmile_qr_scan"}}, {"name": "eed8be652fa2581c0f54ec2915381944", "fusion_lat": 0.0, "type": "electric_scooter", "lat": 38.92425566666667, "is_reserved": 0, "is_disabled": 0, "fusion_lon": 0.0, "bike_id": "eed8be652fa2581c0f54ec2915381944", "lon": -77.044812, "rental_uris": {"ios": "https://dc.lft.to/lastmile_qr_scan", "android": "https://dc.lft.to/lastmile_qr_scan"}}, {"name": "55777e72393ff0226a1bcc4737b59003", "fusion_lat": 0.0, "type": "electric_scooter", "lat": 38.930672333333334, "is_reserved": 0, "is_disabled": 0, "fusion_lon": 0.0, "bike_id": "55777e72393ff0226a1bcc4737b59003", "lon": -77.02977766666666, "rental_uris": {"ios": "https://dc.lft.to/lastmile_qr_scan", "android": "https://dc.lft.to/lastmile_qr_scan"}}, {"name": "ad8ee08708c303e2a55b55385546f37c", "fusion_lat": 0.0, "type": "electric_bike", "lat": 38.812498, "is_reserved": 0, "is_disabled": 0, "fusion_lon": 0.0, "bike_id": "ad8ee08708c303e2a55b55385546f37c", "lon": -77.11767116666667, "rental_uris": {"ios": "https://dc.lft.to/lastmile_qr_scan", "android": "https://dc.lft.to/lastmile_qr_scan"}}, {"name": "274dfa3fe07ad8aa56a9a16db4e68c07", "fusion_lat": 0.0, "type": "electric_scooter", "lat": 38.918510833333336, "is_reserved": 0, "is_disabled": 0, "fusion_lon": 0.0, "bike_id": "274dfa3fe07ad8aa56a9a16db4e68c07", "lon": -77.02286216666667, "rental_uris": {"ios": "https://dc.lft.to/lastmile_qr_scan", "android": "https://dc.lft.to/lastmile_qr_scan"}}, {"name": "bcfa78b95c3a931fee432c9f80c24a19", "fusion_lat": 0.0, "type": "electric_scooter", "lat": 38.91636, "is_reserved": 0, "is_disabled": 0, "fusion_lon": 0.0, "bike_id": "bcfa78b95c3a931fee432c9f80c24a19", "lon": -77.0010035, "rental_uris": {"ios": "https://dc.lft.to/lastmile_qr_scan", "android": "https://dc.lft.to/lastmile_qr_scan"}}, {"name": "dcda0c6c549b802aeaec406fe7281f61", "fusion_lat": 0.0, "type": "electric_scooter", "lat": 38.88505816666667, "is_reserved": 0, "is_disabled": 0, "fusion_lon": 0.0, "bike_id": "dcda0c6c549b802aeaec406fe7281f61", "lon": -77.02186333333333, "rental_uris": {"ios": "https://dc.lft.to/lastmile_qr_scan", "android": "https://dc.lft.to/lastmile_qr_scan"}}, {"name": "e70141c5bfef4fb7746bf4e7e9f32262", "fusion_lat": 0.0, "type": "electric_scooter", "lat": 38.903866666666666, "is_reserved": 0, "is_disabled": 0, "fusion_lon": 0.0, "bike_id": "e70141c5bfef4fb7746bf4e7e9f32262", "lon": -77.03455133333334, "rental_uris": {"ios": "https://dc.lft.to/lastmile_qr_scan", "android": "https://dc.lft.to/lastmile_qr_scan"}}, {"name": "3d64171f5b0f296f52cd3e220e14e636", "fusion_lat": 0.0, "type": "electric_scooter", "lat": 38.920763, "is_reserved": 0, "is_disabled": 0, "fusion_lon": 0.0, "bike_id": "3d64171f5b0f296f52cd3e220e14e636", "lon": -77.02311083333333, "rental_uris": {"ios": "https://dc.lft.to/lastmile_qr_scan", "android": "https://dc.lft.to/lastmile_qr_scan"}}, {"name": "9b126e46573ae9d9d7cef594ad56c0e4", "fusion_lat": 0.0, "type": "electric_scooter", "lat": 38.93961066666667, "is_reserved": 0, "is_disabled": 0, "fusion_lon": 0.0, "bike_id": "9b126e46573ae9d9d7cef594ad56c0e4", "lon": -77.02750583333334, "rental_uris": {"ios": "https://dc.lft.to/lastmile_qr_scan", "android": "https://dc.lft.to/lastmile_qr_scan"}}, {"name": "2ab4e3bd7b976e9c140533a9d5eaf759", "fusion_lat": 0.0, "type": "electric_scooter", "lat": 38.892386333333334, "is_reserved": 0, "is_disabled": 0, "fusion_lon": 0.0, "bike_id": "2ab4e3bd7b976e9c140533a9d5eaf759", "lon": -77.01506516666667, "rental_uris": {"ios": "https://dc.lft.to/lastmile_qr_scan", "android": "https://dc.lft.to/lastmile_qr_scan"}}, {"name": "a4411e57e865fc2294da7463934041e3", "fusion_lat": 0.0, "type": "electric_bike", "lat": 38.856914833333335, "is_reserved": 0, "is_disabled": 0, "fusion_lon": 0.0, "bike_id": "a4411e57e865fc2294da7463934041e3", "lon": -77.08541516666666, "rental_uris": {"ios": "https://dc.lft.to/lastmile_qr_scan", "android": "https://dc.lft.to/lastmile_qr_scan"}}, {"name": "70c2191941e7362fb8e75ffe4d32cd5b", "fusion_lat": 0.0, "type": "electric_scooter", "lat": 38.91838716666667, "is_reserved": 0, "is_disabled": 0, "fusion_lon": 0.0, "bike_id": "70c2191941e7362fb8e75ffe4d32cd5b", "lon": -77.02401483333334, "rental_uris": {"ios": "https://dc.lft.to/lastmile_qr_scan", "android": "https://dc.lft.to/lastmile_qr_scan"}}, {"name": "197fc98b0e6b04f561252c204659ff46", "fusion_lat": 0.0, "type": "electric_bike", "lat": 38.949241, "is_reserved": 0, "is_disabled": 0, "fusion_lon": 0.0, "bike_id": "197fc98b0e6b04f561252c204659ff46", "lon": -77.00795233333334, "rental_uris": {"ios": "https://dc.lft.to/lastmile_qr_scan", "android": "https://dc.lft.to/lastmile_qr_scan"}}, {"name": "a4a75a07996845339e08cfec92180832", "fusion_lat": 0.0, "type": "electric_bike", "lat": 38.828767, "is_reserved": 0, "is_disabled": 0, "fusion_lon": 0.0, "bike_id": "a4a75a07996845339e08cfec92180832", "lon": -77.1121685, "rental_uris": {"ios": "https://dc.lft.to/lastmile_qr_scan", "android": "https://dc.lft.to/lastmile_qr_scan"}}, {"name": "7a4b7296a14bab541b4c5eb7e5eb0681", "fusion_lat": 0.0, "type": "electric_scooter", "lat": 38.90504383333333, "is_reserved": 0, "is_disabled": 0, "fusion_lon": 0.0, "bike_id": "7a4b7296a14bab541b4c5eb7e5eb0681", "lon": -77.04080533333334, "rental_uris": {"ios": "https://dc.lft.to/lastmile_qr_scan", "android": "https://dc.lft.to/lastmile_qr_scan"}}, {"name": "b80e946348c503cd159dd9e9839763ea", "fusion_lat": 0.0, "type": "electric_scooter", "lat": 38.8960795, "is_reserved": 0, "is_disabled": 0, "fusion_lon": 0.0, "bike_id": "b80e946348c503cd159dd9e9839763ea", "lon": -77.04765016666667, "rental_uris": {"ios": "https://dc.lft.to/lastmile_qr_scan", "android": "https://dc.lft.to/lastmile_qr_scan"}}, {"name": "b0aa9234bba332bb877d5dc750ec8734", "fusion_lat": 0.0, "type": "electric_scooter", "lat": 38.917705833333336, "is_reserved": 0, "is_disabled": 0, "fusion_lon": 0.0, "bike_id": "b0aa9234bba332bb877d5dc750ec8734", "lon": -77.04059333333333, "rental_uris": {"ios": "https://dc.lft.to/lastmile_qr_scan", "android": "https://dc.lft.to/lastmile_qr_scan"}}, {"name": "473ce0fa90d314738563e7e99e0a61f0", "fusion_lat": 0.0, "type": "electric_scooter", "lat": 38.90028216666666, "is_reserved": 0, "is_disabled": 0, "fusion_lon": 0.0, "bike_id": "473ce0fa90d314738563e7e99e0a61f0", "lon": -77.04863433333334, "rental_uris": {"ios": "https://dc.lft.to/lastmile_qr_scan", "android": "https://dc.lft.to/lastmile_qr_scan"}}, {"name": "48882e7d420b75e51d182d4ccdcaebd7", "fusion_lat": 0.0, "type": "electric_scooter", "lat": 38.9039015, "is_reserved": 0, "is_disabled": 0, "fusion_lon": 0.0, "bike_id": "48882e7d420b75e51d182d4ccdcaebd7", "lon": -77.030205, "rental_uris": {"ios": "https://dc.lft.to/lastmile_qr_scan", "android": "https://dc.lft.to/lastmile_qr_scan"}}, {"name": "f40902a25662e5f615a5b4194e3cbe67", "fusion_lat": 0.0, "type": "electric_scooter", "lat": 38.9270045, "is_reserved": 0, "is_disabled": 0, "fusion_lon": 0.0, "bike_id": "f40902a25662e5f615a5b4194e3cbe67", "lon": -77.02074783333333, "rental_uris": {"ios": "https://dc.lft.to/lastmile_qr_scan", "android": "https://dc.lft.to/lastmile_qr_scan"}}, {"name": "8407f22e38fc6aad9248e24073c86623", "fusion_lat": 0.0, "type": "electric_scooter", "lat": 38.899733, "is_reserved": 0, "is_disabled": 0, "fusion_lon": 0.0, "bike_id": "8407f22e38fc6aad9248e24073c86623", "lon": -77.0570145, "rental_uris": {"ios": "https://dc.lft.to/lastmile_qr_scan", "android": "https://dc.lft.to/lastmile_qr_scan"}}, {"name": "e498b03e25b88fe6e625a76140d98086", "fusion_lat": 0.0, "type": "electric_scooter", "lat": 38.88747033333333, "is_reserved": 0, "is_disabled": 0, "fusion_lon": 0.0, "bike_id": "e498b03e25b88fe6e625a76140d98086", "lon": -77.02345633333333, "rental_uris": {"ios": "https://dc.lft.to/lastmile_qr_scan", "android": "https://dc.lft.to/lastmile_qr_scan"}}, {"name": "6c5ded5c464098df56c2e87e398d91c2", "fusion_lat": 0.0, "type": "electric_bike", "lat": 38.990918, "is_reserved": 0, "is_disabled": 0, "fusion_lon": 0.0, "bike_id": "6c5ded5c464098df56c2e87e398d91c2", "lon": -76.87493283333333, "rental_uris": {"ios": "https://dc.lft.to/lastmile_qr_scan", "android": "https://dc.lft.to/lastmile_qr_scan"}}, {"name": "b0b87831e0e68836e72afeed789fc853", "fusion_lat": 0.0, "type": "electric_scooter", "lat": 38.90259433333333, "is_reserved": 0, "is_disabled": 0, "fusion_lon": 0.0, "bike_id": "b0b87831e0e68836e72afeed789fc853", "lon": -77.02829966666667, "rental_uris": {"ios": "https://dc.lft.to/lastmile_qr_scan", "android": "https://dc.lft.to/lastmile_qr_scan"}}, {"name": "f37fcb3f8c1cee8e90a82ea89a90cc23", "fusion_lat": 0.0, "type": "electric_scooter", "lat": 38.911105, "is_reserved": 0, "is_disabled": 0, "fusion_lon": 0.0, "bike_id": "f37fcb3f8c1cee8e90a82ea89a90cc23", "lon": -77.03148283333333, "rental_uris": {"ios": "https://dc.lft.to/lastmile_qr_scan", "android": "https://dc.lft.to/lastmile_qr_scan"}}, {"name": "777da72b5e118f0e07f2fd3883ee62d3", "fusion_lat": 0.0, "type": "electric_scooter", "lat": 38.8868615, "is_reserved": 0, "is_disabled": 0, "fusion_lon": 0.0, "bike_id": "777da72b5e118f0e07f2fd3883ee62d3", "lon": -76.957597, "rental_uris": {"ios": "https://dc.lft.to/lastmile_qr_scan", "android": "https://dc.lft.to/lastmile_qr_scan"}}, {"name": "8895db631f1da7e486e0f8ed9ea9dc94", "fusion_lat": 0.0, "type": "electric_scooter", "lat": 38.915896000000004, "is_reserved": 0, "is_disabled": 0, "fusion_lon": 0.0, "bike_id": "8895db631f1da7e486e0f8ed9ea9dc94", "lon": -77.03845216666667, "rental_uris": {"ios": "https://dc.lft.to/lastmile_qr_scan", "android": "https://dc.lft.to/lastmile_qr_scan"}}, {"name": "c0fff3a0511d1d8fd6614864cec890f1", "fusion_lat": 0.0, "type": "electric_scooter", "lat": 38.90500016666667, "is_reserved": 0, "is_disabled": 0, "fusion_lon": 0.0, "bike_id": "c0fff3a0511d1d8fd6614864cec890f1", "lon": -77.0653505, "rental_uris": {"ios": "https://dc.lft.to/lastmile_qr_scan", "android": "https://dc.lft.to/lastmile_qr_scan"}}, {"name": "1239067cdd38eb26953f329e7ff4c072", "fusion_lat": 0.0, "type": "electric_scooter", "lat": 38.895396833333336, "is_reserved": 0, "is_disabled": 0, "fusion_lon": 0.0, "bike_id": "1239067cdd38eb26953f329e7ff4c072", "lon": -77.02568483333333, "rental_uris": {"ios": "https://dc.lft.to/lastmile_qr_scan", "android": "https://dc.lft.to/lastmile_qr_scan"}}, {"name": "18308632d9b131d4d2cec0a1ec2df488", "fusion_lat": 0.0, "type": "electric_scooter", "lat": 38.941774333333335, "is_reserved": 0, "is_disabled": 0, "fusion_lon": 0.0, "bike_id": "18308632d9b131d4d2cec0a1ec2df488", "lon": -77.025111, "rental_uris": {"ios": "https://dc.lft.to/lastmile_qr_scan", "android": "https://dc.lft.to/lastmile_qr_scan"}}, {"name": "c9488de547703fa31a3fc57778e1bc2e", "fusion_lat": 0.0, "type": "electric_scooter", "lat": 38.8920105, "is_reserved": 0, "is_disabled": 0, "fusion_lon": 0.0, "bike_id": "c9488de547703fa31a3fc57778e1bc2e", "lon": -76.9919725, "rental_uris": {"ios": "https://dc.lft.to/lastmile_qr_scan", "android": "https://dc.lft.to/lastmile_qr_scan"}}, {"name": "b9161358e589a36e5d59f39c1132623c", "fusion_lat": 0.0, "type": "electric_bike", "lat": 38.83828883333334, "is_reserved": 0, "is_disabled": 0, "fusion_lon": 0.0, "bike_id": "b9161358e589a36e5d59f39c1132623c", "lon": -76.99681783333334, "rental_uris": {"ios": "https://dc.lft.to/lastmile_qr_scan", "android": "https://dc.lft.to/lastmile_qr_scan"}}, {"name": "0c0b392fccf6f9bc8bdd92024fc9f3a9", "fusion_lat": 0.0, "type": "electric_scooter", "lat": 38.858526, "is_reserved": 0, "is_disabled": 0, "fusion_lon": 0.0, "bike_id": "0c0b392fccf6f9bc8bdd92024fc9f3a9", "lon": -76.95877966666667, "rental_uris": {"ios": "https://dc.lft.to/lastmile_qr_scan", "android": "https://dc.lft.to/lastmile_qr_scan"}}, {"name": "ef5bdae98e376b8e2ed8fe716eca6eaf", "fusion_lat": 0.0, "type": "electric_scooter", "lat": 38.9320775, "is_reserved": 0, "is_disabled": 0, "fusion_lon": 0.0, "bike_id": "ef5bdae98e376b8e2ed8fe716eca6eaf", "lon": -77.038574, "rental_uris": {"ios": "https://dc.lft.to/lastmile_qr_scan", "android": "https://dc.lft.to/lastmile_qr_scan"}}, {"name": "e446876025aaa8c8b4119c3116ecebd3", "fusion_lat": 0.0, "type": "electric_scooter", "lat": 38.909587, "is_reserved": 0, "is_disabled": 0, "fusion_lon": 0.0, "bike_id": "e446876025aaa8c8b4119c3116ecebd3", "lon": -77.04647933333334, "rental_uris": {"ios": "https://dc.lft.to/lastmile_qr_scan", "android": "https://dc.lft.to/lastmile_qr_scan"}}, {"name": "c4f59a3487f1ba0f02064bb4ecf91b84", "fusion_lat": 0.0, "type": "electric_scooter", "lat": 38.9003575, "is_reserved": 0, "is_disabled": 0, "fusion_lon": 0.0, "bike_id": "c4f59a3487f1ba0f02064bb4ecf91b84", "lon": -77.04344966666666, "rental_uris": {"ios": "https://dc.lft.to/lastmile_qr_scan", "android": "https://dc.lft.to/lastmile_qr_scan"}}, {"name": "6484b85029f0407ad5679c81c670ee80", "fusion_lat": 0.0, "type": "electric_scooter", "lat": 38.907778666666665, "is_reserved": 0, "is_disabled": 0, "fusion_lon": 0.0, "bike_id": "6484b85029f0407ad5679c81c670ee80", "lon": -77.071672, "rental_uris": {"ios": "https://dc.lft.to/lastmile_qr_scan", "android": "https://dc.lft.to/lastmile_qr_scan"}}, {"name": "e113b33d15a413a68690d53847bc06c8", "fusion_lat": 0.0, "type": "electric_scooter", "lat": 38.917135333333334, "is_reserved": 0, "is_disabled": 0, "fusion_lon": 0.0, "bike_id": "e113b33d15a413a68690d53847bc06c8", "lon": -77.02784983333333, "rental_uris": {"ios": "https://dc.lft.to/lastmile_qr_scan", "android": "https://dc.lft.to/lastmile_qr_scan"}}, {"name": "a21a14981bc57d87f750d0b77a6d407e", "fusion_lat": 0.0, "type": "electric_bike", "lat": 38.79986916666667, "is_reserved": 0, "is_disabled": 0, "fusion_lon": 0.0, "bike_id": "a21a14981bc57d87f750d0b77a6d407e", "lon": -77.1298055, "rental_uris": {"ios": "https://dc.lft.to/lastmile_qr_scan", "android": "https://dc.lft.to/lastmile_qr_scan"}}, {"name": "641a36a9a73af6da30b255076b2691ab", "fusion_lat": 0.0, "type": "electric_scooter", "lat": 38.901343833333335, "is_reserved": 0, "is_disabled": 0, "fusion_lon": 0.0, "bike_id": "641a36a9a73af6da30b255076b2691ab", "lon": -77.04997633333333, "rental_uris": {"ios": "https://dc.lft.to/lastmile_qr_scan", "android": "https://dc.lft.to/lastmile_qr_scan"}}, {"name": "01598356113f99027913bdbf1b082bc1", "fusion_lat": 0.0, "type": "electric_scooter", "lat": 38.91152816666666, "is_reserved": 0, "is_disabled": 0, "fusion_lon": 0.0, "bike_id": "01598356113f99027913bdbf1b082bc1", "lon": -77.044296, "rental_uris": {"ios": "https://dc.lft.to/lastmile_qr_scan", "android": "https://dc.lft.to/lastmile_qr_scan"}}, {"name": "a83e415ca9e74c3ef0c5a62947fd5b02", "fusion_lat": 0.0, "type": "electric_scooter", "lat": 38.897397833333336, "is_reserved": 0, "is_disabled": 0, "fusion_lon": 0.0, "bike_id": "a83e415ca9e74c3ef0c5a62947fd5b02", "lon": -76.93842083333334, "rental_uris": {"ios": "https://dc.lft.to/lastmile_qr_scan", "android": "https://dc.lft.to/lastmile_qr_scan"}}, {"name": "68f048a30d98052bdfe32e385f7ced8d", "fusion_lat": 0.0, "type": "electric_scooter", "lat": 38.907543833333335, "is_reserved": 0, "is_disabled": 0, "fusion_lon": 0.0, "bike_id": "68f048a30d98052bdfe32e385f7ced8d", "lon": -77.04484783333334, "rental_uris": {"ios": "https://dc.lft.to/lastmile_qr_scan", "android": "https://dc.lft.to/lastmile_qr_scan"}}, {"name": "8a1c7d0318575c7152babec628bb3cbf", "fusion_lat": 0.0, "type": "electric_scooter", "lat": 38.902178166666666, "is_reserved": 0, "is_disabled": 0, "fusion_lon": 0.0, "bike_id": "8a1c7d0318575c7152babec628bb3cbf", "lon": -77.05037233333333, "rental_uris": {"ios": "https://dc.lft.to/lastmile_qr_scan", "android": "https://dc.lft.to/lastmile_qr_scan"}}, {"name": "e6f64d952110e7c2364718d630aa11f4", "fusion_lat": 0.0, "type": "electric_bike", "lat": 38.949671, "is_reserved": 0, "is_disabled": 0, "fusion_lon": 0.0, "bike_id": "e6f64d952110e7c2364718d630aa11f4", "lon": -76.96096816666666, "rental_uris": {"ios": "https://dc.lft.to/lastmile_qr_scan", "android": "https://dc.lft.to/lastmile_qr_scan"}}, {"name": "d17c5ef2f81bf463abc3a6324438fd37", "fusion_lat": 0.0, "type": "electric_scooter", "lat": 38.90548916666667, "is_reserved": 0, "is_disabled": 0, "fusion_lon": 0.0, "bike_id": "d17c5ef2f81bf463abc3a6324438fd37", "lon": -77.00507333333333, "rental_uris": {"ios": "https://dc.lft.to/lastmile_qr_scan", "android": "https://dc.lft.to/lastmile_qr_scan"}}, {"name": "8fdf04c1b5ca0306aebd22a1845868fc", "fusion_lat": 0.0, "type": "electric_bike", "lat": 39.089002, "is_reserved": 0, "is_disabled": 0, "fusion_lon": 0.0, "bike_id": "8fdf04c1b5ca0306aebd22a1845868fc", "lon": -77.17847266666666, "rental_uris": {"ios": "https://dc.lft.to/lastmile_qr_scan", "android": "https://dc.lft.to/lastmile_qr_scan"}}, {"name": "06deb9861cad51a0eaf4daa60fb12e93", "fusion_lat": 0.0, "type": "electric_scooter", "lat": 38.90734916666667, "is_reserved": 0, "is_disabled": 0, "fusion_lon": 0.0, "bike_id": "06deb9861cad51a0eaf4daa60fb12e93", "lon": -77.0307445, "rental_uris": {"ios": "https://dc.lft.to/lastmile_qr_scan", "android": "https://dc.lft.to/lastmile_qr_scan"}}, {"name": "f6756763c78afa1558cb9553c55c7de8", "fusion_lat": 0.0, "type": "electric_scooter", "lat": 38.919185, "is_reserved": 0, "is_disabled": 0, "fusion_lon": 0.0, "bike_id": "f6756763c78afa1558cb9553c55c7de8", "lon": -77.0326835, "rental_uris": {"ios": "https://dc.lft.to/lastmile_qr_scan", "android": "https://dc.lft.to/lastmile_qr_scan"}}, {"name": "839547c324c76eaca5776b9aba78ca0b", "fusion_lat": 0.0, "type": "electric_scooter", "lat": 38.9284115, "is_reserved": 0, "is_disabled": 0, "fusion_lon": 0.0, "bike_id": "839547c324c76eaca5776b9aba78ca0b", "lon": -77.01411983333334, "rental_uris": {"ios": "https://dc.lft.to/lastmile_qr_scan", "android": "https://dc.lft.to/lastmile_qr_scan"}}, {"name": "6a6fad32fda9a72c8dd9831b79a96cab", "fusion_lat": 0.0, "type": "electric_bike", "lat": 38.846135, "is_reserved": 0, "is_disabled": 0, "fusion_lon": 0.0, "bike_id": "6a6fad32fda9a72c8dd9831b79a96cab", "lon": -76.97831583333334, "rental_uris": {"ios": "https://dc.lft.to/lastmile_qr_scan", "android": "https://dc.lft.to/lastmile_qr_scan"}}, {"name": "35f1a1b03be1056c3873bc2c00165358", "fusion_lat": 0.0, "type": "electric_scooter", "lat": 38.899210333333336, "is_reserved": 0, "is_disabled": 0, "fusion_lon": 0.0, "bike_id": "35f1a1b03be1056c3873bc2c00165358", "lon": -77.03220516666667, "rental_uris": {"ios": "https://dc.lft.to/lastmile_qr_scan", "android": "https://dc.lft.to/lastmile_qr_scan"}}, {"name": "d7603219fa74aa73ff4b97875011da0d", "fusion_lat": 0.0, "type": "electric_scooter", "lat": 38.91111316666667, "is_reserved": 0, "is_disabled": 0, "fusion_lon": 0.0, "bike_id": "d7603219fa74aa73ff4b97875011da0d", "lon": -77.04292466666666, "rental_uris": {"ios": "https://dc.lft.to/lastmile_qr_scan", "android": "https://dc.lft.to/lastmile_qr_scan"}}, {"name": "0fc6ad99dbd6e00297a24a66f370c0d0", "fusion_lat": 0.0, "type": "electric_scooter", "lat": 38.886585, "is_reserved": 0, "is_disabled": 0, "fusion_lon": 0.0, "bike_id": "0fc6ad99dbd6e00297a24a66f370c0d0", "lon": -77.03388583333333, "rental_uris": {"ios": "https://dc.lft.to/lastmile_qr_scan", "android": "https://dc.lft.to/lastmile_qr_scan"}}, {"name": "bf2fe34b8e47d0269f830110ae5e78b0", "fusion_lat": 0.0, "type": "electric_bike", "lat": 39.058106, "is_reserved": 0, "is_disabled": 0, "fusion_lon": 0.0, "bike_id": "bf2fe34b8e47d0269f830110ae5e78b0", "lon": -77.12624533333333, "rental_uris": {"ios": "https://dc.lft.to/lastmile_qr_scan", "android": "https://dc.lft.to/lastmile_qr_scan"}}, {"name": "65fe079516afef8cb256ecf93391816d", "fusion_lat": 0.0, "type": "electric_scooter", "lat": 38.903716333333335, "is_reserved": 0, "is_disabled": 0, "fusion_lon": 0.0, "bike_id": "65fe079516afef8cb256ecf93391816d", "lon": -77.01764333333334, "rental_uris": {"ios": "https://dc.lft.to/lastmile_qr_scan", "android": "https://dc.lft.to/lastmile_qr_scan"}}, {"name": "9fba647b4c9ed879dc276877decbe9c7", "fusion_lat": 0.0, "type": "electric_scooter", "lat": 38.89507433333333, "is_reserved": 0, "is_disabled": 0, "fusion_lon": 0.0, "bike_id": "9fba647b4c9ed879dc276877decbe9c7", "lon": -76.99155416666666, "rental_uris": {"ios": "https://dc.lft.to/lastmile_qr_scan", "android": "https://dc.lft.to/lastmile_qr_scan"}}, {"name": "58c92e180bced100a25f66e2b69f3ce0", "fusion_lat": 0.0, "type": "electric_scooter", "lat": 38.892289, "is_reserved": 0, "is_disabled": 0, "fusion_lon": 0.0, "bike_id": "58c92e180bced100a25f66e2b69f3ce0", "lon": -77.05003416666666, "rental_uris": {"ios": "https://dc.lft.to/lastmile_qr_scan", "android": "https://dc.lft.to/lastmile_qr_scan"}}, {"name": "e902ab06863df4de8e73c7f3e0d87cf6", "fusion_lat": 0.0, "type": "electric_scooter", "lat": 38.9184885, "is_reserved": 0, "is_disabled": 0, "fusion_lon": 0.0, "bike_id": "e902ab06863df4de8e73c7f3e0d87cf6", "lon": -77.02601283333334, "rental_uris": {"ios": "https://dc.lft.to/lastmile_qr_scan", "android": "https://dc.lft.to/lastmile_qr_scan"}}, {"name": "21ba8b38f7769a114f289a7cd8cc56fc", "fusion_lat": 0.0, "type": "electric_scooter", "lat": 38.90736116666667, "is_reserved": 0, "is_disabled": 0, "fusion_lon": 0.0, "bike_id": "21ba8b38f7769a114f289a7cd8cc56fc", "lon": -77.0053845, "rental_uris": {"ios": "https://dc.lft.to/lastmile_qr_scan", "android": "https://dc.lft.to/lastmile_qr_scan"}}, {"name": "0f8f735f831566baa262f8a9194b3029", "fusion_lat": 0.0, "type": "electric_scooter", "lat": 38.9013235, "is_reserved": 0, "is_disabled": 0, "fusion_lon": 0.0, "bike_id": "0f8f735f831566baa262f8a9194b3029", "lon": -77.03166866666666, "rental_uris": {"ios": "https://dc.lft.to/lastmile_qr_scan", "android": "https://dc.lft.to/lastmile_qr_scan"}}, {"name": "1c062a31843972096a1be7feb3a10129", "fusion_lat": 0.0, "type": "electric_bike", "lat": 38.90728383333333, "is_reserved": 0, "is_disabled": 0, "fusion_lon": 0.0, "bike_id": "1c062a31843972096a1be7feb3a10129", "lon": -77.00601366666666, "rental_uris": {"ios": "https://dc.lft.to/lastmile_qr_scan", "android": "https://dc.lft.to/lastmile_qr_scan"}}, {"name": "4d70d93e931f790435834170888c31f4", "fusion_lat": 0.0, "type": "electric_scooter", "lat": 38.91634916666667, "is_reserved": 0, "is_disabled": 0, "fusion_lon": 0.0, "bike_id": "4d70d93e931f790435834170888c31f4", "lon": -77.001084, "rental_uris": {"ios": "https://dc.lft.to/lastmile_qr_scan", "android": "https://dc.lft.to/lastmile_qr_scan"}}, {"name": "542d9f85a44bc04cc2b2f62a2e87ffda", "fusion_lat": 0.0, "type": "electric_scooter", "lat": 38.906626833333334, "is_reserved": 0, "is_disabled": 0, "fusion_lon": 0.0, "bike_id": "542d9f85a44bc04cc2b2f62a2e87ffda", "lon": -77.0381865, "rental_uris": {"ios": "https://dc.lft.to/lastmile_qr_scan", "android": "https://dc.lft.to/lastmile_qr_scan"}}, {"name": "27be29bbaa946b1804792c0e813995bf", "fusion_lat": 0.0, "type": "electric_scooter", "lat": 38.898629666666665, "is_reserved": 0, "is_disabled": 0, "fusion_lon": 0.0, "bike_id": "27be29bbaa946b1804792c0e813995bf", "lon": -77.02587566666666, "rental_uris": {"ios": "https://dc.lft.to/lastmile_qr_scan", "android": "https://dc.lft.to/lastmile_qr_scan"}}, {"name": "dbc696a8ab0beea8218ddcb521789bd0", "fusion_lat": 0.0, "type": "electric_scooter", "lat": 38.900218, "is_reserved": 0, "is_disabled": 0, "fusion_lon": 0.0, "bike_id": "dbc696a8ab0beea8218ddcb521789bd0", "lon": -76.9983865, "rental_uris": {"ios": "https://dc.lft.to/lastmile_qr_scan", "android": "https://dc.lft.to/lastmile_qr_scan"}}, {"name": "3834dd5a19341960be4516228e5f0e63", "fusion_lat": 0.0, "type": "electric_scooter", "lat": 38.91322516666666, "is_reserved": 0, "is_disabled": 0, "fusion_lon": 0.0, "bike_id": "3834dd5a19341960be4516228e5f0e63", "lon": -77.04539, "rental_uris": {"ios": "https://dc.lft.to/lastmile_qr_scan", "android": "https://dc.lft.to/lastmile_qr_scan"}}, {"name": "36ee02598a10c791c38820a2db15e890", "fusion_lat": 0.0, "type": "electric_bike", "lat": 38.857921166666664, "is_reserved": 0, "is_disabled": 0, "fusion_lon": 0.0, "bike_id": "36ee02598a10c791c38820a2db15e890", "lon": -76.98743066666667, "rental_uris": {"ios": "https://dc.lft.to/lastmile_qr_scan", "android": "https://dc.lft.to/lastmile_qr_scan"}}, {"name": "676d152cd5e4f6cf24db8695b716853a", "fusion_lat": 0.0, "type": "electric_bike", "lat": 38.959556666666664, "is_reserved": 0, "is_disabled": 0, "fusion_lon": 0.0, "bike_id": "676d152cd5e4f6cf24db8695b716853a", "lon": -77.10091383333334, "rental_uris": {"ios": "https://dc.lft.to/lastmile_qr_scan", "android": "https://dc.lft.to/lastmile_qr_scan"}}, {"name": "902f24e7dd1b6378703a47b82c22179f", "fusion_lat": 0.0, "type": "electric_scooter", "lat": 38.93266416666667, "is_reserved": 0, "is_disabled": 0, "fusion_lon": 0.0, "bike_id": "902f24e7dd1b6378703a47b82c22179f", "lon": -77.0389325, "rental_uris": {"ios": "https://dc.lft.to/lastmile_qr_scan", "android": "https://dc.lft.to/lastmile_qr_scan"}}, {"name": "b223102a37fc622fb6390d3572283f3d", "fusion_lat": 0.0, "type": "electric_scooter", "lat": 38.910469, "is_reserved": 0, "is_disabled": 0, "fusion_lon": 0.0, "bike_id": "b223102a37fc622fb6390d3572283f3d", "lon": -77.04370116666666, "rental_uris": {"ios": "https://dc.lft.to/lastmile_qr_scan", "android": "https://dc.lft.to/lastmile_qr_scan"}}, {"name": "708249e0f5789b7ab94f3db17eb8765b", "fusion_lat": 0.0, "type": "electric_scooter", "lat": 38.90418483333333, "is_reserved": 0, "is_disabled": 0, "fusion_lon": 0.0, "bike_id": "708249e0f5789b7ab94f3db17eb8765b", "lon": -76.97890716666667, "rental_uris": {"ios": "https://dc.lft.to/lastmile_qr_scan", "android": "https://dc.lft.to/lastmile_qr_scan"}}, {"name": "ff7760c11a092555c8481e18e39b882e", "fusion_lat": 0.0, "type": "electric_bike", "lat": 38.87235866666666, "is_reserved": 0, "is_disabled": 0, "fusion_lon": 0.0, "bike_id": "ff7760c11a092555c8481e18e39b882e", "lon": -77.01160283333333, "rental_uris": {"ios": "https://dc.lft.to/lastmile_qr_scan", "android": "https://dc.lft.to/lastmile_qr_scan"}}, {"name": "33d22dbbb1658da8b7413b6762fa1f17", "fusion_lat": 0.0, "type": "electric_scooter", "lat": 38.9028865, "is_reserved": 0, "is_disabled": 0, "fusion_lon": 0.0, "bike_id": "33d22dbbb1658da8b7413b6762fa1f17", "lon": -77.03877516666667, "rental_uris": {"ios": "https://dc.lft.to/lastmile_qr_scan", "android": "https://dc.lft.to/lastmile_qr_scan"}}, {"name": "bf2e7aeed44a774a59f9f940bed6d514", "fusion_lat": 0.0, "type": "electric_scooter", "lat": 38.92008233333333, "is_reserved": 0, "is_disabled": 0, "fusion_lon": 0.0, "bike_id": "bf2e7aeed44a774a59f9f940bed6d514", "lon": -77.03172266666667, "rental_uris": {"ios": "https://dc.lft.to/lastmile_qr_scan", "android": "https://dc.lft.to/lastmile_qr_scan"}}, {"name": "e901cee8bb01e37b1f5a48a83a1d1869", "fusion_lat": 0.0, "type": "electric_scooter", "lat": 38.905494833333336, "is_reserved": 0, "is_disabled": 0, "fusion_lon": 0.0, "bike_id": "e901cee8bb01e37b1f5a48a83a1d1869", "lon": -77.05028716666666, "rental_uris": {"ios": "https://dc.lft.to/lastmile_qr_scan", "android": "https://dc.lft.to/lastmile_qr_scan"}}, {"name": "b852eb539f505d39b14e0be6beb613bf", "fusion_lat": 0.0, "type": "electric_bike", "lat": 38.99454383333333, "is_reserved": 0, "is_disabled": 0, "fusion_lon": 0.0, "bike_id": "b852eb539f505d39b14e0be6beb613bf", "lon": -76.9081545, "rental_uris": {"ios": "https://dc.lft.to/lastmile_qr_scan", "android": "https://dc.lft.to/lastmile_qr_scan"}}, {"name": "e7a6d98b1f6fff0bceb60eb8d3596b2a", "fusion_lat": 0.0, "type": "electric_scooter", "lat": 38.884011666666666, "is_reserved": 0, "is_disabled": 0, "fusion_lon": 0.0, "bike_id": "e7a6d98b1f6fff0bceb60eb8d3596b2a", "lon": -77.01761016666667, "rental_uris": {"ios": "https://dc.lft.to/lastmile_qr_scan", "android": "https://dc.lft.to/lastmile_qr_scan"}}, {"name": "11f3124b591de338760417bf5cc8af82", "fusion_lat": 0.0, "type": "electric_scooter", "lat": 38.898773, "is_reserved": 0, "is_disabled": 0, "fusion_lon": 0.0, "bike_id": "11f3124b591de338760417bf5cc8af82", "lon": -77.01979766666666, "rental_uris": {"ios": "https://dc.lft.to/lastmile_qr_scan", "android": "https://dc.lft.to/lastmile_qr_scan"}}, {"name": "50c3f7a6407bc535efc91166b2aeeb54", "fusion_lat": 0.0, "type": "electric_scooter", "lat": 38.907447, "is_reserved": 0, "is_disabled": 0, "fusion_lon": 0.0, "bike_id": "50c3f7a6407bc535efc91166b2aeeb54", "lon": -77.00342933333333, "rental_uris": {"ios": "https://dc.lft.to/lastmile_qr_scan", "android": "https://dc.lft.to/lastmile_qr_scan"}}, {"name": "3bbc46964cff95b053ffd92ab646a5ca", "fusion_lat": 0.0, "type": "electric_scooter", "lat": 38.885328333333334, "is_reserved": 0, "is_disabled": 0, "fusion_lon": 0.0, "bike_id": "3bbc46964cff95b053ffd92ab646a5ca", "lon": -76.99824916666667, "rental_uris": {"ios": "https://dc.lft.to/lastmile_qr_scan", "android": "https://dc.lft.to/lastmile_qr_scan"}}, {"name": "d257b760e822597426ba916fcdb9ddea", "fusion_lat": 0.0, "type": "electric_scooter", "lat": 38.85926283333333, "is_reserved": 0, "is_disabled": 0, "fusion_lon": 0.0, "bike_id": "d257b760e822597426ba916fcdb9ddea", "lon": -76.9897455, "rental_uris": {"ios": "https://dc.lft.to/lastmile_qr_scan", "android": "https://dc.lft.to/lastmile_qr_scan"}}, {"name": "cf6626a12072addabb29f3349af84603", "fusion_lat": 0.0, "type": "electric_scooter", "lat": 38.90083383333333, "is_reserved": 0, "is_disabled": 0, "fusion_lon": 0.0, "bike_id": "cf6626a12072addabb29f3349af84603", "lon": -77.03185533333334, "rental_uris": {"ios": "https://dc.lft.to/lastmile_qr_scan", "android": "https://dc.lft.to/lastmile_qr_scan"}}, {"name": "ac249c920c2bedb369dc1b15e149fa72", "fusion_lat": 0.0, "type": "electric_scooter", "lat": 38.92188316666667, "is_reserved": 0, "is_disabled": 0, "fusion_lon": 0.0, "bike_id": "ac249c920c2bedb369dc1b15e149fa72", "lon": -77.04009383333333, "rental_uris": {"ios": "https://dc.lft.to/lastmile_qr_scan", "android": "https://dc.lft.to/lastmile_qr_scan"}}, {"name": "113a9cdbd293f250efaa6317fea9c9e8", "fusion_lat": 0.0, "type": "electric_scooter", "lat": 38.91070166666667, "is_reserved": 0, "is_disabled": 0, "fusion_lon": 0.0, "bike_id": "113a9cdbd293f250efaa6317fea9c9e8", "lon": -77.06710083333333, "rental_uris": {"ios": "https://dc.lft.to/lastmile_qr_scan", "android": "https://dc.lft.to/lastmile_qr_scan"}}, {"name": "38b42af8cfdda927e81ac059da5e4f9d", "fusion_lat": 0.0, "type": "electric_scooter", "lat": 38.915647666666665, "is_reserved": 0, "is_disabled": 0, "fusion_lon": 0.0, "bike_id": "38b42af8cfdda927e81ac059da5e4f9d", "lon": -77.04705516666667, "rental_uris": {"ios": "https://dc.lft.to/lastmile_qr_scan", "android": "https://dc.lft.to/lastmile_qr_scan"}}, {"name": "db976aebee14eb2919b8c21429ffcd64", "fusion_lat": 0.0, "type": "electric_scooter", "lat": 38.957315333333334, "is_reserved": 0, "is_disabled": 0, "fusion_lon": 0.0, "bike_id": "db976aebee14eb2919b8c21429ffcd64", "lon": -77.02403783333334, "rental_uris": {"ios": "https://dc.lft.to/lastmile_qr_scan", "android": "https://dc.lft.to/lastmile_qr_scan"}}, {"name": "d182ab6373ed47f7611d960b31dbd5c7", "fusion_lat": 0.0, "type": "electric_scooter", "lat": 38.905046, "is_reserved": 0, "is_disabled": 0, "fusion_lon": 0.0, "bike_id": "d182ab6373ed47f7611d960b31dbd5c7", "lon": -77.0270555, "rental_uris": {"ios": "https://dc.lft.to/lastmile_qr_scan", "android": "https://dc.lft.to/lastmile_qr_scan"}}, {"name": "efb8f7114591762765574161ed4574f8", "fusion_lat": 0.0, "type": "electric_scooter", "lat": 38.942950333333336, "is_reserved": 0, "is_disabled": 0, "fusion_lon": 0.0, "bike_id": "efb8f7114591762765574161ed4574f8", "lon": -77.02168016666667, "rental_uris": {"ios": "https://dc.lft.to/lastmile_qr_scan", "android": "https://dc.lft.to/lastmile_qr_scan"}}, {"name": "64d458f63cee639058741983a9b3bd85", "fusion_lat": 0.0, "type": "electric_scooter", "lat": 38.90964683333333, "is_reserved": 0, "is_disabled": 0, "fusion_lon": 0.0, "bike_id": "64d458f63cee639058741983a9b3bd85", "lon": -77.03880616666666, "rental_uris": {"ios": "https://dc.lft.to/lastmile_qr_scan", "android": "https://dc.lft.to/lastmile_qr_scan"}}, {"name": "d3c700811f63e7361b3856a8b95220c8", "fusion_lat": 0.0, "type": "electric_bike", "lat": 38.8922115, "is_reserved": 0, "is_disabled": 0, "fusion_lon": 0.0, "bike_id": "d3c700811f63e7361b3856a8b95220c8", "lon": -77.10780383333334, "rental_uris": {"ios": "https://dc.lft.to/lastmile_qr_scan", "android": "https://dc.lft.to/lastmile_qr_scan"}}, {"name": "f8b454919486dbf9ec83d2be684cd745", "fusion_lat": 0.0, "type": "electric_scooter", "lat": 38.872971166666666, "is_reserved": 0, "is_disabled": 0, "fusion_lon": 0.0, "bike_id": "f8b454919486dbf9ec83d2be684cd745", "lon": -77.00985416666667, "rental_uris": {"ios": "https://dc.lft.to/lastmile_qr_scan", "android": "https://dc.lft.to/lastmile_qr_scan"}}, {"name": "490966c33a6833d72fc6855216e273af", "fusion_lat": 0.0, "type": "electric_scooter", "lat": 38.891936666666666, "is_reserved": 0, "is_disabled": 0, "fusion_lon": 0.0, "bike_id": "490966c33a6833d72fc6855216e273af", "lon": -77.01584383333334, "rental_uris": {"ios": "https://dc.lft.to/lastmile_qr_scan", "android": "https://dc.lft.to/lastmile_qr_scan"}}, {"name": "14a595729b892a27c0d69cd780a39125", "fusion_lat": 0.0, "type": "electric_scooter", "lat": 38.911401, "is_reserved": 0, "is_disabled": 0, "fusion_lon": 0.0, "bike_id": "14a595729b892a27c0d69cd780a39125", "lon": -77.04195416666667, "rental_uris": {"ios": "https://dc.lft.to/lastmile_qr_scan", "android": "https://dc.lft.to/lastmile_qr_scan"}}, {"name": "78ad7e3264f1b92f7704d8445a25bb82", "fusion_lat": 0.0, "type": "electric_scooter", "lat": 38.909223833333336, "is_reserved": 0, "is_disabled": 0, "fusion_lon": 0.0, "bike_id": "78ad7e3264f1b92f7704d8445a25bb82", "lon": -77.04171716666667, "rental_uris": {"ios": "https://dc.lft.to/lastmile_qr_scan", "android": "https://dc.lft.to/lastmile_qr_scan"}}, {"name": "4200e6f1bf87d2f4806beaefa4454746", "fusion_lat": 0.0, "type": "electric_scooter", "lat": 38.932513166666666, "is_reserved": 0, "is_disabled": 0, "fusion_lon": 0.0, "bike_id": "4200e6f1bf87d2f4806beaefa4454746", "lon": -77.028481, "rental_uris": {"ios": "https://dc.lft.to/lastmile_qr_scan", "android": "https://dc.lft.to/lastmile_qr_scan"}}, {"name": "02886e175e92e86e939d4a0f033c75ac", "fusion_lat": 0.0, "type": "electric_scooter", "lat": 38.931919666666666, "is_reserved": 0, "is_disabled": 0, "fusion_lon": 0.0, "bike_id": "02886e175e92e86e939d4a0f033c75ac", "lon": -77.02835466666667, "rental_uris": {"ios": "https://dc.lft.to/lastmile_qr_scan", "android": "https://dc.lft.to/lastmile_qr_scan"}}, {"name": "a17dc32299330a2fc1684a87bbeeff50", "fusion_lat": 0.0, "type": "electric_scooter", "lat": 38.917045, "is_reserved": 0, "is_disabled": 0, "fusion_lon": 0.0, "bike_id": "a17dc32299330a2fc1684a87bbeeff50", "lon": -77.033499, "rental_uris": {"ios": "https://dc.lft.to/lastmile_qr_scan", "android": "https://dc.lft.to/lastmile_qr_scan"}}, {"name": "99e123f00422668e52b15a3583004bd7", "fusion_lat": 0.0, "type": "electric_scooter", "lat": 38.96177, "is_reserved": 0, "is_disabled": 0, "fusion_lon": 0.0, "bike_id": "99e123f00422668e52b15a3583004bd7", "lon": -77.03227983333333, "rental_uris": {"ios": "https://dc.lft.to/lastmile_qr_scan", "android": "https://dc.lft.to/lastmile_qr_scan"}}, {"name": "9ea6c6c4d09903f57deb77badc7bdc1e", "fusion_lat": 0.0, "type": "electric_scooter", "lat": 38.90390816666667, "is_reserved": 0, "is_disabled": 0, "fusion_lon": 0.0, "bike_id": "9ea6c6c4d09903f57deb77badc7bdc1e", "lon": -77.04626666666667, "rental_uris": {"ios": "https://dc.lft.to/lastmile_qr_scan", "android": "https://dc.lft.to/lastmile_qr_scan"}}, {"name": "d3c6f974e0b1b4ad3a05e755d167a7a4", "fusion_lat": 0.0, "type": "electric_scooter", "lat": 38.92019533333333, "is_reserved": 0, "is_disabled": 0, "fusion_lon": 0.0, "bike_id": "d3c6f974e0b1b4ad3a05e755d167a7a4", "lon": -77.03472466666666, "rental_uris": {"ios": "https://dc.lft.to/lastmile_qr_scan", "android": "https://dc.lft.to/lastmile_qr_scan"}}, {"name": "3fe4b91be839e9b2a5aac0f9a3f978c5", "fusion_lat": 0.0, "type": "electric_bike", "lat": 38.850628, "is_reserved": 0, "is_disabled": 0, "fusion_lon": 0.0, "bike_id": "3fe4b91be839e9b2a5aac0f9a3f978c5", "lon": -76.973265, "rental_uris": {"ios": "https://dc.lft.to/lastmile_qr_scan", "android": "https://dc.lft.to/lastmile_qr_scan"}}, {"name": "2887dff7c07ca8f4b6dc0aa484053f1f", "fusion_lat": 0.0, "type": "electric_scooter", "lat": 38.89609983333333, "is_reserved": 0, "is_disabled": 0, "fusion_lon": 0.0, "bike_id": "2887dff7c07ca8f4b6dc0aa484053f1f", "lon": -77.046842, "rental_uris": {"ios": "https://dc.lft.to/lastmile_qr_scan", "android": "https://dc.lft.to/lastmile_qr_scan"}}, {"name": "d01bc4f4c0b1d1099a4e4d891b3b6c57", "fusion_lat": 0.0, "type": "electric_scooter", "lat": 38.90604366666667, "is_reserved": 0, "is_disabled": 0, "fusion_lon": 0.0, "bike_id": "d01bc4f4c0b1d1099a4e4d891b3b6c57", "lon": -77.04670483333334, "rental_uris": {"ios": "https://dc.lft.to/lastmile_qr_scan", "android": "https://dc.lft.to/lastmile_qr_scan"}}, {"name": "ea7e4d269352f03cc46c125b7cd46f10", "fusion_lat": 0.0, "type": "electric_scooter", "lat": 38.92352183333333, "is_reserved": 0, "is_disabled": 0, "fusion_lon": 0.0, "bike_id": "ea7e4d269352f03cc46c125b7cd46f10", "lon": -77.03544783333334, "rental_uris": {"ios": "https://dc.lft.to/lastmile_qr_scan", "android": "https://dc.lft.to/lastmile_qr_scan"}}, {"name": "8b34a9117d89d7f0742e99144fcd2f1b", "fusion_lat": 0.0, "type": "electric_scooter", "lat": 38.92007066666667, "is_reserved": 0, "is_disabled": 0, "fusion_lon": 0.0, "bike_id": "8b34a9117d89d7f0742e99144fcd2f1b", "lon": -76.984965, "rental_uris": {"ios": "https://dc.lft.to/lastmile_qr_scan", "android": "https://dc.lft.to/lastmile_qr_scan"}}, {"name": "0f74f467c712a25aa463aa4ea6959fac", "fusion_lat": 0.0, "type": "electric_bike", "lat": 38.89471183333333, "is_reserved": 0, "is_disabled": 0, "fusion_lon": 0.0, "bike_id": "0f74f467c712a25aa463aa4ea6959fac", "lon": -77.046579, "rental_uris": {"ios": "https://dc.lft.to/lastmile_qr_scan", "android": "https://dc.lft.to/lastmile_qr_scan"}}, {"name": "fdd248f310a8f0d2056c16bf723793b9", "fusion_lat": 0.0, "type": "electric_scooter", "lat": 38.9000935, "is_reserved": 0, "is_disabled": 0, "fusion_lon": 0.0, "bike_id": "fdd248f310a8f0d2056c16bf723793b9", "lon": -77.007031, "rental_uris": {"ios": "https://dc.lft.to/lastmile_qr_scan", "android": "https://dc.lft.to/lastmile_qr_scan"}}, {"name": "f3950cbce2a6499800af0b8fea2f7c47", "fusion_lat": 0.0, "type": "electric_scooter", "lat": 38.91808416666667, "is_reserved": 0, "is_disabled": 0, "fusion_lon": 0.0, "bike_id": "f3950cbce2a6499800af0b8fea2f7c47", "lon": -77.0317325, "rental_uris": {"ios": "https://dc.lft.to/lastmile_qr_scan", "android": "https://dc.lft.to/lastmile_qr_scan"}}, {"name": "652a012b31b0e7ffb5109ec8dff24542", "fusion_lat": 0.0, "type": "electric_scooter", "lat": 38.89997116666667, "is_reserved": 0, "is_disabled": 0, "fusion_lon": 0.0, "bike_id": "652a012b31b0e7ffb5109ec8dff24542", "lon": -76.98843133333334, "rental_uris": {"ios": "https://dc.lft.to/lastmile_qr_scan", "android": "https://dc.lft.to/lastmile_qr_scan"}}, {"name": "6fb626dc30f8c538d054ea05c699c381", "fusion_lat": 0.0, "type": "electric_scooter", "lat": 38.900386, "is_reserved": 0, "is_disabled": 0, "fusion_lon": 0.0, "bike_id": "6fb626dc30f8c538d054ea05c699c381", "lon": -77.00631933333334, "rental_uris": {"ios": "https://dc.lft.to/lastmile_qr_scan", "android": "https://dc.lft.to/lastmile_qr_scan"}}, {"name": "53cf98535fc09d81af7e03956483f017", "fusion_lat": 0.0, "type": "electric_bike", "lat": 38.94975216666667, "is_reserved": 0, "is_disabled": 0, "fusion_lon": 0.0, "bike_id": "53cf98535fc09d81af7e03956483f017", "lon": -76.9728255, "rental_uris": {"ios": "https://dc.lft.to/lastmile_qr_scan", "android": "https://dc.lft.to/lastmile_qr_scan"}}, {"name": "00ddebf60983f63d7f1597fc7ac42e52", "fusion_lat": 0.0, "type": "electric_bike", "lat": 38.875535666666664, "is_reserved": 0, "is_disabled": 0, "fusion_lon": 0.0, "bike_id": "00ddebf60983f63d7f1597fc7ac42e52", "lon": -76.967537, "rental_uris": {"ios": "https://dc.lft.to/lastmile_qr_scan", "android": "https://dc.lft.to/lastmile_qr_scan"}}, {"name": "cb7b9d4747a4d4aa103f0cf3d00bcc1b", "fusion_lat": 0.0, "type": "electric_scooter", "lat": 38.907380333333336, "is_reserved": 0, "is_disabled": 0, "fusion_lon": 0.0, "bike_id": "cb7b9d4747a4d4aa103f0cf3d00bcc1b", "lon": -77.04671566666667, "rental_uris": {"ios": "https://dc.lft.to/lastmile_qr_scan", "android": "https://dc.lft.to/lastmile_qr_scan"}}, {"name": "a168765f01744c0b33d7c830648c14a6", "fusion_lat": 0.0, "type": "electric_scooter", "lat": 38.901515, "is_reserved": 0, "is_disabled": 0, "fusion_lon": 0.0, "bike_id": "a168765f01744c0b33d7c830648c14a6", "lon": -77.04358183333333, "rental_uris": {"ios": "https://dc.lft.to/lastmile_qr_scan", "android": "https://dc.lft.to/lastmile_qr_scan"}}, {"name": "79b957c6f6322c011d47a93e03df6739", "fusion_lat": 0.0, "type": "electric_scooter", "lat": 38.92509283333333, "is_reserved": 0, "is_disabled": 0, "fusion_lon": 0.0, "bike_id": "79b957c6f6322c011d47a93e03df6739", "lon": -77.00225133333333, "rental_uris": {"ios": "https://dc.lft.to/lastmile_qr_scan", "android": "https://dc.lft.to/lastmile_qr_scan"}}, {"name": "97b5a0662cfbf0b9aa5a44307d32a8e2", "fusion_lat": 0.0, "type": "electric_scooter", "lat": 38.900383833333336, "is_reserved": 0, "is_disabled": 0, "fusion_lon": 0.0, "bike_id": "97b5a0662cfbf0b9aa5a44307d32a8e2", "lon": -77.02568, "rental_uris": {"ios": "https://dc.lft.to/lastmile_qr_scan", "android": "https://dc.lft.to/lastmile_qr_scan"}}, {"name": "b353e8c8271267c2875ee9d1c77b6b48", "fusion_lat": 0.0, "type": "electric_scooter", "lat": 38.93254683333333, "is_reserved": 0, "is_disabled": 0, "fusion_lon": 0.0, "bike_id": "b353e8c8271267c2875ee9d1c77b6b48", "lon": -77.04005716666667, "rental_uris": {"ios": "https://dc.lft.to/lastmile_qr_scan", "android": "https://dc.lft.to/lastmile_qr_scan"}}, {"name": "8f854dec55408387a851685c8cd83c20", "fusion_lat": 0.0, "type": "electric_scooter", "lat": 38.912865833333335, "is_reserved": 0, "is_disabled": 0, "fusion_lon": 0.0, "bike_id": "8f854dec55408387a851685c8cd83c20", "lon": -76.9379175, "rental_uris": {"ios": "https://dc.lft.to/lastmile_qr_scan", "android": "https://dc.lft.to/lastmile_qr_scan"}}, {"name": "ba9bc32e5a997cdc12479bf1d9660fb5", "fusion_lat": 0.0, "type": "electric_scooter", "lat": 38.926739, "is_reserved": 0, "is_disabled": 0, "fusion_lon": 0.0, "bike_id": "ba9bc32e5a997cdc12479bf1d9660fb5", "lon": -76.99535283333333, "rental_uris": {"ios": "https://dc.lft.to/lastmile_qr_scan", "android": "https://dc.lft.to/lastmile_qr_scan"}}, {"name": "7a7d37da8647e8ce59fb6eb06a5b37a7", "fusion_lat": 0.0, "type": "electric_scooter", "lat": 38.924849333333334, "is_reserved": 0, "is_disabled": 0, "fusion_lon": 0.0, "bike_id": "7a7d37da8647e8ce59fb6eb06a5b37a7", "lon": -77.02996933333333, "rental_uris": {"ios": "https://dc.lft.to/lastmile_qr_scan", "android": "https://dc.lft.to/lastmile_qr_scan"}}, {"name": "e82643cff58ba63108eb3af289f37f15", "fusion_lat": 0.0, "type": "electric_scooter", "lat": 38.9181745, "is_reserved": 0, "is_disabled": 0, "fusion_lon": 0.0, "bike_id": "e82643cff58ba63108eb3af289f37f15", "lon": -77.03204566666666, "rental_uris": {"ios": "https://dc.lft.to/lastmile_qr_scan", "android": "https://dc.lft.to/lastmile_qr_scan"}}, {"name": "3da41dad9e14584263752abfaa5fbaeb", "fusion_lat": 0.0, "type": "electric_scooter", "lat": 38.898342, "is_reserved": 0, "is_disabled": 0, "fusion_lon": 0.0, "bike_id": "3da41dad9e14584263752abfaa5fbaeb", "lon": -76.94644066666666, "rental_uris": {"ios": "https://dc.lft.to/lastmile_qr_scan", "android": "https://dc.lft.to/lastmile_qr_scan"}}, {"name": "cd7ed8f302a56ff3193d732304711223", "fusion_lat": 0.0, "type": "electric_scooter", "lat": 38.899847333333334, "is_reserved": 0, "is_disabled": 0, "fusion_lon": 0.0, "bike_id": "cd7ed8f302a56ff3193d732304711223", "lon": -77.03930633333333, "rental_uris": {"ios": "https://dc.lft.to/lastmile_qr_scan", "android": "https://dc.lft.to/lastmile_qr_scan"}}, {"name": "cec61e3d871b18c3d5ce33577bd95ae9", "fusion_lat": 0.0, "type": "electric_scooter", "lat": 38.925995, "is_reserved": 0, "is_disabled": 0, "fusion_lon": 0.0, "bike_id": "cec61e3d871b18c3d5ce33577bd95ae9", "lon": -77.008541, "rental_uris": {"ios": "https://dc.lft.to/lastmile_qr_scan", "android": "https://dc.lft.to/lastmile_qr_scan"}}, {"name": "12bd06a1823a510561f9635c123d3a83", "fusion_lat": 0.0, "type": "electric_scooter", "lat": 38.915541833333336, "is_reserved": 0, "is_disabled": 0, "fusion_lon": 0.0, "bike_id": "12bd06a1823a510561f9635c123d3a83", "lon": -77.03239716666667, "rental_uris": {"ios": "https://dc.lft.to/lastmile_qr_scan", "android": "https://dc.lft.to/lastmile_qr_scan"}}, {"name": "a0714ea8e9ffb3ada4573639d966a958", "fusion_lat": 0.0, "type": "electric_scooter", "lat": 38.93895283333333, "is_reserved": 0, "is_disabled": 0, "fusion_lon": 0.0, "bike_id": "a0714ea8e9ffb3ada4573639d966a958", "lon": -77.0175945, "rental_uris": {"ios": "https://dc.lft.to/lastmile_qr_scan", "android": "https://dc.lft.to/lastmile_qr_scan"}}, {"name": "ff7d5b4dacd95608d472749ef71c7696", "fusion_lat": 0.0, "type": "electric_bike", "lat": 38.8882095, "is_reserved": 0, "is_disabled": 0, "fusion_lon": 0.0, "bike_id": "ff7d5b4dacd95608d472749ef71c7696", "lon": -77.12740916666667, "rental_uris": {"ios": "https://dc.lft.to/lastmile_qr_scan", "android": "https://dc.lft.to/lastmile_qr_scan"}}, {"name": "d3bd53692f57aa2a044fda67bf355335", "fusion_lat": 0.0, "type": "electric_scooter", "lat": 38.90292216666667, "is_reserved": 0, "is_disabled": 0, "fusion_lon": 0.0, "bike_id": "d3bd53692f57aa2a044fda67bf355335", "lon": -77.046266, "rental_uris": {"ios": "https://dc.lft.to/lastmile_qr_scan", "android": "https://dc.lft.to/lastmile_qr_scan"}}, {"name": "f92aff1dabc29545bfe956fbdd3b48f2", "fusion_lat": 0.0, "type": "electric_scooter", "lat": 38.8997205, "is_reserved": 0, "is_disabled": 0, "fusion_lon": 0.0, "bike_id": "f92aff1dabc29545bfe956fbdd3b48f2", "lon": -77.03372183333333, "rental_uris": {"ios": "https://dc.lft.to/lastmile_qr_scan", "android": "https://dc.lft.to/lastmile_qr_scan"}}, {"name": "4b6cd3183cf76f96a4d302c3085aa45a", "fusion_lat": 0.0, "type": "electric_scooter", "lat": 38.930399, "is_reserved": 0, "is_disabled": 0, "fusion_lon": 0.0, "bike_id": "4b6cd3183cf76f96a4d302c3085aa45a", "lon": -77.083617, "rental_uris": {"ios": "https://dc.lft.to/lastmile_qr_scan", "android": "https://dc.lft.to/lastmile_qr_scan"}}, {"name": "8ebb30b25e0e99bb64930dbbc9b7c680", "fusion_lat": 0.0, "type": "electric_scooter", "lat": 38.88702683333333, "is_reserved": 0, "is_disabled": 0, "fusion_lon": 0.0, "bike_id": "8ebb30b25e0e99bb64930dbbc9b7c680", "lon": -77.02820433333333, "rental_uris": {"ios": "https://dc.lft.to/lastmile_qr_scan", "android": "https://dc.lft.to/lastmile_qr_scan"}},