{"data": {"bikes": [{"is_disabled": 0, "is_reserved": 0, "fusion_lat": 0.0, "lat": 38.93029883333333, "fusion_lon": 0.0, "rental_uris": {"ios": "https://dc.lft.to/lastmile_qr_scan", "android": "https://dc.lft.to/lastmile_qr_scan"}, "lon": -77.019958, "bike_id": "6bf6888dd39db6c3d40ec329d5a59d3f", "type": "electric_scooter", "name": "6bf6888dd39db6c3d40ec329d5a59d3f"}, {"is_disabled": 0, "is_reserved": 0, "fusion_lat": 0.0, "lat": 38.95594783333333, "fusion_lon": 0.0, "rental_uris": {"ios": "https://dc.lft.to/lastmile_qr_scan", "android": "https://dc.lft.to/lastmile_qr_scan"}, "lon": -77.01017866666666, "bike_id": "d2a9c3c847524bcb830dea5b0bd4d8ac", "type": "electric_bike", "name": "d2a9c3c847524bcb830dea5b0bd4d8ac"}, {"is_disabled": 0, "is_reserved": 0, "fusion_lat": 0.0, "lat": 39.034769, "fusion_lon": 0.0, "rental_uris": {"ios": "https://dc.lft.to/lastmile_qr_scan", "android": "https://dc.lft.to/lastmile_qr_scan"}, "lon": -77.04105466666667, "bike_id": "afbccec96029cfc1ccf28eb3db6d01f2", "type": "electric_bike", "name": "afbccec96029cfc1ccf28eb3db6d01f2"}, {"is_disabled": 0, "is_reserved": 0, "fusion_lat": 0.0, "lat": 38.880052, "fusion_lon": 0.0, "rental_uris": {"ios": "https://dc.lft.to/lastmile_qr_scan", "android": "https://dc.lft.to/lastmile_qr_scan"}, "lon": -76.9983455, "bike_id": "5aa2d98fd905c59cb07eceb86a4b128e", "type": "electric_scooter", "name": "5aa2d98fd905c59cb07eceb86a4b128e"}, {"is_disabled": 0, "is_reserved": 0, "fusion_lat": 0.0, "lat": 38.890017666666665, "fusion_lon": 0.0, "rental_uris": {"ios": "https://dc.lft.to/lastmile_qr_scan", "android": "https://dc.lft.to/lastmile_qr_scan"}, "lon": -77.04900983333333, "bike_id": "9b65d59aa6b28ce3e914ee2d1121790b", "type": "electric_scooter", "name": "9b65d59aa6b28ce3e914ee2d1121790b"}, {"is_disabled": 0, "is_reserved": 0, "fusion_lat": 0.0, "lat": 38.921008666666665, "fusion_lon": 0.0, "rental_uris": {"ios": "https://dc.lft.to/lastmile_qr_scan", "android": "https://dc.lft.to/lastmile_qr_scan"}, "lon": -77.02092933333333, "bike_id": "6d06a98dbafcaf56b6cc704fb97a060a", "type": "electric_scooter", "name": "6d06a98dbafcaf56b6cc704fb97a060a"}, {"is_disabled": 0, "is_reserved": 0, "fusion_lat": 0.0, "lat": 38.8993015, "fusion_lon": 0.0, "rental_uris": {"ios": "https://dc.lft.to/lastmile_qr_scan", "android": "https://dc.lft.to/lastmile_qr_scan"}, "lon": -76.9376425, "bike_id": "226005e5e9e31198d5073489a2931f84", "type": "electric_scooter", "name": "226005e5e9e31198d5073489a2931f84"}, {"is_disabled": 0, "is_reserved": 0, "fusion_lat": 0.0, "lat": 38.910385, "fusion_lon": 0.0, "rental_uris": {"ios": "https://dc.lft.to/lastmile_qr_scan", "android": "https://dc.lft.to/lastmile_qr_scan"}, "lon": -76.93838366666667, "bike_id": "cf2620262fd50d0d9cb3470b1006795a", "type": "electric_scooter", "name": "cf2620262fd50d0d9cb3470b1006795a"}, {"is_disabled": 0, "is_reserved": 0, "fusion_lat": 0.0, "lat": 38.89546416666666, "fusion_lon": 0.0, "rental_uris": {"ios": "https://dc.lft.to/lastmile_qr_scan", "android": "https://dc.lft.to/lastmile_qr_scan"}, "lon": -77.0091615, "bike_id": "badebc9dfea19195342c87b7a51d4334", "type": "electric_scooter", "name": "badebc9dfea19195342c87b7a51d4334"}, {"is_disabled": 0, "is_reserved": 0, "fusion_lat": 0.0, "lat": 38.8963295, "fusion_lon": 0.0, "rental_uris": {"ios": "https://dc.lft.to/lastmile_qr_scan", "android": "https://dc.lft.to/lastmile_qr_scan"}, "lon": -76.9296525, "bike_id": "bb3f8ebdbabd8302b46d849b1f6d29de", "type": "electric_scooter", "name": "bb3f8ebdbabd8302b46d849b1f6d29de"}, {"is_disabled": 0, "is_reserved": 0, "fusion_lat": 0.0, "lat": 38.9018155, "fusion_lon": 0.0, "rental_uris": {"ios": "https://dc.lft.to/lastmile_qr_scan", "android": "https://dc.lft.to/lastmile_qr_scan"}, "lon": -76.9767065, "bike_id": "3d576a0d4280fe1f77c89bb7c8440a38", "type": "electric_scooter", "name": "3d576a0d4280fe1f77c89bb7c8440a38"}, {"is_disabled": 0, "is_reserved": 0, "fusion_lat": 0.0, "lat": 38.95783566666667, "fusion_lon": 0.0, "rental_uris": {"ios": "https://dc.lft.to/lastmile_qr_scan", "android": "https://dc.lft.to/lastmile_qr_scan"}, "lon": -77.02462066666666, "bike_id": "f00e69d97247931fca8191baee8659b6", "type": "electric_scooter", "name": "f00e69d97247931fca8191baee8659b6"}, {"is_disabled": 0, "is_reserved": 0, "fusion_lat": 0.0, "lat": 38.906391666666664, "fusion_lon": 0.0, "rental_uris": {"ios": "https://dc.lft.to/lastmile_qr_scan", "android": "https://dc.lft.to/lastmile_qr_scan"}, "lon": -77.06907166666667, "bike_id": "4c67a4cf1f5a9b591f9ff63e04c82379", "type": "electric_scooter", "name": "4c67a4cf1f5a9b591f9ff63e04c82379"}, {"is_disabled": 0, "is_reserved": 0, "fusion_lat": 0.0, "lat": 38.89425633333333, "fusion_lon": 0.0, "rental_uris": {"ios": "https://dc.lft.to/lastmile_qr_scan", "android": "https://dc.lft.to/lastmile_qr_scan"}, "lon": -77.05596766666666, "bike_id": "bcf0075c7cff0e063b4f38d6c968ada1", "type": "electric_scooter", "name": "bcf0075c7cff0e063b4f38d6c968ada1"}, {"is_disabled": 0, "is_reserved": 0, "fusion_lat": 0.0, "lat": 38.92314116666667, "fusion_lon": 0.0, "rental_uris": {"ios": "https://dc.lft.to/lastmile_qr_scan", "android": "https://dc.lft.to/lastmile_qr_scan"}, "lon": -77.04511033333333, "bike_id": "c51d8f83127e3e9839b528daf25e384d", "type": "electric_scooter", "name": "c51d8f83127e3e9839b528daf25e384d"}, {"is_disabled": 0, "is_reserved": 0, "fusion_lat": 0.0, "lat": 38.911118333333334, "fusion_lon": 0.0, "rental_uris": {"ios": "https://dc.lft.to/lastmile_qr_scan", "android": "https://dc.lft.to/lastmile_qr_scan"}, "lon": -77.011144, "bike_id": "a7dc281b14024aea9d11d31498b1983d", "type": "electric_scooter", "name": "a7dc281b14024aea9d11d31498b1983d"}, {"is_disabled": 0, "is_reserved": 0, "fusion_lat": 0.0, "lat": 38.90716333333334, "fusion_lon": 0.0, "rental_uris": {"ios": "https://dc.lft.to/lastmile_qr_scan", "android": "https://dc.lft.to/lastmile_qr_scan"}, "lon": -77.029789, "bike_id": "de6377f23aa9e2afe4b6dac66e079b8c", "type": "electric_scooter", "name": "de6377f23aa9e2afe4b6dac66e079b8c"}, {"is_disabled": 0, "is_reserved": 0, "fusion_lat": 0.0, "lat": 38.92535933333333, "fusion_lon": 0.0, "rental_uris": {"ios": "https://dc.lft.to/lastmile_qr_scan", "android": "https://dc.lft.to/lastmile_qr_scan"}, "lon": -77.03245216666667, "bike_id": "755a66652309b6aa44e76533fc3c0164", "type": "electric_scooter", "name": "755a66652309b6aa44e76533fc3c0164"}, {"is_disabled": 0, "is_reserved": 0, "fusion_lat": 0.0, "lat": 38.9191305, "fusion_lon": 0.0, "rental_uris": {"ios": "https://dc.lft.to/lastmile_qr_scan", "android": "https://dc.lft.to/lastmile_qr_scan"}, "lon": -77.03443466666667, "bike_id": "e62949d0eef9ba69ad57e61f11999aae", "type": "electric_scooter", "name": "e62949d0eef9ba69ad57e61f11999aae"}, {"is_disabled": 0, "is_reserved": 0, "fusion_lat": 0.0, "lat": 38.93466883333333, "fusion_lon": 0.0, "rental_uris": {"ios": "https://dc.lft.to/lastmile_qr_scan", "android": "https://dc.lft.to/lastmile_qr_scan"}, "lon": -77.0360695, "bike_id": "30eff4039e93d6e8f3cf795a258a7af4", "type": "electric_scooter", "name": "30eff4039e93d6e8f3cf795a258a7af4"}, {"is_disabled": 0, "is_reserved": 0, "fusion_lat": 0.0, "lat": 38.95238283333333, "fusion_lon": 0.0, "rental_uris": {"ios": "https://dc.lft.to/lastmile_qr_scan", "android": "https://dc.lft.to/lastmile_qr_scan"}, "lon": -76.97949633333333, "bike_id": "f55215895f3483a626c750b3970c90b1", "type": "electric_bike", "name": "f55215895f3483a626c750b3970c90b1"}, {"is_disabled": 0, "is_reserved": 0, "fusion_lat": 0.0, "lat": 38.91705283333334, "fusion_lon": 0.0, "rental_uris": {"ios": "https://dc.lft.to/lastmile_qr_scan", "android": "https://dc.lft.to/lastmile_qr_scan"}, "lon": -77.00516066666667, "bike_id": "7f609f9f7a58b32e994d61d4dd19f92c", "type": "electric_scooter", "name": "7f609f9f7a58b32e994d61d4dd19f92c"}, {"is_disabled": 0, "is_reserved": 0, "fusion_lat": 0.0, "lat": 38.896896166666664, "fusion_lon": 0.0, "rental_uris": {"ios": "https://dc.lft.to/lastmile_qr_scan", "android": "https://dc.lft.to/lastmile_qr_scan"}, "lon": -77.04328966666667, "bike_id": "eae65d5b1c05f62d45a76950f532af12", "type": "electric_scooter", "name": "eae65d5b1c05f62d45a76950f532af12"}, {"is_disabled": 0, "is_reserved": 0, "fusion_lat": 0.0, "lat": 38.905633, "fusion_lon": 0.0, "rental_uris": {"ios": "https://dc.lft.to/lastmile_qr_scan", "android": "https://dc.lft.to/lastmile_qr_scan"}, "lon": -77.02751466666666, "bike_id": "6406ff89d565d0a8016f57dc1034a976", "type": "electric_scooter", "name": "6406ff89d565d0a8016f57dc1034a976"}, {"is_disabled": 0, "is_reserved": 0, "fusion_lat": 0.0, "lat": 38.92234166666667, "fusion_lon": 0.0, "rental_uris": {"ios": "https://dc.lft.to/lastmile_qr_scan", "android": "https://dc.lft.to/lastmile_qr_scan"}, "lon": -77.03883783333333, "bike_id": "4734e8849b099ac8a016da18fdcfb38d", "type": "electric_scooter", "name": "4734e8849b099ac8a016da18fdcfb38d"}, {"is_disabled": 0, "is_reserved": 0, "fusion_lat": 0.0, "lat": 38.8814275, "fusion_lon": 0.0, "rental_uris": {"ios": "https://dc.lft.to/lastmile_qr_scan", "android": "https://dc.lft.to/lastmile_qr_scan"}, "lon": -77.01307733333333, "bike_id": "801f65243ea8f89ece9baa05b9bb5b5a", "type": "electric_scooter", "name": "801f65243ea8f89ece9baa05b9bb5b5a"}, {"is_disabled": 0, "is_reserved": 0, "fusion_lat": 0.0, "lat": 38.89637583333333, "fusion_lon": 0.0, "rental_uris": {"ios": "https://dc.lft.to/lastmile_qr_scan", "android": "https://dc.lft.to/lastmile_qr_scan"}, "lon": -76.9392955, "bike_id": "aa9aabb6e517053d9d91a1f0cc2755f2", "type": "electric_scooter", "name": "aa9aabb6e517053d9d91a1f0cc2755f2"}, {"is_disabled": 0, "is_reserved": 0, "fusion_lat": 0.0, "lat": 38.898279, "fusion_lon": 0.0, "rental_uris": {"ios": "https://dc.lft.to/lastmile_qr_scan", "android": "https://dc.lft.to/lastmile_qr_scan"}, "lon": -77.04652933333334, "bike_id": "d7035184e5090a73547f37305e270285", "type": "electric_scooter", "name": "d7035184e5090a73547f37305e270285"}, {"is_disabled": 0, "is_reserved": 0, "fusion_lat": 0.0, "lat": 38.95068933333334, "fusion_lon": 0.0, "rental_uris": {"ios": "https://dc.lft.to/lastmile_qr_scan", "android": "https://dc.lft.to/lastmile_qr_scan"}, "lon": -76.996018, "bike_id": "b66da71077819b9b2f9a85742913fe4b", "type": "electric_bike", "name": "b66da71077819b9b2f9a85742913fe4b"}, {"is_disabled": 0, "is_reserved": 0, "fusion_lat": 0.0, "lat": 38.9533055, "fusion_lon": 0.0, "rental_uris": {"ios": "https://dc.lft.to/lastmile_qr_scan", "android": "https://dc.lft.to/lastmile_qr_scan"}, "lon": -76.98253966666667, "bike_id": "dfd0aeff7c16f5a602a6e7f111b99130", "type": "electric_bike", "name": "dfd0aeff7c16f5a602a6e7f111b99130"}, {"is_disabled": 0, "is_reserved": 0, "fusion_lat": 0.0, "lat": 38.897471833333334, "fusion_lon": 0.0, "rental_uris": {"ios": "https://dc.lft.to/lastmile_qr_scan", "android": "https://dc.lft.to/lastmile_qr_scan"}, "lon": -77.05487, "bike_id": "4b8b51fe56fe529607d3893ae6658830", "type": "electric_scooter", "name": "4b8b51fe56fe529607d3893ae6658830"}, {"is_disabled": 0, "is_reserved": 0, "fusion_lat": 0.0, "lat": 38.909585166666666, "fusion_lon": 0.0, "rental_uris": {"ios": "https://dc.lft.to/lastmile_qr_scan", "android": "https://dc.lft.to/lastmile_qr_scan"}, "lon": -77.022142, "bike_id": "3006e847e4c5f874b7b8141c03077217", "type": "electric_scooter", "name": "3006e847e4c5f874b7b8141c03077217"}, {"is_disabled": 0, "is_reserved": 0, "fusion_lat": 0.0, "lat": 38.918786, "fusion_lon": 0.0, "rental_uris": {"ios": "https://dc.lft.to/lastmile_qr_scan", "android": "https://dc.lft.to/lastmile_qr_scan"}, "lon": -77.04176783333334, "bike_id": "9e538223a03e053accf40451b2486402", "type": "electric_scooter", "name": "9e538223a03e053accf40451b2486402"}, {"is_disabled": 0, "is_reserved": 0, "fusion_lat": 0.0, "lat": 38.914506833333334, "fusion_lon": 0.0, "rental_uris": {"ios": "https://dc.lft.to/lastmile_qr_scan", "android": "https://dc.lft.to/lastmile_qr_scan"}, "lon": -77.0088875, "bike_id": "421870b80f8015c7eaa1723dfe6304c8", "type": "electric_scooter", "name": "421870b80f8015c7eaa1723dfe6304c8"}, {"is_disabled": 0, "is_reserved": 0, "fusion_lat": 0.0, "lat": 38.918133166666664, "fusion_lon": 0.0, "rental_uris": {"ios": "https://dc.lft.to/lastmile_qr_scan", "android": "https://dc.lft.to/lastmile_qr_scan"}, "lon": -77.02709933333334, "bike_id": "4257a660160830fa4c55f428266afefd", "type": "electric_scooter", "name": "4257a660160830fa4c55f428266afefd"}, {"is_disabled": 0, "is_reserved": 0, "fusion_lat": 0.0, "lat": 38.876427, "fusion_lon": 0.0, "rental_uris": {"ios": "https://dc.lft.to/lastmile_qr_scan", "android": "https://dc.lft.to/lastmile_qr_scan"}, "lon": -77.00892533333334, "bike_id": "dfc20fe2f26aa6bdfea98f966749df7f", "type": "electric_scooter", "name": "dfc20fe2f26aa6bdfea98f966749df7f"}, {"is_disabled": 0, "is_reserved": 0, "fusion_lat": 0.0, "lat": 38.923067, "fusion_lon": 0.0, "rental_uris": {"ios": "https://dc.lft.to/lastmile_qr_scan", "android": "https://dc.lft.to/lastmile_qr_scan"}, "lon": -77.0340755, "bike_id": "bbe6d59eaa1c5766fdbaddc645309e96", "type": "electric_scooter", "name": "bbe6d59eaa1c5766fdbaddc645309e96"}, {"is_disabled": 0, "is_reserved": 0, "fusion_lat": 0.0, "lat": 38.9744115, "fusion_lon": 0.0, "rental_uris": {"ios": "https://dc.lft.to/lastmile_qr_scan", "android": "https://dc.lft.to/lastmile_qr_scan"}, "lon": -77.0961455, "bike_id": "d6bb799e386a2ac85a940f506dbfb8a8", "type": "electric_bike", "name": "d6bb799e386a2ac85a940f506dbfb8a8"}, {"is_disabled": 0, "is_reserved": 0, "fusion_lat": 0.0, "lat": 38.898528166666665, "fusion_lon": 0.0, "rental_uris": {"ios": "https://dc.lft.to/lastmile_qr_scan", "android": "https://dc.lft.to/lastmile_qr_scan"}, "lon": -77.002204, "bike_id": "75eaee880b674cedd2d6ccd1c3717087", "type": "electric_scooter", "name": "75eaee880b674cedd2d6ccd1c3717087"}, {"is_disabled": 0, "is_reserved": 0, "fusion_lat": 0.0, "lat": 38.8945495, "fusion_lon": 0.0, "rental_uris": {"ios": "https://dc.lft.to/lastmile_qr_scan", "android": "https://dc.lft.to/lastmile_qr_scan"}, "lon": -76.93680316666666, "bike_id": "2d21e873df5b49d5ee59b3098c26a672", "type": "electric_bike", "name": "2d21e873df5b49d5ee59b3098c26a672"}, {"is_disabled": 0, "is_reserved": 0, "fusion_lat": 0.0, "lat": 38.89546166666667, "fusion_lon": 0.0, "rental_uris": {"ios": "https://dc.lft.to/lastmile_qr_scan", "android": "https://dc.lft.to/lastmile_qr_scan"}, "lon": -77.021764, "bike_id": "ff3874def0303e1d634011298148b9c3", "type": "electric_scooter", "name": "ff3874def0303e1d634011298148b9c3"}, {"is_disabled": 0, "is_reserved": 0, "fusion_lat": 0.0, "lat": 38.879192333333336, "fusion_lon": 0.0, "rental_uris": {"ios": "https://dc.lft.to/lastmile_qr_scan", "android": "https://dc.lft.to/lastmile_qr_scan"}, "lon": -77.007887, "bike_id": "9aeaf5af73026a591766df04344b680b", "type": "electric_scooter", "name": "9aeaf5af73026a591766df04344b680b"}, {"is_disabled": 0, "is_reserved": 0, "fusion_lat": 0.0, "lat": 38.92430216666666, "fusion_lon": 0.0, "rental_uris": {"ios": "https://dc.lft.to/lastmile_qr_scan", "android": "https://dc.lft.to/lastmile_qr_scan"}, "lon": -77.042431, "bike_id": "26288d648cce63bd6a2e7583df55dda6", "type": "electric_scooter", "name": "26288d648cce63bd6a2e7583df55dda6"}, {"is_disabled": 0, "is_reserved": 0, "fusion_lat": 0.0, "lat": 38.91652, "fusion_lon": 0.0, "rental_uris": {"ios": "https://dc.lft.to/lastmile_qr_scan", "android": "https://dc.lft.to/lastmile_qr_scan"}, "lon": -77.00950033333334, "bike_id": "66959cd0771432680e7cb02daa62afe1", "type": "electric_scooter", "name": "66959cd0771432680e7cb02daa62afe1"}, {"is_disabled": 0, "is_reserved": 0, "fusion_lat": 0.0, "lat": 38.87858966666667, "fusion_lon": 0.0, "rental_uris": {"ios": "https://dc.lft.to/lastmile_qr_scan", "android": "https://dc.lft.to/lastmile_qr_scan"}, "lon": -77.00736516666667, "bike_id": "0b5ac067d03c00237ae00b820ca43d8f", "type": "electric_scooter", "name": "0b5ac067d03c00237ae00b820ca43d8f"}, {"is_disabled": 0, "is_reserved": 0, "fusion_lat": 0.0, "lat": 38.897391, "fusion_lon": 0.0, "rental_uris": {"ios": "https://dc.lft.to/lastmile_qr_scan", "android": "https://dc.lft.to/lastmile_qr_scan"}, "lon": -77.046434, "bike_id": "a3800ea5d43cba6d8e366f57ddb03f32", "type": "electric_scooter", "name": "a3800ea5d43cba6d8e366f57ddb03f32"}, {"is_disabled": 0, "is_reserved": 0, "fusion_lat": 0.0, "lat": 38.8663015, "fusion_lon": 0.0, "rental_uris": {"ios": "https://dc.lft.to/lastmile_qr_scan", "android": "https://dc.lft.to/lastmile_qr_scan"}, "lon": -76.99002466666667, "bike_id": "0e7bde7d08f9b23729feb8f53e2ae4cb", "type": "electric_bike", "name": "0e7bde7d08f9b23729feb8f53e2ae4cb"}, {"is_disabled": 0, "is_reserved": 0, "fusion_lat": 0.0, "lat": 38.8787935, "fusion_lon": 0.0, "rental_uris": {"ios": "https://dc.lft.to/lastmile_qr_scan", "android": "https://dc.lft.to/lastmile_qr_scan"}, "lon": -77.02315883333333, "bike_id": "6353098a2f22ede9e03d1ec5344b1e66", "type": "electric_scooter", "name": "6353098a2f22ede9e03d1ec5344b1e66"}, {"is_disabled": 0, "is_reserved": 0, "fusion_lat": 0.0, "lat": 38.99100766666667, "fusion_lon": 0.0, "rental_uris": {"ios": "https://dc.lft.to/lastmile_qr_scan", "android": "https://dc.lft.to/lastmile_qr_scan"}, "lon": -76.9937645, "bike_id": "60ebb87af70fc6c4d39f64e891565f43", "type": "electric_bike", "name": "60ebb87af70fc6c4d39f64e891565f43"}, {"is_disabled": 0, "is_reserved": 0, "fusion_lat": 0.0, "lat": 38.919518, "fusion_lon": 0.0, "rental_uris": {"ios": "https://dc.lft.to/lastmile_qr_scan", "android": "https://dc.lft.to/lastmile_qr_scan"}, "lon": -77.07869, "bike_id": "a4c9b534aa532accef76c4f8227b1ef4", "type": "electric_scooter", "name": "a4c9b534aa532accef76c4f8227b1ef4"}, {"is_disabled": 0, "is_reserved": 0, "fusion_lat": 0.0, "lat": 38.908470333333334, "fusion_lon": 0.0, "rental_uris": {"ios": "https://dc.lft.to/lastmile_qr_scan", "android": "https://dc.lft.to/lastmile_qr_scan"}, "lon": -77.05806366666667, "bike_id": "a2b088c18516c0f7038e43777dc7178f", "type": "electric_scooter", "name": "a2b088c18516c0f7038e43777dc7178f"}, {"is_disabled": 0, "is_reserved": 0, "fusion_lat": 0.0, "lat": 38.84856033333333, "fusion_lon": 0.0, "rental_uris": {"ios": "https://dc.lft.to/lastmile_qr_scan", "android": "https://dc.lft.to/lastmile_qr_scan"}, "lon": -77.0682975, "bike_id": "e31cd95a3d292f0881f9a33ca719ba05", "type": "electric_bike", "name": "e31cd95a3d292f0881f9a33ca719ba05"}, {"is_disabled": 0, "is_reserved": 0, "fusion_lat": 0.0, "lat": 38.92106583333333, "fusion_lon": 0.0, "rental_uris": {"ios": "https://dc.lft.to/lastmile_qr_scan", "android": "https://dc.lft.to/lastmile_qr_scan"}, "lon": -77.0316515, "bike_id": "c2112287e2f2f34e093d318ec52027e9", "type": "electric_scooter", "name": "c2112287e2f2f34e093d318ec52027e9"}, {"is_disabled": 0, "is_reserved": 0, "fusion_lat": 0.0, "lat": 38.906408, "fusion_lon": 0.0, "rental_uris": {"ios": "https://dc.lft.to/lastmile_qr_scan", "android": "https://dc.lft.to/lastmile_qr_scan"}, "lon": -77.0488005, "bike_id": "35fd8dd81247798a63126fba8e957e40", "type": "electric_scooter", "name": "35fd8dd81247798a63126fba8e957e40"}, {"is_disabled": 0, "is_reserved": 0, "fusion_lat": 0.0, "lat": 38.91333266666667, "fusion_lon": 0.0, "rental_uris": {"ios": "https://dc.lft.to/lastmile_qr_scan", "android": "https://dc.lft.to/lastmile_qr_scan"}, "lon": -77.016218, "bike_id": "dd2f7f7e40498c58e6235e058741167d", "type": "electric_scooter", "name": "dd2f7f7e40498c58e6235e058741167d"}, {"is_disabled": 0, "is_reserved": 0, "fusion_lat": 0.0, "lat": 38.9222055, "fusion_lon": 0.0, "rental_uris": {"ios": "https://dc.lft.to/lastmile_qr_scan", "android": "https://dc.lft.to/lastmile_qr_scan"}, "lon": -77.08203916666666, "bike_id": "8986e937ff3b1e19f457fbac43680f43", "type": "electric_bike", "name": "8986e937ff3b1e19f457fbac43680f43"}, {"is_disabled": 0, "is_reserved": 0, "fusion_lat": 0.0, "lat": 38.894286666666666, "fusion_lon": 0.0, "rental_uris": {"ios": "https://dc.lft.to/lastmile_qr_scan", "android": "https://dc.lft.to/lastmile_qr_scan"}, "lon": -77.01076833333333, "bike_id": "5c2fcae275468a77ce55cd5ee3b3de21", "type": "electric_scooter", "name": "5c2fcae275468a77ce55cd5ee3b3de21"}, {"is_disabled": 0, "is_reserved": 0, "fusion_lat": 0.0, "lat": 38.88534516666667, "fusion_lon": 0.0, "rental_uris": {"ios": "https://dc.lft.to/lastmile_qr_scan", "android": "https://dc.lft.to/lastmile_qr_scan"}, "lon": -76.980605, "bike_id": "2c529a11e1c33f3ad80f556d3cc9a7dc", "type": "electric_scooter", "name": "2c529a11e1c33f3ad80f556d3cc9a7dc"}, {"is_disabled": 0, "is_reserved": 0, "fusion_lat": 0.0, "lat": 38.956891166666665, "fusion_lon": 0.0, "rental_uris": {"ios": "https://dc.lft.to/lastmile_qr_scan", "android": "https://dc.lft.to/lastmile_qr_scan"}, "lon": -77.022316, "bike_id": "2b46b8cbf8338f952b7ca86cdbd40339", "type": "electric_scooter", "name": "2b46b8cbf8338f952b7ca86cdbd40339"}, {"is_disabled": 0, "is_reserved": 0, "fusion_lat": 0.0, "lat": 38.95750783333333, "fusion_lon": 0.0, "rental_uris": {"ios": "https://dc.lft.to/lastmile_qr_scan", "android": "https://dc.lft.to/lastmile_qr_scan"}, "lon": -77.02211566666666, "bike_id": "c9dc2f7051688003dc6984e7b47a80e3", "type": "electric_scooter", "name": "c9dc2f7051688003dc6984e7b47a80e3"}, {"is_disabled": 0, "is_reserved": 0, "fusion_lat": 0.0, "lat": 38.896249, "fusion_lon": 0.0, "rental_uris": {"ios": "https://dc.lft.to/lastmile_qr_scan", "android": "https://dc.lft.to/lastmile_qr_scan"}, "lon": -76.90757416666666, "bike_id": "cd3a275092f563afe8b948035d1bc68f", "type": "electric_bike", "name": "cd3a275092f563afe8b948035d1bc68f"}, {"is_disabled": 0, "is_reserved": 0, "fusion_lat": 0.0, "lat": 38.87494733333333, "fusion_lon": 0.0, "rental_uris": {"ios": "https://dc.lft.to/lastmile_qr_scan", "android": "https://dc.lft.to/lastmile_qr_scan"}, "lon": -77.00079116666667, "bike_id": "4e8a291789a5e80ac4b83a3f592cb05d", "type": "electric_scooter", "name": "4e8a291789a5e80ac4b83a3f592cb05d"}, {"is_disabled": 0, "is_reserved": 0, "fusion_lat": 0.0, "lat": 38.922922166666666, "fusion_lon": 0.0, "rental_uris": {"ios": "https://dc.lft.to/lastmile_qr_scan", "android": "https://dc.lft.to/lastmile_qr_scan"}, "lon": -77.02973633333333, "bike_id": "43988be9584c8eeac3e58c8b03c7ae7d", "type": "electric_scooter", "name": "43988be9584c8eeac3e58c8b03c7ae7d"}, {"is_disabled": 0, "is_reserved": 0, "fusion_lat": 0.0, "lat": 38.885425166666664, "fusion_lon": 0.0, "rental_uris": {"ios": "https://dc.lft.to/lastmile_qr_scan", "android": "https://dc.lft.to/lastmile_qr_scan"}, "lon": -76.92377066666667, "bike_id": "2c5b92602ca79a0c931c6d4dbc86b39c", "type": "electric_scooter", "name": "2c5b92602ca79a0c931c6d4dbc86b39c"}, {"is_disabled": 0, "is_reserved": 0, "fusion_lat": 0.0, "lat": 38.89468633333333, "fusion_lon": 0.0, "rental_uris": {"ios": "https://dc.lft.to/lastmile_qr_scan", "android": "https://dc.lft.to/lastmile_qr_scan"}, "lon": -77.0110385, "bike_id": "a59f6e6b05fe626ffa53ab9844f3b2f9", "type": "electric_scooter", "name": "a59f6e6b05fe626ffa53ab9844f3b2f9"}, {"is_disabled": 0, "is_reserved": 0, "fusion_lat": 0.0, "lat": 38.9136175, "fusion_lon": 0.0, "rental_uris": {"ios": "https://dc.lft.to/lastmile_qr_scan", "android": "https://dc.lft.to/lastmile_qr_scan"}, "lon": -77.04659583333333, "bike_id": "d5ce4ae3564e965d86865413eccff84d", "type": "electric_scooter", "name": "d5ce4ae3564e965d86865413eccff84d"}, {"is_disabled": 0, "is_reserved": 0, "fusion_lat": 0.0, "lat": 38.90235283333333, "fusion_lon": 0.0, "rental_uris": {"ios": "https://dc.lft.to/lastmile_qr_scan", "android": "https://dc.lft.to/lastmile_qr_scan"}, "lon": -77.03850816666667, "bike_id": "3e6c81f1fd6dcde1250d5ef7b01be3c1", "type": "electric_scooter", "name": "3e6c81f1fd6dcde1250d5ef7b01be3c1"}, {"is_disabled": 0, "is_reserved": 0, "fusion_lat": 0.0, "lat": 38.906356333333335, "fusion_lon": 0.0, "rental_uris": {"ios": "https://dc.lft.to/lastmile_qr_scan", "android": "https://dc.lft.to/lastmile_qr_scan"}, "lon": -77.00594983333333, "bike_id": "8e94a2beb7d5cb7184be4cb2f04f3c86", "type": "electric_scooter", "name": "8e94a2beb7d5cb7184be4cb2f04f3c86"}, {"is_disabled": 0, "is_reserved": 0, "fusion_lat": 0.0, "lat": 38.9352345, "fusion_lon": 0.0, "rental_uris": {"ios": "https://dc.lft.to/lastmile_qr_scan", "android": "https://dc.lft.to/lastmile_qr_scan"}, "lon": -77.0544725, "bike_id": "a8bbb82ba56652d06508dbdf7db071cb", "type": "electric_scooter", "name": "a8bbb82ba56652d06508dbdf7db071cb"}, {"is_disabled": 0, "is_reserved": 0, "fusion_lat": 0.0, "lat": 38.859451, "fusion_lon": 0.0, "rental_uris": {"ios": "https://dc.lft.to/lastmile_qr_scan", "android": "https://dc.lft.to/lastmile_qr_scan"}, "lon": -77.0942645, "bike_id": "9cf097450fa7c83b00426a9bfafa7a44", "type": "electric_bike", "name": "9cf097450fa7c83b00426a9bfafa7a44"}, {"is_disabled": 0, "is_reserved": 0, "fusion_lat": 0.0, "lat": 38.90565183333333, "fusion_lon": 0.0, "rental_uris": {"ios": "https://dc.lft.to/lastmile_qr_scan", "android": "https://dc.lft.to/lastmile_qr_scan"}, "lon": -77.02016966666666, "bike_id": "5be70c92111689e8c165ff69279d16ad", "type": "electric_scooter", "name": "5be70c92111689e8c165ff69279d16ad"}, {"is_disabled": 0, "is_reserved": 0, "fusion_lat": 0.0, "lat": 38.8870905, "fusion_lon": 0.0, "rental_uris": {"ios": "https://dc.lft.to/lastmile_qr_scan", "android": "https://dc.lft.to/lastmile_qr_scan"}, "lon": -76.98341616666667, "bike_id": "81a061e624071733bdc11b6838687a18", "type": "electric_scooter", "name": "81a061e624071733bdc11b6838687a18"}, {"is_disabled": 0, "is_reserved": 0, "fusion_lat": 0.0, "lat": 38.918304, "fusion_lon": 0.0, "rental_uris": {"ios": "https://dc.lft.to/lastmile_qr_scan", "android": "https://dc.lft.to/lastmile_qr_scan"}, "lon": -77.0229735, "bike_id": "3d8e38c8937f0e0970e82a11a093bce2", "type": "electric_scooter", "name": "3d8e38c8937f0e0970e82a11a093bce2"}, {"is_disabled": 0, "is_reserved": 0, "fusion_lat": 0.0, "lat": 38.89890533333333, "fusion_lon": 0.0, "rental_uris": {"ios": "https://dc.lft.to/lastmile_qr_scan", "android": "https://dc.lft.to/lastmile_qr_scan"}, "lon": -77.019738, "bike_id": "d173f814259bad8a3fb2dc94ffb27a24", "type": "electric_scooter", "name": "d173f814259bad8a3fb2dc94ffb27a24"}, {"is_disabled": 0, "is_reserved": 0, "fusion_lat": 0.0, "lat": 38.909666, "fusion_lon": 0.0, "rental_uris": {"ios": "https://dc.lft.to/lastmile_qr_scan", "android": "https://dc.lft.to/lastmile_qr_scan"}, "lon": -77.025784, "bike_id": "bd2016d1ccc61729505492e3aee4fa79", "type": "electric_scooter", "name": "bd2016d1ccc61729505492e3aee4fa79"}, {"is_disabled": 0, "is_reserved": 0, "fusion_lat": 0.0, "lat": 38.88023533333333, "fusion_lon": 0.0, "rental_uris": {"ios": "https://dc.lft.to/lastmile_qr_scan", "android": "https://dc.lft.to/lastmile_qr_scan"}, "lon": -76.94324766666666, "bike_id": "955035e0ef2e39cde3a64bb91d7f068b", "type": "electric_scooter", "name": "955035e0ef2e39cde3a64bb91d7f068b"}, {"is_disabled": 0, "is_reserved": 0, "fusion_lat": 0.0, "lat": 38.84620016666667, "fusion_lon": 0.0, "rental_uris": {"ios": "https://dc.lft.to/lastmile_qr_scan", "android": "https://dc.lft.to/lastmile_qr_scan"}, "lon": -76.97838866666666, "bike_id": "b9ea87a9bf0f0e4d3a6bc56875034c65", "type": "electric_bike", "name": "b9ea87a9bf0f0e4d3a6bc56875034c65"}, {"is_disabled": 0, "is_reserved": 0, "fusion_lat": 0.0, "lat": 38.90638416666667, "fusion_lon": 0.0, "rental_uris": {"ios": "https://dc.lft.to/lastmile_qr_scan", "android": "https://dc.lft.to/lastmile_qr_scan"}, "lon": -77.0700915, "bike_id": "7d7f5413f7229de0184d89a934830119", "type": "electric_scooter", "name": "7d7f5413f7229de0184d89a934830119"}, {"is_disabled": 0, "is_reserved": 0, "fusion_lat": 0.0, "lat": 38.846449666666665, "fusion_lon": 0.0, "rental_uris": {"ios": "https://dc.lft.to/lastmile_qr_scan", "android": "https://dc.lft.to/lastmile_qr_scan"}, "lon": -77.00368383333333, "bike_id": "c0e8b43b49ae6b2e6975adb7d930b997", "type": "electric_scooter", "name": "c0e8b43b49ae6b2e6975adb7d930b997"}, {"is_disabled": 0, "is_reserved": 0, "fusion_lat": 0.0, "lat": 38.90040883333333, "fusion_lon": 0.0, "rental_uris": {"ios": "https://dc.lft.to/lastmile_qr_scan", "android": "https://dc.lft.to/lastmile_qr_scan"}, "lon": -77.01780866666667, "bike_id": "7a7ad7a839629b03c5ae26f622597f10", "type": "electric_scooter", "name": "7a7ad7a839629b03c5ae26f622597f10"}, {"is_disabled": 0, "is_reserved": 0, "fusion_lat": 0.0, "lat": 38.91542283333333, "fusion_lon": 0.0, "rental_uris": {"ios": "https://dc.lft.to/lastmile_qr_scan", "android": "https://dc.lft.to/lastmile_qr_scan"}, "lon": -77.00917633333333, "bike_id": "68c04411def660a5d83278683db53954", "type": "electric_scooter", "name": "68c04411def660a5d83278683db53954"}, {"is_disabled": 0, "is_reserved": 0, "fusion_lat": 0.0, "lat": 38.92843166666667, "fusion_lon": 0.0, "rental_uris": {"ios": "https://dc.lft.to/lastmile_qr_scan", "android": "https://dc.lft.to/lastmile_qr_scan"}, "lon": -77.01401966666667, "bike_id": "9f65ed4cdb69d3353c5aef8af29f718e", "type": "electric_scooter", "name": "9f65ed4cdb69d3353c5aef8af29f718e"}, {"is_disabled": 0, "is_reserved": 0, "fusion_lat": 0.0, "lat": 38.91475966666667, "fusion_lon": 0.0, "rental_uris": {"ios": "https://dc.lft.to/lastmile_qr_scan", "android": "https://dc.lft.to/lastmile_qr_scan"}, "lon": -77.00197283333334, "bike_id": "074d8f5340d21c1e9c6102b539049f9c", "type": "electric_scooter", "name": "074d8f5340d21c1e9c6102b539049f9c"}, {"is_disabled": 0, "is_reserved": 0, "fusion_lat": 0.0, "lat": 38.89613083333333, "fusion_lon": 0.0, "rental_uris": {"ios": "https://dc.lft.to/lastmile_qr_scan", "android": "https://dc.lft.to/lastmile_qr_scan"}, "lon": -76.99806033333333, "bike_id": "19c43a7948f2b12e0464d1a2b9767b03", "type": "electric_scooter", "name": "19c43a7948f2b12e0464d1a2b9767b03"}, {"is_disabled": 0, "is_reserved": 0, "fusion_lat": 0.0, "lat": 38.911108666666664, "fusion_lon": 0.0, "rental_uris": {"ios": "https://dc.lft.to/lastmile_qr_scan", "android": "https://dc.lft.to/lastmile_qr_scan"}, "lon": -77.01162383333333, "bike_id": "79a5aaa3d7c079217b18668af83cf804", "type": "electric_scooter", "name": "79a5aaa3d7c079217b18668af83cf804"}, {"is_disabled": 0, "is_reserved": 0, "fusion_lat": 0.0, "lat": 38.92890216666667, "fusion_lon": 0.0, "rental_uris": {"ios": "https://dc.lft.to/lastmile_qr_scan", "android": "https://dc.lft.to/lastmile_qr_scan"}, "lon": -77.02290666666667, "bike_id": "493919a5631ebd59f2813a7cc9b663e5", "type": "electric_scooter", "name": "493919a5631ebd59f2813a7cc9b663e5"}, {"is_disabled": 0, "is_reserved": 0, "fusion_lat": 0.0, "lat": 38.892475833333336, "fusion_lon": 0.0, "rental_uris": {"ios": "https://dc.lft.to/lastmile_qr_scan", "android": "https://dc.lft.to/lastmile_qr_scan"}, "lon": -77.03956766666667, "bike_id": "982d0f5610eaa18aabaa40555fd617fa", "type": "electric_scooter", "name": "982d0f5610eaa18aabaa40555fd617fa"}, {"is_disabled": 0, "is_reserved": 0, "fusion_lat": 0.0, "lat": 38.9045395, "fusion_lon": 0.0, "rental_uris": {"ios": "https://dc.lft.to/lastmile_qr_scan", "android": "https://dc.lft.to/lastmile_qr_scan"}, "lon": -76.93275733333333, "bike_id": "1fe65a496272e2d269859d0d2f8bec63", "type": "electric_scooter", "name": "1fe65a496272e2d269859d0d2f8bec63"}, {"is_disabled": 0, "is_reserved": 0, "fusion_lat": 0.0, "lat": 38.90661266666667, "fusion_lon": 0.0, "rental_uris": {"ios": "https://dc.lft.to/lastmile_qr_scan", "android": "https://dc.lft.to/lastmile_qr_scan"}, "lon": -77.03438233333334, "bike_id": "ab00425f16ab7d2f8cbf59adc86f2188", "type": "electric_scooter", "name": "ab00425f16ab7d2f8cbf59adc86f2188"}, {"is_disabled": 0, "is_reserved": 0, "fusion_lat": 0.0, "lat": 38.92195266666667, "fusion_lon": 0.0, "rental_uris": {"ios": "https://dc.lft.to/lastmile_qr_scan", "android": "https://dc.lft.to/lastmile_qr_scan"}, "lon": -77.01834966666667, "bike_id": "91f56280fdab6fab723a39a30084c246", "type": "electric_scooter", "name": "91f56280fdab6fab723a39a30084c246"}, {"is_disabled": 0, "is_reserved": 0, "fusion_lat": 0.0, "lat": 38.9398085, "fusion_lon": 0.0, "rental_uris": {"ios": "https://dc.lft.to/lastmile_qr_scan", "android": "https://dc.lft.to/lastmile_qr_scan"}, "lon": -77.02892683333333, "bike_id": "f5734735821d027924d8b5add9736d64", "type": "electric_scooter", "name": "f5734735821d027924d8b5add9736d64"}, {"is_disabled": 0, "is_reserved": 0, "fusion_lat": 0.0, "lat": 38.9154515, "fusion_lon": 0.0, "rental_uris": {"ios": "https://dc.lft.to/lastmile_qr_scan", "android": "https://dc.lft.to/lastmile_qr_scan"}, "lon": -77.03859616666666, "bike_id": "8afb8d410a69ef49ac81a1522082b60e", "type": "electric_scooter", "name": "8afb8d410a69ef49ac81a1522082b60e"}, {"is_disabled": 0, "is_reserved": 0, "fusion_lat": 0.0, "lat": 38.910478499999996, "fusion_lon": 0.0, "rental_uris": {"ios": "https://dc.lft.to/lastmile_qr_scan", "android": "https://dc.lft.to/lastmile_qr_scan"}, "lon": -76.99808083333333, "bike_id": "914c3c63a1b95f346c2cd54aa9988f26", "type": "electric_scooter", "name": "914c3c63a1b95f346c2cd54aa9988f26"}, {"is_disabled": 0, "is_reserved": 0, "fusion_lat": 0.0, "lat": 38.91410716666667, "fusion_lon": 0.0, "rental_uris": {"ios": "https://dc.lft.to/lastmile_qr_scan", "android": "https://dc.lft.to/lastmile_qr_scan"}, "lon": -77.02424883333333, "bike_id": "0ecf492ab7ba13d22bb363eeca19ef13", "type": "electric_scooter", "name": "0ecf492ab7ba13d22bb363eeca19ef13"}, {"is_disabled": 0, "is_reserved": 0, "fusion_lat": 0.0, "lat": 38.923153666666664, "fusion_lon": 0.0, "rental_uris": {"ios": "https://dc.lft.to/lastmile_qr_scan", "android": "https://dc.lft.to/lastmile_qr_scan"}, "lon": -77.029092, "bike_id": "d192ab0ea7bb1278fbe4ecd3a8c7c9d4", "type": "electric_scooter", "name": "d192ab0ea7bb1278fbe4ecd3a8c7c9d4"}, {"is_disabled": 0, "is_reserved": 0, "fusion_lat": 0.0, "lat": 38.952173333333334, "fusion_lon": 0.0, "rental_uris": {"ios": "https://dc.lft.to/lastmile_qr_scan", "android": "https://dc.lft.to/lastmile_qr_scan"}, "lon": -77.08863833333334, "bike_id": "0ab25ac4f8b71614e9fcc70e829e2c02", "type": "electric_scooter", "name": "0ab25ac4f8b71614e9fcc70e829e2c02"}, {"is_disabled": 0, "is_reserved": 0, "fusion_lat": 0.0, "lat": 38.852425333333336, "fusion_lon": 0.0, "rental_uris": {"ios": "https://dc.lft.to/lastmile_qr_scan", "android": "https://dc.lft.to/lastmile_qr_scan"}, "lon": -77.1140805, "bike_id": "ce8c3dbfef220a42ced37bd0992df9a5", "type": "electric_bike", "name": "ce8c3dbfef220a42ced37bd0992df9a5"}, {"is_disabled": 0, "is_reserved": 0, "fusion_lat": 0.0, "lat": 38.9256525, "fusion_lon": 0.0, "rental_uris": {"ios": "https://dc.lft.to/lastmile_qr_scan", "android": "https://dc.lft.to/lastmile_qr_scan"}, "lon": -77.031348, "bike_id": "80ee52a438c46d6665596211c0491432", "type": "electric_scooter", "name": "80ee52a438c46d6665596211c0491432"}, {"is_disabled": 0, "is_reserved": 0, "fusion_lat": 0.0, "lat": 38.9433165, "fusion_lon": 0.0, "rental_uris": {"ios": "https://dc.lft.to/lastmile_qr_scan", "android": "https://dc.lft.to/lastmile_qr_scan"}, "lon": -77.01554216666666, "bike_id": "e72f01423809e5686261e3886b79da3a", "type": "electric_scooter", "name": "e72f01423809e5686261e3886b79da3a"}, {"is_disabled": 0, "is_reserved": 0, "fusion_lat": 0.0, "lat": 38.882986333333335, "fusion_lon": 0.0, "rental_uris": {"ios": "https://dc.lft.to/lastmile_qr_scan", "android": "https://dc.lft.to/lastmile_qr_scan"}, "lon": -76.934886, "bike_id": "984d84f27781bec8882f8bb1ce4e2422", "type": "electric_scooter", "name": "984d84f27781bec8882f8bb1ce4e2422"}, {"is_disabled": 0, "is_reserved": 0, "fusion_lat": 0.0, "lat": 38.84275516666666, "fusion_lon": 0.0, "rental_uris": {"ios": "https://dc.lft.to/lastmile_qr_scan", "android": "https://dc.lft.to/lastmile_qr_scan"}, "lon": -76.98844283333334, "bike_id": "a98ebc40d8f942fd646cc01a46a99925", "type": "electric_scooter", "name": "a98ebc40d8f942fd646cc01a46a99925"}, {"is_disabled": 0, "is_reserved": 0, "fusion_lat": 0.0, "lat": 38.89228383333333, "fusion_lon": 0.0, "rental_uris": {"ios": "https://dc.lft.to/lastmile_qr_scan", "android": "https://dc.lft.to/lastmile_qr_scan"}, "lon": -77.03235883333333, "bike_id": "5275c087b5a28ca38db5ac5e105ddac4", "type": "electric_scooter", "name": "5275c087b5a28ca38db5ac5e105ddac4"}, {"is_disabled": 0, "is_reserved": 0, "fusion_lat": 0.0, "lat": 38.91995216666667, "fusion_lon": 0.0, "rental_uris": {"ios": "https://dc.lft.to/lastmile_qr_scan", "android": "https://dc.lft.to/lastmile_qr_scan"}, "lon": -77.032193, "bike_id": "7c36e5bc5e59c7749feb04bd1c7393b5", "type": "electric_scooter", "name": "7c36e5bc5e59c7749feb04bd1c7393b5"}, {"is_disabled": 0, "is_reserved": 0, "fusion_lat": 0.0, "lat": 38.906508, "fusion_lon": 0.0, "rental_uris": {"ios": "https://dc.lft.to/lastmile_qr_scan", "android": "https://dc.lft.to/lastmile_qr_scan"}, "lon": -77.0455795, "bike_id": "ad76db8663805be27af60adf3f074fe0", "type": "electric_scooter", "name": "ad76db8663805be27af60adf3f074fe0"}, {"is_disabled": 0, "is_reserved": 0, "fusion_lat": 0.0, "lat": 38.9068235, "fusion_lon": 0.0, "rental_uris": {"ios": "https://dc.lft.to/lastmile_qr_scan", "android": "https://dc.lft.to/lastmile_qr_scan"}, "lon": -77.062929, "bike_id": "8272c37e076004a681cedcb1dd6427e3", "type": "electric_scooter", "name": "8272c37e076004a681cedcb1dd6427e3"}, {"is_disabled": 0, "is_reserved": 0, "fusion_lat": 0.0, "lat": 38.89670016666667, "fusion_lon": 0.0, "rental_uris": {"ios": "https://dc.lft.to/lastmile_qr_scan", "android": "https://dc.lft.to/lastmile_qr_scan"}, "lon": -77.0489295, "bike_id": "828ac6bad5d77c7efe8522e1930ae41e", "type": "electric_scooter", "name": "828ac6bad5d77c7efe8522e1930ae41e"}, {"is_disabled": 0, "is_reserved": 0, "fusion_lat": 0.0, "lat": 38.901430166666664, "fusion_lon": 0.0, "rental_uris": {"ios": "https://dc.lft.to/lastmile_qr_scan", "android": "https://dc.lft.to/lastmile_qr_scan"}, "lon": -76.92984183333333, "bike_id": "bb0301d99fe77b6c889cf5d45e44c27a", "type": "electric_scooter", "name": "bb0301d99fe77b6c889cf5d45e44c27a"}, {"is_disabled": 0, "is_reserved": 0, "fusion_lat": 0.0, "lat": 39.0064495, "fusion_lon": 0.0, "rental_uris": {"ios": "https://dc.lft.to/lastmile_qr_scan", "android": "https://dc.lft.to/lastmile_qr_scan"}, "lon": -76.90023633333334, "bike_id": "45ec3e493cdb61d9a4c3d3d39cfc3490", "type": "electric_bike", "name": "45ec3e493cdb61d9a4c3d3d39cfc3490"}, {"is_disabled": 0, "is_reserved": 0, "fusion_lat": 0.0, "lat": 38.89524483333334, "fusion_lon": 0.0, "rental_uris": {"ios": "https://dc.lft.to/lastmile_qr_scan", "android": "https://dc.lft.to/lastmile_qr_scan"}, "lon": -77.02279066666667, "bike_id": "8a38177280944547ede1c51b63a55954", "type": "electric_scooter", "name": "8a38177280944547ede1c51b63a55954"}, {"is_disabled": 0, "is_reserved": 0, "fusion_lat": 0.0, "lat": 38.89902566666667, "fusion_lon": 0.0, "rental_uris": {"ios": "https://dc.lft.to/lastmile_qr_scan", "android": "https://dc.lft.to/lastmile_qr_scan"}, "lon": -77.05004783333334, "bike_id": "721f9ef485c4c11dd8a2efa33b11dbaa", "type": "electric_scooter", "name": "721f9ef485c4c11dd8a2efa33b11dbaa"}, {"is_disabled": 0, "is_reserved": 0, "fusion_lat": 0.0, "lat": 38.93078666666667, "fusion_lon": 0.0, "rental_uris": {"ios": "https://dc.lft.to/lastmile_qr_scan", "android": "https://dc.lft.to/lastmile_qr_scan"}, "lon": -77.0199805, "bike_id": "ec8ad7fdb7eea5483229c71102d634b3", "type": "electric_scooter", "name": "ec8ad7fdb7eea5483229c71102d634b3"}, {"is_disabled": 0, "is_reserved": 0, "fusion_lat": 0.0, "lat": 38.827633666666664, "fusion_lon": 0.0, "rental_uris": {"ios": "https://dc.lft.to/lastmile_qr_scan", "android": "https://dc.lft.to/lastmile_qr_scan"}, "lon": -77.06014033333334, "bike_id": "5178367126655edbf2ca6f8e52b8e38e", "type": "electric_bike", "name": "5178367126655edbf2ca6f8e52b8e38e"}, {"is_disabled": 0, "is_reserved": 0, "fusion_lat": 0.0, "lat": 38.918216666666666, "fusion_lon": 0.0, "rental_uris": {"ios": "https://dc.lft.to/lastmile_qr_scan", "android": "https://dc.lft.to/lastmile_qr_scan"}, "lon": -77.01212883333334, "bike_id": "20542794216d6f8ef67679ee67c238f4", "type": "electric_scooter", "name": "20542794216d6f8ef67679ee67c238f4"}, {"is_disabled": 0, "is_reserved": 0, "fusion_lat": 0.0, "lat": 38.933456166666666, "fusion_lon": 0.0, "rental_uris": {"ios": "https://dc.lft.to/lastmile_qr_scan", "android": "https://dc.lft.to/lastmile_qr_scan"}, "lon": -77.0604405, "bike_id": "bbdde40e896b4535089241ff727d37e1", "type": "electric_scooter", "name": "bbdde40e896b4535089241ff727d37e1"}, {"is_disabled": 0, "is_reserved": 0, "fusion_lat": 0.0, "lat": 38.9563285, "fusion_lon": 0.0, "rental_uris": {"ios": "https://dc.lft.to/lastmile_qr_scan", "android": "https://dc.lft.to/lastmile_qr_scan"}, "lon": -77.02213466666667, "bike_id": "e55631778a3ad44792bbd03f36a4e5f9", "type": "electric_scooter", "name": "e55631778a3ad44792bbd03f36a4e5f9"}, {"is_disabled": 0, "is_reserved": 0, "fusion_lat": 0.0, "lat": 38.9235305, "fusion_lon": 0.0, "rental_uris": {"ios": "https://dc.lft.to/lastmile_qr_scan", "android": "https://dc.lft.to/lastmile_qr_scan"}, "lon": -77.05243733333333, "bike_id": "5364c0d69476e3a5448412be279875f2", "type": "electric_scooter", "name": "5364c0d69476e3a5448412be279875f2"}, {"is_disabled": 0, "is_reserved": 0, "fusion_lat": 0.0, "lat": 38.920754333333335, "fusion_lon": 0.0, "rental_uris": {"ios": "https://dc.lft.to/lastmile_qr_scan", "android": "https://dc.lft.to/lastmile_qr_scan"}, "lon": -77.02431033333333, "bike_id": "2527c3f5558d5579f5a27a7855bba4fb", "type": "electric_scooter", "name": "2527c3f5558d5579f5a27a7855bba4fb"}, {"is_disabled": 0, "is_reserved": 0, "fusion_lat": 0.0, "lat": 38.951527666666664, "fusion_lon": 0.0, "rental_uris": {"ios": "https://dc.lft.to/lastmile_qr_scan", "android": "https://dc.lft.to/lastmile_qr_scan"}, "lon": -77.01864433333333, "bike_id": "7c0eb6200fe2b52ef2728416237a1318", "type": "electric_scooter", "name": "7c0eb6200fe2b52ef2728416237a1318"}, {"is_disabled": 0, "is_reserved": 0, "fusion_lat": 0.0, "lat": 38.95637516666667, "fusion_lon": 0.0, "rental_uris": {"ios": "https://dc.lft.to/lastmile_qr_scan", "android": "https://dc.lft.to/lastmile_qr_scan"}, "lon": -77.03630316666667, "bike_id": "3d2ed215a9aacd8ecded65177aa471d3", "type": "electric_scooter", "name": "3d2ed215a9aacd8ecded65177aa471d3"}, {"is_disabled": 0, "is_reserved": 0, "fusion_lat": 0.0, "lat": 38.893329666666666, "fusion_lon": 0.0, "rental_uris": {"ios": "https://dc.lft.to/lastmile_qr_scan", "android": "https://dc.lft.to/lastmile_qr_scan"}, "lon": -76.92892333333333, "bike_id": "d98d5592ed4aa2b48e9535bfeb5432ec", "type": "electric_scooter", "name": "d98d5592ed4aa2b48e9535bfeb5432ec"}, {"is_disabled": 0, "is_reserved": 0, "fusion_lat": 0.0, "lat": 38.933674833333335, "fusion_lon": 0.0, "rental_uris": {"ios": "https://dc.lft.to/lastmile_qr_scan", "android": "https://dc.lft.to/lastmile_qr_scan"}, "lon": -77.03887083333333, "bike_id": "0865a9da8dd14bb55c2631286d7d4994", "type": "electric_scooter", "name": "0865a9da8dd14bb55c2631286d7d4994"}, {"is_disabled": 0, "is_reserved": 0, "fusion_lat": 0.0, "lat": 38.92999966666667, "fusion_lon": 0.0, "rental_uris": {"ios": "https://dc.lft.to/lastmile_qr_scan", "android": "https://dc.lft.to/lastmile_qr_scan"}, "lon": -77.037991, "bike_id": "96bf9e74381d0a3a5df22b744289fd40", "type": "electric_scooter", "name": "96bf9e74381d0a3a5df22b744289fd40"}, {"is_disabled": 0, "is_reserved": 0, "fusion_lat": 0.0, "lat": 38.91417666666667, "fusion_lon": 0.0, "rental_uris": {"ios": "https://dc.lft.to/lastmile_qr_scan", "android": "https://dc.lft.to/lastmile_qr_scan"}, "lon": -77.03306583333334, "bike_id": "0ec98a2645f3a9f027299048cab3ef41", "type": "electric_scooter", "name": "0ec98a2645f3a9f027299048cab3ef41"}, {"is_disabled": 0, "is_reserved": 0, "fusion_lat": 0.0, "lat": 38.917855, "fusion_lon": 0.0, "rental_uris": {"ios": "https://dc.lft.to/lastmile_qr_scan", "android": "https://dc.lft.to/lastmile_qr_scan"}, "lon": -77.02306566666667, "bike_id": "474ee3843efb12ff909832eb392dc86b", "type": "electric_scooter", "name": "474ee3843efb12ff909832eb392dc86b"}, {"is_disabled": 0, "is_reserved": 0, "fusion_lat": 0.0, "lat": 38.92152933333333, "fusion_lon": 0.0, "rental_uris": {"ios": "https://dc.lft.to/lastmile_qr_scan", "android": "https://dc.lft.to/lastmile_qr_scan"}, "lon": -77.03385116666666, "bike_id": "125e5e8bfe79b9d483c16dca4649fc1a", "type": "electric_scooter", "name": "125e5e8bfe79b9d483c16dca4649fc1a"}, {"is_disabled": 0, "is_reserved": 0, "fusion_lat": 0.0, "lat": 38.92941183333333, "fusion_lon": 0.0, "rental_uris": {"ios": "https://dc.lft.to/lastmile_qr_scan", "android": "https://dc.lft.to/lastmile_qr_scan"}, "lon": -77.03285, "bike_id": "7ef7f510cf291302484d1dee1c5d26ea", "type": "electric_scooter", "name": "7ef7f510cf291302484d1dee1c5d26ea"}, {"is_disabled": 0, "is_reserved": 0, "fusion_lat": 0.0, "lat": 38.892513666666666, "fusion_lon": 0.0, "rental_uris": {"ios": "https://dc.lft.to/lastmile_qr_scan", "android": "https://dc.lft.to/lastmile_qr_scan"}, "lon": -77.0465505, "bike_id": "f99a9659e2ed9b06fcf72bdebf5b1e61", "type": "electric_scooter", "name": "f99a9659e2ed9b06fcf72bdebf5b1e61"}, {"is_disabled": 0, "is_reserved": 0, "fusion_lat": 0.0, "lat": 38.89536733333333, "fusion_lon": 0.0, "rental_uris": {"ios": "https://dc.lft.to/lastmile_qr_scan", "android": "https://dc.lft.to/lastmile_qr_scan"}, "lon": -77.02288933333334, "bike_id": "6ce171e8346d86f55ff404fade59734e", "type": "electric_scooter", "name": "6ce171e8346d86f55ff404fade59734e"}, {"is_disabled": 0, "is_reserved": 0, "fusion_lat": 0.0, "lat": 38.89738166666667, "fusion_lon": 0.0, "rental_uris": {"ios": "https://dc.lft.to/lastmile_qr_scan", "android": "https://dc.lft.to/lastmile_qr_scan"}, "lon": -77.003338, "bike_id": "9daeb5bbd71609b5876387c3701e3362", "type": "electric_scooter", "name": "9daeb5bbd71609b5876387c3701e3362"}, {"is_disabled": 0, "is_reserved": 0, "fusion_lat": 0.0, "lat": 38.84603383333334, "fusion_lon": 0.0, "rental_uris": {"ios": "https://dc.lft.to/lastmile_qr_scan", "android": "https://dc.lft.to/lastmile_qr_scan"}, "lon": -76.9741405, "bike_id": "d379dc40654d93656a8d2e166fcf22b5", "type": "electric_scooter", "name": "d379dc40654d93656a8d2e166fcf22b5"}, {"is_disabled": 0, "is_reserved": 0, "fusion_lat": 0.0, "lat": 38.9378145, "fusion_lon": 0.0, "rental_uris": {"ios": "https://dc.lft.to/lastmile_qr_scan", "android": "https://dc.lft.to/lastmile_qr_scan"}, "lon": -77.02317716666667, "bike_id": "efa28e34b0f6a5eaa15578d0a258fcd1", "type": "electric_scooter", "name": "efa28e34b0f6a5eaa15578d0a258fcd1"}, {"is_disabled": 0, "is_reserved": 0, "fusion_lat": 0.0, "lat": 38.87840383333333, "fusion_lon": 0.0, "rental_uris": {"ios": "https://dc.lft.to/lastmile_qr_scan", "android": "https://dc.lft.to/lastmile_qr_scan"}, "lon": -76.98604716666667, "bike_id": "7bdbdb2b9da49ac1defd0c1bf33109f4", "type": "electric_scooter", "name": "7bdbdb2b9da49ac1defd0c1bf33109f4"}, {"is_disabled": 0, "is_reserved": 0, "fusion_lat": 0.0, "lat": 38.929857166666665, "fusion_lon": 0.0, "rental_uris": {"ios": "https://dc.lft.to/lastmile_qr_scan", "android": "https://dc.lft.to/lastmile_qr_scan"}, "lon": -77.03473433333333, "bike_id": "d8f4f72ad8b75af2575100a710f2ba26", "type": "electric_scooter", "name": "d8f4f72ad8b75af2575100a710f2ba26"}, {"is_disabled": 0, "is_reserved": 0, "fusion_lat": 0.0, "lat": 38.926673, "fusion_lon": 0.0, "rental_uris": {"ios": "https://dc.lft.to/lastmile_qr_scan", "android": "https://dc.lft.to/lastmile_qr_scan"}, "lon": -77.03028033333334, "bike_id": "fa17e106fc05f1ae95b47c973a98dc32", "type": "electric_scooter", "name": "fa17e106fc05f1ae95b47c973a98dc32"}, {"is_disabled": 0, "is_reserved": 0, "fusion_lat": 0.0, "lat": 38.872911333333334, "fusion_lon": 0.0, "rental_uris": {"ios": "https://dc.lft.to/lastmile_qr_scan", "android": "https://dc.lft.to/lastmile_qr_scan"}, "lon": -77.00992883333333, "bike_id": "1b272f5161066190dbeaa043a5c9a271", "type": "electric_scooter", "name": "1b272f5161066190dbeaa043a5c9a271"}, {"is_disabled": 0, "is_reserved": 0, "fusion_lat": 0.0, "lat": 38.935317, "fusion_lon": 0.0, "rental_uris": {"ios": "https://dc.lft.to/lastmile_qr_scan", "android": "https://dc.lft.to/lastmile_qr_scan"}, "lon": -77.02844, "bike_id": "2a6a4777f13cedbb59c9fb2f68e47573", "type": "electric_scooter", "name": "2a6a4777f13cedbb59c9fb2f68e47573"}, {"is_disabled": 0, "is_reserved": 0, "fusion_lat": 0.0, "lat": 38.919082833333334, "fusion_lon": 0.0, "rental_uris": {"ios": "https://dc.lft.to/lastmile_qr_scan", "android": "https://dc.lft.to/lastmile_qr_scan"}, "lon": -77.02312966666666, "bike_id": "900532e069e190dd3760d0ebc46594b9", "type": "electric_scooter", "name": "900532e069e190dd3760d0ebc46594b9"}, {"is_disabled": 0, "is_reserved": 0, "fusion_lat": 0.0, "lat": 38.9003115, "fusion_lon": 0.0, "rental_uris": {"ios": "https://dc.lft.to/lastmile_qr_scan", "android": "https://dc.lft.to/lastmile_qr_scan"}, "lon": -77.00367233333333, "bike_id": "eeb0f75da78e810e3eaca8dceb4a4a11", "type": "electric_scooter", "name": "eeb0f75da78e810e3eaca8dceb4a4a11"}, {"is_disabled": 0, "is_reserved": 0, "fusion_lat": 0.0, "lat": 38.920916, "fusion_lon": 0.0, "rental_uris": {"ios": "https://dc.lft.to/lastmile_qr_scan", "android": "https://dc.lft.to/lastmile_qr_scan"}, "lon": -77.01741883333334, "bike_id": "e56a87ff8eeb819c65a6ea557dde9297", "type": "electric_scooter", "name": "e56a87ff8eeb819c65a6ea557dde9297"}, {"is_disabled": 0, "is_reserved": 0, "fusion_lat": 0.0, "lat": 38.871014333333335, "fusion_lon": 0.0, "rental_uris": {"ios": "https://dc.lft.to/lastmile_qr_scan", "android": "https://dc.lft.to/lastmile_qr_scan"}, "lon": -77.0120495, "bike_id": "33c3c90e1099bed4ae80a0339af81503", "type": "electric_scooter", "name": "33c3c90e1099bed4ae80a0339af81503"}, {"is_disabled": 0, "is_reserved": 0, "fusion_lat": 0.0, "lat": 38.884847666666666, "fusion_lon": 0.0, "rental_uris": {"ios": "https://dc.lft.to/lastmile_qr_scan", "android": "https://dc.lft.to/lastmile_qr_scan"}, "lon": -77.02373516666667, "bike_id": "1ef21da06b63cae1d623a3c78e1b43fc", "type": "electric_scooter", "name": "1ef21da06b63cae1d623a3c78e1b43fc"}, {"is_disabled": 0, "is_reserved": 0, "fusion_lat": 0.0, "lat": 38.9484805, "fusion_lon": 0.0, "rental_uris": {"ios": "https://dc.lft.to/lastmile_qr_scan", "android": "https://dc.lft.to/lastmile_qr_scan"}, "lon": -77.0210715, "bike_id": "29d1123c286ceee2325ba073d6cf761b", "type": "electric_scooter", "name": "29d1123c286ceee2325ba073d6cf761b"}, {"is_disabled": 0, "is_reserved": 0, "fusion_lat": 0.0, "lat": 38.92349316666667, "fusion_lon": 0.0, "rental_uris": {"ios": "https://dc.lft.to/lastmile_qr_scan", "android": "https://dc.lft.to/lastmile_qr_scan"}, "lon": -77.03319433333333, "bike_id": "b58dbc4d5706eaf3bfdbc64458a7186d", "type": "electric_scooter", "name": "b58dbc4d5706eaf3bfdbc64458a7186d"}, {"is_disabled": 0, "is_reserved": 0, "fusion_lat": 0.0, "lat": 38.9297165, "fusion_lon": 0.0, "rental_uris": {"ios": "https://dc.lft.to/lastmile_qr_scan", "android": "https://dc.lft.to/lastmile_qr_scan"}, "lon": -77.03887716666667, "bike_id": "ad56a13a66940554b457bed233b33d40", "type": "electric_scooter", "name": "ad56a13a66940554b457bed233b33d40"}, {"is_disabled": 0, "is_reserved": 0, "fusion_lat": 0.0, "lat": 38.899991, "fusion_lon": 0.0, "rental_uris": {"ios": "https://dc.lft.to/lastmile_qr_scan", "android": "https://dc.lft.to/lastmile_qr_scan"}, "lon": -77.00663866666666, "bike_id": "d9cd298e221822e632f607497f2a9f00", "type": "electric_scooter", "name": "d9cd298e221822e632f607497f2a9f00"}, {"is_disabled": 0, "is_reserved": 0, "fusion_lat": 0.0, "lat": 38.91028466666667, "fusion_lon": 0.0, "rental_uris": {"ios": "https://dc.lft.to/lastmile_qr_scan", "android": "https://dc.lft.to/lastmile_qr_scan"}, "lon": -76.923387, "bike_id": "ba404c1b4696fe67e9b58711e803ea12", "type": "electric_bike", "name": "ba404c1b4696fe67e9b58711e803ea12"}, {"is_disabled": 0, "is_reserved": 0, "fusion_lat": 0.0, "lat": 38.93234866666667, "fusion_lon": 0.0, "rental_uris": {"ios": "https://dc.lft.to/lastmile_qr_scan", "android": "https://dc.lft.to/lastmile_qr_scan"}, "lon": -77.02932466666667, "bike_id": "37bc880239358876a3681fadb83d2133", "type": "electric_scooter", "name": "37bc880239358876a3681fadb83d2133"}, {"is_disabled": 0, "is_reserved": 0, "fusion_lat": 0.0, "lat": 38.909215, "fusion_lon": 0.0, "rental_uris": {"ios": "https://dc.lft.to/lastmile_qr_scan", "android": "https://dc.lft.to/lastmile_qr_scan"}, "lon": -77.04946483333333, "bike_id": "12ed888ce8dbcace3e425c381e0f8604", "type": "electric_scooter", "name": "12ed888ce8dbcace3e425c381e0f8604"}, {"is_disabled": 0, "is_reserved": 0, "fusion_lat": 0.0, "lat": 38.913544333333334, "fusion_lon": 0.0, "rental_uris": {"ios": "https://dc.lft.to/lastmile_qr_scan", "android": "https://dc.lft.to/lastmile_qr_scan"}, "lon": -76.9714125, "bike_id": "024030e46076697402d4f62ddded0a70", "type": "electric_scooter", "name": "024030e46076697402d4f62ddded0a70"}, {"is_disabled": 0, "is_reserved": 0, "fusion_lat": 0.0, "lat": 38.925042166666664, "fusion_lon": 0.0, "rental_uris": {"ios": "https://dc.lft.to/lastmile_qr_scan", "android": "https://dc.lft.to/lastmile_qr_scan"}, "lon": -77.02358966666667, "bike_id": "4c62bf33994ca812e666ac8d89d67a40", "type": "electric_scooter", "name": "4c62bf33994ca812e666ac8d89d67a40"}, {"is_disabled": 0, "is_reserved": 0, "fusion_lat": 0.0, "lat": 38.89940766666667, "fusion_lon": 0.0, "rental_uris": {"ios": "https://dc.lft.to/lastmile_qr_scan", "android": "https://dc.lft.to/lastmile_qr_scan"}, "lon": -77.0149315, "bike_id": "a276052100e484fe6037c6192234aed7", "type": "electric_scooter", "name": "a276052100e484fe6037c6192234aed7"}, {"is_disabled": 0, "is_reserved": 0, "fusion_lat": 0.0, "lat": 38.822095, "fusion_lon": 0.0, "rental_uris": {"ios": "https://dc.lft.to/lastmile_qr_scan", "android": "https://dc.lft.to/lastmile_qr_scan"}, "lon": -76.9770535, "bike_id": "be380adc36d12254fbaf5aea1fc4d480", "type": "electric_bike", "name": "be380adc36d12254fbaf5aea1fc4d480"}, {"is_disabled": 0, "is_reserved": 0, "fusion_lat": 0.0, "lat": 38.90725916666667, "fusion_lon": 0.0, "rental_uris": {"ios": "https://dc.lft.to/lastmile_qr_scan", "android": "https://dc.lft.to/lastmile_qr_scan"}, "lon": -77.03505433333333, "bike_id": "e3c489590aa9069f6ad785b1c145c2cd", "type": "electric_scooter", "name": "e3c489590aa9069f6ad785b1c145c2cd"}, {"is_disabled": 0, "is_reserved": 0, "fusion_lat": 0.0, "lat": 38.91470116666667, "fusion_lon": 0.0, "rental_uris": {"ios": "https://dc.lft.to/lastmile_qr_scan", "android": "https://dc.lft.to/lastmile_qr_scan"}, "lon": -77.00196866666667, "bike_id": "cc657d19d6962b3dcb063dc7afccf118", "type": "electric_scooter", "name": "cc657d19d6962b3dcb063dc7afccf118"}, {"is_disabled": 0, "is_reserved": 0, "fusion_lat": 0.0, "lat": 38.92816, "fusion_lon": 0.0, "rental_uris": {"ios": "https://dc.lft.to/lastmile_qr_scan", "android": "https://dc.lft.to/lastmile_qr_scan"}, "lon": -76.9761245, "bike_id": "171f554d4fa61537d053666ce1a52751", "type": "electric_scooter", "name": "171f554d4fa61537d053666ce1a52751"}, {"is_disabled": 0, "is_reserved": 0, "fusion_lat": 0.0, "lat": 38.892639833333334, "fusion_lon": 0.0, "rental_uris": {"ios": "https://dc.lft.to/lastmile_qr_scan", "android": "https://dc.lft.to/lastmile_qr_scan"}, "lon": -77.04674366666667, "bike_id": "8392ff590b0672f4c5f0d29fe0f057f1", "type": "electric_scooter", "name": "8392ff590b0672f4c5f0d29fe0f057f1"}, {"is_disabled": 0, "is_reserved": 0, "fusion_lat": 0.0, "lat": 38.90511083333333, "fusion_lon": 0.0, "rental_uris": {"ios": "https://dc.lft.to/lastmile_qr_scan", "android": "https://dc.lft.to/lastmile_qr_scan"}, "lon": -77.04820916666667, "bike_id": "a6ff14ec8c9614a565e3deaaa6be1b59", "type": "electric_scooter", "name": "a6ff14ec8c9614a565e3deaaa6be1b59"}, {"is_disabled": 0, "is_reserved": 0, "fusion_lat": 0.0, "lat": 38.903733333333335, "fusion_lon": 0.0, "rental_uris": {"ios": "https://dc.lft.to/lastmile_qr_scan", "android": "https://dc.lft.to/lastmile_qr_scan"}, "lon": -77.01631883333333, "bike_id": "3c732ba1535ea718af859b8a77653baa", "type": "electric_scooter", "name": "3c732ba1535ea718af859b8a77653baa"}, {"is_disabled": 0, "is_reserved": 0, "fusion_lat": 0.0, "lat": 38.914091, "fusion_lon": 0.0, "rental_uris": {"ios": "https://dc.lft.to/lastmile_qr_scan", "android": "https://dc.lft.to/lastmile_qr_scan"}, "lon": -77.01068383333333, "bike_id": "adf677f0c0275b1aaa943cf54f68a963", "type": "electric_scooter", "name": "adf677f0c0275b1aaa943cf54f68a963"}, {"is_disabled": 0, "is_reserved": 0, "fusion_lat": 0.0, "lat": 38.88625316666667, "fusion_lon": 0.0, "rental_uris": {"ios": "https://dc.lft.to/lastmile_qr_scan", "android": "https://dc.lft.to/lastmile_qr_scan"}, "lon": -76.990118, "bike_id": "e2d39dfa013a9352c7785163c33bb219", "type": "electric_bike", "name": "e2d39dfa013a9352c7785163c33bb219"}, {"is_disabled": 0, "is_reserved": 0, "fusion_lat": 0.0, "lat": 38.90695233333334, "fusion_lon": 0.0, "rental_uris": {"ios": "https://dc.lft.to/lastmile_qr_scan", "android": "https://dc.lft.to/lastmile_qr_scan"}, "lon": -76.95255516666667, "bike_id": "c1a6c13e51138c806ee4951ee11c2adb", "type": "electric_bike", "name": "c1a6c13e51138c806ee4951ee11c2adb"}, {"is_disabled": 0, "is_reserved": 0, "fusion_lat": 0.0, "lat": 38.892297, "fusion_lon": 0.0, "rental_uris": {"ios": "https://dc.lft.to/lastmile_qr_scan", "android": "https://dc.lft.to/lastmile_qr_scan"}, "lon": -77.05002833333333, "bike_id": "d20720b648bf5fe9fbe8e7351217dd89", "type": "electric_scooter", "name": "d20720b648bf5fe9fbe8e7351217dd89"}, {"is_disabled": 0, "is_reserved": 0, "fusion_lat": 0.0, "lat": 38.94715016666667, "fusion_lon": 0.0, "rental_uris": {"ios": "https://dc.lft.to/lastmile_qr_scan", "android": "https://dc.lft.to/lastmile_qr_scan"}, "lon": -77.06801916666667, "bike_id": "8f70502571d87ec74b82b8b8dfa036d0", "type": "electric_scooter", "name": "8f70502571d87ec74b82b8b8dfa036d0"}, {"is_disabled": 0, "is_reserved": 0, "fusion_lat": 0.0, "lat": 38.883564, "fusion_lon": 0.0, "rental_uris": {"ios": "https://dc.lft.to/lastmile_qr_scan", "android": "https://dc.lft.to/lastmile_qr_scan"}, "lon": -76.95769083333333, "bike_id": "d940159b611b88d33d6afb21ccb21fa6", "type": "electric_scooter", "name": "d940159b611b88d33d6afb21ccb21fa6"}, {"is_disabled": 0, "is_reserved": 0, "fusion_lat": 0.0, "lat": 38.94248833333333, "fusion_lon": 0.0, "rental_uris": {"ios": "https://dc.lft.to/lastmile_qr_scan", "android": "https://dc.lft.to/lastmile_qr_scan"}, "lon": -76.98453683333334, "bike_id": "7a562860d87af77d6e843334fc5b5c53", "type": "electric_scooter", "name": "7a562860d87af77d6e843334fc5b5c53"}, {"is_disabled": 0, "is_reserved": 0, "fusion_lat": 0.0, "lat": 38.89709083333333, "fusion_lon": 0.0, "rental_uris": {"ios": "https://dc.lft.to/lastmile_qr_scan", "android": "https://dc.lft.to/lastmile_qr_scan"}, "lon": -77.05108666666666, "bike_id": "ad77c8c28a61b501457f710ea1262b85", "type": "electric_scooter", "name": "ad77c8c28a61b501457f710ea1262b85"}, {"is_disabled": 0, "is_reserved": 0, "fusion_lat": 0.0, "lat": 38.90604416666667, "fusion_lon": 0.0, "rental_uris": {"ios": "https://dc.lft.to/lastmile_qr_scan", "android": "https://dc.lft.to/lastmile_qr_scan"}, "lon": -77.05651566666667, "bike_id": "9475669833c8d814d8480d9cee9e56ee", "type": "electric_scooter", "name": "9475669833c8d814d8480d9cee9e56ee"}, {"is_disabled": 0, "is_reserved": 0, "fusion_lat": 0.0, "lat": 38.93448133333333, "fusion_lon": 0.0, "rental_uris": {"ios": "https://dc.lft.to/lastmile_qr_scan", "android": "https://dc.lft.to/lastmile_qr_scan"}, "lon": -77.029881, "bike_id": "f39536b82e196938ee427898a7a24ab3", "type": "electric_scooter", "name": "f39536b82e196938ee427898a7a24ab3"}, {"is_disabled": 0, "is_reserved": 0, "fusion_lat": 0.0, "lat": 38.900348, "fusion_lon": 0.0, "rental_uris": {"ios": "https://dc.lft.to/lastmile_qr_scan", "android": "https://dc.lft.to/lastmile_qr_scan"}, "lon": -77.00375183333334, "bike_id": "661260adfb032f9e6e3423b2f42c51ff", "type": "electric_scooter", "name": "661260adfb032f9e6e3423b2f42c51ff"}, {"is_disabled": 0, "is_reserved": 0, "fusion_lat": 0.0, "lat": 38.90249716666667, "fusion_lon": 0.0, "rental_uris": {"ios": "https://dc.lft.to/lastmile_qr_scan", "android": "https://dc.lft.to/lastmile_qr_scan"}, "lon": -77.0115965, "bike_id": "53a70126aa3793c0929fbfe88750f558", "type": "electric_scooter", "name": "53a70126aa3793c0929fbfe88750f558"}, {"is_disabled": 0, "is_reserved": 0, "fusion_lat": 0.0, "lat": 38.933626333333336, "fusion_lon": 0.0, "rental_uris": {"ios": "https://dc.lft.to/lastmile_qr_scan", "android": "https://dc.lft.to/lastmile_qr_scan"}, "lon": -77.02648433333333, "bike_id": "9c7773a6d9d8922cbaa8df0f54cc2a85", "type": "electric_scooter", "name": "9c7773a6d9d8922cbaa8df0f54cc2a85"}, {"is_disabled": 0, "is_reserved": 0, "fusion_lat": 0.0, "lat": 38.906096, "fusion_lon": 0.0, "rental_uris": {"ios": "https://dc.lft.to/lastmile_qr_scan", "android": "https://dc.lft.to/lastmile_qr_scan"}, "lon": -77.12885166666666, "bike_id": "e603b4d4778ef9acd3c91f306d98d499", "type": "electric_bike", "name": "e603b4d4778ef9acd3c91f306d98d499"}, {"is_disabled": 0, "is_reserved": 0, "fusion_lat": 0.0, "lat": 38.919698, "fusion_lon": 0.0, "rental_uris": {"ios": "https://dc.lft.to/lastmile_qr_scan", "android": "https://dc.lft.to/lastmile_qr_scan"}, "lon": -77.00212716666667, "bike_id": "a7d72881f6ef094153f10fb5ae6d71b7", "type": "electric_scooter", "name": "a7d72881f6ef094153f10fb5ae6d71b7"}, {"is_disabled": 0, "is_reserved": 0, "fusion_lat": 0.0, "lat": 38.9209815, "fusion_lon": 0.0, "rental_uris": {"ios": "https://dc.lft.to/lastmile_qr_scan", "android": "https://dc.lft.to/lastmile_qr_scan"}, "lon": -77.04689033333334, "bike_id": "5e6fa26775295368f4fc393e11f201e1", "type": "electric_scooter", "name": "5e6fa26775295368f4fc393e11f201e1"}, {"is_disabled": 0, "is_reserved": 0, "fusion_lat": 0.0, "lat": 38.911743666666666, "fusion_lon": 0.0, "rental_uris": {"ios": "https://dc.lft.to/lastmile_qr_scan", "android": "https://dc.lft.to/lastmile_qr_scan"}, "lon": -77.0282885, "bike_id": "bbe42c39e7e0d4cbb8f73b235aba9854", "type": "electric_scooter", "name": "bbe42c39e7e0d4cbb8f73b235aba9854"}, {"is_disabled": 0, "is_reserved": 0, "fusion_lat": 0.0, "lat": 38.933706666666666, "fusion_lon": 0.0, "rental_uris": {"ios": "https://dc.lft.to/lastmile_qr_scan", "android": "https://dc.lft.to/lastmile_qr_scan"}, "lon": -77.02723933333333, "bike_id": "73f1c963e752fdd4584b4327d1e41dbe", "type": "electric_scooter", "name": "73f1c963e752fdd4584b4327d1e41dbe"}, {"is_disabled": 0, "is_reserved": 0, "fusion_lat": 0.0, "lat": 38.86888066666667, "fusion_lon": 0.0, "rental_uris": {"ios": "https://dc.lft.to/lastmile_qr_scan", "android": "https://dc.lft.to/lastmile_qr_scan"}, "lon": -76.9900395, "bike_id": "1e1449265ec12edaca30eeb839b5a750", "type": "electric_scooter", "name": "1e1449265ec12edaca30eeb839b5a750"}, {"is_disabled": 0, "is_reserved": 0, "fusion_lat": 0.0, "lat": 38.8960495, "fusion_lon": 0.0, "rental_uris": {"ios": "https://dc.lft.to/lastmile_qr_scan", "android": "https://dc.lft.to/lastmile_qr_scan"}, "lon": -76.98316766666667, "bike_id": "4604d3bc350127d982bff44653c2a1b0", "type": "electric_scooter", "name": "4604d3bc350127d982bff44653c2a1b0"}, {"is_disabled": 0, "is_reserved": 0, "fusion_lat": 0.0, "lat": 38.900450166666666, "fusion_lon": 0.0, "rental_uris": {"ios": "https://dc.lft.to/lastmile_qr_scan", "android": "https://dc.lft.to/lastmile_qr_scan"}, "lon": -77.05053883333333, "bike_id": "ce65a968917c6e70fd692eef7ee6cc26", "type": "electric_scooter", "name": "ce65a968917c6e70fd692eef7ee6cc26"}, {"is_disabled": 0, "is_reserved": 0, "fusion_lat": 0.0, "lat": 38.917299, "fusion_lon": 0.0, "rental_uris": {"ios": "https://dc.lft.to/lastmile_qr_scan", "android": "https://dc.lft.to/lastmile_qr_scan"}, "lon": -77.0261605, "bike_id": "fc18d2f29647ff69ca20678771829f5c", "type": "electric_scooter", "name": "fc18d2f29647ff69ca20678771829f5c"}, {"is_disabled": 0, "is_reserved": 0, "fusion_lat": 0.0, "lat": 38.923143, "fusion_lon": 0.0, "rental_uris": {"ios": "https://dc.lft.to/lastmile_qr_scan", "android": "https://dc.lft.to/lastmile_qr_scan"}, "lon": -77.03811333333333, "bike_id": "7ef7e1de929e987353c5c860d66fc6a8", "type": "electric_scooter", "name": "7ef7e1de929e987353c5c860d66fc6a8"}, {"is_disabled": 0, "is_reserved": 0, "fusion_lat": 0.0, "lat": 38.87634366666666, "fusion_lon": 0.0, "rental_uris": {"ios": "https://dc.lft.to/lastmile_qr_scan", "android": "https://dc.lft.to/lastmile_qr_scan"}, "lon": -77.015965, "bike_id": "641ae4153f565154a0b915402df19f17", "type": "electric_scooter", "name": "641ae4153f565154a0b915402df19f17"}, {"is_disabled": 0, "is_reserved": 0, "fusion_lat": 0.0, "lat": 38.91261683333333, "fusion_lon": 0.0, "rental_uris": {"ios": "https://dc.lft.to/lastmile_qr_scan", "android": "https://dc.lft.to/lastmile_qr_scan"}, "lon": -77.04709833333334, "bike_id": "89e1d32a986dd8995cdeb7d341647c42", "type": "electric_scooter", "name": "89e1d32a986dd8995cdeb7d341647c42"}, {"is_disabled": 0, "is_reserved": 0, "fusion_lat": 0.0, "lat": 38.91804366666667, "fusion_lon": 0.0, "rental_uris": {"ios": "https://dc.lft.to/lastmile_qr_scan", "android": "https://dc.lft.to/lastmile_qr_scan"}, "lon": -77.000068, "bike_id": "a642136e651617283f4e947cbf027fee", "type": "electric_scooter", "name": "a642136e651617283f4e947cbf027fee"}, {"is_disabled": 0, "is_reserved": 0, "fusion_lat": 0.0, "lat": 38.8897435, "fusion_lon": 0.0, "rental_uris": {"ios": "https://dc.lft.to/lastmile_qr_scan", "android": "https://dc.lft.to/lastmile_qr_scan"}, "lon": -76.9817965, "bike_id": "1a5a36f1963eb6a4e800d89ad9c9e46a", "type": "electric_scooter", "name": "1a5a36f1963eb6a4e800d89ad9c9e46a"}, {"is_disabled": 0, "is_reserved": 0, "fusion_lat": 0.0, "lat": 38.91174566666667, "fusion_lon": 0.0, "rental_uris": {"ios": "https://dc.lft.to/lastmile_qr_scan", "android": "https://dc.lft.to/lastmile_qr_scan"}, "lon": -77.01209916666667, "bike_id": "f4f436197ab03c34304507f524d2c71f", "type": "electric_scooter", "name": "f4f436197ab03c34304507f524d2c71f"}, {"is_disabled": 0, "is_reserved": 0, "fusion_lat": 0.0, "lat": 38.88839183333333, "fusion_lon": 0.0, "rental_uris": {"ios": "https://dc.lft.to/lastmile_qr_scan", "android": "https://dc.lft.to/lastmile_qr_scan"}, "lon": -77.04906633333333, "bike_id": "b3b947090f80a7ccca9a53bf74aa4458", "type": "electric_scooter", "name": "b3b947090f80a7ccca9a53bf74aa4458"}, {"is_disabled": 0, "is_reserved": 0, "fusion_lat": 0.0, "lat": 38.881873, "fusion_lon": 0.0, "rental_uris": {"ios": "https://dc.lft.to/lastmile_qr_scan", "android": "https://dc.lft.to/lastmile_qr_scan"}, "lon": -77.003519, "bike_id": "96ad92ad0435bae1237d5a9b24db2950", "type": "electric_scooter", "name": "96ad92ad0435bae1237d5a9b24db2950"}, {"is_disabled": 0, "is_reserved": 0, "fusion_lat": 0.0, "lat": 38.92430933333333, "fusion_lon": 0.0, "rental_uris": {"ios": "https://dc.lft.to/lastmile_qr_scan", "android": "https://dc.lft.to/lastmile_qr_scan"}, "lon": -77.01944933333333, "bike_id": "a442663e7d56cff710119fa8df9137be", "type": "electric_scooter", "name": "a442663e7d56cff710119fa8df9137be"}, {"is_disabled": 0, "is_reserved": 0, "fusion_lat": 0.0, "lat": 38.92823683333334, "fusion_lon": 0.0, "rental_uris": {"ios": "https://dc.lft.to/lastmile_qr_scan", "android": "https://dc.lft.to/lastmile_qr_scan"}, "lon": -77.05972616666666, "bike_id": "f62774b8c8f038b46145d715cbf735c1", "type": "electric_bike", "name": "f62774b8c8f038b46145d715cbf735c1"}, {"is_disabled": 0, "is_reserved": 0, "fusion_lat": 0.0, "lat": 38.899335, "fusion_lon": 0.0, "rental_uris": {"ios": "https://dc.lft.to/lastmile_qr_scan", "android": "https://dc.lft.to/lastmile_qr_scan"}, "lon": -76.93761266666667, "bike_id": "496406465af6758c56aa0d9cc4fb1dd5", "type": "electric_scooter", "name": "496406465af6758c56aa0d9cc4fb1dd5"}, {"is_disabled": 0, "is_reserved": 0, "fusion_lat": 0.0, "lat": 38.917447833333334, "fusion_lon": 0.0, "rental_uris": {"ios": "https://dc.lft.to/lastmile_qr_scan", "android": "https://dc.lft.to/lastmile_qr_scan"}, "lon": -77.010798, "bike_id": "53788d21884f0656c200e86f32fd72d6", "type": "electric_scooter", "name": "53788d21884f0656c200e86f32fd72d6"}, {"is_disabled": 0, "is_reserved": 0, "fusion_lat": 0.0, "lat": 38.876373, "fusion_lon": 0.0, "rental_uris": {"ios": "https://dc.lft.to/lastmile_qr_scan", "android": "https://dc.lft.to/lastmile_qr_scan"}, "lon": -77.0020505, "bike_id": "b6db51dd4ff1b36128ee12df62973ea6", "type": "electric_scooter", "name": "b6db51dd4ff1b36128ee12df62973ea6"}, {"is_disabled": 0, "is_reserved": 0, "fusion_lat": 0.0, "lat": 38.87078783333333, "fusion_lon": 0.0, "rental_uris": {"ios": "https://dc.lft.to/lastmile_qr_scan", "android": "https://dc.lft.to/lastmile_qr_scan"}, "lon": -77.010731, "bike_id": "aa7e9fcc6c885d5e39a841f0ac069f04", "type": "electric_scooter", "name": "aa7e9fcc6c885d5e39a841f0ac069f04"}, {"is_disabled": 0, "is_reserved": 0, "fusion_lat": 0.0, "lat": 38.842753, "fusion_lon": 0.0, "rental_uris": {"ios": "https://dc.lft.to/lastmile_qr_scan", "android": "https://dc.lft.to/lastmile_qr_scan"}, "lon": -76.988382, "bike_id": "fde86df9f05e6abfea34bf73d4234048", "type": "electric_scooter", "name": "fde86df9f05e6abfea34bf73d4234048"}, {"is_disabled": 0, "is_reserved": 0, "fusion_lat": 0.0, "lat": 38.877545166666664, "fusion_lon": 0.0, "rental_uris": {"ios": "https://dc.lft.to/lastmile_qr_scan", "android": "https://dc.lft.to/lastmile_qr_scan"}, "lon": -77.00445633333334, "bike_id": "d1e21824e0c7d891f35366e2085684cf", "type": "electric_scooter", "name": "d1e21824e0c7d891f35366e2085684cf"}, {"is_disabled": 0, "is_reserved": 0, "fusion_lat": 0.0, "lat": 38.919959166666665, "fusion_lon": 0.0, "rental_uris": {"ios": "https://dc.lft.to/lastmile_qr_scan", "android": "https://dc.lft.to/lastmile_qr_scan"}, "lon": -77.03220933333333, "bike_id": "79ed132040376cd5a98d611e55232b33", "type": "electric_scooter", "name": "79ed132040376cd5a98d611e55232b33"}, {"is_disabled": 0, "is_reserved": 0, "fusion_lat": 0.0, "lat": 38.96353283333333, "fusion_lon": 0.0, "rental_uris": {"ios": "https://dc.lft.to/lastmile_qr_scan", "android": "https://dc.lft.to/lastmile_qr_scan"}, "lon": -77.03443766666666, "bike_id": "7a8b29d3bba7297a2c22c53adb2eeeb4", "type": "electric_scooter", "name": "7a8b29d3bba7297a2c22c53adb2eeeb4"}, {"is_disabled": 0, "is_reserved": 0, "fusion_lat": 0.0, "lat": 38.89550583333333, "fusion_lon": 0.0, "rental_uris": {"ios": "https://dc.lft.to/lastmile_qr_scan", "android": "https://dc.lft.to/lastmile_qr_scan"}, "lon": -77.046594, "bike_id": "219991653ee4bb79ae70fc7ddb87eab3", "type": "electric_scooter", "name": "219991653ee4bb79ae70fc7ddb87eab3"}, {"is_disabled": 0, "is_reserved": 0, "fusion_lat": 0.0, "lat": 38.9044625, "fusion_lon": 0.0, "rental_uris": {"ios": "https://dc.lft.to/lastmile_qr_scan", "android": "https://dc.lft.to/lastmile_qr_scan"}, "lon": -76.97307366666666, "bike_id": "085d9222ddfd15a5fdfe78b032237bfd", "type": "electric_scooter", "name": "085d9222ddfd15a5fdfe78b032237bfd"}, {"is_disabled": 0, "is_reserved": 0, "fusion_lat": 0.0, "lat": 38.93118883333333, "fusion_lon": 0.0, "rental_uris": {"ios": "https://dc.lft.to/lastmile_qr_scan", "android": "https://dc.lft.to/lastmile_qr_scan"}, "lon": -77.02069916666666, "bike_id": "0fabec81ffac730c632e4aff6fbe8a19", "type": "electric_scooter", "name": "0fabec81ffac730c632e4aff6fbe8a19"}, {"is_disabled": 0, "is_reserved": 0, "fusion_lat": 0.0, "lat": 38.926533, "fusion_lon": 0.0, "rental_uris": {"ios": "https://dc.lft.to/lastmile_qr_scan", "android": "https://dc.lft.to/lastmile_qr_scan"}, "lon": -77.02426366666667, "bike_id": "594dcd5ed60f9374a6b64bc839d496e2", "type": "electric_scooter", "name": "594dcd5ed60f9374a6b64bc839d496e2"}, {"is_disabled": 0, "is_reserved": 0, "fusion_lat": 0.0, "lat": 38.92352566666667, "fusion_lon": 0.0, "rental_uris": {"ios": "https://dc.lft.to/lastmile_qr_scan", "android": "https://dc.lft.to/lastmile_qr_scan"}, "lon": -77.04378533333333, "bike_id": "3efe9964458b304e0ed32472513f178f", "type": "electric_scooter", "name": "3efe9964458b304e0ed32472513f178f"}, {"is_disabled": 0, "is_reserved": 0, "fusion_lat": 0.0, "lat": 38.91104716666667, "fusion_lon": 0.0, "rental_uris": {"ios": "https://dc.lft.to/lastmile_qr_scan", "android": "https://dc.lft.to/lastmile_qr_scan"}, "lon": -77.00376083333333, "bike_id": "cb2714e231abc7d5e9ce8bef7e17894e", "type": "electric_scooter", "name": "cb2714e231abc7d5e9ce8bef7e17894e"}, {"is_disabled": 0, "is_reserved": 0, "fusion_lat": 0.0, "lat": 38.920760666666666, "fusion_lon": 0.0, "rental_uris": {"ios": "https://dc.lft.to/lastmile_qr_scan", "android": "https://dc.lft.to/lastmile_qr_scan"}, "lon": -77.023578, "bike_id": "7a4b573e47be4458a041754c07087a63", "type": "electric_scooter", "name": "7a4b573e47be4458a041754c07087a63"}, {"is_disabled": 0, "is_reserved": 0, "fusion_lat": 0.0, "lat": 38.923596833333335, "fusion_lon": 0.0, "rental_uris": {"ios": "https://dc.lft.to/lastmile_qr_scan", "android": "https://dc.lft.to/lastmile_qr_scan"}, "lon": -77.07302833333334, "bike_id": "9a53fd9439bf4060e3efa0a8e351a943", "type": "electric_scooter", "name": "9a53fd9439bf4060e3efa0a8e351a943"}, {"is_disabled": 0, "is_reserved": 0, "fusion_lat": 0.0, "lat": 38.9360095, "fusion_lon": 0.0, "rental_uris": {"ios": "https://dc.lft.to/lastmile_qr_scan", "android": "https://dc.lft.to/lastmile_qr_scan"}, "lon": -77.055896, "bike_id": "7b419a5280d0f178661441ab5f4952f8", "type": "electric_scooter", "name": "7b419a5280d0f178661441ab5f4952f8"}, {"is_disabled": 0, "is_reserved": 0, "fusion_lat": 0.0, "lat": 38.93694516666667, "fusion_lon": 0.0, "rental_uris": {"ios": "https://dc.lft.to/lastmile_qr_scan", "android": "https://dc.lft.to/lastmile_qr_scan"}, "lon": -77.05594566666667, "bike_id": "fad53593cbfa559f17e74d118550a7d1", "type": "electric_scooter", "name": "fad53593cbfa559f17e74d118550a7d1"}, {"is_disabled": 0, "is_reserved": 0, "fusion_lat": 0.0, "lat": 38.91412866666667, "fusion_lon": 0.0, "rental_uris": {"ios": "https://dc.lft.to/lastmile_qr_scan", "android": "https://dc.lft.to/lastmile_qr_scan"}, "lon": -77.04396883333334, "bike_id": "2ee99ff0ab566a40df1480303c1634fe", "type": "electric_scooter", "name": "2ee99ff0ab566a40df1480303c1634fe"}, {"is_disabled": 0, "is_reserved": 0, "fusion_lat": 0.0, "lat": 38.9264965, "fusion_lon": 0.0, "rental_uris": {"ios": "https://dc.lft.to/lastmile_qr_scan", "android": "https://dc.lft.to/lastmile_qr_scan"}, "lon": -77.02439666666666, "bike_id": "04bd1f8c6b7f69424a742ffeb17cfea4", "type": "electric_scooter", "name": "04bd1f8c6b7f69424a742ffeb17cfea4"}, {"is_disabled": 0, "is_reserved": 0, "fusion_lat": 0.0, "lat": 38.90793383333333, "fusion_lon": 0.0, "rental_uris": {"ios": "https://dc.lft.to/lastmile_qr_scan", "android": "https://dc.lft.to/lastmile_qr_scan"}, "lon": -77.038436, "bike_id": "7ae0608878f21c6592a3aafe298ebfb5", "type": "electric_scooter", "name": "7ae0608878f21c6592a3aafe298ebfb5"}, {"is_disabled": 0, "is_reserved": 0, "fusion_lat": 0.0, "lat": 38.92154683333333, "fusion_lon": 0.0, "rental_uris": {"ios": "https://dc.lft.to/lastmile_qr_scan", "android": "https://dc.lft.to/lastmile_qr_scan"}, "lon": -77.03654383333334, "bike_id": "e271e8282cc3ad7f139ebcdbf1418621", "type": "electric_scooter", "name": "e271e8282cc3ad7f139ebcdbf1418621"}, {"is_disabled": 0, "is_reserved": 0, "fusion_lat": 0.0, "lat": 38.9067305, "fusion_lon": 0.0, "rental_uris": {"ios": "https://dc.lft.to/lastmile_qr_scan", "android": "https://dc.lft.to/lastmile_qr_scan"}, "lon": -77.0295235, "bike_id": "c3934dc13f6cda75f2cf2c4eb741d5a3", "type": "electric_scooter", "name": "c3934dc13f6cda75f2cf2c4eb741d5a3"}, {"is_disabled": 0, "is_reserved": 0, "fusion_lat": 0.0, "lat": 38.92351683333333, "fusion_lon": 0.0, "rental_uris": {"ios": "https://dc.lft.to/lastmile_qr_scan", "android": "https://dc.lft.to/lastmile_qr_scan"}, "lon": -77.05279133333333, "bike_id": "4fdc7323a77512f7c175ce5f9ca07b8b", "type": "electric_scooter", "name": "4fdc7323a77512f7c175ce5f9ca07b8b"}, {"is_disabled": 0, "is_reserved": 0, "fusion_lat": 0.0, "lat": 38.8934355, "fusion_lon": 0.0, "rental_uris": {"ios": "https://dc.lft.to/lastmile_qr_scan", "android": "https://dc.lft.to/lastmile_qr_scan"}, "lon": -76.99374283333333, "bike_id": "147bb8adc47b42fe4c6bd93aebf1ee37", "type": "electric_scooter", "name": "147bb8adc47b42fe4c6bd93aebf1ee37"}, {"is_disabled": 0, "is_reserved": 0, "fusion_lat": 0.0, "lat": 38.89279033333333, "fusion_lon": 0.0, "rental_uris": {"ios": "https://dc.lft.to/lastmile_qr_scan", "android": "https://dc.lft.to/lastmile_qr_scan"}, "lon": -77.04504966666667, "bike_id": "f110478756ae142e20554122a454d5c2", "type": "electric_scooter", "name": "f110478756ae142e20554122a454d5c2"}, {"is_disabled": 0, "is_reserved": 0, "fusion_lat": 0.0, "lat": 38.841016333333336, "fusion_lon": 0.0, "rental_uris": {"ios": "https://dc.lft.to/lastmile_qr_scan", "android": "https://dc.lft.to/lastmile_qr_scan"}, "lon": -76.98715216666666, "bike_id": "382ef7cbe3113cb0e826aa88219f56a5", "type": "electric_bike", "name": "382ef7cbe3113cb0e826aa88219f56a5"}, {"is_disabled": 0, "is_reserved": 0, "fusion_lat": 0.0, "lat": 38.910451333333334, "fusion_lon": 0.0, "rental_uris": {"ios": "https://dc.lft.to/lastmile_qr_scan", "android": "https://dc.lft.to/lastmile_qr_scan"}, "lon": -76.99796933333333, "bike_id": "5dc48d44e22c9ab3cea7c8af0d996f2f", "type": "electric_scooter", "name": "5dc48d44e22c9ab3cea7c8af0d996f2f"}, {"is_disabled": 0, "is_reserved": 0, "fusion_lat": 0.0, "lat": 38.918299833333336, "fusion_lon": 0.0, "rental_uris": {"ios": "https://dc.lft.to/lastmile_qr_scan", "android": "https://dc.lft.to/lastmile_qr_scan"}, "lon": -77.0531415, "bike_id": "ac77e78b36c4944429e47969e3c85bd7", "type": "electric_scooter", "name": "ac77e78b36c4944429e47969e3c85bd7"}, {"is_disabled": 0, "is_reserved": 0, "fusion_lat": 0.0, "lat": 38.93455683333333, "fusion_lon": 0.0, "rental_uris": {"ios": "https://dc.lft.to/lastmile_qr_scan", "android": "https://dc.lft.to/lastmile_qr_scan"}, "lon": -77.023956, "bike_id": "b00857a4c6c22585638ff2713f1dd5b1", "type": "electric_scooter", "name": "b00857a4c6c22585638ff2713f1dd5b1"}, {"is_disabled": 0, "is_reserved": 0, "fusion_lat": 0.0, "lat": 38.905539833333336, "fusion_lon": 0.0, "rental_uris": {"ios": "https://dc.lft.to/lastmile_qr_scan", "android": "https://dc.lft.to/lastmile_qr_scan"}, "lon": -77.00428233333334, "bike_id": "17c458acb0a3766a56bc0774433835dd", "type": "electric_scooter", "name": "17c458acb0a3766a56bc0774433835dd"}, {"is_disabled": 0, "is_reserved": 0, "fusion_lat": 0.0, "lat": 38.908614666666665, "fusion_lon": 0.0, "rental_uris": {"ios": "https://dc.lft.to/lastmile_qr_scan", "android": "https://dc.lft.to/lastmile_qr_scan"}, "lon": -77.03519033333333, "bike_id": "c654b6a159d736a6031bbbc4213c594c", "type": "electric_scooter", "name": "c654b6a159d736a6031bbbc4213c594c"}, {"is_disabled": 0, "is_reserved": 0, "fusion_lat": 0.0, "lat": 38.88434783333334, "fusion_lon": 0.0, "rental_uris": {"ios": "https://dc.lft.to/lastmile_qr_scan", "android": "https://dc.lft.to/lastmile_qr_scan"}, "lon": -77.02485866666666, "bike_id": "91bb7c17eadd94edb29f1123b4f2af85", "type": "electric_scooter", "name": "91bb7c17eadd94edb29f1123b4f2af85"}, {"is_disabled": 0, "is_reserved": 0, "fusion_lat": 0.0, "lat": 38.921312666666665, "fusion_lon": 0.0, "rental_uris": {"ios": "https://dc.lft.to/lastmile_qr_scan", "android": "https://dc.lft.to/lastmile_qr_scan"}, "lon": -77.04562983333334, "bike_id": "04136ca84adebf874c04e130efd5af78", "type": "electric_scooter", "name": "04136ca84adebf874c04e130efd5af78"}, {"is_disabled": 0, "is_reserved": 0, "fusion_lat": 0.0, "lat": 38.96796583333333, "fusion_lon": 0.0, "rental_uris": {"ios": "https://dc.lft.to/lastmile_qr_scan", "android": "https://dc.lft.to/lastmile_qr_scan"}, "lon": -77.02562483333334, "bike_id": "282d968944051fbb80d89b970d107b29", "type": "electric_scooter", "name": "282d968944051fbb80d89b970d107b29"}, {"is_disabled": 0, "is_reserved": 0, "fusion_lat": 0.0, "lat": 38.90433316666667, "fusion_lon": 0.0, "rental_uris": {"ios": "https://dc.lft.to/lastmile_qr_scan", "android": "https://dc.lft.to/lastmile_qr_scan"}, "lon": -77.03116216666666, "bike_id": "28a40937b91848a87c86688b4bbb6bb8", "type": "electric_scooter", "name": "28a40937b91848a87c86688b4bbb6bb8"}, {"is_disabled": 0, "is_reserved": 0, "fusion_lat": 0.0, "lat": 38.90562466666667, "fusion_lon": 0.0, "rental_uris": {"ios": "https://dc.lft.to/lastmile_qr_scan", "android": "https://dc.lft.to/lastmile_qr_scan"}, "lon": -77.00709016666667, "bike_id": "9b8c44f760887ebf4375c1332e7175a9", "type": "electric_scooter", "name": "9b8c44f760887ebf4375c1332e7175a9"}, {"is_disabled": 0, "is_reserved": 0, "fusion_lat": 0.0, "lat": 38.917611666666666, "fusion_lon": 0.0, "rental_uris": {"ios": "https://dc.lft.to/lastmile_qr_scan", "android": "https://dc.lft.to/lastmile_qr_scan"}, "lon": -77.0476205, "bike_id": "c0bcf78bb9989ea79bdad0192a7dc85f", "type": "electric_scooter", "name": "c0bcf78bb9989ea79bdad0192a7dc85f"}, {"is_disabled": 0, "is_reserved": 0, "fusion_lat": 0.0, "lat": 38.922138833333335, "fusion_lon": 0.0, "rental_uris": {"ios": "https://dc.lft.to/lastmile_qr_scan", "android": "https://dc.lft.to/lastmile_qr_scan"}, "lon": -77.07439916666667, "bike_id": "f54057e4ee3aa7637be61b942c20006f", "type": "electric_scooter", "name": "f54057e4ee3aa7637be61b942c20006f"}, {"is_disabled": 0, "is_reserved": 0, "fusion_lat": 0.0, "lat": 38.905870166666666, "fusion_lon": 0.0, "rental_uris": {"ios": "https://dc.lft.to/lastmile_qr_scan", "android": "https://dc.lft.to/lastmile_qr_scan"}, "lon": -77.01613066666667, "bike_id": "c120d24f02b0fd6cb132b16a446cf312", "type": "electric_scooter", "name": "c120d24f02b0fd6cb132b16a446cf312"}, {"is_disabled": 0, "is_reserved": 0, "fusion_lat": 0.0, "lat": 38.84629233333333, "fusion_lon": 0.0, "rental_uris": {"ios": "https://dc.lft.to/lastmile_qr_scan", "android": "https://dc.lft.to/lastmile_qr_scan"}, "lon": -76.9690375, "bike_id": "af243691c1a5c99824eff8bf1cb22d81", "type": "electric_bike", "name": "af243691c1a5c99824eff8bf1cb22d81"}, {"is_disabled": 0, "is_reserved": 0, "fusion_lat": 0.0, "lat": 38.834891166666665, "fusion_lon": 0.0, "rental_uris": {"ios": "https://dc.lft.to/lastmile_qr_scan", "android": "https://dc.lft.to/lastmile_qr_scan"}, "lon": -77.004331, "bike_id": "b10a48b462dc66be77af0e58722421bd", "type": "electric_bike", "name": "b10a48b462dc66be77af0e58722421bd"}, {"is_disabled": 0, "is_reserved": 0, "fusion_lat": 0.0, "lat": 38.97477416666667, "fusion_lon": 0.0, "rental_uris": {"ios": "https://dc.lft.to/lastmile_qr_scan", "android": "https://dc.lft.to/lastmile_qr_scan"}, "lon": -76.9867365, "bike_id": "db7ffd5904a0f345391add0043004b07", "type": "electric_bike", "name": "db7ffd5904a0f345391add0043004b07"}, {"is_disabled": 0, "is_reserved": 0, "fusion_lat": 0.0, "lat": 38.9103975, "fusion_lon": 0.0, "rental_uris": {"ios": "https://dc.lft.to/lastmile_qr_scan", "android": "https://dc.lft.to/lastmile_qr_scan"}, "lon": -77.00959766666666, "bike_id": "0a37d413b3505c2bb7592622af434c31", "type": "electric_scooter", "name": "0a37d413b3505c2bb7592622af434c31"}, {"is_disabled": 0, "is_reserved": 0, "fusion_lat": 0.0, "lat": 38.904927, "fusion_lon": 0.0, "rental_uris": {"ios": "https://dc.lft.to/lastmile_qr_scan", "android": "https://dc.lft.to/lastmile_qr_scan"}, "lon": -77.0258665, "bike_id": "9a48d99e5377aaf61402ee7dbad0c41b", "type": "electric_scooter", "name": "9a48d99e5377aaf61402ee7dbad0c41b"}, {"is_disabled": 0, "is_reserved": 0, "fusion_lat": 0.0, "lat": 39.02301833333333, "fusion_lon": 0.0, "rental_uris": {"ios": "https://dc.lft.to/lastmile_qr_scan", "android": "https://dc.lft.to/lastmile_qr_scan"}, "lon": -77.02109166666666, "bike_id": "ac740d1e5a2f07ca8d3bf49c29b2b14d", "type": "electric_bike", "name": "ac740d1e5a2f07ca8d3bf49c29b2b14d"}, {"is_disabled": 0, "is_reserved": 0, "fusion_lat": 0.0, "lat": 38.89847483333333, "fusion_lon": 0.0, "rental_uris": {"ios": "https://dc.lft.to/lastmile_qr_scan", "android": "https://dc.lft.to/lastmile_qr_scan"}, "lon": -77.00190783333333, "bike_id": "fcdbc446becb9345149f0b96ca2b9683", "type": "electric_scooter", "name": "fcdbc446becb9345149f0b96ca2b9683"}, {"is_disabled": 0, "is_reserved": 0, "fusion_lat": 0.0, "lat": 38.927813666666665, "fusion_lon": 0.0, "rental_uris": {"ios": "https://dc.lft.to/lastmile_qr_scan", "android": "https://dc.lft.to/lastmile_qr_scan"}, "lon": -77.02964, "bike_id": "f48f004251c8fe443dc2cc30df798afb", "type": "electric_bike", "name": "f48f004251c8fe443dc2cc30df798afb"}, {"is_disabled": 0, "is_reserved": 0, "fusion_lat": 0.0, "lat": 38.917684333333334, "fusion_lon": 0.0, "rental_uris": {"ios": "https://dc.lft.to/lastmile_qr_scan", "android": "https://dc.lft.to/lastmile_qr_scan"}, "lon": -77.040599, "bike_id": "4401088168929b618abdb2b8f54854d8", "type": "electric_scooter", "name": "4401088168929b618abdb2b8f54854d8"}, {"is_disabled": 0, "is_reserved": 0, "fusion_lat": 0.0, "lat": 38.90578333333333, "fusion_lon": 0.0, "rental_uris": {"ios": "https://dc.lft.to/lastmile_qr_scan", "android": "https://dc.lft.to/lastmile_qr_scan"}, "lon": -76.98166716666667, "bike_id": "942c37393e2a935dc77c335869c41816", "type": "electric_bike", "name": "942c37393e2a935dc77c335869c41816"}, {"is_disabled": 0, "is_reserved": 0, "fusion_lat": 0.0, "lat": 38.920608, "fusion_lon": 0.0, "rental_uris": {"ios": "https://dc.lft.to/lastmile_qr_scan", "android": "https://dc.lft.to/lastmile_qr_scan"}, "lon": -77.045416, "bike_id": "79439bb61278753e23f6f12458ac9594", "type": "electric_scooter", "name": "79439bb61278753e23f6f12458ac9594"}, {"is_disabled": 0, "is_reserved": 0, "fusion_lat": 0.0, "lat": 38.921756, "fusion_lon": 0.0, "rental_uris": {"ios": "https://dc.lft.to/lastmile_qr_scan", "android": "https://dc.lft.to/lastmile_qr_scan"}, "lon": -76.9985415, "bike_id": "4ed88e0d7eee834e97d775eb90852990", "type": "electric_scooter", "name": "4ed88e0d7eee834e97d775eb90852990"}, {"is_disabled": 0, "is_reserved": 0, "fusion_lat": 0.0, "lat": 38.891968166666665, "fusion_lon": 0.0, "rental_uris": {"ios": "https://dc.lft.to/lastmile_qr_scan", "android": "https://dc.lft.to/lastmile_qr_scan"}, "lon": -77.00295533333333, "bike_id": "2b77b0c9d5c80f7a225132e9f4802c3d", "type": "electric_scooter", "name": "2b77b0c9d5c80f7a225132e9f4802c3d"}, {"is_disabled": 0, "is_reserved": 0, "fusion_lat": 0.0, "lat": 38.93350866666667, "fusion_lon": 0.0, "rental_uris": {"ios": "https://dc.lft.to/lastmile_qr_scan", "android": "https://dc.lft.to/lastmile_qr_scan"}, "lon": -77.025668, "bike_id": "0b31ef075fe5d0a63656be264c28f8c6", "type": "electric_scooter", "name": "0b31ef075fe5d0a63656be264c28f8c6"}, {"is_disabled": 0, "is_reserved": 0, "fusion_lat": 0.0, "lat": 38.962156, "fusion_lon": 0.0, "rental_uris": {"ios": "https://dc.lft.to/lastmile_qr_scan", "android": "https://dc.lft.to/lastmile_qr_scan"}, "lon": -77.02629266666666, "bike_id": "727252c4fe9b82439e97b793d2f081f2", "type": "electric_bike", "name": "727252c4fe9b82439e97b793d2f081f2"}, {"is_disabled": 0, "is_reserved": 0, "fusion_lat": 0.0, "lat": 38.9245125, "fusion_lon": 0.0, "rental_uris": {"ios": "https://dc.lft.to/lastmile_qr_scan", "android": "https://dc.lft.to/lastmile_qr_scan"}, "lon": -77.02042966666667, "bike_id": "d451918e001fa02ed58cc955d71542b1", "type": "electric_scooter", "name": "d451918e001fa02ed58cc955d71542b1"}, {"is_disabled": 0, "is_reserved": 0, "fusion_lat": 0.0, "lat": 38.8920125, "fusion_lon": 0.0, "rental_uris": {"ios": "https://dc.lft.to/lastmile_qr_scan", "android": "https://dc.lft.to/lastmile_qr_scan"}, "lon": -76.99862883333333, "bike_id": "ca34ea0de14aa0547e2c22cedecc8d5d", "type": "electric_scooter", "name": "ca34ea0de14aa0547e2c22cedecc8d5d"}, {"is_disabled": 0, "is_reserved": 0, "fusion_lat": 0.0, "lat": 38.807303, "fusion_lon": 0.0, "rental_uris": {"ios": "https://dc.lft.to/lastmile_qr_scan", "android": "https://dc.lft.to/lastmile_qr_scan"}, "lon": -76.99262433333334, "bike_id": "55c67fda5dd4730a8cd37e0b59523de2", "type": "electric_bike", "name": "55c67fda5dd4730a8cd37e0b59523de2"}, {"is_disabled": 0, "is_reserved": 0, "fusion_lat": 0.0, "lat": 38.892055166666665, "fusion_lon": 0.0, "rental_uris": {"ios": "https://dc.lft.to/lastmile_qr_scan", "android": "https://dc.lft.to/lastmile_qr_scan"}, "lon": -76.929258, "bike_id": "f42c0c9feace1ac29d7a9cc21be64b0f", "type": "electric_scooter", "name": "f42c0c9feace1ac29d7a9cc21be64b0f"}, {"is_disabled": 0, "is_reserved": 0, "fusion_lat": 0.0, "lat": 38.8939385, "fusion_lon": 0.0, "rental_uris": {"ios": "https://dc.lft.to/lastmile_qr_scan", "android": "https://dc.lft.to/lastmile_qr_scan"}, "lon": -77.0236885, "bike_id": "cc70f2f1f4aa05ac6bf56a5353b8184c", "type": "electric_scooter", "name": "cc70f2f1f4aa05ac6bf56a5353b8184c"}, {"is_disabled": 0, "is_reserved": 0, "fusion_lat": 0.0, "lat": 38.89929383333333, "fusion_lon": 0.0, "rental_uris": {"ios": "https://dc.lft.to/lastmile_qr_scan", "android": "https://dc.lft.to/lastmile_qr_scan"}, "lon": -77.00160583333333, "bike_id": "a5b3d9b0b25c0296178bc0c1a6a0ec42", "type": "electric_bike", "name": "a5b3d9b0b25c0296178bc0c1a6a0ec42"}, {"is_disabled": 0, "is_reserved": 0, "fusion_lat": 0.0, "lat": 38.909329666666665, "fusion_lon": 0.0, "rental_uris": {"ios": "https://dc.lft.to/lastmile_qr_scan", "android": "https://dc.lft.to/lastmile_qr_scan"}, "lon": -77.0458385, "bike_id": "6dbd47f02db69c6ee920f5d13ea9e1f9", "type": "electric_scooter", "name": "6dbd47f02db69c6ee920f5d13ea9e1f9"}, {"is_disabled": 0, "is_reserved": 0, "fusion_lat": 0.0, "lat": 38.916610666666664, "fusion_lon": 0.0, "rental_uris": {"ios": "https://dc.lft.to/lastmile_qr_scan", "android": "https://dc.lft.to/lastmile_qr_scan"}, "lon": -77.00044583333333, "bike_id": "51c19ab32a209d83b0966e43778d8d49", "type": "electric_scooter", "name": "51c19ab32a209d83b0966e43778d8d49"}, {"is_disabled": 0, "is_reserved": 0, "fusion_lat": 0.0, "lat": 38.876955333333335, "fusion_lon": 0.0, "rental_uris": {"ios": "https://dc.lft.to/lastmile_qr_scan", "android": "https://dc.lft.to/lastmile_qr_scan"}, "lon": -77.01761233333333, "bike_id": "c1eae1309b6e6bd24f23b3386151d858", "type": "electric_scooter", "name": "c1eae1309b6e6bd24f23b3386151d858"}, {"is_disabled": 0, "is_reserved": 0, "fusion_lat": 0.0, "lat": 38.929057, "fusion_lon": 0.0, "rental_uris": {"ios": "https://dc.lft.to/lastmile_qr_scan", "android": "https://dc.lft.to/lastmile_qr_scan"}, "lon": -77.0261625, "bike_id": "c03622fe44548ce218f5112f4450ac88", "type": "electric_scooter", "name": "c03622fe44548ce218f5112f4450ac88"}, {"is_disabled": 0, "is_reserved": 0, "fusion_lat": 0.0, "lat": 38.941953, "fusion_lon": 0.0, "rental_uris": {"ios": "https://dc.lft.to/lastmile_qr_scan", "android": "https://dc.lft.to/lastmile_qr_scan"}, "lon": -77.08824516666667, "bike_id": "5b3faa70f8ce79c161108585434a6b8b", "type": "electric_scooter", "name": "5b3faa70f8ce79c161108585434a6b8b"}, {"is_disabled": 0, "is_reserved": 0, "fusion_lat": 0.0, "lat": 38.905578, "fusion_lon": 0.0, "rental_uris": {"ios": "https://dc.lft.to/lastmile_qr_scan", "android": "https://dc.lft.to/lastmile_qr_scan"}, "lon": -77.04857966666667, "bike_id": "484885ff276f61a225bcaadf7c3fe8de", "type": "electric_scooter", "name": "484885ff276f61a225bcaadf7c3fe8de"}, {"is_disabled": 0, "is_reserved": 0, "fusion_lat": 0.0, "lat": 38.906021, "fusion_lon": 0.0, "rental_uris": {"ios": "https://dc.lft.to/lastmile_qr_scan", "android": "https://dc.lft.to/lastmile_qr_scan"}, "lon": -77.03380583333333, "bike_id": "349d39496a777ebf431ef57dbaf35097", "type": "electric_scooter", "name": "349d39496a777ebf431ef57dbaf35097"}, {"is_disabled": 0, "is_reserved": 0, "fusion_lat": 0.0, "lat": 38.8955095, "fusion_lon": 0.0, "rental_uris": {"ios": "https://dc.lft.to/lastmile_qr_scan", "android": "https://dc.lft.to/lastmile_qr_scan"}, "lon": -77.01589416666667, "bike_id": "ec1f32b030f681c7f6bc9429569a8f42", "type": "electric_scooter", "name": "ec1f32b030f681c7f6bc9429569a8f42"}, {"is_disabled": 0, "is_reserved": 0, "fusion_lat": 0.0, "lat": 38.92344516666667, "fusion_lon": 0.0, "rental_uris": {"ios": "https://dc.lft.to/lastmile_qr_scan", "android": "https://dc.lft.to/lastmile_qr_scan"}, "lon": -77.0353465, "bike_id": "2501492d9a4f22f193bcd26a646ea1db", "type": "electric_scooter", "name": "2501492d9a4f22f193bcd26a646ea1db"}, {"is_disabled": 0, "is_reserved": 0, "fusion_lat": 0.0, "lat": 38.92560066666667, "fusion_lon": 0.0, "rental_uris": {"ios": "https://dc.lft.to/lastmile_qr_scan", "android": "https://dc.lft.to/lastmile_qr_scan"}, "lon": -77.02280566666667, "bike_id": "6926275402c5cdb811b008daf6be74a6", "type": "electric_scooter", "name": "6926275402c5cdb811b008daf6be74a6"}, {"is_disabled": 0, "is_reserved": 0, "fusion_lat": 0.0, "lat": 38.892224, "fusion_lon": 0.0, "rental_uris": {"ios": "https://dc.lft.to/lastmile_qr_scan", "android": "https://dc.lft.to/lastmile_qr_scan"}, "lon": -77.03339766666667, "bike_id": "ee06504745d87e11ed407fe323e0be64", "type": "electric_scooter", "name": "ee06504745d87e11ed407fe323e0be64"}, {"is_disabled": 0, "is_reserved": 0, "fusion_lat": 0.0, "lat": 38.902283, "fusion_lon": 0.0, "rental_uris": {"ios": "https://dc.lft.to/lastmile_qr_scan", "android": "https://dc.lft.to/lastmile_qr_scan"}, "lon": -77.015069, "bike_id": "f032c840442b503ee6481eb1ddaeecc9", "type": "electric_scooter", "name": "f032c840442b503ee6481eb1ddaeecc9"}, {"is_disabled": 0, "is_reserved": 0, "fusion_lat": 0.0, "lat": 38.827616, "fusion_lon": 0.0, "rental_uris": {"ios": "https://dc.lft.to/lastmile_qr_scan", "android": "https://dc.lft.to/lastmile_qr_scan"}, "lon": -77.05030016666667, "bike_id": "6b089060ffaf5d47564f989646de102a", "type": "electric_bike", "name": "6b089060ffaf5d47564f989646de102a"}, {"is_disabled": 0, "is_reserved": 0, "fusion_lat": 0.0, "lat": 38.9188555, "fusion_lon": 0.0, "rental_uris": {"ios": "https://dc.lft.to/lastmile_qr_scan", "android": "https://dc.lft.to/lastmile_qr_scan"}, "lon": -77.04176983333333, "bike_id": "ac0fa831dc0a661da1ef1ea83093a259", "type": "electric_scooter", "name": "ac0fa831dc0a661da1ef1ea83093a259"}, {"is_disabled": 0, "is_reserved": 0, "fusion_lat": 0.0, "lat": 38.914755, "fusion_lon": 0.0, "rental_uris": {"ios": "https://dc.lft.to/lastmile_qr_scan", "android": "https://dc.lft.to/lastmile_qr_scan"}, "lon": -77.0428375, "bike_id": "a06138917468333ef0cefca6f6c6ddb8", "type": "electric_scooter", "name": "a06138917468333ef0cefca6f6c6ddb8"}, {"is_disabled": 0, "is_reserved": 0, "fusion_lat": 0.0, "lat": 38.91995566666667, "fusion_lon": 0.0, "rental_uris": {"ios": "https://dc.lft.to/lastmile_qr_scan", "android": "https://dc.lft.to/lastmile_qr_scan"}, "lon": -77.0321775, "bike_id": "d5701c9ee47721dfd4b6d79dad35cd8a", "type": "electric_scooter", "name": "d5701c9ee47721dfd4b6d79dad35cd8a"}, {"is_disabled": 0, "is_reserved": 0, "fusion_lat": 0.0, "lat": 38.924827, "fusion_lon": 0.0, "rental_uris": {"ios": "https://dc.lft.to/lastmile_qr_scan", "android": "https://dc.lft.to/lastmile_qr_scan"}, "lon": -77.02661916666666, "bike_id": "e95efe6d6b59734635235696bf48d983", "type": "electric_scooter", "name": "e95efe6d6b59734635235696bf48d983"}, {"is_disabled": 0, "is_reserved": 0, "fusion_lat": 0.0, "lat": 38.935288166666666, "fusion_lon": 0.0, "rental_uris": {"ios": "https://dc.lft.to/lastmile_qr_scan", "android": "https://dc.lft.to/lastmile_qr_scan"}, "lon": -77.02352616666667, "bike_id": "12c62fd2261fb219d9b235fc1620b481", "type": "electric_scooter", "name": "12c62fd2261fb219d9b235fc1620b481"}, {"is_disabled": 0, "is_reserved": 0, "fusion_lat": 0.0, "lat": 38.928143666666664, "fusion_lon": 0.0, "rental_uris": {"ios": "https://dc.lft.to/lastmile_qr_scan", "android": "https://dc.lft.to/lastmile_qr_scan"}, "lon": -77.04354683333334, "bike_id": "a65ad5f9bbb8d0989c05e4cc152a6ba0", "type": "electric_scooter", "name": "a65ad5f9bbb8d0989c05e4cc152a6ba0"}, {"is_disabled": 0, "is_reserved": 0, "fusion_lat": 0.0, "lat": 38.900804666666666, "fusion_lon": 0.0, "rental_uris": {"ios": "https://dc.lft.to/lastmile_qr_scan", "android": "https://dc.lft.to/lastmile_qr_scan"}, "lon": -77.01873916666666, "bike_id": "5ffdbfcaf3d9ae39348d002b03f03072", "type": "electric_scooter", "name": "5ffdbfcaf3d9ae39348d002b03f03072"}, {"is_disabled": 0, "is_reserved": 0, "fusion_lat": 0.0, "lat": 38.928578, "fusion_lon": 0.0, "rental_uris": {"ios": "https://dc.lft.to/lastmile_qr_scan", "android": "https://dc.lft.to/lastmile_qr_scan"}, "lon": -77.03612633333333, "bike_id": "e6df6fddc93b1cd12b05dab837214045", "type": "electric_scooter", "name": "e6df6fddc93b1cd12b05dab837214045"}, {"is_disabled": 0, "is_reserved": 0, "fusion_lat": 0.0, "lat": 38.941404, "fusion_lon": 0.0, "rental_uris": {"ios": "https://dc.lft.to/lastmile_qr_scan", "android": "https://dc.lft.to/lastmile_qr_scan"}, "lon": -77.02316716666667, "bike_id": "40a6b62fcd5cdc69dbe24a9d54cca3c7", "type": "electric_scooter", "name": "40a6b62fcd5cdc69dbe24a9d54cca3c7"}, {"is_disabled": 0, "is_reserved": 0, "fusion_lat": 0.0, "lat": 38.92203133333334, "fusion_lon": 0.0, "rental_uris": {"ios": "https://dc.lft.to/lastmile_qr_scan", "android": "https://dc.lft.to/lastmile_qr_scan"}, "lon": -77.037746, "bike_id": "09f3df0be356ff39c979e4f707abc48c", "type": "electric_scooter", "name": "09f3df0be356ff39c979e4f707abc48c"}, {"is_disabled": 0, "is_reserved": 0, "fusion_lat": 0.0, "lat": 38.920553, "fusion_lon": 0.0, "rental_uris": {"ios": "https://dc.lft.to/lastmile_qr_scan", "android": "https://dc.lft.to/lastmile_qr_scan"}, "lon": -76.99885116666667, "bike_id": "d1983c14611357cb745bf7785587250e", "type": "electric_scooter", "name": "d1983c14611357cb745bf7785587250e"}, {"is_disabled": 0, "is_reserved": 0, "fusion_lat": 0.0, "lat": 38.8481175, "fusion_lon": 0.0, "rental_uris": {"ios": "https://dc.lft.to/lastmile_qr_scan", "android": "https://dc.lft.to/lastmile_qr_scan"}, "lon": -77.08415233333334, "bike_id": "054a6d5388d48bf026143ca0e6bf3ee3", "type": "electric_bike", "name": "054a6d5388d48bf026143ca0e6bf3ee3"}, {"is_disabled": 0, "is_reserved": 0, "fusion_lat": 0.0, "lat": 38.909981333333334, "fusion_lon": 0.0, "rental_uris": {"ios": "https://dc.lft.to/lastmile_qr_scan", "android": "https://dc.lft.to/lastmile_qr_scan"}, "lon": -76.98611883333334, "bike_id": "68dd3e748ec663281a14fff9ff706c6a", "type": "electric_scooter", "name": "68dd3e748ec663281a14fff9ff706c6a"}, {"is_disabled": 0, "is_reserved": 0, "fusion_lat": 0.0, "lat": 38.9177535, "fusion_lon": 0.0, "rental_uris": {"ios": "https://dc.lft.to/lastmile_qr_scan", "android": "https://dc.lft.to/lastmile_qr_scan"}, "lon": -77.0234385, "bike_id": "2442713491216bf261036e0802dac110", "type": "electric_scooter", "name": "2442713491216bf261036e0802dac110"}, {"is_disabled": 0, "is_reserved": 0, "fusion_lat": 0.0, "lat": 38.90800766666667, "fusion_lon": 0.0, "rental_uris": {"ios": "https://dc.lft.to/lastmile_qr_scan", "android": "https://dc.lft.to/lastmile_qr_scan"}, "lon": -77.00074566666666, "bike_id": "f169100e16584d5907ce643560b5ca59", "type": "electric_scooter", "name": "f169100e16584d5907ce643560b5ca59"}, {"is_disabled": 0, "is_reserved": 0, "fusion_lat": 0.0, "lat": 38.92469583333333, "fusion_lon": 0.0, "rental_uris": {"ios": "https://dc.lft.to/lastmile_qr_scan", "android": "https://dc.lft.to/lastmile_qr_scan"}, "lon": -77.0375315, "bike_id": "c02909e75bc10e74eac34548daec54b6", "type": "electric_scooter", "name": "c02909e75bc10e74eac34548daec54b6"}, {"is_disabled": 0, "is_reserved": 0, "fusion_lat": 0.0, "lat": 38.91789583333333, "fusion_lon": 0.0, "rental_uris": {"ios": "https://dc.lft.to/lastmile_qr_scan", "android": "https://dc.lft.to/lastmile_qr_scan"}, "lon": -77.03195916666667, "bike_id": "24ea7b0c1d4ee9df1e36d962416ce67c", "type": "electric_scooter", "name": "24ea7b0c1d4ee9df1e36d962416ce67c"}, {"is_disabled": 0, "is_reserved": 0, "fusion_lat": 0.0, "lat": 38.9345605, "fusion_lon": 0.0, "rental_uris": {"ios": "https://dc.lft.to/lastmile_qr_scan", "android": "https://dc.lft.to/lastmile_qr_scan"}, "lon": -77.0241065, "bike_id": "b7b93d9a2dcc6b21ea5c2b6d7693e6d3", "type": "electric_scooter", "name": "b7b93d9a2dcc6b21ea5c2b6d7693e6d3"}, {"is_disabled": 0, "is_reserved": 0, "fusion_lat": 0.0, "lat": 38.937450166666665, "fusion_lon": 0.0, "rental_uris": {"ios": "https://dc.lft.to/lastmile_qr_scan", "android": "https://dc.lft.to/lastmile_qr_scan"},