{"data": {"bikes": [{"rental_uris": {"android": "https://dc.lft.to/lastmile_qr_scan", "ios": "https://dc.lft.to/lastmile_qr_scan"}, "type": "electric_scooter", "lon": -76.99828233333334, "name": "0f10d1341f0e9cb4f126a0c0a3b91e72", "bike_id": "0f10d1341f0e9cb4f126a0c0a3b91e72", "fusion_lat": 0.0, "is_reserved": 0, "lat": 38.882699, "fusion_lon": 0.0, "is_disabled": 0}, {"rental_uris": {"android": "https://dc.lft.to/lastmile_qr_scan", "ios": "https://dc.lft.to/lastmile_qr_scan"}, "type": "electric_scooter", "lon": -77.04693766666666, "name": "ebca7eb87a982b8f165f7b5ced803981", "bike_id": "ebca7eb87a982b8f165f7b5ced803981", "fusion_lat": 0.0, "is_reserved": 0, "lat": 38.91581516666667, "fusion_lon": 0.0, "is_disabled": 0}, {"rental_uris": {"android": "https://dc.lft.to/lastmile_qr_scan", "ios": "https://dc.lft.to/lastmile_qr_scan"}, "type": "electric_bike", "lon": -77.04983633333333, "name": "4dd5c95979c6a1dcd68bdd6e846b2ecd", "bike_id": "4dd5c95979c6a1dcd68bdd6e846b2ecd", "fusion_lat": 0.0, "is_reserved": 0, "lat": 38.992418666666666, "fusion_lon": 0.0, "is_disabled": 0}, {"rental_uris": {"android": "https://dc.lft.to/lastmile_qr_scan", "ios": "https://dc.lft.to/lastmile_qr_scan"}, "type": "electric_scooter", "lon": -76.99035916666666, "name": "c63ea7d6ca1aed5abd5aac1b7393eb1a", "bike_id": "c63ea7d6ca1aed5abd5aac1b7393eb1a", "fusion_lat": 0.0, "is_reserved": 0, "lat": 38.92341533333333, "fusion_lon": 0.0, "is_disabled": 0}, {"rental_uris": {"android": "https://dc.lft.to/lastmile_qr_scan", "ios": "https://dc.lft.to/lastmile_qr_scan"}, "type": "electric_scooter", "lon": -77.035757, "name": "2f497101f8121e7e7f1ea4f8159d46cc", "bike_id": "2f497101f8121e7e7f1ea4f8159d46cc", "fusion_lat": 0.0, "is_reserved": 0, "lat": 38.92869666666667, "fusion_lon": 0.0, "is_disabled": 0}, {"rental_uris": {"android": "https://dc.lft.to/lastmile_qr_scan", "ios": "https://dc.lft.to/lastmile_qr_scan"}, "type": "electric_bike", "lon": -77.19543833333333, "name": "0236425958252c44208e4a0147f5d7b1", "bike_id": "0236425958252c44208e4a0147f5d7b1", "fusion_lat": 0.0, "is_reserved": 0, "lat": 39.1151835, "fusion_lon": 0.0, "is_disabled": 0}, {"rental_uris": {"android": "https://dc.lft.to/lastmile_qr_scan", "ios": "https://dc.lft.to/lastmile_qr_scan"}, "type": "electric_scooter", "lon": -77.00923716666667, "name": "5fde5c6a62fef0c0ba8a1053a57d57e8", "bike_id": "5fde5c6a62fef0c0ba8a1053a57d57e8", "fusion_lat": 0.0, "is_reserved": 0, "lat": 38.876327, "fusion_lon": 0.0, "is_disabled": 0}, {"rental_uris": {"android": "https://dc.lft.to/lastmile_qr_scan", "ios": "https://dc.lft.to/lastmile_qr_scan"}, "type": "electric_bike", "lon": -76.96696783333333, "name": "23458d43a1c8b1bb34340268a3005d1e", "bike_id": "23458d43a1c8b1bb34340268a3005d1e", "fusion_lat": 0.0, "is_reserved": 0, "lat": 38.86851816666667, "fusion_lon": 0.0, "is_disabled": 0}, {"rental_uris": {"android": "https://dc.lft.to/lastmile_qr_scan", "ios": "https://dc.lft.to/lastmile_qr_scan"}, "type": "electric_bike", "lon": -77.01202066666667, "name": "33331105946e527ee60ba327c89aa6b6", "bike_id": "33331105946e527ee60ba327c89aa6b6", "fusion_lat": 0.0, "is_reserved": 0, "lat": 38.95071433333333, "fusion_lon": 0.0, "is_disabled": 0}, {"rental_uris": {"android": "https://dc.lft.to/lastmile_qr_scan", "ios": "https://dc.lft.to/lastmile_qr_scan"}, "type": "electric_scooter", "lon": -77.02685833333334, "name": "6881551a612337b1793c2425c3e1c84f", "bike_id": "6881551a612337b1793c2425c3e1c84f", "fusion_lat": 0.0, "is_reserved": 0, "lat": 38.909613, "fusion_lon": 0.0, "is_disabled": 0}, {"rental_uris": {"android": "https://dc.lft.to/lastmile_qr_scan", "ios": "https://dc.lft.to/lastmile_qr_scan"}, "type": "electric_scooter", "lon": -77.01722216666667, "name": "944c993fd34710bd320c2b4328af20e7", "bike_id": "944c993fd34710bd320c2b4328af20e7", "fusion_lat": 0.0, "is_reserved": 0, "lat": 38.8859235, "fusion_lon": 0.0, "is_disabled": 0}, {"rental_uris": {"android": "https://dc.lft.to/lastmile_qr_scan", "ios": "https://dc.lft.to/lastmile_qr_scan"}, "type": "electric_bike", "lon": -77.03627233333333, "name": "d2666614919d9b0eda29fae308f2e973", "bike_id": "d2666614919d9b0eda29fae308f2e973", "fusion_lat": 0.0, "is_reserved": 0, "lat": 38.93766433333333, "fusion_lon": 0.0, "is_disabled": 0}, {"rental_uris": {"android": "https://dc.lft.to/lastmile_qr_scan", "ios": "https://dc.lft.to/lastmile_qr_scan"}, "type": "electric_scooter", "lon": -76.9483905, "name": "330a6e5cd173615701a6ece53962fdc2", "bike_id": "330a6e5cd173615701a6ece53962fdc2", "fusion_lat": 0.0, "is_reserved": 0, "lat": 38.894851333333335, "fusion_lon": 0.0, "is_disabled": 0}, {"rental_uris": {"android": "https://dc.lft.to/lastmile_qr_scan", "ios": "https://dc.lft.to/lastmile_qr_scan"}, "type": "electric_scooter", "lon": -77.01122783333334, "name": "cdc5d97289a68890bdccc704229d5578", "bike_id": "cdc5d97289a68890bdccc704229d5578", "fusion_lat": 0.0, "is_reserved": 0, "lat": 38.903614166666664, "fusion_lon": 0.0, "is_disabled": 0}, {"rental_uris": {"android": "https://dc.lft.to/lastmile_qr_scan", "ios": "https://dc.lft.to/lastmile_qr_scan"}, "type": "electric_scooter", "lon": -77.03266766666667, "name": "855617b0c537efa1996fd54b4079dcdd", "bike_id": "855617b0c537efa1996fd54b4079dcdd", "fusion_lat": 0.0, "is_reserved": 0, "lat": 38.91400566666667, "fusion_lon": 0.0, "is_disabled": 0}, {"rental_uris": {"android": "https://dc.lft.to/lastmile_qr_scan", "ios": "https://dc.lft.to/lastmile_qr_scan"}, "type": "electric_scooter", "lon": -77.0447505, "name": "3f25df1809a5fae35c280d9c692391f7", "bike_id": "3f25df1809a5fae35c280d9c692391f7", "fusion_lat": 0.0, "is_reserved": 0, "lat": 38.9108455, "fusion_lon": 0.0, "is_disabled": 0}, {"rental_uris": {"android": "https://dc.lft.to/lastmile_qr_scan", "ios": "https://dc.lft.to/lastmile_qr_scan"}, "type": "electric_scooter", "lon": -77.05232083333334, "name": "9f46a9bb27c69c41c87319c8650ead4a", "bike_id": "9f46a9bb27c69c41c87319c8650ead4a", "fusion_lat": 0.0, "is_reserved": 0, "lat": 38.924633666666665, "fusion_lon": 0.0, "is_disabled": 0}, {"rental_uris": {"android": "https://dc.lft.to/lastmile_qr_scan", "ios": "https://dc.lft.to/lastmile_qr_scan"}, "type": "electric_bike", "lon": -77.01297933333333, "name": "8cc73442ca3f120d6d13d34fd44ae9df", "bike_id": "8cc73442ca3f120d6d13d34fd44ae9df", "fusion_lat": 0.0, "is_reserved": 0, "lat": 39.003606166666664, "fusion_lon": 0.0, "is_disabled": 0}, {"rental_uris": {"android": "https://dc.lft.to/lastmile_qr_scan", "ios": "https://dc.lft.to/lastmile_qr_scan"}, "type": "electric_scooter", "lon": -77.00598066666667, "name": "d9fcd7255232ac876aeaba8a7440ee97", "bike_id": "d9fcd7255232ac876aeaba8a7440ee97", "fusion_lat": 0.0, "is_reserved": 0, "lat": 38.87700233333333, "fusion_lon": 0.0, "is_disabled": 0}, {"rental_uris": {"android": "https://dc.lft.to/lastmile_qr_scan", "ios": "https://dc.lft.to/lastmile_qr_scan"}, "type": "electric_bike", "lon": -77.085316, "name": "a30659c38ba3f23b9f6ccc83c6384b57", "bike_id": "a30659c38ba3f23b9f6ccc83c6384b57", "fusion_lat": 0.0, "is_reserved": 0, "lat": 38.85649683333333, "fusion_lon": 0.0, "is_disabled": 0}, {"rental_uris": {"android": "https://dc.lft.to/lastmile_qr_scan", "ios": "https://dc.lft.to/lastmile_qr_scan"}, "type": "electric_scooter", "lon": -77.048387, "name": "be536b2ec3fa30f3c26cbb4e9ee6b189", "bike_id": "be536b2ec3fa30f3c26cbb4e9ee6b189", "fusion_lat": 0.0, "is_reserved": 0, "lat": 38.91330766666667, "fusion_lon": 0.0, "is_disabled": 0}, {"rental_uris": {"android": "https://dc.lft.to/lastmile_qr_scan", "ios": "https://dc.lft.to/lastmile_qr_scan"}, "type": "electric_scooter", "lon": -77.025458, "name": "981dbab3fa70a4c4934b7d64c063326c", "bike_id": "981dbab3fa70a4c4934b7d64c063326c", "fusion_lat": 0.0, "is_reserved": 0, "lat": 38.89213933333333, "fusion_lon": 0.0, "is_disabled": 0}, {"rental_uris": {"android": "https://dc.lft.to/lastmile_qr_scan", "ios": "https://dc.lft.to/lastmile_qr_scan"}, "type": "electric_bike", "lon": -77.09521716666667, "name": "7a78a53a413621c22742d1a7af3a59c9", "bike_id": "7a78a53a413621c22742d1a7af3a59c9", "fusion_lat": 0.0, "is_reserved": 0, "lat": 38.83810016666666, "fusion_lon": 0.0, "is_disabled": 0}, {"rental_uris": {"android": "https://dc.lft.to/lastmile_qr_scan", "ios": "https://dc.lft.to/lastmile_qr_scan"}, "type": "electric_scooter", "lon": -77.054412, "name": "c22afd698e45856c32d176a4eac8852f", "bike_id": "c22afd698e45856c32d176a4eac8852f", "fusion_lat": 0.0, "is_reserved": 0, "lat": 38.928520666666664, "fusion_lon": 0.0, "is_disabled": 0}, {"rental_uris": {"android": "https://dc.lft.to/lastmile_qr_scan", "ios": "https://dc.lft.to/lastmile_qr_scan"}, "type": "electric_scooter", "lon": -77.0217875, "name": "8b45fc6c3b8fd3b4a33df76e1d32f6c0", "bike_id": "8b45fc6c3b8fd3b4a33df76e1d32f6c0", "fusion_lat": 0.0, "is_reserved": 0, "lat": 38.94309616666666, "fusion_lon": 0.0, "is_disabled": 0}, {"rental_uris": {"android": "https://dc.lft.to/lastmile_qr_scan", "ios": "https://dc.lft.to/lastmile_qr_scan"}, "type": "electric_scooter", "lon": -77.05457283333334, "name": "5cae33b7ac2dba3be91053d5f78cbb2b", "bike_id": "5cae33b7ac2dba3be91053d5f78cbb2b", "fusion_lat": 0.0, "is_reserved": 0, "lat": 38.928506, "fusion_lon": 0.0, "is_disabled": 0}, {"rental_uris": {"android": "https://dc.lft.to/lastmile_qr_scan", "ios": "https://dc.lft.to/lastmile_qr_scan"}, "type": "electric_scooter", "lon": -77.05289133333333, "name": "d65f537734a029732d4d8027b53ddb24", "bike_id": "d65f537734a029732d4d8027b53ddb24", "fusion_lat": 0.0, "is_reserved": 0, "lat": 38.91057133333333, "fusion_lon": 0.0, "is_disabled": 0}, {"rental_uris": {"android": "https://dc.lft.to/lastmile_qr_scan", "ios": "https://dc.lft.to/lastmile_qr_scan"}, "type": "electric_scooter", "lon": -76.9954605, "name": "4ef1286ee0ef925260dfbd44e91d2f48", "bike_id": "4ef1286ee0ef925260dfbd44e91d2f48", "fusion_lat": 0.0, "is_reserved": 0, "lat": 38.884201, "fusion_lon": 0.0, "is_disabled": 0}, {"rental_uris": {"android": "https://dc.lft.to/lastmile_qr_scan", "ios": "https://dc.lft.to/lastmile_qr_scan"}, "type": "electric_scooter", "lon": -77.0363485, "name": "a87140a9614dd209edd1fa868de9f4dc", "bike_id": "a87140a9614dd209edd1fa868de9f4dc", "fusion_lat": 0.0, "is_reserved": 0, "lat": 38.90267266666667, "fusion_lon": 0.0, "is_disabled": 0}, {"rental_uris": {"android": "https://dc.lft.to/lastmile_qr_scan", "ios": "https://dc.lft.to/lastmile_qr_scan"}, "type": "electric_scooter", "lon": -77.03458566666667, "name": "0d0c5353b147ec34f66ef9944530b5d4", "bike_id": "0d0c5353b147ec34f66ef9944530b5d4", "fusion_lat": 0.0, "is_reserved": 0, "lat": 38.914667333333334, "fusion_lon": 0.0, "is_disabled": 0}, {"rental_uris": {"android": "https://dc.lft.to/lastmile_qr_scan", "ios": "https://dc.lft.to/lastmile_qr_scan"}, "type": "electric_scooter", "lon": -76.98853016666666, "name": "8c30e5f0050fa2fd97897e6637430a57", "bike_id": "8c30e5f0050fa2fd97897e6637430a57", "fusion_lat": 0.0, "is_reserved": 0, "lat": 38.900321, "fusion_lon": 0.0, "is_disabled": 0}, {"rental_uris": {"android": "https://dc.lft.to/lastmile_qr_scan", "ios": "https://dc.lft.to/lastmile_qr_scan"}, "type": "electric_scooter", "lon": -77.04225883333334, "name": "5b5857f32fa0fc281993d475f9e934d8", "bike_id": "5b5857f32fa0fc281993d475f9e934d8", "fusion_lat": 0.0, "is_reserved": 0, "lat": 38.921264, "fusion_lon": 0.0, "is_disabled": 0}, {"rental_uris": {"android": "https://dc.lft.to/lastmile_qr_scan", "ios": "https://dc.lft.to/lastmile_qr_scan"}, "type": "electric_scooter", "lon": -77.04585733333333, "name": "d766151c944373ef407feb27a10970b9", "bike_id": "d766151c944373ef407feb27a10970b9", "fusion_lat": 0.0, "is_reserved": 0, "lat": 38.92138283333333, "fusion_lon": 0.0, "is_disabled": 0}, {"rental_uris": {"android": "https://dc.lft.to/lastmile_qr_scan", "ios": "https://dc.lft.to/lastmile_qr_scan"}, "type": "electric_scooter", "lon": -77.005761, "name": "9da8c3be1740e1f4890b059357b26446", "bike_id": "9da8c3be1740e1f4890b059357b26446", "fusion_lat": 0.0, "is_reserved": 0, "lat": 38.876524833333335, "fusion_lon": 0.0, "is_disabled": 0}, {"rental_uris": {"android": "https://dc.lft.to/lastmile_qr_scan", "ios": "https://dc.lft.to/lastmile_qr_scan"}, "type": "electric_scooter", "lon": -77.032071, "name": "35c361daedf981b781df90e7c1d238f4", "bike_id": "35c361daedf981b781df90e7c1d238f4", "fusion_lat": 0.0, "is_reserved": 0, "lat": 38.916320166666665, "fusion_lon": 0.0, "is_disabled": 0}, {"rental_uris": {"android": "https://dc.lft.to/lastmile_qr_scan", "ios": "https://dc.lft.to/lastmile_qr_scan"}, "type": "electric_scooter", "lon": -77.0399875, "name": "c7e40cc6e801350434e77b25cf775a97", "bike_id": "c7e40cc6e801350434e77b25cf775a97", "fusion_lat": 0.0, "is_reserved": 0, "lat": 38.90273833333333, "fusion_lon": 0.0, "is_disabled": 0}, {"rental_uris": {"android": "https://dc.lft.to/lastmile_qr_scan", "ios": "https://dc.lft.to/lastmile_qr_scan"}, "type": "electric_scooter", "lon": -76.99494783333333, "name": "9c3d12a17cca335701efa27b370431f2", "bike_id": "9c3d12a17cca335701efa27b370431f2", "fusion_lat": 0.0, "is_reserved": 0, "lat": 38.9008685, "fusion_lon": 0.0, "is_disabled": 0}, {"rental_uris": {"android": "https://dc.lft.to/lastmile_qr_scan", "ios": "https://dc.lft.to/lastmile_qr_scan"}, "type": "electric_scooter", "lon": -77.0454935, "name": "aa8b0137ccbdc9ea53d118719a0569e5", "bike_id": "aa8b0137ccbdc9ea53d118719a0569e5", "fusion_lat": 0.0, "is_reserved": 0, "lat": 38.917972, "fusion_lon": 0.0, "is_disabled": 0}, {"rental_uris": {"android": "https://dc.lft.to/lastmile_qr_scan", "ios": "https://dc.lft.to/lastmile_qr_scan"}, "type": "electric_scooter", "lon": -76.993781, "name": "220760838721984ef0d41a64818c33e3", "bike_id": "220760838721984ef0d41a64818c33e3", "fusion_lat": 0.0, "is_reserved": 0, "lat": 38.8869355, "fusion_lon": 0.0, "is_disabled": 0}, {"rental_uris": {"android": "https://dc.lft.to/lastmile_qr_scan", "ios": "https://dc.lft.to/lastmile_qr_scan"}, "type": "electric_scooter", "lon": -77.06826166666667, "name": "6111a68ee1348098e8b0b34602ae03e7", "bike_id": "6111a68ee1348098e8b0b34602ae03e7", "fusion_lat": 0.0, "is_reserved": 0, "lat": 38.91639983333334, "fusion_lon": 0.0, "is_disabled": 0}, {"rental_uris": {"android": "https://dc.lft.to/lastmile_qr_scan", "ios": "https://dc.lft.to/lastmile_qr_scan"}, "type": "electric_bike", "lon": -77.13228483333333, "name": "e189a310615f553b8938c5c2c6f6f7a5", "bike_id": "e189a310615f553b8938c5c2c6f6f7a5", "fusion_lat": 0.0, "is_reserved": 0, "lat": 38.86975416666667, "fusion_lon": 0.0, "is_disabled": 0}, {"rental_uris": {"android": "https://dc.lft.to/lastmile_qr_scan", "ios": "https://dc.lft.to/lastmile_qr_scan"}, "type": "electric_scooter", "lon": -77.02611666666667, "name": "9e59798fd28a9dd1b1aae512b73a6fb7", "bike_id": "9e59798fd28a9dd1b1aae512b73a6fb7", "fusion_lat": 0.0, "is_reserved": 0, "lat": 38.900129166666666, "fusion_lon": 0.0, "is_disabled": 0}, {"rental_uris": {"android": "https://dc.lft.to/lastmile_qr_scan", "ios": "https://dc.lft.to/lastmile_qr_scan"}, "type": "electric_scooter", "lon": -77.05805033333333, "name": "98344223b5136641fc5597583e86a065", "bike_id": "98344223b5136641fc5597583e86a065", "fusion_lat": 0.0, "is_reserved": 0, "lat": 38.903771166666665, "fusion_lon": 0.0, "is_disabled": 0}, {"rental_uris": {"android": "https://dc.lft.to/lastmile_qr_scan", "ios": "https://dc.lft.to/lastmile_qr_scan"}, "type": "electric_scooter", "lon": -77.03255383333334, "name": "3673e178c96b5440040f2a1018473613", "bike_id": "3673e178c96b5440040f2a1018473613", "fusion_lat": 0.0, "is_reserved": 0, "lat": 38.92644816666667, "fusion_lon": 0.0, "is_disabled": 0}, {"rental_uris": {"android": "https://dc.lft.to/lastmile_qr_scan", "ios": "https://dc.lft.to/lastmile_qr_scan"}, "type": "electric_scooter", "lon": -77.02093716666667, "name": "bc59d56b2990ecc07d88e471b90fb914", "bike_id": "bc59d56b2990ecc07d88e471b90fb914", "fusion_lat": 0.0, "is_reserved": 0, "lat": 38.911049166666665, "fusion_lon": 0.0, "is_disabled": 0}, {"rental_uris": {"android": "https://dc.lft.to/lastmile_qr_scan", "ios": "https://dc.lft.to/lastmile_qr_scan"}, "type": "electric_bike", "lon": -76.911197, "name": "bae711f04446625dde41b3ee82710b58", "bike_id": "bae711f04446625dde41b3ee82710b58", "fusion_lat": 0.0, "is_reserved": 0, "lat": 39.0103825, "fusion_lon": 0.0, "is_disabled": 0}, {"rental_uris": {"android": "https://dc.lft.to/lastmile_qr_scan", "ios": "https://dc.lft.to/lastmile_qr_scan"}, "type": "electric_scooter", "lon": -77.036601, "name": "32834880ea563012f1f31d253b5fb40b", "bike_id": "32834880ea563012f1f31d253b5fb40b", "fusion_lat": 0.0, "is_reserved": 0, "lat": 38.92137116666667, "fusion_lon": 0.0, "is_disabled": 0}, {"rental_uris": {"android": "https://dc.lft.to/lastmile_qr_scan", "ios": "https://dc.lft.to/lastmile_qr_scan"}, "type": "electric_scooter", "lon": -77.013581, "name": "56657caeda5e7b0a564df50fbb1320ee", "bike_id": "56657caeda5e7b0a564df50fbb1320ee", "fusion_lat": 0.0, "is_reserved": 0, "lat": 38.903842, "fusion_lon": 0.0, "is_disabled": 0}, {"rental_uris": {"android": "https://dc.lft.to/lastmile_qr_scan", "ios": "https://dc.lft.to/lastmile_qr_scan"}, "type": "electric_scooter", "lon": -77.04346133333334, "name": "8a97fd81cf71a594e204c7dc5be8bf3c", "bike_id": "8a97fd81cf71a594e204c7dc5be8bf3c", "fusion_lat": 0.0, "is_reserved": 0, "lat": 38.913747666666666, "fusion_lon": 0.0, "is_disabled": 0}, {"rental_uris": {"android": "https://dc.lft.to/lastmile_qr_scan", "ios": "https://dc.lft.to/lastmile_qr_scan"}, "type": "electric_bike", "lon": -77.024178, "name": "c973247c498b2060072877a1518c623d", "bike_id": "c973247c498b2060072877a1518c623d", "fusion_lat": 0.0, "is_reserved": 0, "lat": 38.94906066666667, "fusion_lon": 0.0, "is_disabled": 0}, {"rental_uris": {"android": "https://dc.lft.to/lastmile_qr_scan", "ios": "https://dc.lft.to/lastmile_qr_scan"}, "type": "electric_scooter", "lon": -76.9900995, "name": "ac25d154c6a0b127238119698c44d73b", "bike_id": "ac25d154c6a0b127238119698c44d73b", "fusion_lat": 0.0, "is_reserved": 0, "lat": 38.91138333333333, "fusion_lon": 0.0, "is_disabled": 0}, {"rental_uris": {"android": "https://dc.lft.to/lastmile_qr_scan", "ios": "https://dc.lft.to/lastmile_qr_scan"}, "type": "electric_scooter", "lon": -77.03854883333334, "name": "7319e1369160bdbfc83db96718eff1be", "bike_id": "7319e1369160bdbfc83db96718eff1be", "fusion_lat": 0.0, "is_reserved": 0, "lat": 38.9119335, "fusion_lon": 0.0, "is_disabled": 0}, {"rental_uris": {"android": "https://dc.lft.to/lastmile_qr_scan", "ios": "https://dc.lft.to/lastmile_qr_scan"}, "type": "electric_scooter", "lon": -77.010415, "name": "ca50ae48e14aadbc81f6154a46d90d79", "bike_id": "ca50ae48e14aadbc81f6154a46d90d79", "fusion_lat": 0.0, "is_reserved": 0, "lat": 38.884486333333335, "fusion_lon": 0.0, "is_disabled": 0}, {"rental_uris": {"android": "https://dc.lft.to/lastmile_qr_scan", "ios": "https://dc.lft.to/lastmile_qr_scan"}, "type": "electric_scooter", "lon": -77.02574666666666, "name": "ad085c8bb3e0150106115ac68a6e62b3", "bike_id": "ad085c8bb3e0150106115ac68a6e62b3", "fusion_lat": 0.0, "is_reserved": 0, "lat": 38.92572533333333, "fusion_lon": 0.0, "is_disabled": 0}, {"rental_uris": {"android": "https://dc.lft.to/lastmile_qr_scan", "ios": "https://dc.lft.to/lastmile_qr_scan"}, "type": "electric_scooter", "lon": -77.05264416666667, "name": "b59ec2fea2399acd7054c6fa9fa675b6", "bike_id": "b59ec2fea2399acd7054c6fa9fa675b6", "fusion_lat": 0.0, "is_reserved": 0, "lat": 38.927629333333336, "fusion_lon": 0.0, "is_disabled": 0}, {"rental_uris": {"android": "https://dc.lft.to/lastmile_qr_scan", "ios": "https://dc.lft.to/lastmile_qr_scan"}, "type": "electric_scooter", "lon": -76.97906616666667, "name": "9d037ffd2578b4f886b53d37a5720133", "bike_id": "9d037ffd2578b4f886b53d37a5720133", "fusion_lat": 0.0, "is_reserved": 0, "lat": 38.903894, "fusion_lon": 0.0, "is_disabled": 0}, {"rental_uris": {"android": "https://dc.lft.to/lastmile_qr_scan", "ios": "https://dc.lft.to/lastmile_qr_scan"}, "type": "electric_scooter", "lon": -76.98595266666666, "name": "68d954164ba0fa20bb809be048c0a488", "bike_id": "68d954164ba0fa20bb809be048c0a488", "fusion_lat": 0.0, "is_reserved": 0, "lat": 38.88967366666667, "fusion_lon": 0.0, "is_disabled": 0}, {"rental_uris": {"android": "https://dc.lft.to/lastmile_qr_scan", "ios": "https://dc.lft.to/lastmile_qr_scan"}, "type": "electric_scooter", "lon": -76.94301166666666, "name": "499a9017d75b8e9439be7abb2788d6ee", "bike_id": "499a9017d75b8e9439be7abb2788d6ee", "fusion_lat": 0.0, "is_reserved": 0, "lat": 38.89094983333333, "fusion_lon": 0.0, "is_disabled": 0}, {"rental_uris": {"android": "https://dc.lft.to/lastmile_qr_scan", "ios": "https://dc.lft.to/lastmile_qr_scan"}, "type": "electric_scooter", "lon": -77.03196216666667, "name": "9dfc4c493bc1acefa8f066f6267564ac", "bike_id": "9dfc4c493bc1acefa8f066f6267564ac", "fusion_lat": 0.0, "is_reserved": 0, "lat": 38.91888466666666, "fusion_lon": 0.0, "is_disabled": 0}, {"rental_uris": {"android": "https://dc.lft.to/lastmile_qr_scan", "ios": "https://dc.lft.to/lastmile_qr_scan"}, "type": "electric_scooter", "lon": -76.95420533333333, "name": "cad0fe7479ced4a47a55221f29967cdf", "bike_id": "cad0fe7479ced4a47a55221f29967cdf", "fusion_lat": 0.0, "is_reserved": 0, "lat": 38.884055333333336, "fusion_lon": 0.0, "is_disabled": 0}, {"rental_uris": {"android": "https://dc.lft.to/lastmile_qr_scan", "ios": "https://dc.lft.to/lastmile_qr_scan"}, "type": "electric_scooter", "lon": -77.02326516666666, "name": "48a3dc397c5a0db51791f4c4198bed6e", "bike_id": "48a3dc397c5a0db51791f4c4198bed6e", "fusion_lat": 0.0, "is_reserved": 0, "lat": 38.927057166666664, "fusion_lon": 0.0, "is_disabled": 0}, {"rental_uris": {"android": "https://dc.lft.to/lastmile_qr_scan", "ios": "https://dc.lft.to/lastmile_qr_scan"}, "type": "electric_bike", "lon": -77.09018033333334, "name": "fdba1d0c6ffce54217602464516a5e4b", "bike_id": "fdba1d0c6ffce54217602464516a5e4b", "fusion_lat": 0.0, "is_reserved": 0, "lat": 38.8412825, "fusion_lon": 0.0, "is_disabled": 0}, {"rental_uris": {"android": "https://dc.lft.to/lastmile_qr_scan", "ios": "https://dc.lft.to/lastmile_qr_scan"}, "type": "electric_scooter", "lon": -77.02698433333333, "name": "ba0c25e8df0254bf766b723ea32d80c0", "bike_id": "ba0c25e8df0254bf766b723ea32d80c0", "fusion_lat": 0.0, "is_reserved": 0, "lat": 38.88139133333333, "fusion_lon": 0.0, "is_disabled": 0}, {"rental_uris": {"android": "https://dc.lft.to/lastmile_qr_scan", "ios": "https://dc.lft.to/lastmile_qr_scan"}, "type": "electric_bike", "lon": -77.19906666666667, "name": "cf9d4fb696dcef63c2a18945c1c3b1da", "bike_id": "cf9d4fb696dcef63c2a18945c1c3b1da", "fusion_lat": 0.0, "is_reserved": 0, "lat": 38.875276, "fusion_lon": 0.0, "is_disabled": 0}, {"rental_uris": {"android": "https://dc.lft.to/lastmile_qr_scan", "ios": "https://dc.lft.to/lastmile_qr_scan"}, "type": "electric_scooter", "lon": -77.04892783333334, "name": "10e391a6db65aea31205d0520b2194b1", "bike_id": "10e391a6db65aea31205d0520b2194b1", "fusion_lat": 0.0, "is_reserved": 0, "lat": 38.905786666666664, "fusion_lon": 0.0, "is_disabled": 0}, {"rental_uris": {"android": "https://dc.lft.to/lastmile_qr_scan", "ios": "https://dc.lft.to/lastmile_qr_scan"}, "type": "electric_scooter", "lon": -77.0058995, "name": "249a3b4f749ff1c3b83e3a433080298f", "bike_id": "249a3b4f749ff1c3b83e3a433080298f", "fusion_lat": 0.0, "is_reserved": 0, "lat": 38.880692, "fusion_lon": 0.0, "is_disabled": 0}, {"rental_uris": {"android": "https://dc.lft.to/lastmile_qr_scan", "ios": "https://dc.lft.to/lastmile_qr_scan"}, "type": "electric_scooter", "lon": -77.07305966666667, "name": "9eb7d0e863da89df3b7bea65793a330c", "bike_id": "9eb7d0e863da89df3b7bea65793a330c", "fusion_lat": 0.0, "is_reserved": 0, "lat": 38.9120145, "fusion_lon": 0.0, "is_disabled": 0}, {"rental_uris": {"android": "https://dc.lft.to/lastmile_qr_scan", "ios": "https://dc.lft.to/lastmile_qr_scan"}, "type": "electric_scooter", "lon": -77.04095583333333, "name": "145828e2b9e105a5fce356fd4c314573", "bike_id": "145828e2b9e105a5fce356fd4c314573", "fusion_lat": 0.0, "is_reserved": 0, "lat": 38.91118, "fusion_lon": 0.0, "is_disabled": 0}, {"rental_uris": {"android": "https://dc.lft.to/lastmile_qr_scan", "ios": "https://dc.lft.to/lastmile_qr_scan"}, "type": "electric_bike", "lon": -76.97562483333333, "name": "018ac2d1a2798039f938651d12185aa7", "bike_id": "018ac2d1a2798039f938651d12185aa7", "fusion_lat": 0.0, "is_reserved": 0, "lat": 38.924549166666665, "fusion_lon": 0.0, "is_disabled": 0}, {"rental_uris": {"android": "https://dc.lft.to/lastmile_qr_scan", "ios": "https://dc.lft.to/lastmile_qr_scan"}, "type": "electric_scooter", "lon": -77.038908, "name": "94eec0dc1b44d1a47c7d970485eebbe8", "bike_id": "94eec0dc1b44d1a47c7d970485eebbe8", "fusion_lat": 0.0, "is_reserved": 0, "lat": 38.93414833333333, "fusion_lon": 0.0, "is_disabled": 0}, {"rental_uris": {"android": "https://dc.lft.to/lastmile_qr_scan", "ios": "https://dc.lft.to/lastmile_qr_scan"}, "type": "electric_scooter", "lon": -77.03856783333333, "name": "203e0bb6f614977c4c3ddd4d77d26850", "bike_id": "203e0bb6f614977c4c3ddd4d77d26850", "fusion_lat": 0.0, "is_reserved": 0, "lat": 38.90995216666666, "fusion_lon": 0.0, "is_disabled": 0}, {"rental_uris": {"android": "https://dc.lft.to/lastmile_qr_scan", "ios": "https://dc.lft.to/lastmile_qr_scan"}, "type": "electric_scooter", "lon": -76.99227733333333, "name": "9400810e6fdd3fa817ed8be279455179", "bike_id": "9400810e6fdd3fa817ed8be279455179", "fusion_lat": 0.0, "is_reserved": 0, "lat": 38.898836333333335, "fusion_lon": 0.0, "is_disabled": 0}, {"rental_uris": {"android": "https://dc.lft.to/lastmile_qr_scan", "ios": "https://dc.lft.to/lastmile_qr_scan"}, "type": "electric_bike", "lon": -77.14982666666667, "name": "d689b727a951abf9aa850f1e2764d312", "bike_id": "d689b727a951abf9aa850f1e2764d312", "fusion_lat": 0.0, "is_reserved": 0, "lat": 39.09461, "fusion_lon": 0.0, "is_disabled": 0}, {"rental_uris": {"android": "https://dc.lft.to/lastmile_qr_scan", "ios": "https://dc.lft.to/lastmile_qr_scan"}, "type": "electric_scooter", "lon": -76.99631016666666, "name": "f8bc48d68459f02552cbcf1ae5520078", "bike_id": "f8bc48d68459f02552cbcf1ae5520078", "fusion_lat": 0.0, "is_reserved": 0, "lat": 38.846206, "fusion_lon": 0.0, "is_disabled": 0}, {"rental_uris": {"android": "https://dc.lft.to/lastmile_qr_scan", "ios": "https://dc.lft.to/lastmile_qr_scan"}, "type": "electric_bike", "lon": -77.02487833333333, "name": "43371765dfed4f55f3f1ce2d09a35fc6", "bike_id": "43371765dfed4f55f3f1ce2d09a35fc6", "fusion_lat": 0.0, "is_reserved": 0, "lat": 38.973667, "fusion_lon": 0.0, "is_disabled": 0}, {"rental_uris": {"android": "https://dc.lft.to/lastmile_qr_scan", "ios": "https://dc.lft.to/lastmile_qr_scan"}, "type": "electric_scooter", "lon": -77.07115833333333, "name": "7d4e4a9ce5bc198498bd5f9266f7ee5d", "bike_id": "7d4e4a9ce5bc198498bd5f9266f7ee5d", "fusion_lat": 0.0, "is_reserved": 0, "lat": 38.919852666666664, "fusion_lon": 0.0, "is_disabled": 0}, {"rental_uris": {"android": "https://dc.lft.to/lastmile_qr_scan", "ios": "https://dc.lft.to/lastmile_qr_scan"}, "type": "electric_scooter", "lon": -77.02482916666666, "name": "8cc8730df421eb5a4907b9b536beb84f", "bike_id": "8cc8730df421eb5a4907b9b536beb84f", "fusion_lat": 0.0, "is_reserved": 0, "lat": 38.938780666666666, "fusion_lon": 0.0, "is_disabled": 0}, {"rental_uris": {"android": "https://dc.lft.to/lastmile_qr_scan", "ios": "https://dc.lft.to/lastmile_qr_scan"}, "type": "electric_scooter", "lon": -76.99009416666667, "name": "7356e85d50248205f5c9ace5430c46df", "bike_id": "7356e85d50248205f5c9ace5430c46df", "fusion_lat": 0.0, "is_reserved": 0, "lat": 38.86113233333333, "fusion_lon": 0.0, "is_disabled": 0}, {"rental_uris": {"android": "https://dc.lft.to/lastmile_qr_scan", "ios": "https://dc.lft.to/lastmile_qr_scan"}, "type": "electric_scooter", "lon": -77.062932, "name": "8a1f6da2fc335c17f88ac403c6e4f63b", "bike_id": "8a1f6da2fc335c17f88ac403c6e4f63b", "fusion_lat": 0.0, "is_reserved": 0, "lat": 38.904566833333334, "fusion_lon": 0.0, "is_disabled": 0}, {"rental_uris": {"android": "https://dc.lft.to/lastmile_qr_scan", "ios": "https://dc.lft.to/lastmile_qr_scan"}, "type": "electric_scooter", "lon": -77.01888283333334, "name": "e1ce40535a72a052d79d112dde4727f7", "bike_id": "e1ce40535a72a052d79d112dde4727f7", "fusion_lat": 0.0, "is_reserved": 0, "lat": 38.909410333333334, "fusion_lon": 0.0, "is_disabled": 0}, {"rental_uris": {"android": "https://dc.lft.to/lastmile_qr_scan", "ios": "https://dc.lft.to/lastmile_qr_scan"}, "type": "electric_scooter", "lon": -77.039079, "name": "314df88aa8f19facac9cad04c3cc0de4", "bike_id": "314df88aa8f19facac9cad04c3cc0de4", "fusion_lat": 0.0, "is_reserved": 0, "lat": 38.914167, "fusion_lon": 0.0, "is_disabled": 0}, {"rental_uris": {"android": "https://dc.lft.to/lastmile_qr_scan", "ios": "https://dc.lft.to/lastmile_qr_scan"}, "type": "electric_scooter", "lon": -76.94927083333333, "name": "c83e4554ad0c0365da9a6db56dcab26f", "bike_id": "c83e4554ad0c0365da9a6db56dcab26f", "fusion_lat": 0.0, "is_reserved": 0, "lat": 38.88481433333333, "fusion_lon": 0.0, "is_disabled": 0}, {"rental_uris": {"android": "https://dc.lft.to/lastmile_qr_scan", "ios": "https://dc.lft.to/lastmile_qr_scan"}, "type": "electric_scooter", "lon": -77.0296775, "name": "f4d629639e780df5da9dd49f73a2dd8e", "bike_id": "f4d629639e780df5da9dd49f73a2dd8e", "fusion_lat": 0.0, "is_reserved": 0, "lat": 38.905525, "fusion_lon": 0.0, "is_disabled": 0}, {"rental_uris": {"android": "https://dc.lft.to/lastmile_qr_scan", "ios": "https://dc.lft.to/lastmile_qr_scan"}, "type": "electric_scooter", "lon": -77.03890566666666, "name": "734918c66bdd59930e887e679b782f99", "bike_id": "734918c66bdd59930e887e679b782f99", "fusion_lat": 0.0, "is_reserved": 0, "lat": 38.93263, "fusion_lon": 0.0, "is_disabled": 0}, {"rental_uris": {"android": "https://dc.lft.to/lastmile_qr_scan", "ios": "https://dc.lft.to/lastmile_qr_scan"}, "type": "electric_scooter", "lon": -77.01254866666666, "name": "cd20c5a1cce578f1ce3738f492a96f0c", "bike_id": "cd20c5a1cce578f1ce3738f492a96f0c", "fusion_lat": 0.0, "is_reserved": 0, "lat": 38.90848783333333, "fusion_lon": 0.0, "is_disabled": 0}, {"rental_uris": {"android": "https://dc.lft.to/lastmile_qr_scan", "ios": "https://dc.lft.to/lastmile_qr_scan"}, "type": "electric_scooter", "lon": -77.022471, "name": "bc3d4be4309c10f9a125a1d38e689bb4", "bike_id": "bc3d4be4309c10f9a125a1d38e689bb4", "fusion_lat": 0.0, "is_reserved": 0, "lat": 38.912712, "fusion_lon": 0.0, "is_disabled": 0}, {"rental_uris": {"android": "https://dc.lft.to/lastmile_qr_scan", "ios": "https://dc.lft.to/lastmile_qr_scan"}, "type": "electric_bike", "lon": -76.98331616666667, "name": "d9bb3b448ece9ca47ccb9011642cf2e7", "bike_id": "d9bb3b448ece9ca47ccb9011642cf2e7", "fusion_lat": 0.0, "is_reserved": 0, "lat": 38.8898875, "fusion_lon": 0.0, "is_disabled": 0}, {"rental_uris": {"android": "https://dc.lft.to/lastmile_qr_scan", "ios": "https://dc.lft.to/lastmile_qr_scan"}, "type": "electric_scooter", "lon": -77.0292665, "name": "59d3ff27817e491da5fd480fb6ab8a9f", "bike_id": "59d3ff27817e491da5fd480fb6ab8a9f", "fusion_lat": 0.0, "is_reserved": 0, "lat": 38.91114916666667, "fusion_lon": 0.0, "is_disabled": 0}, {"rental_uris": {"android": "https://dc.lft.to/lastmile_qr_scan", "ios": "https://dc.lft.to/lastmile_qr_scan"}, "type": "electric_scooter", "lon": -77.01887883333333, "name": "f781a029be662f0fef1c2128b7a569d1", "bike_id": "f781a029be662f0fef1c2128b7a569d1", "fusion_lat": 0.0, "is_reserved": 0, "lat": 38.929428333333334, "fusion_lon": 0.0, "is_disabled": 0}, {"rental_uris": {"android": "https://dc.lft.to/lastmile_qr_scan", "ios": "https://dc.lft.to/lastmile_qr_scan"}, "type": "electric_scooter", "lon": -77.03647633333334, "name": "a434a145aff219b7c713d754cb6bf952", "bike_id": "a434a145aff219b7c713d754cb6bf952", "fusion_lat": 0.0, "is_reserved": 0, "lat": 38.9121985, "fusion_lon": 0.0, "is_disabled": 0}, {"rental_uris": {"android": "https://dc.lft.to/lastmile_qr_scan", "ios": "https://dc.lft.to/lastmile_qr_scan"}, "type": "electric_scooter", "lon": -77.001962, "name": "4420eb1daca69b325d47ca5299f52629", "bike_id": "4420eb1daca69b325d47ca5299f52629", "fusion_lat": 0.0, "is_reserved": 0, "lat": 38.9023875, "fusion_lon": 0.0, "is_disabled": 0}, {"rental_uris": {"android": "https://dc.lft.to/lastmile_qr_scan", "ios": "https://dc.lft.to/lastmile_qr_scan"}, "type": "electric_bike", "lon": -77.01071983333334, "name": "da0a1159da0aecfd58e0c8812a0d50a7", "bike_id": "da0a1159da0aecfd58e0c8812a0d50a7", "fusion_lat": 0.0, "is_reserved": 0, "lat": 38.9626165, "fusion_lon": 0.0, "is_disabled": 0}, {"rental_uris": {"android": "https://dc.lft.to/lastmile_qr_scan", "ios": "https://dc.lft.to/lastmile_qr_scan"}, "type": "electric_bike", "lon": -76.998363, "name": "95fb8c9d464829627d7dd6938252cb17", "bike_id": "95fb8c9d464829627d7dd6938252cb17", "fusion_lat": 0.0, "is_reserved": 0, "lat": 38.83915433333333, "fusion_lon": 0.0, "is_disabled": 0}, {"rental_uris": {"android": "https://dc.lft.to/lastmile_qr_scan", "ios": "https://dc.lft.to/lastmile_qr_scan"}, "type": "electric_scooter", "lon": -76.97763416666666, "name": "4ae5b653e0b0f0b19312d667d780ff09", "bike_id": "4ae5b653e0b0f0b19312d667d780ff09", "fusion_lat": 0.0, "is_reserved": 0, "lat": 38.8700905, "fusion_lon": 0.0, "is_disabled": 0}, {"rental_uris": {"android": "https://dc.lft.to/lastmile_qr_scan", "ios": "https://dc.lft.to/lastmile_qr_scan"}, "type": "electric_bike", "lon": -77.02339983333333, "name": "01cdc2ce631aa139a64c98e09ae121c5", "bike_id": "01cdc2ce631aa139a64c98e09ae121c5", "fusion_lat": 0.0, "is_reserved": 0, "lat": 38.929701333333334, "fusion_lon": 0.0, "is_disabled": 0}, {"rental_uris": {"android": "https://dc.lft.to/lastmile_qr_scan", "ios": "https://dc.lft.to/lastmile_qr_scan"}, "type": "electric_scooter", "lon": -77.04351616666666, "name": "ed7698b9faacea9fbbdd3cfa3ea5bf23", "bike_id": "ed7698b9faacea9fbbdd3cfa3ea5bf23", "fusion_lat": 0.0, "is_reserved": 0, "lat": 38.92184683333333, "fusion_lon": 0.0, "is_disabled": 0}, {"rental_uris": {"android": "https://dc.lft.to/lastmile_qr_scan", "ios": "https://dc.lft.to/lastmile_qr_scan"}, "type": "electric_scooter", "lon": -77.065717, "name": "f755d08821f0e8c76798b2a95949ea33", "bike_id": "f755d08821f0e8c76798b2a95949ea33", "fusion_lat": 0.0, "is_reserved": 0, "lat": 38.90526933333334, "fusion_lon": 0.0, "is_disabled": 0}, {"rental_uris": {"android": "https://dc.lft.to/lastmile_qr_scan", "ios": "https://dc.lft.to/lastmile_qr_scan"}, "type": "electric_bike", "lon": -77.02379333333333, "name": "44cbbd1b905f303bf853db6a2dcab612", "bike_id": "44cbbd1b905f303bf853db6a2dcab612", "fusion_lat": 0.0, "is_reserved": 0, "lat": 38.95295483333334, "fusion_lon": 0.0, "is_disabled": 0}, {"rental_uris": {"android": "https://dc.lft.to/lastmile_qr_scan", "ios": "https://dc.lft.to/lastmile_qr_scan"}, "type": "electric_scooter", "lon": -77.03193283333333, "name": "ca42184b85e786f89e3f0378d50e076f", "bike_id": "ca42184b85e786f89e3f0378d50e076f", "fusion_lat": 0.0, "is_reserved": 0, "lat": 38.916397, "fusion_lon": 0.0, "is_disabled": 0}, {"rental_uris": {"android": "https://dc.lft.to/lastmile_qr_scan", "ios": "https://dc.lft.to/lastmile_qr_scan"}, "type": "electric_scooter", "lon": -77.06780066666667, "name": "01fb8a36fa8ddcedbbbb19795797aa97", "bike_id": "01fb8a36fa8ddcedbbbb19795797aa97", "fusion_lat": 0.0, "is_reserved": 0, "lat": 38.905196, "fusion_lon": 0.0, "is_disabled": 0}, {"rental_uris": {"android": "https://dc.lft.to/lastmile_qr_scan", "ios": "https://dc.lft.to/lastmile_qr_scan"}, "type": "electric_scooter", "lon": -77.041829, "name": "c66f9caa92fbf6239797ed9711645013", "bike_id": "c66f9caa92fbf6239797ed9711645013", "fusion_lat": 0.0, "is_reserved": 0, "lat": 38.9126355, "fusion_lon": 0.0, "is_disabled": 0}, {"rental_uris": {"android": "https://dc.lft.to/lastmile_qr_scan", "ios": "https://dc.lft.to/lastmile_qr_scan"}, "type": "electric_scooter", "lon": -76.93871583333333, "name": "92ac87ddb841f461bee85dadb61b89e1", "bike_id": "92ac87ddb841f461bee85dadb61b89e1", "fusion_lat": 0.0, "is_reserved": 0, "lat": 38.90073983333333, "fusion_lon": 0.0, "is_disabled": 0}, {"rental_uris": {"android": "https://dc.lft.to/lastmile_qr_scan", "ios": "https://dc.lft.to/lastmile_qr_scan"}, "type": "electric_scooter", "lon": -77.022082, "name": "0a40cf6605d855c8ef1705d250ebc44f", "bike_id": "0a40cf6605d855c8ef1705d250ebc44f", "fusion_lat": 0.0, "is_reserved": 0, "lat": 38.912698166666665, "fusion_lon": 0.0, "is_disabled": 0}, {"rental_uris": {"android": "https://dc.lft.to/lastmile_qr_scan", "ios": "https://dc.lft.to/lastmile_qr_scan"}, "type": "electric_scooter", "lon": -77.0260445, "name": "19bc118127c85c5368009606ffc1af87", "bike_id": "19bc118127c85c5368009606ffc1af87", "fusion_lat": 0.0, "is_reserved": 0, "lat": 38.904939666666664, "fusion_lon": 0.0, "is_disabled": 0}, {"rental_uris": {"android": "https://dc.lft.to/lastmile_qr_scan", "ios": "https://dc.lft.to/lastmile_qr_scan"}, "type": "electric_bike", "lon": -76.90957533333334, "name": "6959f68609303852743cfde0d4d9e6ea", "bike_id": "6959f68609303852743cfde0d4d9e6ea", "fusion_lat": 0.0, "is_reserved": 0, "lat": 38.854248, "fusion_lon": 0.0, "is_disabled": 0}, {"rental_uris": {"android": "https://dc.lft.to/lastmile_qr_scan", "ios": "https://dc.lft.to/lastmile_qr_scan"}, "type": "electric_scooter", "lon": -77.0333685, "name": "1a7029140a9b4eae48c0bb56a7524d9a", "bike_id": "1a7029140a9b4eae48c0bb56a7524d9a", "fusion_lat": 0.0, "is_reserved": 0, "lat": 38.928678166666664, "fusion_lon": 0.0, "is_disabled": 0}, {"rental_uris": {"android": "https://dc.lft.to/lastmile_qr_scan", "ios": "https://dc.lft.to/lastmile_qr_scan"}, "type": "electric_scooter", "lon": -77.01378716666666, "name": "cea3f48b9819cb0ac56911fc6d126983", "bike_id": "cea3f48b9819cb0ac56911fc6d126983", "fusion_lat": 0.0, "is_reserved": 0, "lat": 38.91505516666667, "fusion_lon": 0.0, "is_disabled": 0}, {"rental_uris": {"android": "https://dc.lft.to/lastmile_qr_scan", "ios": "https://dc.lft.to/lastmile_qr_scan"}, "type": "electric_scooter", "lon": -77.041301, "name": "633c9d6025a163f63738d92558bda466", "bike_id": "633c9d6025a163f63738d92558bda466", "fusion_lat": 0.0, "is_reserved": 0, "lat": 38.921360166666666, "fusion_lon": 0.0, "is_disabled": 0}, {"rental_uris": {"android": "https://dc.lft.to/lastmile_qr_scan", "ios": "https://dc.lft.to/lastmile_qr_scan"}, "type": "electric_scooter", "lon": -77.02366, "name": "0fba609b457a25b05ad2a9cdd1cbfdb3", "bike_id": "0fba609b457a25b05ad2a9cdd1cbfdb3", "fusion_lat": 0.0, "is_reserved": 0, "lat": 38.9073835, "fusion_lon": 0.0, "is_disabled": 0}, {"rental_uris": {"android": "https://dc.lft.to/lastmile_qr_scan", "ios": "https://dc.lft.to/lastmile_qr_scan"}, "type": "electric_scooter", "lon": -77.02420383333333, "name": "5740bf1e0a8a9f21c3efe56c5835d5a1", "bike_id": "5740bf1e0a8a9f21c3efe56c5835d5a1", "fusion_lat": 0.0, "is_reserved": 0, "lat": 38.8922385, "fusion_lon": 0.0, "is_disabled": 0}, {"rental_uris": {"android": "https://dc.lft.to/lastmile_qr_scan", "ios": "https://dc.lft.to/lastmile_qr_scan"}, "type": "electric_bike", "lon": -77.08544716666667, "name": "4db745ae0e552d564ed6872b4be717f0", "bike_id": "4db745ae0e552d564ed6872b4be717f0", "fusion_lat": 0.0, "is_reserved": 0, "lat": 38.85618916666667, "fusion_lon": 0.0, "is_disabled": 0}, {"rental_uris": {"android": "https://dc.lft.to/lastmile_qr_scan", "ios": "https://dc.lft.to/lastmile_qr_scan"}, "type": "electric_scooter", "lon": -77.02799366666666, "name": "2c01481b61ac2b4192ce956f93b754a3", "bike_id": "2c01481b61ac2b4192ce956f93b754a3", "fusion_lat": 0.0, "is_reserved": 0, "lat": 38.961212, "fusion_lon": 0.0, "is_disabled": 0}, {"rental_uris": {"android": "https://dc.lft.to/lastmile_qr_scan", "ios": "https://dc.lft.to/lastmile_qr_scan"}, "type": "electric_scooter", "lon": -77.02556116666666, "name": "081459f2d790487e25ff31f8f50d386c", "bike_id": "081459f2d790487e25ff31f8f50d386c", "fusion_lat": 0.0, "is_reserved": 0, "lat": 38.94161166666667, "fusion_lon": 0.0, "is_disabled": 0}, {"rental_uris": {"android": "https://dc.lft.to/lastmile_qr_scan", "ios": "https://dc.lft.to/lastmile_qr_scan"}, "type": "electric_scooter", "lon": -76.97038333333333, "name": "e65d8a55dc781392991167bd1894bf1a", "bike_id": "e65d8a55dc781392991167bd1894bf1a", "fusion_lat": 0.0, "is_reserved": 0, "lat": 38.8678035, "fusion_lon": 0.0, "is_disabled": 0}, {"rental_uris": {"android": "https://dc.lft.to/lastmile_qr_scan", "ios": "https://dc.lft.to/lastmile_qr_scan"}, "type": "electric_scooter", "lon": -77.03738, "name": "940707100a5c9a44ca75341562d2264f", "bike_id": "940707100a5c9a44ca75341562d2264f", "fusion_lat": 0.0, "is_reserved": 0, "lat": 38.9168595, "fusion_lon": 0.0, "is_disabled": 0}, {"rental_uris": {"android": "https://dc.lft.to/lastmile_qr_scan", "ios": "https://dc.lft.to/lastmile_qr_scan"}, "type": "electric_scooter", "lon": -76.98747933333334, "name": "f26e15246c70b80648b063b05ea78d54", "bike_id": "f26e15246c70b80648b063b05ea78d54", "fusion_lat": 0.0, "is_reserved": 0, "lat": 38.8445565, "fusion_lon": 0.0, "is_disabled": 0}, {"rental_uris": {"android": "https://dc.lft.to/lastmile_qr_scan", "ios": "https://dc.lft.to/lastmile_qr_scan"}, "type": "electric_scooter", "lon": -77.06535983333333, "name": "3b5c1f29412f7b61f23abce96e9d656d", "bike_id": "3b5c1f29412f7b61f23abce96e9d656d", "fusion_lat": 0.0, "is_reserved": 0, "lat": 38.950687333333335, "fusion_lon": 0.0, "is_disabled": 0}, {"rental_uris": {"android": "https://dc.lft.to/lastmile_qr_scan", "ios": "https://dc.lft.to/lastmile_qr_scan"}, "type": "electric_scooter", "lon": -77.020369, "name": "881d7506d6cd14c36edaf665b164076e", "bike_id": "881d7506d6cd14c36edaf665b164076e", "fusion_lat": 0.0, "is_reserved": 0, "lat": 38.892692333333336, "fusion_lon": 0.0, "is_disabled": 0}, {"rental_uris": {"android": "https://dc.lft.to/lastmile_qr_scan", "ios": "https://dc.lft.to/lastmile_qr_scan"}, "type": "electric_scooter", "lon": -77.05001266666666, "name": "91658591b57afa9ead1b34a0dc8f4320", "bike_id": "91658591b57afa9ead1b34a0dc8f4320", "fusion_lat": 0.0, "is_reserved": 0, "lat": 38.8922815, "fusion_lon": 0.0, "is_disabled": 0}, {"rental_uris": {"android": "https://dc.lft.to/lastmile_qr_scan", "ios": "https://dc.lft.to/lastmile_qr_scan"}, "type": "electric_bike", "lon": -77.1780505, "name": "b75a899d7b7ad08e3209e6735478e7aa", "bike_id": "b75a899d7b7ad08e3209e6735478e7aa", "fusion_lat": 0.0, "is_reserved": 0, "lat": 39.088405333333334, "fusion_lon": 0.0, "is_disabled": 0}, {"rental_uris": {"android": "https://dc.lft.to/lastmile_qr_scan", "ios": "https://dc.lft.to/lastmile_qr_scan"}, "type": "electric_scooter", "lon": -76.98704116666667, "name": "d2121a1f1830ba5df692b8b050c12d4e", "bike_id": "d2121a1f1830ba5df692b8b050c12d4e", "fusion_lat": 0.0, "is_reserved": 0, "lat": 38.90203283333334, "fusion_lon": 0.0, "is_disabled": 0}, {"rental_uris": {"android": "https://dc.lft.to/lastmile_qr_scan", "ios": "https://dc.lft.to/lastmile_qr_scan"}, "type": "electric_scooter", "lon": -77.03844133333334, "name": "9d58aee6e35b90c066e40bc226737453", "bike_id": "9d58aee6e35b90c066e40bc226737453", "fusion_lat": 0.0, "is_reserved": 0, "lat": 38.912888, "fusion_lon": 0.0, "is_disabled": 0}, {"rental_uris": {"android": "https://dc.lft.to/lastmile_qr_scan", "ios": "https://dc.lft.to/lastmile_qr_scan"}, "type": "electric_bike", "lon": -77.02622066666666, "name": "f4d197f71e7b7e4b6761b8f7883804cd", "bike_id": "f4d197f71e7b7e4b6761b8f7883804cd", "fusion_lat": 0.0, "is_reserved": 0, "lat": 38.9622205, "fusion_lon": 0.0, "is_disabled": 0}, {"rental_uris": {"android": "https://dc.lft.to/lastmile_qr_scan", "ios": "https://dc.lft.to/lastmile_qr_scan"}, "type": "electric_scooter", "lon": -76.993973, "name": "3809187108b404d474af4b57b7c359f2", "bike_id": "3809187108b404d474af4b57b7c359f2", "fusion_lat": 0.0, "is_reserved": 0, "lat": 38.8860015, "fusion_lon": 0.0, "is_disabled": 0}, {"rental_uris": {"android": "https://dc.lft.to/lastmile_qr_scan", "ios": "https://dc.lft.to/lastmile_qr_scan"}, "type": "electric_scooter", "lon": -76.98884183333334, "name": "81c24a71c6d9fd3160c6c6eaa06d8a26", "bike_id": "81c24a71c6d9fd3160c6c6eaa06d8a26", "fusion_lat": 0.0, "is_reserved": 0, "lat": 38.86671116666667, "fusion_lon": 0.0, "is_disabled": 0}, {"rental_uris": {"android": "https://dc.lft.to/lastmile_qr_scan", "ios": "https://dc.lft.to/lastmile_qr_scan"}, "type": "electric_scooter", "lon": -77.03878633333333, "name": "ffc0d0682690dc9dd1e915feae468ca8", "bike_id": "ffc0d0682690dc9dd1e915feae468ca8", "fusion_lat": 0.0, "is_reserved": 0, "lat": 38.93427116666667, "fusion_lon": 0.0, "is_disabled": 0}, {"rental_uris": {"android": "https://dc.lft.to/lastmile_qr_scan", "ios": "https://dc.lft.to/lastmile_qr_scan"}, "type": "electric_scooter", "lon": -77.050151, "name": "8e7e02eb47b6fa0542a36b1e99eb4023", "bike_id": "8e7e02eb47b6fa0542a36b1e99eb4023", "fusion_lat": 0.0, "is_reserved": 0, "lat": 38.9076415, "fusion_lon": 0.0, "is_disabled": 0}, {"rental_uris": {"android": "https://dc.lft.to/lastmile_qr_scan", "ios": "https://dc.lft.to/lastmile_qr_scan"}, "type": "electric_scooter", "lon": -77.026527, "name": "4ee7d1a4ce17977c0253d1174845c5a1", "bike_id": "4ee7d1a4ce17977c0253d1174845c5a1", "fusion_lat": 0.0, "is_reserved": 0, "lat": 38.902324666666665, "fusion_lon": 0.0, "is_disabled": 0}, {"rental_uris": {"android": "https://dc.lft.to/lastmile_qr_scan", "ios": "https://dc.lft.to/lastmile_qr_scan"}, "type": "electric_bike", "lon": -77.10736166666666, "name": "b3f1fb50e2b3815aacdcbf96032ddf6e", "bike_id": "b3f1fb50e2b3815aacdcbf96032ddf6e", "fusion_lat": 0.0, "is_reserved": 0, "lat": 38.85555033333333, "fusion_lon": 0.0, "is_disabled": 0}, {"rental_uris": {"android": "https://dc.lft.to/lastmile_qr_scan", "ios": "https://dc.lft.to/lastmile_qr_scan"}, "type": "electric_scooter", "lon": -77.02118316666666, "name": "7d67c408e7f5a913bc3cfac966f04fbc", "bike_id": "7d67c408e7f5a913bc3cfac966f04fbc", "fusion_lat": 0.0, "is_reserved": 0, "lat": 38.93017966666667, "fusion_lon": 0.0, "is_disabled": 0}, {"rental_uris": {"android": "https://dc.lft.to/lastmile_qr_scan", "ios": "https://dc.lft.to/lastmile_qr_scan"}, "type": "electric_bike", "lon": -77.05109816666666, "name": "be56028f31c1cbde43aba7834af8326c", "bike_id": "be56028f31c1cbde43aba7834af8326c", "fusion_lat": 0.0, "is_reserved": 0, "lat": 38.945582333333334, "fusion_lon": 0.0, "is_disabled": 0}, {"rental_uris": {"android": "https://dc.lft.to/lastmile_qr_scan", "ios": "https://dc.lft.to/lastmile_qr_scan"}, "type": "electric_scooter", "lon": -77.028298, "name": "d5b40da043e0a960d7aa9bb836d9e007", "bike_id": "d5b40da043e0a960d7aa9bb836d9e007", "fusion_lat": 0.0, "is_reserved": 0, "lat": 38.929666833333336, "fusion_lon": 0.0, "is_disabled": 0}, {"rental_uris": {"android": "https://dc.lft.to/lastmile_qr_scan", "ios": "https://dc.lft.to/lastmile_qr_scan"}, "type": "electric_scooter", "lon": -77.01829616666667, "name": "3af7dc149432be0837a8d06049bd6968", "bike_id": "3af7dc149432be0837a8d06049bd6968", "fusion_lat": 0.0, "is_reserved": 0, "lat": 38.919736666666665, "fusion_lon": 0.0, "is_disabled": 0}, {"rental_uris": {"android": "https://dc.lft.to/lastmile_qr_scan", "ios": "https://dc.lft.to/lastmile_qr_scan"}, "type": "electric_scooter", "lon": -77.02053233333334, "name": "806a10af48ada50fe03541689259f34e", "bike_id": "806a10af48ada50fe03541689259f34e", "fusion_lat": 0.0, "is_reserved": 0, "lat": 38.95872, "fusion_lon": 0.0, "is_disabled": 0}, {"rental_uris": {"android": "https://dc.lft.to/lastmile_qr_scan", "ios": "https://dc.lft.to/lastmile_qr_scan"}, "type": "electric_scooter", "lon": -77.0303395, "name": "306199cd9cd124815ec176390df13eed", "bike_id": "306199cd9cd124815ec176390df13eed", "fusion_lat": 0.0, "is_reserved": 0, "lat": 38.939764833333335, "fusion_lon": 0.0, "is_disabled": 0}, {"rental_uris": {"android": "https://dc.lft.to/lastmile_qr_scan", "ios": "https://dc.lft.to/lastmile_qr_scan"}, "type": "electric_scooter", "lon": -77.0383605, "name": "394d1c4834ede6bf3b8e161d93cb58d3", "bike_id": "394d1c4834ede6bf3b8e161d93cb58d3", "fusion_lat": 0.0, "is_reserved": 0, "lat": 38.9155875, "fusion_lon": 0.0, "is_disabled": 0}, {"rental_uris": {"android": "https://dc.lft.to/lastmile_qr_scan", "ios": "https://dc.lft.to/lastmile_qr_scan"}, "type": "electric_bike", "lon": -77.0277775, "name": "dd444d7f4c7c7a15bc0fe50090d5a979", "bike_id": "dd444d7f4c7c7a15bc0fe50090d5a979", "fusion_lat": 0.0, "is_reserved": 0, "lat": 38.9652415, "fusion_lon": 0.0, "is_disabled": 0}, {"rental_uris": {"android": "https://dc.lft.to/lastmile_qr_scan", "ios": "https://dc.lft.to/lastmile_qr_scan"}, "type": "electric_scooter", "lon": -77.06772283333333, "name": "c5d7cd6b9b4a5a89eee51ff995f798f2", "bike_id": "c5d7cd6b9b4a5a89eee51ff995f798f2", "fusion_lat": 0.0, "is_reserved": 0, "lat": 38.94963583333333, "fusion_lon": 0.0, "is_disabled": 0}, {"rental_uris": {"android": "https://dc.lft.to/lastmile_qr_scan", "ios": "https://dc.lft.to/lastmile_qr_scan"}, "type": "electric_bike", "lon": -76.97215766666666, "name": "6631fddec20633e0198619d902278113", "bike_id": "6631fddec20633e0198619d902278113", "fusion_lat": 0.0, "is_reserved": 0, "lat": 38.84482633333333, "fusion_lon": 0.0, "is_disabled": 0}, {"rental_uris": {"android": "https://dc.lft.to/lastmile_qr_scan", "ios": "https://dc.lft.to/lastmile_qr_scan"}, "type": "electric_scooter", "lon": -77.04543416666667, "name": "27e54b8ccc88a2197b101b879727e093", "bike_id": "27e54b8ccc88a2197b101b879727e093", "fusion_lat": 0.0, "is_reserved": 0, "lat": 38.920487, "fusion_lon": 0.0, "is_disabled": 0}, {"rental_uris": {"android": "https://dc.lft.to/lastmile_qr_scan", "ios": "https://dc.lft.to/lastmile_qr_scan"}, "type": "electric_scooter", "lon": -77.04151283333333, "name": "c003636102e9f4bd8ad356ffac0a144a", "bike_id": "c003636102e9f4bd8ad356ffac0a144a", "fusion_lat": 0.0, "is_reserved": 0, "lat": 38.914127, "fusion_lon": 0.0, "is_disabled": 0}, {"rental_uris": {"android": "https://dc.lft.to/lastmile_qr_scan", "ios": "https://dc.lft.to/lastmile_qr_scan"}, "type": "electric_scooter", "lon": -77.01772933333334, "name": "410de6cc7f6e2ce20a83935e3ff7d1ca", "bike_id": "410de6cc7f6e2ce20a83935e3ff7d1ca", "fusion_lat": 0.0, "is_reserved": 0, "lat": 38.92109216666667, "fusion_lon": 0.0, "is_disabled": 0}, {"rental_uris": {"android": "https://dc.lft.to/lastmile_qr_scan", "ios": "https://dc.lft.to/lastmile_qr_scan"}, "type": "electric_scooter", "lon": -77.035094, "name": "2c686e63c302da349a9d65667a5a5e7e", "bike_id": "2c686e63c302da349a9d65667a5a5e7e", "fusion_lat": 0.0, "is_reserved": 0, "lat": 38.921432833333334, "fusion_lon": 0.0, "is_disabled": 0}, {"rental_uris": {"android": "https://dc.lft.to/lastmile_qr_scan", "ios": "https://dc.lft.to/lastmile_qr_scan"}, "type": "electric_scooter", "lon": -77.03199233333333, "name": "9f68a7179d8ce1326ecdd04b4b3dae7e", "bike_id": "9f68a7179d8ce1326ecdd04b4b3dae7e", "fusion_lat": 0.0, "is_reserved": 0, "lat": 38.939711833333334, "fusion_lon": 0.0, "is_disabled": 0}, {"rental_uris": {"android": "https://dc.lft.to/lastmile_qr_scan", "ios": "https://dc.lft.to/lastmile_qr_scan"}, "type": "electric_scooter", "lon": -77.02589516666667, "name": "5ec73bad28b831086ff09049085bede2", "bike_id": "5ec73bad28b831086ff09049085bede2", "fusion_lat": 0.0, "is_reserved": 0, "lat": 38.908418166666664, "fusion_lon": 0.0, "is_disabled": 0}, {"rental_uris": {"android": "https://dc.lft.to/lastmile_qr_scan", "ios": "https://dc.lft.to/lastmile_qr_scan"}, "type": "electric_scooter", "lon": -77.021709, "name": "a0a6b9d016bfc6e55139511524798781", "bike_id": "a0a6b9d016bfc6e55139511524798781", "fusion_lat": 0.0, "is_reserved": 0, "lat": 38.887431166666666, "fusion_lon": 0.0, "is_disabled": 0}, {"rental_uris": {"android": "https://dc.lft.to/lastmile_qr_scan", "ios": "https://dc.lft.to/lastmile_qr_scan"}, "type": "electric_scooter", "lon": -76.99614166666667, "name": "3f7fa2ed66eb7000091055e1f2ce2cbf", "bike_id": "3f7fa2ed66eb7000091055e1f2ce2cbf", "fusion_lat": 0.0, "is_reserved": 0, "lat": 38.89757216666667, "fusion_lon": 0.0, "is_disabled": 0}, {"rental_uris": {"android": "https://dc.lft.to/lastmile_qr_scan", "ios": "https://dc.lft.to/lastmile_qr_scan"}, "type": "electric_scooter", "lon": -77.02182483333333, "name": "cf7899a5606c817b1b3bb4f37b4c5c5a", "bike_id": "cf7899a5606c817b1b3bb4f37b4c5c5a", "fusion_lat": 0.0, "is_reserved": 0, "lat": 38.89628533333333, "fusion_lon": 0.0, "is_disabled": 0}, {"rental_uris": {"android": "https://dc.lft.to/lastmile_qr_scan", "ios": "https://dc.lft.to/lastmile_qr_scan"}, "type": "electric_scooter", "lon": -77.038507, "name": "35f0f030b462f04c42f7ba09f94a5067", "bike_id": "35f0f030b462f04c42f7ba09f94a5067", "fusion_lat": 0.0, "is_reserved": 0, "lat": 38.91538033333333, "fusion_lon": 0.0, "is_disabled": 0}, {"rental_uris": {"android": "https://dc.lft.to/lastmile_qr_scan", "ios": "https://dc.lft.to/lastmile_qr_scan"}, "type": "electric_scooter", "lon": -77.03080216666666, "name": "cf5929efb0e73268c0a7396c0640e378", "bike_id": "cf5929efb0e73268c0a7396c0640e378", "fusion_lat": 0.0, "is_reserved": 0, "lat": 38.927235833333334, "fusion_lon": 0.0, "is_disabled": 0}, {"rental_uris": {"android": "https://dc.lft.to/lastmile_qr_scan", "ios": "https://dc.lft.to/lastmile_qr_scan"}, "type": "electric_scooter", "lon": -76.99682333333334, "name": "f91ff1e173629e6a35c8e3c1e657cb82", "bike_id": "f91ff1e173629e6a35c8e3c1e657cb82", "fusion_lat": 0.0, "is_reserved": 0, "lat": 38.8870205, "fusion_lon": 0.0, "is_disabled": 0}, {"rental_uris": {"android": "https://dc.lft.to/lastmile_qr_scan", "ios": "https://dc.lft.to/lastmile_qr_scan"}, "type": "electric_bike", "lon": -77.0050485, "name": "aa137572c54a444c4544934861b51f9c", "bike_id": "aa137572c54a444c4544934861b51f9c", "fusion_lat": 0.0, "is_reserved": 0, "lat": 38.87531116666667, "fusion_lon": 0.0, "is_disabled": 0}, {"rental_uris": {"android": "https://dc.lft.to/lastmile_qr_scan", "ios": "https://dc.lft.to/lastmile_qr_scan"}, "type": "electric_scooter", "lon": -77.02383433333334, "name": "d65a5540e851203cfa9377d270fad7bf", "bike_id": "d65a5540e851203cfa9377d270fad7bf", "fusion_lat": 0.0, "is_reserved": 0, "lat": 38.907062333333336, "fusion_lon": 0.0, "is_disabled": 0}, {"rental_uris": {"android": "https://dc.lft.to/lastmile_qr_scan", "ios": "https://dc.lft.to/lastmile_qr_scan"}, "type": "electric_scooter", "lon": -77.04322666666667, "name": "c19f7ed39cdaeeb73edc90a8528fda65", "bike_id": "c19f7ed39cdaeeb73edc90a8528fda65", "fusion_lat": 0.0, "is_reserved": 0, "lat": 38.892198, "fusion_lon": 0.0, "is_disabled": 0}, {"rental_uris": {"android": "https://dc.lft.to/lastmile_qr_scan", "ios": "https://dc.lft.to/lastmile_qr_scan"}, "type": "electric_scooter", "lon": -77.037797, "name": "ad616f05b0fe9451f6fdbf0b3af7600e", "bike_id": "ad616f05b0fe9451f6fdbf0b3af7600e", "fusion_lat": 0.0, "is_reserved": 0, "lat": 38.90687783333333, "fusion_lon": 0.0, "is_disabled": 0}, {"rental_uris": {"android": "https://dc.lft.to/lastmile_qr_scan", "ios": "https://dc.lft.to/lastmile_qr_scan"}, "type": "electric_scooter", "lon": -77.06889866666667, "name": "cfffbd6ed6c14e8a6fdbc98f470e9c5b", "bike_id": "cfffbd6ed6c14e8a6fdbc98f470e9c5b", "fusion_lat": 0.0, "is_reserved": 0, "lat": 38.9051275, "fusion_lon": 0.0, "is_disabled": 0}, {"rental_uris": {"android": "https://dc.lft.to/lastmile_qr_scan", "ios": "https://dc.lft.to/lastmile_qr_scan"}, "type": "electric_scooter", "lon": -77.01836466666667, "name": "df4972c7229da310618db29f0d42f760", "bike_id": "df4972c7229da310618db29f0d42f760", "fusion_lat": 0.0, "is_reserved": 0, "lat": 38.909552166666664, "fusion_lon": 0.0, "is_disabled": 0}, {"rental_uris": {"android": "https://dc.lft.to/lastmile_qr_scan", "ios": "https://dc.lft.to/lastmile_qr_scan"}, "type": "electric_bike", "lon": -76.98119233333334, "name": "1d35083e35eceb68fbe125ddc341aaca", "bike_id": "1d35083e35eceb68fbe125ddc341aaca", "fusion_lat": 0.0, "is_reserved": 0, "lat": 38.89666316666667, "fusion_lon": 0.0, "is_disabled": 0}, {"rental_uris": {"android": "https://dc.lft.to/lastmile_qr_scan", "ios": "https://dc.lft.to/lastmile_qr_scan"}, "type": "electric_scooter", "lon": -77.00616616666667, "name": "85c233b16dcc8dd0cfae3ff6b92309ce", "bike_id": "85c233b16dcc8dd0cfae3ff6b92309ce", "fusion_lat": 0.0, "is_reserved": 0, "lat": 38.885052333333334, "fusion_lon": 0.0, "is_disabled": 0}, {"rental_uris": {"android": "https://dc.lft.to/lastmile_qr_scan", "ios": "https://dc.lft.to/lastmile_qr_scan"}, "type": "electric_bike", "lon": -77.1122685, "name": "92e9c50cacdabeff52681a1ea80e9ec1", "bike_id": "92e9c50cacdabeff52681a1ea80e9ec1", "fusion_lat": 0.0, "is_reserved": 0, "lat": 38.81221033333333, "fusion_lon": 0.0, "is_disabled": 0}, {"rental_uris": {"android": "https://dc.lft.to/lastmile_qr_scan", "ios": "https://dc.lft.to/lastmile_qr_scan"}, "type": "electric_scooter", "lon": -77.03245733333333, "name": "71532caad37305289540757c8dc752ce", "bike_id": "71532caad37305289540757c8dc752ce", "fusion_lat": 0.0, "is_reserved": 0, "lat": 38.9054595, "fusion_lon": 0.0, "is_disabled": 0}, {"rental_uris": {"android": "https://dc.lft.to/lastmile_qr_scan", "ios": "https://dc.lft.to/lastmile_qr_scan"}, "type": "electric_scooter", "lon": -77.032872, "name": "febaf4099245b2d630a7c9c9dbb7ef9c", "bike_id": "febaf4099245b2d630a7c9c9dbb7ef9c", "fusion_lat": 0.0, "is_reserved": 0, "lat": 38.9368575, "fusion_lon": 0.0, "is_disabled": 0}, {"rental_uris": {"android": "https://dc.lft.to/lastmile_qr_scan", "ios": "https://dc.lft.to/lastmile_qr_scan"}, "type": "electric_scooter", "lon": -77.02156983333333, "name": "5105df42928c1f541b601a10bba3279a", "bike_id": "5105df42928c1f541b601a10bba3279a", "fusion_lat": 0.0, "is_reserved": 0, "lat": 38.9260115, "fusion_lon": 0.0, "is_disabled": 0}, {"rental_uris": {"android": "https://dc.lft.to/lastmile_qr_scan", "ios": "https://dc.lft.to/lastmile_qr_scan"}, "type": "electric_bike", "lon": -77.10178166666667, "name": "61647933211d89a900edd041b4b08774", "bike_id": "61647933211d89a900edd041b4b08774", "fusion_lat": 0.0, "is_reserved": 0, "lat": 38.91809966666667, "fusion_lon": 0.0, "is_disabled": 0}, {"rental_uris": {"android": "https://dc.lft.to/lastmile_qr_scan", "ios": "https://dc.lft.to/lastmile_qr_scan"}, "type": "electric_scooter", "lon": -77.03752716666666, "name": "75e2533873d05227704039b68e27a680", "bike_id": "75e2533873d05227704039b68e27a680", "fusion_lat": 0.0, "is_reserved": 0, "lat": 38.9292665, "fusion_lon": 0.0, "is_disabled": 0}, {"rental_uris": {"android": "https://dc.lft.to/lastmile_qr_scan", "ios": "https://dc.lft.to/lastmile_qr_scan"}, "type": "electric_scooter", "lon": -77.03078683333334, "name": "59af9c08be51afbea37bbb68f2b9ba55", "bike_id": "59af9c08be51afbea37bbb68f2b9ba55", "fusion_lat": 0.0, "is_reserved": 0, "lat": 38.92385, "fusion_lon": 0.0, "is_disabled": 0}, {"rental_uris": {"android": "https://dc.lft.to/lastmile_qr_scan", "ios": "https://dc.lft.to/lastmile_qr_scan"}, "type": "electric_scooter", "lon": -77.027884, "name": "185811c70f6d42302799962b373ce8d5", "bike_id": "185811c70f6d42302799962b373ce8d5", "fusion_lat": 0.0, "is_reserved": 0, "lat": 38.930822666666664, "fusion_lon": 0.0, "is_disabled": 0}, {"rental_uris": {"android": "https://dc.lft.to/lastmile_qr_scan", "ios": "https://dc.lft.to/lastmile_qr_scan"}, "type": "electric_bike", "lon": -76.9832785, "name": "a4c2102879e8ad98bf0a29c8b7d4ec98", "bike_id": "a4c2102879e8ad98bf0a29c8b7d4ec98", "fusion_lat": 0.0, "is_reserved": 0, "lat": 38.966053, "fusion_lon": 0.0, "is_disabled": 0}, {"rental_uris": {"android": "https://dc.lft.to/lastmile_qr_scan", "ios": "https://dc.lft.to/lastmile_qr_scan"}, "type": "electric_scooter", "lon": -77.0220245, "name": "0fba187bb85548c7ba226e3b1ef048c8", "bike_id": "0fba187bb85548c7ba226e3b1ef048c8", "fusion_lat": 0.0, "is_reserved": 0, "lat": 38.887159, "fusion_lon": 0.0, "is_disabled": 0}, {"rental_uris": {"android": "https://dc.lft.to/lastmile_qr_scan", "ios": "https://dc.lft.to/lastmile_qr_scan"}, "type": "electric_scooter", "lon": -77.0416445, "name": "b068d1d85155b833b2778906cb7674fa", "bike_id": "b068d1d85155b833b2778906cb7674fa", "fusion_lat": 0.0, "is_reserved": 0, "lat": 38.910856833333334, "fusion_lon": 0.0, "is_disabled": 0}, {"rental_uris": {"android": "https://dc.lft.to/lastmile_qr_scan", "ios": "https://dc.lft.to/lastmile_qr_scan"}, "type": "electric_scooter", "lon": -76.990165, "name": "6890a67173b3b82698a94c3e48e9bb05", "bike_id": "6890a67173b3b82698a94c3e48e9bb05", "fusion_lat": 0.0, "is_reserved": 0, "lat": 38.85869233333333, "fusion_lon": 0.0, "is_disabled": 0}, {"rental_uris": {"android": "https://dc.lft.to/lastmile_qr_scan", "ios": "https://dc.lft.to/lastmile_qr_scan"}, "type": "electric_scooter", "lon": -77.06105733333334, "name": "c93bb71d538f87011bb5a0ce0088a489", "bike_id": "c93bb71d538f87011bb5a0ce0088a489", "fusion_lat": 0.0, "is_reserved": 0, "lat": 38.94317183333333, "fusion_lon": 0.0, "is_disabled": 0}, {"rental_uris": {"android": "https://dc.lft.to/lastmile_qr_scan", "ios": "https://dc.lft.to/lastmile_qr_scan"}, "type": "electric_scooter", "lon": -76.93748816666667, "name": "dc659bb7fc60df7cac154e0991ff6e67", "bike_id": "dc659bb7fc60df7cac154e0991ff6e67", "fusion_lat": 0.0, "is_reserved": 0, "lat": 38.890422, "fusion_lon": 0.0, "is_disabled": 0}, {"rental_uris": {"android": "https://dc.lft.to/lastmile_qr_scan", "ios": "https://dc.lft.to/lastmile_qr_scan"}, "type": "electric_scooter", "lon": -76.99754033333333, "name": "525545b0d163e3133043da305b90680d", "bike_id": "525545b0d163e3133043da305b90680d", "fusion_lat": 0.0, "is_reserved": 0, "lat": 38.92197566666667, "fusion_lon": 0.0, "is_disabled": 0}, {"rental_uris": {"android": "https://dc.lft.to/lastmile_qr_scan", "ios": "https://dc.lft.to/lastmile_qr_scan"}, "type": "electric_scooter", "lon": -77.03193366666666, "name": "7d763d2872911076eabf06299388c769", "bike_id": "7d763d2872911076eabf06299388c769", "fusion_lat": 0.0, "is_reserved": 0, "lat": 38.90766083333333, "fusion_lon": 0.0, "is_disabled": 0}, {"rental_uris": {"android": "https://dc.lft.to/lastmile_qr_scan", "ios": "https://dc.lft.to/lastmile_qr_scan"}, "type": "electric_scooter", "lon": -77.03196233333334, "name": "ccf20b09684832691cc2516ee8ccd5c2", "bike_id": "ccf20b09684832691cc2516ee8ccd5c2", "fusion_lat": 0.0, "is_reserved": 0, "lat": 38.907547666666666, "fusion_lon": 0.0, "is_disabled": 0}, {"rental_uris": {"android": "https://dc.lft.to/lastmile_qr_scan", "ios": "https://dc.lft.to/lastmile_qr_scan"}, "type": "electric_scooter", "lon": -77.02471433333334, "name": "74c7592962174ef3ecdaf73ec53c2822", "bike_id": "74c7592962174ef3ecdaf73ec53c2822", "fusion_lat": 0.0, "is_reserved": 0, "lat": 38.9390035, "fusion_lon": 0.0, "is_disabled": 0}, {"rental_uris": {"android": "https://dc.lft.to/lastmile_qr_scan", "ios": "https://dc.lft.to/lastmile_qr_scan"}, "type": "electric_scooter", "lon": -77.04000283333333, "name": "780bb6de536db791731d6eb9ddc02fe3", "bike_id": "780bb6de536db791731d6eb9ddc02fe3", "fusion_lat": 0.0, "is_reserved": 0, "lat": 38.918034166666665, "fusion_lon": 0.0, "is_disabled": 0}, {"rental_uris": {"android": "https://dc.lft.to/lastmile_qr_scan", "ios": "https://dc.lft.to/lastmile_qr_scan"}, "type": "electric_scooter", "lon": -77.023083, "name": "1ecd2c62c39078d168fdf80d70684d0b", "bike_id": "1ecd2c62c39078d168fdf80d70684d0b", "fusion_lat": 0.0, "is_reserved": 0, "lat": 38.9181265, "fusion_lon": 0.0, "is_disabled": 0}, {"rental_uris": {"android": "https://dc.lft.to/lastmile_qr_scan", "ios": "https://dc.lft.to/lastmile_qr_scan"}, "type": "electric_scooter", "lon": -77.002721, "name": "e7551a391d72d356b00b6aa5cc61df8b", "bike_id": "e7551a391d72d356b00b6aa5cc61df8b", "fusion_lat": 0.0, "is_reserved": 0, "lat": 38.9149015, "fusion_lon": 0.0, "is_disabled": 0}, {"rental_uris": {"android": "https://dc.lft.to/lastmile_qr_scan", "ios": "https://dc.lft.to/lastmile_qr_scan"}, "type": "electric_scooter", "lon": -77.02551416666667, "name": "1cda42e9e440aa2fecc90767e056b00a", "bike_id": "1cda42e9e440aa2fecc90767e056b00a", "fusion_lat": 0.0, "is_reserved": 0, "lat": 38.89215933333333, "fusion_lon": 0.0, "is_disabled": 0}, {"rental_uris": {"android": "https://dc.lft.to/lastmile_qr_scan", "ios": "https://dc.lft.to/lastmile_qr_scan"}, "type": "electric_scooter", "lon": -77.03195683333334, "name": "1f5916d179eda8a06b086d0b4e690784", "bike_id": "1f5916d179eda8a06b086d0b4e690784", "fusion_lat": 0.0, "is_reserved": 0, "lat": 38.901159666666665, "fusion_lon": 0.0, "is_disabled": 0}, {"rental_uris": {"android": "https://dc.lft.to/lastmile_qr_scan", "ios": "https://dc.lft.to/lastmile_qr_scan"}, "type": "electric_scooter", "lon": -76.98498566666666, "name": "2c76237ad5dab94b7d8799bd863f4737", "bike_id": "2c76237ad5dab94b7d8799bd863f4737", "fusion_lat": 0.0, "is_reserved": 0, "lat": 38.860446333333336, "fusion_lon": 0.0, "is_disabled": 0}, {"rental_uris": {"android": "https://dc.lft.to/lastmile_qr_scan", "ios": "https://dc.lft.to/lastmile_qr_scan"}, "type": "electric_bike", "lon": -77.18296733333334, "name": "4ca17eccf9a0e3f378ec5cc8e7b454c8", "bike_id": "4ca17eccf9a0e3f378ec5cc8e7b454c8", "fusion_lat": 0.0, "is_reserved": 0, "lat": 38.88342866666667, "fusion_lon": 0.0, "is_disabled": 0}, {"rental_uris": {"android": "https://dc.lft.to/lastmile_qr_scan", "ios": "https://dc.lft.to/lastmile_qr_scan"}, "type": "electric_scooter", "lon": -77.0249985, "name": "cc250f99375a86d4b0e20a7d50d132e3", "bike_id": "cc250f99375a86d4b0e20a7d50d132e3", "fusion_lat": 0.0, "is_reserved": 0, "lat": 38.94201783333333, "fusion_lon": 0.0, "is_disabled": 0}, {"rental_uris": {"android": "https://dc.lft.to/lastmile_qr_scan", "ios": "https://dc.lft.to/lastmile_qr_scan"}, "type": "electric_scooter", "lon": -77.044596, "name": "6186126e8b26926e3a14811e68741eff", "bike_id": "6186126e8b26926e3a14811e68741eff", "fusion_lat": 0.0, "is_reserved": 0, "lat": 38.9111815, "fusion_lon": 0.0, "is_disabled": 0}, {"rental_uris": {"android": "https://dc.lft.to/lastmile_qr_scan", "ios": "https://dc.lft.to/lastmile_qr_scan"}, "type": "electric_scooter", "lon": -77.02759083333333, "name": "121163a9e0651dd7fb0c62cd489fdfeb", "bike_id": "121163a9e0651dd7fb0c62cd489fdfeb", "fusion_lat": 0.0, "is_reserved": 0, "lat": 38.953964, "fusion_lon": 0.0, "is_disabled": 0}, {"rental_uris": {"android": "https://dc.lft.to/lastmile_qr_scan", "ios": "https://dc.lft.to/lastmile_qr_scan"}, "type": "electric_scooter", "lon": -77.05519533333333, "name": "041d9f7157b642d465fdaf4bf2e16af4", "bike_id": "041d9f7157b642d465fdaf4bf2e16af4", "fusion_lat": 0.0, "is_reserved": 0, "lat": 38.92963833333334, "fusion_lon": 0.0, "is_disabled": 0}, {"rental_uris": {"android": "https://dc.lft.to/lastmile_qr_scan", "ios": "https://dc.lft.to/lastmile_qr_scan"}, "type": "electric_scooter", "lon": -77.03221033333334, "name": "f96abcb63b3bb1e55967d6c810e01187", "bike_id": "f96abcb63b3bb1e55967d6c810e01187", "fusion_lat": 0.0, "is_reserved": 0, "lat": 38.918639666666664, "fusion_lon": 0.0, "is_disabled": 0}, {"rental_uris": {"android": "https://dc.lft.to/lastmile_qr_scan", "ios": "https://dc.lft.to/lastmile_qr_scan"}, "type": "electric_scooter", "lon": -76.98262716666666, "name": "987128f01b7c23adfc1831d9b2e55e08", "bike_id": "987128f01b7c23adfc1831d9b2e55e08", "fusion_lat": 0.0, "is_reserved": 0, "lat": 38.863524, "fusion_lon": 0.0, "is_disabled": 0}, {"rental_uris": {"android": "https://dc.lft.to/lastmile_qr_scan", "ios": "https://dc.lft.to/lastmile_qr_scan"}, "type": "electric_bike", "lon": -77.02905866666667, "name": "54820675e5a078feb9ddb5866b2ef767", "bike_id": "54820675e5a078feb9ddb5866b2ef767", "fusion_lat": 0.0, "is_reserved": 0, "lat": 38.892015666666666, "fusion_lon": 0.0, "is_disabled": 0}, {"rental_uris": {"android": "https://dc.lft.to/lastmile_qr_scan", "ios": "https://dc.lft.to/lastmile_qr_scan"}, "type": "electric_bike", "lon": -77.00504983333333, "name": "49f30abafee59da257cd56745cf70849", "bike_id": "49f30abafee59da257cd56745cf70849", "fusion_lat": 0.0, "is_reserved": 0, "lat": 38.9098635, "fusion_lon": 0.0, "is_disabled": 0}, {"rental_uris": {"android": "https://dc.lft.to/lastmile_qr_scan", "ios": "https://dc.lft.to/lastmile_qr_scan"}, "type": "electric_scooter", "lon": -76.97618433333334, "name": "440b971bdca8a19b85fae6c0fec4f802", "bike_id": "440b971bdca8a19b85fae6c0fec4f802", "fusion_lat": 0.0, "is_reserved": 0, "lat": 38.93141083333333, "fusion_lon": 0.0, "is_disabled": 0}, {"rental_uris": {"android": "https://dc.lft.to/lastmile_qr_scan", "ios": "https://dc.lft.to/lastmile_qr_scan"}, "type": "electric_scooter", "lon": -76.98531166666666, "name": "b1926d7a0e62a154774d2462f546b3af", "bike_id": "b1926d7a0e62a154774d2462f546b3af", "fusion_lat": 0.0, "is_reserved": 0, "lat": 38.880819333333335, "fusion_lon": 0.0, "is_disabled": 0}, {"rental_uris": {"android": "https://dc.lft.to/lastmile_qr_scan", "ios": "https://dc.lft.to/lastmile_qr_scan"}, "type": "electric_bike", "lon": -76.954729, "name": "4759459be136c5bbacdc09090775383e", "bike_id": "4759459be136c5bbacdc09090775383e", "fusion_lat": 0.0, "is_reserved": 0, "lat": 38.935657, "fusion_lon": 0.0, "is_disabled": 0}, {"rental_uris": {"android": "https://dc.lft.to/lastmile_qr_scan", "ios": "https://dc.lft.to/lastmile_qr_scan"}, "type": "electric_scooter", "lon": -77.0021785, "name": "68c89c0750027f0940c04dff01b2e72f", "bike_id": "68c89c0750027f0940c04dff01b2e72f", "fusion_lat": 0.0, "is_reserved": 0, "lat": 38.90293616666666, "fusion_lon": 0.0, "is_disabled": 0}, {"rental_uris": {"android": "https://dc.lft.to/lastmile_qr_scan", "ios": "https://dc.lft.to/lastmile_qr_scan"}, "type": "electric_scooter", "lon": -77.00512016666667, "name": "a469b60bcbfe4960c38721aec600b04c", "bike_id": "a469b60bcbfe4960c38721aec600b04c", "fusion_lat": 0.0, "is_reserved": 0, "lat": 38.9259975, "fusion_lon": 0.0, "is_disabled": 0}, {"rental_uris": {"android": "https://dc.lft.to/lastmile_qr_scan", "ios": "https://dc.lft.to/lastmile_qr_scan"}, "type": "electric_scooter", "lon": -77.008155, "name": "788d13d3adcc7472c80a26e402c81761", "bike_id": "788d13d3adcc7472c80a26e402c81761", "fusion_lat": 0.0, "is_reserved": 0, "lat": 38.876333, "fusion_lon": 0.0, "is_disabled": 0}, {"rental_uris": {"android": "https://dc.lft.to/lastmile_qr_scan", "ios": "https://dc.lft.to/lastmile_qr_scan"}, "type": "electric_scooter", "lon": -76.9846665, "name": "fcaee9918d7cfea020d0bc1df68d1821", "bike_id": "fcaee9918d7cfea020d0bc1df68d1821", "fusion_lat": 0.0, "is_reserved": 0, "lat": 38.928991333333336, "fusion_lon": 0.0, "is_disabled": 0}, {"rental_uris": {"android": "https://dc.lft.to/lastmile_qr_scan", "ios": "https://dc.lft.to/lastmile_qr_scan"}, "type": "electric_bike", "lon": -77.13177133333333, "name": "e58a441589bd9976fb2f28b3a0764dc3", "bike_id": "e58a441589bd9976fb2f28b3a0764dc3", "fusion_lat": 0.0, "is_reserved": 0, "lat": 38.86903566666667, "fusion_lon": 0.0, "is_disabled": 0}, {"rental_uris": {"android": "https://dc.lft.to/lastmile_qr_scan", "ios": "https://dc.lft.to/lastmile_qr_scan"}, "type": "electric_bike", "lon": -76.99761616666666, "name": "0133802c5052ffc3e11e4c9aea2f22a4", "bike_id": "0133802c5052ffc3e11e4c9aea2f22a4", "fusion_lat": 0.0, "is_reserved": 0, "lat": 39.005916, "fusion_lon": 0.0, "is_disabled": 0}, {"rental_uris": {"android": "https://dc.lft.to/lastmile_qr_scan", "ios": "https://dc.lft.to/lastmile_qr_scan"}, "type": "electric_scooter", "lon": -76.99149966666667, "name": "cd46803377e1bbb531a01a75cad1d35c", "bike_id": "cd46803377e1bbb531a01a75cad1d35c", "fusion_lat": 0.0, "is_reserved": 0, "lat": 38.87907166666667, "fusion_lon": 0.0, "is_disabled": 0}, {"rental_uris": {"android": "https://dc.lft.to/lastmile_qr_scan", "ios": "https://dc.lft.to/lastmile_qr_scan"}, "type": "electric_scooter", "lon": -77.04995116666667, "name": "5486499e7848cf965ea47b5dfbe26628", "bike_id": "5486499e7848cf965ea47b5dfbe26628", "fusion_lat": 0.0, "is_reserved": 0, "lat": 38.90087583333333, "fusion_lon": 0.0, "is_disabled": 0}, {"rental_uris": {"android": "https://dc.lft.to/lastmile_qr_scan", "ios": "https://dc.lft.to/lastmile_qr_scan"}, "type": "electric_scooter", "lon": -76.92954183333333, "name": "d4cda602e3fd754f925e420afb634046", "bike_id": "d4cda602e3fd754f925e420afb634046", "fusion_lat": 0.0, "is_reserved": 0, "lat": 38.89876566666667, "fusion_lon": 0.0, "is_disabled": 0}, {"rental_uris": {"android": "https://dc.lft.to/lastmile_qr_scan", "ios": "https://dc.lft.to/lastmile_qr_scan"}, "type": "electric_scooter", "lon": -77.03845916666667, "name": "e095493fa8f30ca1870335a148208734", "bike_id": "e095493fa8f30ca1870335a148208734", "fusion_lat": 0.0, "is_reserved": 0, "lat": 38.915394166666665, "fusion_lon": 0.0, "is_disabled": 0}, {"rental_uris": {"android": "https://dc.lft.to/lastmile_qr_scan", "ios": "https://dc.lft.to/lastmile_qr_scan"}, "type": "electric_scooter", "lon": -77.046859, "name": "1782ee1e9a9a0daafd094fd455b54741", "bike_id": "1782ee1e9a9a0daafd094fd455b54741", "fusion_lat": 0.0, "is_reserved": 0, "lat": 38.91582916666667, "fusion_lon": 0.0, "is_disabled": 0}, {"rental_uris": {"android": "https://dc.lft.to/lastmile_qr_scan", "ios": "https://dc.lft.to/lastmile_qr_scan"}, "type": "electric_scooter", "lon": -77.03417066666667, "name": "4a4a5884a021c1c44a25181c3290f21c", "bike_id": "4a4a5884a021c1c44a25181c3290f21c", "fusion_lat": 0.0, "is_reserved": 0, "lat": 38.929461833333335, "fusion_lon": 0.0, "is_disabled": 0}, {"rental_uris": {"android": "https://dc.lft.to/lastmile_qr_scan", "ios": "https://dc.lft.to/lastmile_qr_scan"}, "type": "electric_scooter", "lon": -77.01206533333334, "name": "f17f66891ac74c4e56c70c5df9209267", "bike_id": "f17f66891ac74c4e56c70c5df9209267", "fusion_lat": 0.0, "is_reserved": 0, "lat": 38.89328033333334, "fusion_lon": 0.0, "is_disabled": 0}, {"rental_uris": {"android": "https://dc.lft.to/lastmile_qr_scan", "ios": "https://dc.lft.to/lastmile_qr_scan"}, "type": "electric_scooter", "lon": -77.003812, "name": "d62f2a922c685abbc42ecb20cdc326da", "bike_id": "d62f2a922c685abbc42ecb20cdc326da", "fusion_lat": 0.0, "is_reserved": 0, "lat": 38.897323, "fusion_lon": 0.0, "is_disabled": 0}, {"rental_uris": {"android": "https://dc.lft.to/lastmile_qr_scan", "ios": "https://dc.lft.to/lastmile_qr_scan"}, "type": "electric_scooter", "lon": -77.03655716666667, "name": "6d19f8cd6e97cb50a9f3ad3dfa5fe719", "bike_id": "6d19f8cd6e97cb50a9f3ad3dfa5fe719", "fusion_lat": 0.0, "is_reserved": 0, "lat": 38.921068, "fusion_lon": 0.0, "is_disabled": 0}, {"rental_uris": {"android": "https://dc.lft.to/lastmile_qr_scan", "ios": "https://dc.lft.to/lastmile_qr_scan"}, "type": "electric_scooter", "lon": -77.030666, "name": "ff183c4b5fb25d5207d9b203f4980331", "bike_id": "ff183c4b5fb25d5207d9b203f4980331", "fusion_lat": 0.0, "is_reserved": 0, "lat": 38.88044083333333, "fusion_lon": 0.0, "is_disabled": 0}, {"rental_uris": {"android": "https://dc.lft.to/lastmile_qr_scan", "ios": "https://dc.lft.to/lastmile_qr_scan"}, "type": "electric_scooter", "lon": -77.02584633333333, "name": "c1f541a518bdb265f9731b056bee6346", "bike_id": "c1f541a518bdb265f9731b056bee6346", "fusion_lat": 0.0, "is_reserved": 0, "lat": 38.89703633333333, "fusion_lon": 0.0, "is_disabled": 0}, {"rental_uris": {"android": "https://dc.lft.to/lastmile_qr_scan", "ios": "https://dc.lft.to/lastmile_qr_scan"}, "type": "electric_scooter", "lon": -77.0346955, "name": "25da9eb380cac923b1c4f8c3e1c238b1", "bike_id": "25da9eb380cac923b1c4f8c3e1c238b1", "fusion_lat": 0.0, "is_reserved": 0, "lat": 38.9025935, "fusion_lon": 0.0, "is_disabled": 0}, {"rental_uris": {"android": "https://dc.lft.to/lastmile_qr_scan", "ios": "https://dc.lft.to/lastmile_qr_scan"}, "type": "electric_scooter", "lon": -77.034444, "name": "52fb97aa396953679572fe1433fc622e", "bike_id": "52fb97aa396953679572fe1433fc622e", "fusion_lat": 0.0, "is_reserved": 0, "lat": 38.91804, "fusion_lon": 0.0, "is_disabled": 0}, {"rental_uris": {"android": "https://dc.lft.to/lastmile_qr_scan", "ios": "https://dc.lft.to/lastmile_qr_scan"}, "type": "electric_scooter", "lon": -77.03177016666666, "name": "46ad0dbf8fc407e1062047ccf2b7f48c", "bike_id": "46ad0dbf8fc407e1062047ccf2b7f48c", "fusion_lat": 0.0, "is_reserved": 0, "lat": 38.91418083333333, "fusion_lon": 0.0, "is_disabled": 0}, {"rental_uris": {"android": "https://dc.lft.to/lastmile_qr_scan", "ios": "https://dc.lft.to/lastmile_qr_scan"}, "type": "electric_scooter", "lon": -77.0120285, "name": "8f0c2b3b248e3901e16dd29040d7c1a4", "bike_id": "8f0c2b3b248e3901e16dd29040d7c1a4", "fusion_lat": 0.0, "is_reserved": 0, "lat": 38.871521, "fusion_lon": 0.0, "is_disabled": 0}, {"rental_uris": {"android": "https://dc.lft.to/lastmile_qr_scan", "ios": "https://dc.lft.to/lastmile_qr_scan"}, "type": "electric_bike", "lon": -76.997427, "name": "ec12741aad6ecf22e7afcb8660df3702", "bike_id": "ec12741aad6ecf22e7afcb8660df3702", "fusion_lat": 0.0, "is_reserved": 0, "lat": 38.89086116666667, "fusion_lon": 0.0, "is_disabled": 0}, {"rental_uris": {"android": "https://dc.lft.to/lastmile_qr_scan", "ios": "https://dc.lft.to/lastmile_qr_scan"}, "type": "electric_scooter", "lon": -77.0087735, "name": "0e4929bb106fd7281983094cf1351b6b", "bike_id": "0e4929bb106fd7281983094cf1351b6b", "fusion_lat": 0.0, "is_reserved": 0, "lat": 38.8762655, "fusion_lon": 0.0, "is_disabled": 0}, {"rental_uris": {"android": "https://dc.lft.to/lastmile_qr_scan", "ios": "https://dc.lft.to/lastmile_qr_scan"}, "type": "electric_scooter", "lon": -76.99893166666666, "name": "217794bce4d921145956a57c59b10eaa", "bike_id": "217794bce4d921145956a57c59b10eaa", "fusion_lat": 0.0, "is_reserved": 0, "lat": 38.900274833333334, "fusion_lon": 0.0, "is_disabled": 0}, {"rental_uris": {"android": "https://dc.lft.to/lastmile_qr_scan", "ios": "https://dc.lft.to/lastmile_qr_scan"}, "type": "electric_scooter", "lon": -77.022959, "name": "f60d3f6ebc61556aa68390bebe5c417d", "bike_id": "f60d3f6ebc61556aa68390bebe5c417d", "fusion_lat": 0.0, "is_reserved": 0, "lat": 38.916073, "fusion_lon": 0.0, "is_disabled": 0}, {"rental_uris": {"android": "https://dc.lft.to/lastmile_qr_scan", "ios": "https://dc.lft.to/lastmile_qr_scan"}, "type": "electric_scooter", "lon": -77.02374966666666, "name": "9f41f51a2c32d51dc8382927b0e35d04", "bike_id": "9f41f51a2c32d51dc8382927b0e35d04", "fusion_lat": 0.0, "is_reserved": 0, "lat": 38.919694, "fusion_lon": 0.0, "is_disabled": 0}, {"rental_uris": {"android": "https://dc.lft.to/lastmile_qr_scan", "ios": "https://dc.lft.to/lastmile_qr_scan"}, "type": "electric_scooter", "lon": -77.03645216666666, "name": "fe5687b3b7d6d535d9105cfddfb4fcb3", "bike_id": "fe5687b3b7d6d535d9105cfddfb4fcb3", "fusion_lat": 0.0, "is_reserved": 0, "lat": 38.906731666666666, "fusion_lon": 0.0, "is_disabled": 0}, {"rental_uris": {"android": "https://dc.lft.to/lastmile_qr_scan", "ios": "https://dc.lft.to/lastmile_qr_scan"}, "type": "electric_scooter", "lon": -77.02185483333334, "name": "2d5a99a78216a1b9bb73c05711de274b", "bike_id": "2d5a99a78216a1b9bb73c05711de274b", "fusion_lat": 0.0, "is_reserved": 0, "lat": 38.92005783333333, "fusion_lon": 0.0, "is_disabled": 0}, {"rental_uris": {"android": "https://dc.lft.to/lastmile_qr_scan", "ios": "https://dc.lft.to/lastmile_qr_scan"}, "type": "electric_scooter", "lon": -77.00541466666667, "name": "77b63977add21ccf616df8778f19078d", "bike_id": "77b63977add21ccf616df8778f19078d", "fusion_lat": 0.0, "is_reserved": 0, "lat": 38.874574833333334, "fusion_lon": 0.0, "is_disabled": 0}, {"rental_uris": {"android": "https://dc.lft.to/lastmile_qr_scan", "ios": "https://dc.lft.to/lastmile_qr_scan"}, "type": "electric_scooter", "lon": -76.980986, "name": "1fd7e3c93848fdefc44416a3c7b02371", "bike_id": "1fd7e3c93848fdefc44416a3c7b02371", "fusion_lat": 0.0, "is_reserved": 0, "lat": 38.85062333333333, "fusion_lon": 0.0, "is_disabled": 0}, {"rental_uris": {"android": "https://dc.lft.to/lastmile_qr_scan", "ios": "https://dc.lft.to/lastmile_qr_scan"}, "type": "electric_scooter", "lon": -77.04361683333333, "name": "f827525a48700fc2ba8ec732de555588", "bike_id": "f827525a48700fc2ba8ec732de555588", "fusion_lat": 0.0, "is_reserved": 0, "lat": 38.892324, "fusion_lon": 0.0, "is_disabled": 0}, {"rental_uris": {"android": "https://dc.lft.to/lastmile_qr_scan", "ios": "https://dc.lft.to/lastmile_qr_scan"}, "type": "electric_scooter", "lon": -77.02723316666666, "name": "15ff0aec5c549660ccd24a0847befc15", "bike_id": "15ff0aec5c549660ccd24a0847befc15", "fusion_lat": 0.0, "is_reserved": 0, "lat": 38.95129983333333, "fusion_lon": 0.0, "is_disabled": 0}, {"rental_uris": {"android": "https://dc.lft.to/lastmile_qr_scan", "ios": "https://dc.lft.to/lastmile_qr_scan"}, "type": "electric_scooter", "lon": -77.01626483333334, "name": "bf9dc39ba167b2f8c2a979888b53f863", "bike_id": "bf9dc39ba167b2f8c2a979888b53f863", "fusion_lat": 0.0, "is_reserved": 0, "lat": 38.90337433333333, "fusion_lon": 0.0, "is_disabled": 0}, {"rental_uris": {"android": "https://dc.lft.to/lastmile_qr_scan", "ios": "https://dc.lft.to/lastmile_qr_scan"}, "type": "electric_scooter", "lon": -77.028248, "name": "35d1dde71d8030c9cb5eb9ffea53fb8b", "bike_id": "35d1dde71d8030c9cb5eb9ffea53fb8b", "fusion_lat": 0.0, "is_reserved": 0, "lat": 38.89246816666667, "fusion_lon": 0.0, "is_disabled": 0}, {"rental_uris": {"android": "https://dc.lft.to/lastmile_qr_scan", "ios": "https://dc.lft.to/lastmile_qr_scan"}, "type": "electric_scooter", "lon": -77.00273233333333, "name": "985f9250819cbf1dad4a9f1f4d3fc362", "bike_id": "985f9250819cbf1dad4a9f1f4d3fc362", "fusion_lat": 0.0, "is_reserved": 0, "lat": 38.90375683333333, "fusion_lon": 0.0, "is_disabled": 0}, {"rental_uris": {"android": "https://dc.lft.to/lastmile_qr_scan", "ios": "https://dc.lft.to/lastmile_qr_scan"}, "type": "electric_bike", "lon": -77.0799435, "name": "85928f2d86c01ea7d2e29be74f2c3bf0", "bike_id": "85928f2d86c01ea7d2e29be74f2c3bf0", "fusion_lat": 0.0, "is_reserved": 0, "lat": 38.92255133333333, "fusion_lon": 0.0, "is_disabled": 0}, {"rental_uris": {"android": "https://dc.lft.to/lastmile_qr_scan", "ios": "https://dc.lft.to/lastmile_qr_scan"}, "type": "electric_scooter", "lon": -77.0343945, "name": "216003105d558ce29c0a82ba119b4bf9", "bike_id": "216003105d558ce29c0a82ba119b4bf9", "fusion_lat": 0.0, "is_reserved": 0, "lat": 38.905797166666666, "fusion_lon": 0.0, "is_disabled": 0}, {"rental_uris": {"android": "https://dc.lft.to/lastmile_qr_scan", "ios": "https://dc.lft.to/lastmile_qr_scan"}, "type": "electric_scooter", "lon": -77.04324516666667, "name": "2c5eb385aab11e01e8be767aa5ccdbff", "bike_id": "2c5eb385aab11e01e8be767aa5ccdbff", "fusion_lat": 0.0, "is_reserved": 0, "lat": 38.90872983333333, "fusion_lon": 0.0, "is_disabled": 0}, {"rental_uris": {"android": "https://dc.lft.to/lastmile_qr_scan", "ios": "https://dc.lft.to/lastmile_qr_scan"}, "type": "electric_scooter", "lon": -77.05599616666667, "name": "dd7a07d658df5478eca35a05d63d34e1", "bike_id": "dd7a07d658df5478eca35a05d63d34e1", "fusion_lat": 0.0, "is_reserved": 0, "lat": 38.9369655, "fusion_lon": 0.0, "is_disabled": 0}, {"rental_uris": {"android": "https://dc.lft.to/lastmile_qr_scan", "ios": "https://dc.lft.to/lastmile_qr_scan"}, "type": "electric_scooter", "lon": -77.02823433333333, "name": "53022e75e9d3ac479a881b561e89aeea", "bike_id": "53022e75e9d3ac479a881b561e89aeea", "fusion_lat": 0.0, "is_reserved": 0, "lat": 38.932848, "fusion_lon": 0.0, "is_disabled": 0}, {"rental_uris": {"android": "https://dc.lft.to/lastmile_qr_scan", "ios": "https://dc.lft.to/lastmile_qr_scan"}, "type": "electric_scooter", "lon": -77.01860116666667, "name": "ba25a7721747527a6e48498e2fe1548d", "bike_id": "ba25a7721747527a6e48498e2fe1548d", "fusion_lat": 0.0, "is_reserved": 0, "lat": 38.9491975, "fusion_lon": 0.0, "is_disabled": 0}, {"rental_uris": {"android": "https://dc.lft.to/lastmile_qr_scan", "ios": "https://dc.lft.to/lastmile_qr_scan"}, "type": "electric_scooter", "lon": -77.04746883333334, "name": "850f2d981661a3ec4d555d77072323d3", "bike_id": "850f2d981661a3ec4d555d77072323d3", "fusion_lat": 0.0, "is_reserved": 0, "lat": 38.905255833333335, "fusion_lon": 0.0, "is_disabled": 0}, {"rental_uris": {"android": "https://dc.lft.to/lastmile_qr_scan", "ios": "https://dc.lft.to/lastmile_qr_scan"}, "type": "electric_scooter", "lon": -77.03019816666666, "name": "7833319e6521e36903c3bbdf0b1a6f21", "bike_id": "7833319e6521e36903c3bbdf0b1a6f21", "fusion_lat": 0.0, "is_reserved": 0, "lat": 38.923715, "fusion_lon": 0.0, "is_disabled": 0}, {"rental_uris": {"android": "https://dc.lft.to/lastmile_qr_scan", "ios": "https://dc.lft.to/lastmile_qr_scan"}, "type": "electric_scooter", "lon": -77.02171, "name": "191b9f0e6b095f7d770db1fc8525e55d", "bike_id": "191b9f0e6b095f7d770db1fc8525e55d", "fusion_lat": 0.0, "is_reserved": 0, "lat": 38.88743316666667, "fusion_lon": 0.0, "is_disabled": 0}, {"rental_uris": {"android": "https://dc.lft.to/lastmile_qr_scan", "ios": "https://dc.lft.to/lastmile_qr_scan"}, "type": "electric_scooter", "lon": -77.05264733333334, "name": "cbfb0cb20722b1558fed0441c7142113", "bike_id": "cbfb0cb20722b1558fed0441c7142113", "fusion_lat": 0.0, "is_reserved": 0, "lat": 38.92373333333333, "fusion_lon": 0.0, "is_disabled": 0}, {"rental_uris": {"android": "https://dc.lft.to/lastmile_qr_scan", "ios": "https://dc.lft.to/lastmile_qr_scan"}, "type": "electric_scooter", "lon": -77.05002466666667, "name": "6c4eb7d8fe50ece6c0eb942f8ae493d2", "bike_id": "6c4eb7d8fe50ece6c0eb942f8ae493d2", "fusion_lat": 0.0, "is_reserved": 0, "lat": 38.90546033333333, "fusion_lon": 0.0, "is_disabled": 0}, {"rental_uris": {"android": "https://dc.lft.to/lastmile_qr_scan", "ios": "https://dc.lft.to/lastmile_qr_scan"}, "type": "electric_scooter", "lon": -77.03266483333333, "name": "36ab451b31a3074560c3add106137d21", "bike_id": "36ab451b31a3074560c3add106137d21", "fusion_lat": 0.0, "is_reserved": 0, "lat": 38.9025925, "fusion_lon": 0.0, "is_disabled": 0}, {"rental_uris": {"android": "https://dc.lft.to/lastmile_qr_scan", "ios": "https://dc.lft.to/lastmile_qr_scan"}, "type": "electric_scooter", "lon": -77.04056833333334, "name": "f613766b1e00b5c4a7a994ece4aa1e90", "bike_id": "f613766b1e00b5c4a7a994ece4aa1e90", "fusion_lat": 0.0, "is_reserved": 0, "lat": 38.9264405, "fusion_lon": 0.0, "is_disabled": 0}, {"rental_uris": {"android": "https://dc.lft.to/lastmile_qr_scan", "ios": "https://dc.lft.to/lastmile_qr_scan"}, "type": "electric_bike", "lon": -76.90533283333333, "name": "012c37b553892a85f46ad62dcbddbeb1", "bike_id": "012c37b553892a85f46ad62dcbddbeb1", "fusion_lat": 0.0, "is_reserved": 0, "lat": 38.8973515, "fusion_lon": 0.0, "is_disabled": 0}, {"rental_uris": {"android": "https://dc.lft.to/lastmile_qr_scan", "ios": "https://dc.lft.to/lastmile_qr_scan"}, "type": "electric_scooter", "lon": -77.00830833333333, "name": "12c3e5a896903c7a3ebda385af285d48", "bike_id": "12c3e5a896903c7a3ebda385af285d48", "fusion_lat": 0.0, "is_reserved": 0, "lat": 38.91563166666667, "fusion_lon": 0.0, "is_disabled": 0}, {"rental_uris": {"android": "https://dc.lft.to/lastmile_qr_scan", "ios": "https://dc.lft.to/lastmile_qr_scan"}, "type": "electric_scooter", "lon": -76.98123183333334, "name": "302cf18150c9e2ab2dbf9803b88b3e44", "bike_id": "302cf18150c9e2ab2dbf9803b88b3e44", "fusion_lat": 0.0, "is_reserved": 0, "lat": 38.89193933333333, "fusion_lon": 0.0, "is_disabled": 0}, {"rental_uris": {"android": "https://dc.lft.to/lastmile_qr_scan", "ios": "https://dc.lft.to/lastmile_qr_scan"}, "type": "electric_bike", "lon": -76.985594, "name": "833f5e40e9a1c48dbea9b3757d1958c8", "bike_id": "833f5e40e9a1c48dbea9b3757d1958c8", "fusion_lat": 0.0, "is_reserved": 0, "lat": 38.868895, "fusion_lon": 0.0, "is_disabled": 0}, {"rental_uris": {"android": "https://dc.lft.to/lastmile_qr_scan", "ios": "https://dc.lft.to/lastmile_qr_scan"}, "type": "electric_scooter", "lon": -77.03496766666666, "name": "ab3b0a98864387467c58ce86d1ea29f0", "bike_id": "ab3b0a98864387467c58ce86d1ea29f0", "fusion_lat": 0.0, "is_reserved": 0, "lat": 38.93562216666667, "fusion_lon": 0.0, "is_disabled": 0}, {"rental_uris": {"android": "https://dc.lft.to/lastmile_qr_scan", "ios": "https://dc.lft.to/lastmile_qr_scan"}, "type": "electric_scooter", "lon": -77.0194815, "name": "7a91a8d67c67c62f8ae180c38b3a6653", "bike_id": "7a91a8d67c67c62f8ae180c38b3a6653", "fusion_lat": 0.0, "is_reserved": 0, "lat": 38.92251233333333, "fusion_lon": 0.0, "is_disabled": 0}, {"rental_uris": {"android": "https://dc.lft.to/lastmile_qr_scan", "ios": "https://dc.lft.to/lastmile_qr_scan"}, "type": "electric_scooter", "lon": -77.027214, "name": "1e2a01a9728d1f08151778198674cd94", "bike_id": "1e2a01a9728d1f08151778198674cd94", "fusion_lat": 0.0, "is_reserved": 0, "lat": 38.899687666666665, "fusion_lon": 0.0, "is_disabled": 0}, {"rental_uris": {"android": "https://dc.lft.to/lastmile_qr_scan", "ios": "https://dc.lft.to/lastmile_qr_scan"}, "type": "electric_scooter", "lon": -77.0298035, "name": "14b20127ec46a56fb2cd85482fa5511f", "bike_id": "14b20127ec46a56fb2cd85482fa5511f", "fusion_lat": 0.0, "is_reserved": 0, "lat": 38.923137833333335, "fusion_lon": 0.0, "is_disabled": 0}, {"rental_uris": {"android": "https://dc.lft.to/lastmile_qr_scan", "ios": "https://dc.lft.to/lastmile_qr_scan"}, "type": "electric_scooter", "lon": -77.0271785, "name": "7fb50f507f66fd979012d741c255df07", "bike_id": "7fb50f507f66fd979012d741c255df07", "fusion_lat": 0.0, "is_reserved": 0, "lat": 38.906659166666664, "fusion_lon": 0.0, "is_disabled": 0}, {"rental_uris": {"android": "https://dc.lft.to/lastmile_qr_scan", "ios": "https://dc.lft.to/lastmile_qr_scan"}, "type": "electric_scooter", "lon": -77.00751033333333, "name": "74d2217128ff0207c177638a4b0522e5", "bike_id": "74d2217128ff0207c177638a4b0522e5", "fusion_lat": 0.0, "is_reserved": 0, "lat": 38.87656233333333, "fusion_lon": 0.0, "is_disabled": 0}, {"rental_uris": {"android": "https://dc.lft.to/lastmile_qr_scan", "ios": "https://dc.lft.to/lastmile_qr_scan"}, "type": "electric_scooter", "lon": -76.95520033333334, "name": "6f5fa105ab424f5b5dbfa46908cf476b", "bike_id": "6f5fa105ab424f5b5dbfa46908cf476b", "fusion_lat": 0.0, "is_reserved": 0, "lat": 38.890511333333336, "fusion_lon": 0.0, "is_disabled": 0}, {"rental_uris": {"android": "https://dc.lft.to/lastmile_qr_scan", "ios": "https://dc.lft.to/lastmile_qr_scan"}, "type": "electric_scooter", "lon": -77.042284, "name": "14e0e64012a5fb2806680a16f54c70b3", "bike_id": "14e0e64012a5fb2806680a16f54c70b3", "fusion_lat": 0.0, "is_reserved": 0, "lat": 38.91106283333333, "fusion_lon": 0.0, "is_disabled": 0}, {"rental_uris": {"android": "https://dc.lft.to/lastmile_qr_scan", "ios": "https://dc.lft.to/lastmile_qr_scan"}, "type": "electric_scooter", "lon": -77.00290416666667, "name": "54b5459172c84ab4c01888688542b878", "bike_id": "54b5459172c84ab4c01888688542b878", "fusion_lat": 0.0, "is_reserved": 0, "lat": 38.908938166666665, "fusion_lon": 0.0, "is_disabled": 0}, {"rental_uris": {"android": "https://dc.lft.to/lastmile_qr_scan", "ios": "https://dc.lft.to/lastmile_qr_scan"}, "type": "electric_scooter", "lon": -77.0182495, "name": "a6d0806db59a5c99be79fec468abd014", "bike_id": "a6d0806db59a5c99be79fec468abd014", "fusion_lat": 0.0, "is_reserved": 0, "lat": 38.911085666666665, "fusion_lon": 0.0, "is_disabled": 0}, {"rental_uris": {"android": "https://dc.lft.to/lastmile_qr_scan", "ios": "https://dc.lft.to/lastmile_qr_scan"}, "type": "electric_scooter", "lon": -76.94638833333333, "name": "65b86f132a989885279a0edc539d9a2a", "bike_id": "65b86f132a989885279a0edc539d9a2a", "fusion_lat": 0.0, "is_reserved": 0, "lat": 38.898413833333336, "fusion_lon": 0.0, "is_disabled": 0}, {"rental_uris": {"android": "https://dc.lft.to/lastmile_qr_scan", "ios": "https://dc.lft.to/lastmile_qr_scan"}, "type": "electric_scooter", "lon": -77.0269695, "name": "eb00d222e33dafdfc61fff071b330df2", "bike_id": "eb00d222e33dafdfc61fff071b330df2", "fusion_lat": 0.0, "is_reserved": 0, "lat": 38.9084255, "fusion_lon": 0.0, "is_disabled": 0}, {"rental_uris": {"android": "https://dc.lft.to/lastmile_qr_scan", "ios": "https://dc.lft.to/lastmile_qr_scan"}, "type": "electric_scooter", "lon": -77.03141083333334, "name": "aedba41082d6f707f3f5d2315b3d7891", "bike_id": "aedba41082d6f707f3f5d2315b3d7891", "fusion_lat": 0.0, "is_reserved": 0, "lat": 38.90469483333333, "fusion_lon": 0.0, "is_disabled": 0}, {"rental_uris": {"android": "https://dc.lft.to/lastmile_qr_scan", "ios": "https://dc.lft.to/lastmile_qr_scan"}, "type": "electric_scooter", "lon": -77.03086683333333, "name": "2c873e0c3ecc400c08a2ddcf0ba6ff00", "bike_id": "2c873e0c3ecc400c08a2ddcf0ba6ff00", "fusion_lat": 0.0, "is_reserved": 0, "lat": 38.92235183333333, "fusion_lon": 0.0, "is_disabled": 0}, {"rental_uris": {"android": "https://dc.lft.to/lastmile_qr_scan", "ios": "https://dc.lft.to/lastmile_qr_scan"}, "type": "electric_scooter", "lon": -77.0219685, "name": "b8ed0697b9bd9aef244056f8ce635cdf", "bike_id": "b8ed0697b9bd9aef244056f8ce635cdf", "fusion_lat": 0.0, "is_reserved": 0, "lat": 38.91688833333333, "fusion_lon": 0.0, "is_disabled": 0}, {"rental_uris": {"android": "https://dc.lft.to/lastmile_qr_scan", "ios": "https://dc.lft.to/lastmile_qr_scan"}, "type": "electric_scooter", "lon": -77.04834116666666, "name": "ca69a5e918c5b4c9d359894c55fe6fac", "bike_id": "ca69a5e918c5b4c9d359894c55fe6fac", "fusion_lat": 0.0, "is_reserved": 0, "lat": 38.91620366666667, "fusion_lon": 0.0, "is_disabled": 0}, {"rental_uris": {"android": "https://dc.lft.to/lastmile_qr_scan", "ios": "https://dc.lft.to/lastmile_qr_scan"}, "type": "electric_scooter", "lon": -77.07667033333334, "name": "8e716e77e59d14e845cbea80ee173f83", "bike_id": "8e716e77e59d14e845cbea80ee173f83", "fusion_lat": 0.0, "is_reserved": 0, "lat": 38.906246, "fusion_lon": 0.0, "is_disabled": 0}, {"rental_uris": {"android": "https://dc.lft.to/lastmile_qr_scan", "ios": "https://dc.lft.to/lastmile_qr_scan"}, "type": "electric_scooter", "lon": -77.06500216666667, "name": "689b63bbb48be569c47ade01edbc7a31", "bike_id": "689b63bbb48be569c47ade01edbc7a31", "fusion_lat": 0.0, "is_reserved": 0, "lat": 38.905225, "fusion_lon": 0.0, "is_disabled": 0}, {"rental_uris": {"android": "https://dc.lft.to/lastmile_qr_scan", "ios": "https://dc.lft.to/lastmile_qr_scan"}, "type": "electric_scooter", "lon": -77.02957433333333, "name": "ce5c51388649896e34aab2be137a2464", "bike_id": "ce5c51388649896e34aab2be137a2464", "fusion_lat": 0.0, "is_reserved": 0, "lat": 38.93247433333333, "fusion_lon": 0.0, "is_disabled": 0}, {"rental_uris": {"android": "https://dc.lft.to/lastmile_qr_scan", "ios": "https://dc.lft.to/lastmile_qr_scan"}, "type": "electric_bike", "lon": -76.877711, "name": "4eeedfdfe981cb9fc2b7ec0c6b58f8bf", "bike_id": "4eeedfdfe981cb9fc2b7ec0c6b58f8bf", "fusion_lat": 0.0, "is_reserved": 0, "lat": 38.992254833333334, "fusion_lon": 0.0, "is_disabled": 0}, {"rental_uris": {"android": "https://dc.lft.to/lastmile_qr_scan", "ios": "https://dc.lft.to/lastmile_qr_scan"}, "type": "electric_scooter", "lon": -76.98778516666667, "name": "bd89da8388f8b9b14a9d79a48147ac6e", "bike_id": "bd89da8388f8b9b14a9d79a48147ac6e", "fusion_lat": 0.0, "is_reserved": 0, "lat": 38.90030866666667, "fusion_lon": 0.0, "is_disabled": 0}, {"rental_uris": {"android": "https://dc.lft.to/lastmile_qr_scan", "ios": "https://dc.lft.to/lastmile_qr_scan"}, "type": "electric_bike", "lon": -77.05164, "name": "272fd56bf2b5624b44e3b91ff2e6ae9a", "bike_id": "272fd56bf2b5624b44e3b91ff2e6ae9a", "fusion_lat": 0.0, "is_reserved": 0, "lat": 38.903152666666664, "fusion_lon": 0.0, "is_disabled": 0}, {"rental_uris": {"android": "https://dc.lft.to/lastmile_qr_scan", "ios": "https://dc.lft.to/lastmile_qr_scan"}, "type": "electric_scooter", "lon": -77.03780066666667, "name": "4363c0de44882ea6c77a2a9d621ad747", "bike_id": "4363c0de44882ea6c77a2a9d621ad747", "fusion_lat": 0.0, "is_reserved": 0, "lat": 38.926173666666664, "fusion_lon": 0.0, "is_disabled": 0}, {"rental_uris": {"android": "https://dc.lft.to/lastmile_qr_scan", "ios": "https://dc.lft.to/lastmile_qr_scan"}, "type": "electric_scooter", "lon": -77.03280816666667, "name": "cd3f0176195785359fd243ce9bd23660", "bike_id": "cd3f0176195785359fd243ce9bd23660", "fusion_lat": 0.0, "is_reserved": 0, "lat": 38.898799, "fusion_lon": 0.0, "is_disabled": 0}, {"rental_uris": {"android": "https://dc.lft.to/lastmile_qr_scan", "ios": "https://dc.lft.to/lastmile_qr_scan"}, "type": "electric_bike", "lon": -76.963893, "name": "beb5ed6c6bedcdebc160f6ac6e0a041e", "bike_id": "beb5ed6c6bedcdebc160f6ac6e0a041e", "fusion_lat": 0.0, "is_reserved": 0, "lat": 38.975754333333335, "fusion_lon": 0.0, "is_disabled": 0}, {"rental_uris": {"android": "https://dc.lft.to/lastmile_qr_scan", "ios": "https://dc.lft.to/lastmile_qr_scan"}, "type": "electric_scooter", "lon": -77.02377783333333, "name": "bac3ce9932950c4b03a3be36ec6e3c11", "bike_id": "bac3ce9932950c4b03a3be36ec6e3c11", "fusion_lat": 0.0, "is_reserved": 0, "lat": 38.90428166666667, "fusion_lon": 0.0, "is_disabled": 0}, {"rental_uris": {"android": "https://dc.lft.to/lastmile_qr_scan", "ios": "https://dc.lft.to/lastmile_qr_scan"}, "type": "electric_bike", "lon": -76.9486995, "name": "ac1e07c08e5fe5b8307da3492f17863b", "bike_id": "ac1e07c08e5fe5b8307da3492f17863b", "fusion_lat": 0.0, "is_reserved": 0, "lat": 38.8896605, "fusion_lon": 0.0, "is_disabled": 0}, {"rental_uris": {"android": "https://dc.lft.to/lastmile_qr_scan", "ios": "https://dc.lft.to/lastmile_qr_scan"}, "type": "electric_bike", "lon": -76.9852365, "name": "0acd53ca9857d32e6165a7f1d911665c", "bike_id": "0acd53ca9857d32e6165a7f1d911665c", "fusion_lat": 0.0, "is_reserved": 0, "lat": 38.91993516666667, "fusion_lon": 0.0, "is_disabled": 0}, {"rental_uris": {"android": "https://dc.lft.to/lastmile_qr_scan", "ios": "https://dc.lft.to/lastmile_qr_scan"}, "type": "electric_scooter", "lon": -76.98777516666667, "name": "f34fe71401a8106f8d80b1b9a9edede9", "bike_id": "f34fe71401a8106f8d80b1b9a9edede9", "fusion_lat": 0.0, "is_reserved": 0, "lat": 38.9002635, "fusion_lon": 0.0, "is_disabled": 0}, {"rental_uris": {"android": "https://dc.lft.to/lastmile_qr_scan", "ios": "https://dc.lft.to/lastmile_qr_scan"}, "type": "electric_scooter", "lon": -77.02293066666667, "name": "a1e193efc536035bec45eb8da3812f5d", "bike_id": "a1e193efc536035bec45eb8da3812f5d", "fusion_lat": 0.0, "is_reserved": 0, "lat": 38.915649, "fusion_lon": 0.0, "is_disabled": 0}, {"rental_uris": {"android": "https://dc.lft.to/lastmile_qr_scan", "ios": "https://dc.lft.to/lastmile_qr_scan"}, "type": "electric_bike", "lon": -77.04899883333333, "name": "6884dec828ecb9db037a46d921e5caa6", "bike_id": "6884dec828ecb9db037a46d921e5caa6", "fusion_lat": 0.0, "is_reserved": 0, "lat": 38.8749035, "fusion_lon": 0.0, "is_disabled": 0}, {"rental_uris": {"android": "https://dc.lft.to/lastmile_qr_scan", "ios": "https://dc.lft.to/lastmile_qr_scan"}, "type": "electric_scooter", "lon": -77.01916183333333, "name": "4ab06680b4bb6584012f586ee10ea0b1", "bike_id": "4ab06680b4bb6584012f586ee10ea0b1", "fusion_lat": 0.0, "is_reserved": 0, "lat": 38.92339966666667, "fusion_lon": 0.0, "is_disabled": 0}, {"rental_uris": {"android": "https://dc.lft.to/lastmile_qr_scan", "ios": "https://dc.lft.to/lastmile_qr_scan"}, "type": "electric_scooter", "lon": -77.03198183333333, "name": "8a88ca9838dce5876dd60dd10227369c", "bike_id": "8a88ca9838dce5876dd60dd10227369c", "fusion_lat": 0.0, "is_reserved": 0, "lat": 38.91894216666667, "fusion_lon": 0.0, "is_disabled": 0}, {"rental_uris": {"android": "https://dc.lft.to/lastmile_qr_scan", "ios": "https://dc.lft.to/lastmile_qr_scan"}, "type": "electric_scooter", "lon": -77.03272833333334, "name": "811ce2c779059d0ae4bc110ae673b233", "bike_id": "811ce2c779059d0ae4bc110ae673b233", "fusion_lat": 0.0, "is_reserved": 0, "lat": 38.932450833333334, "fusion_lon": 0.0, "is_disabled": 0}, {"rental_uris": {"android": "https://dc.lft.to/lastmile_qr_scan", "ios": "https://dc.lft.to/lastmile_qr_scan"}, "type": "electric_scooter", "lon": -77.03031516666667, "name": "d85b84c56849dea0cc663e5c491363bc", "bike_id": "d85b84c56849dea0cc663e5c491363bc", "fusion_lat": 0.0, "is_reserved": 0, "lat": 38.883882166666666, "fusion_lon": 0.0, "is_disabled": 0}, {"rental_uris": {"android": "https://dc.lft.to/lastmile_qr_scan", "ios": "https://dc.lft.to/lastmile_qr_scan"},