{"data": {"bikes": [{"rental_uris": {"ios": "https://dc.lft.to/lastmile_qr_scan", "android": "https://dc.lft.to/lastmile_qr_scan"}, "lon": -77.023226, "type": "electric_scooter", "fusion_lat": 0.0, "lat": 38.927040833333336, "name": "d3537c6457415a2fd379c8b326d6c593", "fusion_lon": 0.0, "bike_id": "d3537c6457415a2fd379c8b326d6c593", "is_disabled": 0, "is_reserved": 0}, {"rental_uris": {"ios": "https://dc.lft.to/lastmile_qr_scan", "android": "https://dc.lft.to/lastmile_qr_scan"}, "lon": -76.931623, "type": "electric_bike", "fusion_lat": 0.0, "lat": 38.90862833333333, "name": "fd72b4727a215ce3a9810acd5a7f49aa", "fusion_lon": 0.0, "bike_id": "fd72b4727a215ce3a9810acd5a7f49aa", "is_disabled": 0, "is_reserved": 0}, {"rental_uris": {"ios": "https://dc.lft.to/lastmile_qr_scan", "android": "https://dc.lft.to/lastmile_qr_scan"}, "lon": -77.02763, "type": "electric_scooter", "fusion_lat": 0.0, "lat": 38.9561585, "name": "beac86593bbc324d4091e9272476e599", "fusion_lon": 0.0, "bike_id": "beac86593bbc324d4091e9272476e599", "is_disabled": 0, "is_reserved": 0}, {"rental_uris": {"ios": "https://dc.lft.to/lastmile_qr_scan", "android": "https://dc.lft.to/lastmile_qr_scan"}, "lon": -77.02719216666667, "type": "electric_scooter", "fusion_lat": 0.0, "lat": 38.90906666666667, "name": "6d59d269c50d85d42eb0d188f3e29f05", "fusion_lon": 0.0, "bike_id": "6d59d269c50d85d42eb0d188f3e29f05", "is_disabled": 0, "is_reserved": 0}, {"rental_uris": {"ios": "https://dc.lft.to/lastmile_qr_scan", "android": "https://dc.lft.to/lastmile_qr_scan"}, "lon": -77.00366583333333, "type": "electric_scooter", "fusion_lat": 0.0, "lat": 38.83803966666667, "name": "83c51d3f4471f507d2a4e3dc0e2e0ca6", "fusion_lon": 0.0, "bike_id": "83c51d3f4471f507d2a4e3dc0e2e0ca6", "is_disabled": 0, "is_reserved": 0}, {"rental_uris": {"ios": "https://dc.lft.to/lastmile_qr_scan", "android": "https://dc.lft.to/lastmile_qr_scan"}, "lon": -77.00371883333334, "type": "electric_bike", "fusion_lat": 0.0, "lat": 38.836022, "name": "4dacccff67bdc3510ee64458a78bb25d", "fusion_lon": 0.0, "bike_id": "4dacccff67bdc3510ee64458a78bb25d", "is_disabled": 0, "is_reserved": 0}, {"rental_uris": {"ios": "https://dc.lft.to/lastmile_qr_scan", "android": "https://dc.lft.to/lastmile_qr_scan"}, "lon": -77.095527, "type": "electric_bike", "fusion_lat": 0.0, "lat": 38.8373615, "name": "8ab6b9c602304aed1d216e21d469bd9c", "fusion_lon": 0.0, "bike_id": "8ab6b9c602304aed1d216e21d469bd9c", "is_disabled": 0, "is_reserved": 0}, {"rental_uris": {"ios": "https://dc.lft.to/lastmile_qr_scan", "android": "https://dc.lft.to/lastmile_qr_scan"}, "lon": -76.94142683333334, "type": "electric_scooter", "fusion_lat": 0.0, "lat": 38.896792833333336, "name": "8e8097eb7e42dbab7ab289b0ea643422", "fusion_lon": 0.0, "bike_id": "8e8097eb7e42dbab7ab289b0ea643422", "is_disabled": 0, "is_reserved": 0}, {"rental_uris": {"ios": "https://dc.lft.to/lastmile_qr_scan", "android": "https://dc.lft.to/lastmile_qr_scan"}, "lon": -77.02890283333333, "type": "electric_scooter", "fusion_lat": 0.0, "lat": 38.9073315, "name": "7b4b8e2d824543e8b48095e7ffb86c4e", "fusion_lon": 0.0, "bike_id": "7b4b8e2d824543e8b48095e7ffb86c4e", "is_disabled": 0, "is_reserved": 0}, {"rental_uris": {"ios": "https://dc.lft.to/lastmile_qr_scan", "android": "https://dc.lft.to/lastmile_qr_scan"}, "lon": -76.990587, "type": "electric_scooter", "fusion_lat": 0.0, "lat": 38.86353, "name": "78994ebf87010d27acb4939f81e48da8", "fusion_lon": 0.0, "bike_id": "78994ebf87010d27acb4939f81e48da8", "is_disabled": 0, "is_reserved": 0}, {"rental_uris": {"ios": "https://dc.lft.to/lastmile_qr_scan", "android": "https://dc.lft.to/lastmile_qr_scan"}, "lon": -77.05319383333334, "type": "electric_scooter", "fusion_lat": 0.0, "lat": 38.90468333333333, "name": "22b3ce5572f48cc178648acc5fb504b9", "fusion_lon": 0.0, "bike_id": "22b3ce5572f48cc178648acc5fb504b9", "is_disabled": 0, "is_reserved": 0}, {"rental_uris": {"ios": "https://dc.lft.to/lastmile_qr_scan", "android": "https://dc.lft.to/lastmile_qr_scan"}, "lon": -77.02464783333333, "type": "electric_scooter", "fusion_lat": 0.0, "lat": 38.9381255, "name": "3b75d575a51bfaa97ffc3c5427849667", "fusion_lon": 0.0, "bike_id": "3b75d575a51bfaa97ffc3c5427849667", "is_disabled": 0, "is_reserved": 0}, {"rental_uris": {"ios": "https://dc.lft.to/lastmile_qr_scan", "android": "https://dc.lft.to/lastmile_qr_scan"}, "lon": -77.02739833333334, "type": "electric_scooter", "fusion_lat": 0.0, "lat": 38.8817075, "name": "64a5f3bfa4a55c1df0c2636b767b7293", "fusion_lon": 0.0, "bike_id": "64a5f3bfa4a55c1df0c2636b767b7293", "is_disabled": 0, "is_reserved": 0}, {"rental_uris": {"ios": "https://dc.lft.to/lastmile_qr_scan", "android": "https://dc.lft.to/lastmile_qr_scan"}, "lon": -76.9994385, "type": "electric_scooter", "fusion_lat": 0.0, "lat": 38.842933, "name": "133e603962d7a7b6a78568b5547de5bb", "fusion_lon": 0.0, "bike_id": "133e603962d7a7b6a78568b5547de5bb", "is_disabled": 0, "is_reserved": 0}, {"rental_uris": {"ios": "https://dc.lft.to/lastmile_qr_scan", "android": "https://dc.lft.to/lastmile_qr_scan"}, "lon": -77.039096, "type": "electric_scooter", "fusion_lat": 0.0, "lat": 38.9211925, "name": "dac7848249746c43adbb1d2af0269253", "fusion_lon": 0.0, "bike_id": "dac7848249746c43adbb1d2af0269253", "is_disabled": 0, "is_reserved": 0}, {"rental_uris": {"ios": "https://dc.lft.to/lastmile_qr_scan", "android": "https://dc.lft.to/lastmile_qr_scan"}, "lon": -77.11225616666667, "type": "electric_bike", "fusion_lat": 0.0, "lat": 38.82868583333333, "name": "789a757c411418267fe88a68898359a3", "fusion_lon": 0.0, "bike_id": "789a757c411418267fe88a68898359a3", "is_disabled": 0, "is_reserved": 0}, {"rental_uris": {"ios": "https://dc.lft.to/lastmile_qr_scan", "android": "https://dc.lft.to/lastmile_qr_scan"}, "lon": -76.991798, "type": "electric_scooter", "fusion_lat": 0.0, "lat": 38.904543, "name": "99558cfd5e0d2d90c3518d072304b793", "fusion_lon": 0.0, "bike_id": "99558cfd5e0d2d90c3518d072304b793", "is_disabled": 0, "is_reserved": 0}, {"rental_uris": {"ios": "https://dc.lft.to/lastmile_qr_scan", "android": "https://dc.lft.to/lastmile_qr_scan"}, "lon": -77.0237935, "type": "electric_scooter", "fusion_lat": 0.0, "lat": 38.9198915, "name": "0b96f23bf9ce9fc05954350e9f14e8c1", "fusion_lon": 0.0, "bike_id": "0b96f23bf9ce9fc05954350e9f14e8c1", "is_disabled": 0, "is_reserved": 0}, {"rental_uris": {"ios": "https://dc.lft.to/lastmile_qr_scan", "android": "https://dc.lft.to/lastmile_qr_scan"}, "lon": -76.87491916666667, "type": "electric_bike", "fusion_lat": 0.0, "lat": 38.990896166666666, "name": "724907e2a34f35d15911c15dced2db3b", "fusion_lon": 0.0, "bike_id": "724907e2a34f35d15911c15dced2db3b", "is_disabled": 0, "is_reserved": 0}, {"rental_uris": {"ios": "https://dc.lft.to/lastmile_qr_scan", "android": "https://dc.lft.to/lastmile_qr_scan"}, "lon": -77.04006516666666, "type": "electric_scooter", "fusion_lat": 0.0, "lat": 38.9156565, "name": "7e9fac2f802111e8c8f22fe8818a3260", "fusion_lon": 0.0, "bike_id": "7e9fac2f802111e8c8f22fe8818a3260", "is_disabled": 0, "is_reserved": 0}, {"rental_uris": {"ios": "https://dc.lft.to/lastmile_qr_scan", "android": "https://dc.lft.to/lastmile_qr_scan"}, "lon": -77.034659, "type": "electric_scooter", "fusion_lat": 0.0, "lat": 38.917140833333335, "name": "c91f4fc840ecad21c79ad6dc86d4dac6", "fusion_lon": 0.0, "bike_id": "c91f4fc840ecad21c79ad6dc86d4dac6", "is_disabled": 0, "is_reserved": 0}, {"rental_uris": {"ios": "https://dc.lft.to/lastmile_qr_scan", "android": "https://dc.lft.to/lastmile_qr_scan"}, "lon": -77.035647, "type": "electric_scooter", "fusion_lat": 0.0, "lat": 38.91805266666667, "name": "7403379eaa00e7ae6aa7cb3a1af09afb", "fusion_lon": 0.0, "bike_id": "7403379eaa00e7ae6aa7cb3a1af09afb", "is_disabled": 0, "is_reserved": 0}, {"rental_uris": {"ios": "https://dc.lft.to/lastmile_qr_scan", "android": "https://dc.lft.to/lastmile_qr_scan"}, "lon": -77.02717666666666, "type": "electric_scooter", "fusion_lat": 0.0, "lat": 38.93454633333333, "name": "bb59a275adb5dff62ce4730631945515", "fusion_lon": 0.0, "bike_id": "bb59a275adb5dff62ce4730631945515", "is_disabled": 0, "is_reserved": 0}, {"rental_uris": {"ios": "https://dc.lft.to/lastmile_qr_scan", "android": "https://dc.lft.to/lastmile_qr_scan"}, "lon": -77.03231733333334, "type": "electric_scooter", "fusion_lat": 0.0, "lat": 38.92764583333334, "name": "92d12d85c158011b3561a155ac67b425", "fusion_lon": 0.0, "bike_id": "92d12d85c158011b3561a155ac67b425", "is_disabled": 0, "is_reserved": 0}, {"rental_uris": {"ios": "https://dc.lft.to/lastmile_qr_scan", "android": "https://dc.lft.to/lastmile_qr_scan"}, "lon": -77.023277, "type": "electric_scooter", "fusion_lat": 0.0, "lat": 38.937819166666664, "name": "d47ffd14810796344955cae0c54cb7ed", "fusion_lon": 0.0, "bike_id": "d47ffd14810796344955cae0c54cb7ed", "is_disabled": 0, "is_reserved": 0}, {"rental_uris": {"ios": "https://dc.lft.to/lastmile_qr_scan", "android": "https://dc.lft.to/lastmile_qr_scan"}, "lon": -77.03674316666667, "type": "electric_scooter", "fusion_lat": 0.0, "lat": 38.9027235, "name": "f7ec6329240ddeb25a2da15c52064473", "fusion_lon": 0.0, "bike_id": "f7ec6329240ddeb25a2da15c52064473", "is_disabled": 0, "is_reserved": 0}, {"rental_uris": {"ios": "https://dc.lft.to/lastmile_qr_scan", "android": "https://dc.lft.to/lastmile_qr_scan"}, "lon": -77.07166383333333, "type": "electric_scooter", "fusion_lat": 0.0, "lat": 38.91453533333333, "name": "b023f56d13ef598746cbaf956333f2a8", "fusion_lon": 0.0, "bike_id": "b023f56d13ef598746cbaf956333f2a8", "is_disabled": 0, "is_reserved": 0}, {"rental_uris": {"ios": "https://dc.lft.to/lastmile_qr_scan", "android": "https://dc.lft.to/lastmile_qr_scan"}, "lon": -77.0335485, "type": "electric_scooter", "fusion_lat": 0.0, "lat": 38.89893333333333, "name": "8b76775ffe9586f9a42de0c042c03991", "fusion_lon": 0.0, "bike_id": "8b76775ffe9586f9a42de0c042c03991", "is_disabled": 0, "is_reserved": 0}, {"rental_uris": {"ios": "https://dc.lft.to/lastmile_qr_scan", "android": "https://dc.lft.to/lastmile_qr_scan"}, "lon": -77.029045, "type": "electric_scooter", "fusion_lat": 0.0, "lat": 38.88568816666667, "name": "b15ea98788f3da886bb3f8b652202e59", "fusion_lon": 0.0, "bike_id": "b15ea98788f3da886bb3f8b652202e59", "is_disabled": 0, "is_reserved": 0}, {"rental_uris": {"ios": "https://dc.lft.to/lastmile_qr_scan", "android": "https://dc.lft.to/lastmile_qr_scan"}, "lon": -77.00807516666667, "type": "electric_scooter", "fusion_lat": 0.0, "lat": 38.90629633333333, "name": "6f635a7a706042111378996df3837d56", "fusion_lon": 0.0, "bike_id": "6f635a7a706042111378996df3837d56", "is_disabled": 0, "is_reserved": 0}, {"rental_uris": {"ios": "https://dc.lft.to/lastmile_qr_scan", "android": "https://dc.lft.to/lastmile_qr_scan"}, "lon": -77.01361316666667, "type": "electric_scooter", "fusion_lat": 0.0, "lat": 38.863729666666664, "name": "e9fef1ed96e5dee3344f9478ce7a2358", "fusion_lon": 0.0, "bike_id": "e9fef1ed96e5dee3344f9478ce7a2358", "is_disabled": 0, "is_reserved": 0}, {"rental_uris": {"ios": "https://dc.lft.to/lastmile_qr_scan", "android": "https://dc.lft.to/lastmile_qr_scan"}, "lon": -77.06946683333334, "type": "electric_scooter", "fusion_lat": 0.0, "lat": 38.9050435, "name": "0301754ddb49db1ca969ada174ede242", "fusion_lon": 0.0, "bike_id": "0301754ddb49db1ca969ada174ede242", "is_disabled": 0, "is_reserved": 0}, {"rental_uris": {"ios": "https://dc.lft.to/lastmile_qr_scan", "android": "https://dc.lft.to/lastmile_qr_scan"}, "lon": -77.04354916666666, "type": "electric_scooter", "fusion_lat": 0.0, "lat": 38.8964, "name": "3510b0b38f7194f13b3a82bc74833a2f", "fusion_lon": 0.0, "bike_id": "3510b0b38f7194f13b3a82bc74833a2f", "is_disabled": 0, "is_reserved": 0}, {"rental_uris": {"ios": "https://dc.lft.to/lastmile_qr_scan", "android": "https://dc.lft.to/lastmile_qr_scan"}, "lon": -77.04492833333333, "type": "electric_scooter", "fusion_lat": 0.0, "lat": 38.9110925, "name": "32dbf24fc2232f88de629ad1339caa39", "fusion_lon": 0.0, "bike_id": "32dbf24fc2232f88de629ad1339caa39", "is_disabled": 0, "is_reserved": 0}, {"rental_uris": {"ios": "https://dc.lft.to/lastmile_qr_scan", "android": "https://dc.lft.to/lastmile_qr_scan"}, "lon": -77.0279415, "type": "electric_scooter", "fusion_lat": 0.0, "lat": 38.896446, "name": "822825f31696a3af9e7948de234c7c03", "fusion_lon": 0.0, "bike_id": "822825f31696a3af9e7948de234c7c03", "is_disabled": 0, "is_reserved": 0}, {"rental_uris": {"ios": "https://dc.lft.to/lastmile_qr_scan", "android": "https://dc.lft.to/lastmile_qr_scan"}, "lon": -77.01747066666667, "type": "electric_scooter", "fusion_lat": 0.0, "lat": 38.91583716666667, "name": "2c898681b9ae6e43c3dc2f262762181a", "fusion_lon": 0.0, "bike_id": "2c898681b9ae6e43c3dc2f262762181a", "is_disabled": 0, "is_reserved": 0}, {"rental_uris": {"ios": "https://dc.lft.to/lastmile_qr_scan", "android": "https://dc.lft.to/lastmile_qr_scan"}, "lon": -77.03623616666667, "type": "electric_scooter", "fusion_lat": 0.0, "lat": 38.92931516666667, "name": "a0ad2861fb1428151e8e2b09dc99ed4a", "fusion_lon": 0.0, "bike_id": "a0ad2861fb1428151e8e2b09dc99ed4a", "is_disabled": 0, "is_reserved": 0}, {"rental_uris": {"ios": "https://dc.lft.to/lastmile_qr_scan", "android": "https://dc.lft.to/lastmile_qr_scan"}, "lon": -77.0382575, "type": "electric_scooter", "fusion_lat": 0.0, "lat": 38.91120216666667, "name": "479fdf41b0c52db8605c72d7291ada6e", "fusion_lon": 0.0, "bike_id": "479fdf41b0c52db8605c72d7291ada6e", "is_disabled": 0, "is_reserved": 0}, {"rental_uris": {"ios": "https://dc.lft.to/lastmile_qr_scan", "android": "https://dc.lft.to/lastmile_qr_scan"}, "lon": -77.01933533333333, "type": "electric_scooter", "fusion_lat": 0.0, "lat": 38.94927583333333, "name": "4f3fd364455295167e6f8c527b74432e", "fusion_lon": 0.0, "bike_id": "4f3fd364455295167e6f8c527b74432e", "is_disabled": 0, "is_reserved": 0}, {"rental_uris": {"ios": "https://dc.lft.to/lastmile_qr_scan", "android": "https://dc.lft.to/lastmile_qr_scan"}, "lon": -77.073214, "type": "electric_scooter", "fusion_lat": 0.0, "lat": 38.924990666666666, "name": "0fd8cb5c8b99d1f9d1134f16b865e8ff", "fusion_lon": 0.0, "bike_id": "0fd8cb5c8b99d1f9d1134f16b865e8ff", "is_disabled": 0, "is_reserved": 0}, {"rental_uris": {"ios": "https://dc.lft.to/lastmile_qr_scan", "android": "https://dc.lft.to/lastmile_qr_scan"}, "lon": -77.07561783333334, "type": "electric_scooter", "fusion_lat": 0.0, "lat": 38.91428583333333, "name": "8383f2552755d8ab4b88f0ddc0164bf4", "fusion_lon": 0.0, "bike_id": "8383f2552755d8ab4b88f0ddc0164bf4", "is_disabled": 0, "is_reserved": 0}, {"rental_uris": {"ios": "https://dc.lft.to/lastmile_qr_scan", "android": "https://dc.lft.to/lastmile_qr_scan"}, "lon": -77.03230733333334, "type": "electric_scooter", "fusion_lat": 0.0, "lat": 38.915715, "name": "4f2ff2e4b64ee1f93d92cdd4b36fc275", "fusion_lon": 0.0, "bike_id": "4f2ff2e4b64ee1f93d92cdd4b36fc275", "is_disabled": 0, "is_reserved": 0}, {"rental_uris": {"ios": "https://dc.lft.to/lastmile_qr_scan", "android": "https://dc.lft.to/lastmile_qr_scan"}, "lon": -77.0547095, "type": "electric_scooter", "fusion_lat": 0.0, "lat": 38.921, "name": "8f1ada93e72b5a19be64041711f30f98", "fusion_lon": 0.0, "bike_id": "8f1ada93e72b5a19be64041711f30f98", "is_disabled": 0, "is_reserved": 0}, {"rental_uris": {"ios": "https://dc.lft.to/lastmile_qr_scan", "android": "https://dc.lft.to/lastmile_qr_scan"}, "lon": -77.02713716666666, "type": "electric_scooter", "fusion_lat": 0.0, "lat": 38.9246905, "name": "220ca7d1ced765cc7b4ba26a9633cad3", "fusion_lon": 0.0, "bike_id": "220ca7d1ced765cc7b4ba26a9633cad3", "is_disabled": 0, "is_reserved": 0}, {"rental_uris": {"ios": "https://dc.lft.to/lastmile_qr_scan", "android": "https://dc.lft.to/lastmile_qr_scan"}, "lon": -76.95517466666666, "type": "electric_scooter", "fusion_lat": 0.0, "lat": 38.887831166666665, "name": "e4c111f7dd0a0696d0819452ec10ddd9", "fusion_lon": 0.0, "bike_id": "e4c111f7dd0a0696d0819452ec10ddd9", "is_disabled": 0, "is_reserved": 0}, {"rental_uris": {"ios": "https://dc.lft.to/lastmile_qr_scan", "android": "https://dc.lft.to/lastmile_qr_scan"}, "lon": -77.060153, "type": "electric_scooter", "fusion_lat": 0.0, "lat": 38.912634, "name": "58cb7b0162f5e0e97f5f8352dd73b5ba", "fusion_lon": 0.0, "bike_id": "58cb7b0162f5e0e97f5f8352dd73b5ba", "is_disabled": 0, "is_reserved": 0}, {"rental_uris": {"ios": "https://dc.lft.to/lastmile_qr_scan", "android": "https://dc.lft.to/lastmile_qr_scan"}, "lon": -77.03739733333333, "type": "electric_scooter", "fusion_lat": 0.0, "lat": 38.9290785, "name": "af461f77f4623a6beae8ddceaed02e89", "fusion_lon": 0.0, "bike_id": "af461f77f4623a6beae8ddceaed02e89", "is_disabled": 0, "is_reserved": 0}, {"rental_uris": {"ios": "https://dc.lft.to/lastmile_qr_scan", "android": "https://dc.lft.to/lastmile_qr_scan"}, "lon": -77.0361055, "type": "electric_scooter", "fusion_lat": 0.0, "lat": 38.932577333333334, "name": "a6fcb2825bf258581d27c416149873ca", "fusion_lon": 0.0, "bike_id": "a6fcb2825bf258581d27c416149873ca", "is_disabled": 0, "is_reserved": 0}, {"rental_uris": {"ios": "https://dc.lft.to/lastmile_qr_scan", "android": "https://dc.lft.to/lastmile_qr_scan"}, "lon": -76.98710216666667, "type": "electric_scooter", "fusion_lat": 0.0, "lat": 38.86257666666667, "name": "998b1549a433b897b61121becd0f5353", "fusion_lon": 0.0, "bike_id": "998b1549a433b897b61121becd0f5353", "is_disabled": 0, "is_reserved": 0}, {"rental_uris": {"ios": "https://dc.lft.to/lastmile_qr_scan", "android": "https://dc.lft.to/lastmile_qr_scan"}, "lon": -76.94178733333334, "type": "electric_scooter", "fusion_lat": 0.0, "lat": 38.88219383333333, "name": "789fa564a2148ac3d822ab996fa346a9", "fusion_lon": 0.0, "bike_id": "789fa564a2148ac3d822ab996fa346a9", "is_disabled": 0, "is_reserved": 0}, {"rental_uris": {"ios": "https://dc.lft.to/lastmile_qr_scan", "android": "https://dc.lft.to/lastmile_qr_scan"}, "lon": -77.03343433333333, "type": "electric_scooter", "fusion_lat": 0.0, "lat": 38.91927066666667, "name": "7890f212d37a8e8755b45c48036d458c", "fusion_lon": 0.0, "bike_id": "7890f212d37a8e8755b45c48036d458c", "is_disabled": 0, "is_reserved": 0}, {"rental_uris": {"ios": "https://dc.lft.to/lastmile_qr_scan", "android": "https://dc.lft.to/lastmile_qr_scan"}, "lon": -76.9581505, "type": "electric_scooter", "fusion_lat": 0.0, "lat": 38.89053116666667, "name": "b3e756427d8b15daee09e8d9fbde4480", "fusion_lon": 0.0, "bike_id": "b3e756427d8b15daee09e8d9fbde4480", "is_disabled": 0, "is_reserved": 0}, {"rental_uris": {"ios": "https://dc.lft.to/lastmile_qr_scan", "android": "https://dc.lft.to/lastmile_qr_scan"}, "lon": -77.02123316666666, "type": "electric_scooter", "fusion_lat": 0.0, "lat": 38.91560483333333, "name": "5350a84916c05aa850125577c129d5d1", "fusion_lon": 0.0, "bike_id": "5350a84916c05aa850125577c129d5d1", "is_disabled": 0, "is_reserved": 0}, {"rental_uris": {"ios": "https://dc.lft.to/lastmile_qr_scan", "android": "https://dc.lft.to/lastmile_qr_scan"}, "lon": -77.04120366666666, "type": "electric_scooter", "fusion_lat": 0.0, "lat": 38.92149766666667, "name": "298622f43321089fc046a74de7a9549e", "fusion_lon": 0.0, "bike_id": "298622f43321089fc046a74de7a9549e", "is_disabled": 0, "is_reserved": 0}, {"rental_uris": {"ios": "https://dc.lft.to/lastmile_qr_scan", "android": "https://dc.lft.to/lastmile_qr_scan"}, "lon": -77.04493516666666, "type": "electric_scooter", "fusion_lat": 0.0, "lat": 38.912819999999996, "name": "438500f2d700ca50698bb2bc5c5e3b46", "fusion_lon": 0.0, "bike_id": "438500f2d700ca50698bb2bc5c5e3b46", "is_disabled": 0, "is_reserved": 0}, {"rental_uris": {"ios": "https://dc.lft.to/lastmile_qr_scan", "android": "https://dc.lft.to/lastmile_qr_scan"}, "lon": -77.01759016666666, "type": "electric_scooter", "fusion_lat": 0.0, "lat": 38.90407233333333, "name": "224e9d00b0eb1ef6ca313f01dd9de110", "fusion_lon": 0.0, "bike_id": "224e9d00b0eb1ef6ca313f01dd9de110", "is_disabled": 0, "is_reserved": 0}, {"rental_uris": {"ios": "https://dc.lft.to/lastmile_qr_scan", "android": "https://dc.lft.to/lastmile_qr_scan"}, "lon": -77.09517283333334, "type": "electric_bike", "fusion_lat": 0.0, "lat": 38.838103833333335, "name": "c7f3b55a9219dac4d44b8c8bc3cb1558", "fusion_lon": 0.0, "bike_id": "c7f3b55a9219dac4d44b8c8bc3cb1558", "is_disabled": 0, "is_reserved": 0}, {"rental_uris": {"ios": "https://dc.lft.to/lastmile_qr_scan", "android": "https://dc.lft.to/lastmile_qr_scan"}, "lon": -76.98623166666667, "type": "electric_scooter", "fusion_lat": 0.0, "lat": 38.868129833333334, "name": "993b63f45aacccb2a3f6eb01375dc6e5", "fusion_lon": 0.0, "bike_id": "993b63f45aacccb2a3f6eb01375dc6e5", "is_disabled": 0, "is_reserved": 0}, {"rental_uris": {"ios": "https://dc.lft.to/lastmile_qr_scan", "android": "https://dc.lft.to/lastmile_qr_scan"}, "lon": -77.032654, "type": "electric_scooter", "fusion_lat": 0.0, "lat": 38.92546683333333, "name": "da861d1dfbc973e1dd368fcb6427564b", "fusion_lon": 0.0, "bike_id": "da861d1dfbc973e1dd368fcb6427564b", "is_disabled": 0, "is_reserved": 0}, {"rental_uris": {"ios": "https://dc.lft.to/lastmile_qr_scan", "android": "https://dc.lft.to/lastmile_qr_scan"}, "lon": -77.05826583333334, "type": "electric_scooter", "fusion_lat": 0.0, "lat": 38.934219166666665, "name": "6a333f5addb7f83d6586366109bcea3f", "fusion_lon": 0.0, "bike_id": "6a333f5addb7f83d6586366109bcea3f", "is_disabled": 0, "is_reserved": 0}, {"rental_uris": {"ios": "https://dc.lft.to/lastmile_qr_scan", "android": "https://dc.lft.to/lastmile_qr_scan"}, "lon": -77.04263, "type": "electric_scooter", "fusion_lat": 0.0, "lat": 38.90857883333334, "name": "7493a573e4828a7ab9aa57335f5c6b42", "fusion_lon": 0.0, "bike_id": "7493a573e4828a7ab9aa57335f5c6b42", "is_disabled": 0, "is_reserved": 0}, {"rental_uris": {"ios": "https://dc.lft.to/lastmile_qr_scan", "android": "https://dc.lft.to/lastmile_qr_scan"}, "lon": -77.05588583333333, "type": "electric_scooter", "fusion_lat": 0.0, "lat": 38.927839, "name": "2ee8f424c6907a6d9f0f73b4be339452", "fusion_lon": 0.0, "bike_id": "2ee8f424c6907a6d9f0f73b4be339452", "is_disabled": 0, "is_reserved": 0}, {"rental_uris": {"ios": "https://dc.lft.to/lastmile_qr_scan", "android": "https://dc.lft.to/lastmile_qr_scan"}, "lon": -77.035677, "type": "electric_scooter", "fusion_lat": 0.0, "lat": 38.918185, "name": "45061d598f34cf54fb9c8b19da7e9b8c", "fusion_lon": 0.0, "bike_id": "45061d598f34cf54fb9c8b19da7e9b8c", "is_disabled": 0, "is_reserved": 0}, {"rental_uris": {"ios": "https://dc.lft.to/lastmile_qr_scan", "android": "https://dc.lft.to/lastmile_qr_scan"}, "lon": -77.06382266666667, "type": "electric_bike", "fusion_lat": 0.0, "lat": 38.90513833333333, "name": "cdd9589535522e43d7ba9c7fee7c24af", "fusion_lon": 0.0, "bike_id": "cdd9589535522e43d7ba9c7fee7c24af", "is_disabled": 0, "is_reserved": 0}, {"rental_uris": {"ios": "https://dc.lft.to/lastmile_qr_scan", "android": "https://dc.lft.to/lastmile_qr_scan"}, "lon": -76.97817183333333, "type": "electric_scooter", "fusion_lat": 0.0, "lat": 38.90674683333334, "name": "ae63b7fa0cde2eaf41baea0bff0de629", "fusion_lon": 0.0, "bike_id": "ae63b7fa0cde2eaf41baea0bff0de629", "is_disabled": 0, "is_reserved": 0}, {"rental_uris": {"ios": "https://dc.lft.to/lastmile_qr_scan", "android": "https://dc.lft.to/lastmile_qr_scan"}, "lon": -77.032294, "type": "electric_scooter", "fusion_lat": 0.0, "lat": 38.9258215, "name": "c493886db8ce08cf696b4898f73516c9", "fusion_lon": 0.0, "bike_id": "c493886db8ce08cf696b4898f73516c9", "is_disabled": 0, "is_reserved": 0}, {"rental_uris": {"ios": "https://dc.lft.to/lastmile_qr_scan", "android": "https://dc.lft.to/lastmile_qr_scan"}, "lon": -77.0321635, "type": "electric_scooter", "fusion_lat": 0.0, "lat": 38.920039333333335, "name": "8134941ad9cbb8a665b447c5b2c4baba", "fusion_lon": 0.0, "bike_id": "8134941ad9cbb8a665b447c5b2c4baba", "is_disabled": 0, "is_reserved": 0}, {"rental_uris": {"ios": "https://dc.lft.to/lastmile_qr_scan", "android": "https://dc.lft.to/lastmile_qr_scan"}, "lon": -77.0295775, "type": "electric_scooter", "fusion_lat": 0.0, "lat": 38.907254, "name": "e9ef8d5465eea35016ed4e9ea6f0ea57", "fusion_lon": 0.0, "bike_id": "e9ef8d5465eea35016ed4e9ea6f0ea57", "is_disabled": 0, "is_reserved": 0}, {"rental_uris": {"ios": "https://dc.lft.to/lastmile_qr_scan", "android": "https://dc.lft.to/lastmile_qr_scan"}, "lon": -77.03543133333334, "type": "electric_scooter", "fusion_lat": 0.0, "lat": 38.90760916666667, "name": "6016131047182ff12624db4afec09fcd", "fusion_lon": 0.0, "bike_id": "6016131047182ff12624db4afec09fcd", "is_disabled": 0, "is_reserved": 0}, {"rental_uris": {"ios": "https://dc.lft.to/lastmile_qr_scan", "android": "https://dc.lft.to/lastmile_qr_scan"}, "lon": -77.11194566666667, "type": "electric_bike", "fusion_lat": 0.0, "lat": 38.81308966666667, "name": "983ba40667c0ca419cb5bda12c049a4d", "fusion_lon": 0.0, "bike_id": "983ba40667c0ca419cb5bda12c049a4d", "is_disabled": 0, "is_reserved": 0}, {"rental_uris": {"ios": "https://dc.lft.to/lastmile_qr_scan", "android": "https://dc.lft.to/lastmile_qr_scan"}, "lon": -77.0438055, "type": "electric_scooter", "fusion_lat": 0.0, "lat": 38.920679666666665, "name": "4bd4bba1efb7708ffaebd2bbbf18cd0e", "fusion_lon": 0.0, "bike_id": "4bd4bba1efb7708ffaebd2bbbf18cd0e", "is_disabled": 0, "is_reserved": 0}, {"rental_uris": {"ios": "https://dc.lft.to/lastmile_qr_scan", "android": "https://dc.lft.to/lastmile_qr_scan"}, "lon": -77.043288, "type": "electric_scooter", "fusion_lat": 0.0, "lat": 38.9148035, "name": "5428ddbb6ae02de8ed9e02b9769b1bfa", "fusion_lon": 0.0, "bike_id": "5428ddbb6ae02de8ed9e02b9769b1bfa", "is_disabled": 0, "is_reserved": 0}, {"rental_uris": {"ios": "https://dc.lft.to/lastmile_qr_scan", "android": "https://dc.lft.to/lastmile_qr_scan"}, "lon": -76.93525716666667, "type": "electric_bike", "fusion_lat": 0.0, "lat": 38.955509, "name": "67d3c482941b9a1ddb1f0f3c8096aa97", "fusion_lon": 0.0, "bike_id": "67d3c482941b9a1ddb1f0f3c8096aa97", "is_disabled": 0, "is_reserved": 0}, {"rental_uris": {"ios": "https://dc.lft.to/lastmile_qr_scan", "android": "https://dc.lft.to/lastmile_qr_scan"}, "lon": -77.04809166666666, "type": "electric_scooter", "fusion_lat": 0.0, "lat": 38.896095833333334, "name": "b6edf28d733bb558de62944c0e2d428d", "fusion_lon": 0.0, "bike_id": "b6edf28d733bb558de62944c0e2d428d", "is_disabled": 0, "is_reserved": 0}, {"rental_uris": {"ios": "https://dc.lft.to/lastmile_qr_scan", "android": "https://dc.lft.to/lastmile_qr_scan"}, "lon": -77.122622, "type": "electric_bike", "fusion_lat": 0.0, "lat": 38.8918645, "name": "9e1524aa9f65341e2b1b7126fd04c6ef", "fusion_lon": 0.0, "bike_id": "9e1524aa9f65341e2b1b7126fd04c6ef", "is_disabled": 0, "is_reserved": 0}, {"rental_uris": {"ios": "https://dc.lft.to/lastmile_qr_scan", "android": "https://dc.lft.to/lastmile_qr_scan"}, "lon": -77.03521916666666, "type": "electric_scooter", "fusion_lat": 0.0, "lat": 38.92331316666667, "name": "ce2a07f275815234d7a52a3750b4231f", "fusion_lon": 0.0, "bike_id": "ce2a07f275815234d7a52a3750b4231f", "is_disabled": 0, "is_reserved": 0}, {"rental_uris": {"ios": "https://dc.lft.to/lastmile_qr_scan", "android": "https://dc.lft.to/lastmile_qr_scan"}, "lon": -77.04722366666667, "type": "electric_scooter", "fusion_lat": 0.0, "lat": 38.902292333333335, "name": "ae3d887c32b6b38d3e40c50aef8ffb22", "fusion_lon": 0.0, "bike_id": "ae3d887c32b6b38d3e40c50aef8ffb22", "is_disabled": 0, "is_reserved": 0}, {"rental_uris": {"ios": "https://dc.lft.to/lastmile_qr_scan", "android": "https://dc.lft.to/lastmile_qr_scan"}, "lon": -77.07682916666667, "type": "electric_bike", "fusion_lat": 0.0, "lat": 38.83191583333333, "name": "254bb0c37747534cd4d50c5a018a1247", "fusion_lon": 0.0, "bike_id": "254bb0c37747534cd4d50c5a018a1247", "is_disabled": 0, "is_reserved": 0}, {"rental_uris": {"ios": "https://dc.lft.to/lastmile_qr_scan", "android": "https://dc.lft.to/lastmile_qr_scan"}, "lon": -77.02962566666666, "type": "electric_scooter", "fusion_lat": 0.0, "lat": 38.884371333333334, "name": "cdb90fa74d8e0783feb38c03373ddf3b", "fusion_lon": 0.0, "bike_id": "cdb90fa74d8e0783feb38c03373ddf3b", "is_disabled": 0, "is_reserved": 0}, {"rental_uris": {"ios": "https://dc.lft.to/lastmile_qr_scan", "android": "https://dc.lft.to/lastmile_qr_scan"}, "lon": -77.0332365, "type": "electric_scooter", "fusion_lat": 0.0, "lat": 38.9206555, "name": "f1f8afa1f8f9db7dfa7e4b60d7bc8c32", "fusion_lon": 0.0, "bike_id": "f1f8afa1f8f9db7dfa7e4b60d7bc8c32", "is_disabled": 0, "is_reserved": 0}, {"rental_uris": {"ios": "https://dc.lft.to/lastmile_qr_scan", "android": "https://dc.lft.to/lastmile_qr_scan"}, "lon": -77.037235, "type": "electric_scooter", "fusion_lat": 0.0, "lat": 38.93359683333333, "name": "6011fbb138a7a9a9d167fffaf2c778e0", "fusion_lon": 0.0, "bike_id": "6011fbb138a7a9a9d167fffaf2c778e0", "is_disabled": 0, "is_reserved": 0}, {"rental_uris": {"ios": "https://dc.lft.to/lastmile_qr_scan", "android": "https://dc.lft.to/lastmile_qr_scan"}, "lon": -76.9463175, "type": "electric_scooter", "fusion_lat": 0.0, "lat": 38.898452666666664, "name": "5b7626dfd1229eefb8428bb834c0fd44", "fusion_lon": 0.0, "bike_id": "5b7626dfd1229eefb8428bb834c0fd44", "is_disabled": 0, "is_reserved": 0}, {"rental_uris": {"ios": "https://dc.lft.to/lastmile_qr_scan", "android": "https://dc.lft.to/lastmile_qr_scan"}, "lon": -77.0358445, "type": "electric_scooter", "fusion_lat": 0.0, "lat": 38.93240766666667, "name": "1340a5e080697459ed7b8e58fa8e4558", "fusion_lon": 0.0, "bike_id": "1340a5e080697459ed7b8e58fa8e4558", "is_disabled": 0, "is_reserved": 0}, {"rental_uris": {"ios": "https://dc.lft.to/lastmile_qr_scan", "android": "https://dc.lft.to/lastmile_qr_scan"}, "lon": -77.06330583333333, "type": "electric_bike", "fusion_lat": 0.0, "lat": 38.9210865, "name": "23cf1f774b075b82d474f62508e4209e", "fusion_lon": 0.0, "bike_id": "23cf1f774b075b82d474f62508e4209e", "is_disabled": 0, "is_reserved": 0}, {"rental_uris": {"ios": "https://dc.lft.to/lastmile_qr_scan", "android": "https://dc.lft.to/lastmile_qr_scan"}, "lon": -77.03221933333333, "type": "electric_scooter", "fusion_lat": 0.0, "lat": 38.91689916666667, "name": "458798a13922e3c6e04c21e8935339e1", "fusion_lon": 0.0, "bike_id": "458798a13922e3c6e04c21e8935339e1", "is_disabled": 0, "is_reserved": 0}, {"rental_uris": {"ios": "https://dc.lft.to/lastmile_qr_scan", "android": "https://dc.lft.to/lastmile_qr_scan"}, "lon": -77.015737, "type": "electric_scooter", "fusion_lat": 0.0, "lat": 38.899798833333335, "name": "537e451011a1167c0d2791510a88ec84", "fusion_lon": 0.0, "bike_id": "537e451011a1167c0d2791510a88ec84", "is_disabled": 0, "is_reserved": 0}, {"rental_uris": {"ios": "https://dc.lft.to/lastmile_qr_scan", "android": "https://dc.lft.to/lastmile_qr_scan"}, "lon": -77.048167, "type": "electric_scooter", "fusion_lat": 0.0, "lat": 38.90792016666666, "name": "4534970538f5880be6d062b2436cf66c", "fusion_lon": 0.0, "bike_id": "4534970538f5880be6d062b2436cf66c", "is_disabled": 0, "is_reserved": 0}, {"rental_uris": {"ios": "https://dc.lft.to/lastmile_qr_scan", "android": "https://dc.lft.to/lastmile_qr_scan"}, "lon": -77.02168466666667, "type": "electric_scooter", "fusion_lat": 0.0, "lat": 38.9429585, "name": "15e46db000e4f5e67ed1f444d2281f58", "fusion_lon": 0.0, "bike_id": "15e46db000e4f5e67ed1f444d2281f58", "is_disabled": 0, "is_reserved": 0}, {"rental_uris": {"ios": "https://dc.lft.to/lastmile_qr_scan", "android": "https://dc.lft.to/lastmile_qr_scan"}, "lon": -77.01369016666666, "type": "electric_scooter", "fusion_lat": 0.0, "lat": 38.86372383333333, "name": "4dbfa83aa8846de891ca7514903ea06c", "fusion_lon": 0.0, "bike_id": "4dbfa83aa8846de891ca7514903ea06c", "is_disabled": 0, "is_reserved": 0}, {"rental_uris": {"ios": "https://dc.lft.to/lastmile_qr_scan", "android": "https://dc.lft.to/lastmile_qr_scan"}, "lon": -77.0585955, "type": "electric_scooter", "fusion_lat": 0.0, "lat": 38.936019333333334, "name": "99116c2507a516f2bdb814e0f1a63c84", "fusion_lon": 0.0, "bike_id": "99116c2507a516f2bdb814e0f1a63c84", "is_disabled": 0, "is_reserved": 0}, {"rental_uris": {"ios": "https://dc.lft.to/lastmile_qr_scan", "android": "https://dc.lft.to/lastmile_qr_scan"}, "lon": -77.06037666666667, "type": "electric_scooter", "fusion_lat": 0.0, "lat": 38.93921983333333, "name": "05fb6b059be0a5b0634417c131b23a05", "fusion_lon": 0.0, "bike_id": "05fb6b059be0a5b0634417c131b23a05", "is_disabled": 0, "is_reserved": 0}, {"rental_uris": {"ios": "https://dc.lft.to/lastmile_qr_scan", "android": "https://dc.lft.to/lastmile_qr_scan"}, "lon": -77.032232, "type": "electric_scooter", "fusion_lat": 0.0, "lat": 38.90870266666667, "name": "b6fec654a2406869c662a7b7808018bf", "fusion_lon": 0.0, "bike_id": "b6fec654a2406869c662a7b7808018bf", "is_disabled": 0, "is_reserved": 0}, {"rental_uris": {"ios": "https://dc.lft.to/lastmile_qr_scan", "android": "https://dc.lft.to/lastmile_qr_scan"}, "lon": -77.01048633333333, "type": "electric_scooter", "fusion_lat": 0.0, "lat": 38.879366166666664, "name": "f2f4ae3e76e5ce5b53388a70f115efab", "fusion_lon": 0.0, "bike_id": "f2f4ae3e76e5ce5b53388a70f115efab", "is_disabled": 0, "is_reserved": 0}, {"rental_uris": {"ios": "https://dc.lft.to/lastmile_qr_scan", "android": "https://dc.lft.to/lastmile_qr_scan"}, "lon": -77.00987416666666, "type": "electric_scooter", "fusion_lat": 0.0, "lat": 38.914914333333336, "name": "0fbf28ca0da5c77f1def4ea0411f05e5", "fusion_lon": 0.0, "bike_id": "0fbf28ca0da5c77f1def4ea0411f05e5", "is_disabled": 0, "is_reserved": 0}, {"rental_uris": {"ios": "https://dc.lft.to/lastmile_qr_scan", "android": "https://dc.lft.to/lastmile_qr_scan"}, "lon": -77.039639, "type": "electric_scooter", "fusion_lat": 0.0, "lat": 38.91980683333333, "name": "e9fd4553b50819441e857c8e62127fc7", "fusion_lon": 0.0, "bike_id": "e9fd4553b50819441e857c8e62127fc7", "is_disabled": 0, "is_reserved": 0}, {"rental_uris": {"ios": "https://dc.lft.to/lastmile_qr_scan", "android": "https://dc.lft.to/lastmile_qr_scan"}, "lon": -76.92887866666666, "type": "electric_scooter", "fusion_lat": 0.0, "lat": 38.89330783333333, "name": "cad7bcce46b0ce6cc678252608737266", "fusion_lon": 0.0, "bike_id": "cad7bcce46b0ce6cc678252608737266", "is_disabled": 0, "is_reserved": 0}, {"rental_uris": {"ios": "https://dc.lft.to/lastmile_qr_scan", "android": "https://dc.lft.to/lastmile_qr_scan"}, "lon": -77.02698916666667, "type": "electric_scooter", "fusion_lat": 0.0, "lat": 38.9498, "name": "5b1b4fb5c4b9ef2344bef5ff63bf0700", "fusion_lon": 0.0, "bike_id": "5b1b4fb5c4b9ef2344bef5ff63bf0700", "is_disabled": 0, "is_reserved": 0}, {"rental_uris": {"ios": "https://dc.lft.to/lastmile_qr_scan", "android": "https://dc.lft.to/lastmile_qr_scan"}, "lon": -76.9663695, "type": "electric_bike", "fusion_lat": 0.0, "lat": 38.941954333333335, "name": "1fe8a1db11c83a80a4f6cf8e5274cb00", "fusion_lon": 0.0, "bike_id": "1fe8a1db11c83a80a4f6cf8e5274cb00", "is_disabled": 0, "is_reserved": 0}, {"rental_uris": {"ios": "https://dc.lft.to/lastmile_qr_scan", "android": "https://dc.lft.to/lastmile_qr_scan"}, "lon": -77.02106483333333, "type": "electric_scooter", "fusion_lat": 0.0, "lat": 38.9130635, "name": "11a3ef5ca062fc00e7496ae1046ce4cc", "fusion_lon": 0.0, "bike_id": "11a3ef5ca062fc00e7496ae1046ce4cc", "is_disabled": 0, "is_reserved": 0}, {"rental_uris": {"ios": "https://dc.lft.to/lastmile_qr_scan", "android": "https://dc.lft.to/lastmile_qr_scan"}, "lon": -77.03155533333333, "type": "electric_scooter", "fusion_lat": 0.0, "lat": 38.915593333333334, "name": "228f499124b0fbf1e02b5cfa9cda514c", "fusion_lon": 0.0, "bike_id": "228f499124b0fbf1e02b5cfa9cda514c", "is_disabled": 0, "is_reserved": 0}, {"rental_uris": {"ios": "https://dc.lft.to/lastmile_qr_scan", "android": "https://dc.lft.to/lastmile_qr_scan"}, "lon": -77.032001, "type": "electric_scooter", "fusion_lat": 0.0, "lat": 38.92066283333333, "name": "6b0cf828acb9253b53a8c8d68e39ae71", "fusion_lon": 0.0, "bike_id": "6b0cf828acb9253b53a8c8d68e39ae71", "is_disabled": 0, "is_reserved": 0}, {"rental_uris": {"ios": "https://dc.lft.to/lastmile_qr_scan", "android": "https://dc.lft.to/lastmile_qr_scan"}, "lon": -77.04197, "type": "electric_scooter", "fusion_lat": 0.0, "lat": 38.899207, "name": "59767420f1b190285ce05736579d984d", "fusion_lon": 0.0, "bike_id": "59767420f1b190285ce05736579d984d", "is_disabled": 0, "is_reserved": 0}, {"rental_uris": {"ios": "https://dc.lft.to/lastmile_qr_scan", "android": "https://dc.lft.to/lastmile_qr_scan"}, "lon": -77.01620216666667, "type": "electric_scooter", "fusion_lat": 0.0, "lat": 38.90608366666667, "name": "0cc10e4b60ccb4e825b55381d6445fcc", "fusion_lon": 0.0, "bike_id": "0cc10e4b60ccb4e825b55381d6445fcc", "is_disabled": 0, "is_reserved": 0}, {"rental_uris": {"ios": "https://dc.lft.to/lastmile_qr_scan", "android": "https://dc.lft.to/lastmile_qr_scan"}, "lon": -77.03961533333333, "type": "electric_scooter", "fusion_lat": 0.0, "lat": 38.923155, "name": "2fcd2b12917fd99eaad3ef240ccaf715", "fusion_lon": 0.0, "bike_id": "2fcd2b12917fd99eaad3ef240ccaf715", "is_disabled": 0, "is_reserved": 0}, {"rental_uris": {"ios": "https://dc.lft.to/lastmile_qr_scan", "android": "https://dc.lft.to/lastmile_qr_scan"}, "lon": -77.02319366666667, "type": "electric_scooter", "fusion_lat": 0.0, "lat": 38.8819605, "name": "e7e8148187fa4334b6450b56da785b06", "fusion_lon": 0.0, "bike_id": "e7e8148187fa4334b6450b56da785b06", "is_disabled": 0, "is_reserved": 0}, {"rental_uris": {"ios": "https://dc.lft.to/lastmile_qr_scan", "android": "https://dc.lft.to/lastmile_qr_scan"}, "lon": -77.031487, "type": "electric_scooter", "fusion_lat": 0.0, "lat": 38.937621666666665, "name": "4b8400f0d008c4c84e300bc3acff19f8", "fusion_lon": 0.0, "bike_id": "4b8400f0d008c4c84e300bc3acff19f8", "is_disabled": 0, "is_reserved": 0}, {"rental_uris": {"ios": "https://dc.lft.to/lastmile_qr_scan", "android": "https://dc.lft.to/lastmile_qr_scan"}, "lon": -77.02461283333334, "type": "electric_scooter", "fusion_lat": 0.0, "lat": 38.908496666666665, "name": "c29514ff55b3cfc553c474cee08c05b5", "fusion_lon": 0.0, "bike_id": "c29514ff55b3cfc553c474cee08c05b5", "is_disabled": 0, "is_reserved": 0}, {"rental_uris": {"ios": "https://dc.lft.to/lastmile_qr_scan", "android": "https://dc.lft.to/lastmile_qr_scan"}, "lon": -76.9809365, "type": "electric_bike", "fusion_lat": 0.0, "lat": 38.881365333333335, "name": "48863831115d6f76c6d23455f13246e8", "fusion_lon": 0.0, "bike_id": "48863831115d6f76c6d23455f13246e8", "is_disabled": 0, "is_reserved": 0}, {"rental_uris": {"ios": "https://dc.lft.to/lastmile_qr_scan", "android": "https://dc.lft.to/lastmile_qr_scan"}, "lon": -76.99379433333333, "type": "electric_scooter", "fusion_lat": 0.0, "lat": 38.879713833333334, "name": "b395576eab1e0544bff1cef742f2f915", "fusion_lon": 0.0, "bike_id": "b395576eab1e0544bff1cef742f2f915", "is_disabled": 0, "is_reserved": 0}, {"rental_uris": {"ios": "https://dc.lft.to/lastmile_qr_scan", "android": "https://dc.lft.to/lastmile_qr_scan"}, "lon": -77.05516883333334, "type": "electric_scooter", "fusion_lat": 0.0, "lat": 38.89892416666667, "name": "3c527260d260267ed36d69f3d16cd809", "fusion_lon": 0.0, "bike_id": "3c527260d260267ed36d69f3d16cd809", "is_disabled": 0, "is_reserved": 0}, {"rental_uris": {"ios": "https://dc.lft.to/lastmile_qr_scan", "android": "https://dc.lft.to/lastmile_qr_scan"}, "lon": -77.07719166666666, "type": "electric_scooter", "fusion_lat": 0.0, "lat": 38.947080666666665, "name": "c6e902ea1a30a0260d7af21d0f1424aa", "fusion_lon": 0.0, "bike_id": "c6e902ea1a30a0260d7af21d0f1424aa", "is_disabled": 0, "is_reserved": 0}, {"rental_uris": {"ios": "https://dc.lft.to/lastmile_qr_scan", "android": "https://dc.lft.to/lastmile_qr_scan"}, "lon": -77.03319216666667, "type": "electric_scooter", "fusion_lat": 0.0, "lat": 38.91267716666667, "name": "7f29972e63fb39c9b01e7665aa958ce9", "fusion_lon": 0.0, "bike_id": "7f29972e63fb39c9b01e7665aa958ce9", "is_disabled": 0, "is_reserved": 0}, {"rental_uris": {"ios": "https://dc.lft.to/lastmile_qr_scan", "android": "https://dc.lft.to/lastmile_qr_scan"}, "lon": -77.0222455, "type": "electric_scooter", "fusion_lat": 0.0, "lat": 38.91270883333333, "name": "c921b33cf36f6d81f32b1dd7d5aec06f", "fusion_lon": 0.0, "bike_id": "c921b33cf36f6d81f32b1dd7d5aec06f", "is_disabled": 0, "is_reserved": 0}, {"rental_uris": {"ios": "https://dc.lft.to/lastmile_qr_scan", "android": "https://dc.lft.to/lastmile_qr_scan"}, "lon": -77.02704583333333, "type": "electric_scooter", "fusion_lat": 0.0, "lat": 38.9499605, "name": "b57ca6c2ae63968d9379641686c5f674", "fusion_lon": 0.0, "bike_id": "b57ca6c2ae63968d9379641686c5f674", "is_disabled": 0, "is_reserved": 0}, {"rental_uris": {"ios": "https://dc.lft.to/lastmile_qr_scan", "android": "https://dc.lft.to/lastmile_qr_scan"}, "lon": -77.04447816666666, "type": "electric_scooter", "fusion_lat": 0.0, "lat": 38.910075666666664, "name": "37e60517404ed02b76c67389bed7f6fb", "fusion_lon": 0.0, "bike_id": "37e60517404ed02b76c67389bed7f6fb", "is_disabled": 0, "is_reserved": 0}, {"rental_uris": {"ios": "https://dc.lft.to/lastmile_qr_scan", "android": "https://dc.lft.to/lastmile_qr_scan"}, "lon": -77.0259255, "type": "electric_scooter", "fusion_lat": 0.0, "lat": 38.92986483333333, "name": "587bd5aba597a4f32639b6be6fa06cc0", "fusion_lon": 0.0, "bike_id": "587bd5aba597a4f32639b6be6fa06cc0", "is_disabled": 0, "is_reserved": 0}, {"rental_uris": {"ios": "https://dc.lft.to/lastmile_qr_scan", "android": "https://dc.lft.to/lastmile_qr_scan"}, "lon": -77.04232833333333, "type": "electric_scooter", "fusion_lat": 0.0, "lat": 38.921603, "name": "3dc8034503a69d206abe62dea3d337e2", "fusion_lon": 0.0, "bike_id": "3dc8034503a69d206abe62dea3d337e2", "is_disabled": 0, "is_reserved": 0}, {"rental_uris": {"ios": "https://dc.lft.to/lastmile_qr_scan", "android": "https://dc.lft.to/lastmile_qr_scan"}, "lon": -77.04546416666666, "type": "electric_scooter", "fusion_lat": 0.0, "lat": 38.9339905, "name": "ce464ec675a76304c3cac0a010589a0f", "fusion_lon": 0.0, "bike_id": "ce464ec675a76304c3cac0a010589a0f", "is_disabled": 0, "is_reserved": 0}, {"rental_uris": {"ios": "https://dc.lft.to/lastmile_qr_scan", "android": "https://dc.lft.to/lastmile_qr_scan"}, "lon": -77.032882, "type": "electric_scooter", "fusion_lat": 0.0, "lat": 38.92351466666667, "name": "b264f156dc27a907c54d2f53ea25aa33", "fusion_lon": 0.0, "bike_id": "b264f156dc27a907c54d2f53ea25aa33", "is_disabled": 0, "is_reserved": 0}, {"rental_uris": {"ios": "https://dc.lft.to/lastmile_qr_scan", "android": "https://dc.lft.to/lastmile_qr_scan"}, "lon": -76.946336, "type": "electric_scooter", "fusion_lat": 0.0, "lat": 38.8983165, "name": "b4d2890ac5ce2a1a9c9cc9b9103a5f1b", "fusion_lon": 0.0, "bike_id": "b4d2890ac5ce2a1a9c9cc9b9103a5f1b", "is_disabled": 0, "is_reserved": 0}, {"rental_uris": {"ios": "https://dc.lft.to/lastmile_qr_scan", "android": "https://dc.lft.to/lastmile_qr_scan"}, "lon": -77.032763, "type": "electric_scooter", "fusion_lat": 0.0, "lat": 38.909819, "name": "4305eb9cba9f0c1fbd7fc68a7670ad42", "fusion_lon": 0.0, "bike_id": "4305eb9cba9f0c1fbd7fc68a7670ad42", "is_disabled": 0, "is_reserved": 0}, {"rental_uris": {"ios": "https://dc.lft.to/lastmile_qr_scan", "android": "https://dc.lft.to/lastmile_qr_scan"}, "lon": -77.104529, "type": "electric_bike", "fusion_lat": 0.0, "lat": 38.896359, "name": "57db2363febdeecb38a5b3c7da27cced", "fusion_lon": 0.0, "bike_id": "57db2363febdeecb38a5b3c7da27cced", "is_disabled": 0, "is_reserved": 0}, {"rental_uris": {"ios": "https://dc.lft.to/lastmile_qr_scan", "android": "https://dc.lft.to/lastmile_qr_scan"}, "lon": -77.00102316666667, "type": "electric_scooter", "fusion_lat": 0.0, "lat": 38.908441333333336, "name": "79206ec2fbcd8df38656531483526978", "fusion_lon": 0.0, "bike_id": "79206ec2fbcd8df38656531483526978", "is_disabled": 0, "is_reserved": 0}, {"rental_uris": {"ios": "https://dc.lft.to/lastmile_qr_scan", "android": "https://dc.lft.to/lastmile_qr_scan"}, "lon": -77.02197366666667, "type": "electric_scooter", "fusion_lat": 0.0, "lat": 38.91042766666666, "name": "9894378b77227c3792c6063e9eecf42a", "fusion_lon": 0.0, "bike_id": "9894378b77227c3792c6063e9eecf42a", "is_disabled": 0, "is_reserved": 0}, {"rental_uris": {"ios": "https://dc.lft.to/lastmile_qr_scan", "android": "https://dc.lft.to/lastmile_qr_scan"}, "lon": -77.0364965, "type": "electric_scooter", "fusion_lat": 0.0, "lat": 38.918165333333334, "name": "cd0e4fa89b050896d507613a78ce0be3", "fusion_lon": 0.0, "bike_id": "cd0e4fa89b050896d507613a78ce0be3", "is_disabled": 0, "is_reserved": 0}, {"rental_uris": {"ios": "https://dc.lft.to/lastmile_qr_scan", "android": "https://dc.lft.to/lastmile_qr_scan"}, "lon": -77.12007933333334, "type": "electric_bike", "fusion_lat": 0.0, "lat": 38.855096833333334, "name": "fee10d3f17347228005f4237f695b643", "fusion_lon": 0.0, "bike_id": "fee10d3f17347228005f4237f695b643", "is_disabled": 0, "is_reserved": 0}, {"rental_uris": {"ios": "https://dc.lft.to/lastmile_qr_scan", "android": "https://dc.lft.to/lastmile_qr_scan"}, "lon": -77.01349783333333, "type": "electric_scooter", "fusion_lat": 0.0, "lat": 38.919351666666664, "name": "425d7e7de072c19a63ef37eadbe2d451", "fusion_lon": 0.0, "bike_id": "425d7e7de072c19a63ef37eadbe2d451", "is_disabled": 0, "is_reserved": 0}, {"rental_uris": {"ios": "https://dc.lft.to/lastmile_qr_scan", "android": "https://dc.lft.to/lastmile_qr_scan"}, "lon": -77.00059533333334, "type": "electric_scooter", "fusion_lat": 0.0, "lat": 38.90588783333333, "name": "d2a207f12f2aefce60e0fe518b3c8965", "fusion_lon": 0.0, "bike_id": "d2a207f12f2aefce60e0fe518b3c8965", "is_disabled": 0, "is_reserved": 0}, {"rental_uris": {"ios": "https://dc.lft.to/lastmile_qr_scan", "android": "https://dc.lft.to/lastmile_qr_scan"}, "lon": -77.03447883333334, "type": "electric_scooter", "fusion_lat": 0.0, "lat": 38.918109, "name": "7889499b02f2b25800d4acb2aef76a21", "fusion_lon": 0.0, "bike_id": "7889499b02f2b25800d4acb2aef76a21", "is_disabled": 0, "is_reserved": 0}, {"rental_uris": {"ios": "https://dc.lft.to/lastmile_qr_scan", "android": "https://dc.lft.to/lastmile_qr_scan"}, "lon": -77.032809, "type": "electric_scooter", "fusion_lat": 0.0, "lat": 38.9320365, "name": "5ca2d5ef6c687f302aceb3676beecf1c", "fusion_lon": 0.0, "bike_id": "5ca2d5ef6c687f302aceb3676beecf1c", "is_disabled": 0, "is_reserved": 0}, {"rental_uris": {"ios": "https://dc.lft.to/lastmile_qr_scan", "android": "https://dc.lft.to/lastmile_qr_scan"}, "lon": -77.044469, "type": "electric_scooter", "fusion_lat": 0.0, "lat": 38.910082833333334, "name": "44e9fa9cab563565aa4a4dd83a45cabd", "fusion_lon": 0.0, "bike_id": "44e9fa9cab563565aa4a4dd83a45cabd", "is_disabled": 0, "is_reserved": 0}, {"rental_uris": {"ios": "https://dc.lft.to/lastmile_qr_scan", "android": "https://dc.lft.to/lastmile_qr_scan"}, "lon": -76.93179633333334, "type": "electric_scooter", "fusion_lat": 0.0, "lat": 38.898829166666665, "name": "e6b5cc7a16149c06e80d7f81542ca4e5", "fusion_lon": 0.0, "bike_id": "e6b5cc7a16149c06e80d7f81542ca4e5", "is_disabled": 0, "is_reserved": 0}, {"rental_uris": {"ios": "https://dc.lft.to/lastmile_qr_scan", "android": "https://dc.lft.to/lastmile_qr_scan"}, "lon": -76.99490483333334, "type": "electric_scooter", "fusion_lat": 0.0, "lat": 38.862431, "name": "bdc5ef21ab50b89661579b68f9aed0f4", "fusion_lon": 0.0, "bike_id": "bdc5ef21ab50b89661579b68f9aed0f4", "is_disabled": 0, "is_reserved": 0}, {"rental_uris": {"ios": "https://dc.lft.to/lastmile_qr_scan", "android": "https://dc.lft.to/lastmile_qr_scan"}, "lon": -77.0350755, "type": "electric_scooter", "fusion_lat": 0.0, "lat": 38.92150616666667, "name": "85d85411a2714a099818f44c3911af6c", "fusion_lon": 0.0, "bike_id": "85d85411a2714a099818f44c3911af6c", "is_disabled": 0, "is_reserved": 0}, {"rental_uris": {"ios": "https://dc.lft.to/lastmile_qr_scan", "android": "https://dc.lft.to/lastmile_qr_scan"}, "lon": -77.0351825, "type": "electric_bike", "fusion_lat": 0.0, "lat": 38.965391833333335, "name": "c150b700ec0d42f5b5edc17f58a6d2b2", "fusion_lon": 0.0, "bike_id": "c150b700ec0d42f5b5edc17f58a6d2b2", "is_disabled": 0, "is_reserved": 0}, {"rental_uris": {"ios": "https://dc.lft.to/lastmile_qr_scan", "android": "https://dc.lft.to/lastmile_qr_scan"}, "lon": -77.03622849999999, "type": "electric_scooter", "fusion_lat": 0.0, "lat": 38.923226166666666, "name": "9d55761290c0c243abcdfb26cd6e04da", "fusion_lon": 0.0, "bike_id": "9d55761290c0c243abcdfb26cd6e04da", "is_disabled": 0, "is_reserved": 0}, {"rental_uris": {"ios": "https://dc.lft.to/lastmile_qr_scan", "android": "https://dc.lft.to/lastmile_qr_scan"}, "lon": -77.038673, "type": "electric_scooter", "fusion_lat": 0.0, "lat": 38.920204166666664, "name": "f733de86b9912d3471558705cede2195", "fusion_lon": 0.0, "bike_id": "f733de86b9912d3471558705cede2195", "is_disabled": 0, "is_reserved": 0}, {"rental_uris": {"ios": "https://dc.lft.to/lastmile_qr_scan", "android": "https://dc.lft.to/lastmile_qr_scan"}, "lon": -76.97883133333333, "type": "electric_scooter", "fusion_lat": 0.0, "lat": 38.885116333333336, "name": "9ad98b0cf9b5b565aa40af625524a617", "fusion_lon": 0.0, "bike_id": "9ad98b0cf9b5b565aa40af625524a617", "is_disabled": 0, "is_reserved": 0}, {"rental_uris": {"ios": "https://dc.lft.to/lastmile_qr_scan", "android": "https://dc.lft.to/lastmile_qr_scan"}, "lon": -76.98698683333333, "type": "electric_scooter", "fusion_lat": 0.0, "lat": 38.90702666666667, "name": "22875d56cba55fe5efcf2745727736f6", "fusion_lon": 0.0, "bike_id": "22875d56cba55fe5efcf2745727736f6", "is_disabled": 0, "is_reserved": 0}, {"rental_uris": {"ios": "https://dc.lft.to/lastmile_qr_scan", "android": "https://dc.lft.to/lastmile_qr_scan"}, "lon": -77.02616133333333, "type": "electric_scooter", "fusion_lat": 0.0, "lat": 38.905619, "name": "77025f7ae06e10d19a5cbf6dfbcc576b", "fusion_lon": 0.0, "bike_id": "77025f7ae06e10d19a5cbf6dfbcc576b", "is_disabled": 0, "is_reserved": 0}, {"rental_uris": {"ios": "https://dc.lft.to/lastmile_qr_scan", "android": "https://dc.lft.to/lastmile_qr_scan"}, "lon": -77.01483683333333, "type": "electric_scooter", "fusion_lat": 0.0, "lat": 38.881203666666664, "name": "c74b6a6eca773f4268ae39011ef7b6bb", "fusion_lon": 0.0, "bike_id": "c74b6a6eca773f4268ae39011ef7b6bb", "is_disabled": 0, "is_reserved": 0}, {"rental_uris": {"ios": "https://dc.lft.to/lastmile_qr_scan", "android": "https://dc.lft.to/lastmile_qr_scan"}, "lon": -77.0006465, "type": "electric_scooter", "fusion_lat": 0.0, "lat": 38.907122, "name": "3b5ecef3ae71c10b764c8a7279c49fa8", "fusion_lon": 0.0, "bike_id": "3b5ecef3ae71c10b764c8a7279c49fa8", "is_disabled": 0, "is_reserved": 0}, {"rental_uris": {"ios": "https://dc.lft.to/lastmile_qr_scan", "android": "https://dc.lft.to/lastmile_qr_scan"}, "lon": -77.010848, "type": "electric_scooter", "fusion_lat": 0.0, "lat": 38.894912166666664, "name": "e2e4ceddf49882789205fd32c1f03c20", "fusion_lon": 0.0, "bike_id": "e2e4ceddf49882789205fd32c1f03c20", "is_disabled": 0, "is_reserved": 0}, {"rental_uris": {"ios": "https://dc.lft.to/lastmile_qr_scan", "android": "https://dc.lft.to/lastmile_qr_scan"}, "lon": -77.04064316666667, "type": "electric_scooter", "fusion_lat": 0.0, "lat": 38.9028045, "name": "2d1fe9f75b2f75ae58766128619dab92", "fusion_lon": 0.0, "bike_id": "2d1fe9f75b2f75ae58766128619dab92", "is_disabled": 0, "is_reserved": 0}, {"rental_uris": {"ios": "https://dc.lft.to/lastmile_qr_scan", "android": "https://dc.lft.to/lastmile_qr_scan"}, "lon": -77.00611683333334, "type": "electric_scooter", "fusion_lat": 0.0, "lat": 38.90549033333333, "name": "56ff77b3638828a9105179737c116f0e", "fusion_lon": 0.0, "bike_id": "56ff77b3638828a9105179737c116f0e", "is_disabled": 0, "is_reserved": 0}, {"rental_uris": {"ios": "https://dc.lft.to/lastmile_qr_scan", "android": "https://dc.lft.to/lastmile_qr_scan"}, "lon": -77.03637783333333, "type": "electric_scooter", "fusion_lat": 0.0, "lat": 38.906797, "name": "3cfa7a87a70481a2b4d06b3f09ecd431", "fusion_lon": 0.0, "bike_id": "3cfa7a87a70481a2b4d06b3f09ecd431", "is_disabled": 0, "is_reserved": 0}, {"rental_uris": {"ios": "https://dc.lft.to/lastmile_qr_scan", "android": "https://dc.lft.to/lastmile_qr_scan"}, "lon": -76.96977, "type": "electric_scooter", "fusion_lat": 0.0, "lat": 38.86160983333333, "name": "ac7c52c31bc0f9808e6d9b15a4d835e6", "fusion_lon": 0.0, "bike_id": "ac7c52c31bc0f9808e6d9b15a4d835e6", "is_disabled": 0, "is_reserved": 0}, {"rental_uris": {"ios": "https://dc.lft.to/lastmile_qr_scan", "android": "https://dc.lft.to/lastmile_qr_scan"}, "lon": -76.99962166666667, "type": "electric_scooter", "fusion_lat": 0.0, "lat": 38.908675333333335, "name": "2604975d1609c223a28ccb594a2333c2", "fusion_lon": 0.0, "bike_id": "2604975d1609c223a28ccb594a2333c2", "is_disabled": 0, "is_reserved": 0}, {"rental_uris": {"ios": "https://dc.lft.to/lastmile_qr_scan", "android": "https://dc.lft.to/lastmile_qr_scan"}, "lon": -77.01538416666666, "type": "electric_scooter", "fusion_lat": 0.0, "lat": 38.887400666666665, "name": "7809647aea7d1e254053fb166f593008", "fusion_lon": 0.0, "bike_id": "7809647aea7d1e254053fb166f593008", "is_disabled": 0, "is_reserved": 0}, {"rental_uris": {"ios": "https://dc.lft.to/lastmile_qr_scan", "android": "https://dc.lft.to/lastmile_qr_scan"}, "lon": -77.02739933333334, "type": "electric_scooter", "fusion_lat": 0.0, "lat": 38.92774033333333, "name": "e4287ff6e5fdd7a87a07a9ef9ffd6ac8", "fusion_lon": 0.0, "bike_id": "e4287ff6e5fdd7a87a07a9ef9ffd6ac8", "is_disabled": 0, "is_reserved": 0}, {"rental_uris": {"ios": "https://dc.lft.to/lastmile_qr_scan", "android": "https://dc.lft.to/lastmile_qr_scan"}, "lon": -77.0535535, "type": "electric_scooter", "fusion_lat": 0.0, "lat": 38.92710833333334, "name": "3a55d20bee0630a5111426622ad9180a", "fusion_lon": 0.0, "bike_id": "3a55d20bee0630a5111426622ad9180a", "is_disabled": 0, "is_reserved": 0}, {"rental_uris": {"ios": "https://dc.lft.to/lastmile_qr_scan", "android": "https://dc.lft.to/lastmile_qr_scan"}, "lon": -77.0307785, "type": "electric_scooter", "fusion_lat": 0.0, "lat": 38.923807833333335, "name": "b4ad74fd6479be635c1df52292055ec1", "fusion_lon": 0.0, "bike_id": "b4ad74fd6479be635c1df52292055ec1", "is_disabled": 0, "is_reserved": 0}, {"rental_uris": {"ios": "https://dc.lft.to/lastmile_qr_scan", "android": "https://dc.lft.to/lastmile_qr_scan"}, "lon": -77.0412915, "type": "electric_scooter", "fusion_lat": 0.0, "lat": 38.924342, "name": "64a44d0e6236f872c3c1b1f1096d6900", "fusion_lon": 0.0, "bike_id": "64a44d0e6236f872c3c1b1f1096d6900", "is_disabled": 0, "is_reserved": 0}, {"rental_uris": {"ios": "https://dc.lft.to/lastmile_qr_scan", "android": "https://dc.lft.to/lastmile_qr_scan"}, "lon": -77.02947583333334, "type": "electric_scooter", "fusion_lat": 0.0, "lat": 38.93248066666666, "name": "798e9a77bc219de1b1575c655cc80930", "fusion_lon": 0.0, "bike_id": "798e9a77bc219de1b1575c655cc80930", "is_disabled": 0, "is_reserved": 0}, {"rental_uris": {"ios": "https://dc.lft.to/lastmile_qr_scan", "android": "https://dc.lft.to/lastmile_qr_scan"}, "lon": -77.07373383333334, "type": "electric_bike", "fusion_lat": 0.0, "lat": 38.961710833333335, "name": "21055bb05d64cfdeb867ac8192da5e1d", "fusion_lon": 0.0, "bike_id": "21055bb05d64cfdeb867ac8192da5e1d", "is_disabled": 0, "is_reserved": 0}, {"rental_uris": {"ios": "https://dc.lft.to/lastmile_qr_scan", "android": "https://dc.lft.to/lastmile_qr_scan"}, "lon": -77.03066066666666, "type": "electric_scooter", "fusion_lat": 0.0, "lat": 38.89458316666666, "name": "7d8311a60dae39c0a954fc494b5346a8", "fusion_lon": 0.0, "bike_id": "7d8311a60dae39c0a954fc494b5346a8", "is_disabled": 0, "is_reserved": 0}, {"rental_uris": {"ios": "https://dc.lft.to/lastmile_qr_scan", "android": "https://dc.lft.to/lastmile_qr_scan"}, "lon": -77.02838266666667, "type": "electric_scooter", "fusion_lat": 0.0, "lat": 38.928597333333336, "name": "0de924a5bce96984dafef225ea1b7360", "fusion_lon": 0.0, "bike_id": "0de924a5bce96984dafef225ea1b7360", "is_disabled": 0, "is_reserved": 0}, {"rental_uris": {"ios": "https://dc.lft.to/lastmile_qr_scan", "android": "https://dc.lft.to/lastmile_qr_scan"}, "lon": -77.10507316666667, "type": "electric_bike", "fusion_lat": 0.0, "lat": 38.92850033333333, "name": "aa0320d05bf40180e005526beb7b32c6", "fusion_lon": 0.0, "bike_id": "aa0320d05bf40180e005526beb7b32c6", "is_disabled": 0, "is_reserved": 0}, {"rental_uris": {"ios": "https://dc.lft.to/lastmile_qr_scan", "android": "https://dc.lft.to/lastmile_qr_scan"}, "lon": -77.02358016666666, "type": "electric_scooter", "fusion_lat": 0.0, "lat": 38.945210833333334, "name": "de0397c9633d87302784f4661bed2ef5", "fusion_lon": 0.0, "bike_id": "de0397c9633d87302784f4661bed2ef5", "is_disabled": 0, "is_reserved": 0}, {"rental_uris": {"ios": "https://dc.lft.to/lastmile_qr_scan", "android": "https://dc.lft.to/lastmile_qr_scan"}, "lon": -76.9488945, "type": "electric_scooter", "fusion_lat": 0.0, "lat": 38.895369, "name": "194c9ad33176552e08b91fe41331f672", "fusion_lon": 0.0, "bike_id": "194c9ad33176552e08b91fe41331f672", "is_disabled": 0, "is_reserved": 0}, {"rental_uris": {"ios": "https://dc.lft.to/lastmile_qr_scan", "android": "https://dc.lft.to/lastmile_qr_scan"}, "lon": -77.03852933333333, "type": "electric_scooter", "fusion_lat": 0.0, "lat": 38.920288666666664, "name": "3a8ba382b6fb79172e8a0f2cae392fef", "fusion_lon": 0.0, "bike_id": "3a8ba382b6fb79172e8a0f2cae392fef", "is_disabled": 0, "is_reserved": 0}, {"rental_uris": {"ios": "https://dc.lft.to/lastmile_qr_scan", "android": "https://dc.lft.to/lastmile_qr_scan"}, "lon": -76.99513266666666, "type": "electric_scooter", "fusion_lat": 0.0, "lat": 38.862602333333335, "name": "2a3ba6a3f5e36b000168c4b596147514", "fusion_lon": 0.0, "bike_id": "2a3ba6a3f5e36b000168c4b596147514", "is_disabled": 0, "is_reserved": 0}, {"rental_uris": {"ios": "https://dc.lft.to/lastmile_qr_scan", "android": "https://dc.lft.to/lastmile_qr_scan"}, "lon": -77.058823, "type": "electric_scooter", "fusion_lat": 0.0, "lat": 38.93636883333333, "name": "73b843b7ddc8359c258883624d11789c", "fusion_lon": 0.0, "bike_id": "73b843b7ddc8359c258883624d11789c", "is_disabled": 0, "is_reserved": 0}, {"rental_uris": {"ios": "https://dc.lft.to/lastmile_qr_scan", "android": "https://dc.lft.to/lastmile_qr_scan"}, "lon": -77.00291466666667, "type": "electric_scooter", "fusion_lat": 0.0, "lat": 38.90896583333333, "name": "bcdccfde4114c4d99eeab17a04ad5689", "fusion_lon": 0.0, "bike_id": "bcdccfde4114c4d99eeab17a04ad5689", "is_disabled": 0, "is_reserved": 0}, {"rental_uris": {"ios": "https://dc.lft.to/lastmile_qr_scan", "android": "https://dc.lft.to/lastmile_qr_scan"}, "lon": -77.031961, "type": "electric_scooter", "fusion_lat": 0.0, "lat": 38.92118816666667, "name": "d6412ae3b18a4cb4632f1b0f6af828e3", "fusion_lon": 0.0, "bike_id": "d6412ae3b18a4cb4632f1b0f6af828e3", "is_disabled": 0, "is_reserved": 0}, {"rental_uris": {"ios": "https://dc.lft.to/lastmile_qr_scan", "android": "https://dc.lft.to/lastmile_qr_scan"}, "lon": -77.03766816666666, "type": "electric_scooter", "fusion_lat": 0.0, "lat": 38.928696333333335, "name": "5f7a003d194928a50af796efa5f19120", "fusion_lon": 0.0, "bike_id": "5f7a003d194928a50af796efa5f19120", "is_disabled": 0, "is_reserved": 0}, {"rental_uris": {"ios": "https://dc.lft.to/lastmile_qr_scan", "android": "https://dc.lft.to/lastmile_qr_scan"}, "lon": -77.02151833333333, "type": "electric_scooter", "fusion_lat": 0.0, "lat": 38.89635666666667, "name": "1cec53837e6667adcd8b0b09782cde91", "fusion_lon": 0.0, "bike_id": "1cec53837e6667adcd8b0b09782cde91", "is_disabled": 0, "is_reserved": 0}, {"rental_uris": {"ios": "https://dc.lft.to/lastmile_qr_scan", "android": "https://dc.lft.to/lastmile_qr_scan"}, "lon": -77.04929616666666, "type": "electric_scooter", "fusion_lat": 0.0, "lat": 38.896076666666666, "name": "cb2d562978572c1cbf04a09b2de36a38", "fusion_lon": 0.0, "bike_id": "cb2d562978572c1cbf04a09b2de36a38", "is_disabled": 0, "is_reserved": 0}, {"rental_uris": {"ios": "https://dc.lft.to/lastmile_qr_scan", "android": "https://dc.lft.to/lastmile_qr_scan"}, "lon": -77.01997133333333, "type": "electric_scooter", "fusion_lat": 0.0, "lat": 38.88574833333333, "name": "f421b559a46632259b5ce4fb48092e1f", "fusion_lon": 0.0, "bike_id": "f421b559a46632259b5ce4fb48092e1f", "is_disabled": 0, "is_reserved": 0}, {"rental_uris": {"ios": "https://dc.lft.to/lastmile_qr_scan", "android": "https://dc.lft.to/lastmile_qr_scan"}, "lon": -77.02717616666666, "type": "electric_scooter", "fusion_lat": 0.0, "lat": 38.9068785, "name": "22e0c3e63002551361e9ca013a6233d9", "fusion_lon": 0.0, "bike_id": "22e0c3e63002551361e9ca013a6233d9", "is_disabled": 0, "is_reserved": 0}, {"rental_uris": {"ios": "https://dc.lft.to/lastmile_qr_scan", "android": "https://dc.lft.to/lastmile_qr_scan"}, "lon": -77.07785333333334, "type": "electric_scooter", "fusion_lat": 0.0, "lat": 38.940833, "name": "73b3bcf40ef8d82ef363f8bd43feec17", "fusion_lon": 0.0, "bike_id": "73b3bcf40ef8d82ef363f8bd43feec17", "is_disabled": 0, "is_reserved": 0}, {"rental_uris": {"ios": "https://dc.lft.to/lastmile_qr_scan", "android": "https://dc.lft.to/lastmile_qr_scan"}, "lon": -77.0328335, "type": "electric_scooter", "fusion_lat": 0.0, "lat": 38.93769616666667, "name": "9106c46a9d8994642047ffc84a793464", "fusion_lon": 0.0, "bike_id": "9106c46a9d8994642047ffc84a793464", "is_disabled": 0, "is_reserved": 0}, {"rental_uris": {"ios": "https://dc.lft.to/lastmile_qr_scan", "android": "https://dc.lft.to/lastmile_qr_scan"}, "lon": -77.0071705, "type": "electric_scooter", "fusion_lat": 0.0, "lat": 38.91341083333333, "name": "9273469bd5e0f23d2aa06c26d1fa3cf2", "fusion_lon": 0.0, "bike_id": "9273469bd5e0f23d2aa06c26d1fa3cf2", "is_disabled": 0, "is_reserved": 0}, {"rental_uris": {"ios": "https://dc.lft.to/lastmile_qr_scan", "android": "https://dc.lft.to/lastmile_qr_scan"}, "lon": -77.01617933333333, "type": "electric_scooter", "fusion_lat": 0.0, "lat": 38.8961055, "name": "6e3d58f9e502dfe03f4fe66468e2d590", "fusion_lon": 0.0, "bike_id": "6e3d58f9e502dfe03f4fe66468e2d590", "is_disabled": 0, "is_reserved": 0}, {"rental_uris": {"ios": "https://dc.lft.to/lastmile_qr_scan", "android": "https://dc.lft.to/lastmile_qr_scan"}, "lon": -77.0526375, "type": "electric_scooter", "fusion_lat": 0.0, "lat": 38.910070833333336, "name": "5a6aedfd18dfdab57c3b66b8122b8174", "fusion_lon": 0.0, "bike_id": "5a6aedfd18dfdab57c3b66b8122b8174", "is_disabled": 0, "is_reserved": 0}, {"rental_uris": {"ios": "https://dc.lft.to/lastmile_qr_scan", "android": "https://dc.lft.to/lastmile_qr_scan"}, "lon": -76.92993216666666, "type": "electric_bike", "fusion_lat": 0.0, "lat": 38.888037, "name": "cb0ff937f199b9d9436009616a45cd34", "fusion_lon": 0.0, "bike_id": "cb0ff937f199b9d9436009616a45cd34", "is_disabled": 0, "is_reserved": 0}, {"rental_uris": {"ios": "https://dc.lft.to/lastmile_qr_scan", "android": "https://dc.lft.to/lastmile_qr_scan"}, "lon": -76.93957616666667, "type": "electric_scooter", "fusion_lat": 0.0, "lat": 38.89416966666667, "name": "329fd08f8e16666da5870014ed37398c", "fusion_lon": 0.0, "bike_id": "329fd08f8e16666da5870014ed37398c", "is_disabled": 0, "is_reserved": 0}, {"rental_uris": {"ios": "https://dc.lft.to/lastmile_qr_scan", "android": "https://dc.lft.to/lastmile_qr_scan"}, "lon": -77.01317866666666, "type": "electric_scooter", "fusion_lat": 0.0, "lat": 38.897392833333335, "name": "f2905319bc092108622497866acdfa3a", "fusion_lon": 0.0, "bike_id": "f2905319bc092108622497866acdfa3a", "is_disabled": 0, "is_reserved": 0}, {"rental_uris": {"ios": "https://dc.lft.to/lastmile_qr_scan", "android": "https://dc.lft.to/lastmile_qr_scan"}, "lon": -77.02458933333334, "type": "electric_scooter", "fusion_lat": 0.0, "lat": 38.936201833333335, "name": "bf35995f5d795550cbd5b1082fd6ff57", "fusion_lon": 0.0, "bike_id": "bf35995f5d795550cbd5b1082fd6ff57", "is_disabled": 0, "is_reserved": 0}, {"rental_uris": {"ios": "https://dc.lft.to/lastmile_qr_scan", "android": "https://dc.lft.to/lastmile_qr_scan"}, "lon": -77.01376066666667, "type": "electric_scooter", "fusion_lat": 0.0, "lat": 38.88657033333333, "name": "e8a6f8cebdc8f3f06e16f86540bf1132", "fusion_lon": 0.0, "bike_id": "e8a6f8cebdc8f3f06e16f86540bf1132", "is_disabled": 0, "is_reserved": 0}, {"rental_uris": {"ios": "https://dc.lft.to/lastmile_qr_scan", "android": "https://dc.lft.to/lastmile_qr_scan"}, "lon": -77.03860166666666, "type": "electric_scooter", "fusion_lat": 0.0, "lat": 38.909348666666666, "name": "817af5b8937e78bdf5ce9e8f81909441", "fusion_lon": 0.0, "bike_id": "817af5b8937e78bdf5ce9e8f81909441", "is_disabled": 0, "is_reserved": 0}, {"rental_uris": {"ios": "https://dc.lft.to/lastmile_qr_scan", "android": "https://dc.lft.to/lastmile_qr_scan"}, "lon": -77.0526885, "type": "electric_scooter", "fusion_lat": 0.0, "lat": 38.93440533333333, "name": "48c1f68b660058fad0723c4e119e69a8", "fusion_lon": 0.0, "bike_id": "48c1f68b660058fad0723c4e119e69a8", "is_disabled": 0, "is_reserved": 0}, {"rental_uris": {"ios": "https://dc.lft.to/lastmile_qr_scan", "android": "https://dc.lft.to/lastmile_qr_scan"}, "lon": -77.02863916666666, "type": "electric_scooter", "fusion_lat": 0.0, "lat": 38.908705499999996, "name": "c7d84df6632cf5502154a3976bbca791", "fusion_lon": 0.0, "bike_id": "c7d84df6632cf5502154a3976bbca791", "is_disabled": 0, "is_reserved": 0}, {"rental_uris": {"ios": "https://dc.lft.to/lastmile_qr_scan", "android": "https://dc.lft.to/lastmile_qr_scan"}, "lon": -77.04292016666666, "type": "electric_scooter", "fusion_lat": 0.0, "lat": 38.89536866666667, "name": "a1d8d1f0f1badcd36fa9da3babebd45f", "fusion_lon": 0.0, "bike_id": "a1d8d1f0f1badcd36fa9da3babebd45f", "is_disabled": 0, "is_reserved": 0}, {"rental_uris": {"ios": "https://dc.lft.to/lastmile_qr_scan", "android": "https://dc.lft.to/lastmile_qr_scan"}, "lon": -77.03774583333333, "type": "electric_scooter", "fusion_lat": 0.0, "lat": 38.93014016666667, "name": "4ddcd5c42ef5adb37ecb5cc6fc4dcfb1", "fusion_lon": 0.0, "bike_id": "4ddcd5c42ef5adb37ecb5cc6fc4dcfb1", "is_disabled": 0, "is_reserved": 0}, {"rental_uris": {"ios": "https://dc.lft.to/lastmile_qr_scan", "android": "https://dc.lft.to/lastmile_qr_scan"}, "lon": -76.95901933333333, "type": "electric_scooter", "fusion_lat": 0.0, "lat": 38.92689816666667, "name": "e11e5e45ce18f917d2ec71c9d2e2374b", "fusion_lon": 0.0, "bike_id": "e11e5e45ce18f917d2ec71c9d2e2374b", "is_disabled": 0, "is_reserved": 0}, {"rental_uris": {"ios": "https://dc.lft.to/lastmile_qr_scan", "android": "https://dc.lft.to/lastmile_qr_scan"}, "lon": -77.04875433333333, "type": "electric_scooter", "fusion_lat": 0.0, "lat": 38.90568566666666, "name": "41485df41a63c3c17784e69c9d2ca6f5", "fusion_lon": 0.0, "bike_id": "41485df41a63c3c17784e69c9d2ca6f5", "is_disabled": 0, "is_reserved": 0}, {"rental_uris": {"ios": "https://dc.lft.to/lastmile_qr_scan", "android": "https://dc.lft.to/lastmile_qr_scan"}, "lon": -76.97997866666667, "type": "electric_bike", "fusion_lat": 0.0, "lat": 38.90023733333334, "name": "5403f1c22ebf38daae5e998431e169cf", "fusion_lon": 0.0, "bike_id": "5403f1c22ebf38daae5e998431e169cf", "is_disabled": 0, "is_reserved": 0}, {"rental_uris": {"ios": "https://dc.lft.to/lastmile_qr_scan", "android": "https://dc.lft.to/lastmile_qr_scan"}, "lon": -77.0327985, "type": "electric_scooter", "fusion_lat": 0.0, "lat": 38.93880766666667, "name": "a535da981cbb9d9417f347c2ba65fb05", "fusion_lon": 0.0, "bike_id": "a535da981cbb9d9417f347c2ba65fb05", "is_disabled": 0, "is_reserved": 0}, {"rental_uris": {"ios": "https://dc.lft.to/lastmile_qr_scan", "android": "https://dc.lft.to/lastmile_qr_scan"}, "lon": -76.931806, "type": "electric_scooter", "fusion_lat": 0.0, "lat": 38.89880933333333, "name": "f818a57886a9cb8fdef0b43c00d37a64", "fusion_lon": 0.0, "bike_id": "f818a57886a9cb8fdef0b43c00d37a64", "is_disabled": 0, "is_reserved": 0}, {"rental_uris": {"ios": "https://dc.lft.to/lastmile_qr_scan", "android": "https://dc.lft.to/lastmile_qr_scan"}, "lon": -77.01111133333333, "type": "electric_scooter", "fusion_lat": 0.0, "lat": 38.903521166666664, "name": "37d5ce922ef704b413bd953bd4c58155", "fusion_lon": 0.0, "bike_id": "37d5ce922ef704b413bd953bd4c58155", "is_disabled": 0, "is_reserved": 0}, {"rental_uris": {"ios": "https://dc.lft.to/lastmile_qr_scan", "android": "https://dc.lft.to/lastmile_qr_scan"}, "lon": -76.951882, "type": "electric_bike", "fusion_lat": 0.0, "lat": 38.906996666666664, "name": "bfd1e8342dc1f79ca59b4f54fe83178e", "fusion_lon": 0.0, "bike_id": "bfd1e8342dc1f79ca59b4f54fe83178e", "is_disabled": 0, "is_reserved": 0}, {"rental_uris": {"ios": "https://dc.lft.to/lastmile_qr_scan", "android": "https://dc.lft.to/lastmile_qr_scan"}, "lon": -77.03665583333333, "type": "electric_scooter", "fusion_lat": 0.0, "lat": 38.91867233333333, "name": "a163dd0f60d31a393860b926a9805a1f", "fusion_lon": 0.0, "bike_id": "a163dd0f60d31a393860b926a9805a1f", "is_disabled": 0, "is_reserved": 0}, {"rental_uris": {"ios": "https://dc.lft.to/lastmile_qr_scan", "android": "https://dc.lft.to/lastmile_qr_scan"}, "lon": -77.04413033333333, "type": "electric_scooter", "fusion_lat": 0.0, "lat": 38.91306433333333, "name": "d6257430946648b5cb533f9912294179", "fusion_lon": 0.0, "bike_id": "d6257430946648b5cb533f9912294179", "is_disabled": 0, "is_reserved": 0}, {"rental_uris": {"ios": "https://dc.lft.to/lastmile_qr_scan", "android": "https://dc.lft.to/lastmile_qr_scan"}, "lon": -77.02713716666666, "type": "electric_scooter", "fusion_lat": 0.0, "lat": 38.924676166666664, "name": "c3f2b74be2adbe93974f36700c6e8212", "fusion_lon": 0.0, "bike_id": "c3f2b74be2adbe93974f36700c6e8212", "is_disabled": 0, "is_reserved": 0}, {"rental_uris": {"ios": "https://dc.lft.to/lastmile_qr_scan", "android": "https://dc.lft.to/lastmile_qr_scan"}, "lon": -77.01223183333333, "type": "electric_scooter", "fusion_lat": 0.0, "lat": 38.9097745, "name": "7132cb774f4352ca386bf44ff8672b5b", "fusion_lon": 0.0, "bike_id": "7132cb774f4352ca386bf44ff8672b5b", "is_disabled": 0, "is_reserved": 0}, {"rental_uris": {"ios": "https://dc.lft.to/lastmile_qr_scan", "android": "https://dc.lft.to/lastmile_qr_scan"}, "lon": -76.98584366666667, "type": "electric_scooter", "fusion_lat": 0.0, "lat": 38.90661016666667, "name": "2f68bf786d7ecaa164c32595e3bc00fd", "fusion_lon": 0.0, "bike_id": "2f68bf786d7ecaa164c32595e3bc00fd", "is_disabled": 0, "is_reserved": 0}, {"rental_uris": {"ios": "https://dc.lft.to/lastmile_qr_scan", "android": "https://dc.lft.to/lastmile_qr_scan"}, "lon": -77.01758333333333, "type": "electric_scooter", "fusion_lat": 0.0, "lat": 38.87687416666667, "name": "55f4d1c7dc77d3c2ad7412399142c0e7", "fusion_lon": 0.0, "bike_id": "55f4d1c7dc77d3c2ad7412399142c0e7", "is_disabled": 0, "is_reserved": 0}, {"rental_uris": {"ios": "https://dc.lft.to/lastmile_qr_scan", "android": "https://dc.lft.to/lastmile_qr_scan"}, "lon": -76.988204, "type": "electric_scooter", "fusion_lat": 0.0, "lat": 38.9033355, "name": "35d65a81f21e99ebf01650a90717a440", "fusion_lon": 0.0, "bike_id": "35d65a81f21e99ebf01650a90717a440", "is_disabled": 0, "is_reserved": 0}, {"rental_uris": {"ios": "https://dc.lft.to/lastmile_qr_scan", "android": "https://dc.lft.to/lastmile_qr_scan"}, "lon": -77.05323616666666, "type": "electric_scooter", "fusion_lat": 0.0, "lat": 38.93965766666667, "name": "2196e4d59c0dabb3f56f21344ae0bc70", "fusion_lon": 0.0, "bike_id": "2196e4d59c0dabb3f56f21344ae0bc70", "is_disabled": 0, "is_reserved": 0}, {"rental_uris": {"ios": "https://dc.lft.to/lastmile_qr_scan", "android": "https://dc.lft.to/lastmile_qr_scan"}, "lon": -77.01182733333333, "type": "electric_scooter", "fusion_lat": 0.0, "lat": 38.9065405, "name": "9d714b55ddc1c90a7c27e7104d6c2e3e", "fusion_lon": 0.0, "bike_id": "9d714b55ddc1c90a7c27e7104d6c2e3e", "is_disabled": 0, "is_reserved": 0}, {"rental_uris": {"ios": "https://dc.lft.to/lastmile_qr_scan", "android": "https://dc.lft.to/lastmile_qr_scan"}, "lon": -76.93309716666667, "type": "electric_scooter", "fusion_lat": 0.0, "lat": 38.898844833333335, "name": "35bdbcd7ca1de8810d01d6a0c45c7aaf", "fusion_lon": 0.0, "bike_id": "35bdbcd7ca1de8810d01d6a0c45c7aaf", "is_disabled": 0, "is_reserved": 0}, {"rental_uris": {"ios": "https://dc.lft.to/lastmile_qr_scan", "android": "https://dc.lft.to/lastmile_qr_scan"}, "lon": -77.09555683333333, "type": "electric_scooter", "fusion_lat": 0.0, "lat": 38.916605833333335, "name": "934b94fae3e591d65368b978abd06cfe", "fusion_lon": 0.0, "bike_id": "934b94fae3e591d65368b978abd06cfe", "is_disabled": 0, "is_reserved": 0}, {"rental_uris": {"ios": "https://dc.lft.to/lastmile_qr_scan", "android": "https://dc.lft.to/lastmile_qr_scan"}, "lon": -77.02749533333333, "type": "electric_scooter", "fusion_lat": 0.0, "lat": 38.923776, "name": "637aede658c3a691fcaea72092ce45e0", "fusion_lon": 0.0, "bike_id": "637aede658c3a691fcaea72092ce45e0", "is_disabled": 0, "is_reserved": 0}, {"rental_uris": {"ios": "https://dc.lft.to/lastmile_qr_scan", "android": "https://dc.lft.to/lastmile_qr_scan"}, "lon": -77.02974516666667, "type": "electric_scooter", "fusion_lat": 0.0, "lat": 38.905199333333336, "name": "697bbf918ff3db5d09dff134e5f31b8b", "fusion_lon": 0.0, "bike_id": "697bbf918ff3db5d09dff134e5f31b8b", "is_disabled": 0, "is_reserved": 0}, {"rental_uris": {"ios": "https://dc.lft.to/lastmile_qr_scan", "android": "https://dc.lft.to/lastmile_qr_scan"}, "lon": -76.984973, "type": "electric_scooter", "fusion_lat": 0.0, "lat": 38.860459, "name": "02e7ddd56fc3fda65378089ab29ab319", "fusion_lon": 0.0, "bike_id": "02e7ddd56fc3fda65378089ab29ab319", "is_disabled": 0, "is_reserved": 0}, {"rental_uris": {"ios": "https://dc.lft.to/lastmile_qr_scan", "android": "https://dc.lft.to/lastmile_qr_scan"}, "lon": -76.995962, "type": "electric_scooter", "fusion_lat": 0.0, "lat": 38.84543716666667, "name": "a75b832cb4a068fe784478b747ee5f40", "fusion_lon": 0.0, "bike_id": "a75b832cb4a068fe784478b747ee5f40", "is_disabled": 0, "is_reserved": 0}, {"rental_uris": {"ios": "https://dc.lft.to/lastmile_qr_scan", "android": "https://dc.lft.to/lastmile_qr_scan"}, "lon": -77.036565, "type": "electric_scooter", "fusion_lat": 0.0, "lat": 38.91812816666667, "name": "38de8ad9ae3c4426f7fdabad4c6ef6ce", "fusion_lon": 0.0, "bike_id": "38de8ad9ae3c4426f7fdabad4c6ef6ce", "is_disabled": 0, "is_reserved": 0}, {"rental_uris": {"ios": "https://dc.lft.to/lastmile_qr_scan", "android": "https://dc.lft.to/lastmile_qr_scan"}, "lon": -77.04705783333333, "type": "electric_scooter", "fusion_lat": 0.0, "lat": 38.92170183333333, "name": "41c0e9c4afbb6ebadb5a83e841bb585a", "fusion_lon": 0.0, "bike_id": "41c0e9c4afbb6ebadb5a83e841bb585a", "is_disabled": 0, "is_reserved": 0}, {"rental_uris": {"ios": "https://dc.lft.to/lastmile_qr_scan", "android": "https://dc.lft.to/lastmile_qr_scan"}, "lon": -77.03648883333334, "type": "electric_scooter", "fusion_lat": 0.0, "lat": 38.9027145, "name": "8745b569b65343b80dc306e0433f221d", "fusion_lon": 0.0, "bike_id": "8745b569b65343b80dc306e0433f221d", "is_disabled": 0, "is_reserved": 0}, {"rental_uris": {"ios": "https://dc.lft.to/lastmile_qr_scan", "android": "https://dc.lft.to/lastmile_qr_scan"}, "lon": -77.04220033333333, "type": "electric_scooter", "fusion_lat": 0.0, "lat": 38.906019666666666, "name": "535b30f1df285b9faed34cba5584f860", "fusion_lon": 0.0, "bike_id": "535b30f1df285b9faed34cba5584f860", "is_disabled": 0, "is_reserved": 0}, {"rental_uris": {"ios": "https://dc.lft.to/lastmile_qr_scan", "android": "https://dc.lft.to/lastmile_qr_scan"}, "lon": -76.97893616666667, "type": "electric_scooter", "fusion_lat": 0.0, "lat": 38.904192333333334, "name": "ea20169821358eaba3913562d74a786a", "fusion_lon": 0.0, "bike_id": "ea20169821358eaba3913562d74a786a", "is_disabled": 0, "is_reserved": 0}, {"rental_uris": {"ios": "https://dc.lft.to/lastmile_qr_scan", "android": "https://dc.lft.to/lastmile_qr_scan"}, "lon": -77.06349716666666, "type": "electric_scooter", "fusion_lat": 0.0, "lat": 38.944503833333336, "name": "a2ca343adc819c182b5f59fe74f9e814", "fusion_lon": 0.0, "bike_id": "a2ca343adc819c182b5f59fe74f9e814", "is_disabled": 0, "is_reserved": 0}, {"rental_uris": {"ios": "https://dc.lft.to/lastmile_qr_scan", "android": "https://dc.lft.to/lastmile_qr_scan"}, "lon": -77.03907983333333, "type": "electric_scooter", "fusion_lat": 0.0, "lat": 38.891981333333334, "name": "baf91442b2fd879549bdbad926a8fa9f", "fusion_lon": 0.0, "bike_id": "baf91442b2fd879549bdbad926a8fa9f", "is_disabled": 0, "is_reserved": 0}, {"rental_uris": {"ios": "https://dc.lft.to/lastmile_qr_scan", "android": "https://dc.lft.to/lastmile_qr_scan"}, "lon": -77.03477366666667, "type": "electric_scooter", "fusion_lat": 0.0, "lat": 38.907744, "name": "982cd55da37eb3c108d3e95e98f6e97a", "fusion_lon": 0.0, "bike_id": "982cd55da37eb3c108d3e95e98f6e97a", "is_disabled": 0, "is_reserved": 0}, {"rental_uris": {"ios": "https://dc.lft.to/lastmile_qr_scan", "android": "https://dc.lft.to/lastmile_qr_scan"}, "lon": -76.9978975, "type": "electric_scooter", "fusion_lat": 0.0, "lat": 38.92178283333333, "name": "5c61a076204d0dc9ff49d33543358062", "fusion_lon": 0.0, "bike_id": "5c61a076204d0dc9ff49d33543358062", "is_disabled": 0, "is_reserved": 0}, {"rental_uris": {"ios": "https://dc.lft.to/lastmile_qr_scan", "android": "https://dc.lft.to/lastmile_qr_scan"}, "lon": -77.01391166666667, "type": "electric_scooter", "fusion_lat": 0.0, "lat": 38.970159833333334, "name": "abbdbce7707354f908137d6590ec490b", "fusion_lon": 0.0, "bike_id": "abbdbce7707354f908137d6590ec490b", "is_disabled": 0, "is_reserved": 0}, {"rental_uris": {"ios": "https://dc.lft.to/lastmile_qr_scan", "android": "https://dc.lft.to/lastmile_qr_scan"}, "lon": -77.0315115, "type": "electric_scooter", "fusion_lat": 0.0, "lat": 38.915647666666665, "name": "4be89b888635908b25055057029d2698", "fusion_lon": 0.0, "bike_id": "4be89b888635908b25055057029d2698", "is_disabled": 0, "is_reserved": 0}, {"rental_uris": {"ios": "https://dc.lft.to/lastmile_qr_scan", "android": "https://dc.lft.to/lastmile_qr_scan"}, "lon": -77.0271225, "type": "electric_scooter", "fusion_lat": 0.0, "lat": 38.91821383333333, "name": "5a7fa0fd5c927b60dfc1ab9509aa1cfd", "fusion_lon": 0.0, "bike_id": "5a7fa0fd5c927b60dfc1ab9509aa1cfd", "is_disabled": 0, "is_reserved": 0}, {"rental_uris": {"ios": "https://dc.lft.to/lastmile_qr_scan", "android": "https://dc.lft.to/lastmile_qr_scan"}, "lon": -76.98742383333334, "type": "electric_bike", "fusion_lat": 0.0, "lat": 38.85789283333333, "name": "e39163e7a68314e304c3f0bc70a287b7", "fusion_lon": 0.0, "bike_id": "e39163e7a68314e304c3f0bc70a287b7", "is_disabled": 0, "is_reserved": 0}, {"rental_uris": {"ios": "https://dc.lft.to/lastmile_qr_scan", "android": "https://dc.lft.to/lastmile_qr_scan"}, "lon": -77.015285, "type": "electric_scooter", "fusion_lat": 0.0, "lat": 38.90202983333333, "name": "8d18e0b0a5cded4b765ec5a54324e7e6", "fusion_lon": 0.0, "bike_id": "8d18e0b0a5cded4b765ec5a54324e7e6", "is_disabled": 0, "is_reserved": 0}, {"rental_uris": {"ios": "https://dc.lft.to/lastmile_qr_scan", "android": "https://dc.lft.to/lastmile_qr_scan"}, "lon": -76.98568766666666, "type": "electric_scooter", "fusion_lat": 0.0, "lat": 38.89202783333333, "name": "03acb54ef9f7991ae072cc86218f3ed4", "fusion_lon": 0.0, "bike_id": "03acb54ef9f7991ae072cc86218f3ed4", "is_disabled": 0, "is_reserved": 0}, {"rental_uris": {"ios": "https://dc.lft.to/lastmile_qr_scan", "android": "https://dc.lft.to/lastmile_qr_scan"}, "lon": -77.1009255, "type": "electric_bike", "fusion_lat": 0.0, "lat": 38.959579166666664, "name": "2ab5e07a5262b27078646ce5969b3724", "fusion_lon": 0.0, "bike_id": "2ab5e07a5262b27078646ce5969b3724", "is_disabled": 0, "is_reserved": 0}, {"rental_uris": {"ios": "https://dc.lft.to/lastmile_qr_scan", "android": "https://dc.lft.to/lastmile_qr_scan"}, "lon": -77.04098833333333, "type": "electric_scooter", "fusion_lat": 0.0, "lat": 38.91770183333333, "name": "2a26061b6412162b4e699128e44bfdfc", "fusion_lon": 0.0, "bike_id": "2a26061b6412162b4e699128e44bfdfc", "is_disabled": 0, "is_reserved": 0}, {"rental_uris": {"ios": "https://dc.lft.to/lastmile_qr_scan", "android": "https://dc.lft.to/lastmile_qr_scan"}, "lon": -77.0209665, "type": "electric_scooter", "fusion_lat": 0.0, "lat": 38.910063, "name": "bcd4acc318ec649e02e7471a68162894", "fusion_lon": 0.0, "bike_id": "bcd4acc318ec649e02e7471a68162894", "is_disabled": 0, "is_reserved": 0}, {"rental_uris": {"ios": "https://dc.lft.to/lastmile_qr_scan", "android": "https://dc.lft.to/lastmile_qr_scan"}, "lon": -77.05331166666667, "type": "electric_scooter", "fusion_lat": 0.0, "lat": 38.9002195, "name": "7fea7e0cbb73b8b7dd6b67339be8ab5f", "fusion_lon": 0.0, "bike_id": "7fea7e0cbb73b8b7dd6b67339be8ab5f", "is_disabled": 0, "is_reserved": 0}, {"rental_uris": {"ios": "https://dc.lft.to/lastmile_qr_scan", "android": "https://dc.lft.to/lastmile_qr_scan"}, "lon": -77.03390533333334, "type": "electric_scooter", "fusion_lat": 0.0, "lat": 38.899546, "name": "84122d5fa10f53dff097bbe268d71ac6", "fusion_lon": 0.0, "bike_id": "84122d5fa10f53dff097bbe268d71ac6", "is_disabled": 0, "is_reserved": 0}, {"rental_uris": {"ios": "https://dc.lft.to/lastmile_qr_scan", "android": "https://dc.lft.to/lastmile_qr_scan"}, "lon": -77.01507216666667, "type": "electric_scooter", "fusion_lat": 0.0, "lat": 38.9020225, "name": "13d915b9601fa884bb5b71d5ad8c289c", "fusion_lon": 0.0, "bike_id": "13d915b9601fa884bb5b71d5ad8c289c", "is_disabled": 0, "is_reserved": 0}, {"rental_uris": {"ios": "https://dc.lft.to/lastmile_qr_scan", "android": "https://dc.lft.to/lastmile_qr_scan"}, "lon": -76.97988683333334, "type": "electric_bike", "fusion_lat": 0.0, "lat": 38.87751883333333, "name": "646f08ae8ba2bdc10492ca20a4923c38", "fusion_lon": 0.0, "bike_id": "646f08ae8ba2bdc10492ca20a4923c38", "is_disabled": 0, "is_reserved": 0}, {"rental_uris": {"ios": "https://dc.lft.to/lastmile_qr_scan", "android": "https://dc.lft.to/lastmile_qr_scan"}, "lon": -77.36087983333333, "type": "electric_bike", "fusion_lat": 0.0, "lat": 38.9395385, "name": "356e0391bcd0d8fbb9fd746aef601fb5", "fusion_lon": 0.0, "bike_id": "356e0391bcd0d8fbb9fd746aef601fb5", "is_disabled": 0, "is_reserved": 0}, {"rental_uris": {"ios": "https://dc.lft.to/lastmile_qr_scan", "android": "https://dc.lft.to/lastmile_qr_scan"}, "lon": -77.04013783333333, "type": "electric_scooter", "fusion_lat": 0.0, "lat": 38.90030983333333, "name": "fac360969eaaafde3c6e00c809e11c06", "fusion_lon": 0.0, "bike_id": "fac360969eaaafde3c6e00c809e11c06", "is_disabled": 0, "is_reserved": 0}, {"rental_uris": {"ios": "https://dc.lft.to/lastmile_qr_scan", "android": "https://dc.lft.to/lastmile_qr_scan"}, "lon": -77.00199916666666, "type": "electric_bike", "fusion_lat": 0.0, "lat": 38.9415745, "name": "859e821cf63a7288e179169c56c9d3c9", "fusion_lon": 0.0, "bike_id": "859e821cf63a7288e179169c56c9d3c9", "is_disabled": 0, "is_reserved": 0}, {"rental_uris": {"ios": "https://dc.lft.to/lastmile_qr_scan", "android": "https://dc.lft.to/lastmile_qr_scan"}, "lon": -77.027227, "type": "electric_scooter", "fusion_lat": 0.0, "lat": 38.90971033333334, "name": "816f7c5e1575f7e014b14fb73a801673", "fusion_lon": 0.0, "bike_id": "816f7c5e1575f7e014b14fb73a801673", "is_disabled": 0, "is_reserved": 0}, {"rental_uris": {"ios": "https://dc.lft.to/lastmile_qr_scan", "android": "https://dc.lft.to/lastmile_qr_scan"}, "lon": -77.03293133333334, "type": "electric_scooter", "fusion_lat": 0.0, "lat": 38.922165666666665, "name": "7a5514fd3c8ccadbab797e247247ee55", "fusion_lon": 0.0, "bike_id": "7a5514fd3c8ccadbab797e247247ee55", "is_disabled": 0, "is_reserved": 0}, {"rental_uris": {"ios": "https://dc.lft.to/lastmile_qr_scan", "android": "https://dc.lft.to/lastmile_qr_scan"}, "lon": -77.02414316666666, "type": "electric_scooter", "fusion_lat": 0.0, "lat": 38.90241183333333, "name": "e919e50ddf4368342434d6b7de1291d4", "fusion_lon": 0.0, "bike_id": "e919e50ddf4368342434d6b7de1291d4", "is_disabled": 0, "is_reserved": 0}, {"rental_uris": {"ios": "https://dc.lft.to/lastmile_qr_scan", "android": "https://dc.lft.to/lastmile_qr_scan"}, "lon": -77.01010966666666, "type": "electric_scooter", "fusion_lat": 0.0, "lat": 38.90692116666666, "name": "5042220aacd8224535a96b51cb069b9b", "fusion_lon": 0.0, "bike_id": "5042220aacd8224535a96b51cb069b9b", "is_disabled": 0, "is_reserved": 0}, {"rental_uris": {"ios": "https://dc.lft.to/lastmile_qr_scan", "android": "https://dc.lft.to/lastmile_qr_scan"}, "lon": -77.02456316666667, "type": "electric_scooter", "fusion_lat": 0.0, "lat": 38.9085795, "name": "3a2c8983b6a45d0172351eb1570e910a", "fusion_lon": 0.0, "bike_id": "3a2c8983b6a45d0172351eb1570e910a", "is_disabled": 0, "is_reserved": 0}, {"rental_uris": {"ios": "https://dc.lft.to/lastmile_qr_scan", "android": "https://dc.lft.to/lastmile_qr_scan"}, "lon": -77.03455883333334, "type": "electric_scooter", "fusion_lat": 0.0, "lat": 38.90272016666667, "name": "39ea9124e0255f6d0fdd576549132fb2", "fusion_lon": 0.0, "bike_id": "39ea9124e0255f6d0fdd576549132fb2", "is_disabled": 0, "is_reserved": 0}, {"rental_uris": {"ios": "https://dc.lft.to/lastmile_qr_scan", "android": "https://dc.lft.to/lastmile_qr_scan"}, "lon": -77.0335445, "type": "electric_scooter", "fusion_lat": 0.0, "lat": 38.916930666666666, "name": "7afa09651ac102e6d392d6b364fd1748", "fusion_lon": 0.0, "bike_id": "7afa09651ac102e6d392d6b364fd1748", "is_disabled": 0, "is_reserved": 0}, {"rental_uris": {"ios": "https://dc.lft.to/lastmile_qr_scan", "android": "https://dc.lft.to/lastmile_qr_scan"}, "lon": -77.0172175, "type": "electric_scooter", "fusion_lat": 0.0, "lat": 38.9038525, "name": "63c67cf581bff817209a6823078e27ff", "fusion_lon": 0.0, "bike_id": "63c67cf581bff817209a6823078e27ff", "is_disabled": 0, "is_reserved": 0}, {"rental_uris": {"ios": "https://dc.lft.to/lastmile_qr_scan", "android": "https://dc.lft.to/lastmile_qr_scan"}, "lon": -77.01295216666666, "type": "electric_bike", "fusion_lat": 0.0, "lat": 38.88122883333333, "name": "e2446cff7c4f38b66d59945b49002493", "fusion_lon": 0.0, "bike_id": "e2446cff7c4f38b66d59945b49002493", "is_disabled": 0, "is_reserved": 0}, {"rental_uris": {"ios": "https://dc.lft.to/lastmile_qr_scan", "android": "https://dc.lft.to/lastmile_qr_scan"}, "lon": -77.02416, "type": "electric_scooter", "fusion_lat": 0.0, "lat": 38.920461833333334, "name": "8de7789ac103d3070901be3740894884", "fusion_lon": 0.0, "bike_id": "8de7789ac103d3070901be3740894884", "is_disabled": 0, "is_reserved": 0}, {"rental_uris": {"ios": "https://dc.lft.to/lastmile_qr_scan", "android": "https://dc.lft.to/lastmile_qr_scan"}, "lon": -76.9732905, "type": "electric_scooter", "fusion_lat": 0.0, "lat": 38.91777583333333, "name": "9813826fcdf12aa58ea64d6905a8782c", "fusion_lon": 0.0, "bike_id": "9813826fcdf12aa58ea64d6905a8782c", "is_disabled": 0, "is_reserved": 0}, {"rental_uris": {"ios": "https://dc.lft.to/lastmile_qr_scan", "android": "https://dc.lft.to/lastmile_qr_scan"}, "lon": -77.00576216666667, "type": "electric_scooter", "fusion_lat": 0.0, "lat": 38.8449645, "name": "fabf01b5c1c9125a4c3cf47f1e8331cd", "fusion_lon": 0.0, "bike_id": "fabf01b5c1c9125a4c3cf47f1e8331cd", "is_disabled": 0, "is_reserved": 0}, {"rental_uris": {"ios": "https://dc.lft.to/lastmile_qr_scan", "android": "https://dc.lft.to/lastmile_qr_scan"}, "lon": -77.04517733333333, "type": "electric_scooter", "fusion_lat": 0.0, "lat": 38.912822, "name": "ae46b4caf25fe177e2562410e31a4865", "fusion_lon": 0.0, "bike_id": "ae46b4caf25fe177e2562410e31a4865", "is_disabled": 0, "is_reserved": 0}, {"rental_uris": {"ios": "https://dc.lft.to/lastmile_qr_scan", "android": "https://dc.lft.to/lastmile_qr_scan"}, "lon": -77.015357, "type": "electric_scooter", "fusion_lat": 0.0, "lat": 38.88734866666667, "name": "3e68f1fc4c058a8340d3e98236e73f0c", "fusion_lon": 0.0, "bike_id": "3e68f1fc4c058a8340d3e98236e73f0c", "is_disabled": 0, "is_reserved": 0}, {"rental_uris": {"ios": "https://dc.lft.to/lastmile_qr_scan", "android": "https://dc.lft.to/lastmile_qr_scan"}, "lon": -77.03151683333333, "type": "electric_scooter", "fusion_lat": 0.0, "lat": 38.945324, "name": "9c4d3e1f5ff72d262a1d8c710329eecf", "fusion_lon": 0.0, "bike_id": "9c4d3e1f5ff72d262a1d8c710329eecf", "is_disabled": 0, "is_reserved": 0}, {"rental_uris": {"ios": "https://dc.lft.to/lastmile_qr_scan", "android": "https://dc.lft.to/lastmile_qr_scan"}, "lon": -77.0431395, "type": "electric_scooter", "fusion_lat": 0.0, "lat": 38.918821, "name": "7db7a2a15749aa602050f246ce5ca0fc", "fusion_lon": 0.0, "bike_id": "7db7a2a15749aa602050f246ce5ca0fc", "is_disabled": 0, "is_reserved": 0}, {"rental_uris": {"ios": "https://dc.lft.to/lastmile_qr_scan", "android": "https://dc.lft.to/lastmile_qr_scan"}, "lon": -77.02419983333333, "type": "electric_scooter", "fusion_lat": 0.0, "lat": 38.918228, "name": "a82eb770cc4a205d620cbc538d1b93ef", "fusion_lon": 0.0, "bike_id": "a82eb770cc4a205d620cbc538d1b93ef", "is_disabled": 0, "is_reserved": 0}, {"rental_uris": {"ios": "https://dc.lft.to/lastmile_qr_scan", "android": "https://dc.lft.to/lastmile_qr_scan"}, "lon": -76.97327783333333, "type": "electric_bike", "fusion_lat": 0.0, "lat": 38.85063733333333, "name": "5317ff5f1b372f4b75f4012661467888", "fusion_lon": 0.0, "bike_id": "5317ff5f1b372f4b75f4012661467888", "is_disabled": 0, "is_reserved": 0}, {"rental_uris": {"ios": "https://dc.lft.to/lastmile_qr_scan", "android": "https://dc.lft.to/lastmile_qr_scan"}, "lon": -77.050392, "type": "electric_scooter", "fusion_lat": 0.0, "lat": 38.896531333333336, "name": "7435411125fcb27158373ab4be704a86", "fusion_lon": 0.0, "bike_id": "7435411125fcb27158373ab4be704a86", "is_disabled": 0, "is_reserved": 0}, {"rental_uris": {"ios": "https://dc.lft.to/lastmile_qr_scan", "android": "https://dc.lft.to/lastmile_qr_scan"}, "lon": -77.04595333333333, "type": "electric_scooter", "fusion_lat": 0.0, "lat": 38.902362, "name": "05a035742937e6e884d1496e5cf9129e", "fusion_lon": 0.0, "bike_id": "05a035742937e6e884d1496e5cf9129e", "is_disabled": 0, "is_reserved": 0}, {"rental_uris": {"ios": "https://dc.lft.to/lastmile_qr_scan", "android": "https://dc.lft.to/lastmile_qr_scan"}, "lon": -77.05263483333333, "type": "electric_scooter", "fusion_lat": 0.0, "lat": 38.9101695, "name": "3dc697c8463dac72482bc80719e28636", "fusion_lon": 0.0, "bike_id": "3dc697c8463dac72482bc80719e28636", "is_disabled": 0, "is_reserved": 0}, {"rental_uris": {"ios": "https://dc.lft.to/lastmile_qr_scan", "android": "https://dc.lft.to/lastmile_qr_scan"}, "lon": -77.03800983333333, "type": "electric_scooter", "fusion_lat": 0.0, "lat": 38.92185583333333, "name": "414d04ea85a1eb137e256442e5883b93", "fusion_lon": 0.0, "bike_id": "414d04ea85a1eb137e256442e5883b93", "is_disabled": 0, "is_reserved": 0}, {"rental_uris": {"ios": "https://dc.lft.to/lastmile_qr_scan", "android": "https://dc.lft.to/lastmile_qr_scan"}, "lon": -77.0396845, "type": "electric_scooter", "fusion_lat": 0.0, "lat": 38.902842, "name": "aff17917bae27001388621c9fb457ac4", "fusion_lon": 0.0, "bike_id": "aff17917bae27001388621c9fb457ac4", "is_disabled": 0, "is_reserved": 0}, {"rental_uris": {"ios": "https://dc.lft.to/lastmile_qr_scan", "android": "https://dc.lft.to/lastmile_qr_scan"}, "lon": -77.03672016666667, "type": "electric_scooter", "fusion_lat": 0.0, "lat": 38.92999433333333, "name": "900f97f228c0e49294de78cbaf0e4767", "fusion_lon": 0.0, "bike_id": "900f97f228c0e49294de78cbaf0e4767", "is_disabled": 0, "is_reserved": 0}, {"rental_uris": {"ios": "https://dc.lft.to/lastmile_qr_scan", "android": "https://dc.lft.to/lastmile_qr_scan"}, "lon": -77.02454816666666, "type": "electric_scooter", "fusion_lat": 0.0, "lat": 38.979365333333334, "name": "b466abc630a3ee7143add29d9aaa5dd4", "fusion_lon": 0.0, "bike_id": "b466abc630a3ee7143add29d9aaa5dd4", "is_disabled": 0, "is_reserved": 0}, {"rental_uris": {"ios": "https://dc.lft.to/lastmile_qr_scan", "android": "https://dc.lft.to/lastmile_qr_scan"}, "lon": -77.030775, "type": "electric_scooter", "fusion_lat": 0.0, "lat": 38.9046945, "name": "0012d13b37259a2ebeb434adc398009a", "fusion_lon": 0.0, "bike_id": "0012d13b37259a2ebeb434adc398009a", "is_disabled": 0, "is_reserved": 0}, {"rental_uris": {"ios": "https://dc.lft.to/lastmile_qr_scan", "android": "https://dc.lft.to/lastmile_qr_scan"}, "lon": -77.0412255, "type": "electric_scooter", "fusion_lat": 0.0, "lat": 38.92343483333333, "name": "5ae6b484a84d8d65c01d0b69325fd54b", "fusion_lon": 0.0, "bike_id": "5ae6b484a84d8d65c01d0b69325fd54b", "is_disabled": 0, "is_reserved": 0}, {"rental_uris": {"ios": "https://dc.lft.to/lastmile_qr_scan", "android": "https://dc.lft.to/lastmile_qr_scan"}, "lon": -77.02575733333333, "type": "electric_scooter", "fusion_lat": 0.0, "lat": 38.918117333333335, "name": "5960b7ccc33584b3d33a45a3c3cda39e", "fusion_lon": 0.0, "bike_id": "5960b7ccc33584b3d33a45a3c3cda39e", "is_disabled": 0, "is_reserved": 0}, {"rental_uris": {"ios": "https://dc.lft.to/lastmile_qr_scan", "android": "https://dc.lft.to/lastmile_qr_scan"}, "lon": -77.0479695, "type": "electric_scooter", "fusion_lat": 0.0, "lat": 38.90732416666667, "name": "9fe5455cd2f9a64556734ee2c5562949", "fusion_lon": 0.0, "bike_id": "9fe5455cd2f9a64556734ee2c5562949", "is_disabled": 0, "is_reserved": 0}, {"rental_uris": {"ios": "https://dc.lft.to/lastmile_qr_scan", "android": "https://dc.lft.to/lastmile_qr_scan"}, "lon": -77.023386, "type": "electric_scooter", "fusion_lat": 0.0, "lat": 38.930530833333336, "name": "7bcf6f6ff78f7b7b006821ed48eda7cc", "fusion_lon": 0.0, "bike_id": "7bcf6f6ff78f7b7b006821ed48eda7cc", "is_disabled": 0, "is_reserved": 0}, {"rental_uris": {"ios": "https://dc.lft.to/lastmile_qr_scan", "android": "https://dc.lft.to/lastmile_qr_scan"}, "lon": -76.98089066666667, "type": "electric_bike", "fusion_lat": 0.0, "lat": 38.902836, "name": "cdbb439fd8cf649c4ba9d0d8eb8e658c", "fusion_lon": 0.0, "bike_id": "cdbb439fd8cf649c4ba9d0d8eb8e658c", "is_disabled": 0, "is_reserved": 0}, {"rental_uris": {"ios": "https://dc.lft.to/lastmile_qr_scan", "android": "https://dc.lft.to/lastmile_qr_scan"}, "lon": -77.0790285, "type": "electric_bike", "fusion_lat": 0.0, "lat": 38.8393565, "name": "ab302f955861b1265a7ae075ffb0097b", "fusion_lon": 0.0, "bike_id": "ab302f955861b1265a7ae075ffb0097b", "is_disabled": 0, "is_reserved": 0}, {"rental_uris": {"ios": "https://dc.lft.to/lastmile_qr_scan", "android": "https://dc.lft.to/lastmile_qr_scan"}, "lon": -77.003391, "type": "electric_scooter", "fusion_lat": 0.0, "lat": 38.91338866666667, "name": "d1a98a6b2accd3da696a0f1abeb1ce4b", "fusion_lon": 0.0, "bike_id": "d1a98a6b2accd3da696a0f1abeb1ce4b", "is_disabled": 0, "is_reserved": 0}, {"rental_uris": {"ios": "https://dc.lft.to/lastmile_qr_scan", "android": "https://dc.lft.to/lastmile_qr_scan"}, "lon": -76.93617316666666, "type": "electric_bike", "fusion_lat": 0.0, "lat": 38.970651, "name": "16e4c4a9e55de1ef64adb11dc448585b", "fusion_lon": 0.0, "bike_id": "16e4c4a9e55de1ef64adb11dc448585b", "is_disabled": 0, "is_reserved": 0}, {"rental_uris": {"ios": "https://dc.lft.to/lastmile_qr_scan", "android": "https://dc.lft.to/lastmile_qr_scan"}, "lon": -77.02348166666667, "type": "electric_scooter", "fusion_lat": 0.0, "lat": 38.9338135, "name": "9a125ba5a2debe301992b2e9edc0807f", "fusion_lon": 0.0, "bike_id": "9a125ba5a2debe301992b2e9edc0807f", "is_disabled": 0, "is_reserved": 0}, {"rental_uris": {"ios": "https://dc.lft.to/lastmile_qr_scan", "android": "https://dc.lft.to/lastmile_qr_scan"}, "lon": -77.00651916666666, "type": "electric_scooter", "fusion_lat": 0.0, "lat": 38.876463, "name": "4431c3a41ccbdfd78075706a5d127b39", "fusion_lon": 0.0, "bike_id": "4431c3a41ccbdfd78075706a5d127b39", "is_disabled": 0, "is_reserved": 0}, {"rental_uris": {"ios": "https://dc.lft.to/lastmile_qr_scan", "android": "https://dc.lft.to/lastmile_qr_scan"}, "lon": -77.00206616666667, "type": "electric_scooter", "fusion_lat": 0.0, "lat": 38.911855333333335, "name": "0236bed804f83302d82fac033eeac8de", "fusion_lon": 0.0, "bike_id": "0236bed804f83302d82fac033eeac8de", "is_disabled": 0, "is_reserved": 0}, {"rental_uris": {"ios": "https://dc.lft.to/lastmile_qr_scan", "android": "https://dc.lft.to/lastmile_qr_scan"}, "lon": -77.02449033333333, "type": "electric_scooter", "fusion_lat": 0.0, "lat": 38.938519166666666, "name": "b579316551ddb496780a0f55a3d996c6", "fusion_lon": 0.0, "bike_id": "b579316551ddb496780a0f55a3d996c6", "is_disabled": 0, "is_reserved": 0}, {"rental_uris": {"ios": "https://dc.lft.to/lastmile_qr_scan", "android": "https://dc.lft.to/lastmile_qr_scan"}, "lon": -77.03898433333333, "type": "electric_scooter", "fusion_lat": 0.0, "lat": 38.921889, "name": "3a3b511c55dc31bbcdf72096c518f274", "fusion_lon": 0.0, "bike_id": "3a3b511c55dc31bbcdf72096c518f274", "is_disabled": 0, "is_reserved": 0}, {"rental_uris": {"ios": "https://dc.lft.to/lastmile_qr_scan", "android": "https://dc.lft.to/lastmile_qr_scan"}, "lon": -76.93178366666666, "type": "electric_scooter", "fusion_lat": 0.0, "lat": 38.898811333333335, "name": "6f7a11bdc0ff81df4b9f12ae3c160211", "fusion_lon": 0.0, "bike_id": "6f7a11bdc0ff81df4b9f12ae3c160211", "is_disabled": 0, "is_reserved": 0}, {"rental_uris": {"ios": "https://dc.lft.to/lastmile_qr_scan", "android": "https://dc.lft.to/lastmile_qr_scan"}, "lon": -77.0108275, "type": "electric_scooter", "fusion_lat": 0.0, "lat": 38.8949, "name": "c0e60b8b1bd9646dbceabf859d8e5f9a", "fusion_lon": 0.0, "bike_id": "c0e60b8b1bd9646dbceabf859d8e5f9a", "is_disabled": 0, "is_reserved": 0}, {"rental_uris": {"ios": "https://dc.lft.to/lastmile_qr_scan", "android": "https://dc.lft.to/lastmile_qr_scan"}, "lon": -76.99594566666667, "type": "electric_scooter", "fusion_lat": 0.0, "lat": 38.8846095, "name": "0422e67fda4bc25b97b8e56d12b8432d", "fusion_lon": 0.0, "bike_id": "0422e67fda4bc25b97b8e56d12b8432d", "is_disabled": 0, "is_reserved": 0}, {"rental_uris": {"ios": "https://dc.lft.to/lastmile_qr_scan", "android": "https://dc.lft.to/lastmile_qr_scan"}, "lon": -76.9575735, "type": "electric_scooter", "fusion_lat": 0.0, "lat": 38.8843275, "name": "4d49101acc0f569dddfd3a04027c6b66", "fusion_lon": 0.0, "bike_id": "4d49101acc0f569dddfd3a04027c6b66", "is_disabled": 0, "is_reserved": 0}, {"rental_uris": {"ios": "https://dc.lft.to/lastmile_qr_scan", "android": "https://dc.lft.to/lastmile_qr_scan"}, "lon": -77.03077333333333, "type": "electric_scooter", "fusion_lat": 0.0, "lat": 38.880328666666664, "name": "ca68c8555eb3f07e15414fcb25ac06ec", "fusion_lon": 0.0, "bike_id": "ca68c8555eb3f07e15414fcb25ac06ec", "is_disabled": 0, "is_reserved": 0}, {"rental_uris": {"ios": "https://dc.lft.to/lastmile_qr_scan", "android": "https://dc.lft.to/lastmile_qr_scan"}, "lon": -76.96505416666666, "type": "electric_scooter", "fusion_lat": 0.0, "lat": 38.876493833333335, "name": "44b52a4c4bf400b934da33f3ac9db698", "fusion_lon": 0.0, "bike_id": "44b52a4c4bf400b934da33f3ac9db698", "is_disabled": 0, "is_reserved": 0}, {"rental_uris": {"ios": "https://dc.lft.to/lastmile_qr_scan", "android": "https://dc.lft.to/lastmile_qr_scan"}, "lon": -77.15266983333333, "type": "electric_bike", "fusion_lat": 0.0, "lat": 39.105661, "name": "e3cf47a181e1c57f90b061c9e04e7d65", "fusion_lon": 0.0, "bike_id": "e3cf47a181e1c57f90b061c9e04e7d65", "is_disabled": 0, "is_reserved": 0}, {"rental_uris": {"ios": "https://dc.lft.to/lastmile_qr_scan", "android": "https://dc.lft.to/lastmile_qr_scan"}, "lon": -77.02488016666666, "type": "electric_scooter", "fusion_lat": 0.0, "lat": 38.94184816666667, "name": "358f9bb88ff0014c6a39ca65f37c703f", "fusion_lon": 0.0, "bike_id": "358f9bb88ff0014c6a39ca65f37c703f", "is_disabled": 0, "is_reserved": 0}, {"rental_uris": {"ios": "https://dc.lft.to/lastmile_qr_scan", "android": "https://dc.lft.to/lastmile_qr_scan"}, "lon": -77.01717883333333, "type": "electric_scooter", "fusion_lat": 0.0, "lat": 38.91171816666667, "name": "7dedc1a683a507b4809767a9dd6a8e11", "fusion_lon": 0.0, "bike_id": "7dedc1a683a507b4809767a9dd6a8e11", "is_disabled": 0, "is_reserved": 0}, {"rental_uris": {"ios": "https://dc.lft.to/lastmile_qr_scan", "android": "https://dc.lft.to/lastmile_qr_scan"}, "lon": -76.93796233333333, "type": "electric_scooter", "fusion_lat": 0.0, "lat": 38.890877333333336, "name": "9caad1859179bfe487b88e16ce41d8c7", "fusion_lon": 0.0, "bike_id": "9caad1859179bfe487b88e16ce41d8c7", "is_disabled": 0, "is_reserved": 0}, {"rental_uris": {"ios": "https://dc.lft.to/lastmile_qr_scan", "android": "https://dc.lft.to/lastmile_qr_scan"}, "lon": -77.03128183333334, "type": "electric_scooter", "fusion_lat": 0.0, "lat": 38.923784833333336, "name": "b5983c9296eb3e94fa4f6edc2e0627d7", "fusion_lon": 0.0, "bike_id": "b5983c9296eb3e94fa4f6edc2e0627d7", "is_disabled": 0, "is_reserved": 0}, {"rental_uris": {"ios": "https://dc.lft.to/lastmile_qr_scan", "android": "https://dc.lft.to/lastmile_qr_scan"},