{"data": {"bikes": [{"is_disabled": 0, "is_reserved": 0, "fusion_lat": 0.0, "lat": 38.92166566666667, "fusion_lon": 0.0, "rental_uris": {"ios": "https://dc.lft.to/lastmile_qr_scan", "android": "https://dc.lft.to/lastmile_qr_scan"}, "lon": -77.04231, "bike_id": "2533c4bc4e80f0c147403b30b074fd4b", "type": "electric_scooter", "name": "2533c4bc4e80f0c147403b30b074fd4b"}, {"is_disabled": 0, "is_reserved": 0, "fusion_lat": 0.0, "lat": 38.94180583333333, "fusion_lon": 0.0, "rental_uris": {"ios": "https://dc.lft.to/lastmile_qr_scan", "android": "https://dc.lft.to/lastmile_qr_scan"}, "lon": -77.01530833333334, "bike_id": "a7afd8376d34d6eeca78e315e01b3ad6", "type": "electric_scooter", "name": "a7afd8376d34d6eeca78e315e01b3ad6"}, {"is_disabled": 0, "is_reserved": 0, "fusion_lat": 0.0, "lat": 38.921825166666665, "fusion_lon": 0.0, "rental_uris": {"ios": "https://dc.lft.to/lastmile_qr_scan", "android": "https://dc.lft.to/lastmile_qr_scan"}, "lon": -76.99424483333334, "bike_id": "2c899de7069afd8f60b40a95baf0afca", "type": "electric_scooter", "name": "2c899de7069afd8f60b40a95baf0afca"}, {"is_disabled": 0, "is_reserved": 0, "fusion_lat": 0.0, "lat": 38.898437333333334, "fusion_lon": 0.0, "rental_uris": {"ios": "https://dc.lft.to/lastmile_qr_scan", "android": "https://dc.lft.to/lastmile_qr_scan"}, "lon": -77.02859083333334, "bike_id": "b3711112f66aec8e621b30f0a5359fcb", "type": "electric_scooter", "name": "b3711112f66aec8e621b30f0a5359fcb"}, {"is_disabled": 0, "is_reserved": 0, "fusion_lat": 0.0, "lat": 38.9036535, "fusion_lon": 0.0, "rental_uris": {"ios": "https://dc.lft.to/lastmile_qr_scan", "android": "https://dc.lft.to/lastmile_qr_scan"}, "lon": -77.0034265, "bike_id": "627921f6822a621d49edd2a7ae1d29ff", "type": "electric_scooter", "name": "627921f6822a621d49edd2a7ae1d29ff"}, {"is_disabled": 0, "is_reserved": 0, "fusion_lat": 0.0, "lat": 38.92721083333333, "fusion_lon": 0.0, "rental_uris": {"ios": "https://dc.lft.to/lastmile_qr_scan", "android": "https://dc.lft.to/lastmile_qr_scan"}, "lon": -77.02086216666666, "bike_id": "495e1a561237c54bf58f799d45f9b30a", "type": "electric_scooter", "name": "495e1a561237c54bf58f799d45f9b30a"}, {"is_disabled": 0, "is_reserved": 0, "fusion_lat": 0.0, "lat": 38.8966225, "fusion_lon": 0.0, "rental_uris": {"ios": "https://dc.lft.to/lastmile_qr_scan", "android": "https://dc.lft.to/lastmile_qr_scan"}, "lon": -76.949069, "bike_id": "22a37219e5088814c58f271398c54fb2", "type": "electric_scooter", "name": "22a37219e5088814c58f271398c54fb2"}, {"is_disabled": 0, "is_reserved": 0, "fusion_lat": 0.0, "lat": 38.89508, "fusion_lon": 0.0, "rental_uris": {"ios": "https://dc.lft.to/lastmile_qr_scan", "android": "https://dc.lft.to/lastmile_qr_scan"}, "lon": -77.022851, "bike_id": "0aa3e8de63e122e51702d6e9f9216644", "type": "electric_scooter", "name": "0aa3e8de63e122e51702d6e9f9216644"}, {"is_disabled": 0, "is_reserved": 0, "fusion_lat": 0.0, "lat": 38.94288133333333, "fusion_lon": 0.0, "rental_uris": {"ios": "https://dc.lft.to/lastmile_qr_scan", "android": "https://dc.lft.to/lastmile_qr_scan"}, "lon": -77.021706, "bike_id": "a15171a44be40b28705ee8d8404257ea", "type": "electric_scooter", "name": "a15171a44be40b28705ee8d8404257ea"}, {"is_disabled": 0, "is_reserved": 0, "fusion_lat": 0.0, "lat": 38.91561183333334, "fusion_lon": 0.0, "rental_uris": {"ios": "https://dc.lft.to/lastmile_qr_scan", "android": "https://dc.lft.to/lastmile_qr_scan"}, "lon": -77.02338683333333, "bike_id": "3a1b8005b19b9a00f3245eef68afecec", "type": "electric_scooter", "name": "3a1b8005b19b9a00f3245eef68afecec"}, {"is_disabled": 0, "is_reserved": 0, "fusion_lat": 0.0, "lat": 38.90220766666667, "fusion_lon": 0.0, "rental_uris": {"ios": "https://dc.lft.to/lastmile_qr_scan", "android": "https://dc.lft.to/lastmile_qr_scan"}, "lon": -77.06080666666666, "bike_id": "3b0d03220f9b8f51fef076a08f6c4040", "type": "electric_scooter", "name": "3b0d03220f9b8f51fef076a08f6c4040"}, {"is_disabled": 0, "is_reserved": 0, "fusion_lat": 0.0, "lat": 38.92338683333333, "fusion_lon": 0.0, "rental_uris": {"ios": "https://dc.lft.to/lastmile_qr_scan", "android": "https://dc.lft.to/lastmile_qr_scan"}, "lon": -77.02798016666667, "bike_id": "850081cb02065897f0cf85f49ac91f1a", "type": "electric_scooter", "name": "850081cb02065897f0cf85f49ac91f1a"}, {"is_disabled": 0, "is_reserved": 0, "fusion_lat": 0.0, "lat": 38.804813333333335, "fusion_lon": 0.0, "rental_uris": {"ios": "https://dc.lft.to/lastmile_qr_scan", "android": "https://dc.lft.to/lastmile_qr_scan"}, "lon": -76.99107166666667, "bike_id": "e85e96ce406d0a71649b7efb2e7b37dd", "type": "electric_bike", "name": "e85e96ce406d0a71649b7efb2e7b37dd"}, {"is_disabled": 0, "is_reserved": 0, "fusion_lat": 0.0, "lat": 38.92263716666667, "fusion_lon": 0.0, "rental_uris": {"ios": "https://dc.lft.to/lastmile_qr_scan", "android": "https://dc.lft.to/lastmile_qr_scan"}, "lon": -77.03643416666667, "bike_id": "cd831f66b2c819a67066900787221c8d", "type": "electric_scooter", "name": "cd831f66b2c819a67066900787221c8d"}, {"is_disabled": 0, "is_reserved": 0, "fusion_lat": 0.0, "lat": 38.911755666666664, "fusion_lon": 0.0, "rental_uris": {"ios": "https://dc.lft.to/lastmile_qr_scan", "android": "https://dc.lft.to/lastmile_qr_scan"}, "lon": -77.0320895, "bike_id": "dab7fff1cfd98aa33e9212970bf40871", "type": "electric_scooter", "name": "dab7fff1cfd98aa33e9212970bf40871"}, {"is_disabled": 0, "is_reserved": 0, "fusion_lat": 0.0, "lat": 39.000972833333336, "fusion_lon": 0.0, "rental_uris": {"ios": "https://dc.lft.to/lastmile_qr_scan", "android": "https://dc.lft.to/lastmile_qr_scan"}, "lon": -76.90984783333333, "bike_id": "9c4312b908b804c90379e91d480cb388", "type": "electric_bike", "name": "9c4312b908b804c90379e91d480cb388"}, {"is_disabled": 0, "is_reserved": 0, "fusion_lat": 0.0, "lat": 38.93201166666667, "fusion_lon": 0.0, "rental_uris": {"ios": "https://dc.lft.to/lastmile_qr_scan", "android": "https://dc.lft.to/lastmile_qr_scan"}, "lon": -77.02286516666666, "bike_id": "308e855a369c96e19a7d454e03c2c580", "type": "electric_scooter", "name": "308e855a369c96e19a7d454e03c2c580"}, {"is_disabled": 0, "is_reserved": 0, "fusion_lat": 0.0, "lat": 38.91833366666667, "fusion_lon": 0.0, "rental_uris": {"ios": "https://dc.lft.to/lastmile_qr_scan", "android": "https://dc.lft.to/lastmile_qr_scan"}, "lon": -77.0531515, "bike_id": "e7ab7867ba84abba10309200760a2324", "type": "electric_scooter", "name": "e7ab7867ba84abba10309200760a2324"}, {"is_disabled": 0, "is_reserved": 0, "fusion_lat": 0.0, "lat": 38.90977383333333, "fusion_lon": 0.0, "rental_uris": {"ios": "https://dc.lft.to/lastmile_qr_scan", "android": "https://dc.lft.to/lastmile_qr_scan"}, "lon": -77.03864733333333, "bike_id": "e6a118d6f27f30ccc2cf442e01cf5dfe", "type": "electric_scooter", "name": "e6a118d6f27f30ccc2cf442e01cf5dfe"}, {"is_disabled": 0, "is_reserved": 0, "fusion_lat": 0.0, "lat": 38.840908, "fusion_lon": 0.0, "rental_uris": {"ios": "https://dc.lft.to/lastmile_qr_scan", "android": "https://dc.lft.to/lastmile_qr_scan"}, "lon": -76.98723716666666, "bike_id": "3a1eb570d0ba6b1d6d2f02208f44d6ba", "type": "electric_bike", "name": "3a1eb570d0ba6b1d6d2f02208f44d6ba"}, {"is_disabled": 0, "is_reserved": 0, "fusion_lat": 0.0, "lat": 38.9235, "fusion_lon": 0.0, "rental_uris": {"ios": "https://dc.lft.to/lastmile_qr_scan", "android": "https://dc.lft.to/lastmile_qr_scan"}, "lon": -77.05276266666667, "bike_id": "539ceef4ef77e724fc54a2ad72e5f18b", "type": "electric_scooter", "name": "539ceef4ef77e724fc54a2ad72e5f18b"}, {"is_disabled": 0, "is_reserved": 0, "fusion_lat": 0.0, "lat": 38.8763655, "fusion_lon": 0.0, "rental_uris": {"ios": "https://dc.lft.to/lastmile_qr_scan", "android": "https://dc.lft.to/lastmile_qr_scan"}, "lon": -77.00595683333333, "bike_id": "f715c86dca8ffd09f119e7bf603c3856", "type": "electric_scooter", "name": "f715c86dca8ffd09f119e7bf603c3856"}, {"is_disabled": 0, "is_reserved": 0, "fusion_lat": 0.0, "lat": 38.910457, "fusion_lon": 0.0, "rental_uris": {"ios": "https://dc.lft.to/lastmile_qr_scan", "android": "https://dc.lft.to/lastmile_qr_scan"}, "lon": -77.043442, "bike_id": "52735f79a6460f96f3ab04b21dc1f81b", "type": "electric_scooter", "name": "52735f79a6460f96f3ab04b21dc1f81b"}, {"is_disabled": 0, "is_reserved": 0, "fusion_lat": 0.0, "lat": 38.93459166666667, "fusion_lon": 0.0, "rental_uris": {"ios": "https://dc.lft.to/lastmile_qr_scan", "android": "https://dc.lft.to/lastmile_qr_scan"}, "lon": -77.02386883333334, "bike_id": "17d8b5246bec958cade7695ff2d53234", "type": "electric_scooter", "name": "17d8b5246bec958cade7695ff2d53234"}, {"is_disabled": 0, "is_reserved": 0, "fusion_lat": 0.0, "lat": 38.928231, "fusion_lon": 0.0, "rental_uris": {"ios": "https://dc.lft.to/lastmile_qr_scan", "android": "https://dc.lft.to/lastmile_qr_scan"}, "lon": -77.0225725, "bike_id": "1397b344ff8c11b01fd5b6f0babeef73", "type": "electric_scooter", "name": "1397b344ff8c11b01fd5b6f0babeef73"}, {"is_disabled": 0, "is_reserved": 0, "fusion_lat": 0.0, "lat": 38.805564, "fusion_lon": 0.0, "rental_uris": {"ios": "https://dc.lft.to/lastmile_qr_scan", "android": "https://dc.lft.to/lastmile_qr_scan"}, "lon": -77.1322555, "bike_id": "b2481285aad531c8b9dc41b1e0d89783", "type": "electric_bike", "name": "b2481285aad531c8b9dc41b1e0d89783"}, {"is_disabled": 0, "is_reserved": 0, "fusion_lat": 0.0, "lat": 38.8919825, "fusion_lon": 0.0, "rental_uris": {"ios": "https://dc.lft.to/lastmile_qr_scan", "android": "https://dc.lft.to/lastmile_qr_scan"}, "lon": -77.0318145, "bike_id": "34c9e7db7007b4a4c922ef2b40f1bea7", "type": "electric_scooter", "name": "34c9e7db7007b4a4c922ef2b40f1bea7"}, {"is_disabled": 0, "is_reserved": 0, "fusion_lat": 0.0, "lat": 38.93461216666667, "fusion_lon": 0.0, "rental_uris": {"ios": "https://dc.lft.to/lastmile_qr_scan", "android": "https://dc.lft.to/lastmile_qr_scan"}, "lon": -77.02408116666666, "bike_id": "5dd501c4322ef4d95f633b7f88de9ca5", "type": "electric_scooter", "name": "5dd501c4322ef4d95f633b7f88de9ca5"}, {"is_disabled": 0, "is_reserved": 0, "fusion_lat": 0.0, "lat": 38.917406, "fusion_lon": 0.0, "rental_uris": {"ios": "https://dc.lft.to/lastmile_qr_scan", "android": "https://dc.lft.to/lastmile_qr_scan"}, "lon": -77.03200466666667, "bike_id": "5fceedbb852a65c3de1648f054746857", "type": "electric_scooter", "name": "5fceedbb852a65c3de1648f054746857"}, {"is_disabled": 0, "is_reserved": 0, "fusion_lat": 0.0, "lat": 38.904235, "fusion_lon": 0.0, "rental_uris": {"ios": "https://dc.lft.to/lastmile_qr_scan", "android": "https://dc.lft.to/lastmile_qr_scan"}, "lon": -77.03091966666666, "bike_id": "482f81785669659c8e228ac62c1b2a4d", "type": "electric_scooter", "name": "482f81785669659c8e228ac62c1b2a4d"}, {"is_disabled": 0, "is_reserved": 0, "fusion_lat": 0.0, "lat": 38.916339, "fusion_lon": 0.0, "rental_uris": {"ios": "https://dc.lft.to/lastmile_qr_scan", "android": "https://dc.lft.to/lastmile_qr_scan"}, "lon": -77.00518416666667, "bike_id": "10bc8509427d4c796aae36013ed29b3f", "type": "electric_scooter", "name": "10bc8509427d4c796aae36013ed29b3f"}, {"is_disabled": 0, "is_reserved": 0, "fusion_lat": 0.0, "lat": 38.91772133333333, "fusion_lon": 0.0, "rental_uris": {"ios": "https://dc.lft.to/lastmile_qr_scan", "android": "https://dc.lft.to/lastmile_qr_scan"}, "lon": -77.02345816666667, "bike_id": "e25eda506c145d8d3ae49a6718752614", "type": "electric_scooter", "name": "e25eda506c145d8d3ae49a6718752614"}, {"is_disabled": 0, "is_reserved": 0, "fusion_lat": 0.0, "lat": 38.90857883333334, "fusion_lon": 0.0, "rental_uris": {"ios": "https://dc.lft.to/lastmile_qr_scan", "android": "https://dc.lft.to/lastmile_qr_scan"}, "lon": -77.00074316666667, "bike_id": "44ae7b39d24b266267d4919a119e93f7", "type": "electric_scooter", "name": "44ae7b39d24b266267d4919a119e93f7"}, {"is_disabled": 0, "is_reserved": 0, "fusion_lat": 0.0, "lat": 38.905016333333336, "fusion_lon": 0.0, "rental_uris": {"ios": "https://dc.lft.to/lastmile_qr_scan", "android": "https://dc.lft.to/lastmile_qr_scan"}, "lon": -76.95169616666666, "bike_id": "40c6d660a7d0cbf4062c46e0f4f19ea2", "type": "electric_scooter", "name": "40c6d660a7d0cbf4062c46e0f4f19ea2"}, {"is_disabled": 0, "is_reserved": 0, "fusion_lat": 0.0, "lat": 38.8761725, "fusion_lon": 0.0, "rental_uris": {"ios": "https://dc.lft.to/lastmile_qr_scan", "android": "https://dc.lft.to/lastmile_qr_scan"}, "lon": -77.01479266666666, "bike_id": "95c43364d52d600972002b26cf3ba895", "type": "electric_scooter", "name": "95c43364d52d600972002b26cf3ba895"}, {"is_disabled": 0, "is_reserved": 0, "fusion_lat": 0.0, "lat": 38.892272, "fusion_lon": 0.0, "rental_uris": {"ios": "https://dc.lft.to/lastmile_qr_scan", "android": "https://dc.lft.to/lastmile_qr_scan"}, "lon": -77.02328583333333, "bike_id": "c0269e9fc211f305e306fef4136f3f44", "type": "electric_scooter", "name": "c0269e9fc211f305e306fef4136f3f44"}, {"is_disabled": 0, "is_reserved": 0, "fusion_lat": 0.0, "lat": 38.896067, "fusion_lon": 0.0, "rental_uris": {"ios": "https://dc.lft.to/lastmile_qr_scan", "android": "https://dc.lft.to/lastmile_qr_scan"}, "lon": -77.0450585, "bike_id": "f5d009452b1922f063cd2d50c89d2cdb", "type": "electric_scooter", "name": "f5d009452b1922f063cd2d50c89d2cdb"}, {"is_disabled": 0, "is_reserved": 0, "fusion_lat": 0.0, "lat": 38.882409833333334, "fusion_lon": 0.0, "rental_uris": {"ios": "https://dc.lft.to/lastmile_qr_scan", "android": "https://dc.lft.to/lastmile_qr_scan"}, "lon": -77.00921566666666, "bike_id": "69d889823d5766459022280be56fe182", "type": "electric_scooter", "name": "69d889823d5766459022280be56fe182"}, {"is_disabled": 0, "is_reserved": 0, "fusion_lat": 0.0, "lat": 38.885435666666666, "fusion_lon": 0.0, "rental_uris": {"ios": "https://dc.lft.to/lastmile_qr_scan", "android": "https://dc.lft.to/lastmile_qr_scan"}, "lon": -76.95974933333333, "bike_id": "eed77fa92d250788df288eb85585c351", "type": "electric_scooter", "name": "eed77fa92d250788df288eb85585c351"}, {"is_disabled": 0, "is_reserved": 0, "fusion_lat": 0.0, "lat": 38.91802933333334, "fusion_lon": 0.0, "rental_uris": {"ios": "https://dc.lft.to/lastmile_qr_scan", "android": "https://dc.lft.to/lastmile_qr_scan"}, "lon": -77.024954, "bike_id": "28ce0a8d12242f7ae660c323faf48072", "type": "electric_scooter", "name": "28ce0a8d12242f7ae660c323faf48072"}, {"is_disabled": 0, "is_reserved": 0, "fusion_lat": 0.0, "lat": 38.860088833333336, "fusion_lon": 0.0, "rental_uris": {"ios": "https://dc.lft.to/lastmile_qr_scan", "android": "https://dc.lft.to/lastmile_qr_scan"}, "lon": -77.0652675, "bike_id": "c1cbb9ad1e0e81c53d6d4b5bbbab56ad", "type": "electric_bike", "name": "c1cbb9ad1e0e81c53d6d4b5bbbab56ad"}, {"is_disabled": 0, "is_reserved": 0, "fusion_lat": 0.0, "lat": 38.896664, "fusion_lon": 0.0, "rental_uris": {"ios": "https://dc.lft.to/lastmile_qr_scan", "android": "https://dc.lft.to/lastmile_qr_scan"}, "lon": -76.93213416666667, "bike_id": "0ff48867ba3562e5300662958f402f71", "type": "electric_scooter", "name": "0ff48867ba3562e5300662958f402f71"}, {"is_disabled": 0, "is_reserved": 0, "fusion_lat": 0.0, "lat": 38.93531433333333, "fusion_lon": 0.0, "rental_uris": {"ios": "https://dc.lft.to/lastmile_qr_scan", "android": "https://dc.lft.to/lastmile_qr_scan"}, "lon": -77.0235235, "bike_id": "adea15d0035b08c82bdf4b34c633e46c", "type": "electric_scooter", "name": "adea15d0035b08c82bdf4b34c633e46c"}, {"is_disabled": 0, "is_reserved": 0, "fusion_lat": 0.0, "lat": 38.9265805, "fusion_lon": 0.0, "rental_uris": {"ios": "https://dc.lft.to/lastmile_qr_scan", "android": "https://dc.lft.to/lastmile_qr_scan"}, "lon": -77.05209133333334, "bike_id": "03399ddbca47c93af6f2959988abbcd0", "type": "electric_scooter", "name": "03399ddbca47c93af6f2959988abbcd0"}, {"is_disabled": 0, "is_reserved": 0, "fusion_lat": 0.0, "lat": 38.91473233333333, "fusion_lon": 0.0, "rental_uris": {"ios": "https://dc.lft.to/lastmile_qr_scan", "android": "https://dc.lft.to/lastmile_qr_scan"}, "lon": -77.0217435, "bike_id": "f1c0b5db58daf884a38088e1540bc61f", "type": "electric_scooter", "name": "f1c0b5db58daf884a38088e1540bc61f"}, {"is_disabled": 0, "is_reserved": 0, "fusion_lat": 0.0, "lat": 38.90572483333333, "fusion_lon": 0.0, "rental_uris": {"ios": "https://dc.lft.to/lastmile_qr_scan", "android": "https://dc.lft.to/lastmile_qr_scan"}, "lon": -77.00801266666667, "bike_id": "31f0a055c4b95839a5c57cbd6809ca3b", "type": "electric_scooter", "name": "31f0a055c4b95839a5c57cbd6809ca3b"}, {"is_disabled": 0, "is_reserved": 0, "fusion_lat": 0.0, "lat": 38.905464, "fusion_lon": 0.0, "rental_uris": {"ios": "https://dc.lft.to/lastmile_qr_scan", "android": "https://dc.lft.to/lastmile_qr_scan"}, "lon": -77.065272, "bike_id": "f821ff0ad271c9a2b050adf7ad4d7f7c", "type": "electric_bike", "name": "f821ff0ad271c9a2b050adf7ad4d7f7c"}, {"is_disabled": 0, "is_reserved": 0, "fusion_lat": 0.0, "lat": 38.893318666666666, "fusion_lon": 0.0, "rental_uris": {"ios": "https://dc.lft.to/lastmile_qr_scan", "android": "https://dc.lft.to/lastmile_qr_scan"}, "lon": -76.92891433333334, "bike_id": "d7bcd7aead90517bfa0f7f86bd3ad267", "type": "electric_scooter", "name": "d7bcd7aead90517bfa0f7f86bd3ad267"}, {"is_disabled": 0, "is_reserved": 0, "fusion_lat": 0.0, "lat": 38.91767983333333, "fusion_lon": 0.0, "rental_uris": {"ios": "https://dc.lft.to/lastmile_qr_scan", "android": "https://dc.lft.to/lastmile_qr_scan"}, "lon": -77.03218333333334, "bike_id": "c48d1fad450033c1dc97d9fadbaa15d2", "type": "electric_scooter", "name": "c48d1fad450033c1dc97d9fadbaa15d2"}, {"is_disabled": 0, "is_reserved": 0, "fusion_lat": 0.0, "lat": 38.93445216666667, "fusion_lon": 0.0, "rental_uris": {"ios": "https://dc.lft.to/lastmile_qr_scan", "android": "https://dc.lft.to/lastmile_qr_scan"}, "lon": -77.02977333333334, "bike_id": "88ce6efc59006691862c4a8630cb622c", "type": "electric_scooter", "name": "88ce6efc59006691862c4a8630cb622c"}, {"is_disabled": 0, "is_reserved": 0, "fusion_lat": 0.0, "lat": 38.906001, "fusion_lon": 0.0, "rental_uris": {"ios": "https://dc.lft.to/lastmile_qr_scan", "android": "https://dc.lft.to/lastmile_qr_scan"}, "lon": -77.12895016666667, "bike_id": "db4c1ffe30aaeb3ebdf1101024970398", "type": "electric_bike", "name": "db4c1ffe30aaeb3ebdf1101024970398"}, {"is_disabled": 0, "is_reserved": 0, "fusion_lat": 0.0, "lat": 38.95269583333334, "fusion_lon": 0.0, "rental_uris": {"ios": "https://dc.lft.to/lastmile_qr_scan", "android": "https://dc.lft.to/lastmile_qr_scan"}, "lon": -76.99756533333333, "bike_id": "7c3fe4327d562e3eb884afbceb2b24e4", "type": "electric_scooter", "name": "7c3fe4327d562e3eb884afbceb2b24e4"}, {"is_disabled": 0, "is_reserved": 0, "fusion_lat": 0.0, "lat": 38.928094333333334, "fusion_lon": 0.0, "rental_uris": {"ios": "https://dc.lft.to/lastmile_qr_scan", "android": "https://dc.lft.to/lastmile_qr_scan"}, "lon": -77.02298333333333, "bike_id": "02a2085c7a4a55f40ba0fd4eb3bb7688", "type": "electric_scooter", "name": "02a2085c7a4a55f40ba0fd4eb3bb7688"}, {"is_disabled": 0, "is_reserved": 0, "fusion_lat": 0.0, "lat": 38.900336833333334, "fusion_lon": 0.0, "rental_uris": {"ios": "https://dc.lft.to/lastmile_qr_scan", "android": "https://dc.lft.to/lastmile_qr_scan"}, "lon": -77.0038355, "bike_id": "7f9718c9abe61b91a900e28a3d8df1fe", "type": "electric_scooter", "name": "7f9718c9abe61b91a900e28a3d8df1fe"}, {"is_disabled": 0, "is_reserved": 0, "fusion_lat": 0.0, "lat": 38.898472166666664, "fusion_lon": 0.0, "rental_uris": {"ios": "https://dc.lft.to/lastmile_qr_scan", "android": "https://dc.lft.to/lastmile_qr_scan"}, "lon": -77.02779883333334, "bike_id": "a99e8e1652d8f019a1fe213d2539ffbb", "type": "electric_scooter", "name": "a99e8e1652d8f019a1fe213d2539ffbb"}, {"is_disabled": 0, "is_reserved": 0, "fusion_lat": 0.0, "lat": 38.91970283333333, "fusion_lon": 0.0, "rental_uris": {"ios": "https://dc.lft.to/lastmile_qr_scan", "android": "https://dc.lft.to/lastmile_qr_scan"}, "lon": -77.0021165, "bike_id": "685a4e0d6a312b7a9df6e9caab96838e", "type": "electric_scooter", "name": "685a4e0d6a312b7a9df6e9caab96838e"}, {"is_disabled": 0, "is_reserved": 0, "fusion_lat": 0.0, "lat": 38.93382416666667, "fusion_lon": 0.0, "rental_uris": {"ios": "https://dc.lft.to/lastmile_qr_scan", "android": "https://dc.lft.to/lastmile_qr_scan"}, "lon": -77.0272695, "bike_id": "9d0ce288b32c1e122ceb480b004ec9b9", "type": "electric_scooter", "name": "9d0ce288b32c1e122ceb480b004ec9b9"}, {"is_disabled": 0, "is_reserved": 0, "fusion_lat": 0.0, "lat": 38.87185866666667, "fusion_lon": 0.0, "rental_uris": {"ios": "https://dc.lft.to/lastmile_qr_scan", "android": "https://dc.lft.to/lastmile_qr_scan"}, "lon": -77.0058545, "bike_id": "f7e9a40a19b39d57b6b2df2610e81cbf", "type": "electric_scooter", "name": "f7e9a40a19b39d57b6b2df2610e81cbf"}, {"is_disabled": 0, "is_reserved": 0, "fusion_lat": 0.0, "lat": 38.94926666666667, "fusion_lon": 0.0, "rental_uris": {"ios": "https://dc.lft.to/lastmile_qr_scan", "android": "https://dc.lft.to/lastmile_qr_scan"}, "lon": -77.01938166666666, "bike_id": "9ee0388fd1bf3f27a6e2d27d643daf31", "type": "electric_scooter", "name": "9ee0388fd1bf3f27a6e2d27d643daf31"}, {"is_disabled": 0, "is_reserved": 0, "fusion_lat": 0.0, "lat": 38.910534166666665, "fusion_lon": 0.0, "rental_uris": {"ios": "https://dc.lft.to/lastmile_qr_scan", "android": "https://dc.lft.to/lastmile_qr_scan"}, "lon": -77.04490966666667, "bike_id": "95969eb51b5fed0d52fca57f9c9de656", "type": "electric_scooter", "name": "95969eb51b5fed0d52fca57f9c9de656"}, {"is_disabled": 0, "is_reserved": 0, "fusion_lat": 0.0, "lat": 38.924131333333335, "fusion_lon": 0.0, "rental_uris": {"ios": "https://dc.lft.to/lastmile_qr_scan", "android": "https://dc.lft.to/lastmile_qr_scan"}, "lon": -77.03899566666666, "bike_id": "d5a733e9d203585668bcda1ed4c9cd13", "type": "electric_scooter", "name": "d5a733e9d203585668bcda1ed4c9cd13"}, {"is_disabled": 0, "is_reserved": 0, "fusion_lat": 0.0, "lat": 38.930643333333336, "fusion_lon": 0.0, "rental_uris": {"ios": "https://dc.lft.to/lastmile_qr_scan", "android": "https://dc.lft.to/lastmile_qr_scan"}, "lon": -77.03191583333333, "bike_id": "4d4064031c3a6338e73b216f72ee6719", "type": "electric_scooter", "name": "4d4064031c3a6338e73b216f72ee6719"}, {"is_disabled": 0, "is_reserved": 0, "fusion_lat": 0.0, "lat": 38.899661333333334, "fusion_lon": 0.0, "rental_uris": {"ios": "https://dc.lft.to/lastmile_qr_scan", "android": "https://dc.lft.to/lastmile_qr_scan"}, "lon": -77.01613683333333, "bike_id": "28d842c23b342c47c96c0be3a542c3fc", "type": "electric_scooter", "name": "28d842c23b342c47c96c0be3a542c3fc"}, {"is_disabled": 0, "is_reserved": 0, "fusion_lat": 0.0, "lat": 38.932038, "fusion_lon": 0.0, "rental_uris": {"ios": "https://dc.lft.to/lastmile_qr_scan", "android": "https://dc.lft.to/lastmile_qr_scan"}, "lon": -76.995227, "bike_id": "8e490a482e8a2cbcf9b6dec66b3cf34c", "type": "electric_bike", "name": "8e490a482e8a2cbcf9b6dec66b3cf34c"}, {"is_disabled": 0, "is_reserved": 0, "fusion_lat": 0.0, "lat": 38.9022825, "fusion_lon": 0.0, "rental_uris": {"ios": "https://dc.lft.to/lastmile_qr_scan", "android": "https://dc.lft.to/lastmile_qr_scan"}, "lon": -77.03476716666667, "bike_id": "503d87e8ad2061ba07542d335144ad54", "type": "electric_scooter", "name": "503d87e8ad2061ba07542d335144ad54"}, {"is_disabled": 0, "is_reserved": 0, "fusion_lat": 0.0, "lat": 38.85796966666667, "fusion_lon": 0.0, "rental_uris": {"ios": "https://dc.lft.to/lastmile_qr_scan", "android": "https://dc.lft.to/lastmile_qr_scan"}, "lon": -76.987424, "bike_id": "240ef31023277fb9b44b9621807b1687", "type": "electric_bike", "name": "240ef31023277fb9b44b9621807b1687"}, {"is_disabled": 0, "is_reserved": 0, "fusion_lat": 0.0, "lat": 39.0262415, "fusion_lon": 0.0, "rental_uris": {"ios": "https://dc.lft.to/lastmile_qr_scan", "android": "https://dc.lft.to/lastmile_qr_scan"}, "lon": -77.03878866666666, "bike_id": "352cbe8a26ad22b1096a2a08495a329b", "type": "electric_bike", "name": "352cbe8a26ad22b1096a2a08495a329b"}, {"is_disabled": 0, "is_reserved": 0, "fusion_lat": 0.0, "lat": 38.92676766666666, "fusion_lon": 0.0, "rental_uris": {"ios": "https://dc.lft.to/lastmile_qr_scan", "android": "https://dc.lft.to/lastmile_qr_scan"}, "lon": -77.00862733333334, "bike_id": "24011bda1e795b37e32a9226df5046b8", "type": "electric_scooter", "name": "24011bda1e795b37e32a9226df5046b8"}, {"is_disabled": 0, "is_reserved": 0, "fusion_lat": 0.0, "lat": 38.92620683333333, "fusion_lon": 0.0, "rental_uris": {"ios": "https://dc.lft.to/lastmile_qr_scan", "android": "https://dc.lft.to/lastmile_qr_scan"}, "lon": -76.99062666666667, "bike_id": "518310b121eb8f657aceeb7407c8caef", "type": "electric_scooter", "name": "518310b121eb8f657aceeb7407c8caef"}, {"is_disabled": 0, "is_reserved": 0, "fusion_lat": 0.0, "lat": 38.90767966666667, "fusion_lon": 0.0, "rental_uris": {"ios": "https://dc.lft.to/lastmile_qr_scan", "android": "https://dc.lft.to/lastmile_qr_scan"}, "lon": -77.02393183333334, "bike_id": "7970d62aa5ecf1bb6b6a70a069c2174e", "type": "electric_scooter", "name": "7970d62aa5ecf1bb6b6a70a069c2174e"}, {"is_disabled": 0, "is_reserved": 0, "fusion_lat": 0.0, "lat": 38.88882383333333, "fusion_lon": 0.0, "rental_uris": {"ios": "https://dc.lft.to/lastmile_qr_scan", "android": "https://dc.lft.to/lastmile_qr_scan"}, "lon": -76.9569665, "bike_id": "d36c11744021b5c56c4172304f4be694", "type": "electric_bike", "name": "d36c11744021b5c56c4172304f4be694"}, {"is_disabled": 0, "is_reserved": 0, "fusion_lat": 0.0, "lat": 38.90187433333333, "fusion_lon": 0.0, "rental_uris": {"ios": "https://dc.lft.to/lastmile_qr_scan", "android": "https://dc.lft.to/lastmile_qr_scan"}, "lon": -77.00215716666666, "bike_id": "38b0561bc31d3ae4b782b49664e03e87", "type": "electric_scooter", "name": "38b0561bc31d3ae4b782b49664e03e87"}, {"is_disabled": 0, "is_reserved": 0, "fusion_lat": 0.0, "lat": 38.90285466666667, "fusion_lon": 0.0, "rental_uris": {"ios": "https://dc.lft.to/lastmile_qr_scan", "android": "https://dc.lft.to/lastmile_qr_scan"}, "lon": -77.04008383333333, "bike_id": "c8bd630fb79a2f1e30b0c43e5c515bfe", "type": "electric_scooter", "name": "c8bd630fb79a2f1e30b0c43e5c515bfe"}, {"is_disabled": 0, "is_reserved": 0, "fusion_lat": 0.0, "lat": 38.9193305, "fusion_lon": 0.0, "rental_uris": {"ios": "https://dc.lft.to/lastmile_qr_scan", "android": "https://dc.lft.to/lastmile_qr_scan"}, "lon": -77.031199, "bike_id": "f4fa26be4f813ef09ae404b7fccd80a2", "type": "electric_scooter", "name": "f4fa26be4f813ef09ae404b7fccd80a2"}, {"is_disabled": 0, "is_reserved": 0, "fusion_lat": 0.0, "lat": 38.9103925, "fusion_lon": 0.0, "rental_uris": {"ios": "https://dc.lft.to/lastmile_qr_scan", "android": "https://dc.lft.to/lastmile_qr_scan"}, "lon": -77.04052666666666, "bike_id": "a44f70a5f74bcf1225bd725428a0f0e7", "type": "electric_scooter", "name": "a44f70a5f74bcf1225bd725428a0f0e7"}, {"is_disabled": 0, "is_reserved": 0, "fusion_lat": 0.0, "lat": 38.90270066666667, "fusion_lon": 0.0, "rental_uris": {"ios": "https://dc.lft.to/lastmile_qr_scan", "android": "https://dc.lft.to/lastmile_qr_scan"}, "lon": -77.008913, "bike_id": "443b36b5c9bc4ecfaac1252b39b0a087", "type": "electric_scooter", "name": "443b36b5c9bc4ecfaac1252b39b0a087"}, {"is_disabled": 0, "is_reserved": 0, "fusion_lat": 0.0, "lat": 38.90812366666667, "fusion_lon": 0.0, "rental_uris": {"ios": "https://dc.lft.to/lastmile_qr_scan", "android": "https://dc.lft.to/lastmile_qr_scan"}, "lon": -77.00611033333334, "bike_id": "c55e836e7b47e02b71bf60416fb532c1", "type": "electric_scooter", "name": "c55e836e7b47e02b71bf60416fb532c1"}, {"is_disabled": 0, "is_reserved": 0, "fusion_lat": 0.0, "lat": 38.89865066666667, "fusion_lon": 0.0, "rental_uris": {"ios": "https://dc.lft.to/lastmile_qr_scan", "android": "https://dc.lft.to/lastmile_qr_scan"}, "lon": -77.04998033333334, "bike_id": "431806220f61bf76d26da59e9728cff8", "type": "electric_scooter", "name": "431806220f61bf76d26da59e9728cff8"}, {"is_disabled": 0, "is_reserved": 0, "fusion_lat": 0.0, "lat": 38.859748, "fusion_lon": 0.0, "rental_uris": {"ios": "https://dc.lft.to/lastmile_qr_scan", "android": "https://dc.lft.to/lastmile_qr_scan"}, "lon": -77.12863066666667, "bike_id": "96df49fc60e70828cc4f8d4c95ed33d7", "type": "electric_bike", "name": "96df49fc60e70828cc4f8d4c95ed33d7"}, {"is_disabled": 0, "is_reserved": 0, "fusion_lat": 0.0, "lat": 38.905265, "fusion_lon": 0.0, "rental_uris": {"ios": "https://dc.lft.to/lastmile_qr_scan", "android": "https://dc.lft.to/lastmile_qr_scan"}, "lon": -77.06258483333333, "bike_id": "af102ae81affa8657df846bfb4c57c5c", "type": "electric_scooter", "name": "af102ae81affa8657df846bfb4c57c5c"}, {"is_disabled": 0, "is_reserved": 0, "fusion_lat": 0.0, "lat": 38.809775, "fusion_lon": 0.0, "rental_uris": {"ios": "https://dc.lft.to/lastmile_qr_scan", "android": "https://dc.lft.to/lastmile_qr_scan"}, "lon": -77.07665016666667, "bike_id": "e9b23e080c61102738bda0f9d3c672db", "type": "electric_bike", "name": "e9b23e080c61102738bda0f9d3c672db"}, {"is_disabled": 0, "is_reserved": 0, "fusion_lat": 0.0, "lat": 38.903613166666666, "fusion_lon": 0.0, "rental_uris": {"ios": "https://dc.lft.to/lastmile_qr_scan", "android": "https://dc.lft.to/lastmile_qr_scan"}, "lon": -77.01624066666666, "bike_id": "06bcfedd69916841c698bd49b1d69339", "type": "electric_scooter", "name": "06bcfedd69916841c698bd49b1d69339"}, {"is_disabled": 0, "is_reserved": 0, "fusion_lat": 0.0, "lat": 38.95619766666667, "fusion_lon": 0.0, "rental_uris": {"ios": "https://dc.lft.to/lastmile_qr_scan", "android": "https://dc.lft.to/lastmile_qr_scan"}, "lon": -76.96184666666667, "bike_id": "c37afcc2c56b07f13cf2c3d61817977e", "type": "electric_bike", "name": "c37afcc2c56b07f13cf2c3d61817977e"}, {"is_disabled": 0, "is_reserved": 0, "fusion_lat": 0.0, "lat": 38.931676333333336, "fusion_lon": 0.0, "rental_uris": {"ios": "https://dc.lft.to/lastmile_qr_scan", "android": "https://dc.lft.to/lastmile_qr_scan"}, "lon": -77.028203, "bike_id": "ca4cdcc8a47f7c9928c41b29cb59ea7c", "type": "electric_scooter", "name": "ca4cdcc8a47f7c9928c41b29cb59ea7c"}, {"is_disabled": 0, "is_reserved": 0, "fusion_lat": 0.0, "lat": 38.92535183333333, "fusion_lon": 0.0, "rental_uris": {"ios": "https://dc.lft.to/lastmile_qr_scan", "android": "https://dc.lft.to/lastmile_qr_scan"}, "lon": -77.025584, "bike_id": "072b91ebac70deba304fa7131dec464f", "type": "electric_scooter", "name": "072b91ebac70deba304fa7131dec464f"}, {"is_disabled": 0, "is_reserved": 0, "fusion_lat": 0.0, "lat": 38.91059833333333, "fusion_lon": 0.0, "rental_uris": {"ios": "https://dc.lft.to/lastmile_qr_scan", "android": "https://dc.lft.to/lastmile_qr_scan"}, "lon": -77.0219365, "bike_id": "ac23ce925e6af089f1aae056bd7f04ee", "type": "electric_scooter", "name": "ac23ce925e6af089f1aae056bd7f04ee"}, {"is_disabled": 0, "is_reserved": 0, "fusion_lat": 0.0, "lat": 38.87082566666667, "fusion_lon": 0.0, "rental_uris": {"ios": "https://dc.lft.to/lastmile_qr_scan", "android": "https://dc.lft.to/lastmile_qr_scan"}, "lon": -77.13332966666667, "bike_id": "43aa2545c89ae2107f41c183877a358f", "type": "electric_bike", "name": "43aa2545c89ae2107f41c183877a358f"}, {"is_disabled": 0, "is_reserved": 0, "fusion_lat": 0.0, "lat": 38.905428, "fusion_lon": 0.0, "rental_uris": {"ios": "https://dc.lft.to/lastmile_qr_scan", "android": "https://dc.lft.to/lastmile_qr_scan"}, "lon": -77.02188566666666, "bike_id": "e767c5916a1a0aaa3bbdf36a1a343897", "type": "electric_scooter", "name": "e767c5916a1a0aaa3bbdf36a1a343897"}, {"is_disabled": 0, "is_reserved": 0, "fusion_lat": 0.0, "lat": 38.89886033333333, "fusion_lon": 0.0, "rental_uris": {"ios": "https://dc.lft.to/lastmile_qr_scan", "android": "https://dc.lft.to/lastmile_qr_scan"}, "lon": -77.01972783333333, "bike_id": "5ca0bcbddb564f23d0ee2bdfa4bc3d5f", "type": "electric_scooter", "name": "5ca0bcbddb564f23d0ee2bdfa4bc3d5f"}, {"is_disabled": 0, "is_reserved": 0, "fusion_lat": 0.0, "lat": 38.900571, "fusion_lon": 0.0, "rental_uris": {"ios": "https://dc.lft.to/lastmile_qr_scan", "android": "https://dc.lft.to/lastmile_qr_scan"}, "lon": -77.0177445, "bike_id": "bf240ab89ea2147f8ea971d3dc78ec6a", "type": "electric_scooter", "name": "bf240ab89ea2147f8ea971d3dc78ec6a"}, {"is_disabled": 0, "is_reserved": 0, "fusion_lat": 0.0, "lat": 38.91480683333333, "fusion_lon": 0.0, "rental_uris": {"ios": "https://dc.lft.to/lastmile_qr_scan", "android": "https://dc.lft.to/lastmile_qr_scan"}, "lon": -77.02185666666666, "bike_id": "d0056abdc0a434e6dc46facf77b1a7ff", "type": "electric_scooter", "name": "d0056abdc0a434e6dc46facf77b1a7ff"}, {"is_disabled": 0, "is_reserved": 0, "fusion_lat": 0.0, "lat": 38.8462, "fusion_lon": 0.0, "rental_uris": {"ios": "https://dc.lft.to/lastmile_qr_scan", "android": "https://dc.lft.to/lastmile_qr_scan"}, "lon": -76.9783835, "bike_id": "b8b09590992b09730cbed588c5a267cc", "type": "electric_bike", "name": "b8b09590992b09730cbed588c5a267cc"}, {"is_disabled": 0, "is_reserved": 0, "fusion_lat": 0.0, "lat": 38.88024133333333, "fusion_lon": 0.0, "rental_uris": {"ios": "https://dc.lft.to/lastmile_qr_scan", "android": "https://dc.lft.to/lastmile_qr_scan"}, "lon": -76.94331583333333, "bike_id": "9a8bc3c5b865c5ca159cea1af5650b9c", "type": "electric_scooter", "name": "9a8bc3c5b865c5ca159cea1af5650b9c"}, {"is_disabled": 0, "is_reserved": 0, "fusion_lat": 0.0, "lat": 38.909633666666664, "fusion_lon": 0.0, "rental_uris": {"ios": "https://dc.lft.to/lastmile_qr_scan", "android": "https://dc.lft.to/lastmile_qr_scan"}, "lon": -77.03250133333333, "bike_id": "caae813be6ad9c0755b66521be0c8869", "type": "electric_scooter", "name": "caae813be6ad9c0755b66521be0c8869"}, {"is_disabled": 0, "is_reserved": 0, "fusion_lat": 0.0, "lat": 38.887099666666664, "fusion_lon": 0.0, "rental_uris": {"ios": "https://dc.lft.to/lastmile_qr_scan", "android": "https://dc.lft.to/lastmile_qr_scan"}, "lon": -76.98342833333334, "bike_id": "26dc99692d03c431cfe83c1a6f6d14fb", "type": "electric_scooter", "name": "26dc99692d03c431cfe83c1a6f6d14fb"}, {"is_disabled": 0, "is_reserved": 0, "fusion_lat": 0.0, "lat": 38.846471666666666, "fusion_lon": 0.0, "rental_uris": {"ios": "https://dc.lft.to/lastmile_qr_scan", "android": "https://dc.lft.to/lastmile_qr_scan"}, "lon": -77.00369333333333, "bike_id": "6406549acfe9ee2c65b0930acbc3ddf0", "type": "electric_scooter", "name": "6406549acfe9ee2c65b0930acbc3ddf0"}, {"is_disabled": 0, "is_reserved": 0, "fusion_lat": 0.0, "lat": 38.9177265, "fusion_lon": 0.0, "rental_uris": {"ios": "https://dc.lft.to/lastmile_qr_scan", "android": "https://dc.lft.to/lastmile_qr_scan"}, "lon": -77.02708166666666, "bike_id": "e86b6d360ce9228ba2c49ed37d6904d5", "type": "electric_scooter", "name": "e86b6d360ce9228ba2c49ed37d6904d5"}, {"is_disabled": 0, "is_reserved": 0, "fusion_lat": 0.0, "lat": 38.907678833333335, "fusion_lon": 0.0, "rental_uris": {"ios": "https://dc.lft.to/lastmile_qr_scan", "android": "https://dc.lft.to/lastmile_qr_scan"}, "lon": -77.02390366666667, "bike_id": "d28e389fc54bef504bbb9cd2b3e68ef4", "type": "electric_scooter", "name": "d28e389fc54bef504bbb9cd2b3e68ef4"}, {"is_disabled": 0, "is_reserved": 0, "fusion_lat": 0.0, "lat": 38.89998333333333, "fusion_lon": 0.0, "rental_uris": {"ios": "https://dc.lft.to/lastmile_qr_scan", "android": "https://dc.lft.to/lastmile_qr_scan"}, "lon": -77.0217755, "bike_id": "f0cfec9097d2e52a550ee8974a8c921f", "type": "electric_scooter", "name": "f0cfec9097d2e52a550ee8974a8c921f"}, {"is_disabled": 0, "is_reserved": 0, "fusion_lat": 0.0, "lat": 38.917809, "fusion_lon": 0.0, "rental_uris": {"ios": "https://dc.lft.to/lastmile_qr_scan", "android": "https://dc.lft.to/lastmile_qr_scan"}, "lon": -77.02352416666666, "bike_id": "9f41332ed821a9330636bb7f5ee88c3a", "type": "electric_scooter", "name": "9f41332ed821a9330636bb7f5ee88c3a"}, {"is_disabled": 0, "is_reserved": 0, "fusion_lat": 0.0, "lat": 38.87868616666667, "fusion_lon": 0.0, "rental_uris": {"ios": "https://dc.lft.to/lastmile_qr_scan", "android": "https://dc.lft.to/lastmile_qr_scan"}, "lon": -77.02285116666667, "bike_id": "a6842e16f896692f3dd235ee16bde300", "type": "electric_scooter", "name": "a6842e16f896692f3dd235ee16bde300"}, {"is_disabled": 0, "is_reserved": 0, "fusion_lat": 0.0, "lat": 38.92067933333333, "fusion_lon": 0.0, "rental_uris": {"ios": "https://dc.lft.to/lastmile_qr_scan", "android": "https://dc.lft.to/lastmile_qr_scan"}, "lon": -77.0437895, "bike_id": "f37d3dbe0d91021a3ead01065fde57d6", "type": "electric_scooter", "name": "f37d3dbe0d91021a3ead01065fde57d6"}, {"is_disabled": 0, "is_reserved": 0, "fusion_lat": 0.0, "lat": 38.978255833333336, "fusion_lon": 0.0, "rental_uris": {"ios": "https://dc.lft.to/lastmile_qr_scan", "android": "https://dc.lft.to/lastmile_qr_scan"}, "lon": -76.928934, "bike_id": "299a0e5bab673933c20f79abce1a7b19", "type": "electric_bike", "name": "299a0e5bab673933c20f79abce1a7b19"}, {"is_disabled": 0, "is_reserved": 0, "fusion_lat": 0.0, "lat": 38.898492, "fusion_lon": 0.0, "rental_uris": {"ios": "https://dc.lft.to/lastmile_qr_scan", "android": "https://dc.lft.to/lastmile_qr_scan"}, "lon": -76.92756283333334, "bike_id": "ad3b274ff1fdf80d847781caaa3d218d", "type": "electric_scooter", "name": "ad3b274ff1fdf80d847781caaa3d218d"}, {"is_disabled": 0, "is_reserved": 0, "fusion_lat": 0.0, "lat": 38.9152905, "fusion_lon": 0.0, "rental_uris": {"ios": "https://dc.lft.to/lastmile_qr_scan", "android": "https://dc.lft.to/lastmile_qr_scan"}, "lon": -77.0197155, "bike_id": "cf6497d3dc73e24436d5a472fd4ca7bd", "type": "electric_scooter", "name": "cf6497d3dc73e24436d5a472fd4ca7bd"}, {"is_disabled": 0, "is_reserved": 0, "fusion_lat": 0.0, "lat": 38.883687333333334, "fusion_lon": 0.0, "rental_uris": {"ios": "https://dc.lft.to/lastmile_qr_scan", "android": "https://dc.lft.to/lastmile_qr_scan"}, "lon": -76.9951655, "bike_id": "0f152396592aca808f42faf582a22f3d", "type": "electric_scooter", "name": "0f152396592aca808f42faf582a22f3d"}, {"is_disabled": 0, "is_reserved": 0, "fusion_lat": 0.0, "lat": 38.90432233333333, "fusion_lon": 0.0, "rental_uris": {"ios": "https://dc.lft.to/lastmile_qr_scan", "android": "https://dc.lft.to/lastmile_qr_scan"}, "lon": -76.97238833333333, "bike_id": "b351f5313d1b8105abaa040def9470eb", "type": "electric_bike", "name": "b351f5313d1b8105abaa040def9470eb"}, {"is_disabled": 0, "is_reserved": 0, "fusion_lat": 0.0, "lat": 38.91815883333334, "fusion_lon": 0.0, "rental_uris": {"ios": "https://dc.lft.to/lastmile_qr_scan", "android": "https://dc.lft.to/lastmile_qr_scan"}, "lon": -77.03793883333333, "bike_id": "259d85405b512f7412ee3c900fb99941", "type": "electric_scooter", "name": "259d85405b512f7412ee3c900fb99941"}, {"is_disabled": 0, "is_reserved": 0, "fusion_lat": 0.0, "lat": 38.91699883333333, "fusion_lon": 0.0, "rental_uris": {"ios": "https://dc.lft.to/lastmile_qr_scan", "android": "https://dc.lft.to/lastmile_qr_scan"}, "lon": -77.02997833333333, "bike_id": "b250847f925c7e70feb167d1edc53bc5", "type": "electric_scooter", "name": "b250847f925c7e70feb167d1edc53bc5"}, {"is_disabled": 0, "is_reserved": 0, "fusion_lat": 0.0, "lat": 38.8329305, "fusion_lon": 0.0, "rental_uris": {"ios": "https://dc.lft.to/lastmile_qr_scan", "android": "https://dc.lft.to/lastmile_qr_scan"}, "lon": -77.08406933333333, "bike_id": "d73b6dc185f585d667cf59bdcd842109", "type": "electric_bike", "name": "d73b6dc185f585d667cf59bdcd842109"}, {"is_disabled": 0, "is_reserved": 0, "fusion_lat": 0.0, "lat": 38.907301, "fusion_lon": 0.0, "rental_uris": {"ios": "https://dc.lft.to/lastmile_qr_scan", "android": "https://dc.lft.to/lastmile_qr_scan"}, "lon": -77.0464775, "bike_id": "9de0cae0382b7cb2ffe8682ce56410d2", "type": "electric_scooter", "name": "9de0cae0382b7cb2ffe8682ce56410d2"}, {"is_disabled": 0, "is_reserved": 0, "fusion_lat": 0.0, "lat": 38.9002755, "fusion_lon": 0.0, "rental_uris": {"ios": "https://dc.lft.to/lastmile_qr_scan", "android": "https://dc.lft.to/lastmile_qr_scan"}, "lon": -77.00379033333333, "bike_id": "926155ed17475cee5974f2449be249ce", "type": "electric_scooter", "name": "926155ed17475cee5974f2449be249ce"}, {"is_disabled": 0, "is_reserved": 0, "fusion_lat": 0.0, "lat": 38.926643166666665, "fusion_lon": 0.0, "rental_uris": {"ios": "https://dc.lft.to/lastmile_qr_scan", "android": "https://dc.lft.to/lastmile_qr_scan"}, "lon": -77.03027983333334, "bike_id": "ac630d52a050c8029d9ae0afeee37066", "type": "electric_scooter", "name": "ac630d52a050c8029d9ae0afeee37066"}, {"is_disabled": 0, "is_reserved": 0, "fusion_lat": 0.0, "lat": 38.935261833333335, "fusion_lon": 0.0, "rental_uris": {"ios": "https://dc.lft.to/lastmile_qr_scan", "android": "https://dc.lft.to/lastmile_qr_scan"}, "lon": -77.0284635, "bike_id": "788c65b86afbbfe523af5becad2e5b0f", "type": "electric_scooter", "name": "788c65b86afbbfe523af5becad2e5b0f"}, {"is_disabled": 0, "is_reserved": 0, "fusion_lat": 0.0, "lat": 38.919291666666666, "fusion_lon": 0.0, "rental_uris": {"ios": "https://dc.lft.to/lastmile_qr_scan", "android": "https://dc.lft.to/lastmile_qr_scan"}, "lon": -77.023238, "bike_id": "ff31556c0ed8c3cb08db6ab95a79a32f", "type": "electric_scooter", "name": "ff31556c0ed8c3cb08db6ab95a79a32f"}, {"is_disabled": 0, "is_reserved": 0, "fusion_lat": 0.0, "lat": 38.8728985, "fusion_lon": 0.0, "rental_uris": {"ios": "https://dc.lft.to/lastmile_qr_scan", "android": "https://dc.lft.to/lastmile_qr_scan"}, "lon": -77.00985116666666, "bike_id": "77a182cf7c72c5058a1e0f5ae0ee68c1", "type": "electric_scooter", "name": "77a182cf7c72c5058a1e0f5ae0ee68c1"}, {"is_disabled": 0, "is_reserved": 0, "fusion_lat": 0.0, "lat": 38.9229735, "fusion_lon": 0.0, "rental_uris": {"ios": "https://dc.lft.to/lastmile_qr_scan", "android": "https://dc.lft.to/lastmile_qr_scan"}, "lon": -77.029731, "bike_id": "d116a6b7b950b4fcf8bbeac5b8f57b6a", "type": "electric_scooter", "name": "d116a6b7b950b4fcf8bbeac5b8f57b6a"}, {"is_disabled": 0, "is_reserved": 0, "fusion_lat": 0.0, "lat": 38.957531833333334, "fusion_lon": 0.0, "rental_uris": {"ios": "https://dc.lft.to/lastmile_qr_scan", "android": "https://dc.lft.to/lastmile_qr_scan"}, "lon": -77.0221505, "bike_id": "ead8fa409df73be7164aa665b0687411", "type": "electric_scooter", "name": "ead8fa409df73be7164aa665b0687411"}, {"is_disabled": 0, "is_reserved": 0, "fusion_lat": 0.0, "lat": 38.885282, "fusion_lon": 0.0, "rental_uris": {"ios": "https://dc.lft.to/lastmile_qr_scan", "android": "https://dc.lft.to/lastmile_qr_scan"}, "lon": -76.98056266666667, "bike_id": "e930f0bcad9c2922a14776bcbced2082", "type": "electric_scooter", "name": "e930f0bcad9c2922a14776bcbced2082"}, {"is_disabled": 0, "is_reserved": 0, "fusion_lat": 0.0, "lat": 38.9164195, "fusion_lon": 0.0, "rental_uris": {"ios": "https://dc.lft.to/lastmile_qr_scan", "android": "https://dc.lft.to/lastmile_qr_scan"}, "lon": -77.02415083333334, "bike_id": "019e8e5fbf0e6538b0caaf4515d5a527", "type": "electric_scooter", "name": "019e8e5fbf0e6538b0caaf4515d5a527"}, {"is_disabled": 0, "is_reserved": 0, "fusion_lat": 0.0, "lat": 38.88752616666667, "fusion_lon": 0.0, "rental_uris": {"ios": "https://dc.lft.to/lastmile_qr_scan", "android": "https://dc.lft.to/lastmile_qr_scan"}, "lon": -77.0225015, "bike_id": "91ec5f501dba731d639159c9d97cacce", "type": "electric_bike", "name": "91ec5f501dba731d639159c9d97cacce"}, {"is_disabled": 0, "is_reserved": 0, "fusion_lat": 0.0, "lat": 38.89718883333333, "fusion_lon": 0.0, "rental_uris": {"ios": "https://dc.lft.to/lastmile_qr_scan", "android": "https://dc.lft.to/lastmile_qr_scan"}, "lon": -77.030782, "bike_id": "c616d46fcc034cb94cea214623e564a9", "type": "electric_scooter", "name": "c616d46fcc034cb94cea214623e564a9"}, {"is_disabled": 0, "is_reserved": 0, "fusion_lat": 0.0, "lat": 38.89619316666667, "fusion_lon": 0.0, "rental_uris": {"ios": "https://dc.lft.to/lastmile_qr_scan", "android": "https://dc.lft.to/lastmile_qr_scan"}, "lon": -76.90754216666667, "bike_id": "28369001fa83b341820e19f2593205f9", "type": "electric_bike", "name": "28369001fa83b341820e19f2593205f9"}, {"is_disabled": 0, "is_reserved": 0, "fusion_lat": 0.0, "lat": 38.956875, "fusion_lon": 0.0, "rental_uris": {"ios": "https://dc.lft.to/lastmile_qr_scan", "android": "https://dc.lft.to/lastmile_qr_scan"}, "lon": -77.02240716666667, "bike_id": "289a7a784497a0a6bd8ff0aeefe919d8", "type": "electric_scooter", "name": "289a7a784497a0a6bd8ff0aeefe919d8"}, {"is_disabled": 0, "is_reserved": 0, "fusion_lat": 0.0, "lat": 38.822117, "fusion_lon": 0.0, "rental_uris": {"ios": "https://dc.lft.to/lastmile_qr_scan", "android": "https://dc.lft.to/lastmile_qr_scan"}, "lon": -76.97708016666667, "bike_id": "9246794a6d529dd26a3f483eb29ddb00", "type": "electric_bike", "name": "9246794a6d529dd26a3f483eb29ddb00"}, {"is_disabled": 0, "is_reserved": 0, "fusion_lat": 0.0, "lat": 38.916335, "fusion_lon": 0.0, "rental_uris": {"ios": "https://dc.lft.to/lastmile_qr_scan", "android": "https://dc.lft.to/lastmile_qr_scan"}, "lon": -77.00109316666666, "bike_id": "803ad9812e37badb73ae92144f994e6e", "type": "electric_scooter", "name": "803ad9812e37badb73ae92144f994e6e"}, {"is_disabled": 0, "is_reserved": 0, "fusion_lat": 0.0, "lat": 38.984707, "fusion_lon": 0.0, "rental_uris": {"ios": "https://dc.lft.to/lastmile_qr_scan", "android": "https://dc.lft.to/lastmile_qr_scan"}, "lon": -77.01324016666666, "bike_id": "438c3a062542fbe8fbc4e43b3a90186e", "type": "electric_bike", "name": "438c3a062542fbe8fbc4e43b3a90186e"}, {"is_disabled": 0, "is_reserved": 0, "fusion_lat": 0.0, "lat": 38.9037675, "fusion_lon": 0.0, "rental_uris": {"ios": "https://dc.lft.to/lastmile_qr_scan", "android": "https://dc.lft.to/lastmile_qr_scan"}, "lon": -77.0175755, "bike_id": "caa16ada6deea356f9ad1a60df2e86b7", "type": "electric_scooter", "name": "caa16ada6deea356f9ad1a60df2e86b7"}, {"is_disabled": 0, "is_reserved": 0, "fusion_lat": 0.0, "lat": 38.90721716666667, "fusion_lon": 0.0, "rental_uris": {"ios": "https://dc.lft.to/lastmile_qr_scan", "android": "https://dc.lft.to/lastmile_qr_scan"}, "lon": -77.0350855, "bike_id": "1c0a87f1cdd6dbd37d530ca6f951141c", "type": "electric_scooter", "name": "1c0a87f1cdd6dbd37d530ca6f951141c"}, {"is_disabled": 0, "is_reserved": 0, "fusion_lat": 0.0, "lat": 38.897023, "fusion_lon": 0.0, "rental_uris": {"ios": "https://dc.lft.to/lastmile_qr_scan", "android": "https://dc.lft.to/lastmile_qr_scan"}, "lon": -77.02379483333333, "bike_id": "b9068776c74484c281707e03b2878bf2", "type": "electric_scooter", "name": "b9068776c74484c281707e03b2878bf2"}, {"is_disabled": 0, "is_reserved": 0, "fusion_lat": 0.0, "lat": 38.9207515, "fusion_lon": 0.0, "rental_uris": {"ios": "https://dc.lft.to/lastmile_qr_scan", "android": "https://dc.lft.to/lastmile_qr_scan"}, "lon": -76.99401116666667, "bike_id": "2f6e98d8d4761657b11d5cd9b4e4e538", "type": "electric_scooter", "name": "2f6e98d8d4761657b11d5cd9b4e4e538"}, {"is_disabled": 0, "is_reserved": 0, "fusion_lat": 0.0, "lat": 38.92793183333333, "fusion_lon": 0.0, "rental_uris": {"ios": "https://dc.lft.to/lastmile_qr_scan", "android": "https://dc.lft.to/lastmile_qr_scan"}, "lon": -77.021334, "bike_id": "28e3a44cc99f25ebfacba932e2942c90", "type": "electric_scooter", "name": "28e3a44cc99f25ebfacba932e2942c90"}, {"is_disabled": 0, "is_reserved": 0, "fusion_lat": 0.0, "lat": 38.881559, "fusion_lon": 0.0, "rental_uris": {"ios": "https://dc.lft.to/lastmile_qr_scan", "android": "https://dc.lft.to/lastmile_qr_scan"}, "lon": -77.02762033333333, "bike_id": "6baca0d60a4ff6b57921de180fa15ad4", "type": "electric_scooter", "name": "6baca0d60a4ff6b57921de180fa15ad4"}, {"is_disabled": 0, "is_reserved": 0, "fusion_lat": 0.0, "lat": 38.89097483333333, "fusion_lon": 0.0, "rental_uris": {"ios": "https://dc.lft.to/lastmile_qr_scan", "android": "https://dc.lft.to/lastmile_qr_scan"}, "lon": -77.0029655, "bike_id": "010e964bdec4ebff1fb7b8fba8319e4c", "type": "electric_bike", "name": "010e964bdec4ebff1fb7b8fba8319e4c"}, {"is_disabled": 0, "is_reserved": 0, "fusion_lat": 0.0, "lat": 38.95241583333333, "fusion_lon": 0.0, "rental_uris": {"ios": "https://dc.lft.to/lastmile_qr_scan", "android": "https://dc.lft.to/lastmile_qr_scan"}, "lon": -76.98248016666666, "bike_id": "4d00825a2d7aee2d1156cf0e19426eaa", "type": "electric_bike", "name": "4d00825a2d7aee2d1156cf0e19426eaa"}, {"is_disabled": 0, "is_reserved": 0, "fusion_lat": 0.0, "lat": 38.921292333333334, "fusion_lon": 0.0, "rental_uris": {"ios": "https://dc.lft.to/lastmile_qr_scan", "android": "https://dc.lft.to/lastmile_qr_scan"}, "lon": -76.99374283333333, "bike_id": "fe31be745f7b5ad4f8034abc961b7fff", "type": "electric_scooter", "name": "fe31be745f7b5ad4f8034abc961b7fff"}, {"is_disabled": 0, "is_reserved": 0, "fusion_lat": 0.0, "lat": 38.92813483333333, "fusion_lon": 0.0, "rental_uris": {"ios": "https://dc.lft.to/lastmile_qr_scan", "android": "https://dc.lft.to/lastmile_qr_scan"}, "lon": -77.04338633333333, "bike_id": "7c40599a8391ed146c77777fd0f32075", "type": "electric_scooter", "name": "7c40599a8391ed146c77777fd0f32075"}, {"is_disabled": 0, "is_reserved": 0, "fusion_lat": 0.0, "lat": 38.92503283333333, "fusion_lon": 0.0, "rental_uris": {"ios": "https://dc.lft.to/lastmile_qr_scan", "android": "https://dc.lft.to/lastmile_qr_scan"}, "lon": -77.02443516666666, "bike_id": "2f2e1b772cf6d4da3231497ecc00b1a3", "type": "electric_scooter", "name": "2f2e1b772cf6d4da3231497ecc00b1a3"}, {"is_disabled": 0, "is_reserved": 0, "fusion_lat": 0.0, "lat": 38.90055233333333, "fusion_lon": 0.0, "rental_uris": {"ios": "https://dc.lft.to/lastmile_qr_scan", "android": "https://dc.lft.to/lastmile_qr_scan"}, "lon": -76.94983233333333, "bike_id": "24d893a043c5663e955268e724ab7884", "type": "electric_scooter", "name": "24d893a043c5663e955268e724ab7884"}, {"is_disabled": 0, "is_reserved": 0, "fusion_lat": 0.0, "lat": 38.91569533333333, "fusion_lon": 0.0, "rental_uris": {"ios": "https://dc.lft.to/lastmile_qr_scan", "android": "https://dc.lft.to/lastmile_qr_scan"}, "lon": -77.0318365, "bike_id": "544cad6632395aef6368f14817099285", "type": "electric_scooter", "name": "544cad6632395aef6368f14817099285"}, {"is_disabled": 0, "is_reserved": 0, "fusion_lat": 0.0, "lat": 38.9096295, "fusion_lon": 0.0, "rental_uris": {"ios": "https://dc.lft.to/lastmile_qr_scan", "android": "https://dc.lft.to/lastmile_qr_scan"}, "lon": -77.03423866666667, "bike_id": "86a3de480859432af9ce1092c4d092d9", "type": "electric_scooter", "name": "86a3de480859432af9ce1092c4d092d9"}, {"is_disabled": 0, "is_reserved": 0, "fusion_lat": 0.0, "lat": 38.916599833333336, "fusion_lon": 0.0, "rental_uris": {"ios": "https://dc.lft.to/lastmile_qr_scan", "android": "https://dc.lft.to/lastmile_qr_scan"}, "lon": -77.00046933333333, "bike_id": "1163b0c63199c23946de6f27421c516c", "type": "electric_scooter", "name": "1163b0c63199c23946de6f27421c516c"}, {"is_disabled": 0, "is_reserved": 0, "fusion_lat": 0.0, "lat": 38.92462616666667, "fusion_lon": 0.0, "rental_uris": {"ios": "https://dc.lft.to/lastmile_qr_scan", "android": "https://dc.lft.to/lastmile_qr_scan"}, "lon": -77.02022733333334, "bike_id": "f29b16c6ab10942363824d9a9798120b", "type": "electric_scooter", "name": "f29b16c6ab10942363824d9a9798120b"}, {"is_disabled": 0, "is_reserved": 0, "fusion_lat": 0.0, "lat": 38.892088, "fusion_lon": 0.0, "rental_uris": {"ios": "https://dc.lft.to/lastmile_qr_scan", "android": "https://dc.lft.to/lastmile_qr_scan"}, "lon": -76.92921933333334, "bike_id": "c0b812e0c64468af9d345d51bd193bb9", "type": "electric_scooter", "name": "c0b812e0c64468af9d345d51bd193bb9"}, {"is_disabled": 0, "is_reserved": 0, "fusion_lat": 0.0, "lat": 38.917095, "fusion_lon": 0.0, "rental_uris": {"ios": "https://dc.lft.to/lastmile_qr_scan", "android": "https://dc.lft.to/lastmile_qr_scan"}, "lon": -77.04479916666666, "bike_id": "1076f94154915390d7ed65f24a090d58", "type": "electric_bike", "name": "1076f94154915390d7ed65f24a090d58"}, {"is_disabled": 0, "is_reserved": 0, "fusion_lat": 0.0, "lat": 38.909207, "fusion_lon": 0.0, "rental_uris": {"ios": "https://dc.lft.to/lastmile_qr_scan", "android": "https://dc.lft.to/lastmile_qr_scan"}, "lon": -77.045893, "bike_id": "ba8e4910a71eee028dae7979175b6126", "type": "electric_scooter", "name": "ba8e4910a71eee028dae7979175b6126"}, {"is_disabled": 0, "is_reserved": 0, "fusion_lat": 0.0, "lat": 38.90803733333333, "fusion_lon": 0.0, "rental_uris": {"ios": "https://dc.lft.to/lastmile_qr_scan", "android": "https://dc.lft.to/lastmile_qr_scan"}, "lon": -77.04197933333333, "bike_id": "b5e6ba0fa1b2d9b48a3072d60e933b26", "type": "electric_scooter", "name": "b5e6ba0fa1b2d9b48a3072d60e933b26"}, {"is_disabled": 0, "is_reserved": 0, "fusion_lat": 0.0, "lat": 38.89638933333333, "fusion_lon": 0.0, "rental_uris": {"ios": "https://dc.lft.to/lastmile_qr_scan", "android": "https://dc.lft.to/lastmile_qr_scan"}, "lon": -77.00753516666667, "bike_id": "be43ba4eb3c85f79509e334600ef8324", "type": "electric_scooter", "name": "be43ba4eb3c85f79509e334600ef8324"}, {"is_disabled": 0, "is_reserved": 0, "fusion_lat": 0.0, "lat": 38.8773795, "fusion_lon": 0.0, "rental_uris": {"ios": "https://dc.lft.to/lastmile_qr_scan", "android": "https://dc.lft.to/lastmile_qr_scan"}, "lon": -77.1487525, "bike_id": "bba40b57176c22cc1f41980d2e797902", "type": "electric_bike", "name": "bba40b57176c22cc1f41980d2e797902"}, {"is_disabled": 0, "is_reserved": 0, "fusion_lat": 0.0, "lat": 38.88522316666667, "fusion_lon": 0.0, "rental_uris": {"ios": "https://dc.lft.to/lastmile_qr_scan", "android": "https://dc.lft.to/lastmile_qr_scan"}, "lon": -76.99609333333333, "bike_id": "bb124735d64a31484b1dec7dade48f5e", "type": "electric_scooter", "name": "bb124735d64a31484b1dec7dade48f5e"}, {"is_disabled": 0, "is_reserved": 0, "fusion_lat": 0.0, "lat": 38.86504033333333, "fusion_lon": 0.0, "rental_uris": {"ios": "https://dc.lft.to/lastmile_qr_scan", "android": "https://dc.lft.to/lastmile_qr_scan"}, "lon": -76.97308866666667, "bike_id": "2673f9f3065ff2ddc7ecf1e541398ff3", "type": "electric_bike", "name": "2673f9f3065ff2ddc7ecf1e541398ff3"}, {"is_disabled": 0, "is_reserved": 0, "fusion_lat": 0.0, "lat": 38.9002665, "fusion_lon": 0.0, "rental_uris": {"ios": "https://dc.lft.to/lastmile_qr_scan", "android": "https://dc.lft.to/lastmile_qr_scan"}, "lon": -77.01208866666667, "bike_id": "5780d1d3f2ce91247f5874ad82c18edb", "type": "electric_scooter", "name": "5780d1d3f2ce91247f5874ad82c18edb"}, {"is_disabled": 0, "is_reserved": 0, "fusion_lat": 0.0, "lat": 39.0053505, "fusion_lon": 0.0, "rental_uris": {"ios": "https://dc.lft.to/lastmile_qr_scan", "android": "https://dc.lft.to/lastmile_qr_scan"}, "lon": -77.104009, "bike_id": "4d29c8fcc338be3a7851785c6363d96d", "type": "electric_bike", "name": "4d29c8fcc338be3a7851785c6363d96d"}, {"is_disabled": 0, "is_reserved": 0, "fusion_lat": 0.0, "lat": 38.88103666666667, "fusion_lon": 0.0, "rental_uris": {"ios": "https://dc.lft.to/lastmile_qr_scan", "android": "https://dc.lft.to/lastmile_qr_scan"}, "lon": -77.01234916666667, "bike_id": "42b4bb3171b5aeea9d73cf3bf7b961bf", "type": "electric_scooter", "name": "42b4bb3171b5aeea9d73cf3bf7b961bf"}, {"is_disabled": 0, "is_reserved": 0, "fusion_lat": 0.0, "lat": 38.89861533333333, "fusion_lon": 0.0, "rental_uris": {"ios": "https://dc.lft.to/lastmile_qr_scan", "android": "https://dc.lft.to/lastmile_qr_scan"}, "lon": -77.04875233333334, "bike_id": "82c19638bb91d991d7e6069a14dc249f", "type": "electric_scooter", "name": "82c19638bb91d991d7e6069a14dc249f"}, {"is_disabled": 0, "is_reserved": 0, "fusion_lat": 0.0, "lat": 38.90919483333333, "fusion_lon": 0.0, "rental_uris": {"ios": "https://dc.lft.to/lastmile_qr_scan", "android": "https://dc.lft.to/lastmile_qr_scan"}, "lon": -77.0340745, "bike_id": "b11a6a9ccab50e264c484387e2188108", "type": "electric_scooter", "name": "b11a6a9ccab50e264c484387e2188108"}, {"is_disabled": 0, "is_reserved": 0, "fusion_lat": 0.0, "lat": 38.8996645, "fusion_lon": 0.0, "rental_uris": {"ios": "https://dc.lft.to/lastmile_qr_scan", "android": "https://dc.lft.to/lastmile_qr_scan"}, "lon": -76.93763466666667, "bike_id": "fd39a3fcf4a13eae972c65befbe63e7a", "type": "electric_scooter", "name": "fd39a3fcf4a13eae972c65befbe63e7a"}, {"is_disabled": 0, "is_reserved": 0, "fusion_lat": 0.0, "lat": 38.87679516666667, "fusion_lon": 0.0, "rental_uris": {"ios": "https://dc.lft.to/lastmile_qr_scan", "android": "https://dc.lft.to/lastmile_qr_scan"}, "lon": -77.000539, "bike_id": "0df723981e060bdadecb712361c5d6a4", "type": "electric_scooter", "name": "0df723981e060bdadecb712361c5d6a4"}, {"is_disabled": 0, "is_reserved": 0, "fusion_lat": 0.0, "lat": 38.92385816666667, "fusion_lon": 0.0, "rental_uris": {"ios": "https://dc.lft.to/lastmile_qr_scan", "android": "https://dc.lft.to/lastmile_qr_scan"}, "lon": -77.03120016666666, "bike_id": "b2d609e9ea56edf7eaecba9cfc83b936", "type": "electric_scooter", "name": "b2d609e9ea56edf7eaecba9cfc83b936"}, {"is_disabled": 0, "is_reserved": 0, "fusion_lat": 0.0, "lat": 38.88369133333333, "fusion_lon": 0.0, "rental_uris": {"ios": "https://dc.lft.to/lastmile_qr_scan", "android": "https://dc.lft.to/lastmile_qr_scan"}, "lon": -76.995192, "bike_id": "5242ab3dc4715df859a0ec21447d0f65", "type": "electric_scooter", "name": "5242ab3dc4715df859a0ec21447d0f65"}, {"is_disabled": 0, "is_reserved": 0, "fusion_lat": 0.0, "lat": 38.83041866666667, "fusion_lon": 0.0, "rental_uris": {"ios": "https://dc.lft.to/lastmile_qr_scan", "android": "https://dc.lft.to/lastmile_qr_scan"}, "lon": -77.0082305, "bike_id": "7803ca487bd08bb3e28e49adffe974a3", "type": "electric_bike", "name": "7803ca487bd08bb3e28e49adffe974a3"}, {"is_disabled": 0, "is_reserved": 0, "fusion_lat": 0.0, "lat": 38.892786, "fusion_lon": 0.0, "rental_uris": {"ios": "https://dc.lft.to/lastmile_qr_scan", "android": "https://dc.lft.to/lastmile_qr_scan"}, "lon": -77.05034383333333, "bike_id": "f28300a15baa8b34975298324bda5dc9", "type": "electric_scooter", "name": "f28300a15baa8b34975298324bda5dc9"}, {"is_disabled": 0, "is_reserved": 0, "fusion_lat": 0.0, "lat": 38.904855, "fusion_lon": 0.0, "rental_uris": {"ios": "https://dc.lft.to/lastmile_qr_scan", "android": "https://dc.lft.to/lastmile_qr_scan"}, "lon": -77.00901983333333, "bike_id": "4146760d4370901909dc1cfb5023da99", "type": "electric_scooter", "name": "4146760d4370901909dc1cfb5023da99"}, {"is_disabled": 0, "is_reserved": 0, "fusion_lat": 0.0, "lat": 38.9237445, "fusion_lon": 0.0, "rental_uris": {"ios": "https://dc.lft.to/lastmile_qr_scan", "android": "https://dc.lft.to/lastmile_qr_scan"}, "lon": -77.01902833333334, "bike_id": "a7155071db68077bd73e163d7cd7ba63", "type": "electric_scooter", "name": "a7155071db68077bd73e163d7cd7ba63"}, {"is_disabled": 0, "is_reserved": 0, "fusion_lat": 0.0, "lat": 38.905337, "fusion_lon": 0.0, "rental_uris": {"ios": "https://dc.lft.to/lastmile_qr_scan", "android": "https://dc.lft.to/lastmile_qr_scan"}, "lon": -77.05678316666666, "bike_id": "f6ca2ecbc9c0a8594e21f847ad87134a", "type": "electric_scooter", "name": "f6ca2ecbc9c0a8594e21f847ad87134a"}, {"is_disabled": 0, "is_reserved": 0, "fusion_lat": 0.0, "lat": 38.90650383333333, "fusion_lon": 0.0, "rental_uris": {"ios": "https://dc.lft.to/lastmile_qr_scan", "android": "https://dc.lft.to/lastmile_qr_scan"}, "lon": -76.97943883333333, "bike_id": "890c5de6cce6d73d0f73b89fd49e554d", "type": "electric_scooter", "name": "890c5de6cce6d73d0f73b89fd49e554d"}, {"is_disabled": 0, "is_reserved": 0, "fusion_lat": 0.0, "lat": 38.916483666666664, "fusion_lon": 0.0, "rental_uris": {"ios": "https://dc.lft.to/lastmile_qr_scan", "android": "https://dc.lft.to/lastmile_qr_scan"}, "lon": -77.02392666666667, "bike_id": "eff894a9c86fcf1e9a6e7cb4bd3d7e86", "type": "electric_scooter", "name": "eff894a9c86fcf1e9a6e7cb4bd3d7e86"}, {"is_disabled": 0, "is_reserved": 0, "fusion_lat": 0.0, "lat": 38.9281195, "fusion_lon": 0.0, "rental_uris": {"ios": "https://dc.lft.to/lastmile_qr_scan", "android": "https://dc.lft.to/lastmile_qr_scan"}, "lon": -77.02298333333333, "bike_id": "9f052a6c48036a355b287ab4a0ee7cb5", "type": "electric_scooter", "name": "9f052a6c48036a355b287ab4a0ee7cb5"}, {"is_disabled": 0, "is_reserved": 0, "fusion_lat": 0.0, "lat": 38.941769, "fusion_lon": 0.0, "rental_uris": {"ios": "https://dc.lft.to/lastmile_qr_scan", "android": "https://dc.lft.to/lastmile_qr_scan"}, "lon": -77.02538283333334, "bike_id": "f4053c9bc35f5633b5a49edf452cb7f6", "type": "electric_scooter", "name": "f4053c9bc35f5633b5a49edf452cb7f6"}, {"is_disabled": 0, "is_reserved": 0, "fusion_lat": 0.0, "lat": 38.921202666666666, "fusion_lon": 0.0, "rental_uris": {"ios": "https://dc.lft.to/lastmile_qr_scan", "android": "https://dc.lft.to/lastmile_qr_scan"}, "lon": -77.03669283333333, "bike_id": "b5b7b4223154fc5c4c3cb7f971a2b6ec", "type": "electric_scooter", "name": "b5b7b4223154fc5c4c3cb7f971a2b6ec"}, {"is_disabled": 0, "is_reserved": 0, "fusion_lat": 0.0, "lat": 38.90194283333334, "fusion_lon": 0.0, "rental_uris": {"ios": "https://dc.lft.to/lastmile_qr_scan", "android": "https://dc.lft.to/lastmile_qr_scan"}, "lon": -77.02371966666666, "bike_id": "12344a9be7b0f6349bd59b47742c1c35", "type": "electric_scooter", "name": "12344a9be7b0f6349bd59b47742c1c35"}, {"is_disabled": 0, "is_reserved": 0, "fusion_lat": 0.0, "lat": 38.91223216666667, "fusion_lon": 0.0, "rental_uris": {"ios": "https://dc.lft.to/lastmile_qr_scan", "android": "https://dc.lft.to/lastmile_qr_scan"}, "lon": -77.0640595, "bike_id": "4df587d72daaa3df3076960f2f81d468", "type": "electric_scooter", "name": "4df587d72daaa3df3076960f2f81d468"}, {"is_disabled": 0, "is_reserved": 0, "fusion_lat": 0.0, "lat": 38.908803166666665, "fusion_lon": 0.0, "rental_uris": {"ios": "https://dc.lft.to/lastmile_qr_scan", "android": "https://dc.lft.to/lastmile_qr_scan"}, "lon": -77.07433266666666, "bike_id": "c796e58207dafde8f486a7745bb30996", "type": "electric_scooter", "name": "c796e58207dafde8f486a7745bb30996"}, {"is_disabled": 0, "is_reserved": 0, "fusion_lat": 0.0, "lat": 38.909654833333335, "fusion_lon": 0.0, "rental_uris": {"ios": "https://dc.lft.to/lastmile_qr_scan", "android": "https://dc.lft.to/lastmile_qr_scan"}, "lon": -77.032613, "bike_id": "1c8b6a9931c08c66fbf0fd3aa7f1ffdd", "type": "electric_scooter", "name": "1c8b6a9931c08c66fbf0fd3aa7f1ffdd"}, {"is_disabled": 0, "is_reserved": 0, "fusion_lat": 0.0, "lat": 38.9515115, "fusion_lon": 0.0, "rental_uris": {"ios": "https://dc.lft.to/lastmile_qr_scan", "android": "https://dc.lft.to/lastmile_qr_scan"}, "lon": -77.018697, "bike_id": "552605fd2860fb00bc49b8f3db785a9d", "type": "electric_scooter", "name": "552605fd2860fb00bc49b8f3db785a9d"}, {"is_disabled": 0, "is_reserved": 0, "fusion_lat": 0.0, "lat": 38.923651, "fusion_lon": 0.0, "rental_uris": {"ios": "https://dc.lft.to/lastmile_qr_scan", "android": "https://dc.lft.to/lastmile_qr_scan"}, "lon": -77.05243466666667, "bike_id": "6a0ca92e6a3d4dce5b8c0c4696252a45", "type": "electric_scooter", "name": "6a0ca92e6a3d4dce5b8c0c4696252a45"}, {"is_disabled": 0, "is_reserved": 0, "fusion_lat": 0.0, "lat": 38.91652116666667, "fusion_lon": 0.0, "rental_uris": {"ios": "https://dc.lft.to/lastmile_qr_scan", "android": "https://dc.lft.to/lastmile_qr_scan"}, "lon": -77.02388816666667, "bike_id": "ac3b6206622d12e1ce826797b8ccaf6d", "type": "electric_scooter", "name": "ac3b6206622d12e1ce826797b8ccaf6d"}, {"is_disabled": 0, "is_reserved": 0, "fusion_lat": 0.0, "lat": 38.916905166666666, "fusion_lon": 0.0, "rental_uris": {"ios": "https://dc.lft.to/lastmile_qr_scan", "android": "https://dc.lft.to/lastmile_qr_scan"}, "lon": -77.027195, "bike_id": "6539f47dad29b3909ff0d59ca16ac442", "type": "electric_scooter", "name": "6539f47dad29b3909ff0d59ca16ac442"}, {"is_disabled": 0, "is_reserved": 0, "fusion_lat": 0.0, "lat": 38.9179745, "fusion_lon": 0.0, "rental_uris": {"ios": "https://dc.lft.to/lastmile_qr_scan", "android": "https://dc.lft.to/lastmile_qr_scan"}, "lon": -77.03507616666667, "bike_id": "b5764667c6724ddd329baf1cfa44406c", "type": "electric_scooter", "name": "b5764667c6724ddd329baf1cfa44406c"}, {"is_disabled": 0, "is_reserved": 0, "fusion_lat": 0.0, "lat": 38.91713, "fusion_lon": 0.0, "rental_uris": {"ios": "https://dc.lft.to/lastmile_qr_scan", "android": "https://dc.lft.to/lastmile_qr_scan"}, "lon": -77.02611733333333, "bike_id": "b095621430a01bc3cde0139760543eda", "type": "electric_scooter", "name": "b095621430a01bc3cde0139760543eda"}, {"is_disabled": 0, "is_reserved": 0, "fusion_lat": 0.0, "lat": 38.827721833333335, "fusion_lon": 0.0, "rental_uris": {"ios": "https://dc.lft.to/lastmile_qr_scan", "android": "https://dc.lft.to/lastmile_qr_scan"}, "lon": -77.06008766666666, "bike_id": "d0bcf1a2a64c4614c48e3bce51bb47e3", "type": "electric_bike", "name": "d0bcf1a2a64c4614c48e3bce51bb47e3"}, {"is_disabled": 0, "is_reserved": 0, "fusion_lat": 0.0, "lat": 38.92901966666667, "fusion_lon": 0.0, "rental_uris": {"ios": "https://dc.lft.to/lastmile_qr_scan", "android": "https://dc.lft.to/lastmile_qr_scan"}, "lon": -77.05497916666667, "bike_id": "eed3d54a3625c985bccb8e1996d4b2ab", "type": "electric_scooter", "name": "eed3d54a3625c985bccb8e1996d4b2ab"}, {"is_disabled": 0, "is_reserved": 0, "fusion_lat": 0.0, "lat": 38.957297, "fusion_lon": 0.0, "rental_uris": {"ios": "https://dc.lft.to/lastmile_qr_scan", "android": "https://dc.lft.to/lastmile_qr_scan"}, "lon": -77.02401466666667, "bike_id": "915a78b39ef89c80e15a48d4760681c1", "type": "electric_scooter", "name": "915a78b39ef89c80e15a48d4760681c1"}, {"is_disabled": 0, "is_reserved": 0, "fusion_lat": 0.0, "lat": 38.900385666666665, "fusion_lon": 0.0, "rental_uris": {"ios": "https://dc.lft.to/lastmile_qr_scan", "android": "https://dc.lft.to/lastmile_qr_scan"}, "lon": -77.04872283333333, "bike_id": "04bdb8abf2527d76d769829166be1d18", "type": "electric_scooter", "name": "04bdb8abf2527d76d769829166be1d18"}, {"is_disabled": 0, "is_reserved": 0, "fusion_lat": 0.0, "lat": 38.93352983333333, "fusion_lon": 0.0, "rental_uris": {"ios": "https://dc.lft.to/lastmile_qr_scan", "android": "https://dc.lft.to/lastmile_qr_scan"}, "lon": -77.06046366666666, "bike_id": "b2ca35c510cd94c373017fec5a4b9256", "type": "electric_scooter", "name": "b2ca35c510cd94c373017fec5a4b9256"}, {"is_disabled": 0, "is_reserved": 0, "fusion_lat": 0.0, "lat": 38.908937333333334, "fusion_lon": 0.0, "rental_uris": {"ios": "https://dc.lft.to/lastmile_qr_scan", "android": "https://dc.lft.to/lastmile_qr_scan"}, "lon": -76.99786116666667, "bike_id": "478c6dfe973a6cc2ba1e112b0d57980f", "type": "electric_scooter", "name": "478c6dfe973a6cc2ba1e112b0d57980f"}, {"is_disabled": 0, "is_reserved": 0, "fusion_lat": 0.0, "lat": 38.92117916666667, "fusion_lon": 0.0, "rental_uris": {"ios": "https://dc.lft.to/lastmile_qr_scan", "android": "https://dc.lft.to/lastmile_qr_scan"}, "lon": -77.03665783333334, "bike_id": "f7b74210245e401d6ad2f1fd36ea0143", "type": "electric_scooter", "name": "f7b74210245e401d6ad2f1fd36ea0143"}, {"is_disabled": 0, "is_reserved": 0, "fusion_lat": 0.0, "lat": 38.842793, "fusion_lon": 0.0, "rental_uris": {"ios": "https://dc.lft.to/lastmile_qr_scan", "android": "https://dc.lft.to/lastmile_qr_scan"}, "lon": -76.988411, "bike_id": "186379a97b0604419941ed497f453754", "type": "electric_bike", "name": "186379a97b0604419941ed497f453754"}, {"is_disabled": 0, "is_reserved": 0, "fusion_lat": 0.0, "lat": 38.929890666666665, "fusion_lon": 0.0, "rental_uris": {"ios": "https://dc.lft.to/lastmile_qr_scan", "android": "https://dc.lft.to/lastmile_qr_scan"}, "lon": -77.03472883333333, "bike_id": "856c9220d85f57169afbfbcb90f040e9", "type": "electric_scooter", "name": "856c9220d85f57169afbfbcb90f040e9"}, {"is_disabled": 0, "is_reserved": 0, "fusion_lat": 0.0, "lat": 38.89534283333333, "fusion_lon": 0.0, "rental_uris": {"ios": "https://dc.lft.to/lastmile_qr_scan", "android": "https://dc.lft.to/lastmile_qr_scan"}, "lon": -77.02660666666667, "bike_id": "d5cc7c45c435d9007e7bd4ad437fb9f3", "type": "electric_scooter", "name": "d5cc7c45c435d9007e7bd4ad437fb9f3"}, {"is_disabled": 0, "is_reserved": 0, "fusion_lat": 0.0, "lat": 38.9023555, "fusion_lon": 0.0, "rental_uris": {"ios": "https://dc.lft.to/lastmile_qr_scan", "android": "https://dc.lft.to/lastmile_qr_scan"}, "lon": -77.05330683333334, "bike_id": "4414e7298620aacf4e236c3846402191", "type": "electric_scooter", "name": "4414e7298620aacf4e236c3846402191"}, {"is_disabled": 0, "is_reserved": 0, "fusion_lat": 0.0, "lat": 38.90239166666667, "fusion_lon": 0.0, "rental_uris": {"ios": "https://dc.lft.to/lastmile_qr_scan", "android": "https://dc.lft.to/lastmile_qr_scan"}, "lon": -77.01685283333333, "bike_id": "5aa446e654f494bf17d51a48ddcecfba", "type": "electric_scooter", "name": "5aa446e654f494bf17d51a48ddcecfba"}, {"is_disabled": 0, "is_reserved": 0, "fusion_lat": 0.0, "lat": 38.91045883333334, "fusion_lon": 0.0, "rental_uris": {"ios": "https://dc.lft.to/lastmile_qr_scan", "android": "https://dc.lft.to/lastmile_qr_scan"}, "lon": -77.0434675, "bike_id": "5e27cbdbdc3e7c985e2274f8f1b90dd0", "type": "electric_scooter", "name": "5e27cbdbdc3e7c985e2274f8f1b90dd0"}, {"is_disabled": 0, "is_reserved": 0, "fusion_lat": 0.0, "lat": 38.936130666666664, "fusion_lon": 0.0, "rental_uris": {"ios": "https://dc.lft.to/lastmile_qr_scan", "android": "https://dc.lft.to/lastmile_qr_scan"}, "lon": -77.03877983333334, "bike_id": "d5e9c7559456c489fc1215c6e9a3a3d9", "type": "electric_scooter", "name": "d5e9c7559456c489fc1215c6e9a3a3d9"}, {"is_disabled": 0, "is_reserved": 0, "fusion_lat": 0.0, "lat": 38.8923005, "fusion_lon": 0.0, "rental_uris": {"ios": "https://dc.lft.to/lastmile_qr_scan", "android": "https://dc.lft.to/lastmile_qr_scan"}, "lon": -77.025759, "bike_id": "8e3d6c52208a294b7ddc65d281748620", "type": "electric_scooter", "name": "8e3d6c52208a294b7ddc65d281748620"}, {"is_disabled": 0, "is_reserved": 0, "fusion_lat": 0.0, "lat": 38.90821033333334, "fusion_lon": 0.0, "rental_uris": {"ios": "https://dc.lft.to/lastmile_qr_scan", "android": "https://dc.lft.to/lastmile_qr_scan"}, "lon": -77.03184333333333, "bike_id": "d2e022f24e3de3dcd67b93a8bd057e7a", "type": "electric_scooter", "name": "d2e022f24e3de3dcd67b93a8bd057e7a"}, {"is_disabled": 0, "is_reserved": 0, "fusion_lat": 0.0, "lat": 38.934118, "fusion_lon": 0.0, "rental_uris": {"ios": "https://dc.lft.to/lastmile_qr_scan", "android": "https://dc.lft.to/lastmile_qr_scan"}, "lon": -77.04286766666667, "bike_id": "83c00809120099ef71c4e119dcbefcbd", "type": "electric_scooter", "name": "83c00809120099ef71c4e119dcbefcbd"}, {"is_disabled": 0, "is_reserved": 0, "fusion_lat": 0.0, "lat": 38.92722916666666, "fusion_lon": 0.0, "rental_uris": {"ios": "https://dc.lft.to/lastmile_qr_scan", "android": "https://dc.lft.to/lastmile_qr_scan"}, "lon": -77.05139233333334, "bike_id": "f5d1c1f0e63fe0b4d296ea0ba43a78c2", "type": "electric_scooter", "name": "f5d1c1f0e63fe0b4d296ea0ba43a78c2"}, {"is_disabled": 0, "is_reserved": 0, "fusion_lat": 0.0, "lat": 38.90990166666667, "fusion_lon": 0.0, "rental_uris": {"ios": "https://dc.lft.to/lastmile_qr_scan", "android": "https://dc.lft.to/lastmile_qr_scan"}, "lon": -77.04452033333334, "bike_id": "0af0fe8683bb2316e58833b1f1645807", "type": "electric_scooter", "name": "0af0fe8683bb2316e58833b1f1645807"}, {"is_disabled": 0, "is_reserved": 0, "fusion_lat": 0.0, "lat": 38.85512883333333, "fusion_lon": 0.0, "rental_uris": {"ios": "https://dc.lft.to/lastmile_qr_scan", "android": "https://dc.lft.to/lastmile_qr_scan"}, "lon": -77.10160366666666, "bike_id": "567b374d4099e51903f08435271fdbb8", "type": "electric_bike", "name": "567b374d4099e51903f08435271fdbb8"}, {"is_disabled": 0, "is_reserved": 0, "fusion_lat": 0.0, "lat": 38.89230716666667, "fusion_lon": 0.0, "rental_uris": {"ios": "https://dc.lft.to/lastmile_qr_scan", "android": "https://dc.lft.to/lastmile_qr_scan"}, "lon": -77.0464225, "bike_id": "8495b9994d224d0e1bc9d00039dcdeb0", "type": "electric_scooter", "name": "8495b9994d224d0e1bc9d00039dcdeb0"}, {"is_disabled": 0, "is_reserved": 0, "fusion_lat": 0.0, "lat": 38.8987895, "fusion_lon": 0.0, "rental_uris": {"ios": "https://dc.lft.to/lastmile_qr_scan", "android": "https://dc.lft.to/lastmile_qr_scan"}, "lon": -76.9318185, "bike_id": "551a3060afe5400aeeaa700eb097303c", "type": "electric_scooter", "name": "551a3060afe5400aeeaa700eb097303c"}, {"is_disabled": 0, "is_reserved": 0, "fusion_lat": 0.0, "lat": 38.910477666666665, "fusion_lon": 0.0, "rental_uris": {"ios": "https://dc.lft.to/lastmile_qr_scan", "android": "https://dc.lft.to/lastmile_qr_scan"}, "lon": -77.0608235, "bike_id": "f52fd1b4a848bbe72a7bb44245131540", "type": "electric_scooter", "name": "f52fd1b4a848bbe72a7bb44245131540"}, {"is_disabled": 0, "is_reserved": 0, "fusion_lat": 0.0, "lat": 38.88515733333333, "fusion_lon": 0.0, "rental_uris": {"ios": "https://dc.lft.to/lastmile_qr_scan", "android": "https://dc.lft.to/lastmile_qr_scan"}, "lon": -77.02822516666667, "bike_id": "3b101e7d19020aad21f1e3de8fd98b6f", "type": "electric_scooter", "name": "3b101e7d19020aad21f1e3de8fd98b6f"}, {"is_disabled": 0, "is_reserved": 0, "fusion_lat": 0.0, "lat": 38.892654, "fusion_lon": 0.0, "rental_uris": {"ios": "https://dc.lft.to/lastmile_qr_scan", "android": "https://dc.lft.to/lastmile_qr_scan"}, "lon": -77.04659066666666, "bike_id": "343b7e4e94e613f7f0bfd61a38e51556", "type": "electric_scooter", "name": "343b7e4e94e613f7f0bfd61a38e51556"}, {"is_disabled": 0, "is_reserved": 0, "fusion_lat": 0.0, "lat": 38.86371616666667, "fusion_lon": 0.0, "rental_uris": {"ios": "https://dc.lft.to/lastmile_qr_scan", "android": "https://dc.lft.to/lastmile_qr_scan"}, "lon": -77.01366066666667, "bike_id": "a4744c7cf9bc3036faba1c998fa7792e", "type": "electric_scooter", "name": "a4744c7cf9bc3036faba1c998fa7792e"}, {"is_disabled": 0, "is_reserved": 0, "fusion_lat": 0.0, "lat": 38.918286, "fusion_lon": 0.0, "rental_uris": {"ios": "https://dc.lft.to/lastmile_qr_scan", "android": "https://dc.lft.to/lastmile_qr_scan"}, "lon": -77.0121425, "bike_id": "a07dc164e2a6d8c4234bb6489c579f1f", "type": "electric_scooter", "name": "a07dc164e2a6d8c4234bb6489c579f1f"}, {"is_disabled": 0, "is_reserved": 0, "fusion_lat": 0.0, "lat": 38.904448, "fusion_lon": 0.0, "rental_uris": {"ios": "https://dc.lft.to/lastmile_qr_scan", "android": "https://dc.lft.to/lastmile_qr_scan"}, "lon": -77.03458583333334, "bike_id": "c9d537c8f5b58b352ea79d47b3d22566", "type": "electric_scooter", "name": "c9d537c8f5b58b352ea79d47b3d22566"}, {"is_disabled": 0, "is_reserved": 0, "fusion_lat": 0.0, "lat": 38.92245316666666, "fusion_lon": 0.0, "rental_uris": {"ios": "https://dc.lft.to/lastmile_qr_scan", "android": "https://dc.lft.to/lastmile_qr_scan"}, "lon": -77.044852, "bike_id": "57a7e0cb68ead64a74dab253ae0b1a7d", "type": "electric_scooter", "name": "57a7e0cb68ead64a74dab253ae0b1a7d"}, {"is_disabled": 0, "is_reserved": 0, "fusion_lat": 0.0, "lat": 38.90268566666667, "fusion_lon": 0.0, "rental_uris": {"ios": "https://dc.lft.to/lastmile_qr_scan", "android": "https://dc.lft.to/lastmile_qr_scan"}, "lon": -77.058915, "bike_id": "870e5f4cb195d26f7dc6c2296584d283", "type": "electric_scooter", "name": "870e5f4cb195d26f7dc6c2296584d283"}, {"is_disabled": 0, "is_reserved": 0, "fusion_lat": 0.0, "lat": 38.874457166666666, "fusion_lon": 0.0, "rental_uris": {"ios": "https://dc.lft.to/lastmile_qr_scan", "android": "https://dc.lft.to/lastmile_qr_scan"}, "lon": -77.00286516666667, "bike_id": "c35a599ef61d55d8524ada21cda4c1a7", "type": "electric_scooter", "name": "c35a599ef61d55d8524ada21cda4c1a7"}, {"is_disabled": 0, "is_reserved": 0, "fusion_lat": 0.0, "lat": 38.947135333333335, "fusion_lon": 0.0, "rental_uris": {"ios": "https://dc.lft.to/lastmile_qr_scan", "android": "https://dc.lft.to/lastmile_qr_scan"}, "lon": -77.0261645, "bike_id": "4f8631fd8b2eb6f4c32d94058fabd7c0", "type": "electric_scooter", "name": "4f8631fd8b2eb6f4c32d94058fabd7c0"}, {"is_disabled": 0, "is_reserved": 0, "fusion_lat": 0.0, "lat": 38.847028, "fusion_lon": 0.0, "rental_uris": {"ios": "https://dc.lft.to/lastmile_qr_scan", "android": "https://dc.lft.to/lastmile_qr_scan"}, "lon": -76.9962235, "bike_id": "e9ed9cc2dcb10bc95ebf80ff891111aa", "type": "electric_bike", "name": "e9ed9cc2dcb10bc95ebf80ff891111aa"}, {"is_disabled": 0, "is_reserved": 0, "fusion_lat": 0.0, "lat": 38.93860433333333, "fusion_lon": 0.0, "rental_uris": {"ios": "https://dc.lft.to/lastmile_qr_scan", "android": "https://dc.lft.to/lastmile_qr_scan"}, "lon": -77.0304905, "bike_id": "2e841322998ffacb27d460cca324f069", "type": "electric_scooter", "name": "2e841322998ffacb27d460cca324f069"}, {"is_disabled": 0, "is_reserved": 0, "fusion_lat": 0.0, "lat": 38.91596766666667, "fusion_lon": 0.0, "rental_uris": {"ios": "https://dc.lft.to/lastmile_qr_scan", "android": "https://dc.lft.to/lastmile_qr_scan"}, "lon": -77.01217383333334, "bike_id": "0934ae5630a7bb13a994003c89ec4d6c", "type": "electric_scooter", "name": "0934ae5630a7bb13a994003c89ec4d6c"}, {"is_disabled": 0, "is_reserved": 0, "fusion_lat": 0.0, "lat": 38.921202, "fusion_lon": 0.0, "rental_uris": {"ios": "https://dc.lft.to/lastmile_qr_scan", "android": "https://dc.lft.to/lastmile_qr_scan"}, "lon": -77.03666883333334, "bike_id": "9c2d38c314042fb7382f38d0a1a185ea", "type": "electric_scooter", "name": "9c2d38c314042fb7382f38d0a1a185ea"}, {"is_disabled": 0, "is_reserved": 0, "fusion_lat": 0.0, "lat": 38.92033216666667, "fusion_lon": 0.0, "rental_uris": {"ios": "https://dc.lft.to/lastmile_qr_scan", "android": "https://dc.lft.to/lastmile_qr_scan"}, "lon": -77.02586933333333, "bike_id": "c988eb4c7885473349527dbded0ef28d", "type": "electric_scooter", "name": "c988eb4c7885473349527dbded0ef28d"}, {"is_disabled": 0, "is_reserved": 0, "fusion_lat": 0.0, "lat": 38.895534, "fusion_lon": 0.0, "rental_uris": {"ios": "https://dc.lft.to/lastmile_qr_scan", "android": "https://dc.lft.to/lastmile_qr_scan"}, "lon": -77.01640416666666, "bike_id": "194ac3b7b89623821c024f4393faaddb", "type": "electric_scooter", "name": "194ac3b7b89623821c024f4393faaddb"}, {"is_disabled": 0, "is_reserved": 0, "fusion_lat": 0.0, "lat": 38.910071333333335, "fusion_lon": 0.0, "rental_uris": {"ios": "https://dc.lft.to/lastmile_qr_scan", "android": "https://dc.lft.to/lastmile_qr_scan"}, "lon": -77.04430216666667, "bike_id": "27ffefd9df12e091e5bfb34a9231c71a", "type": "electric_scooter", "name": "27ffefd9df12e091e5bfb34a9231c71a"}, {"is_disabled": 0, "is_reserved": 0, "fusion_lat": 0.0, "lat": 38.923423, "fusion_lon": 0.0, "rental_uris": {"ios": "https://dc.lft.to/lastmile_qr_scan", "android": "https://dc.lft.to/lastmile_qr_scan"}, "lon": -77.03526016666666, "bike_id": "81d059c5a3231744dcb24b576fd735a2", "type": "electric_scooter", "name": "81d059c5a3231744dcb24b576fd735a2"}, {"is_disabled": 0, "is_reserved": 0, "fusion_lat": 0.0, "lat": 38.89902633333333, "fusion_lon": 0.0, "rental_uris": {"ios": "https://dc.lft.to/lastmile_qr_scan", "android": "https://dc.lft.to/lastmile_qr_scan"}, "lon": -77.03921583333333, "bike_id": "95afc22588ab4d9c639ffa05647eecd6", "type": "electric_scooter", "name": "95afc22588ab4d9c639ffa05647eecd6"}, {"is_disabled": 0, "is_reserved": 0, "fusion_lat": 0.0, "lat": 38.907542666666664, "fusion_lon": 0.0, "rental_uris": {"ios": "https://dc.lft.to/lastmile_qr_scan", "android": "https://dc.lft.to/lastmile_qr_scan"}, "lon": -76.99940566666666, "bike_id": "2438ab7b2bbaca5b4ffb2329957df984", "type": "electric_scooter", "name": "2438ab7b2bbaca5b4ffb2329957df984"}, {"is_disabled": 0, "is_reserved": 0, "fusion_lat": 0.0, "lat": 38.90443766666667, "fusion_lon": 0.0, "rental_uris": {"ios": "https://dc.lft.to/lastmile_qr_scan", "android": "https://dc.lft.to/lastmile_qr_scan"}, "lon": -76.9730635, "bike_id": "3062f97594340edf4f8ef6976a57bddc", "type": "electric_scooter", "name": "3062f97594340edf4f8ef6976a57bddc"}, {"is_disabled": 0, "is_reserved": 0, "fusion_lat": 0.0, "lat": 38.915783833333336, "fusion_lon": 0.0, "rental_uris": {"ios": "https://dc.lft.to/lastmile_qr_scan", "android": "https://dc.lft.to/lastmile_qr_scan"}, "lon": -77.0320735, "bike_id": "7ef33085d4d99b7326f2e937c7ebef70", "type": "electric_scooter", "name": "7ef33085d4d99b7326f2e937c7ebef70"}, {"is_disabled": 0, "is_reserved": 0, "fusion_lat": 0.0, "lat": 38.842684166666665, "fusion_lon": 0.0, "rental_uris": {"ios": "https://dc.lft.to/lastmile_qr_scan", "android": "https://dc.lft.to/lastmile_qr_scan"}, "lon": -76.9883955, "bike_id": "8422b84fbb1034e91f548d03d9f90064", "type": "electric_scooter", "name": "8422b84fbb1034e91f548d03d9f90064"}, {"is_disabled": 0, "is_reserved": 0, "fusion_lat": 0.0, "lat": 38.8997085, "fusion_lon": 0.0, "rental_uris": {"ios": "https://dc.lft.to/lastmile_qr_scan", "android": "https://dc.lft.to/lastmile_qr_scan"}, "lon": -77.016128, "bike_id": "22ebc7dab1e25918586e3076c0cf8bf7", "type": "electric_scooter", "name": "22ebc7dab1e25918586e3076c0cf8bf7"}, {"is_disabled": 0, "is_reserved": 0, "fusion_lat": 0.0, "lat": 38.879178833333334, "fusion_lon": 0.0, "rental_uris": {"ios": "https://dc.lft.to/lastmile_qr_scan", "android": "https://dc.lft.to/lastmile_qr_scan"}, "lon": -76.99509333333333, "bike_id": "b3deb2c6574bdc15c52f501687c3bd18", "type": "electric_scooter", "name": "b3deb2c6574bdc15c52f501687c3bd18"}, {"is_disabled": 0, "is_reserved": 0, "fusion_lat": 0.0, "lat": 38.89225, "fusion_lon": 0.0, "rental_uris": {"ios": "https://dc.lft.to/lastmile_qr_scan", "android": "https://dc.lft.to/lastmile_qr_scan"}, "lon": -77.05007683333334, "bike_id": "fe9367891d87de7aa5146e0911ea92b2", "type": "electric_scooter", "name": "fe9367891d87de7aa5146e0911ea92b2"}, {"is_disabled": 0, "is_reserved": 0, "fusion_lat": 0.0, "lat": 38.8922215, "fusion_lon": 0.0, "rental_uris": {"ios": "https://dc.lft.to/lastmile_qr_scan", "android": "https://dc.lft.to/lastmile_qr_scan"}, "lon": -77.02774733333334, "bike_id": "2b2d4b6f82d9915197b6224fc994bc10", "type": "electric_scooter", "name": "2b2d4b6f82d9915197b6224fc994bc10"}, {"is_disabled": 0, "is_reserved": 0, "fusion_lat": 0.0, "lat": 38.96353516666667, "fusion_lon": 0.0, "rental_uris": {"ios": "https://dc.lft.to/lastmile_qr_scan", "android": "https://dc.lft.to/lastmile_qr_scan"}, "lon": -77.03446233333334, "bike_id": "d3d994d4b5135ee7d2c27a0e9d05cf98", "type": "electric_scooter", "name": "d3d994d4b5135ee7d2c27a0e9d05cf98"}, {"is_disabled": 0, "is_reserved": 0, "fusion_lat": 0.0, "lat": 38.91319033333333, "fusion_lon": 0.0, "rental_uris": {"ios": "https://dc.lft.to/lastmile_qr_scan", "android": "https://dc.lft.to/lastmile_qr_scan"}, "lon": -77.0325885, "bike_id": "c808600834d25a5a9993743025682f75", "type": "electric_scooter", "name": "c808600834d25a5a9993743025682f75"}, {"is_disabled": 0, "is_reserved": 0, "fusion_lat": 0.0, "lat": 38.90524416666667, "fusion_lon": 0.0, "rental_uris": {"ios": "https://dc.lft.to/lastmile_qr_scan", "android": "https://dc.lft.to/lastmile_qr_scan"}, "lon": -77.02968783333333, "bike_id": "16637fe7d8885992133204f314d0cc12", "type": "electric_scooter", "name": "16637fe7d8885992133204f314d0cc12"}, {"is_disabled": 0, "is_reserved": 0, "fusion_lat": 0.0, "lat": 38.9286315, "fusion_lon": 0.0, "rental_uris": {"ios": "https://dc.lft.to/lastmile_qr_scan", "android": "https://dc.lft.to/lastmile_qr_scan"}, "lon": -77.07892366666667, "bike_id": "944944a5b2c0bf95933b0d163176134c", "type": "electric_scooter", "name": "944944a5b2c0bf95933b0d163176134c"}, {"is_disabled": 0, "is_reserved": 0, "fusion_lat": 0.0, "lat": 38.909717, "fusion_lon": 0.0, "rental_uris": {"ios": "https://dc.lft.to/lastmile_qr_scan", "android": "https://dc.lft.to/lastmile_qr_scan"}, "lon": -77.04622183333333, "bike_id": "02725a1fa14eb224bcfa021887cda939", "type": "electric_scooter", "name": "02725a1fa14eb224bcfa021887cda939"}, {"is_disabled": 0, "is_reserved": 0, "fusion_lat": 0.0, "lat": 38.91239866666667, "fusion_lon": 0.0, "rental_uris": {"ios": "https://dc.lft.to/lastmile_qr_scan", "android": "https://dc.lft.to/lastmile_qr_scan"}, "lon": -77.03193383333333, "bike_id": "11f984bb1895481525d9400cf4ba6913", "type": "electric_scooter", "name": "11f984bb1895481525d9400cf4ba6913"}, {"is_disabled": 0, "is_reserved": 0, "fusion_lat": 0.0, "lat": 38.892468666666666, "fusion_lon": 0.0, "rental_uris": {"ios": "https://dc.lft.to/lastmile_qr_scan", "android": "https://dc.lft.to/lastmile_qr_scan"}, "lon": -77.03960183333334, "bike_id": "5b31bc0ffec6b57b50d91e1a38857269", "type": "electric_scooter", "name": "5b31bc0ffec6b57b50d91e1a38857269"}, {"is_disabled": 0, "is_reserved": 0, "fusion_lat": 0.0, "lat": 38.91825333333333, "fusion_lon": 0.0, "rental_uris": {"ios": "https://dc.lft.to/lastmile_qr_scan", "android": "https://dc.lft.to/lastmile_qr_scan"}, "lon": -77.02421516666666, "bike_id": "1559333b6aac53d6a453714e7b007a50", "type": "electric_scooter", "name": "1559333b6aac53d6a453714e7b007a50"}, {"is_disabled": 0, "is_reserved": 0, "fusion_lat": 0.0, "lat": 38.876535, "fusion_lon": 0.0, "rental_uris": {"ios": "https://dc.lft.to/lastmile_qr_scan", "android": "https://dc.lft.to/lastmile_qr_scan"}, "lon": -77.00908, "bike_id": "aeedd1564c465be66c795fe2dc13edc8", "type": "electric_scooter", "name": "aeedd1564c465be66c795fe2dc13edc8"}, {"is_disabled": 0, "is_reserved": 0, "fusion_lat": 0.0, "lat": 38.88364883333333, "fusion_lon": 0.0, "rental_uris": {"ios": "https://dc.lft.to/lastmile_qr_scan", "android": "https://dc.lft.to/lastmile_qr_scan"}, "lon": -76.92790866666667, "bike_id": "ff37a29e6979d43703f84b60fca1eb85", "type": "electric_scooter", "name": "ff37a29e6979d43703f84b60fca1eb85"}, {"is_disabled": 0, "is_reserved": 0, "fusion_lat": 0.0, "lat": 38.887103333333336, "fusion_lon": 0.0, "rental_uris": {"ios": "https://dc.lft.to/lastmile_qr_scan", "android": "https://dc.lft.to/lastmile_qr_scan"}, "lon": -76.98385233333333, "bike_id": "6235cbeef70c6e6db11dee12e389b175", "type": "electric_scooter", "name": "6235cbeef70c6e6db11dee12e389b175"}, {"is_disabled": 0, "is_reserved": 0, "fusion_lat": 0.0, "lat": 38.91825433333333, "fusion_lon": 0.0, "rental_uris": {"ios": "https://dc.lft.to/lastmile_qr_scan", "android": "https://dc.lft.to/lastmile_qr_scan"}, "lon": -77.02421283333334, "bike_id": "17e031e04ac2afb17d6c428b0c1fa386", "type": "electric_scooter", "name": "17e031e04ac2afb17d6c428b0c1fa386"}, {"is_disabled": 0, "is_reserved": 0, "fusion_lat": 0.0, "lat": 38.8901045, "fusion_lon": 0.0, "rental_uris": {"ios": "https://dc.lft.to/lastmile_qr_scan", "android": "https://dc.lft.to/lastmile_qr_scan"}, "lon": -76.937438, "bike_id": "87222a8206bf74e6b3c9a4e0a36bdf3c", "type": "electric_scooter", "name": "87222a8206bf74e6b3c9a4e0a36bdf3c"}, {"is_disabled": 0, "is_reserved": 0, "fusion_lat": 0.0, "lat": 38.901808833333334, "fusion_lon": 0.0, "rental_uris": {"ios": "https://dc.lft.to/lastmile_qr_scan", "android": "https://dc.lft.to/lastmile_qr_scan"}, "lon": -76.97672466666667, "bike_id": "2fc234095991e28203539157f704f83c", "type": "electric_scooter", "name": "2fc234095991e28203539157f704f83c"}, {"is_disabled": 0, "is_reserved": 0, "fusion_lat": 0.0, "lat": 38.91353866666667, "fusion_lon": 0.0, "rental_uris": {"ios": "https://dc.lft.to/lastmile_qr_scan", "android": "https://dc.lft.to/lastmile_qr_scan"}, "lon": -77.04588066666666, "bike_id": "503c0de1bc6d6d82862dcdfee54b5176", "type": "electric_scooter", "name": "503c0de1bc6d6d82862dcdfee54b5176"}, {"is_disabled": 0, "is_reserved": 0, "fusion_lat": 0.0, "lat": 38.8905125, "fusion_lon": 0.0, "rental_uris": {"ios": "https://dc.lft.to/lastmile_qr_scan", "android": "https://dc.lft.to/lastmile_qr_scan"}, "lon": -77.0196805, "bike_id": "5b503dc91f13cfd4db5fc489637fac3c", "type": "electric_scooter", "name": "5b503dc91f13cfd4db5fc489637fac3c"}, {"is_disabled": 0, "is_reserved": 0, "fusion_lat": 0.0, "lat": 38.91414983333333, "fusion_lon": 0.0, "rental_uris": {"ios": "https://dc.lft.to/lastmile_qr_scan", "android": "https://dc.lft.to/lastmile_qr_scan"}, "lon": -77.052106, "bike_id": "defadeb02bffdae5cbb5221b1ebd9142", "type": "electric_scooter", "name": "defadeb02bffdae5cbb5221b1ebd9142"}, {"is_disabled": 0, "is_reserved": 0, "fusion_lat": 0.0, "lat": 38.943292666666665, "fusion_lon": 0.0, "rental_uris": {"ios": "https://dc.lft.to/lastmile_qr_scan", "android": "https://dc.lft.to/lastmile_qr_scan"}, "lon": -77.0269255, "bike_id": "d61b5d0c87b546c9122f0e83e1f028bb", "type": "electric_scooter", "name": "d61b5d0c87b546c9122f0e83e1f028bb"}, {"is_disabled": 0, "is_reserved": 0, "fusion_lat": 0.0, "lat": 38.92194666666666, "fusion_lon": 0.0, "rental_uris": {"ios": "https://dc.lft.to/lastmile_qr_scan", "android": "https://dc.lft.to/lastmile_qr_scan"}, "lon": -77.02040516666666, "bike_id": "abd91d37489fbb1ec01980fa4d57565e", "type": "electric_scooter", "name": "abd91d37489fbb1ec01980fa4d57565e"}, {"is_disabled": 0, "is_reserved": 0, "fusion_lat": 0.0, "lat": 38.927564, "fusion_lon": 0.0, "rental_uris": {"ios": "https://dc.lft.to/lastmile_qr_scan", "android": "https://dc.lft.to/lastmile_qr_scan"}, "lon": -77.052585, "bike_id": "b50c63d96e6c3d58167b2b3b6e6dfde4", "type": "electric_scooter", "name": "b50c63d96e6c3d58167b2b3b6e6dfde4"}, {"is_disabled": 0, "is_reserved": 0, "fusion_lat": 0.0, "lat": 38.905077666666664, "fusion_lon": 0.0, "rental_uris": {"ios": "https://dc.lft.to/lastmile_qr_scan", "android": "https://dc.lft.to/lastmile_qr_scan"}, "lon": -76.951995, "bike_id": "dfdf87f98ff72d45e57434e4a6b02339", "type": "electric_scooter", "name": "dfdf87f98ff72d45e57434e4a6b02339"}, {"is_disabled": 0, "is_reserved": 0, "fusion_lat": 0.0, "lat": 38.901437333333334, "fusion_lon": 0.0, "rental_uris": {"ios": "https://dc.lft.to/lastmile_qr_scan", "android": "https://dc.lft.to/lastmile_qr_scan"}, "lon": -76.97411166666667, "bike_id": "3afd0d7bed29e1fb39357a27836127a7", "type": "electric_scooter", "name": "3afd0d7bed29e1fb39357a27836127a7"}, {"is_disabled": 0, "is_reserved": 0, "fusion_lat": 0.0, "lat": 38.896854833333336, "fusion_lon": 0.0, "rental_uris": {"ios": "https://dc.lft.to/lastmile_qr_scan", "android": "https://dc.lft.to/lastmile_qr_scan"}, "lon": -77.02420166666667, "bike_id": "e53883443de58e34c100a80439995148", "type": "electric_bike", "name": "e53883443de58e34c100a80439995148"}, {"is_disabled": 0, "is_reserved": 0, "fusion_lat": 0.0, "lat": 38.929745833333335, "fusion_lon": 0.0, "rental_uris": {"ios": "https://dc.lft.to/lastmile_qr_scan", "android": "https://dc.lft.to/lastmile_qr_scan"}, "lon": -77.03206116666667, "bike_id": "f46e298307d7a88c1335aa6a4d9786de", "type": "electric_scooter", "name": "f46e298307d7a88c1335aa6a4d9786de"}, {"is_disabled": 0, "is_reserved": 0, "fusion_lat": 0.0, "lat": 38.930620833333336, "fusion_lon": 0.0, "rental_uris": {"ios": "https://dc.lft.to/lastmile_qr_scan", "android": "https://dc.lft.to/lastmile_qr_scan"}, "lon": -77.02326516666666, "bike_id": "f0338a27a7a29a3369ef1a57361d6a4a", "type": "electric_scooter", "name": "f0338a27a7a29a3369ef1a57361d6a4a"}, {"is_disabled": 0, "is_reserved": 0, "fusion_lat": 0.0, "lat": 38.90963816666667, "fusion_lon": 0.0, "rental_uris": {"ios": "https://dc.lft.to/lastmile_qr_scan", "android": "https://dc.lft.to/lastmile_qr_scan"}, "lon": -77.03258533333333, "bike_id": "9536042517fa0a1265785615386805ba", "type": "electric_scooter", "name": "9536042517fa0a1265785615386805ba"}, {"is_disabled": 0, "is_reserved": 0, "fusion_lat": 0.0, "lat": 39.026438666666664, "fusion_lon": 0.0, "rental_uris": {"ios": "https://dc.lft.to/lastmile_qr_scan", "android": "https://dc.lft.to/lastmile_qr_scan"}, "lon": -77.03688433333333, "bike_id": "ff87314c98106d51dc2482b5ae4537e5", "type": "electric_bike", "name": "ff87314c98106d51dc2482b5ae4537e5"}, {"is_disabled": 0, "is_reserved": 0, "fusion_lat": 0.0, "lat": 38.89517983333333, "fusion_lon": 0.0, "rental_uris": {"ios": "https://dc.lft.to/lastmile_qr_scan", "android": "https://dc.lft.to/lastmile_qr_scan"}, "lon": -76.98119233333334, "bike_id": "9a4bd3513060851b7d653d4fc8ee38a2", "type": "electric_scooter", "name": "9a4bd3513060851b7d653d4fc8ee38a2"}, {"is_disabled": 0, "is_reserved": 0, "fusion_lat": 0.0, "lat": 38.886194, "fusion_lon": 0.0, "rental_uris": {"ios": "https://dc.lft.to/lastmile_qr_scan", "android": "https://dc.lft.to/lastmile_qr_scan"}, "lon": -76.92634483333333, "bike_id": "64399a47b8aeefb44d82caf2bc779d7f", "type": "electric_scooter", "name": "64399a47b8aeefb44d82caf2bc779d7f"}, {"is_disabled": 0, "is_reserved": 0, "fusion_lat": 0.0, "lat": 38.920499, "fusion_lon": 0.0, "rental_uris": {"ios": "https://dc.lft.to/lastmile_qr_scan", "android": "https://dc.lft.to/lastmile_qr_scan"}, "lon": -77.03115333333334, "bike_id": "c6ebe4111a8cc3d61c7527f3d5a298e4", "type": "electric_scooter", "name": "c6ebe4111a8cc3d61c7527f3d5a298e4"}, {"is_disabled": 0, "is_reserved": 0, "fusion_lat": 0.0, "lat": 38.92032866666667, "fusion_lon": 0.0, "rental_uris": {"ios": "https://dc.lft.to/lastmile_qr_scan", "android": "https://dc.lft.to/lastmile_qr_scan"}, "lon": -77.02588116666666, "bike_id": "e92053e6c4fc049d6c76cb22d0c19d61", "type": "electric_scooter", "name": "e92053e6c4fc049d6c76cb22d0c19d61"}, {"is_disabled": 0, "is_reserved": 0, "fusion_lat": 0.0, "lat": 38.906827, "fusion_lon": 0.0, "rental_uris": {"ios": "https://dc.lft.to/lastmile_qr_scan", "android": "https://dc.lft.to/lastmile_qr_scan"}, "lon": -77.02700116666666, "bike_id": "7ed69ff7128999212c31d5c9fbab6d6a", "type": "electric_scooter", "name": "7ed69ff7128999212c31d5c9fbab6d6a"}, {"is_disabled": 0, "is_reserved": 0, "fusion_lat": 0.0, "lat": 38.917534, "fusion_lon": 0.0, "rental_uris": {"ios": "https://dc.lft.to/lastmile_qr_scan", "android": "https://dc.lft.to/lastmile_qr_scan"}, "lon": -77.01520683333334, "bike_id": "f487e7f46c91585a6a7b880f7c9c528e", "type": "electric_scooter", "name": "f487e7f46c91585a6a7b880f7c9c528e"}, {"is_disabled": 0, "is_reserved": 0, "fusion_lat": 0.0, "lat": 38.87838333333333, "fusion_lon": 0.0, "rental_uris": {"ios": "https://dc.lft.to/lastmile_qr_scan", "android": "https://dc.lft.to/lastmile_qr_scan"}, "lon": -76.931333, "bike_id": "80c2ad5ec7b27795083b745f711c3185", "type": "electric_scooter", "name": "80c2ad5ec7b27795083b745f711c3185"}, {"is_disabled": 0, "is_reserved": 0, "fusion_lat": 0.0, "lat": 38.92265866666666, "fusion_lon": 0.0, "rental_uris": {"ios": "https://dc.lft.to/lastmile_qr_scan", "android": "https://dc.lft.to/lastmile_qr_scan"}, "lon": -77.03639333333334, "bike_id": "94839c82c4ca888f743d71cbb7d29d59", "type": "electric_scooter", "name": "94839c82c4ca888f743d71cbb7d29d59"}, {"is_disabled": 0, "is_reserved": 0, "fusion_lat": 0.0, "lat": 38.899700833333334, "fusion_lon": 0.0, "rental_uris": {"ios": "https://dc.lft.to/lastmile_qr_scan", "android": "https://dc.lft.to/lastmile_qr_scan"}, "lon": -77.0271785, "bike_id": "0a40fb138edc040dc3385d69b4989f6e", "type": "electric_scooter", "name": "0a40fb138edc040dc3385d69b4989f6e"}, {"is_disabled": 0, "is_reserved": 0, "fusion_lat": 0.0, "lat": 39.010654833333334, "fusion_lon": 0.0, "rental_uris": {"ios": "https://dc.lft.to/lastmile_qr_scan", "android": "https://dc.lft.to/lastmile_qr_scan"}, "lon": -76.9224495, "bike_id": "051e2d8d889f8b061e6e6473a0bb2561", "type": "electric_bike", "name": "051e2d8d889f8b061e6e6473a0bb2561"}, {"is_disabled": 0, "is_reserved": 0, "fusion_lat": 0.0, "lat": 38.882972, "fusion_lon": 0.0, "rental_uris": {"ios": "https://dc.lft.to/lastmile_qr_scan", "android": "https://dc.lft.to/lastmile_qr_scan"}, "lon": -77.025614, "bike_id": "b1e186c3f6bf005be61bc1b9e77a9533", "type": "electric_scooter", "name": "b1e186c3f6bf005be61bc1b9e77a9533"}, {"is_disabled": 0, "is_reserved": 0, "fusion_lat": 0.0, "lat": 38.930807, "fusion_lon": 0.0, "rental_uris": {"ios": "https://dc.lft.to/lastmile_qr_scan", "android": "https://dc.lft.to/lastmile_qr_scan"}, "lon": -77.03460683333333, "bike_id": "a4b4d5b39dca90c9e73655e480660511", "type": "electric_scooter", "name": "a4b4d5b39dca90c9e73655e480660511"}, {"is_disabled": 0, "is_reserved": 0, "fusion_lat": 0.0, "lat": 38.90423116666667, "fusion_lon": 0.0, "rental_uris": {"ios": "https://dc.lft.to/lastmile_qr_scan", "android": "https://dc.lft.to/lastmile_qr_scan"}, "lon": -77.0612125, "bike_id": "b2f06e72b73a13b371008dba1b39d874", "type": "electric_scooter", "name": "b2f06e72b73a13b371008dba1b39d874"}, {"is_disabled": 0, "is_reserved": 0, "fusion_lat": 0.0, "lat": 38.944485, "fusion_lon": 0.0, "rental_uris": {"ios": "https://dc.lft.to/lastmile_qr_scan", "android": "https://dc.lft.to/lastmile_qr_scan"}, "lon": -77.032777, "bike_id": "b0a543c985d857e85397738d74eb300f", "type": "electric_scooter", "name": "b0a543c985d857e85397738d74eb300f"}, {"is_disabled": 0, "is_reserved": 0, "fusion_lat": 0.0, "lat": 38.919525166666666, "fusion_lon": 0.0, "rental_uris": {"ios": "https://dc.lft.to/lastmile_qr_scan", "android": "https://dc.lft.to/lastmile_qr_scan"}, "lon": -77.02310566666667, "bike_id": "d41ba62a487ca1916b138b6d0ec00220", "type": "electric_scooter", "name": "d41ba62a487ca1916b138b6d0ec00220"}, {"is_disabled": 0, "is_reserved": 0, "fusion_lat": 0.0, "lat": 38.9308195, "fusion_lon": 0.0, "rental_uris": {"ios": "https://dc.lft.to/lastmile_qr_scan", "android": "https://dc.lft.to/lastmile_qr_scan"}, "lon": -77.028037, "bike_id": "b4cb752ce813b97f71d49a35fef61e81", "type": "electric_scooter", "name": "b4cb752ce813b97f71d49a35fef61e81"}, {"is_disabled": 0, "is_reserved": 0, "fusion_lat": 0.0, "lat": 38.956125166666666, "fusion_lon": 0.0, "rental_uris": {"ios": "https://dc.lft.to/lastmile_qr_scan", "android": "https://dc.lft.to/lastmile_qr_scan"}, "lon": -77.03316683333334, "bike_id": "e4dac2f0be6509057dfed4c8a5ec6a29", "type": "electric_scooter", "name": "e4dac2f0be6509057dfed4c8a5ec6a29"}, {"is_disabled": 0, "is_reserved": 0, "fusion_lat": 0.0, "lat": 38.92874183333333, "fusion_lon": 0.0, "rental_uris": {"ios": "https://dc.lft.to/lastmile_qr_scan", "android": "https://dc.lft.to/lastmile_qr_scan"}, "lon": -77.03996033333334, "bike_id": "4d29b8a4e92a17eeea0042dc5bb6f1ff", "type": "electric_scooter", "name": "4d29b8a4e92a17eeea0042dc5bb6f1ff"}, {"is_disabled": 0, "is_reserved": 0, "fusion_lat": 0.0, "lat": 38.89715666666667, "fusion_lon": 0.0, "rental_uris": {"ios": "https://dc.lft.to/lastmile_qr_scan", "android": "https://dc.lft.to/lastmile_qr_scan"}, "lon": -77.0240505, "bike_id": "8d30529f2bde3334f1bbbad05a2e9527", "type": "electric_scooter", "name": "8d30529f2bde3334f1bbbad05a2e9527"}, {"is_disabled": 0, "is_reserved": 0, "fusion_lat": 0.0, "lat": 38.903950333333334, "fusion_lon": 0.0, "rental_uris": {"ios": "https://dc.lft.to/lastmile_qr_scan", "android": "https://dc.lft.to/lastmile_qr_scan"}, "lon": -77.06302316666667, "bike_id": "a7b755ebecefc91a8abf0b95d8054c97", "type": "electric_scooter", "name": "a7b755ebecefc91a8abf0b95d8054c97"}, {"is_disabled": 0, "is_reserved": 0, "fusion_lat": 0.0, "lat": 38.90652133333333, "fusion_lon": 0.0, "rental_uris": {"ios": "https://dc.lft.to/lastmile_qr_scan", "android": "https://dc.lft.to/lastmile_qr_scan"}, "lon": -76.97941216666666, "bike_id": "c8c2f50869633197961df5078138e19e", "type": "electric_scooter", "name": "c8c2f50869633197961df5078138e19e"}, {"is_disabled": 0, "is_reserved": 0, "fusion_lat": 0.0, "lat": 38.8924445, "fusion_lon": 0.0, "rental_uris": {"ios": "https://dc.lft.to/lastmile_qr_scan", "android": "https://dc.lft.to/lastmile_qr_scan"}, "lon": -77.0260965, "bike_id": "976d28b5cac26e9452ea1583ebf3978f", "type": "electric_scooter", "name": "976d28b5cac26e9452ea1583ebf3978f"}, {"is_disabled": 0, "is_reserved": 0, "fusion_lat": 0.0, "lat": 38.9096265, "fusion_lon": 0.0, "rental_uris": {"ios": "https://dc.lft.to/lastmile_qr_scan", "android": "https://dc.lft.to/lastmile_qr_scan"}, "lon": -77.0325865, "bike_id": "9ee303af7bfe1a4f0c8abb476bb98349", "type": "electric_scooter", "name": "9ee303af7bfe1a4f0c8abb476bb98349"}, {"is_disabled": 0, "is_reserved": 0, "fusion_lat": 0.0, "lat": 38.905058, "fusion_lon": 0.0, "rental_uris": {"ios": "https://dc.lft.to/lastmile_qr_scan", "android": "https://dc.lft.to/lastmile_qr_scan"}, "lon": -77.0090205, "bike_id": "7cd7cbb03468b17a63063abc5d5a0a02", "type": "electric_scooter", "name": "7cd7cbb03468b17a63063abc5d5a0a02"}, {"is_disabled": 0, "is_reserved": 0, "fusion_lat": 0.0, "lat": 38.904026, "fusion_lon": 0.0, "rental_uris": {"ios": "https://dc.lft.to/lastmile_qr_scan", "android": "https://dc.lft.to/lastmile_qr_scan"}, "lon": -77.029578, "bike_id": "b25ca18221fab34586dd2ca23fabf3c5", "type": "electric_scooter", "name": "b25ca18221fab34586dd2ca23fabf3c5"}, {"is_disabled": 0, "is_reserved": 0, "fusion_lat": 0.0, "lat": 38.916887833333334, "fusion_lon": 0.0, "rental_uris": {"ios": "https://dc.lft.to/lastmile_qr_scan", "android": "https://dc.lft.to/lastmile_qr_scan"}, "lon": -77.0377385, "bike_id": "fa62e66fa9486cbc1e1481f489661d87", "type": "electric_scooter", "name": "fa62e66fa9486cbc1e1481f489661d87"}, {"is_disabled": 0, "is_reserved": 0, "fusion_lat": 0.0, "lat": 38.8340585, "fusion_lon": 0.0, "rental_uris": {"ios": "https://dc.lft.to/lastmile_qr_scan", "android": "https://dc.lft.to/lastmile_qr_scan"},