{"data": {"bikes": [{"rental_uris": {"ios": "https://dc.lft.to/lastmile_qr_scan", "android": "https://dc.lft.to/lastmile_qr_scan"}, "lon": -77.05152233333334, "type": "electric_scooter", "fusion_lat": 0.0, "lat": 38.905913, "name": "a3e8a5e3ec09734a023053903c3d3d2b", "fusion_lon": 0.0, "bike_id": "a3e8a5e3ec09734a023053903c3d3d2b", "is_disabled": 0, "is_reserved": 0}, {"rental_uris": {"ios": "https://dc.lft.to/lastmile_qr_scan", "android": "https://dc.lft.to/lastmile_qr_scan"}, "lon": -76.99877883333333, "type": "electric_scooter", "fusion_lat": 0.0, "lat": 38.90752283333333, "name": "7764c20ec64df2608b0d050507a14225", "fusion_lon": 0.0, "bike_id": "7764c20ec64df2608b0d050507a14225", "is_disabled": 0, "is_reserved": 0}, {"rental_uris": {"ios": "https://dc.lft.to/lastmile_qr_scan", "android": "https://dc.lft.to/lastmile_qr_scan"}, "lon": -76.9720105, "type": "electric_scooter", "fusion_lat": 0.0, "lat": 38.85497016666667, "name": "4b7c31ed5f94d90da531a34c9abb773a", "fusion_lon": 0.0, "bike_id": "4b7c31ed5f94d90da531a34c9abb773a", "is_disabled": 0, "is_reserved": 0}, {"rental_uris": {"ios": "https://dc.lft.to/lastmile_qr_scan", "android": "https://dc.lft.to/lastmile_qr_scan"}, "lon": -77.041562, "type": "electric_scooter", "fusion_lat": 0.0, "lat": 38.90725033333333, "name": "80f8b56416f16da942246cd185ce99f2", "fusion_lon": 0.0, "bike_id": "80f8b56416f16da942246cd185ce99f2", "is_disabled": 0, "is_reserved": 0}, {"rental_uris": {"ios": "https://dc.lft.to/lastmile_qr_scan", "android": "https://dc.lft.to/lastmile_qr_scan"}, "lon": -76.946288, "type": "electric_bike", "fusion_lat": 0.0, "lat": 38.946269666666666, "name": "fb617ae4e462a9de043e404b06576b5d", "fusion_lon": 0.0, "bike_id": "fb617ae4e462a9de043e404b06576b5d", "is_disabled": 0, "is_reserved": 0}, {"rental_uris": {"ios": "https://dc.lft.to/lastmile_qr_scan", "android": "https://dc.lft.to/lastmile_qr_scan"}, "lon": -77.039564, "type": "electric_scooter", "fusion_lat": 0.0, "lat": 38.892443166666666, "name": "2ba506be6a9b92442e4b789f5dc06601", "fusion_lon": 0.0, "bike_id": "2ba506be6a9b92442e4b789f5dc06601", "is_disabled": 0, "is_reserved": 0}, {"rental_uris": {"ios": "https://dc.lft.to/lastmile_qr_scan", "android": "https://dc.lft.to/lastmile_qr_scan"}, "lon": -76.99143716666667, "type": "electric_scooter", "fusion_lat": 0.0, "lat": 38.885928, "name": "be3f3795afdff1a305bff94c17d66f23", "fusion_lon": 0.0, "bike_id": "be3f3795afdff1a305bff94c17d66f23", "is_disabled": 0, "is_reserved": 0}, {"rental_uris": {"ios": "https://dc.lft.to/lastmile_qr_scan", "android": "https://dc.lft.to/lastmile_qr_scan"}, "lon": -77.0221015, "type": "electric_scooter", "fusion_lat": 0.0, "lat": 38.9077835, "name": "3e0fc6fadfd43d5b0e522bf622b8613f", "fusion_lon": 0.0, "bike_id": "3e0fc6fadfd43d5b0e522bf622b8613f", "is_disabled": 0, "is_reserved": 0}, {"rental_uris": {"ios": "https://dc.lft.to/lastmile_qr_scan", "android": "https://dc.lft.to/lastmile_qr_scan"}, "lon": -77.07166683333334, "type": "electric_scooter", "fusion_lat": 0.0, "lat": 38.90745616666667, "name": "2d92c1af011ea47facead1e3fb3942e5", "fusion_lon": 0.0, "bike_id": "2d92c1af011ea47facead1e3fb3942e5", "is_disabled": 0, "is_reserved": 0}, {"rental_uris": {"ios": "https://dc.lft.to/lastmile_qr_scan", "android": "https://dc.lft.to/lastmile_qr_scan"}, "lon": -77.04046966666667, "type": "electric_scooter", "fusion_lat": 0.0, "lat": 38.90500733333333, "name": "5ff9a1689f96009204419b280893f7e9", "fusion_lon": 0.0, "bike_id": "5ff9a1689f96009204419b280893f7e9", "is_disabled": 0, "is_reserved": 0}, {"rental_uris": {"ios": "https://dc.lft.to/lastmile_qr_scan", "android": "https://dc.lft.to/lastmile_qr_scan"}, "lon": -77.02697516666667, "type": "electric_scooter", "fusion_lat": 0.0, "lat": 38.909303, "name": "cf12c88a174abd6c8a7c720480260cf5", "fusion_lon": 0.0, "bike_id": "cf12c88a174abd6c8a7c720480260cf5", "is_disabled": 0, "is_reserved": 0}, {"rental_uris": {"ios": "https://dc.lft.to/lastmile_qr_scan", "android": "https://dc.lft.to/lastmile_qr_scan"}, "lon": -77.0427075, "type": "electric_scooter", "fusion_lat": 0.0, "lat": 38.93414583333333, "name": "a5716d15a96fce138f95a6c650ff7c05", "fusion_lon": 0.0, "bike_id": "a5716d15a96fce138f95a6c650ff7c05", "is_disabled": 0, "is_reserved": 0}, {"rental_uris": {"ios": "https://dc.lft.to/lastmile_qr_scan", "android": "https://dc.lft.to/lastmile_qr_scan"}, "lon": -77.031887, "type": "electric_scooter", "fusion_lat": 0.0, "lat": 38.8938835, "name": "d9d1e98df8aea94cd59d9d5afaab8522", "fusion_lon": 0.0, "bike_id": "d9d1e98df8aea94cd59d9d5afaab8522", "is_disabled": 0, "is_reserved": 0}, {"rental_uris": {"ios": "https://dc.lft.to/lastmile_qr_scan", "android": "https://dc.lft.to/lastmile_qr_scan"}, "lon": -76.95514183333333, "type": "electric_scooter", "fusion_lat": 0.0, "lat": 38.890540666666666, "name": "8e266fef1d8ccf6a01efd4b015d2d3af", "fusion_lon": 0.0, "bike_id": "8e266fef1d8ccf6a01efd4b015d2d3af", "is_disabled": 0, "is_reserved": 0}, {"rental_uris": {"ios": "https://dc.lft.to/lastmile_qr_scan", "android": "https://dc.lft.to/lastmile_qr_scan"}, "lon": -76.985647, "type": "electric_bike", "fusion_lat": 0.0, "lat": 38.86892133333333, "name": "ff59d5ca17d89417eb7c6e797f379abd", "fusion_lon": 0.0, "bike_id": "ff59d5ca17d89417eb7c6e797f379abd", "is_disabled": 0, "is_reserved": 0}, {"rental_uris": {"ios": "https://dc.lft.to/lastmile_qr_scan", "android": "https://dc.lft.to/lastmile_qr_scan"}, "lon": -77.034308, "type": "electric_scooter", "fusion_lat": 0.0, "lat": 38.91256666666666, "name": "d6f3e58feeb950389a663608b7567fa5", "fusion_lon": 0.0, "bike_id": "d6f3e58feeb950389a663608b7567fa5", "is_disabled": 0, "is_reserved": 0}, {"rental_uris": {"ios": "https://dc.lft.to/lastmile_qr_scan", "android": "https://dc.lft.to/lastmile_qr_scan"}, "lon": -76.97561133333333, "type": "electric_bike", "fusion_lat": 0.0, "lat": 38.87263316666667, "name": "8d7d7cb8b2cc6c68d0d3ba75d263ba37", "fusion_lon": 0.0, "bike_id": "8d7d7cb8b2cc6c68d0d3ba75d263ba37", "is_disabled": 0, "is_reserved": 0}, {"rental_uris": {"ios": "https://dc.lft.to/lastmile_qr_scan", "android": "https://dc.lft.to/lastmile_qr_scan"}, "lon": -76.99481183333333, "type": "electric_scooter", "fusion_lat": 0.0, "lat": 38.895592666666666, "name": "89b8da6fe8eb3fe2fb793d5d9156f0e5", "fusion_lon": 0.0, "bike_id": "89b8da6fe8eb3fe2fb793d5d9156f0e5", "is_disabled": 0, "is_reserved": 0}, {"rental_uris": {"ios": "https://dc.lft.to/lastmile_qr_scan", "android": "https://dc.lft.to/lastmile_qr_scan"}, "lon": -76.93161266666667, "type": "electric_scooter", "fusion_lat": 0.0, "lat": 38.898792, "name": "66ddc3153b57e3a11dd8af6f27c42067", "fusion_lon": 0.0, "bike_id": "66ddc3153b57e3a11dd8af6f27c42067", "is_disabled": 0, "is_reserved": 0}, {"rental_uris": {"ios": "https://dc.lft.to/lastmile_qr_scan", "android": "https://dc.lft.to/lastmile_qr_scan"}, "lon": -77.011833, "type": "electric_scooter", "fusion_lat": 0.0, "lat": 38.900426833333334, "name": "3684ec1ea1a74627b201ae5997d7c221", "fusion_lon": 0.0, "bike_id": "3684ec1ea1a74627b201ae5997d7c221", "is_disabled": 0, "is_reserved": 0}, {"rental_uris": {"ios": "https://dc.lft.to/lastmile_qr_scan", "android": "https://dc.lft.to/lastmile_qr_scan"}, "lon": -77.04706133333333, "type": "electric_scooter", "fusion_lat": 0.0, "lat": 38.90863933333333, "name": "cc1ff539e292643a6db0e2b81949bb28", "fusion_lon": 0.0, "bike_id": "cc1ff539e292643a6db0e2b81949bb28", "is_disabled": 0, "is_reserved": 0}, {"rental_uris": {"ios": "https://dc.lft.to/lastmile_qr_scan", "android": "https://dc.lft.to/lastmile_qr_scan"}, "lon": -77.02523683333334, "type": "electric_scooter", "fusion_lat": 0.0, "lat": 38.9328395, "name": "c39f63fd53f0aed4db032401c564020a", "fusion_lon": 0.0, "bike_id": "c39f63fd53f0aed4db032401c564020a", "is_disabled": 0, "is_reserved": 0}, {"rental_uris": {"ios": "https://dc.lft.to/lastmile_qr_scan", "android": "https://dc.lft.to/lastmile_qr_scan"}, "lon": -77.03219716666666, "type": "electric_scooter", "fusion_lat": 0.0, "lat": 38.91303116666667, "name": "c07585091f9924fa95eec9dd0215a2bd", "fusion_lon": 0.0, "bike_id": "c07585091f9924fa95eec9dd0215a2bd", "is_disabled": 0, "is_reserved": 0}, {"rental_uris": {"ios": "https://dc.lft.to/lastmile_qr_scan", "android": "https://dc.lft.to/lastmile_qr_scan"}, "lon": -76.98158883333333, "type": "electric_scooter", "fusion_lat": 0.0, "lat": 38.9002065, "name": "29e8b105492700d1deb6ceb006482a90", "fusion_lon": 0.0, "bike_id": "29e8b105492700d1deb6ceb006482a90", "is_disabled": 0, "is_reserved": 0}, {"rental_uris": {"ios": "https://dc.lft.to/lastmile_qr_scan", "android": "https://dc.lft.to/lastmile_qr_scan"}, "lon": -77.00202666666667, "type": "electric_scooter", "fusion_lat": 0.0, "lat": 38.900368, "name": "75a3c356f38410de6fd06cac51904a8e", "fusion_lon": 0.0, "bike_id": "75a3c356f38410de6fd06cac51904a8e", "is_disabled": 0, "is_reserved": 0}, {"rental_uris": {"ios": "https://dc.lft.to/lastmile_qr_scan", "android": "https://dc.lft.to/lastmile_qr_scan"}, "lon": -77.01926633333333, "type": "electric_scooter", "fusion_lat": 0.0, "lat": 38.94639983333333, "name": "82c4a5ff118a32d30ac47b4f2c426bec", "fusion_lon": 0.0, "bike_id": "82c4a5ff118a32d30ac47b4f2c426bec", "is_disabled": 0, "is_reserved": 0}, {"rental_uris": {"ios": "https://dc.lft.to/lastmile_qr_scan", "android": "https://dc.lft.to/lastmile_qr_scan"}, "lon": -76.94854, "type": "electric_scooter", "fusion_lat": 0.0, "lat": 38.883021166666666, "name": "fc8e2af282052d2283d419a2654708db", "fusion_lon": 0.0, "bike_id": "fc8e2af282052d2283d419a2654708db", "is_disabled": 0, "is_reserved": 0}, {"rental_uris": {"ios": "https://dc.lft.to/lastmile_qr_scan", "android": "https://dc.lft.to/lastmile_qr_scan"}, "lon": -77.03849066666666, "type": "electric_scooter", "fusion_lat": 0.0, "lat": 38.90861966666667, "name": "6e2d9f3653f133ff90f1c562679cd0c2", "fusion_lon": 0.0, "bike_id": "6e2d9f3653f133ff90f1c562679cd0c2", "is_disabled": 0, "is_reserved": 0}, {"rental_uris": {"ios": "https://dc.lft.to/lastmile_qr_scan", "android": "https://dc.lft.to/lastmile_qr_scan"}, "lon": -77.04155183333333, "type": "electric_scooter", "fusion_lat": 0.0, "lat": 38.918106333333334, "name": "bf055620767281780c4a82cdccb68fb6", "fusion_lon": 0.0, "bike_id": "bf055620767281780c4a82cdccb68fb6", "is_disabled": 0, "is_reserved": 0}, {"rental_uris": {"ios": "https://dc.lft.to/lastmile_qr_scan", "android": "https://dc.lft.to/lastmile_qr_scan"}, "lon": -77.02215683333333, "type": "electric_scooter", "fusion_lat": 0.0, "lat": 38.90577433333333, "name": "e76c153aaa27297fc955f77945089610", "fusion_lon": 0.0, "bike_id": "e76c153aaa27297fc955f77945089610", "is_disabled": 0, "is_reserved": 0}, {"rental_uris": {"ios": "https://dc.lft.to/lastmile_qr_scan", "android": "https://dc.lft.to/lastmile_qr_scan"}, "lon": -77.00794933333333, "type": "electric_scooter", "fusion_lat": 0.0, "lat": 38.906521166666664, "name": "f1e7dd1d081993fdcc81bc0577e2241f", "fusion_lon": 0.0, "bike_id": "f1e7dd1d081993fdcc81bc0577e2241f", "is_disabled": 0, "is_reserved": 0}, {"rental_uris": {"ios": "https://dc.lft.to/lastmile_qr_scan", "android": "https://dc.lft.to/lastmile_qr_scan"}, "lon": -77.0253005, "type": "electric_scooter", "fusion_lat": 0.0, "lat": 38.924885333333336, "name": "9d858fd341e0d37634df44b18f01e1b3", "fusion_lon": 0.0, "bike_id": "9d858fd341e0d37634df44b18f01e1b3", "is_disabled": 0, "is_reserved": 0}, {"rental_uris": {"ios": "https://dc.lft.to/lastmile_qr_scan", "android": "https://dc.lft.to/lastmile_qr_scan"}, "lon": -77.03713916666666, "type": "electric_scooter", "fusion_lat": 0.0, "lat": 38.926430333333336, "name": "6a4b3f9848de02cc82da3b41b416981f", "fusion_lon": 0.0, "bike_id": "6a4b3f9848de02cc82da3b41b416981f", "is_disabled": 0, "is_reserved": 0}, {"rental_uris": {"ios": "https://dc.lft.to/lastmile_qr_scan", "android": "https://dc.lft.to/lastmile_qr_scan"}, "lon": -77.00268033333333, "type": "electric_scooter", "fusion_lat": 0.0, "lat": 38.87756433333333, "name": "ed4fab15b95400db86f042f5f86ba145", "fusion_lon": 0.0, "bike_id": "ed4fab15b95400db86f042f5f86ba145", "is_disabled": 0, "is_reserved": 0}, {"rental_uris": {"ios": "https://dc.lft.to/lastmile_qr_scan", "android": "https://dc.lft.to/lastmile_qr_scan"}, "lon": -77.040279, "type": "electric_scooter", "fusion_lat": 0.0, "lat": 38.924430666666666, "name": "32daa4b928738d80e8796ff40fefcc91", "fusion_lon": 0.0, "bike_id": "32daa4b928738d80e8796ff40fefcc91", "is_disabled": 0, "is_reserved": 0}, {"rental_uris": {"ios": "https://dc.lft.to/lastmile_qr_scan", "android": "https://dc.lft.to/lastmile_qr_scan"}, "lon": -77.0141245, "type": "electric_scooter", "fusion_lat": 0.0, "lat": 38.92801816666667, "name": "769d3d0248f445b0076c1a31166da6d0", "fusion_lon": 0.0, "bike_id": "769d3d0248f445b0076c1a31166da6d0", "is_disabled": 0, "is_reserved": 0}, {"rental_uris": {"ios": "https://dc.lft.to/lastmile_qr_scan", "android": "https://dc.lft.to/lastmile_qr_scan"}, "lon": -76.98327283333333, "type": "electric_scooter", "fusion_lat": 0.0, "lat": 38.86173733333333, "name": "646a1d7355c2e428b66e385969a059ad", "fusion_lon": 0.0, "bike_id": "646a1d7355c2e428b66e385969a059ad", "is_disabled": 0, "is_reserved": 0}, {"rental_uris": {"ios": "https://dc.lft.to/lastmile_qr_scan", "android": "https://dc.lft.to/lastmile_qr_scan"}, "lon": -77.02356366666666, "type": "electric_scooter", "fusion_lat": 0.0, "lat": 38.925179666666665, "name": "fa9a396eff5c39279fefc88536ddb6cd", "fusion_lon": 0.0, "bike_id": "fa9a396eff5c39279fefc88536ddb6cd", "is_disabled": 0, "is_reserved": 0}, {"rental_uris": {"ios": "https://dc.lft.to/lastmile_qr_scan", "android": "https://dc.lft.to/lastmile_qr_scan"}, "lon": -77.03177366666667, "type": "electric_scooter", "fusion_lat": 0.0, "lat": 38.915595833333334, "name": "94c12fea9fe3cb010ba484507560cc15", "fusion_lon": 0.0, "bike_id": "94c12fea9fe3cb010ba484507560cc15", "is_disabled": 0, "is_reserved": 0}, {"rental_uris": {"ios": "https://dc.lft.to/lastmile_qr_scan", "android": "https://dc.lft.to/lastmile_qr_scan"}, "lon": -77.02968016666667, "type": "electric_scooter", "fusion_lat": 0.0, "lat": 38.92401566666667, "name": "6bd669b66c0f6114cbefb3b2149edc40", "fusion_lon": 0.0, "bike_id": "6bd669b66c0f6114cbefb3b2149edc40", "is_disabled": 0, "is_reserved": 0}, {"rental_uris": {"ios": "https://dc.lft.to/lastmile_qr_scan", "android": "https://dc.lft.to/lastmile_qr_scan"}, "lon": -77.15267516666667, "type": "electric_bike", "fusion_lat": 0.0, "lat": 39.10567116666667, "name": "532377106fe54c376f5704844c5bdb88", "fusion_lon": 0.0, "bike_id": "532377106fe54c376f5704844c5bdb88", "is_disabled": 0, "is_reserved": 0}, {"rental_uris": {"ios": "https://dc.lft.to/lastmile_qr_scan", "android": "https://dc.lft.to/lastmile_qr_scan"}, "lon": -77.041781, "type": "electric_scooter", "fusion_lat": 0.0, "lat": 38.91934916666666, "name": "e1ba6809d01290af51cee8292de186ef", "fusion_lon": 0.0, "bike_id": "e1ba6809d01290af51cee8292de186ef", "is_disabled": 0, "is_reserved": 0}, {"rental_uris": {"ios": "https://dc.lft.to/lastmile_qr_scan", "android": "https://dc.lft.to/lastmile_qr_scan"}, "lon": -77.0420375, "type": "electric_scooter", "fusion_lat": 0.0, "lat": 38.90341, "name": "9369fa0f32d40a383445c779f908f399", "fusion_lon": 0.0, "bike_id": "9369fa0f32d40a383445c779f908f399", "is_disabled": 0, "is_reserved": 0}, {"rental_uris": {"ios": "https://dc.lft.to/lastmile_qr_scan", "android": "https://dc.lft.to/lastmile_qr_scan"}, "lon": -76.9575645, "type": "electric_scooter", "fusion_lat": 0.0, "lat": 38.884307666666665, "name": "f13008c630b8241d1c1653e40a5fb9e2", "fusion_lon": 0.0, "bike_id": "f13008c630b8241d1c1653e40a5fb9e2", "is_disabled": 0, "is_reserved": 0}, {"rental_uris": {"ios": "https://dc.lft.to/lastmile_qr_scan", "android": "https://dc.lft.to/lastmile_qr_scan"}, "lon": -77.029949, "type": "electric_scooter", "fusion_lat": 0.0, "lat": 38.9102795, "name": "bcf6127afcc21c19a4a8e9c5a1f6d3fe", "fusion_lon": 0.0, "bike_id": "bcf6127afcc21c19a4a8e9c5a1f6d3fe", "is_disabled": 0, "is_reserved": 0}, {"rental_uris": {"ios": "https://dc.lft.to/lastmile_qr_scan", "android": "https://dc.lft.to/lastmile_qr_scan"}, "lon": -77.03199716666667, "type": "electric_scooter", "fusion_lat": 0.0, "lat": 38.91460883333333, "name": "cece62cf6bbcca65f331f098ecb170cd", "fusion_lon": 0.0, "bike_id": "cece62cf6bbcca65f331f098ecb170cd", "is_disabled": 0, "is_reserved": 0}, {"rental_uris": {"ios": "https://dc.lft.to/lastmile_qr_scan", "android": "https://dc.lft.to/lastmile_qr_scan"}, "lon": -77.021676, "type": "electric_scooter", "fusion_lat": 0.0, "lat": 38.886406, "name": "8005f20da4ef4ba516c33ca7acf06a90", "fusion_lon": 0.0, "bike_id": "8005f20da4ef4ba516c33ca7acf06a90", "is_disabled": 0, "is_reserved": 0}, {"rental_uris": {"ios": "https://dc.lft.to/lastmile_qr_scan", "android": "https://dc.lft.to/lastmile_qr_scan"}, "lon": -76.94771883333334, "type": "electric_scooter", "fusion_lat": 0.0, "lat": 38.896186166666666, "name": "0c2fe99fb6895cc430d21ce2d8f1164b", "fusion_lon": 0.0, "bike_id": "0c2fe99fb6895cc430d21ce2d8f1164b", "is_disabled": 0, "is_reserved": 0}, {"rental_uris": {"ios": "https://dc.lft.to/lastmile_qr_scan", "android": "https://dc.lft.to/lastmile_qr_scan"}, "lon": -77.10340833333333, "type": "electric_bike", "fusion_lat": 0.0, "lat": 38.852261666666664, "name": "293e31d46d184b0ed38ad5424512a438", "fusion_lon": 0.0, "bike_id": "293e31d46d184b0ed38ad5424512a438", "is_disabled": 0, "is_reserved": 0}, {"rental_uris": {"ios": "https://dc.lft.to/lastmile_qr_scan", "android": "https://dc.lft.to/lastmile_qr_scan"}, "lon": -77.00135, "type": "electric_scooter", "fusion_lat": 0.0, "lat": 38.9041475, "name": "7339df47e8c5768da69dd49f4dc31c9c", "fusion_lon": 0.0, "bike_id": "7339df47e8c5768da69dd49f4dc31c9c", "is_disabled": 0, "is_reserved": 0}, {"rental_uris": {"ios": "https://dc.lft.to/lastmile_qr_scan", "android": "https://dc.lft.to/lastmile_qr_scan"}, "lon": -77.0298165, "type": "electric_scooter", "fusion_lat": 0.0, "lat": 38.962345, "name": "36c9b5ec866d8fbcc3d532403c106d7a", "fusion_lon": 0.0, "bike_id": "36c9b5ec866d8fbcc3d532403c106d7a", "is_disabled": 0, "is_reserved": 0}, {"rental_uris": {"ios": "https://dc.lft.to/lastmile_qr_scan", "android": "https://dc.lft.to/lastmile_qr_scan"}, "lon": -77.00876833333334, "type": "electric_scooter", "fusion_lat": 0.0, "lat": 38.9140135, "name": "91b07437bb6fe93c397fa9fdd4775a03", "fusion_lon": 0.0, "bike_id": "91b07437bb6fe93c397fa9fdd4775a03", "is_disabled": 0, "is_reserved": 0}, {"rental_uris": {"ios": "https://dc.lft.to/lastmile_qr_scan", "android": "https://dc.lft.to/lastmile_qr_scan"}, "lon": -77.0363065, "type": "electric_bike", "fusion_lat": 0.0, "lat": 38.932891833333336, "name": "a2fc15a234fafcb9284409ea284faa94", "fusion_lon": 0.0, "bike_id": "a2fc15a234fafcb9284409ea284faa94", "is_disabled": 0, "is_reserved": 0}, {"rental_uris": {"ios": "https://dc.lft.to/lastmile_qr_scan", "android": "https://dc.lft.to/lastmile_qr_scan"}, "lon": -77.02706766666667, "type": "electric_scooter", "fusion_lat": 0.0, "lat": 38.92780466666667, "name": "6b2d6fe6a95cc342db1df20bd4ac7656", "fusion_lon": 0.0, "bike_id": "6b2d6fe6a95cc342db1df20bd4ac7656", "is_disabled": 0, "is_reserved": 0}, {"rental_uris": {"ios": "https://dc.lft.to/lastmile_qr_scan", "android": "https://dc.lft.to/lastmile_qr_scan"}, "lon": -76.94663933333334, "type": "electric_scooter", "fusion_lat": 0.0, "lat": 38.898721333333334, "name": "ecbd62cd84abb572065ddf1b87e3544e", "fusion_lon": 0.0, "bike_id": "ecbd62cd84abb572065ddf1b87e3544e", "is_disabled": 0, "is_reserved": 0}, {"rental_uris": {"ios": "https://dc.lft.to/lastmile_qr_scan", "android": "https://dc.lft.to/lastmile_qr_scan"}, "lon": -77.01183783333333, "type": "electric_scooter", "fusion_lat": 0.0, "lat": 38.915473166666665, "name": "97fbf07845abc75a509458b54b8ecc9d", "fusion_lon": 0.0, "bike_id": "97fbf07845abc75a509458b54b8ecc9d", "is_disabled": 0, "is_reserved": 0}, {"rental_uris": {"ios": "https://dc.lft.to/lastmile_qr_scan", "android": "https://dc.lft.to/lastmile_qr_scan"}, "lon": -77.048193, "type": "electric_scooter", "fusion_lat": 0.0, "lat": 38.92037416666667, "name": "8e684fbd3c91412e742f81d516dc2bde", "fusion_lon": 0.0, "bike_id": "8e684fbd3c91412e742f81d516dc2bde", "is_disabled": 0, "is_reserved": 0}, {"rental_uris": {"ios": "https://dc.lft.to/lastmile_qr_scan", "android": "https://dc.lft.to/lastmile_qr_scan"}, "lon": -76.98938166666667, "type": "electric_bike", "fusion_lat": 0.0, "lat": 38.92857133333333, "name": "b58bc52798f7e3fa8b769af011db2f3e", "fusion_lon": 0.0, "bike_id": "b58bc52798f7e3fa8b769af011db2f3e", "is_disabled": 0, "is_reserved": 0}, {"rental_uris": {"ios": "https://dc.lft.to/lastmile_qr_scan", "android": "https://dc.lft.to/lastmile_qr_scan"}, "lon": -77.00065833333333, "type": "electric_scooter", "fusion_lat": 0.0, "lat": 38.925531, "name": "60d2340535ec5f2aff7c8dff7b57476b", "fusion_lon": 0.0, "bike_id": "60d2340535ec5f2aff7c8dff7b57476b", "is_disabled": 0, "is_reserved": 0}, {"rental_uris": {"ios": "https://dc.lft.to/lastmile_qr_scan", "android": "https://dc.lft.to/lastmile_qr_scan"}, "lon": -77.03209266666667, "type": "electric_scooter", "fusion_lat": 0.0, "lat": 38.917168333333336, "name": "c396c73846bda5cc9bf7843ead7cb342", "fusion_lon": 0.0, "bike_id": "c396c73846bda5cc9bf7843ead7cb342", "is_disabled": 0, "is_reserved": 0}, {"rental_uris": {"ios": "https://dc.lft.to/lastmile_qr_scan", "android": "https://dc.lft.to/lastmile_qr_scan"}, "lon": -77.0209465, "type": "electric_scooter", "fusion_lat": 0.0, "lat": 38.934472, "name": "ef08bdbadf51783163c28b2a04111239", "fusion_lon": 0.0, "bike_id": "ef08bdbadf51783163c28b2a04111239", "is_disabled": 0, "is_reserved": 0}, {"rental_uris": {"ios": "https://dc.lft.to/lastmile_qr_scan", "android": "https://dc.lft.to/lastmile_qr_scan"}, "lon": -77.0383675, "type": "electric_scooter", "fusion_lat": 0.0, "lat": 38.90377333333333, "name": "343440f7f056965092031e2a954a4fe6", "fusion_lon": 0.0, "bike_id": "343440f7f056965092031e2a954a4fe6", "is_disabled": 0, "is_reserved": 0}, {"rental_uris": {"ios": "https://dc.lft.to/lastmile_qr_scan", "android": "https://dc.lft.to/lastmile_qr_scan"}, "lon": -77.00342483333333, "type": "electric_scooter", "fusion_lat": 0.0, "lat": 38.891601333333334, "name": "646875d730ab5c6e9a090daee7ca35c6", "fusion_lon": 0.0, "bike_id": "646875d730ab5c6e9a090daee7ca35c6", "is_disabled": 0, "is_reserved": 0}, {"rental_uris": {"ios": "https://dc.lft.to/lastmile_qr_scan", "android": "https://dc.lft.to/lastmile_qr_scan"}, "lon": -77.19908433333333, "type": "electric_bike", "fusion_lat": 0.0, "lat": 38.87534083333333, "name": "7b3922a87e09ed230820adeb5df7c319", "fusion_lon": 0.0, "bike_id": "7b3922a87e09ed230820adeb5df7c319", "is_disabled": 0, "is_reserved": 0}, {"rental_uris": {"ios": "https://dc.lft.to/lastmile_qr_scan", "android": "https://dc.lft.to/lastmile_qr_scan"}, "lon": -77.029522, "type": "electric_bike", "fusion_lat": 0.0, "lat": 38.9115325, "name": "f5817b8c7a938295a5a0735b494e29fa", "fusion_lon": 0.0, "bike_id": "f5817b8c7a938295a5a0735b494e29fa", "is_disabled": 0, "is_reserved": 0}, {"rental_uris": {"ios": "https://dc.lft.to/lastmile_qr_scan", "android": "https://dc.lft.to/lastmile_qr_scan"}, "lon": -77.14988183333334, "type": "electric_bike", "fusion_lat": 0.0, "lat": 39.09460083333333, "name": "fd018081b5917276408d0fbd96ae886e", "fusion_lon": 0.0, "bike_id": "fd018081b5917276408d0fbd96ae886e", "is_disabled": 0, "is_reserved": 0}, {"rental_uris": {"ios": "https://dc.lft.to/lastmile_qr_scan", "android": "https://dc.lft.to/lastmile_qr_scan"}, "lon": -77.02475416666667, "type": "electric_scooter", "fusion_lat": 0.0, "lat": 38.933558833333336, "name": "b9b5447f5baed46bd938fdc0a0a95848", "fusion_lon": 0.0, "bike_id": "b9b5447f5baed46bd938fdc0a0a95848", "is_disabled": 0, "is_reserved": 0}, {"rental_uris": {"ios": "https://dc.lft.to/lastmile_qr_scan", "android": "https://dc.lft.to/lastmile_qr_scan"}, "lon": -77.02481216666666, "type": "electric_scooter", "fusion_lat": 0.0, "lat": 38.93097233333334, "name": "be3802c644f161076574d631a5c0b8ef", "fusion_lon": 0.0, "bike_id": "be3802c644f161076574d631a5c0b8ef", "is_disabled": 0, "is_reserved": 0}, {"rental_uris": {"ios": "https://dc.lft.to/lastmile_qr_scan", "android": "https://dc.lft.to/lastmile_qr_scan"}, "lon": -77.00653216666667, "type": "electric_scooter", "fusion_lat": 0.0, "lat": 38.9086375, "name": "bf3f100261181b42422212862453b45f", "fusion_lon": 0.0, "bike_id": "bf3f100261181b42422212862453b45f", "is_disabled": 0, "is_reserved": 0}, {"rental_uris": {"ios": "https://dc.lft.to/lastmile_qr_scan", "android": "https://dc.lft.to/lastmile_qr_scan"}, "lon": -77.03443066666667, "type": "electric_scooter", "fusion_lat": 0.0, "lat": 38.90947333333333, "name": "1bb5ef7bc2172c127732048046a5ab04", "fusion_lon": 0.0, "bike_id": "1bb5ef7bc2172c127732048046a5ab04", "is_disabled": 0, "is_reserved": 0}, {"rental_uris": {"ios": "https://dc.lft.to/lastmile_qr_scan", "android": "https://dc.lft.to/lastmile_qr_scan"}, "lon": -77.02394216666667, "type": "electric_scooter", "fusion_lat": 0.0, "lat": 38.952950333333334, "name": "5a290df969ea487defb5b4af4f095f15", "fusion_lon": 0.0, "bike_id": "5a290df969ea487defb5b4af4f095f15", "is_disabled": 0, "is_reserved": 0}, {"rental_uris": {"ios": "https://dc.lft.to/lastmile_qr_scan", "android": "https://dc.lft.to/lastmile_qr_scan"}, "lon": -77.02652433333333, "type": "electric_scooter", "fusion_lat": 0.0, "lat": 38.9386305, "name": "68e50402a0668c770a87581f1b24eb7c", "fusion_lon": 0.0, "bike_id": "68e50402a0668c770a87581f1b24eb7c", "is_disabled": 0, "is_reserved": 0}, {"rental_uris": {"ios": "https://dc.lft.to/lastmile_qr_scan", "android": "https://dc.lft.to/lastmile_qr_scan"}, "lon": -77.01769566666667, "type": "electric_scooter", "fusion_lat": 0.0, "lat": 38.900427, "name": "3757206f59516d27bb2f8df8366d5f0c", "fusion_lon": 0.0, "bike_id": "3757206f59516d27bb2f8df8366d5f0c", "is_disabled": 0, "is_reserved": 0}, {"rental_uris": {"ios": "https://dc.lft.to/lastmile_qr_scan", "android": "https://dc.lft.to/lastmile_qr_scan"}, "lon": -77.00985033333333, "type": "electric_scooter", "fusion_lat": 0.0, "lat": 38.91491716666667, "name": "9ef7c5af3f2b62d6d9ad055b485dcf52", "fusion_lon": 0.0, "bike_id": "9ef7c5af3f2b62d6d9ad055b485dcf52", "is_disabled": 0, "is_reserved": 0}, {"rental_uris": {"ios": "https://dc.lft.to/lastmile_qr_scan", "android": "https://dc.lft.to/lastmile_qr_scan"}, "lon": -76.9662565, "type": "electric_bike", "fusion_lat": 0.0, "lat": 38.9420295, "name": "3f0446a1b5584dea6e26913c98952612", "fusion_lon": 0.0, "bike_id": "3f0446a1b5584dea6e26913c98952612", "is_disabled": 0, "is_reserved": 0}, {"rental_uris": {"ios": "https://dc.lft.to/lastmile_qr_scan", "android": "https://dc.lft.to/lastmile_qr_scan"}, "lon": -77.01052566666667, "type": "electric_scooter", "fusion_lat": 0.0, "lat": 38.8793515, "name": "443c0319ac0c33d2db2eaaa72c31f6fe", "fusion_lon": 0.0, "bike_id": "443c0319ac0c33d2db2eaaa72c31f6fe", "is_disabled": 0, "is_reserved": 0}, {"rental_uris": {"ios": "https://dc.lft.to/lastmile_qr_scan", "android": "https://dc.lft.to/lastmile_qr_scan"}, "lon": -77.03567466666667, "type": "electric_scooter", "fusion_lat": 0.0, "lat": 38.908678, "name": "20bf63e00cccc10f41220e5596860cc5", "fusion_lon": 0.0, "bike_id": "20bf63e00cccc10f41220e5596860cc5", "is_disabled": 0, "is_reserved": 0}, {"rental_uris": {"ios": "https://dc.lft.to/lastmile_qr_scan", "android": "https://dc.lft.to/lastmile_qr_scan"}, "lon": -77.04245516666667, "type": "electric_scooter", "fusion_lat": 0.0, "lat": 38.922977333333336, "name": "6f12d0250219657551af82f9da28a6b1", "fusion_lon": 0.0, "bike_id": "6f12d0250219657551af82f9da28a6b1", "is_disabled": 0, "is_reserved": 0}, {"rental_uris": {"ios": "https://dc.lft.to/lastmile_qr_scan", "android": "https://dc.lft.to/lastmile_qr_scan"}, "lon": -77.067595, "type": "electric_scooter", "fusion_lat": 0.0, "lat": 38.9156965, "name": "f6ec597ad198f298f0430366dd1d0756", "fusion_lon": 0.0, "bike_id": "f6ec597ad198f298f0430366dd1d0756", "is_disabled": 0, "is_reserved": 0}, {"rental_uris": {"ios": "https://dc.lft.to/lastmile_qr_scan", "android": "https://dc.lft.to/lastmile_qr_scan"}, "lon": -77.02592816666667, "type": "electric_scooter", "fusion_lat": 0.0, "lat": 38.89601066666667, "name": "da771067402166a5e413584b7600123b", "fusion_lon": 0.0, "bike_id": "da771067402166a5e413584b7600123b", "is_disabled": 0, "is_reserved": 0}, {"rental_uris": {"ios": "https://dc.lft.to/lastmile_qr_scan", "android": "https://dc.lft.to/lastmile_qr_scan"}, "lon": -77.02111433333333, "type": "electric_scooter", "fusion_lat": 0.0, "lat": 38.913217, "name": "d7a8a898f796af9154ffbe956a05f12d", "fusion_lon": 0.0, "bike_id": "d7a8a898f796af9154ffbe956a05f12d", "is_disabled": 0, "is_reserved": 0}, {"rental_uris": {"ios": "https://dc.lft.to/lastmile_qr_scan", "android": "https://dc.lft.to/lastmile_qr_scan"}, "lon": -77.01112966666666, "type": "electric_scooter", "fusion_lat": 0.0, "lat": 38.90780383333333, "name": "7a01b631f3323b63c2becf2553bcc592", "fusion_lon": 0.0, "bike_id": "7a01b631f3323b63c2becf2553bcc592", "is_disabled": 0, "is_reserved": 0}, {"rental_uris": {"ios": "https://dc.lft.to/lastmile_qr_scan", "android": "https://dc.lft.to/lastmile_qr_scan"}, "lon": -76.93754116666666, "type": "electric_scooter", "fusion_lat": 0.0, "lat": 38.89052066666667, "name": "04b3b74dcbf4d692bde71d823ee6c8a7", "fusion_lon": 0.0, "bike_id": "04b3b74dcbf4d692bde71d823ee6c8a7", "is_disabled": 0, "is_reserved": 0}, {"rental_uris": {"ios": "https://dc.lft.to/lastmile_qr_scan", "android": "https://dc.lft.to/lastmile_qr_scan"}, "lon": -77.02278016666666, "type": "electric_scooter", "fusion_lat": 0.0, "lat": 38.91672483333333, "name": "3a0c124e1b0f4c281ec354aa9f994afc", "fusion_lon": 0.0, "bike_id": "3a0c124e1b0f4c281ec354aa9f994afc", "is_disabled": 0, "is_reserved": 0}, {"rental_uris": {"ios": "https://dc.lft.to/lastmile_qr_scan", "android": "https://dc.lft.to/lastmile_qr_scan"}, "lon": -76.97500333333333, "type": "electric_bike", "fusion_lat": 0.0, "lat": 38.91933933333333, "name": "6733fb05f234d5be138d2bb6889ad281", "fusion_lon": 0.0, "bike_id": "6733fb05f234d5be138d2bb6889ad281", "is_disabled": 0, "is_reserved": 0}, {"rental_uris": {"ios": "https://dc.lft.to/lastmile_qr_scan", "android": "https://dc.lft.to/lastmile_qr_scan"}, "lon": -77.03192666666666, "type": "electric_scooter", "fusion_lat": 0.0, "lat": 38.9078825, "name": "b93f6cd02923f5e81e855d9f8dce6b6d", "fusion_lon": 0.0, "bike_id": "b93f6cd02923f5e81e855d9f8dce6b6d", "is_disabled": 0, "is_reserved": 0}, {"rental_uris": {"ios": "https://dc.lft.to/lastmile_qr_scan", "android": "https://dc.lft.to/lastmile_qr_scan"}, "lon": -77.04249066666667, "type": "electric_scooter", "fusion_lat": 0.0, "lat": 38.90845016666667, "name": "f6323c36b31609845db17377df2a9af5", "fusion_lon": 0.0, "bike_id": "f6323c36b31609845db17377df2a9af5", "is_disabled": 0, "is_reserved": 0}, {"rental_uris": {"ios": "https://dc.lft.to/lastmile_qr_scan", "android": "https://dc.lft.to/lastmile_qr_scan"}, "lon": -76.97319066666667, "type": "electric_scooter", "fusion_lat": 0.0, "lat": 38.93024166666667, "name": "5d78785c7145ad50b04c87362a54c5f6", "fusion_lon": 0.0, "bike_id": "5d78785c7145ad50b04c87362a54c5f6", "is_disabled": 0, "is_reserved": 0}, {"rental_uris": {"ios": "https://dc.lft.to/lastmile_qr_scan", "android": "https://dc.lft.to/lastmile_qr_scan"}, "lon": -76.99604416666666, "type": "electric_scooter", "fusion_lat": 0.0, "lat": 38.886238166666665, "name": "ef1de67ac0b93e0a605526d816ada333", "fusion_lon": 0.0, "bike_id": "ef1de67ac0b93e0a605526d816ada333", "is_disabled": 0, "is_reserved": 0}, {"rental_uris": {"ios": "https://dc.lft.to/lastmile_qr_scan", "android": "https://dc.lft.to/lastmile_qr_scan"}, "lon": -76.97564566666667, "type": "electric_scooter", "fusion_lat": 0.0, "lat": 38.9045165, "name": "a6c83fbcf3fa5fe9bae7aabc2e5d595c", "fusion_lon": 0.0, "bike_id": "a6c83fbcf3fa5fe9bae7aabc2e5d595c", "is_disabled": 0, "is_reserved": 0}, {"rental_uris": {"ios": "https://dc.lft.to/lastmile_qr_scan", "android": "https://dc.lft.to/lastmile_qr_scan"}, "lon": -77.01620716666666, "type": "electric_scooter", "fusion_lat": 0.0, "lat": 38.91021333333333, "name": "114e79f700686ca59b20b0c28606d8c0", "fusion_lon": 0.0, "bike_id": "114e79f700686ca59b20b0c28606d8c0", "is_disabled": 0, "is_reserved": 0}, {"rental_uris": {"ios": "https://dc.lft.to/lastmile_qr_scan", "android": "https://dc.lft.to/lastmile_qr_scan"}, "lon": -77.044956, "type": "electric_scooter", "fusion_lat": 0.0, "lat": 38.915188666666666, "name": "7ed3344bc5d98a73c26436ab263a7087", "fusion_lon": 0.0, "bike_id": "7ed3344bc5d98a73c26436ab263a7087", "is_disabled": 0, "is_reserved": 0}, {"rental_uris": {"ios": "https://dc.lft.to/lastmile_qr_scan", "android": "https://dc.lft.to/lastmile_qr_scan"}, "lon": -76.9856395, "type": "electric_scooter", "fusion_lat": 0.0, "lat": 38.86152083333333, "name": "787739fcf3fcd08676fc179b1447beb7", "fusion_lon": 0.0, "bike_id": "787739fcf3fcd08676fc179b1447beb7", "is_disabled": 0, "is_reserved": 0}, {"rental_uris": {"ios": "https://dc.lft.to/lastmile_qr_scan", "android": "https://dc.lft.to/lastmile_qr_scan"}, "lon": -77.04324066666666, "type": "electric_scooter", "fusion_lat": 0.0, "lat": 38.926174, "name": "ebd8899e4335a18eb30a644b6b19046c", "fusion_lon": 0.0, "bike_id": "ebd8899e4335a18eb30a644b6b19046c", "is_disabled": 0, "is_reserved": 0}, {"rental_uris": {"ios": "https://dc.lft.to/lastmile_qr_scan", "android": "https://dc.lft.to/lastmile_qr_scan"}, "lon": -77.0463165, "type": "electric_scooter", "fusion_lat": 0.0, "lat": 38.89223166666667, "name": "25598a1efaa373e2ef90074481011b62", "fusion_lon": 0.0, "bike_id": "25598a1efaa373e2ef90074481011b62", "is_disabled": 0, "is_reserved": 0}, {"rental_uris": {"ios": "https://dc.lft.to/lastmile_qr_scan", "android": "https://dc.lft.to/lastmile_qr_scan"}, "lon": -77.04037433333333, "type": "electric_bike", "fusion_lat": 0.0, "lat": 38.804206, "name": "76a066b8b9d8b0610bf94ef10d99ead7", "fusion_lon": 0.0, "bike_id": "76a066b8b9d8b0610bf94ef10d99ead7", "is_disabled": 0, "is_reserved": 0}, {"rental_uris": {"ios": "https://dc.lft.to/lastmile_qr_scan", "android": "https://dc.lft.to/lastmile_qr_scan"}, "lon": -76.98373033333333, "type": "electric_scooter", "fusion_lat": 0.0, "lat": 38.860328833333334, "name": "7fee0a66a3e432a76b3922c4d82847e4", "fusion_lon": 0.0, "bike_id": "7fee0a66a3e432a76b3922c4d82847e4", "is_disabled": 0, "is_reserved": 0}, {"rental_uris": {"ios": "https://dc.lft.to/lastmile_qr_scan", "android": "https://dc.lft.to/lastmile_qr_scan"}, "lon": -77.04150716666666, "type": "electric_scooter", "fusion_lat": 0.0, "lat": 38.92364833333333, "name": "9493352cbaf5b57172e175476f710226", "fusion_lon": 0.0, "bike_id": "9493352cbaf5b57172e175476f710226", "is_disabled": 0, "is_reserved": 0}, {"rental_uris": {"ios": "https://dc.lft.to/lastmile_qr_scan", "android": "https://dc.lft.to/lastmile_qr_scan"}, "lon": -77.1124765, "type": "electric_bike", "fusion_lat": 0.0, "lat": 38.81235916666667, "name": "5a22bb12694245cb3924ccdf41867776", "fusion_lon": 0.0, "bike_id": "5a22bb12694245cb3924ccdf41867776", "is_disabled": 0, "is_reserved": 0}, {"rental_uris": {"ios": "https://dc.lft.to/lastmile_qr_scan", "android": "https://dc.lft.to/lastmile_qr_scan"}, "lon": -77.01357816666666, "type": "electric_scooter", "fusion_lat": 0.0, "lat": 38.87118683333333, "name": "b1e4f2770926e79b9c4d2c4bd012934a", "fusion_lon": 0.0, "bike_id": "b1e4f2770926e79b9c4d2c4bd012934a", "is_disabled": 0, "is_reserved": 0}, {"rental_uris": {"ios": "https://dc.lft.to/lastmile_qr_scan", "android": "https://dc.lft.to/lastmile_qr_scan"}, "lon": -77.0318285, "type": "electric_scooter", "fusion_lat": 0.0, "lat": 38.91354883333333, "name": "0f687f23fbc3283f2fdee5ffa5847fb5", "fusion_lon": 0.0, "bike_id": "0f687f23fbc3283f2fdee5ffa5847fb5", "is_disabled": 0, "is_reserved": 0}, {"rental_uris": {"ios": "https://dc.lft.to/lastmile_qr_scan", "android": "https://dc.lft.to/lastmile_qr_scan"}, "lon": -76.94929933333333, "type": "electric_scooter", "fusion_lat": 0.0, "lat": 38.8947785, "name": "034d209488d142cd4368f2424607a828", "fusion_lon": 0.0, "bike_id": "034d209488d142cd4368f2424607a828", "is_disabled": 0, "is_reserved": 0}, {"rental_uris": {"ios": "https://dc.lft.to/lastmile_qr_scan", "android": "https://dc.lft.to/lastmile_qr_scan"}, "lon": -77.02329883333333, "type": "electric_scooter", "fusion_lat": 0.0, "lat": 38.8939475, "name": "22a75eb861514d4128701704d69fae57", "fusion_lon": 0.0, "bike_id": "22a75eb861514d4128701704d69fae57", "is_disabled": 0, "is_reserved": 0}, {"rental_uris": {"ios": "https://dc.lft.to/lastmile_qr_scan", "android": "https://dc.lft.to/lastmile_qr_scan"}, "lon": -77.0219185, "type": "electric_scooter", "fusion_lat": 0.0, "lat": 38.908329333333334, "name": "45233a93e302e0338e90638db2dede53", "fusion_lon": 0.0, "bike_id": "45233a93e302e0338e90638db2dede53", "is_disabled": 0, "is_reserved": 0}, {"rental_uris": {"ios": "https://dc.lft.to/lastmile_qr_scan", "android": "https://dc.lft.to/lastmile_qr_scan"}, "lon": -76.95244166666667, "type": "electric_bike", "fusion_lat": 0.0, "lat": 38.9070495, "name": "aa309fdd435c09f4b035244e77598e76", "fusion_lon": 0.0, "bike_id": "aa309fdd435c09f4b035244e77598e76", "is_disabled": 0, "is_reserved": 0}, {"rental_uris": {"ios": "https://dc.lft.to/lastmile_qr_scan", "android": "https://dc.lft.to/lastmile_qr_scan"}, "lon": -77.013182, "type": "electric_scooter", "fusion_lat": 0.0, "lat": 38.89737566666667, "name": "37510e9c0d10020e5d192e451546d8a8", "fusion_lon": 0.0, "bike_id": "37510e9c0d10020e5d192e451546d8a8", "is_disabled": 0, "is_reserved": 0}, {"rental_uris": {"ios": "https://dc.lft.to/lastmile_qr_scan", "android": "https://dc.lft.to/lastmile_qr_scan"}, "lon": -76.98033733333334, "type": "electric_bike", "fusion_lat": 0.0, "lat": 38.900256666666664, "name": "dccd138598e7f5aa6578f57a8c0c5245", "fusion_lon": 0.0, "bike_id": "dccd138598e7f5aa6578f57a8c0c5245", "is_disabled": 0, "is_reserved": 0}, {"rental_uris": {"ios": "https://dc.lft.to/lastmile_qr_scan", "android": "https://dc.lft.to/lastmile_qr_scan"}, "lon": -77.02291916666667, "type": "electric_scooter", "fusion_lat": 0.0, "lat": 38.915703, "name": "b0cc98b11102e14bbaefca5921333c87", "fusion_lon": 0.0, "bike_id": "b0cc98b11102e14bbaefca5921333c87", "is_disabled": 0, "is_reserved": 0}, {"rental_uris": {"ios": "https://dc.lft.to/lastmile_qr_scan", "android": "https://dc.lft.to/lastmile_qr_scan"}, "lon": -77.02310933333334, "type": "electric_scooter", "fusion_lat": 0.0, "lat": 38.918064, "name": "3a5e1cf3425c003e3353bbb394210bad", "fusion_lon": 0.0, "bike_id": "3a5e1cf3425c003e3353bbb394210bad", "is_disabled": 0, "is_reserved": 0}, {"rental_uris": {"ios": "https://dc.lft.to/lastmile_qr_scan", "android": "https://dc.lft.to/lastmile_qr_scan"}, "lon": -77.02206083333333, "type": "electric_scooter", "fusion_lat": 0.0, "lat": 38.887203666666665, "name": "cfec41bc5ed6cf7bcab35fa83fcf8b82", "fusion_lon": 0.0, "bike_id": "cfec41bc5ed6cf7bcab35fa83fcf8b82", "is_disabled": 0, "is_reserved": 0}, {"rental_uris": {"ios": "https://dc.lft.to/lastmile_qr_scan", "android": "https://dc.lft.to/lastmile_qr_scan"}, "lon": -77.02818733333334, "type": "electric_bike", "fusion_lat": 0.0, "lat": 38.96503583333333, "name": "f1362ce645dd96043905dcd7c0571633", "fusion_lon": 0.0, "bike_id": "f1362ce645dd96043905dcd7c0571633", "is_disabled": 0, "is_reserved": 0}, {"rental_uris": {"ios": "https://dc.lft.to/lastmile_qr_scan", "android": "https://dc.lft.to/lastmile_qr_scan"}, "lon": -77.02349116666667, "type": "electric_scooter", "fusion_lat": 0.0, "lat": 38.92277833333333, "name": "378cfc3fa6cc36d6db09675d825a56dd", "fusion_lon": 0.0, "bike_id": "378cfc3fa6cc36d6db09675d825a56dd", "is_disabled": 0, "is_reserved": 0}, {"rental_uris": {"ios": "https://dc.lft.to/lastmile_qr_scan", "android": "https://dc.lft.to/lastmile_qr_scan"}, "lon": -77.03602016666666, "type": "electric_scooter", "fusion_lat": 0.0, "lat": 38.902353166666664, "name": "e3a6234b1df8d9298fce5f774d873df3", "fusion_lon": 0.0, "bike_id": "e3a6234b1df8d9298fce5f774d873df3", "is_disabled": 0, "is_reserved": 0}, {"rental_uris": {"ios": "https://dc.lft.to/lastmile_qr_scan", "android": "https://dc.lft.to/lastmile_qr_scan"}, "lon": -77.06785783333333, "type": "electric_scooter", "fusion_lat": 0.0, "lat": 38.95208133333333, "name": "0953d6a01d5ed4869b7ca2b1be5a1a2e", "fusion_lon": 0.0, "bike_id": "0953d6a01d5ed4869b7ca2b1be5a1a2e", "is_disabled": 0, "is_reserved": 0}, {"rental_uris": {"ios": "https://dc.lft.to/lastmile_qr_scan", "android": "https://dc.lft.to/lastmile_qr_scan"}, "lon": -77.00210833333334, "type": "electric_scooter", "fusion_lat": 0.0, "lat": 38.902178, "name": "5ae76efa4b95ae900a0ddcd69a3e0ec2", "fusion_lon": 0.0, "bike_id": "5ae76efa4b95ae900a0ddcd69a3e0ec2", "is_disabled": 0, "is_reserved": 0}, {"rental_uris": {"ios": "https://dc.lft.to/lastmile_qr_scan", "android": "https://dc.lft.to/lastmile_qr_scan"}, "lon": -77.02132233333333, "type": "electric_scooter", "fusion_lat": 0.0, "lat": 38.916082833333334, "name": "374845a640270d9d2f6611c2fe0cf514", "fusion_lon": 0.0, "bike_id": "374845a640270d9d2f6611c2fe0cf514", "is_disabled": 0, "is_reserved": 0}, {"rental_uris": {"ios": "https://dc.lft.to/lastmile_qr_scan", "android": "https://dc.lft.to/lastmile_qr_scan"}, "lon": -77.0321905, "type": "electric_scooter", "fusion_lat": 0.0, "lat": 38.911986666666664, "name": "9c9b1b773cb2d198894c0d19f4ff88bb", "fusion_lon": 0.0, "bike_id": "9c9b1b773cb2d198894c0d19f4ff88bb", "is_disabled": 0, "is_reserved": 0}, {"rental_uris": {"ios": "https://dc.lft.to/lastmile_qr_scan", "android": "https://dc.lft.to/lastmile_qr_scan"}, "lon": -77.0348865, "type": "electric_scooter", "fusion_lat": 0.0, "lat": 38.91709516666667, "name": "ffef86edd1bf94d32901a853a65ee7bb", "fusion_lon": 0.0, "bike_id": "ffef86edd1bf94d32901a853a65ee7bb", "is_disabled": 0, "is_reserved": 0}, {"rental_uris": {"ios": "https://dc.lft.to/lastmile_qr_scan", "android": "https://dc.lft.to/lastmile_qr_scan"}, "lon": -77.032653, "type": "electric_scooter", "fusion_lat": 0.0, "lat": 38.932323833333335, "name": "029c90845b62f3286e6a777d07a8b128", "fusion_lon": 0.0, "bike_id": "029c90845b62f3286e6a777d07a8b128", "is_disabled": 0, "is_reserved": 0}, {"rental_uris": {"ios": "https://dc.lft.to/lastmile_qr_scan", "android": "https://dc.lft.to/lastmile_qr_scan"}, "lon": -77.007364, "type": "electric_scooter", "fusion_lat": 0.0, "lat": 38.955233666666665, "name": "890cbda90c2a75fc2d6ec935ba8e9d2d", "fusion_lon": 0.0, "bike_id": "890cbda90c2a75fc2d6ec935ba8e9d2d", "is_disabled": 0, "is_reserved": 0}, {"rental_uris": {"ios": "https://dc.lft.to/lastmile_qr_scan", "android": "https://dc.lft.to/lastmile_qr_scan"}, "lon": -77.03187033333333, "type": "electric_scooter", "fusion_lat": 0.0, "lat": 38.915678, "name": "1b5d8bc22bc32fd01a977fa57bbc95a2", "fusion_lon": 0.0, "bike_id": "1b5d8bc22bc32fd01a977fa57bbc95a2", "is_disabled": 0, "is_reserved": 0}, {"rental_uris": {"ios": "https://dc.lft.to/lastmile_qr_scan", "android": "https://dc.lft.to/lastmile_qr_scan"}, "lon": -77.02484366666667, "type": "electric_scooter", "fusion_lat": 0.0, "lat": 38.89781133333334, "name": "79ce427eebecdae852c3947fbc3fafd8", "fusion_lon": 0.0, "bike_id": "79ce427eebecdae852c3947fbc3fafd8", "is_disabled": 0, "is_reserved": 0}, {"rental_uris": {"ios": "https://dc.lft.to/lastmile_qr_scan", "android": "https://dc.lft.to/lastmile_qr_scan"}, "lon": -76.99846083333334, "type": "electric_scooter", "fusion_lat": 0.0, "lat": 38.900370333333335, "name": "33c99f2de285491332f895d4301d3def", "fusion_lon": 0.0, "bike_id": "33c99f2de285491332f895d4301d3def", "is_disabled": 0, "is_reserved": 0}, {"rental_uris": {"ios": "https://dc.lft.to/lastmile_qr_scan", "android": "https://dc.lft.to/lastmile_qr_scan"}, "lon": -77.03832633333333, "type": "electric_scooter", "fusion_lat": 0.0, "lat": 38.90373016666667, "name": "1195b0ee7e686d5b2d5fdad2ed0a3f0d", "fusion_lon": 0.0, "bike_id": "1195b0ee7e686d5b2d5fdad2ed0a3f0d", "is_disabled": 0, "is_reserved": 0}, {"rental_uris": {"ios": "https://dc.lft.to/lastmile_qr_scan", "android": "https://dc.lft.to/lastmile_qr_scan"}, "lon": -77.03652366666667, "type": "electric_scooter", "fusion_lat": 0.0, "lat": 38.930826, "name": "87e4ea45551997f18c05213b4f375079", "fusion_lon": 0.0, "bike_id": "87e4ea45551997f18c05213b4f375079", "is_disabled": 0, "is_reserved": 0}, {"rental_uris": {"ios": "https://dc.lft.to/lastmile_qr_scan", "android": "https://dc.lft.to/lastmile_qr_scan"}, "lon": -76.98852466666666, "type": "electric_scooter", "fusion_lat": 0.0, "lat": 38.9034765, "name": "3307b918b6a6873024023bc24d3c7326", "fusion_lon": 0.0, "bike_id": "3307b918b6a6873024023bc24d3c7326", "is_disabled": 0, "is_reserved": 0}, {"rental_uris": {"ios": "https://dc.lft.to/lastmile_qr_scan", "android": "https://dc.lft.to/lastmile_qr_scan"}, "lon": -77.0229285, "type": "electric_scooter", "fusion_lat": 0.0, "lat": 38.909053666666665, "name": "14af8042bc5b5c7b753de7d4e02be957", "fusion_lon": 0.0, "bike_id": "14af8042bc5b5c7b753de7d4e02be957", "is_disabled": 0, "is_reserved": 0}, {"rental_uris": {"ios": "https://dc.lft.to/lastmile_qr_scan", "android": "https://dc.lft.to/lastmile_qr_scan"}, "lon": -77.041675, "type": "electric_scooter", "fusion_lat": 0.0, "lat": 38.90339816666667, "name": "02cd75d11e5297fdad84b896f5dc4ace", "fusion_lon": 0.0, "bike_id": "02cd75d11e5297fdad84b896f5dc4ace", "is_disabled": 0, "is_reserved": 0}, {"rental_uris": {"ios": "https://dc.lft.to/lastmile_qr_scan", "android": "https://dc.lft.to/lastmile_qr_scan"}, "lon": -77.03851616666667, "type": "electric_scooter", "fusion_lat": 0.0, "lat": 38.91277016666667, "name": "6b779a94c610a4706113e45cda4fde46", "fusion_lon": 0.0, "bike_id": "6b779a94c610a4706113e45cda4fde46", "is_disabled": 0, "is_reserved": 0}, {"rental_uris": {"ios": "https://dc.lft.to/lastmile_qr_scan", "android": "https://dc.lft.to/lastmile_qr_scan"}, "lon": -77.027828, "type": "electric_scooter", "fusion_lat": 0.0, "lat": 38.923744166666665, "name": "f056f633c92c5da47762d3e707c7f7ac", "fusion_lon": 0.0, "bike_id": "f056f633c92c5da47762d3e707c7f7ac", "is_disabled": 0, "is_reserved": 0}, {"rental_uris": {"ios": "https://dc.lft.to/lastmile_qr_scan", "android": "https://dc.lft.to/lastmile_qr_scan"}, "lon": -77.047223, "type": "electric_scooter", "fusion_lat": 0.0, "lat": 38.909659833333336, "name": "6ec9ac15fd2e3dabdcbb75de138fd502", "fusion_lon": 0.0, "bike_id": "6ec9ac15fd2e3dabdcbb75de138fd502", "is_disabled": 0, "is_reserved": 0}, {"rental_uris": {"ios": "https://dc.lft.to/lastmile_qr_scan", "android": "https://dc.lft.to/lastmile_qr_scan"}, "lon": -77.03310066666667, "type": "electric_scooter", "fusion_lat": 0.0, "lat": 38.9015075, "name": "22da64f1ae025ed4b5a253e7991bdeaf", "fusion_lon": 0.0, "bike_id": "22da64f1ae025ed4b5a253e7991bdeaf", "is_disabled": 0, "is_reserved": 0}, {"rental_uris": {"ios": "https://dc.lft.to/lastmile_qr_scan", "android": "https://dc.lft.to/lastmile_qr_scan"}, "lon": -77.028058, "type": "electric_scooter", "fusion_lat": 0.0, "lat": 38.9308345, "name": "f1431c320b7879b858f90f3a5645d060", "fusion_lon": 0.0, "bike_id": "f1431c320b7879b858f90f3a5645d060", "is_disabled": 0, "is_reserved": 0}, {"rental_uris": {"ios": "https://dc.lft.to/lastmile_qr_scan", "android": "https://dc.lft.to/lastmile_qr_scan"}, "lon": -77.021542, "type": "electric_scooter", "fusion_lat": 0.0, "lat": 38.928217, "name": "ccb35e81789324c101447b21870ce1bc", "fusion_lon": 0.0, "bike_id": "ccb35e81789324c101447b21870ce1bc", "is_disabled": 0, "is_reserved": 0}, {"rental_uris": {"ios": "https://dc.lft.to/lastmile_qr_scan", "android": "https://dc.lft.to/lastmile_qr_scan"}, "lon": -77.00370966666667, "type": "electric_scooter", "fusion_lat": 0.0, "lat": 38.8766205, "name": "0bb3bd04803cc19c38cebe60c09b79bf", "fusion_lon": 0.0, "bike_id": "0bb3bd04803cc19c38cebe60c09b79bf", "is_disabled": 0, "is_reserved": 0}, {"rental_uris": {"ios": "https://dc.lft.to/lastmile_qr_scan", "android": "https://dc.lft.to/lastmile_qr_scan"}, "lon": -77.03175616666667, "type": "electric_scooter", "fusion_lat": 0.0, "lat": 38.901618666666664, "name": "c4d93c80767291d7bc5e161ca1ac887d", "fusion_lon": 0.0, "bike_id": "c4d93c80767291d7bc5e161ca1ac887d", "is_disabled": 0, "is_reserved": 0}, {"rental_uris": {"ios": "https://dc.lft.to/lastmile_qr_scan", "android": "https://dc.lft.to/lastmile_qr_scan"}, "lon": -77.0400375, "type": "electric_scooter", "fusion_lat": 0.0, "lat": 38.909998, "name": "d1ba4bb83df7052225c3ce18fe0bf7e0", "fusion_lon": 0.0, "bike_id": "d1ba4bb83df7052225c3ce18fe0bf7e0", "is_disabled": 0, "is_reserved": 0}, {"rental_uris": {"ios": "https://dc.lft.to/lastmile_qr_scan", "android": "https://dc.lft.to/lastmile_qr_scan"}, "lon": -77.03460166666666, "type": "electric_scooter", "fusion_lat": 0.0, "lat": 38.90881433333333, "name": "11bf2a1d6ebd4e87a9524b28c481c923", "fusion_lon": 0.0, "bike_id": "11bf2a1d6ebd4e87a9524b28c481c923", "is_disabled": 0, "is_reserved": 0}, {"rental_uris": {"ios": "https://dc.lft.to/lastmile_qr_scan", "android": "https://dc.lft.to/lastmile_qr_scan"}, "lon": -77.02777083333334, "type": "electric_scooter", "fusion_lat": 0.0, "lat": 38.9042965, "name": "08a8e8fe52f3f7505b40f148427bbcc3", "fusion_lon": 0.0, "bike_id": "08a8e8fe52f3f7505b40f148427bbcc3", "is_disabled": 0, "is_reserved": 0}, {"rental_uris": {"ios": "https://dc.lft.to/lastmile_qr_scan", "android": "https://dc.lft.to/lastmile_qr_scan"}, "lon": -77.041731, "type": "electric_scooter", "fusion_lat": 0.0, "lat": 38.917055, "name": "e33850659a4c65941a8fa5a8985848d9", "fusion_lon": 0.0, "bike_id": "e33850659a4c65941a8fa5a8985848d9", "is_disabled": 0, "is_reserved": 0}, {"rental_uris": {"ios": "https://dc.lft.to/lastmile_qr_scan", "android": "https://dc.lft.to/lastmile_qr_scan"}, "lon": -77.019461, "type": "electric_scooter", "fusion_lat": 0.0, "lat": 38.924166166666666, "name": "b7ce32f6827706e9a7ff9be19f516ef0", "fusion_lon": 0.0, "bike_id": "b7ce32f6827706e9a7ff9be19f516ef0", "is_disabled": 0, "is_reserved": 0}, {"rental_uris": {"ios": "https://dc.lft.to/lastmile_qr_scan", "android": "https://dc.lft.to/lastmile_qr_scan"}, "lon": -77.02588466666667, "type": "electric_scooter", "fusion_lat": 0.0, "lat": 38.9036515, "name": "65b6a186196276328c7feb311d811afa", "fusion_lon": 0.0, "bike_id": "65b6a186196276328c7feb311d811afa", "is_disabled": 0, "is_reserved": 0}, {"rental_uris": {"ios": "https://dc.lft.to/lastmile_qr_scan", "android": "https://dc.lft.to/lastmile_qr_scan"}, "lon": -77.02210516666666, "type": "electric_scooter", "fusion_lat": 0.0, "lat": 38.914150666666664, "name": "1740206494cad307255448eff9e37f1f", "fusion_lon": 0.0, "bike_id": "1740206494cad307255448eff9e37f1f", "is_disabled": 0, "is_reserved": 0}, {"rental_uris": {"ios": "https://dc.lft.to/lastmile_qr_scan", "android": "https://dc.lft.to/lastmile_qr_scan"}, "lon": -77.044944, "type": "electric_scooter", "fusion_lat": 0.0, "lat": 38.919533333333334, "name": "c678873f8d0f1fa8116c5bd48b4d56c6", "fusion_lon": 0.0, "bike_id": "c678873f8d0f1fa8116c5bd48b4d56c6", "is_disabled": 0, "is_reserved": 0}, {"rental_uris": {"ios": "https://dc.lft.to/lastmile_qr_scan", "android": "https://dc.lft.to/lastmile_qr_scan"}, "lon": -76.98556416666666, "type": "electric_scooter", "fusion_lat": 0.0, "lat": 38.85583483333333, "name": "db63cc9423a75ed54cc63cfd874a23e6", "fusion_lon": 0.0, "bike_id": "db63cc9423a75ed54cc63cfd874a23e6", "is_disabled": 0, "is_reserved": 0}, {"rental_uris": {"ios": "https://dc.lft.to/lastmile_qr_scan", "android": "https://dc.lft.to/lastmile_qr_scan"}, "lon": -77.04194066666666, "type": "electric_scooter", "fusion_lat": 0.0, "lat": 38.903411166666665, "name": "80a0032128cf9d8d62197b87a25e6f64", "fusion_lon": 0.0, "bike_id": "80a0032128cf9d8d62197b87a25e6f64", "is_disabled": 0, "is_reserved": 0}, {"rental_uris": {"ios": "https://dc.lft.to/lastmile_qr_scan", "android": "https://dc.lft.to/lastmile_qr_scan"}, "lon": -77.0790835, "type": "electric_scooter", "fusion_lat": 0.0, "lat": 38.948065, "name": "c4fb8d017746cf80bd81456a918b8d35", "fusion_lon": 0.0, "bike_id": "c4fb8d017746cf80bd81456a918b8d35", "is_disabled": 0, "is_reserved": 0}, {"rental_uris": {"ios": "https://dc.lft.to/lastmile_qr_scan", "android": "https://dc.lft.to/lastmile_qr_scan"}, "lon": -77.0258615, "type": "electric_scooter", "fusion_lat": 0.0, "lat": 38.892444833333336, "name": "d4a0de2b50a48c6d760b03ddbe9ae8d9", "fusion_lon": 0.0, "bike_id": "d4a0de2b50a48c6d760b03ddbe9ae8d9", "is_disabled": 0, "is_reserved": 0}, {"rental_uris": {"ios": "https://dc.lft.to/lastmile_qr_scan", "android": "https://dc.lft.to/lastmile_qr_scan"}, "lon": -77.04708066666667, "type": "electric_scooter", "fusion_lat": 0.0, "lat": 38.92237883333333, "name": "2fadf83d0ae21aa195ab6cd8d11e34f1", "fusion_lon": 0.0, "bike_id": "2fadf83d0ae21aa195ab6cd8d11e34f1", "is_disabled": 0, "is_reserved": 0}, {"rental_uris": {"ios": "https://dc.lft.to/lastmile_qr_scan", "android": "https://dc.lft.to/lastmile_qr_scan"}, "lon": -77.00863716666667, "type": "electric_bike", "fusion_lat": 0.0, "lat": 38.827276499999996, "name": "32811ec3c30d9ad0b2db89ec7d35b060", "fusion_lon": 0.0, "bike_id": "32811ec3c30d9ad0b2db89ec7d35b060", "is_disabled": 0, "is_reserved": 0}, {"rental_uris": {"ios": "https://dc.lft.to/lastmile_qr_scan", "android": "https://dc.lft.to/lastmile_qr_scan"}, "lon": -77.0161225, "type": "electric_scooter", "fusion_lat": 0.0, "lat": 38.911297, "name": "e56928a8e1d1d6fb6ce76e322de95743", "fusion_lon": 0.0, "bike_id": "e56928a8e1d1d6fb6ce76e322de95743", "is_disabled": 0, "is_reserved": 0}, {"rental_uris": {"ios": "https://dc.lft.to/lastmile_qr_scan", "android": "https://dc.lft.to/lastmile_qr_scan"}, "lon": -76.93173666666667, "type": "electric_scooter", "fusion_lat": 0.0, "lat": 38.89886516666667, "name": "7d1c61dfb921ac7528e1dfc837fe7791", "fusion_lon": 0.0, "bike_id": "7d1c61dfb921ac7528e1dfc837fe7791", "is_disabled": 0, "is_reserved": 0}, {"rental_uris": {"ios": "https://dc.lft.to/lastmile_qr_scan", "android": "https://dc.lft.to/lastmile_qr_scan"}, "lon": -77.01172933333334, "type": "electric_scooter", "fusion_lat": 0.0, "lat": 38.872314333333335, "name": "33409c79aa3024ff058c487ad249a061", "fusion_lon": 0.0, "bike_id": "33409c79aa3024ff058c487ad249a061", "is_disabled": 0, "is_reserved": 0}, {"rental_uris": {"ios": "https://dc.lft.to/lastmile_qr_scan", "android": "https://dc.lft.to/lastmile_qr_scan"}, "lon": -77.02651816666666, "type": "electric_scooter", "fusion_lat": 0.0, "lat": 38.88118016666667, "name": "106fc4c80b5da9226fa694f87c4277aa", "fusion_lon": 0.0, "bike_id": "106fc4c80b5da9226fa694f87c4277aa", "is_disabled": 0, "is_reserved": 0}, {"rental_uris": {"ios": "https://dc.lft.to/lastmile_qr_scan", "android": "https://dc.lft.to/lastmile_qr_scan"}, "lon": -77.03262866666667, "type": "electric_scooter", "fusion_lat": 0.0, "lat": 38.927455333333334, "name": "5f5f38e8ac3a99ee0a83176cf0c99211", "fusion_lon": 0.0, "bike_id": "5f5f38e8ac3a99ee0a83176cf0c99211", "is_disabled": 0, "is_reserved": 0}, {"rental_uris": {"ios": "https://dc.lft.to/lastmile_qr_scan", "android": "https://dc.lft.to/lastmile_qr_scan"}, "lon": -77.00034783333334, "type": "electric_scooter", "fusion_lat": 0.0, "lat": 38.87645633333333, "name": "e6d4056fd54750db39d930b231cdcc98", "fusion_lon": 0.0, "bike_id": "e6d4056fd54750db39d930b231cdcc98", "is_disabled": 0, "is_reserved": 0}, {"rental_uris": {"ios": "https://dc.lft.to/lastmile_qr_scan", "android": "https://dc.lft.to/lastmile_qr_scan"}, "lon": -77.03785333333333, "type": "electric_scooter", "fusion_lat": 0.0, "lat": 38.93025633333333, "name": "da559c6b0725435bddf9298551f1d4d6", "fusion_lon": 0.0, "bike_id": "da559c6b0725435bddf9298551f1d4d6", "is_disabled": 0, "is_reserved": 0}, {"rental_uris": {"ios": "https://dc.lft.to/lastmile_qr_scan", "android": "https://dc.lft.to/lastmile_qr_scan"}, "lon": -76.98995733333334, "type": "electric_bike", "fusion_lat": 0.0, "lat": 38.863921500000004, "name": "415ebf2cde5477f0b0c38288df62285d", "fusion_lon": 0.0, "bike_id": "415ebf2cde5477f0b0c38288df62285d", "is_disabled": 0, "is_reserved": 0}, {"rental_uris": {"ios": "https://dc.lft.to/lastmile_qr_scan", "android": "https://dc.lft.to/lastmile_qr_scan"}, "lon": -77.02591116666666, "type": "electric_scooter", "fusion_lat": 0.0, "lat": 38.9164685, "name": "2aebc532f1e37e1c8cbfba4ea6014c5e", "fusion_lon": 0.0, "bike_id": "2aebc532f1e37e1c8cbfba4ea6014c5e", "is_disabled": 0, "is_reserved": 0}, {"rental_uris": {"ios": "https://dc.lft.to/lastmile_qr_scan", "android": "https://dc.lft.to/lastmile_qr_scan"}, "lon": -77.01076683333334, "type": "electric_bike", "fusion_lat": 0.0, "lat": 38.95655266666667, "name": "00a8e076231436b1aca1305ffec09bfe", "fusion_lon": 0.0, "bike_id": "00a8e076231436b1aca1305ffec09bfe", "is_disabled": 0, "is_reserved": 0}, {"rental_uris": {"ios": "https://dc.lft.to/lastmile_qr_scan", "android": "https://dc.lft.to/lastmile_qr_scan"}, "lon": -77.005818, "type": "electric_scooter", "fusion_lat": 0.0, "lat": 38.905965, "name": "1b22e0fb5722926469a0e1dcbb40cab3", "fusion_lon": 0.0, "bike_id": "1b22e0fb5722926469a0e1dcbb40cab3", "is_disabled": 0, "is_reserved": 0}, {"rental_uris": {"ios": "https://dc.lft.to/lastmile_qr_scan", "android": "https://dc.lft.to/lastmile_qr_scan"}, "lon": -76.99273033333333, "type": "electric_scooter", "fusion_lat": 0.0, "lat": 38.89764666666667, "name": "d724b8674e083dc1d1c56e376d54680d", "fusion_lon": 0.0, "bike_id": "d724b8674e083dc1d1c56e376d54680d", "is_disabled": 0, "is_reserved": 0}, {"rental_uris": {"ios": "https://dc.lft.to/lastmile_qr_scan", "android": "https://dc.lft.to/lastmile_qr_scan"}, "lon": -77.03443416666667, "type": "electric_scooter", "fusion_lat": 0.0, "lat": 38.918397666666664, "name": "3eeef9236b2f835fb1691cd958982f2b", "fusion_lon": 0.0, "bike_id": "3eeef9236b2f835fb1691cd958982f2b", "is_disabled": 0, "is_reserved": 0}, {"rental_uris": {"ios": "https://dc.lft.to/lastmile_qr_scan", "android": "https://dc.lft.to/lastmile_qr_scan"}, "lon": -77.037024, "type": "electric_scooter", "fusion_lat": 0.0, "lat": 38.92636066666667, "name": "dfd2ff859a8a86d9353185f9c74699d8", "fusion_lon": 0.0, "bike_id": "dfd2ff859a8a86d9353185f9c74699d8", "is_disabled": 0, "is_reserved": 0}, {"rental_uris": {"ios": "https://dc.lft.to/lastmile_qr_scan", "android": "https://dc.lft.to/lastmile_qr_scan"}, "lon": -77.04501633333334, "type": "electric_scooter", "fusion_lat": 0.0, "lat": 38.903209333333336, "name": "090e4a6a97cef8be4ced69f9832eb2fe", "fusion_lon": 0.0, "bike_id": "090e4a6a97cef8be4ced69f9832eb2fe", "is_disabled": 0, "is_reserved": 0}, {"rental_uris": {"ios": "https://dc.lft.to/lastmile_qr_scan", "android": "https://dc.lft.to/lastmile_qr_scan"}, "lon": -77.02767033333333, "type": "electric_scooter", "fusion_lat": 0.0, "lat": 38.89202066666667, "name": "7a64b1b584eb9347ec8a6a42886b98b3", "fusion_lon": 0.0, "bike_id": "7a64b1b584eb9347ec8a6a42886b98b3", "is_disabled": 0, "is_reserved": 0}, {"rental_uris": {"ios": "https://dc.lft.to/lastmile_qr_scan", "android": "https://dc.lft.to/lastmile_qr_scan"}, "lon": -77.02071216666667, "type": "electric_scooter", "fusion_lat": 0.0, "lat": 38.935344666666666, "name": "5c12859aede1d3a833093ddaac987da3", "fusion_lon": 0.0, "bike_id": "5c12859aede1d3a833093ddaac987da3", "is_disabled": 0, "is_reserved": 0}, {"rental_uris": {"ios": "https://dc.lft.to/lastmile_qr_scan", "android": "https://dc.lft.to/lastmile_qr_scan"}, "lon": -77.04252833333334, "type": "electric_scooter", "fusion_lat": 0.0, "lat": 38.920636333333334, "name": "29e4c7795bc6bc3fa49ed023a9e20a0a", "fusion_lon": 0.0, "bike_id": "29e4c7795bc6bc3fa49ed023a9e20a0a", "is_disabled": 0, "is_reserved": 0}, {"rental_uris": {"ios": "https://dc.lft.to/lastmile_qr_scan", "android": "https://dc.lft.to/lastmile_qr_scan"}, "lon": -77.04483483333334, "type": "electric_scooter", "fusion_lat": 0.0, "lat": 38.913156, "name": "d3868dd6342dbf4c98eb857f8bee4212", "fusion_lon": 0.0, "bike_id": "d3868dd6342dbf4c98eb857f8bee4212", "is_disabled": 0, "is_reserved": 0}, {"rental_uris": {"ios": "https://dc.lft.to/lastmile_qr_scan", "android": "https://dc.lft.to/lastmile_qr_scan"}, "lon": -77.02832316666667, "type": "electric_scooter", "fusion_lat": 0.0, "lat": 38.924722333333335, "name": "d24a8578d50612551ccd4ba627e9b744", "fusion_lon": 0.0, "bike_id": "d24a8578d50612551ccd4ba627e9b744", "is_disabled": 0, "is_reserved": 0}, {"rental_uris": {"ios": "https://dc.lft.to/lastmile_qr_scan", "android": "https://dc.lft.to/lastmile_qr_scan"}, "lon": -77.03647066666667, "type": "electric_scooter", "fusion_lat": 0.0, "lat": 38.913002666666664, "name": "df9d6a972526beecf9a716867b2bd48c", "fusion_lon": 0.0, "bike_id": "df9d6a972526beecf9a716867b2bd48c", "is_disabled": 0, "is_reserved": 0}, {"rental_uris": {"ios": "https://dc.lft.to/lastmile_qr_scan", "android": "https://dc.lft.to/lastmile_qr_scan"}, "lon": -77.038032, "type": "electric_bike", "fusion_lat": 0.0, "lat": 38.93063216666667, "name": "d39beb3a7104910f7f85fc4a582e29e9", "fusion_lon": 0.0, "bike_id": "d39beb3a7104910f7f85fc4a582e29e9", "is_disabled": 0, "is_reserved": 0}, {"rental_uris": {"ios": "https://dc.lft.to/lastmile_qr_scan", "android": "https://dc.lft.to/lastmile_qr_scan"}, "lon": -77.04108733333334, "type": "electric_scooter", "fusion_lat": 0.0, "lat": 38.92373216666667, "name": "e86c20d1f3813751d405f335abc5ec52", "fusion_lon": 0.0, "bike_id": "e86c20d1f3813751d405f335abc5ec52", "is_disabled": 0, "is_reserved": 0}, {"rental_uris": {"ios": "https://dc.lft.to/lastmile_qr_scan", "android": "https://dc.lft.to/lastmile_qr_scan"}, "lon": -77.0256825, "type": "electric_scooter", "fusion_lat": 0.0, "lat": 38.88748266666666, "name": "de232913d955d71b3299244c9c262360", "fusion_lon": 0.0, "bike_id": "de232913d955d71b3299244c9c262360", "is_disabled": 0, "is_reserved": 0}, {"rental_uris": {"ios": "https://dc.lft.to/lastmile_qr_scan", "android": "https://dc.lft.to/lastmile_qr_scan"}, "lon": -77.01076966666666, "type": "electric_bike", "fusion_lat": 0.0, "lat": 38.962653333333336, "name": "11fec0f4ea8c2bcfb74bc7e2ae1a923d", "fusion_lon": 0.0, "bike_id": "11fec0f4ea8c2bcfb74bc7e2ae1a923d", "is_disabled": 0, "is_reserved": 0}, {"rental_uris": {"ios": "https://dc.lft.to/lastmile_qr_scan", "android": "https://dc.lft.to/lastmile_qr_scan"}, "lon": -76.94972833333334, "type": "electric_scooter", "fusion_lat": 0.0, "lat": 38.89377316666667, "name": "37e5c29d6fc294377a857e72d3a63808", "fusion_lon": 0.0, "bike_id": "37e5c29d6fc294377a857e72d3a63808", "is_disabled": 0, "is_reserved": 0}, {"rental_uris": {"ios": "https://dc.lft.to/lastmile_qr_scan", "android": "https://dc.lft.to/lastmile_qr_scan"}, "lon": -77.04152133333334, "type": "electric_scooter", "fusion_lat": 0.0, "lat": 38.917883333333336, "name": "c7dcda0938e95688d5dc790113e2919b", "fusion_lon": 0.0, "bike_id": "c7dcda0938e95688d5dc790113e2919b", "is_disabled": 0, "is_reserved": 0}, {"rental_uris": {"ios": "https://dc.lft.to/lastmile_qr_scan", "android": "https://dc.lft.to/lastmile_qr_scan"}, "lon": -77.037416, "type": "electric_scooter", "fusion_lat": 0.0, "lat": 38.91487466666667, "name": "a9224e65cffca1c60a6a7c9416637627", "fusion_lon": 0.0, "bike_id": "a9224e65cffca1c60a6a7c9416637627", "is_disabled": 0, "is_reserved": 0}, {"rental_uris": {"ios": "https://dc.lft.to/lastmile_qr_scan", "android": "https://dc.lft.to/lastmile_qr_scan"}, "lon": -76.98018933333333, "type": "electric_scooter", "fusion_lat": 0.0, "lat": 38.90379883333333, "name": "5e645547e9389b86da50469586d50681", "fusion_lon": 0.0, "bike_id": "5e645547e9389b86da50469586d50681", "is_disabled": 0, "is_reserved": 0}, {"rental_uris": {"ios": "https://dc.lft.to/lastmile_qr_scan", "android": "https://dc.lft.to/lastmile_qr_scan"}, "lon": -76.99835733333333, "type": "electric_bike", "fusion_lat": 0.0, "lat": 38.839220166666664, "name": "55371781c82d13d8da574470ca47938e", "fusion_lon": 0.0, "bike_id": "55371781c82d13d8da574470ca47938e", "is_disabled": 0, "is_reserved": 0}, {"rental_uris": {"ios": "https://dc.lft.to/lastmile_qr_scan", "android": "https://dc.lft.to/lastmile_qr_scan"}, "lon": -76.93570083333333, "type": "electric_bike", "fusion_lat": 0.0, "lat": 38.88527216666667, "name": "59f212adddc1437d17d466f0f1ecf301", "fusion_lon": 0.0, "bike_id": "59f212adddc1437d17d466f0f1ecf301", "is_disabled": 0, "is_reserved": 0}, {"rental_uris": {"ios": "https://dc.lft.to/lastmile_qr_scan", "android": "https://dc.lft.to/lastmile_qr_scan"}, "lon": -77.011093, "type": "electric_scooter", "fusion_lat": 0.0, "lat": 38.894732833333336, "name": "099dc27e1c751f656b38fe6bf3cde921", "fusion_lon": 0.0, "bike_id": "099dc27e1c751f656b38fe6bf3cde921", "is_disabled": 0, "is_reserved": 0}, {"rental_uris": {"ios": "https://dc.lft.to/lastmile_qr_scan", "android": "https://dc.lft.to/lastmile_qr_scan"}, "lon": -77.07563116666667, "type": "electric_scooter", "fusion_lat": 0.0, "lat": 38.920971333333334, "name": "36ce74a51609df1c50aed921875c677b", "fusion_lon": 0.0, "bike_id": "36ce74a51609df1c50aed921875c677b", "is_disabled": 0, "is_reserved": 0}, {"rental_uris": {"ios": "https://dc.lft.to/lastmile_qr_scan", "android": "https://dc.lft.to/lastmile_qr_scan"}, "lon": -77.030023, "type": "electric_scooter", "fusion_lat": 0.0, "lat": 38.934557833333336, "name": "2518801bfbd88bcf41507fa59cd8e6e7", "fusion_lon": 0.0, "bike_id": "2518801bfbd88bcf41507fa59cd8e6e7", "is_disabled": 0, "is_reserved": 0}, {"rental_uris": {"ios": "https://dc.lft.to/lastmile_qr_scan", "android": "https://dc.lft.to/lastmile_qr_scan"}, "lon": -76.9861395, "type": "electric_scooter", "fusion_lat": 0.0, "lat": 38.854629333333335, "name": "6cc2e5bab7c299d7ef430ef7ba7d3091", "fusion_lon": 0.0, "bike_id": "6cc2e5bab7c299d7ef430ef7ba7d3091", "is_disabled": 0, "is_reserved": 0}, {"rental_uris": {"ios": "https://dc.lft.to/lastmile_qr_scan", "android": "https://dc.lft.to/lastmile_qr_scan"}, "lon": -77.0141545, "type": "electric_scooter", "fusion_lat": 0.0, "lat": 38.91696016666667, "name": "d3d624bfcaa459daf7cef17f4fe7ce05", "fusion_lon": 0.0, "bike_id": "d3d624bfcaa459daf7cef17f4fe7ce05", "is_disabled": 0, "is_reserved": 0}, {"rental_uris": {"ios": "https://dc.lft.to/lastmile_qr_scan", "android": "https://dc.lft.to/lastmile_qr_scan"}, "lon": -76.99957716666667, "type": "electric_scooter", "fusion_lat": 0.0, "lat": 38.9084325, "name": "fabc34fe6fee2a30e06a811ae3e7ee69", "fusion_lon": 0.0, "bike_id": "fabc34fe6fee2a30e06a811ae3e7ee69", "is_disabled": 0, "is_reserved": 0}, {"rental_uris": {"ios": "https://dc.lft.to/lastmile_qr_scan", "android": "https://dc.lft.to/lastmile_qr_scan"}, "lon": -77.02649033333333, "type": "electric_scooter", "fusion_lat": 0.0, "lat": 38.93865366666667, "name": "86204f45dd53a9ff90a717d709802f78", "fusion_lon": 0.0, "bike_id": "86204f45dd53a9ff90a717d709802f78", "is_disabled": 0, "is_reserved": 0}, {"rental_uris": {"ios": "https://dc.lft.to/lastmile_qr_scan", "android": "https://dc.lft.to/lastmile_qr_scan"}, "lon": -77.032405, "type": "electric_bike", "fusion_lat": 0.0, "lat": 38.90983416666667, "name": "12f4dc34e43157bebe64f095aae7e148", "fusion_lon": 0.0, "bike_id": "12f4dc34e43157bebe64f095aae7e148", "is_disabled": 0, "is_reserved": 0}, {"rental_uris": {"ios": "https://dc.lft.to/lastmile_qr_scan", "android": "https://dc.lft.to/lastmile_qr_scan"}, "lon": -76.980903, "type": "electric_bike", "fusion_lat": 0.0, "lat": 38.963602, "name": "74beee1f184836a2b221e05a962cf072", "fusion_lon": 0.0, "bike_id": "74beee1f184836a2b221e05a962cf072", "is_disabled": 0, "is_reserved": 0}, {"rental_uris": {"ios": "https://dc.lft.to/lastmile_qr_scan", "android": "https://dc.lft.to/lastmile_qr_scan"}, "lon": -77.05025433333333, "type": "electric_scooter", "fusion_lat": 0.0, "lat": 38.9235565, "name": "42480ef115b23b65f964b2fbcc7d72e6", "fusion_lon": 0.0, "bike_id": "42480ef115b23b65f964b2fbcc7d72e6", "is_disabled": 0, "is_reserved": 0}, {"rental_uris": {"ios": "https://dc.lft.to/lastmile_qr_scan", "android": "https://dc.lft.to/lastmile_qr_scan"}, "lon": -77.04395166666667, "type": "electric_scooter", "fusion_lat": 0.0, "lat": 38.9058645, "name": "d4aec3cdc8a4e7432dade25e257754a6", "fusion_lon": 0.0, "bike_id": "d4aec3cdc8a4e7432dade25e257754a6", "is_disabled": 0, "is_reserved": 0}, {"rental_uris": {"ios": "https://dc.lft.to/lastmile_qr_scan", "android": "https://dc.lft.to/lastmile_qr_scan"}, "lon": -77.026027, "type": "electric_scooter", "fusion_lat": 0.0, "lat": 38.90753983333333, "name": "4179fca98007f56b3d4e78e4390d31f4", "fusion_lon": 0.0, "bike_id": "4179fca98007f56b3d4e78e4390d31f4", "is_disabled": 0, "is_reserved": 0}, {"rental_uris": {"ios": "https://dc.lft.to/lastmile_qr_scan", "android": "https://dc.lft.to/lastmile_qr_scan"}, "lon": -76.9977815, "type": "electric_scooter", "fusion_lat": 0.0, "lat": 38.844222333333335, "name": "0ed1873a9f9f1d60995f5b5be654671a", "fusion_lon": 0.0, "bike_id": "0ed1873a9f9f1d60995f5b5be654671a", "is_disabled": 0, "is_reserved": 0}, {"rental_uris": {"ios": "https://dc.lft.to/lastmile_qr_scan", "android": "https://dc.lft.to/lastmile_qr_scan"}, "lon": -77.03865283333333, "type": "electric_scooter", "fusion_lat": 0.0, "lat": 38.91560483333333, "name": "e96ab4cc7fa7a34463e4e4d8a4acd390", "fusion_lon": 0.0, "bike_id": "e96ab4cc7fa7a34463e4e4d8a4acd390", "is_disabled": 0, "is_reserved": 0}, {"rental_uris": {"ios": "https://dc.lft.to/lastmile_qr_scan", "android": "https://dc.lft.to/lastmile_qr_scan"}, "lon": -77.04441516666667, "type": "electric_scooter", "fusion_lat": 0.0, "lat": 38.918790333333334, "name": "29694c710416579b4a15341b21edcec0", "fusion_lon": 0.0, "bike_id": "29694c710416579b4a15341b21edcec0", "is_disabled": 0, "is_reserved": 0}, {"rental_uris": {"ios": "https://dc.lft.to/lastmile_qr_scan", "android": "https://dc.lft.to/lastmile_qr_scan"}, "lon": -77.02713883333334, "type": "electric_scooter", "fusion_lat": 0.0, "lat": 38.91820333333333, "name": "65f3f9375cce28f2ed553972840e8815", "fusion_lon": 0.0, "bike_id": "65f3f9375cce28f2ed553972840e8815", "is_disabled": 0, "is_reserved": 0}, {"rental_uris": {"ios": "https://dc.lft.to/lastmile_qr_scan", "android": "https://dc.lft.to/lastmile_qr_scan"}, "lon": -77.07168016666667, "type": "electric_scooter", "fusion_lat": 0.0, "lat": 38.914564166666665, "name": "ed0699008391db6dedf886b27b75b55a", "fusion_lon": 0.0, "bike_id": "ed0699008391db6dedf886b27b75b55a", "is_disabled": 0, "is_reserved": 0}, {"rental_uris": {"ios": "https://dc.lft.to/lastmile_qr_scan", "android": "https://dc.lft.to/lastmile_qr_scan"}, "lon": -77.04174483333334, "type": "electric_scooter", "fusion_lat": 0.0, "lat": 38.92022516666667, "name": "4bbea68d9d47921de47a52706384a35c", "fusion_lon": 0.0, "bike_id": "4bbea68d9d47921de47a52706384a35c", "is_disabled": 0, "is_reserved": 0}, {"rental_uris": {"ios": "https://dc.lft.to/lastmile_qr_scan", "android": "https://dc.lft.to/lastmile_qr_scan"}, "lon": -76.99625883333333, "type": "electric_scooter", "fusion_lat": 0.0, "lat": 38.846846666666664, "name": "31d91f6668f293142f53d33c142987a8", "fusion_lon": 0.0, "bike_id": "31d91f6668f293142f53d33c142987a8", "is_disabled": 0, "is_reserved": 0}, {"rental_uris": {"ios": "https://dc.lft.to/lastmile_qr_scan", "android": "https://dc.lft.to/lastmile_qr_scan"}, "lon": -77.0200295, "type": "electric_scooter", "fusion_lat": 0.0, "lat": 38.892501833333334, "name": "c1cd0cf7455bce10883077e5cda7c44e", "fusion_lon": 0.0, "bike_id": "c1cd0cf7455bce10883077e5cda7c44e", "is_disabled": 0, "is_reserved": 0}, {"rental_uris": {"ios": "https://dc.lft.to/lastmile_qr_scan", "android": "https://dc.lft.to/lastmile_qr_scan"}, "lon": -76.97191033333333, "type": "electric_scooter", "fusion_lat": 0.0, "lat": 38.912623333333336, "name": "d461a0d4bc417f6b880cb62b907f378e", "fusion_lon": 0.0, "bike_id": "d461a0d4bc417f6b880cb62b907f378e", "is_disabled": 0, "is_reserved": 0}, {"rental_uris": {"ios": "https://dc.lft.to/lastmile_qr_scan", "android": "https://dc.lft.to/lastmile_qr_scan"}, "lon": -76.990333, "type": "electric_scooter", "fusion_lat": 0.0, "lat": 38.858713333333334, "name": "41ef49bc19cc81f5e7aeca83ea7f6191", "fusion_lon": 0.0, "bike_id": "41ef49bc19cc81f5e7aeca83ea7f6191", "is_disabled": 0, "is_reserved": 0}, {"rental_uris": {"ios": "https://dc.lft.to/lastmile_qr_scan", "android": "https://dc.lft.to/lastmile_qr_scan"}, "lon": -77.0107335, "type": "electric_scooter", "fusion_lat": 0.0, "lat": 38.871152333333335, "name": "f947d4fea4585d67f27ede4405f77719", "fusion_lon": 0.0, "bike_id": "f947d4fea4585d67f27ede4405f77719", "is_disabled": 0, "is_reserved": 0}, {"rental_uris": {"ios": "https://dc.lft.to/lastmile_qr_scan", "android": "https://dc.lft.to/lastmile_qr_scan"}, "lon": -77.015189, "type": "electric_scooter", "fusion_lat": 0.0, "lat": 38.918708, "name": "8da5d1daca63e9e808db4ff065e3266e", "fusion_lon": 0.0, "bike_id": "8da5d1daca63e9e808db4ff065e3266e", "is_disabled": 0, "is_reserved": 0}, {"rental_uris": {"ios": "https://dc.lft.to/lastmile_qr_scan", "android": "https://dc.lft.to/lastmile_qr_scan"}, "lon": -77.068104, "type": "electric_bike", "fusion_lat": 0.0, "lat": 38.90784166666667, "name": "c882e9b68661cc6b1412f14cd338e58a", "fusion_lon": 0.0, "bike_id": "c882e9b68661cc6b1412f14cd338e58a", "is_disabled": 0, "is_reserved": 0}, {"rental_uris": {"ios": "https://dc.lft.to/lastmile_qr_scan", "android": "https://dc.lft.to/lastmile_qr_scan"}, "lon": -77.01819083333334, "type": "electric_scooter", "fusion_lat": 0.0, "lat": 38.908156166666664, "name": "7656c8280718fcc7ea5782643e3694fa", "fusion_lon": 0.0, "bike_id": "7656c8280718fcc7ea5782643e3694fa", "is_disabled": 0, "is_reserved": 0}, {"rental_uris": {"ios": "https://dc.lft.to/lastmile_qr_scan", "android": "https://dc.lft.to/lastmile_qr_scan"}, "lon": -77.03175366666666, "type": "electric_bike", "fusion_lat": 0.0, "lat": 38.91712583333333, "name": "03e2a3f4dcc84c781436b97e984a6c56", "fusion_lon": 0.0, "bike_id": "03e2a3f4dcc84c781436b97e984a6c56", "is_disabled": 0, "is_reserved": 0}, {"rental_uris": {"ios": "https://dc.lft.to/lastmile_qr_scan", "android": "https://dc.lft.to/lastmile_qr_scan"}, "lon": -77.02309566666666, "type": "electric_scooter", "fusion_lat": 0.0, "lat": 38.88737283333333, "name": "d52bd46311abd23f98e951374ea73112", "fusion_lon": 0.0, "bike_id": "d52bd46311abd23f98e951374ea73112", "is_disabled": 0, "is_reserved": 0}, {"rental_uris": {"ios": "https://dc.lft.to/lastmile_qr_scan", "android": "https://dc.lft.to/lastmile_qr_scan"}, "lon": -77.0045445, "type": "electric_scooter", "fusion_lat": 0.0, "lat": 38.876971, "name": "63f4804414c6750f608f705353cad180", "fusion_lon": 0.0, "bike_id": "63f4804414c6750f608f705353cad180", "is_disabled": 0, "is_reserved": 0}, {"rental_uris": {"ios": "https://dc.lft.to/lastmile_qr_scan", "android": "https://dc.lft.to/lastmile_qr_scan"}, "lon": -77.002563, "type": "electric_bike", "fusion_lat": 0.0, "lat": 38.9118475, "name": "a20305c2c36e3572224d47c095b7ce4e", "fusion_lon": 0.0, "bike_id": "a20305c2c36e3572224d47c095b7ce4e", "is_disabled": 0, "is_reserved": 0}, {"rental_uris": {"ios": "https://dc.lft.to/lastmile_qr_scan", "android": "https://dc.lft.to/lastmile_qr_scan"}, "lon": -76.97608416666667, "type": "electric_bike", "fusion_lat": 0.0, "lat": 38.913101833333336, "name": "04bba038736112f1ed7a46da294579e2", "fusion_lon": 0.0, "bike_id": "04bba038736112f1ed7a46da294579e2", "is_disabled": 0, "is_reserved": 0}, {"rental_uris": {"ios": "https://dc.lft.to/lastmile_qr_scan", "android": "https://dc.lft.to/lastmile_qr_scan"}, "lon": -77.0344425, "type": "electric_scooter", "fusion_lat": 0.0, "lat": 38.9094965, "name": "2b0f8c195b72050db1d0fcc02f0bd8b7", "fusion_lon": 0.0, "bike_id": "2b0f8c195b72050db1d0fcc02f0bd8b7", "is_disabled": 0, "is_reserved": 0}, {"rental_uris": {"ios": "https://dc.lft.to/lastmile_qr_scan", "android": "https://dc.lft.to/lastmile_qr_scan"}, "lon": -77.04390966666666, "type": "electric_scooter", "fusion_lat": 0.0, "lat": 38.92279, "name": "49c8ad127e7daab6f145f38730449474", "fusion_lon": 0.0, "bike_id": "49c8ad127e7daab6f145f38730449474", "is_disabled": 0, "is_reserved": 0}, {"rental_uris": {"ios": "https://dc.lft.to/lastmile_qr_scan", "android": "https://dc.lft.to/lastmile_qr_scan"}, "lon": -76.90432116666666, "type": "electric_bike", "fusion_lat": 0.0, "lat": 38.8977205, "name": "ce09fbece37874e2d2a0da349356fea7", "fusion_lon": 0.0, "bike_id": "ce09fbece37874e2d2a0da349356fea7", "is_disabled": 0, "is_reserved": 0}, {"rental_uris": {"ios": "https://dc.lft.to/lastmile_qr_scan", "android": "https://dc.lft.to/lastmile_qr_scan"}, "lon": -77.0122025, "type": "electric_scooter", "fusion_lat": 0.0, "lat": 38.915175, "name": "fe7bd8489c18219b4b588434ab051a96", "fusion_lon": 0.0, "bike_id": "fe7bd8489c18219b4b588434ab051a96", "is_disabled": 0, "is_reserved": 0}, {"rental_uris": {"ios": "https://dc.lft.to/lastmile_qr_scan", "android": "https://dc.lft.to/lastmile_qr_scan"}, "lon": -77.040286, "type": "electric_scooter", "fusion_lat": 0.0, "lat": 38.92437866666667, "name": "aec6bd424a77b639f1da5d46b4949539", "fusion_lon": 0.0, "bike_id": "aec6bd424a77b639f1da5d46b4949539", "is_disabled": 0, "is_reserved": 0}, {"rental_uris": {"ios": "https://dc.lft.to/lastmile_qr_scan", "android": "https://dc.lft.to/lastmile_qr_scan"}, "lon": -77.03883983333333, "type": "electric_scooter", "fusion_lat": 0.0, "lat": 38.902553166666664, "name": "9b7ef9f61d99bd1194f8ffa79a184986", "fusion_lon": 0.0, "bike_id": "9b7ef9f61d99bd1194f8ffa79a184986", "is_disabled": 0, "is_reserved": 0}, {"rental_uris": {"ios": "https://dc.lft.to/lastmile_qr_scan", "android": "https://dc.lft.to/lastmile_qr_scan"}, "lon": -77.04871383333334, "type": "electric_scooter", "fusion_lat": 0.0, "lat": 38.912380166666665, "name": "540b05c51880f2879b34ea5de9c54d5c", "fusion_lon": 0.0, "bike_id": "540b05c51880f2879b34ea5de9c54d5c", "is_disabled": 0, "is_reserved": 0}, {"rental_uris": {"ios": "https://dc.lft.to/lastmile_qr_scan", "android": "https://dc.lft.to/lastmile_qr_scan"}, "lon": -77.01514666666667, "type": "electric_scooter", "fusion_lat": 0.0, "lat": 38.887345, "name": "6cb0610ce29746e2c588c058c221228b", "fusion_lon": 0.0, "bike_id": "6cb0610ce29746e2c588c058c221228b", "is_disabled": 0, "is_reserved": 0}, {"rental_uris": {"ios": "https://dc.lft.to/lastmile_qr_scan", "android": "https://dc.lft.to/lastmile_qr_scan"}, "lon": -77.007261, "type": "electric_scooter", "fusion_lat": 0.0, "lat": 38.88494416666666, "name": "58da12a3913860d9022bf9ee2af33679", "fusion_lon": 0.0, "bike_id": "58da12a3913860d9022bf9ee2af33679", "is_disabled": 0, "is_reserved": 0}, {"rental_uris": {"ios": "https://dc.lft.to/lastmile_qr_scan", "android": "https://dc.lft.to/lastmile_qr_scan"}, "lon": -77.0271135, "type": "electric_scooter", "fusion_lat": 0.0, "lat": 38.918186, "name": "cd42569844a560eb6a70db0ffa31c6d1", "fusion_lon": 0.0, "bike_id": "cd42569844a560eb6a70db0ffa31c6d1", "is_disabled": 0, "is_reserved": 0}, {"rental_uris": {"ios": "https://dc.lft.to/lastmile_qr_scan", "android": "https://dc.lft.to/lastmile_qr_scan"}, "lon": -77.0384955, "type": "electric_scooter", "fusion_lat": 0.0, "lat": 38.912124, "name": "eeef64ac8ba27666ff236f291fea0770", "fusion_lon": 0.0, "bike_id": "eeef64ac8ba27666ff236f291fea0770", "is_disabled": 0, "is_reserved": 0}, {"rental_uris": {"ios": "https://dc.lft.to/lastmile_qr_scan", "android": "https://dc.lft.to/lastmile_qr_scan"}, "lon": -77.02005783333334, "type": "electric_scooter", "fusion_lat": 0.0, "lat": 38.90467783333333, "name": "f61cc0c6fdbf7b5b6c106a20f941bc1d", "fusion_lon": 0.0, "bike_id": "f61cc0c6fdbf7b5b6c106a20f941bc1d", "is_disabled": 0, "is_reserved": 0}, {"rental_uris": {"ios": "https://dc.lft.to/lastmile_qr_scan", "android": "https://dc.lft.to/lastmile_qr_scan"}, "lon": -77.0233355, "type": "electric_scooter", "fusion_lat": 0.0, "lat": 38.929488, "name": "20a073a50c2ee51cfc8cb275d7c9b9ac", "fusion_lon": 0.0, "bike_id": "20a073a50c2ee51cfc8cb275d7c9b9ac", "is_disabled": 0, "is_reserved": 0}, {"rental_uris": {"ios": "https://dc.lft.to/lastmile_qr_scan", "android": "https://dc.lft.to/lastmile_qr_scan"}, "lon": -77.01761416666666, "type": "electric_scooter", "fusion_lat": 0.0, "lat": 38.9171055, "name": "011c2c709883451394ffb8938cfdaf51", "fusion_lon": 0.0, "bike_id": "011c2c709883451394ffb8938cfdaf51", "is_disabled": 0, "is_reserved": 0}, {"rental_uris": {"ios": "https://dc.lft.to/lastmile_qr_scan", "android": "https://dc.lft.to/lastmile_qr_scan"}, "lon": -77.03447816666667, "type": "electric_scooter", "fusion_lat": 0.0, "lat": 38.903512666666664, "name": "bea2709718c8be3b5432840d52a6b81d", "fusion_lon": 0.0, "bike_id": "bea2709718c8be3b5432840d52a6b81d", "is_disabled": 0, "is_reserved": 0}, {"rental_uris": {"ios": "https://dc.lft.to/lastmile_qr_scan", "android": "https://dc.lft.to/lastmile_qr_scan"}, "lon": -77.03080866666667, "type": "electric_scooter", "fusion_lat": 0.0, "lat": 38.90993183333333, "name": "80fbeb60daa530ae9d18290a65f9fba9", "fusion_lon": 0.0, "bike_id": "80fbeb60daa530ae9d18290a65f9fba9", "is_disabled": 0, "is_reserved": 0}, {"rental_uris": {"ios": "https://dc.lft.to/lastmile_qr_scan", "android": "https://dc.lft.to/lastmile_qr_scan"}, "lon": -77.04114966666667, "type": "electric_scooter", "fusion_lat": 0.0, "lat": 38.915602166666666, "name": "4d08a3c919e056a12a1b108b46234b23", "fusion_lon": 0.0, "bike_id": "4d08a3c919e056a12a1b108b46234b23", "is_disabled": 0, "is_reserved": 0}, {"rental_uris": {"ios": "https://dc.lft.to/lastmile_qr_scan", "android": "https://dc.lft.to/lastmile_qr_scan"}, "lon": -77.0283645, "type": "electric_scooter", "fusion_lat": 0.0, "lat": 38.887687166666666, "name": "3e1d4ec7ce7c90a7e96d5f221478e255", "fusion_lon": 0.0, "bike_id": "3e1d4ec7ce7c90a7e96d5f221478e255", "is_disabled": 0, "is_reserved": 0}, {"rental_uris": {"ios": "https://dc.lft.to/lastmile_qr_scan", "android": "https://dc.lft.to/lastmile_qr_scan"}, "lon": -77.03766866666666, "type": "electric_scooter", "fusion_lat": 0.0, "lat": 38.92602766666667, "name": "f24fbb72a6ffb6754701851ac0e674c4", "fusion_lon": 0.0, "bike_id": "f24fbb72a6ffb6754701851ac0e674c4", "is_disabled": 0, "is_reserved": 0}, {"rental_uris": {"ios": "https://dc.lft.to/lastmile_qr_scan", "android": "https://dc.lft.to/lastmile_qr_scan"}, "lon": -77.1152115, "type": "electric_bike", "fusion_lat": 0.0, "lat": 38.854944, "name": "9031ba4ceab1e5ae02c8bc5f565f4d3d", "fusion_lon": 0.0, "bike_id": "9031ba4ceab1e5ae02c8bc5f565f4d3d", "is_disabled": 0, "is_reserved": 0}, {"rental_uris": {"ios": "https://dc.lft.to/lastmile_qr_scan", "android": "https://dc.lft.to/lastmile_qr_scan"}, "lon": -77.05312633333334, "type": "electric_scooter", "fusion_lat": 0.0, "lat": 38.9031475, "name": "22551a54c670c372f0226244d364e199", "fusion_lon": 0.0, "bike_id": "22551a54c670c372f0226244d364e199", "is_disabled": 0, "is_reserved": 0}, {"rental_uris": {"ios": "https://dc.lft.to/lastmile_qr_scan", "android": "https://dc.lft.to/lastmile_qr_scan"}, "lon": -77.02526516666667, "type": "electric_scooter", "fusion_lat": 0.0, "lat": 38.91987433333333, "name": "512ef561de7c658ecb58f60e8b1be3ea", "fusion_lon": 0.0, "bike_id": "512ef561de7c658ecb58f60e8b1be3ea", "is_disabled": 0, "is_reserved": 0}, {"rental_uris": {"ios": "https://dc.lft.to/lastmile_qr_scan", "android": "https://dc.lft.to/lastmile_qr_scan"}, "lon": -77.03852666666667, "type": "electric_scooter", "fusion_lat": 0.0, "lat": 38.93247183333333, "name": "23b7cf6deda4d5d41a026713bd3d31d4", "fusion_lon": 0.0, "bike_id": "23b7cf6deda4d5d41a026713bd3d31d4", "is_disabled": 0, "is_reserved": 0}, {"rental_uris": {"ios": "https://dc.lft.to/lastmile_qr_scan", "android": "https://dc.lft.to/lastmile_qr_scan"}, "lon": -77.05755033333334, "type": "electric_scooter", "fusion_lat": 0.0, "lat": 38.934141333333336, "name": "c3c811e0926fa993f33e1ae71124eb14", "fusion_lon": 0.0, "bike_id": "c3c811e0926fa993f33e1ae71124eb14", "is_disabled": 0, "is_reserved": 0}, {"rental_uris": {"ios": "https://dc.lft.to/lastmile_qr_scan", "android": "https://dc.lft.to/lastmile_qr_scan"}, "lon": -76.99922916666667, "type": "electric_scooter", "fusion_lat": 0.0, "lat": 38.9095845, "name": "172ebf02390bbfddc9d23d6931916e83", "fusion_lon": 0.0, "bike_id": "172ebf02390bbfddc9d23d6931916e83", "is_disabled": 0, "is_reserved": 0}, {"rental_uris": {"ios": "https://dc.lft.to/lastmile_qr_scan", "android": "https://dc.lft.to/lastmile_qr_scan"}, "lon": -77.04602866666667, "type": "electric_scooter", "fusion_lat": 0.0, "lat": 38.917219333333335, "name": "0571963e8d7c6e37a2fbaca0a7189c24", "fusion_lon": 0.0, "bike_id": "0571963e8d7c6e37a2fbaca0a7189c24", "is_disabled": 0, "is_reserved": 0}, {"rental_uris": {"ios": "https://dc.lft.to/lastmile_qr_scan", "android": "https://dc.lft.to/lastmile_qr_scan"}, "lon": -77.03078116666667, "type": "electric_scooter", "fusion_lat": 0.0, "lat": 38.911798166666664, "name": "3b947be75284ef65d863c17e27f5a411", "fusion_lon": 0.0, "bike_id": "3b947be75284ef65d863c17e27f5a411", "is_disabled": 0, "is_reserved": 0}, {"rental_uris": {"ios": "https://dc.lft.to/lastmile_qr_scan", "android": "https://dc.lft.to/lastmile_qr_scan"}, "lon": -76.98607133333333, "type": "electric_scooter", "fusion_lat": 0.0, "lat": 38.8682205, "name": "80b4c5ce3e4b5bdc7ceed061049cbabc", "fusion_lon": 0.0, "bike_id": "80b4c5ce3e4b5bdc7ceed061049cbabc", "is_disabled": 0, "is_reserved": 0}, {"rental_uris": {"ios": "https://dc.lft.to/lastmile_qr_scan", "android": "https://dc.lft.to/lastmile_qr_scan"}, "lon": -77.0116095, "type": "electric_scooter", "fusion_lat": 0.0, "lat": 38.89707033333333, "name": "179557eb4a03d82706a5042ae6d26834", "fusion_lon": 0.0, "bike_id": "179557eb4a03d82706a5042ae6d26834", "is_disabled": 0, "is_reserved": 0}, {"rental_uris": {"ios": "https://dc.lft.to/lastmile_qr_scan", "android": "https://dc.lft.to/lastmile_qr_scan"}, "lon": -77.03626283333334, "type": "electric_scooter", "fusion_lat": 0.0, "lat": 38.92915416666666, "name": "5bc7e6aa1b94baadc28382a49151439f", "fusion_lon": 0.0, "bike_id": "5bc7e6aa1b94baadc28382a49151439f", "is_disabled": 0, "is_reserved": 0}, {"rental_uris": {"ios": "https://dc.lft.to/lastmile_qr_scan", "android": "https://dc.lft.to/lastmile_qr_scan"}, "lon": -77.0449965, "type": "electric_scooter", "fusion_lat": 0.0, "lat": 38.906456166666665, "name": "887f44bfe55806ba1520829fbff1b700", "fusion_lon": 0.0, "bike_id": "887f44bfe55806ba1520829fbff1b700", "is_disabled": 0, "is_reserved": 0}, {"rental_uris": {"ios": "https://dc.lft.to/lastmile_qr_scan", "android": "https://dc.lft.to/lastmile_qr_scan"}, "lon": -77.05259566666666, "type": "electric_scooter", "fusion_lat": 0.0, "lat": 38.923769666666665, "name": "94264466c57f167d15f62fe664c57272", "fusion_lon": 0.0, "bike_id": "94264466c57f167d15f62fe664c57272", "is_disabled": 0, "is_reserved": 0}, {"rental_uris": {"ios": "https://dc.lft.to/lastmile_qr_scan", "android": "https://dc.lft.to/lastmile_qr_scan"}, "lon": -77.01258583333333, "type": "electric_scooter", "fusion_lat": 0.0, "lat": 38.89970533333333, "name": "d34c91edb5cfae2be5da3ebfb032c522", "fusion_lon": 0.0, "bike_id": "d34c91edb5cfae2be5da3ebfb032c522", "is_disabled": 0, "is_reserved": 0}, {"rental_uris": {"ios": "https://dc.lft.to/lastmile_qr_scan", "android": "https://dc.lft.to/lastmile_qr_scan"}, "lon": -77.135958, "type": "electric_bike", "fusion_lat": 0.0, "lat": 39.05348766666667, "name": "245ea18ebf4f1f17b9b1629c55649f2d", "fusion_lon": 0.0, "bike_id": "245ea18ebf4f1f17b9b1629c55649f2d", "is_disabled": 0, "is_reserved": 0}, {"rental_uris": {"ios": "https://dc.lft.to/lastmile_qr_scan", "android": "https://dc.lft.to/lastmile_qr_scan"}, "lon": -77.01439633333334, "type": "electric_scooter", "fusion_lat": 0.0, "lat": 38.877689, "name": "3841ee90f699c69428756ff3630b420c", "fusion_lon": 0.0, "bike_id": "3841ee90f699c69428756ff3630b420c", "is_disabled": 0, "is_reserved": 0}, {"rental_uris": {"ios": "https://dc.lft.to/lastmile_qr_scan", "android": "https://dc.lft.to/lastmile_qr_scan"}, "lon": -77.04313133333333, "type": "electric_scooter", "fusion_lat": 0.0, "lat": 38.922565166666665, "name": "bcc26e1f021e413de7af9d70eaecd02b", "fusion_lon": 0.0, "bike_id": "bcc26e1f021e413de7af9d70eaecd02b", "is_disabled": 0, "is_reserved": 0}, {"rental_uris": {"ios": "https://dc.lft.to/lastmile_qr_scan", "android": "https://dc.lft.to/lastmile_qr_scan"}, "lon": -77.03654816666666, "type": "electric_scooter", "fusion_lat": 0.0, "lat": 38.9129995, "name": "3f5beef2fc0f1304286ff21e7c6bd7b1", "fusion_lon": 0.0, "bike_id": "3f5beef2fc0f1304286ff21e7c6bd7b1", "is_disabled": 0, "is_reserved": 0}, {"rental_uris": {"ios": "https://dc.lft.to/lastmile_qr_scan", "android": "https://dc.lft.to/lastmile_qr_scan"}, "lon": -76.94870583333334, "type": "electric_scooter", "fusion_lat": 0.0, "lat": 38.894610166666666, "name": "8f3ebc687eb45977f78f3c28538989ff", "fusion_lon": 0.0, "bike_id": "8f3ebc687eb45977f78f3c28538989ff", "is_disabled": 0, "is_reserved": 0}, {"rental_uris": {"ios": "https://dc.lft.to/lastmile_qr_scan", "android": "https://dc.lft.to/lastmile_qr_scan"}, "lon": -77.02532883333333, "type": "electric_scooter", "fusion_lat": 0.0, "lat": 38.918245, "name": "04341d2a97e9c4b941eb6e3165156075", "fusion_lon": 0.0, "bike_id": "04341d2a97e9c4b941eb6e3165156075", "is_disabled": 0, "is_reserved": 0}, {"rental_uris": {"ios": "https://dc.lft.to/lastmile_qr_scan", "android": "https://dc.lft.to/lastmile_qr_scan"}, "lon": -77.06526783333334, "type": "electric_scooter", "fusion_lat": 0.0, "lat": 38.934754833333336, "name": "0cf4c31b7fa8a26932827735b1f8279a", "fusion_lon": 0.0, "bike_id": "0cf4c31b7fa8a26932827735b1f8279a", "is_disabled": 0, "is_reserved": 0}, {"rental_uris": {"ios": "https://dc.lft.to/lastmile_qr_scan", "android": "https://dc.lft.to/lastmile_qr_scan"}, "lon": -77.02139, "type": "electric_scooter", "fusion_lat": 0.0, "lat": 38.9000415, "name": "06705760b6f5840b05fc8a1e6ee927dd", "fusion_lon": 0.0, "bike_id": "06705760b6f5840b05fc8a1e6ee927dd", "is_disabled": 0, "is_reserved": 0}, {"rental_uris": {"ios": "https://dc.lft.to/lastmile_qr_scan", "android": "https://dc.lft.to/lastmile_qr_scan"}, "lon": -76.98438183333333, "type": "electric_scooter", "fusion_lat": 0.0, "lat": 38.9142545, "name": "ee1c380386c36839694dfc141513cb2f", "fusion_lon": 0.0, "bike_id": "ee1c380386c36839694dfc141513cb2f", "is_disabled": 0, "is_reserved": 0}, {"rental_uris": {"ios": "https://dc.lft.to/lastmile_qr_scan", "android": "https://dc.lft.to/lastmile_qr_scan"}, "lon": -77.0481215, "type": "electric_scooter", "fusion_lat": 0.0, "lat": 38.91332216666667, "name": "9bb1bb73fb9d0cd01b930a25cd1c1500", "fusion_lon": 0.0, "bike_id": "9bb1bb73fb9d0cd01b930a25cd1c1500", "is_disabled": 0, "is_reserved": 0}, {"rental_uris": {"ios": "https://dc.lft.to/lastmile_qr_scan", "android": "https://dc.lft.to/lastmile_qr_scan"}, "lon": -77.03412116666667, "type": "electric_scooter", "fusion_lat": 0.0, "lat": 38.909814833333336, "name": "eebf92ececd49e95e444e725646349d2", "fusion_lon": 0.0, "bike_id": "eebf92ececd49e95e444e725646349d2", "is_disabled": 0, "is_reserved": 0}, {"rental_uris": {"ios": "https://dc.lft.to/lastmile_qr_scan", "android": "https://dc.lft.to/lastmile_qr_scan"}, "lon": -77.01324366666667, "type": "electric_scooter", "fusion_lat": 0.0, "lat": 38.892374, "name": "f5a93a2be8507659a88c7518d303498d", "fusion_lon": 0.0, "bike_id": "f5a93a2be8507659a88c7518d303498d", "is_disabled": 0, "is_reserved": 0}, {"rental_uris": {"ios": "https://dc.lft.to/lastmile_qr_scan", "android": "https://dc.lft.to/lastmile_qr_scan"}, "lon": -77.00053866666667, "type": "electric_bike", "fusion_lat": 0.0, "lat": 38.8743985, "name": "6e29761b185ef6fa4ebd285a4de306a5", "fusion_lon": 0.0, "bike_id": "6e29761b185ef6fa4ebd285a4de306a5", "is_disabled": 0, "is_reserved": 0}, {"rental_uris": {"ios": "https://dc.lft.to/lastmile_qr_scan", "android": "https://dc.lft.to/lastmile_qr_scan"}, "lon": -77.04415116666667, "type": "electric_scooter", "fusion_lat": 0.0, "lat": 38.909154666666666, "name": "2627151090110119213d07f7a345940c", "fusion_lon": 0.0, "bike_id": "2627151090110119213d07f7a345940c", "is_disabled": 0, "is_reserved": 0}, {"rental_uris": {"ios": "https://dc.lft.to/lastmile_qr_scan", "android": "https://dc.lft.to/lastmile_qr_scan"}, "lon": -77.09560433333333, "type": "electric_bike", "fusion_lat": 0.0, "lat": 38.917046, "name": "557ba86471cf9fafb51b896342dbd59a", "fusion_lon": 0.0, "bike_id": "557ba86471cf9fafb51b896342dbd59a", "is_disabled": 0, "is_reserved": 0}, {"rental_uris": {"ios": "https://dc.lft.to/lastmile_qr_scan", "android": "https://dc.lft.to/lastmile_qr_scan"}, "lon": -76.908149, "type": "electric_bike", "fusion_lat": 0.0, "lat": 38.99452866666667, "name": "d571bd7032a92553043d41ddf102d663", "fusion_lon": 0.0, "bike_id": "d571bd7032a92553043d41ddf102d663", "is_disabled": 0, "is_reserved": 0}, {"rental_uris": {"ios": "https://dc.lft.to/lastmile_qr_scan", "android": "https://dc.lft.to/lastmile_qr_scan"}, "lon": -77.04868883333333, "type": "electric_scooter", "fusion_lat": 0.0, "lat": 38.90535216666667, "name": "8cab313723d6bc47f0f5f12beb6230c1", "fusion_lon": 0.0, "bike_id": "8cab313723d6bc47f0f5f12beb6230c1", "is_disabled": 0, "is_reserved": 0}, {"rental_uris": {"ios": "https://dc.lft.to/lastmile_qr_scan", "android": "https://dc.lft.to/lastmile_qr_scan"}, "lon": -76.99146416666666, "type": "electric_scooter", "fusion_lat": 0.0, "lat": 38.893452333333336, "name": "02697b9b909910beed79109679a001c5", "fusion_lon": 0.0, "bike_id": "02697b9b909910beed79109679a001c5", "is_disabled": 0, "is_reserved": 0}, {"rental_uris": {"ios": "https://dc.lft.to/lastmile_qr_scan", "android": "https://dc.lft.to/lastmile_qr_scan"}, "lon": -77.03794583333334, "type": "electric_scooter", "fusion_lat": 0.0, "lat": 38.930266833333334, "name": "8144853910edd897738f62ae2e721c7b", "fusion_lon": 0.0, "bike_id": "8144853910edd897738f62ae2e721c7b", "is_disabled": 0, "is_reserved": 0}, {"rental_uris": {"ios": "https://dc.lft.to/lastmile_qr_scan", "android": "https://dc.lft.to/lastmile_qr_scan"}, "lon": -76.9733065, "type": "electric_scooter", "fusion_lat": 0.0, "lat": 38.904845, "name": "eb485ac31f0c53e1e4c535745c0a2597", "fusion_lon": 0.0, "bike_id": "eb485ac31f0c53e1e4c535745c0a2597", "is_disabled": 0, "is_reserved": 0}, {"rental_uris": {"ios": "https://dc.lft.to/lastmile_qr_scan", "android": "https://dc.lft.to/lastmile_qr_scan"}, "lon": -77.10898333333333, "type": "electric_bike", "fusion_lat": 0.0, "lat": 38.8304665, "name": "9e3e6940aa4df519b93fd9d0dfd9dcaa", "fusion_lon": 0.0, "bike_id": "9e3e6940aa4df519b93fd9d0dfd9dcaa", "is_disabled": 0, "is_reserved": 0}, {"rental_uris": {"ios": "https://dc.lft.to/lastmile_qr_scan", "android": "https://dc.lft.to/lastmile_qr_scan"}, "lon": -77.01106766666666, "type": "electric_bike", "fusion_lat": 0.0, "lat": 38.96307983333333, "name": "c828d853503dae3ebd350eb53dc7eac9", "fusion_lon": 0.0, "bike_id": "c828d853503dae3ebd350eb53dc7eac9", "is_disabled": 0, "is_reserved": 0}, {"rental_uris": {"ios": "https://dc.lft.to/lastmile_qr_scan", "android": "https://dc.lft.to/lastmile_qr_scan"}, "lon": -77.03342583333334, "type": "electric_scooter", "fusion_lat": 0.0, "lat": 38.92876866666667, "name": "3e6780da5e2b2f22a62121874a7146ec", "fusion_lon": 0.0, "bike_id": "3e6780da5e2b2f22a62121874a7146ec", "is_disabled": 0, "is_reserved": 0}, {"rental_uris": {"ios": "https://dc.lft.to/lastmile_qr_scan", "android": "https://dc.lft.to/lastmile_qr_scan"}, "lon": -77.00133933333333, "type": "electric_scooter", "fusion_lat": 0.0, "lat": 38.9041405, "name": "42611a1167a1b9cf04c610ee31868152", "fusion_lon": 0.0, "bike_id": "42611a1167a1b9cf04c610ee31868152", "is_disabled": 0, "is_reserved": 0}, {"rental_uris": {"ios": "https://dc.lft.to/lastmile_qr_scan", "android": "https://dc.lft.to/lastmile_qr_scan"}, "lon": -77.017933, "type": "electric_scooter", "fusion_lat": 0.0, "lat": 38.90427233333333, "name": "f5a348934eea9c9efc645d51f749492b", "fusion_lon": 0.0, "bike_id": "f5a348934eea9c9efc645d51f749492b", "is_disabled": 0, "is_reserved": 0}, {"rental_uris": {"ios": "https://dc.lft.to/lastmile_qr_scan", "android": "https://dc.lft.to/lastmile_qr_scan"}, "lon": -76.99167116666666, "type": "electric_scooter", "fusion_lat": 0.0, "lat": 38.90044783333333, "name": "b5a18edf8fa903cf1fa35566c853ba24", "fusion_lon": 0.0, "bike_id": "b5a18edf8fa903cf1fa35566c853ba24", "is_disabled": 0, "is_reserved": 0}, {"rental_uris": {"ios": "https://dc.lft.to/lastmile_qr_scan", "android": "https://dc.lft.to/lastmile_qr_scan"}, "lon": -77.04900933333333, "type": "electric_scooter", "fusion_lat": 0.0, "lat": 38.90552666666667, "name": "ddf05831828fff851663bdf0683693fd", "fusion_lon": 0.0, "bike_id": "ddf05831828fff851663bdf0683693fd", "is_disabled": 0, "is_reserved": 0}, {"rental_uris": {"ios": "https://dc.lft.to/lastmile_qr_scan", "android": "https://dc.lft.to/lastmile_qr_scan"}, "lon": -77.01837633333334, "type": "electric_bike", "fusion_lat": 0.0, "lat": 38.9086705, "name": "be95ec4861d6cce21a4d9694cf55d3db", "fusion_lon": 0.0, "bike_id": "be95ec4861d6cce21a4d9694cf55d3db", "is_disabled": 0, "is_reserved": 0}, {"rental_uris": {"ios": "https://dc.lft.to/lastmile_qr_scan", "android": "https://dc.lft.to/lastmile_qr_scan"}, "lon": -77.02217066666667, "type": "electric_scooter", "fusion_lat": 0.0, "lat": 38.905738666666664, "name": "f1a25d57df4f007df4f83dd698414619", "fusion_lon": 0.0, "bike_id": "f1a25d57df4f007df4f83dd698414619", "is_disabled": 0, "is_reserved": 0}, {"rental_uris": {"ios": "https://dc.lft.to/lastmile_qr_scan", "android": "https://dc.lft.to/lastmile_qr_scan"}, "lon": -77.05120283333333, "type": "electric_scooter", "fusion_lat": 0.0, "lat": 38.923635, "name": "4dc176b55e3b711f1ca28b23be3f200d", "fusion_lon": 0.0, "bike_id": "4dc176b55e3b711f1ca28b23be3f200d", "is_disabled": 0, "is_reserved": 0}, {"rental_uris": {"ios": "https://dc.lft.to/lastmile_qr_scan", "android": "https://dc.lft.to/lastmile_qr_scan"}, "lon": -77.04257083333333, "type": "electric_scooter", "fusion_lat": 0.0, "lat": 38.9029555, "name": "0f43359a75e58013e3ee47c42f634a49", "fusion_lon": 0.0, "bike_id": "0f43359a75e58013e3ee47c42f634a49", "is_disabled": 0, "is_reserved": 0}, {"rental_uris": {"ios": "https://dc.lft.to/lastmile_qr_scan", "android": "https://dc.lft.to/lastmile_qr_scan"}, "lon": -77.01100816666667, "type": "electric_scooter", "fusion_lat": 0.0, "lat": 38.8948595, "name": "06de5f938096578d28936fe276e79a71", "fusion_lon": 0.0, "bike_id": "06de5f938096578d28936fe276e79a71", "is_disabled": 0, "is_reserved": 0}, {"rental_uris": {"ios": "https://dc.lft.to/lastmile_qr_scan", "android": "https://dc.lft.to/lastmile_qr_scan"}, "lon": -77.02720866666667, "type": "electric_scooter", "fusion_lat": 0.0, "lat": 38.906691, "name": "540d8f8b21ce4ed44ab808cf51032b14", "fusion_lon": 0.0, "bike_id": "540d8f8b21ce4ed44ab808cf51032b14", "is_disabled": 0, "is_reserved": 0}, {"rental_uris": {"ios": "https://dc.lft.to/lastmile_qr_scan", "android": "https://dc.lft.to/lastmile_qr_scan"}, "lon": -77.10684216666667, "type": "electric_bike", "fusion_lat": 0.0, "lat": 38.9358315, "name": "c8ea1afd1339b149738a1bbe1fc21315", "fusion_lon": 0.0, "bike_id": "c8ea1afd1339b149738a1bbe1fc21315", "is_disabled": 0, "is_reserved": 0}, {"rental_uris": {"ios": "https://dc.lft.to/lastmile_qr_scan", "android": "https://dc.lft.to/lastmile_qr_scan"}, "lon": -77.0465695, "type": "electric_scooter", "fusion_lat": 0.0, "lat": 38.89339, "name": "c5a71fb77e89afb6fffe4422e74e021b", "fusion_lon": 0.0, "bike_id": "c5a71fb77e89afb6fffe4422e74e021b", "is_disabled": 0, "is_reserved": 0}, {"rental_uris": {"ios": "https://dc.lft.to/lastmile_qr_scan", "android": "https://dc.lft.to/lastmile_qr_scan"}, "lon": -77.046848, "type": "electric_scooter", "fusion_lat": 0.0, "lat": 38.892245833333334, "name": "c3a8fbe2c44ba67c9ea55b289f2fd5b9", "fusion_lon": 0.0, "bike_id": "c3a8fbe2c44ba67c9ea55b289f2fd5b9", "is_disabled": 0, "is_reserved": 0}, {"rental_uris": {"ios": "https://dc.lft.to/lastmile_qr_scan", "android": "https://dc.lft.to/lastmile_qr_scan"}, "lon": -77.06280433333333, "type": "electric_scooter", "fusion_lat": 0.0, "lat": 38.906820833333335, "name": "d266928543e34f4097047f1f47583b73", "fusion_lon": 0.0, "bike_id": "d266928543e34f4097047f1f47583b73", "is_disabled": 0, "is_reserved": 0}, {"rental_uris": {"ios": "https://dc.lft.to/lastmile_qr_scan", "android": "https://dc.lft.to/lastmile_qr_scan"},