{"data": {"bikes": [{"is_reserved": 0, "lat": 38.9077945, "is_disabled": 0, "type": "electric_scooter", "fusion_lat": 0.0, "bike_id": "c3afbc94036c033206fc1aa12f8f4f1a", "rental_uris": {"ios": "https://dc.lft.to/lastmile_qr_scan", "android": "https://dc.lft.to/lastmile_qr_scan"}, "fusion_lon": 0.0, "name": "c3afbc94036c033206fc1aa12f8f4f1a", "lon": -77.038612}, {"is_reserved": 0, "lat": 38.923351833333335, "is_disabled": 0, "type": "electric_scooter", "fusion_lat": 0.0, "bike_id": "813b0ba7f0e91052e7243917dada1a8c", "rental_uris": {"ios": "https://dc.lft.to/lastmile_qr_scan", "android": "https://dc.lft.to/lastmile_qr_scan"}, "fusion_lon": 0.0, "name": "813b0ba7f0e91052e7243917dada1a8c", "lon": -77.03575633333334}, {"is_reserved": 0, "lat": 38.923424833333335, "is_disabled": 0, "type": "electric_scooter", "fusion_lat": 0.0, "bike_id": "9c4c54c7dacc5909b83d36045f4a73c4", "rental_uris": {"ios": "https://dc.lft.to/lastmile_qr_scan", "android": "https://dc.lft.to/lastmile_qr_scan"}, "fusion_lon": 0.0, "name": "9c4c54c7dacc5909b83d36045f4a73c4", "lon": -77.050516}, {"is_reserved": 0, "lat": 38.90810533333333, "is_disabled": 0, "type": "electric_scooter", "fusion_lat": 0.0, "bike_id": "e1e5b5597a431ffc75f124cc359c6f71", "rental_uris": {"ios": "https://dc.lft.to/lastmile_qr_scan", "android": "https://dc.lft.to/lastmile_qr_scan"}, "fusion_lon": 0.0, "name": "e1e5b5597a431ffc75f124cc359c6f71", "lon": -77.039427}, {"is_reserved": 0, "lat": 38.87646516666667, "is_disabled": 0, "type": "electric_scooter", "fusion_lat": 0.0, "bike_id": "9d57918963f2df094916eb8dd7e67a26", "rental_uris": {"ios": "https://dc.lft.to/lastmile_qr_scan", "android": "https://dc.lft.to/lastmile_qr_scan"}, "fusion_lon": 0.0, "name": "9d57918963f2df094916eb8dd7e67a26", "lon": -77.00382933333333}, {"is_reserved": 0, "lat": 38.86831883333333, "is_disabled": 0, "type": "electric_scooter", "fusion_lat": 0.0, "bike_id": "af2bc01074545d8d7c4522bba913c7e7", "rental_uris": {"ios": "https://dc.lft.to/lastmile_qr_scan", "android": "https://dc.lft.to/lastmile_qr_scan"}, "fusion_lon": 0.0, "name": "af2bc01074545d8d7c4522bba913c7e7", "lon": -76.97738666666666}, {"is_reserved": 0, "lat": 38.9113305, "is_disabled": 0, "type": "electric_scooter", "fusion_lat": 0.0, "bike_id": "cbe2af34a269780f8cef0581088a9886", "rental_uris": {"ios": "https://dc.lft.to/lastmile_qr_scan", "android": "https://dc.lft.to/lastmile_qr_scan"}, "fusion_lon": 0.0, "name": "cbe2af34a269780f8cef0581088a9886", "lon": -77.0269365}, {"is_reserved": 0, "lat": 38.90953783333333, "is_disabled": 0, "type": "electric_scooter", "fusion_lat": 0.0, "bike_id": "a674cee6ed10d4dbdfff30d080e37d57", "rental_uris": {"ios": "https://dc.lft.to/lastmile_qr_scan", "android": "https://dc.lft.to/lastmile_qr_scan"}, "fusion_lon": 0.0, "name": "a674cee6ed10d4dbdfff30d080e37d57", "lon": -77.02718383333334}, {"is_reserved": 0, "lat": 38.951911833333334, "is_disabled": 0, "type": "electric_scooter", "fusion_lat": 0.0, "bike_id": "46bcac3d937fe6939a3ed74f024fa253", "rental_uris": {"ios": "https://dc.lft.to/lastmile_qr_scan", "android": "https://dc.lft.to/lastmile_qr_scan"}, "fusion_lon": 0.0, "name": "46bcac3d937fe6939a3ed74f024fa253", "lon": -77.02977066666666}, {"is_reserved": 0, "lat": 38.9175205, "is_disabled": 0, "type": "electric_scooter", "fusion_lat": 0.0, "bike_id": "38498f49a04eeaa4ad65dfa35ed9b94c", "rental_uris": {"ios": "https://dc.lft.to/lastmile_qr_scan", "android": "https://dc.lft.to/lastmile_qr_scan"}, "fusion_lon": 0.0, "name": "38498f49a04eeaa4ad65dfa35ed9b94c", "lon": -77.01598983333334}, {"is_reserved": 0, "lat": 38.880702, "is_disabled": 0, "type": "electric_bike", "fusion_lat": 0.0, "bike_id": "d39035bdeeee74a924fcadd52e83725e", "rental_uris": {"ios": "https://dc.lft.to/lastmile_qr_scan", "android": "https://dc.lft.to/lastmile_qr_scan"}, "fusion_lon": 0.0, "name": "d39035bdeeee74a924fcadd52e83725e", "lon": -76.9851555}, {"is_reserved": 0, "lat": 38.89552333333334, "is_disabled": 0, "type": "electric_scooter", "fusion_lat": 0.0, "bike_id": "5fca03a3e5a36580a8fedb27a188c6e7", "rental_uris": {"ios": "https://dc.lft.to/lastmile_qr_scan", "android": "https://dc.lft.to/lastmile_qr_scan"}, "fusion_lon": 0.0, "name": "5fca03a3e5a36580a8fedb27a188c6e7", "lon": -77.02204116666667}, {"is_reserved": 0, "lat": 38.916977833333334, "is_disabled": 0, "type": "electric_scooter", "fusion_lat": 0.0, "bike_id": "133dae431076fa22da1f75893f724ffb", "rental_uris": {"ios": "https://dc.lft.to/lastmile_qr_scan", "android": "https://dc.lft.to/lastmile_qr_scan"}, "fusion_lon": 0.0, "name": "133dae431076fa22da1f75893f724ffb", "lon": -77.03775616666667}, {"is_reserved": 0, "lat": 38.91728233333333, "is_disabled": 0, "type": "electric_scooter", "fusion_lat": 0.0, "bike_id": "176c46ea7af5d5bc9cf7fc38befbed26", "rental_uris": {"ios": "https://dc.lft.to/lastmile_qr_scan", "android": "https://dc.lft.to/lastmile_qr_scan"}, "fusion_lon": 0.0, "name": "176c46ea7af5d5bc9cf7fc38befbed26", "lon": -77.04169783333333}, {"is_reserved": 0, "lat": 38.87002716666667, "is_disabled": 0, "type": "electric_bike", "fusion_lat": 0.0, "bike_id": "0905f874f3b5d234738918282521e648", "rental_uris": {"ios": "https://dc.lft.to/lastmile_qr_scan", "android": "https://dc.lft.to/lastmile_qr_scan"}, "fusion_lon": 0.0, "name": "0905f874f3b5d234738918282521e648", "lon": -76.95981916666666}, {"is_reserved": 0, "lat": 38.9201695, "is_disabled": 0, "type": "electric_scooter", "fusion_lat": 0.0, "bike_id": "1dfb5d87cd91a63aebb69f3ed284746d", "rental_uris": {"ios": "https://dc.lft.to/lastmile_qr_scan", "android": "https://dc.lft.to/lastmile_qr_scan"}, "fusion_lon": 0.0, "name": "1dfb5d87cd91a63aebb69f3ed284746d", "lon": -77.03129833333334}, {"is_reserved": 0, "lat": 38.871920833333334, "is_disabled": 0, "type": "electric_scooter", "fusion_lat": 0.0, "bike_id": "750fc647761aa07f4fa464f0404089d8", "rental_uris": {"ios": "https://dc.lft.to/lastmile_qr_scan", "android": "https://dc.lft.to/lastmile_qr_scan"}, "fusion_lon": 0.0, "name": "750fc647761aa07f4fa464f0404089d8", "lon": -77.006212}, {"is_reserved": 0, "lat": 38.90242666666666, "is_disabled": 0, "type": "electric_bike", "fusion_lat": 0.0, "bike_id": "427a734dfdc53387e7b715773ca43aa6", "rental_uris": {"ios": "https://dc.lft.to/lastmile_qr_scan", "android": "https://dc.lft.to/lastmile_qr_scan"}, "fusion_lon": 0.0, "name": "427a734dfdc53387e7b715773ca43aa6", "lon": -77.0261305}, {"is_reserved": 0, "lat": 38.8878015, "is_disabled": 0, "type": "electric_scooter", "fusion_lat": 0.0, "bike_id": "ec6c56b8d4bb7d909dcf8ef3b507289d", "rental_uris": {"ios": "https://dc.lft.to/lastmile_qr_scan", "android": "https://dc.lft.to/lastmile_qr_scan"}, "fusion_lon": 0.0, "name": "ec6c56b8d4bb7d909dcf8ef3b507289d", "lon": -76.95122483333333}, {"is_reserved": 0, "lat": 38.914896, "is_disabled": 0, "type": "electric_scooter", "fusion_lat": 0.0, "bike_id": "4860e7775624cfe9accc69aa27c25095", "rental_uris": {"ios": "https://dc.lft.to/lastmile_qr_scan", "android": "https://dc.lft.to/lastmile_qr_scan"}, "fusion_lon": 0.0, "name": "4860e7775624cfe9accc69aa27c25095", "lon": -77.031219}, {"is_reserved": 0, "lat": 38.910576166666665, "is_disabled": 0, "type": "electric_scooter", "fusion_lat": 0.0, "bike_id": "389cdfc8d1dc28a6b260ab962b780344", "rental_uris": {"ios": "https://dc.lft.to/lastmile_qr_scan", "android": "https://dc.lft.to/lastmile_qr_scan"}, "fusion_lon": 0.0, "name": "389cdfc8d1dc28a6b260ab962b780344", "lon": -77.04345883333333}, {"is_reserved": 0, "lat": 38.918164166666664, "is_disabled": 0, "type": "electric_scooter", "fusion_lat": 0.0, "bike_id": "e4bb92f4825b295d736f5eb28fbe7039", "rental_uris": {"ios": "https://dc.lft.to/lastmile_qr_scan", "android": "https://dc.lft.to/lastmile_qr_scan"}, "fusion_lon": 0.0, "name": "e4bb92f4825b295d736f5eb28fbe7039", "lon": -77.03823566666667}, {"is_reserved": 0, "lat": 38.9032955, "is_disabled": 0, "type": "electric_bike", "fusion_lat": 0.0, "bike_id": "cb8360e66450beb202393f1c93a8fd0a", "rental_uris": {"ios": "https://dc.lft.to/lastmile_qr_scan", "android": "https://dc.lft.to/lastmile_qr_scan"}, "fusion_lon": 0.0, "name": "cb8360e66450beb202393f1c93a8fd0a", "lon": -76.97594666666667}, {"is_reserved": 0, "lat": 38.904915833333334, "is_disabled": 0, "type": "electric_scooter", "fusion_lat": 0.0, "bike_id": "acf507649f6e0429347ecf13a23ce219", "rental_uris": {"ios": "https://dc.lft.to/lastmile_qr_scan", "android": "https://dc.lft.to/lastmile_qr_scan"}, "fusion_lon": 0.0, "name": "acf507649f6e0429347ecf13a23ce219", "lon": -76.94960183333333}, {"is_reserved": 0, "lat": 38.924143666666666, "is_disabled": 0, "type": "electric_scooter", "fusion_lat": 0.0, "bike_id": "58141ea4233dd6de7dcd2b456ab9e42c", "rental_uris": {"ios": "https://dc.lft.to/lastmile_qr_scan", "android": "https://dc.lft.to/lastmile_qr_scan"}, "fusion_lon": 0.0, "name": "58141ea4233dd6de7dcd2b456ab9e42c", "lon": -77.05061033333334}, {"is_reserved": 0, "lat": 38.91116233333333, "is_disabled": 0, "type": "electric_scooter", "fusion_lat": 0.0, "bike_id": "00a6585ede53ee0cca25fcf4ce04b031", "rental_uris": {"ios": "https://dc.lft.to/lastmile_qr_scan", "android": "https://dc.lft.to/lastmile_qr_scan"}, "fusion_lon": 0.0, "name": "00a6585ede53ee0cca25fcf4ce04b031", "lon": -77.04474283333333}, {"is_reserved": 0, "lat": 38.92365933333333, "is_disabled": 0, "type": "electric_scooter", "fusion_lat": 0.0, "bike_id": "897a09bc25523d7233cd420e7f198596", "rental_uris": {"ios": "https://dc.lft.to/lastmile_qr_scan", "android": "https://dc.lft.to/lastmile_qr_scan"}, "fusion_lon": 0.0, "name": "897a09bc25523d7233cd420e7f198596", "lon": -77.01817466666667}, {"is_reserved": 0, "lat": 38.90019, "is_disabled": 0, "type": "electric_scooter", "fusion_lat": 0.0, "bike_id": "313da9b6e9f4287464f40c5107b60795", "rental_uris": {"ios": "https://dc.lft.to/lastmile_qr_scan", "android": "https://dc.lft.to/lastmile_qr_scan"}, "fusion_lon": 0.0, "name": "313da9b6e9f4287464f40c5107b60795", "lon": -77.00679216666667}, {"is_reserved": 0, "lat": 38.9168485, "is_disabled": 0, "type": "electric_scooter", "fusion_lat": 0.0, "bike_id": "0b3935f2d422a9942195da2ebf59e3c8", "rental_uris": {"ios": "https://dc.lft.to/lastmile_qr_scan", "android": "https://dc.lft.to/lastmile_qr_scan"}, "fusion_lon": 0.0, "name": "0b3935f2d422a9942195da2ebf59e3c8", "lon": -77.02817116666667}, {"is_reserved": 0, "lat": 38.919853333333336, "is_disabled": 0, "type": "electric_scooter", "fusion_lat": 0.0, "bike_id": "5d104e2ec713bd91c4f7270d937146f2", "rental_uris": {"ios": "https://dc.lft.to/lastmile_qr_scan", "android": "https://dc.lft.to/lastmile_qr_scan"}, "fusion_lon": 0.0, "name": "5d104e2ec713bd91c4f7270d937146f2", "lon": -77.02170133333334}, {"is_reserved": 0, "lat": 38.898441166666665, "is_disabled": 0, "type": "electric_scooter", "fusion_lat": 0.0, "bike_id": "d3dfe26d5729b310568dd213d5cff939", "rental_uris": {"ios": "https://dc.lft.to/lastmile_qr_scan", "android": "https://dc.lft.to/lastmile_qr_scan"}, "fusion_lon": 0.0, "name": "d3dfe26d5729b310568dd213d5cff939", "lon": -77.02948533333333}, {"is_reserved": 0, "lat": 38.962014, "is_disabled": 0, "type": "electric_bike", "fusion_lat": 0.0, "bike_id": "5b6cfe40161b0e57c974e75fd86606d9", "rental_uris": {"ios": "https://dc.lft.to/lastmile_qr_scan", "android": "https://dc.lft.to/lastmile_qr_scan"}, "fusion_lon": 0.0, "name": "5b6cfe40161b0e57c974e75fd86606d9", "lon": -77.0351345}, {"is_reserved": 0, "lat": 38.88735466666667, "is_disabled": 0, "type": "electric_scooter", "fusion_lat": 0.0, "bike_id": "8de0942715e5fc3779abdc56a9bf51ac", "rental_uris": {"ios": "https://dc.lft.to/lastmile_qr_scan", "android": "https://dc.lft.to/lastmile_qr_scan"}, "fusion_lon": 0.0, "name": "8de0942715e5fc3779abdc56a9bf51ac", "lon": -77.01533233333333}, {"is_reserved": 0, "lat": 38.93411416666667, "is_disabled": 0, "type": "electric_scooter", "fusion_lat": 0.0, "bike_id": "62fd2a69ce86f0996383e58ba7d4c986", "rental_uris": {"ios": "https://dc.lft.to/lastmile_qr_scan", "android": "https://dc.lft.to/lastmile_qr_scan"}, "fusion_lon": 0.0, "name": "62fd2a69ce86f0996383e58ba7d4c986", "lon": -77.04546916666666}, {"is_reserved": 0, "lat": 38.91745916666667, "is_disabled": 0, "type": "electric_scooter", "fusion_lat": 0.0, "bike_id": "6a4f5cec3330dd07866794a01f6b3f0c", "rental_uris": {"ios": "https://dc.lft.to/lastmile_qr_scan", "android": "https://dc.lft.to/lastmile_qr_scan"}, "fusion_lon": 0.0, "name": "6a4f5cec3330dd07866794a01f6b3f0c", "lon": -77.02393783333333}, {"is_reserved": 0, "lat": 38.91394566666666, "is_disabled": 0, "type": "electric_scooter", "fusion_lat": 0.0, "bike_id": "8406854e9f0298ef3fd7e1fbd09d2795", "rental_uris": {"ios": "https://dc.lft.to/lastmile_qr_scan", "android": "https://dc.lft.to/lastmile_qr_scan"}, "fusion_lon": 0.0, "name": "8406854e9f0298ef3fd7e1fbd09d2795", "lon": -77.04560383333333}, {"is_reserved": 0, "lat": 38.93082, "is_disabled": 0, "type": "electric_scooter", "fusion_lat": 0.0, "bike_id": "4786673c4c9295d0892fcb065f06c5f9", "rental_uris": {"ios": "https://dc.lft.to/lastmile_qr_scan", "android": "https://dc.lft.to/lastmile_qr_scan"}, "fusion_lon": 0.0, "name": "4786673c4c9295d0892fcb065f06c5f9", "lon": -77.02806016666666}, {"is_reserved": 0, "lat": 38.9359965, "is_disabled": 0, "type": "electric_scooter", "fusion_lat": 0.0, "bike_id": "f1a4f1c8a1fc4ecc8f7ac284630701a0", "rental_uris": {"ios": "https://dc.lft.to/lastmile_qr_scan", "android": "https://dc.lft.to/lastmile_qr_scan"}, "fusion_lon": 0.0, "name": "f1a4f1c8a1fc4ecc8f7ac284630701a0", "lon": -77.05859166666667}, {"is_reserved": 0, "lat": 38.905512333333334, "is_disabled": 0, "type": "electric_scooter", "fusion_lat": 0.0, "bike_id": "1e8b952565b945afd0daaba82e4f4af8", "rental_uris": {"ios": "https://dc.lft.to/lastmile_qr_scan", "android": "https://dc.lft.to/lastmile_qr_scan"}, "fusion_lon": 0.0, "name": "1e8b952565b945afd0daaba82e4f4af8", "lon": -77.04178933333333}, {"is_reserved": 0, "lat": 38.898431, "is_disabled": 0, "type": "electric_scooter", "fusion_lat": 0.0, "bike_id": "481ad16176fb2aaf193b542e26b9a0d3", "rental_uris": {"ios": "https://dc.lft.to/lastmile_qr_scan", "android": "https://dc.lft.to/lastmile_qr_scan"}, "fusion_lon": 0.0, "name": "481ad16176fb2aaf193b542e26b9a0d3", "lon": -77.026788}, {"is_reserved": 0, "lat": 38.91652, "is_disabled": 0, "type": "electric_scooter", "fusion_lat": 0.0, "bike_id": "5677bc78a6ee96ecfbef47ba01da34fe", "rental_uris": {"ios": "https://dc.lft.to/lastmile_qr_scan", "android": "https://dc.lft.to/lastmile_qr_scan"}, "fusion_lon": 0.0, "name": "5677bc78a6ee96ecfbef47ba01da34fe", "lon": -77.04743366666666}, {"is_reserved": 0, "lat": 38.91404466666667, "is_disabled": 0, "type": "electric_scooter", "fusion_lat": 0.0, "bike_id": "c2012c588e12236b9b39ccc858745b45", "rental_uris": {"ios": "https://dc.lft.to/lastmile_qr_scan", "android": "https://dc.lft.to/lastmile_qr_scan"}, "fusion_lon": 0.0, "name": "c2012c588e12236b9b39ccc858745b45", "lon": -77.01299916666666}, {"is_reserved": 0, "lat": 38.918156333333336, "is_disabled": 0, "type": "electric_scooter", "fusion_lat": 0.0, "bike_id": "e53de7689af3385704397e5171555a00", "rental_uris": {"ios": "https://dc.lft.to/lastmile_qr_scan", "android": "https://dc.lft.to/lastmile_qr_scan"}, "fusion_lon": 0.0, "name": "e53de7689af3385704397e5171555a00", "lon": -77.03864583333333}, {"is_reserved": 0, "lat": 38.911923, "is_disabled": 0, "type": "electric_scooter", "fusion_lat": 0.0, "bike_id": "a870c9245f0c7b218985173a20049251", "rental_uris": {"ios": "https://dc.lft.to/lastmile_qr_scan", "android": "https://dc.lft.to/lastmile_qr_scan"}, "fusion_lon": 0.0, "name": "a870c9245f0c7b218985173a20049251", "lon": -77.00711266666667}, {"is_reserved": 0, "lat": 38.923343, "is_disabled": 0, "type": "electric_scooter", "fusion_lat": 0.0, "bike_id": "bb30af081e5b673df1cfbca0a7a0f08c", "rental_uris": {"ios": "https://dc.lft.to/lastmile_qr_scan", "android": "https://dc.lft.to/lastmile_qr_scan"}, "fusion_lon": 0.0, "name": "bb30af081e5b673df1cfbca0a7a0f08c", "lon": -77.05091316666666}, {"is_reserved": 0, "lat": 38.910523166666664, "is_disabled": 0, "type": "electric_scooter", "fusion_lat": 0.0, "bike_id": "c1a01d2cdbdd65a0be4a214dcb73d534", "rental_uris": {"ios": "https://dc.lft.to/lastmile_qr_scan", "android": "https://dc.lft.to/lastmile_qr_scan"}, "fusion_lon": 0.0, "name": "c1a01d2cdbdd65a0be4a214dcb73d534", "lon": -77.02181683333333}, {"is_reserved": 0, "lat": 38.90074366666666, "is_disabled": 0, "type": "electric_scooter", "fusion_lat": 0.0, "bike_id": "08662e6df6e930da675d100098e5c5cf", "rental_uris": {"ios": "https://dc.lft.to/lastmile_qr_scan", "android": "https://dc.lft.to/lastmile_qr_scan"}, "fusion_lon": 0.0, "name": "08662e6df6e930da675d100098e5c5cf", "lon": -77.035206}, {"is_reserved": 0, "lat": 38.9134625, "is_disabled": 0, "type": "electric_scooter", "fusion_lat": 0.0, "bike_id": "f3ff573f3541d6bb0062a9ebd89537c9", "rental_uris": {"ios": "https://dc.lft.to/lastmile_qr_scan", "android": "https://dc.lft.to/lastmile_qr_scan"}, "fusion_lon": 0.0, "name": "f3ff573f3541d6bb0062a9ebd89537c9", "lon": -77.03186066666666}, {"is_reserved": 0, "lat": 38.95275866666667, "is_disabled": 0, "type": "electric_scooter", "fusion_lat": 0.0, "bike_id": "081332fd4b66328e9aa73d4791c60932", "rental_uris": {"ios": "https://dc.lft.to/lastmile_qr_scan", "android": "https://dc.lft.to/lastmile_qr_scan"}, "fusion_lon": 0.0, "name": "081332fd4b66328e9aa73d4791c60932", "lon": -77.06858333333334}, {"is_reserved": 0, "lat": 38.8990485, "is_disabled": 0, "type": "electric_scooter", "fusion_lat": 0.0, "bike_id": "6759ed4bcc30cff5e793b3efdae3d663", "rental_uris": {"ios": "https://dc.lft.to/lastmile_qr_scan", "android": "https://dc.lft.to/lastmile_qr_scan"}, "fusion_lon": 0.0, "name": "6759ed4bcc30cff5e793b3efdae3d663", "lon": -76.93354933333333}, {"is_reserved": 0, "lat": 38.95424116666667, "is_disabled": 0, "type": "electric_scooter", "fusion_lat": 0.0, "bike_id": "533537059c997519879155198aca19cd", "rental_uris": {"ios": "https://dc.lft.to/lastmile_qr_scan", "android": "https://dc.lft.to/lastmile_qr_scan"}, "fusion_lon": 0.0, "name": "533537059c997519879155198aca19cd", "lon": -77.02766216666667}, {"is_reserved": 0, "lat": 38.89215766666667, "is_disabled": 0, "type": "electric_scooter", "fusion_lat": 0.0, "bike_id": "8ac931d94fcb3f219a9c18ddf6042821", "rental_uris": {"ios": "https://dc.lft.to/lastmile_qr_scan", "android": "https://dc.lft.to/lastmile_qr_scan"}, "fusion_lon": 0.0, "name": "8ac931d94fcb3f219a9c18ddf6042821", "lon": -77.02628166666666}, {"is_reserved": 0, "lat": 38.93013716666667, "is_disabled": 0, "type": "electric_scooter", "fusion_lat": 0.0, "bike_id": "344733a8fbe5fb5da1268c5cd72164af", "rental_uris": {"ios": "https://dc.lft.to/lastmile_qr_scan", "android": "https://dc.lft.to/lastmile_qr_scan"}, "fusion_lon": 0.0, "name": "344733a8fbe5fb5da1268c5cd72164af", "lon": -77.0444825}, {"is_reserved": 0, "lat": 38.895151166666665, "is_disabled": 0, "type": "electric_scooter", "fusion_lat": 0.0, "bike_id": "584b1d729de94b60ef5d471f805b5a9a", "rental_uris": {"ios": "https://dc.lft.to/lastmile_qr_scan", "android": "https://dc.lft.to/lastmile_qr_scan"}, "fusion_lon": 0.0, "name": "584b1d729de94b60ef5d471f805b5a9a", "lon": -76.977306}, {"is_reserved": 0, "lat": 38.87475216666667, "is_disabled": 0, "type": "electric_scooter", "fusion_lat": 0.0, "bike_id": "2b5c13f6083d4e69fb9524363f18f32c", "rental_uris": {"ios": "https://dc.lft.to/lastmile_qr_scan", "android": "https://dc.lft.to/lastmile_qr_scan"}, "fusion_lon": 0.0, "name": "2b5c13f6083d4e69fb9524363f18f32c", "lon": -77.00482566666666}, {"is_reserved": 0, "lat": 38.91812516666667, "is_disabled": 0, "type": "electric_scooter", "fusion_lat": 0.0, "bike_id": "a5d8516a0a63551e5c4d727316722123", "rental_uris": {"ios": "https://dc.lft.to/lastmile_qr_scan", "android": "https://dc.lft.to/lastmile_qr_scan"}, "fusion_lon": 0.0, "name": "a5d8516a0a63551e5c4d727316722123", "lon": -77.02477466666667}, {"is_reserved": 0, "lat": 38.920235, "is_disabled": 0, "type": "electric_scooter", "fusion_lat": 0.0, "bike_id": "a5eff3eaf93bd8383b79e86a0c41adfe", "rental_uris": {"ios": "https://dc.lft.to/lastmile_qr_scan", "android": "https://dc.lft.to/lastmile_qr_scan"}, "fusion_lon": 0.0, "name": "a5eff3eaf93bd8383b79e86a0c41adfe", "lon": -77.00091416666666}, {"is_reserved": 0, "lat": 38.876007333333334, "is_disabled": 0, "type": "electric_scooter", "fusion_lat": 0.0, "bike_id": "72c8b2bbb36b67e0acaab76baca444d3", "rental_uris": {"ios": "https://dc.lft.to/lastmile_qr_scan", "android": "https://dc.lft.to/lastmile_qr_scan"}, "fusion_lon": 0.0, "name": "72c8b2bbb36b67e0acaab76baca444d3", "lon": -77.0092845}, {"is_reserved": 0, "lat": 38.923291, "is_disabled": 0, "type": "electric_scooter", "fusion_lat": 0.0, "bike_id": "bae9457e0a5f862f1e0f63bef7cffee0", "rental_uris": {"ios": "https://dc.lft.to/lastmile_qr_scan", "android": "https://dc.lft.to/lastmile_qr_scan"}, "fusion_lon": 0.0, "name": "bae9457e0a5f862f1e0f63bef7cffee0", "lon": -77.04307333333334}, {"is_reserved": 0, "lat": 38.8960445, "is_disabled": 0, "type": "electric_scooter", "fusion_lat": 0.0, "bike_id": "a4d8075ffdcdc25d8d0e1d8d13c9f6b7", "rental_uris": {"ios": "https://dc.lft.to/lastmile_qr_scan", "android": "https://dc.lft.to/lastmile_qr_scan"}, "fusion_lon": 0.0, "name": "a4d8075ffdcdc25d8d0e1d8d13c9f6b7", "lon": -77.030262}, {"is_reserved": 0, "lat": 38.86499083333333, "is_disabled": 0, "type": "electric_scooter", "fusion_lat": 0.0, "bike_id": "11a176cc768de0fffc967571e3efb9a8", "rental_uris": {"ios": "https://dc.lft.to/lastmile_qr_scan", "android": "https://dc.lft.to/lastmile_qr_scan"}, "fusion_lon": 0.0, "name": "11a176cc768de0fffc967571e3efb9a8", "lon": -76.98989516666667}, {"is_reserved": 0, "lat": 38.892179, "is_disabled": 0, "type": "electric_scooter", "fusion_lat": 0.0, "bike_id": "90583916f0bd24e2aa12978475338800", "rental_uris": {"ios": "https://dc.lft.to/lastmile_qr_scan", "android": "https://dc.lft.to/lastmile_qr_scan"}, "fusion_lon": 0.0, "name": "90583916f0bd24e2aa12978475338800", "lon": -77.015427}, {"is_reserved": 0, "lat": 38.83219666666667, "is_disabled": 0, "type": "electric_bike", "fusion_lat": 0.0, "bike_id": "50b8dac30895977d66a5933eddca636c", "rental_uris": {"ios": "https://dc.lft.to/lastmile_qr_scan", "android": "https://dc.lft.to/lastmile_qr_scan"}, "fusion_lon": 0.0, "name": "50b8dac30895977d66a5933eddca636c", "lon": -77.04973333333334}, {"is_reserved": 0, "lat": 38.932514, "is_disabled": 0, "type": "electric_scooter", "fusion_lat": 0.0, "bike_id": "e25c57bd90be0a3e7ed16c640b5ab5ea", "rental_uris": {"ios": "https://dc.lft.to/lastmile_qr_scan", "android": "https://dc.lft.to/lastmile_qr_scan"}, "fusion_lon": 0.0, "name": "e25c57bd90be0a3e7ed16c640b5ab5ea", "lon": -77.03871683333334}, {"is_reserved": 0, "lat": 38.9149665, "is_disabled": 0, "type": "electric_scooter", "fusion_lat": 0.0, "bike_id": "440b555ed1368d1843a13d425a5bed49", "rental_uris": {"ios": "https://dc.lft.to/lastmile_qr_scan", "android": "https://dc.lft.to/lastmile_qr_scan"}, "fusion_lon": 0.0, "name": "440b555ed1368d1843a13d425a5bed49", "lon": -77.01858783333333}, {"is_reserved": 0, "lat": 38.862535, "is_disabled": 0, "type": "electric_scooter", "fusion_lat": 0.0, "bike_id": "ba3f365d136868b781383ae1ff94b018", "rental_uris": {"ios": "https://dc.lft.to/lastmile_qr_scan", "android": "https://dc.lft.to/lastmile_qr_scan"}, "fusion_lon": 0.0, "name": "ba3f365d136868b781383ae1ff94b018", "lon": -76.99516483333333}, {"is_reserved": 0, "lat": 38.92883283333333, "is_disabled": 0, "type": "electric_scooter", "fusion_lat": 0.0, "bike_id": "5d5d7ea2ee3630d4d7349b3fb6867dec", "rental_uris": {"ios": "https://dc.lft.to/lastmile_qr_scan", "android": "https://dc.lft.to/lastmile_qr_scan"}, "fusion_lon": 0.0, "name": "5d5d7ea2ee3630d4d7349b3fb6867dec", "lon": -77.03315583333334}, {"is_reserved": 0, "lat": 38.909673833333336, "is_disabled": 0, "type": "electric_scooter", "fusion_lat": 0.0, "bike_id": "0dbbe27545e7d5b3dd1588e5f8628678", "rental_uris": {"ios": "https://dc.lft.to/lastmile_qr_scan", "android": "https://dc.lft.to/lastmile_qr_scan"}, "fusion_lon": 0.0, "name": "0dbbe27545e7d5b3dd1588e5f8628678", "lon": -77.0321345}, {"is_reserved": 0, "lat": 38.9126565, "is_disabled": 0, "type": "electric_scooter", "fusion_lat": 0.0, "bike_id": "86b3e43a1f00c62aef0177d4b8538683", "rental_uris": {"ios": "https://dc.lft.to/lastmile_qr_scan", "android": "https://dc.lft.to/lastmile_qr_scan"}, "fusion_lon": 0.0, "name": "86b3e43a1f00c62aef0177d4b8538683", "lon": -77.0268625}, {"is_reserved": 0, "lat": 38.85358216666667, "is_disabled": 0, "type": "electric_bike", "fusion_lat": 0.0, "bike_id": "d1464a23f7576a81eafd0e5c4dd67d33", "rental_uris": {"ios": "https://dc.lft.to/lastmile_qr_scan", "android": "https://dc.lft.to/lastmile_qr_scan"}, "fusion_lon": 0.0, "name": "d1464a23f7576a81eafd0e5c4dd67d33", "lon": -77.13482683333334}, {"is_reserved": 0, "lat": 38.918079666666664, "is_disabled": 0, "type": "electric_scooter", "fusion_lat": 0.0, "bike_id": "63b8cc15773cabf554b1bd0fbed6628a", "rental_uris": {"ios": "https://dc.lft.to/lastmile_qr_scan", "android": "https://dc.lft.to/lastmile_qr_scan"}, "fusion_lon": 0.0, "name": "63b8cc15773cabf554b1bd0fbed6628a", "lon": -77.03450783333334}, {"is_reserved": 0, "lat": 38.93216783333333, "is_disabled": 0, "type": "electric_scooter", "fusion_lat": 0.0, "bike_id": "fffe1a6556ddc41c8d27e39fca44a134", "rental_uris": {"ios": "https://dc.lft.to/lastmile_qr_scan", "android": "https://dc.lft.to/lastmile_qr_scan"}, "fusion_lon": 0.0, "name": "fffe1a6556ddc41c8d27e39fca44a134", "lon": -77.03344566666667}, {"is_reserved": 0, "lat": 38.876562666666665, "is_disabled": 0, "type": "electric_scooter", "fusion_lat": 0.0, "bike_id": "2a26c7c5f734f258c0d27c1e515d530f", "rental_uris": {"ios": "https://dc.lft.to/lastmile_qr_scan", "android": "https://dc.lft.to/lastmile_qr_scan"}, "fusion_lon": 0.0, "name": "2a26c7c5f734f258c0d27c1e515d530f", "lon": -77.005598}, {"is_reserved": 0, "lat": 38.90019316666667, "is_disabled": 0, "type": "electric_scooter", "fusion_lat": 0.0, "bike_id": "426e2607d80233b8ea9a1169278a7970", "rental_uris": {"ios": "https://dc.lft.to/lastmile_qr_scan", "android": "https://dc.lft.to/lastmile_qr_scan"}, "fusion_lon": 0.0, "name": "426e2607d80233b8ea9a1169278a7970", "lon": -77.04368883333333}, {"is_reserved": 0, "lat": 38.88496833333333, "is_disabled": 0, "type": "electric_scooter", "fusion_lat": 0.0, "bike_id": "f3bc75d50613dc5335eda25a35be8589", "rental_uris": {"ios": "https://dc.lft.to/lastmile_qr_scan", "android": "https://dc.lft.to/lastmile_qr_scan"}, "fusion_lon": 0.0, "name": "f3bc75d50613dc5335eda25a35be8589", "lon": -77.0056245}, {"is_reserved": 0, "lat": 38.9175665, "is_disabled": 0, "type": "electric_scooter", "fusion_lat": 0.0, "bike_id": "7803bbff24f430b5c23fb8103a3a7c79", "rental_uris": {"ios": "https://dc.lft.to/lastmile_qr_scan", "android": "https://dc.lft.to/lastmile_qr_scan"}, "fusion_lon": 0.0, "name": "7803bbff24f430b5c23fb8103a3a7c79", "lon": -77.03988383333333}, {"is_reserved": 0, "lat": 38.90570483333333, "is_disabled": 0, "type": "electric_scooter", "fusion_lat": 0.0, "bike_id": "58a820eb550ef261c9842426a8e9c77b", "rental_uris": {"ios": "https://dc.lft.to/lastmile_qr_scan", "android": "https://dc.lft.to/lastmile_qr_scan"}, "fusion_lon": 0.0, "name": "58a820eb550ef261c9842426a8e9c77b", "lon": -77.00601183333333}, {"is_reserved": 0, "lat": 38.902485, "is_disabled": 0, "type": "electric_scooter", "fusion_lat": 0.0, "bike_id": "330f00856ab2d73b1abb139d5010d0c3", "rental_uris": {"ios": "https://dc.lft.to/lastmile_qr_scan", "android": "https://dc.lft.to/lastmile_qr_scan"}, "fusion_lon": 0.0, "name": "330f00856ab2d73b1abb139d5010d0c3", "lon": -76.98671566666667}, {"is_reserved": 0, "lat": 38.915527, "is_disabled": 0, "type": "electric_scooter", "fusion_lat": 0.0, "bike_id": "c38e11b208967c5f06fcbdd783db6f11", "rental_uris": {"ios": "https://dc.lft.to/lastmile_qr_scan", "android": "https://dc.lft.to/lastmile_qr_scan"}, "fusion_lon": 0.0, "name": "c38e11b208967c5f06fcbdd783db6f11", "lon": -77.031236}, {"is_reserved": 0, "lat": 38.9312515, "is_disabled": 0, "type": "electric_scooter", "fusion_lat": 0.0, "bike_id": "935047bdfe085a945b078358fcda5d1e", "rental_uris": {"ios": "https://dc.lft.to/lastmile_qr_scan", "android": "https://dc.lft.to/lastmile_qr_scan"}, "fusion_lon": 0.0, "name": "935047bdfe085a945b078358fcda5d1e", "lon": -77.034022}, {"is_reserved": 0, "lat": 38.877555666666666, "is_disabled": 0, "type": "electric_bike", "fusion_lat": 0.0, "bike_id": "2098c7791dbefd3c20f9c2dc3f103783", "rental_uris": {"ios": "https://dc.lft.to/lastmile_qr_scan", "android": "https://dc.lft.to/lastmile_qr_scan"}, "fusion_lon": 0.0, "name": "2098c7791dbefd3c20f9c2dc3f103783", "lon": -77.00754316666666}, {"is_reserved": 0, "lat": 38.897188166666666, "is_disabled": 0, "type": "electric_scooter", "fusion_lat": 0.0, "bike_id": "a3a13dd9256651827571e7ca1f3afba1", "rental_uris": {"ios": "https://dc.lft.to/lastmile_qr_scan", "android": "https://dc.lft.to/lastmile_qr_scan"}, "fusion_lon": 0.0, "name": "a3a13dd9256651827571e7ca1f3afba1", "lon": -77.007974}, {"is_reserved": 0, "lat": 38.89735683333333, "is_disabled": 0, "type": "electric_scooter", "fusion_lat": 0.0, "bike_id": "13c8fb7ded31925c34ed27df61570fea", "rental_uris": {"ios": "https://dc.lft.to/lastmile_qr_scan", "android": "https://dc.lft.to/lastmile_qr_scan"}, "fusion_lon": 0.0, "name": "13c8fb7ded31925c34ed27df61570fea", "lon": -77.03081166666666}, {"is_reserved": 0, "lat": 38.91217133333333, "is_disabled": 0, "type": "electric_scooter", "fusion_lat": 0.0, "bike_id": "87186fb60f24d871ff44ea5dcedef110", "rental_uris": {"ios": "https://dc.lft.to/lastmile_qr_scan", "android": "https://dc.lft.to/lastmile_qr_scan"}, "fusion_lon": 0.0, "name": "87186fb60f24d871ff44ea5dcedef110", "lon": -77.012088}, {"is_reserved": 0, "lat": 38.9301255, "is_disabled": 0, "type": "electric_scooter", "fusion_lat": 0.0, "bike_id": "8232982e7b408a5c98742f85dcc6add9", "rental_uris": {"ios": "https://dc.lft.to/lastmile_qr_scan", "android": "https://dc.lft.to/lastmile_qr_scan"}, "fusion_lon": 0.0, "name": "8232982e7b408a5c98742f85dcc6add9", "lon": -77.0553145}, {"is_reserved": 0, "lat": 38.919235666666665, "is_disabled": 0, "type": "electric_scooter", "fusion_lat": 0.0, "bike_id": "0ea08b85c9e7ed76101b8fd0b756782c", "rental_uris": {"ios": "https://dc.lft.to/lastmile_qr_scan", "android": "https://dc.lft.to/lastmile_qr_scan"}, "fusion_lon": 0.0, "name": "0ea08b85c9e7ed76101b8fd0b756782c", "lon": -77.04605783333334}, {"is_reserved": 0, "lat": 38.90360966666667, "is_disabled": 0, "type": "electric_scooter", "fusion_lat": 0.0, "bike_id": "65ba0c29e84975858b509d6c86537f2e", "rental_uris": {"ios": "https://dc.lft.to/lastmile_qr_scan", "android": "https://dc.lft.to/lastmile_qr_scan"}, "fusion_lon": 0.0, "name": "65ba0c29e84975858b509d6c86537f2e", "lon": -77.04341366666667}, {"is_reserved": 0, "lat": 38.901376666666664, "is_disabled": 0, "type": "electric_scooter", "fusion_lat": 0.0, "bike_id": "7b5cc8764b7a449a1e09525e321a9003", "rental_uris": {"ios": "https://dc.lft.to/lastmile_qr_scan", "android": "https://dc.lft.to/lastmile_qr_scan"}, "fusion_lon": 0.0, "name": "7b5cc8764b7a449a1e09525e321a9003", "lon": -77.04188383333333}, {"is_reserved": 0, "lat": 38.8772755, "is_disabled": 0, "type": "electric_bike", "fusion_lat": 0.0, "bike_id": "7fe68bb589c348d87b267a9027b23c06", "rental_uris": {"ios": "https://dc.lft.to/lastmile_qr_scan", "android": "https://dc.lft.to/lastmile_qr_scan"}, "fusion_lon": 0.0, "name": "7fe68bb589c348d87b267a9027b23c06", "lon": -76.98107766666666}, {"is_reserved": 0, "lat": 38.92230516666667, "is_disabled": 0, "type": "electric_scooter", "fusion_lat": 0.0, "bike_id": "b803682cc90044f9844ba8c12f0f8ff1", "rental_uris": {"ios": "https://dc.lft.to/lastmile_qr_scan", "android": "https://dc.lft.to/lastmile_qr_scan"}, "fusion_lon": 0.0, "name": "b803682cc90044f9844ba8c12f0f8ff1", "lon": -77.03889316666667}, {"is_reserved": 0, "lat": 38.89582866666667, "is_disabled": 0, "type": "electric_scooter", "fusion_lat": 0.0, "bike_id": "1243345b68a9d434dc7448ba849fa297", "rental_uris": {"ios": "https://dc.lft.to/lastmile_qr_scan", "android": "https://dc.lft.to/lastmile_qr_scan"}, "fusion_lon": 0.0, "name": "1243345b68a9d434dc7448ba849fa297", "lon": -77.03209166666667}, {"is_reserved": 0, "lat": 38.899811166666666, "is_disabled": 0, "type": "electric_scooter", "fusion_lat": 0.0, "bike_id": "e4db7481b2ddb45f20cb47421672d4ce", "rental_uris": {"ios": "https://dc.lft.to/lastmile_qr_scan", "android": "https://dc.lft.to/lastmile_qr_scan"}, "fusion_lon": 0.0, "name": "e4db7481b2ddb45f20cb47421672d4ce", "lon": -77.0300625}, {"is_reserved": 0, "lat": 38.91562733333333, "is_disabled": 0, "type": "electric_scooter", "fusion_lat": 0.0, "bike_id": "899136651e99a5a7773e60749a0b581d", "rental_uris": {"ios": "https://dc.lft.to/lastmile_qr_scan", "android": "https://dc.lft.to/lastmile_qr_scan"}, "fusion_lon": 0.0, "name": "899136651e99a5a7773e60749a0b581d", "lon": -77.027142}, {"is_reserved": 0, "lat": 38.922959666666664, "is_disabled": 0, "type": "electric_scooter", "fusion_lat": 0.0, "bike_id": "87d85cd0285f14089ebbdf8916067803", "rental_uris": {"ios": "https://dc.lft.to/lastmile_qr_scan", "android": "https://dc.lft.to/lastmile_qr_scan"}, "fusion_lon": 0.0, "name": "87d85cd0285f14089ebbdf8916067803", "lon": -77.04140883333334}, {"is_reserved": 0, "lat": 38.9170615, "is_disabled": 0, "type": "electric_scooter", "fusion_lat": 0.0, "bike_id": "e6f45409e2b812c42c7244073a087f8d", "rental_uris": {"ios": "https://dc.lft.to/lastmile_qr_scan", "android": "https://dc.lft.to/lastmile_qr_scan"}, "fusion_lon": 0.0, "name": "e6f45409e2b812c42c7244073a087f8d", "lon": -77.034608}, {"is_reserved": 0, "lat": 38.91481483333333, "is_disabled": 0, "type": "electric_scooter", "fusion_lat": 0.0, "bike_id": "9ac54582e8f0dddb58f4b0939f38f029", "rental_uris": {"ios": "https://dc.lft.to/lastmile_qr_scan", "android": "https://dc.lft.to/lastmile_qr_scan"}, "fusion_lon": 0.0, "name": "9ac54582e8f0dddb58f4b0939f38f029", "lon": -76.99349166666667}, {"is_reserved": 0, "lat": 38.949321833333336, "is_disabled": 0, "type": "electric_scooter", "fusion_lat": 0.0, "bike_id": "2dc4609b625b7fd67dc3e780a290bcfe", "rental_uris": {"ios": "https://dc.lft.to/lastmile_qr_scan", "android": "https://dc.lft.to/lastmile_qr_scan"}, "fusion_lon": 0.0, "name": "2dc4609b625b7fd67dc3e780a290bcfe", "lon": -77.01598833333334}, {"is_reserved": 0, "lat": 38.9495425, "is_disabled": 0, "type": "electric_scooter", "fusion_lat": 0.0, "bike_id": "b1e0d1f76c33b44e3db1ea01a7e4a110", "rental_uris": {"ios": "https://dc.lft.to/lastmile_qr_scan", "android": "https://dc.lft.to/lastmile_qr_scan"}, "fusion_lon": 0.0, "name": "b1e0d1f76c33b44e3db1ea01a7e4a110", "lon": -77.0272265}, {"is_reserved": 0, "lat": 38.91731566666667, "is_disabled": 0, "type": "electric_scooter", "fusion_lat": 0.0, "bike_id": "3fc3e9fd46eb22cd1599bd3d51fdd00f", "rental_uris": {"ios": "https://dc.lft.to/lastmile_qr_scan", "android": "https://dc.lft.to/lastmile_qr_scan"}, "fusion_lon": 0.0, "name": "3fc3e9fd46eb22cd1599bd3d51fdd00f", "lon": -77.03639866666667}, {"is_reserved": 0, "lat": 38.936071166666665, "is_disabled": 0, "type": "electric_scooter", "fusion_lat": 0.0, "bike_id": "32667dc95313433f2d507d12565d7c13", "rental_uris": {"ios": "https://dc.lft.to/lastmile_qr_scan", "android": "https://dc.lft.to/lastmile_qr_scan"}, "fusion_lon": 0.0, "name": "32667dc95313433f2d507d12565d7c13", "lon": -77.05860616666666}, {"is_reserved": 0, "lat": 38.903989833333334, "is_disabled": 0, "type": "electric_scooter", "fusion_lat": 0.0, "bike_id": "abd85cc1ad04737e442bb46cd0592b1f", "rental_uris": {"ios": "https://dc.lft.to/lastmile_qr_scan", "android": "https://dc.lft.to/lastmile_qr_scan"}, "fusion_lon": 0.0, "name": "abd85cc1ad04737e442bb46cd0592b1f", "lon": -77.034295}, {"is_reserved": 0, "lat": 38.92303733333333, "is_disabled": 0, "type": "electric_scooter", "fusion_lat": 0.0, "bike_id": "e986c4c3a570627ffef4dab481ddddcf", "rental_uris": {"ios": "https://dc.lft.to/lastmile_qr_scan", "android": "https://dc.lft.to/lastmile_qr_scan"}, "fusion_lon": 0.0, "name": "e986c4c3a570627ffef4dab481ddddcf", "lon": -77.04217066666666}, {"is_reserved": 0, "lat": 38.9045065, "is_disabled": 0, "type": "electric_scooter", "fusion_lat": 0.0, "bike_id": "6d3ba70d937f74f15718958ebed15fac", "rental_uris": {"ios": "https://dc.lft.to/lastmile_qr_scan", "android": "https://dc.lft.to/lastmile_qr_scan"}, "fusion_lon": 0.0, "name": "6d3ba70d937f74f15718958ebed15fac", "lon": -77.04154933333334}, {"is_reserved": 0, "lat": 38.8984605, "is_disabled": 0, "type": "electric_scooter", "fusion_lat": 0.0, "bike_id": "bd92b3f35443a7e78f8b4654748dfbcd", "rental_uris": {"ios": "https://dc.lft.to/lastmile_qr_scan", "android": "https://dc.lft.to/lastmile_qr_scan"}, "fusion_lon": 0.0, "name": "bd92b3f35443a7e78f8b4654748dfbcd", "lon": -77.02854833333333}, {"is_reserved": 0, "lat": 38.9225635, "is_disabled": 0, "type": "electric_scooter", "fusion_lat": 0.0, "bike_id": "cfef5b1dd44d843ef115085113ab89a5", "rental_uris": {"ios": "https://dc.lft.to/lastmile_qr_scan", "android": "https://dc.lft.to/lastmile_qr_scan"}, "fusion_lon": 0.0, "name": "cfef5b1dd44d843ef115085113ab89a5", "lon": -77.01951983333333}, {"is_reserved": 0, "lat": 38.954111166666664, "is_disabled": 0, "type": "electric_scooter", "fusion_lat": 0.0, "bike_id": "503a37a4b4a42268cc0c72ed5a7f371d", "rental_uris": {"ios": "https://dc.lft.to/lastmile_qr_scan", "android": "https://dc.lft.to/lastmile_qr_scan"}, "fusion_lon": 0.0, "name": "503a37a4b4a42268cc0c72ed5a7f371d", "lon": -77.02794383333334}, {"is_reserved": 0, "lat": 38.92342333333333, "is_disabled": 0, "type": "electric_scooter", "fusion_lat": 0.0, "bike_id": "b594d952a1a889f476534b04631ddea6", "rental_uris": {"ios": "https://dc.lft.to/lastmile_qr_scan", "android": "https://dc.lft.to/lastmile_qr_scan"}, "fusion_lon": 0.0, "name": "b594d952a1a889f476534b04631ddea6", "lon": -77.05122883333334}, {"is_reserved": 0, "lat": 38.91540666666667, "is_disabled": 0, "type": "electric_scooter", "fusion_lat": 0.0, "bike_id": "ba1e32f35965bb6b1f17e00e2d8bd112", "rental_uris": {"ios": "https://dc.lft.to/lastmile_qr_scan", "android": "https://dc.lft.to/lastmile_qr_scan"}, "fusion_lon": 0.0, "name": "ba1e32f35965bb6b1f17e00e2d8bd112", "lon": -77.02964916666667}, {"is_reserved": 0, "lat": 38.907959, "is_disabled": 0, "type": "electric_scooter", "fusion_lat": 0.0, "bike_id": "395ecd9bc13349cd6782bc0cb3677743", "rental_uris": {"ios": "https://dc.lft.to/lastmile_qr_scan", "android": "https://dc.lft.to/lastmile_qr_scan"}, "fusion_lon": 0.0, "name": "395ecd9bc13349cd6782bc0cb3677743", "lon": -77.00192116666666}, {"is_reserved": 0, "lat": 38.928376666666665, "is_disabled": 0, "type": "electric_scooter", "fusion_lat": 0.0, "bike_id": "b51e107a6965035028da8ce4861b5af3", "rental_uris": {"ios": "https://dc.lft.to/lastmile_qr_scan", "android": "https://dc.lft.to/lastmile_qr_scan"}, "fusion_lon": 0.0, "name": "b51e107a6965035028da8ce4861b5af3", "lon": -77.03381616666667}, {"is_reserved": 0, "lat": 38.8810465, "is_disabled": 0, "type": "electric_scooter", "fusion_lat": 0.0, "bike_id": "024f57375d06fb9420dbf371baaf9d9b", "rental_uris": {"ios": "https://dc.lft.to/lastmile_qr_scan", "android": "https://dc.lft.to/lastmile_qr_scan"}, "fusion_lon": 0.0, "name": "024f57375d06fb9420dbf371baaf9d9b", "lon": -77.01662966666666}, {"is_reserved": 0, "lat": 38.905064, "is_disabled": 0, "type": "electric_scooter", "fusion_lat": 0.0, "bike_id": "9753a3ab9c61a2a46558379e31d39b11", "rental_uris": {"ios": "https://dc.lft.to/lastmile_qr_scan", "android": "https://dc.lft.to/lastmile_qr_scan"}, "fusion_lon": 0.0, "name": "9753a3ab9c61a2a46558379e31d39b11", "lon": -77.0433785}, {"is_reserved": 0, "lat": 38.90024066666667, "is_disabled": 0, "type": "electric_scooter", "fusion_lat": 0.0, "bike_id": "ff842286e440b60eb5d8eeb186c118f3", "rental_uris": {"ios": "https://dc.lft.to/lastmile_qr_scan", "android": "https://dc.lft.to/lastmile_qr_scan"}, "fusion_lon": 0.0, "name": "ff842286e440b60eb5d8eeb186c118f3", "lon": -76.99993366666666}, {"is_reserved": 0, "lat": 38.88405566666667, "is_disabled": 0, "type": "electric_scooter", "fusion_lat": 0.0, "bike_id": "31674c93f2e7e8d61d72bb3db3ab47c1", "rental_uris": {"ios": "https://dc.lft.to/lastmile_qr_scan", "android": "https://dc.lft.to/lastmile_qr_scan"}, "fusion_lon": 0.0, "name": "31674c93f2e7e8d61d72bb3db3ab47c1", "lon": -77.02973383333334}, {"is_reserved": 0, "lat": 38.9279335, "is_disabled": 0, "type": "electric_scooter", "fusion_lat": 0.0, "bike_id": "2b01103dc20d8fb2e98e91156cf07b54", "rental_uris": {"ios": "https://dc.lft.to/lastmile_qr_scan", "android": "https://dc.lft.to/lastmile_qr_scan"}, "fusion_lon": 0.0, "name": "2b01103dc20d8fb2e98e91156cf07b54", "lon": -77.03577516666667}, {"is_reserved": 0, "lat": 38.893866, "is_disabled": 0, "type": "electric_scooter", "fusion_lat": 0.0, "bike_id": "6bb6650935a414e3db5359005f56bb32", "rental_uris": {"ios": "https://dc.lft.to/lastmile_qr_scan", "android": "https://dc.lft.to/lastmile_qr_scan"}, "fusion_lon": 0.0, "name": "6bb6650935a414e3db5359005f56bb32", "lon": -76.950166}, {"is_reserved": 0, "lat": 38.9174675, "is_disabled": 0, "type": "electric_scooter", "fusion_lat": 0.0, "bike_id": "e0721ebfadb68617fb3d116f6b17258e", "rental_uris": {"ios": "https://dc.lft.to/lastmile_qr_scan", "android": "https://dc.lft.to/lastmile_qr_scan"}, "fusion_lon": 0.0, "name": "e0721ebfadb68617fb3d116f6b17258e", "lon": -77.04149416666667}, {"is_reserved": 0, "lat": 38.91273916666667, "is_disabled": 0, "type": "electric_bike", "fusion_lat": 0.0, "bike_id": "9f81c6530461ca583d7ce3f5aac1bb6b", "rental_uris": {"ios": "https://dc.lft.to/lastmile_qr_scan", "android": "https://dc.lft.to/lastmile_qr_scan"}, "fusion_lon": 0.0, "name": "9f81c6530461ca583d7ce3f5aac1bb6b", "lon": -77.07824816666667}, {"is_reserved": 0, "lat": 38.9595105, "is_disabled": 0, "type": "electric_bike", "fusion_lat": 0.0, "bike_id": "0822311d402d4d4cb3ee5777b5218b87", "rental_uris": {"ios": "https://dc.lft.to/lastmile_qr_scan", "android": "https://dc.lft.to/lastmile_qr_scan"}, "fusion_lon": 0.0, "name": "0822311d402d4d4cb3ee5777b5218b87", "lon": -77.10089783333333}, {"is_reserved": 0, "lat": 38.9249345, "is_disabled": 0, "type": "electric_scooter", "fusion_lat": 0.0, "bike_id": "9f747f326a76893872113ecbf3a6f59e", "rental_uris": {"ios": "https://dc.lft.to/lastmile_qr_scan", "android": "https://dc.lft.to/lastmile_qr_scan"}, "fusion_lon": 0.0, "name": "9f747f326a76893872113ecbf3a6f59e", "lon": -77.03793116666667}, {"is_reserved": 0, "lat": 38.940855666666664, "is_disabled": 0, "type": "electric_scooter", "fusion_lat": 0.0, "bike_id": "0d2366ba1ae61d214e19aca445a20d7c", "rental_uris": {"ios": "https://dc.lft.to/lastmile_qr_scan", "android": "https://dc.lft.to/lastmile_qr_scan"}, "fusion_lon": 0.0, "name": "0d2366ba1ae61d214e19aca445a20d7c", "lon": -77.02722733333333}, {"is_reserved": 0, "lat": 38.9169325, "is_disabled": 0, "type": "electric_scooter", "fusion_lat": 0.0, "bike_id": "c00f6aa991a2bea2364f4b963195c095", "rental_uris": {"ios": "https://dc.lft.to/lastmile_qr_scan", "android": "https://dc.lft.to/lastmile_qr_scan"}, "fusion_lon": 0.0, "name": "c00f6aa991a2bea2364f4b963195c095", "lon": -77.037795}, {"is_reserved": 0, "lat": 38.92038933333333, "is_disabled": 0, "type": "electric_scooter", "fusion_lat": 0.0, "bike_id": "02bdefb6358b367cd9eee7170be58be3", "rental_uris": {"ios": "https://dc.lft.to/lastmile_qr_scan", "android": "https://dc.lft.to/lastmile_qr_scan"}, "fusion_lon": 0.0, "name": "02bdefb6358b367cd9eee7170be58be3", "lon": -77.03415166666667}, {"is_reserved": 0, "lat": 38.87704, "is_disabled": 0, "type": "electric_scooter", "fusion_lat": 0.0, "bike_id": "9ee6c82935ea95c0603e029b7c780dde", "rental_uris": {"ios": "https://dc.lft.to/lastmile_qr_scan", "android": "https://dc.lft.to/lastmile_qr_scan"}, "fusion_lon": 0.0, "name": "9ee6c82935ea95c0603e029b7c780dde", "lon": -77.017531}, {"is_reserved": 0, "lat": 38.900329, "is_disabled": 0, "type": "electric_scooter", "fusion_lat": 0.0, "bike_id": "6ba6b5ed319ab98775b36365ef50a476", "rental_uris": {"ios": "https://dc.lft.to/lastmile_qr_scan", "android": "https://dc.lft.to/lastmile_qr_scan"}, "fusion_lon": 0.0, "name": "6ba6b5ed319ab98775b36365ef50a476", "lon": -76.9882525}, {"is_reserved": 0, "lat": 38.9274305, "is_disabled": 0, "type": "electric_scooter", "fusion_lat": 0.0, "bike_id": "cbd29f2f78cf8c7c06797f913eab92b9", "rental_uris": {"ios": "https://dc.lft.to/lastmile_qr_scan", "android": "https://dc.lft.to/lastmile_qr_scan"}, "fusion_lon": 0.0, "name": "cbd29f2f78cf8c7c06797f913eab92b9", "lon": -77.02480816666667}, {"is_reserved": 0, "lat": 38.91640316666667, "is_disabled": 0, "type": "electric_scooter", "fusion_lat": 0.0, "bike_id": "02df23ac17e365a41eda636aa09d735d", "rental_uris": {"ios": "https://dc.lft.to/lastmile_qr_scan", "android": "https://dc.lft.to/lastmile_qr_scan"}, "fusion_lon": 0.0, "name": "02df23ac17e365a41eda636aa09d735d", "lon": -77.03291583333333}, {"is_reserved": 0, "lat": 38.911833, "is_disabled": 0, "type": "electric_scooter", "fusion_lat": 0.0, "bike_id": "7bbe079fa73159d4e168e15a1c2c1694", "rental_uris": {"ios": "https://dc.lft.to/lastmile_qr_scan", "android": "https://dc.lft.to/lastmile_qr_scan"}, "fusion_lon": 0.0, "name": "7bbe079fa73159d4e168e15a1c2c1694", "lon": -77.031616}, {"is_reserved": 0, "lat": 38.921509666666665, "is_disabled": 0, "type": "electric_scooter", "fusion_lat": 0.0, "bike_id": "82bbd7be952758b85faf9ddb32fe2ac9", "rental_uris": {"ios": "https://dc.lft.to/lastmile_qr_scan", "android": "https://dc.lft.to/lastmile_qr_scan"}, "fusion_lon": 0.0, "name": "82bbd7be952758b85faf9ddb32fe2ac9", "lon": -77.03504633333333}, {"is_reserved": 0, "lat": 38.86242566666667, "is_disabled": 0, "type": "electric_scooter", "fusion_lat": 0.0, "bike_id": "34e0ba487a9b1086075d9911689ed877", "rental_uris": {"ios": "https://dc.lft.to/lastmile_qr_scan", "android": "https://dc.lft.to/lastmile_qr_scan"}, "fusion_lon": 0.0, "name": "34e0ba487a9b1086075d9911689ed877", "lon": -76.99485366666667}, {"is_reserved": 0, "lat": 38.8963795, "is_disabled": 0, "type": "electric_scooter", "fusion_lat": 0.0, "bike_id": "9a60d827abb14c48086a4f0c60c69130", "rental_uris": {"ios": "https://dc.lft.to/lastmile_qr_scan", "android": "https://dc.lft.to/lastmile_qr_scan"}, "fusion_lon": 0.0, "name": "9a60d827abb14c48086a4f0c60c69130", "lon": -77.02675266666667}, {"is_reserved": 0, "lat": 38.945517333333335, "is_disabled": 0, "type": "electric_bike", "fusion_lat": 0.0, "bike_id": "6b47f93a2433852142a86982ea2c2baa", "rental_uris": {"ios": "https://dc.lft.to/lastmile_qr_scan", "android": "https://dc.lft.to/lastmile_qr_scan"}, "fusion_lon": 0.0, "name": "6b47f93a2433852142a86982ea2c2baa", "lon": -76.8953645}, {"is_reserved": 0, "lat": 38.881000666666665, "is_disabled": 0, "type": "electric_scooter", "fusion_lat": 0.0, "bike_id": "29e636ff3d1e112919f3d6b9e23c8713", "rental_uris": {"ios": "https://dc.lft.to/lastmile_qr_scan", "android": "https://dc.lft.to/lastmile_qr_scan"}, "fusion_lon": 0.0, "name": "29e636ff3d1e112919f3d6b9e23c8713", "lon": -77.01666683333333}, {"is_reserved": 0, "lat": 38.89059066666667, "is_disabled": 0, "type": "electric_scooter", "fusion_lat": 0.0, "bike_id": "4eb8ed73c68024d48e34bbba1ef66911", "rental_uris": {"ios": "https://dc.lft.to/lastmile_qr_scan", "android": "https://dc.lft.to/lastmile_qr_scan"}, "fusion_lon": 0.0, "name": "4eb8ed73c68024d48e34bbba1ef66911", "lon": -77.02291216666667}, {"is_reserved": 0, "lat": 38.886009333333334, "is_disabled": 0, "type": "electric_scooter", "fusion_lat": 0.0, "bike_id": "3a96e6f789e2fe7421010c781226766b", "rental_uris": {"ios": "https://dc.lft.to/lastmile_qr_scan", "android": "https://dc.lft.to/lastmile_qr_scan"}, "fusion_lon": 0.0, "name": "3a96e6f789e2fe7421010c781226766b", "lon": -77.03057616666666}, {"is_reserved": 0, "lat": 38.898429666666665, "is_disabled": 0, "type": "electric_scooter", "fusion_lat": 0.0, "bike_id": "1eaf7fee76f0afbee16aa666f41d218c", "rental_uris": {"ios": "https://dc.lft.to/lastmile_qr_scan", "android": "https://dc.lft.to/lastmile_qr_scan"}, "fusion_lon": 0.0, "name": "1eaf7fee76f0afbee16aa666f41d218c", "lon": -77.02685116666666}, {"is_reserved": 0, "lat": 38.944477166666665, "is_disabled": 0, "type": "electric_scooter", "fusion_lat": 0.0, "bike_id": "7295d1600af1f71bc9cdec5cc8825e8d", "rental_uris": {"ios": "https://dc.lft.to/lastmile_qr_scan", "android": "https://dc.lft.to/lastmile_qr_scan"}, "fusion_lon": 0.0, "name": "7295d1600af1f71bc9cdec5cc8825e8d", "lon": -77.0634975}, {"is_reserved": 0, "lat": 38.9111305, "is_disabled": 0, "type": "electric_scooter", "fusion_lat": 0.0, "bike_id": "d680437fccf4ff05b5081b61774c707e", "rental_uris": {"ios": "https://dc.lft.to/lastmile_qr_scan", "android": "https://dc.lft.to/lastmile_qr_scan"}, "fusion_lon": 0.0, "name": "d680437fccf4ff05b5081b61774c707e", "lon": -77.04465616666667}, {"is_reserved": 0, "lat": 38.9025335, "is_disabled": 0, "type": "electric_scooter", "fusion_lat": 0.0, "bike_id": "212cd7a6e0c682097fc224abf36f915d", "rental_uris": {"ios": "https://dc.lft.to/lastmile_qr_scan", "android": "https://dc.lft.to/lastmile_qr_scan"}, "fusion_lon": 0.0, "name": "212cd7a6e0c682097fc224abf36f915d", "lon": -77.04518083333333}, {"is_reserved": 0, "lat": 38.94088833333333, "is_disabled": 0, "type": "electric_scooter", "fusion_lat": 0.0, "bike_id": "5ed2373da1a3abd248e019d9d4ae122e", "rental_uris": {"ios": "https://dc.lft.to/lastmile_qr_scan", "android": "https://dc.lft.to/lastmile_qr_scan"}, "fusion_lon": 0.0, "name": "5ed2373da1a3abd248e019d9d4ae122e", "lon": -77.027258}, {"is_reserved": 0, "lat": 38.902355666666665, "is_disabled": 0, "type": "electric_scooter", "fusion_lat": 0.0, "bike_id": "d506cd7aacae348a7a290687bbbd0a8d", "rental_uris": {"ios": "https://dc.lft.to/lastmile_qr_scan", "android": "https://dc.lft.to/lastmile_qr_scan"}, "fusion_lon": 0.0, "name": "d506cd7aacae348a7a290687bbbd0a8d", "lon": -77.0185485}, {"is_reserved": 0, "lat": 38.923472833333335, "is_disabled": 0, "type": "electric_scooter", "fusion_lat": 0.0, "bike_id": "0e089ecab1b4c66d988c47fedaf19bde", "rental_uris": {"ios": "https://dc.lft.to/lastmile_qr_scan", "android": "https://dc.lft.to/lastmile_qr_scan"}, "fusion_lon": 0.0, "name": "0e089ecab1b4c66d988c47fedaf19bde", "lon": -77.032913}, {"is_reserved": 0, "lat": 38.93968916666667, "is_disabled": 0, "type": "electric_scooter", "fusion_lat": 0.0, "bike_id": "d73099d5b394b23eb5742f96ce393b26", "rental_uris": {"ios": "https://dc.lft.to/lastmile_qr_scan", "android": "https://dc.lft.to/lastmile_qr_scan"}, "fusion_lon": 0.0, "name": "d73099d5b394b23eb5742f96ce393b26", "lon": -77.0325695}, {"is_reserved": 0, "lat": 38.90014133333333, "is_disabled": 0, "type": "electric_scooter", "fusion_lat": 0.0, "bike_id": "4f8559ee404dd99b4c5805e136f1af84", "rental_uris": {"ios": "https://dc.lft.to/lastmile_qr_scan", "android": "https://dc.lft.to/lastmile_qr_scan"}, "fusion_lon": 0.0, "name": "4f8559ee404dd99b4c5805e136f1af84", "lon": -77.03361916666667}, {"is_reserved": 0, "lat": 38.90289666666666, "is_disabled": 0, "type": "electric_scooter", "fusion_lat": 0.0, "bike_id": "cf7cc6836a0ddd91f105c3331b23b236", "rental_uris": {"ios": "https://dc.lft.to/lastmile_qr_scan", "android": "https://dc.lft.to/lastmile_qr_scan"}, "fusion_lon": 0.0, "name": "cf7cc6836a0ddd91f105c3331b23b236", "lon": -77.038457}, {"is_reserved": 0, "lat": 38.8935215, "is_disabled": 0, "type": "electric_scooter", "fusion_lat": 0.0, "bike_id": "acc6417cc634042ecad4bb573c124f2f", "rental_uris": {"ios": "https://dc.lft.to/lastmile_qr_scan", "android": "https://dc.lft.to/lastmile_qr_scan"}, "fusion_lon": 0.0, "name": "acc6417cc634042ecad4bb573c124f2f", "lon": -77.04148383333333}, {"is_reserved": 0, "lat": 38.91936316666666, "is_disabled": 0, "type": "electric_scooter", "fusion_lat": 0.0, "bike_id": "482d5238ccc2257f1903eaf78a67f71f", "rental_uris": {"ios": "https://dc.lft.to/lastmile_qr_scan", "android": "https://dc.lft.to/lastmile_qr_scan"}, "fusion_lon": 0.0, "name": "482d5238ccc2257f1903eaf78a67f71f", "lon": -77.04632766666667}, {"is_reserved": 0, "lat": 38.9165365, "is_disabled": 0, "type": "electric_scooter", "fusion_lat": 0.0, "bike_id": "224816015e47ee50b96ad2752655cb9a", "rental_uris": {"ios": "https://dc.lft.to/lastmile_qr_scan", "android": "https://dc.lft.to/lastmile_qr_scan"}, "fusion_lon": 0.0, "name": "224816015e47ee50b96ad2752655cb9a", "lon": -77.038519}, {"is_reserved": 0, "lat": 38.88485583333333, "is_disabled": 0, "type": "electric_scooter", "fusion_lat": 0.0, "bike_id": "dc01de2b6783ebb181dd56efbce143fa", "rental_uris": {"ios": "https://dc.lft.to/lastmile_qr_scan", "android": "https://dc.lft.to/lastmile_qr_scan"}, "fusion_lon": 0.0, "name": "dc01de2b6783ebb181dd56efbce143fa", "lon": -77.00724016666666}, {"is_reserved": 0, "lat": 38.897585166666666, "is_disabled": 0, "type": "electric_scooter", "fusion_lat": 0.0, "bike_id": "63e836a6b34706bc3e5da2d87721a739", "rental_uris": {"ios": "https://dc.lft.to/lastmile_qr_scan", "android": "https://dc.lft.to/lastmile_qr_scan"}, "fusion_lon": 0.0, "name": "63e836a6b34706bc3e5da2d87721a739", "lon": -77.02928883333334}, {"is_reserved": 0, "lat": 38.924718, "is_disabled": 0, "type": "electric_scooter", "fusion_lat": 0.0, "bike_id": "8bf16c17675463d96d8f9173e3b4da84", "rental_uris": {"ios": "https://dc.lft.to/lastmile_qr_scan", "android": "https://dc.lft.to/lastmile_qr_scan"}, "fusion_lon": 0.0, "name": "8bf16c17675463d96d8f9173e3b4da84", "lon": -77.03902066666667}, {"is_reserved": 0, "lat": 38.88961066666667, "is_disabled": 0, "type": "electric_scooter", "fusion_lat": 0.0, "bike_id": "8026773562e37a5749cc9440d5379d17", "rental_uris": {"ios": "https://dc.lft.to/lastmile_qr_scan", "android": "https://dc.lft.to/lastmile_qr_scan"}, "fusion_lon": 0.0, "name": "8026773562e37a5749cc9440d5379d17", "lon": -76.92736033333334}, {"is_reserved": 0, "lat": 38.86663566666667, "is_disabled": 0, "type": "electric_scooter", "fusion_lat": 0.0, "bike_id": "2741319e5e887bce50492efd083c0f56", "rental_uris": {"ios": "https://dc.lft.to/lastmile_qr_scan", "android": "https://dc.lft.to/lastmile_qr_scan"}, "fusion_lon": 0.0, "name": "2741319e5e887bce50492efd083c0f56", "lon": -76.98498433333333}, {"is_reserved": 0, "lat": 38.885815666666666, "is_disabled": 0, "type": "electric_scooter", "fusion_lat": 0.0, "bike_id": "dabc124a7dc0cac1d8d5ef1f94e4a5ba", "rental_uris": {"ios": "https://dc.lft.to/lastmile_qr_scan", "android": "https://dc.lft.to/lastmile_qr_scan"}, "fusion_lon": 0.0, "name": "dabc124a7dc0cac1d8d5ef1f94e4a5ba", "lon": -77.01765566666667}, {"is_reserved": 0, "lat": 38.928876, "is_disabled": 0, "type": "electric_scooter", "fusion_lat": 0.0, "bike_id": "4072d4d01e025f1294ab5c38cc827d0b", "rental_uris": {"ios": "https://dc.lft.to/lastmile_qr_scan", "android": "https://dc.lft.to/lastmile_qr_scan"}, "fusion_lon": 0.0, "name": "4072d4d01e025f1294ab5c38cc827d0b", "lon": -77.02330483333333}, {"is_reserved": 0, "lat": 38.922067, "is_disabled": 0, "type": "electric_bike", "fusion_lat": 0.0, "bike_id": "baac2fd64b3070578d8f1db3b97facd5", "rental_uris": {"ios": "https://dc.lft.to/lastmile_qr_scan", "android": "https://dc.lft.to/lastmile_qr_scan"}, "fusion_lon": 0.0, "name": "baac2fd64b3070578d8f1db3b97facd5", "lon": -76.9880105}, {"is_reserved": 0, "lat": 38.906663333333334, "is_disabled": 0, "type": "electric_scooter", "fusion_lat": 0.0, "bike_id": "7b9fe6f41273c694d3c2de48c963314c", "rental_uris": {"ios": "https://dc.lft.to/lastmile_qr_scan", "android": "https://dc.lft.to/lastmile_qr_scan"}, "fusion_lon": 0.0, "name": "7b9fe6f41273c694d3c2de48c963314c", "lon": -77.00897866666666}, {"is_reserved": 0, "lat": 38.89876783333333, "is_disabled": 0, "type": "electric_scooter", "fusion_lat": 0.0, "bike_id": "b5dac1e38f6d2c8e0b8d6e4b835e5691", "rental_uris": {"ios": "https://dc.lft.to/lastmile_qr_scan", "android": "https://dc.lft.to/lastmile_qr_scan"}, "fusion_lon": 0.0, "name": "b5dac1e38f6d2c8e0b8d6e4b835e5691", "lon": -76.93160833333333}, {"is_reserved": 0, "lat": 38.94702866666667, "is_disabled": 0, "type": "electric_scooter", "fusion_lat": 0.0, "bike_id": "c48ccf4ee83fae83a8de394e791de910", "rental_uris": {"ios": "https://dc.lft.to/lastmile_qr_scan", "android": "https://dc.lft.to/lastmile_qr_scan"}, "fusion_lon": 0.0, "name": "c48ccf4ee83fae83a8de394e791de910", "lon": -77.01947433333333}, {"is_reserved": 0, "lat": 39.0388965, "is_disabled": 0, "type": "electric_bike", "fusion_lat": 0.0, "bike_id": "ed147b8d3ac259293d89ff4f1c0ce442", "rental_uris": {"ios": "https://dc.lft.to/lastmile_qr_scan", "android": "https://dc.lft.to/lastmile_qr_scan"}, "fusion_lon": 0.0, "name": "ed147b8d3ac259293d89ff4f1c0ce442", "lon": -77.050125}, {"is_reserved": 0, "lat": 38.874733666666664, "is_disabled": 0, "type": "electric_scooter", "fusion_lat": 0.0, "bike_id": "c1fc9a9d43b3bce47f68d641a74e21c2", "rental_uris": {"ios": "https://dc.lft.to/lastmile_qr_scan", "android": "https://dc.lft.to/lastmile_qr_scan"}, "fusion_lon": 0.0, "name": "c1fc9a9d43b3bce47f68d641a74e21c2", "lon": -77.00481333333333}, {"is_reserved": 0, "lat": 38.80573616666667, "is_disabled": 0, "type": "electric_bike", "fusion_lat": 0.0, "bike_id": "9c73be2630d03b9d98df655c294e012d", "rental_uris": {"ios": "https://dc.lft.to/lastmile_qr_scan", "android": "https://dc.lft.to/lastmile_qr_scan"}, "fusion_lon": 0.0, "name": "9c73be2630d03b9d98df655c294e012d", "lon": -77.06863083333333}, {"is_reserved": 0, "lat": 38.91017316666667, "is_disabled": 0, "type": "electric_scooter", "fusion_lat": 0.0, "bike_id": "e258fd6ab2b7434e4e736380f0eead05", "rental_uris": {"ios": "https://dc.lft.to/lastmile_qr_scan", "android": "https://dc.lft.to/lastmile_qr_scan"}, "fusion_lon": 0.0, "name": "e258fd6ab2b7434e4e736380f0eead05", "lon": -77.02287}, {"is_reserved": 0, "lat": 38.909602666666665, "is_disabled": 0, "type": "electric_scooter", "fusion_lat": 0.0, "bike_id": "95bdb7f9a36fff6ce7563ca29a090aa5", "rental_uris": {"ios": "https://dc.lft.to/lastmile_qr_scan", "android": "https://dc.lft.to/lastmile_qr_scan"}, "fusion_lon": 0.0, "name": "95bdb7f9a36fff6ce7563ca29a090aa5", "lon": -77.02279616666667}, {"is_reserved": 0, "lat": 38.903080333333335, "is_disabled": 0, "type": "electric_scooter", "fusion_lat": 0.0, "bike_id": "648ca0377054b187a71d8d558226a197", "rental_uris": {"ios": "https://dc.lft.to/lastmile_qr_scan", "android": "https://dc.lft.to/lastmile_qr_scan"}, "fusion_lon": 0.0, "name": "648ca0377054b187a71d8d558226a197", "lon": -77.04031833333333}, {"is_reserved": 0, "lat": 38.899646, "is_disabled": 0, "type": "electric_scooter", "fusion_lat": 0.0, "bike_id": "f8f33388da10cb2864fcf4b834060c96", "rental_uris": {"ios": "https://dc.lft.to/lastmile_qr_scan", "android": "https://dc.lft.to/lastmile_qr_scan"}, "fusion_lon": 0.0, "name": "f8f33388da10cb2864fcf4b834060c96", "lon": -76.939687}, {"is_reserved": 0, "lat": 38.893507, "is_disabled": 0, "type": "electric_scooter", "fusion_lat": 0.0, "bike_id": "a53a1f8c8c3c44e2fd80c58ffd50fbbf", "rental_uris": {"ios": "https://dc.lft.to/lastmile_qr_scan", "android": "https://dc.lft.to/lastmile_qr_scan"}, "fusion_lon": 0.0, "name": "a53a1f8c8c3c44e2fd80c58ffd50fbbf", "lon": -77.04141833333334}, {"is_reserved": 0, "lat": 38.916735833333334, "is_disabled": 0, "type": "electric_scooter", "fusion_lat": 0.0, "bike_id": "1c4959ebaa0759643689737025b8cd1f", "rental_uris": {"ios": "https://dc.lft.to/lastmile_qr_scan", "android": "https://dc.lft.to/lastmile_qr_scan"}, "fusion_lon": 0.0, "name": "1c4959ebaa0759643689737025b8cd1f", "lon": -77.03688516666666}, {"is_reserved": 0, "lat": 38.9003295, "is_disabled": 0, "type": "electric_scooter", "fusion_lat": 0.0, "bike_id": "8ce7fecba2cf4bcc6cfa68f79005e268", "rental_uris": {"ios": "https://dc.lft.to/lastmile_qr_scan", "android": "https://dc.lft.to/lastmile_qr_scan"}, "fusion_lon": 0.0, "name": "8ce7fecba2cf4bcc6cfa68f79005e268", "lon": -77.0290035}, {"is_reserved": 0, "lat": 38.9026965, "is_disabled": 0, "type": "electric_scooter", "fusion_lat": 0.0, "bike_id": "04816c482c2f6ce166f7a26f4e62b9de", "rental_uris": {"ios": "https://dc.lft.to/lastmile_qr_scan", "android": "https://dc.lft.to/lastmile_qr_scan"}, "fusion_lon": 0.0, "name": "04816c482c2f6ce166f7a26f4e62b9de", "lon": -77.0306335}, {"is_reserved": 0, "lat": 38.917216, "is_disabled": 0, "type": "electric_scooter", "fusion_lat": 0.0, "bike_id": "ab40cc8c6eb32addae69d5901ce44c01", "rental_uris": {"ios": "https://dc.lft.to/lastmile_qr_scan", "android": "https://dc.lft.to/lastmile_qr_scan"}, "fusion_lon": 0.0, "name": "ab40cc8c6eb32addae69d5901ce44c01", "lon": -77.02971633333334}, {"is_reserved": 0, "lat": 38.920243166666666, "is_disabled": 0, "type": "electric_scooter", "fusion_lat": 0.0, "bike_id": "6f6c3749ca1fae3bcd6993c0ae6e2708", "rental_uris": {"ios": "https://dc.lft.to/lastmile_qr_scan", "android": "https://dc.lft.to/lastmile_qr_scan"}, "fusion_lon": 0.0, "name": "6f6c3749ca1fae3bcd6993c0ae6e2708", "lon": -77.0308055}, {"is_reserved": 0, "lat": 38.91041716666667, "is_disabled": 0, "type": "electric_scooter", "fusion_lat": 0.0, "bike_id": "e73c141623c96c4706f4500989ddf9ca", "rental_uris": {"ios": "https://dc.lft.to/lastmile_qr_scan", "android": "https://dc.lft.to/lastmile_qr_scan"}, "fusion_lon": 0.0, "name": "e73c141623c96c4706f4500989ddf9ca", "lon": -77.048099}, {"is_reserved": 0, "lat": 38.92341066666667, "is_disabled": 0, "type": "electric_scooter", "fusion_lat": 0.0, "bike_id": "66b68d4436d36411698681eebffd19d6", "rental_uris": {"ios": "https://dc.lft.to/lastmile_qr_scan", "android": "https://dc.lft.to/lastmile_qr_scan"}, "fusion_lon": 0.0, "name": "66b68d4436d36411698681eebffd19d6", "lon": -77.05121566666666}, {"is_reserved": 0, "lat": 38.84428966666667, "is_disabled": 0, "type": "electric_scooter", "fusion_lat": 0.0, "bike_id": "adbb7c17c55a124e2d7294c2a178c425", "rental_uris": {"ios": "https://dc.lft.to/lastmile_qr_scan", "android": "https://dc.lft.to/lastmile_qr_scan"}, "fusion_lon": 0.0, "name": "adbb7c17c55a124e2d7294c2a178c425", "lon": -76.99708983333333}, {"is_reserved": 0, "lat": 38.893459, "is_disabled": 0, "type": "electric_scooter", "fusion_lat": 0.0, "bike_id": "68b54cc63461fcf2a09b9d7332916e99", "rental_uris": {"ios": "https://dc.lft.to/lastmile_qr_scan", "android": "https://dc.lft.to/lastmile_qr_scan"}, "fusion_lon": 0.0, "name": "68b54cc63461fcf2a09b9d7332916e99", "lon": -77.00331166666666}, {"is_reserved": 0, "lat": 38.91122416666666, "is_disabled": 0, "type": "electric_scooter", "fusion_lat": 0.0, "bike_id": "44426602562cedaeb9cabc74931630dd", "rental_uris": {"ios": "https://dc.lft.to/lastmile_qr_scan", "android": "https://dc.lft.to/lastmile_qr_scan"}, "fusion_lon": 0.0, "name": "44426602562cedaeb9cabc74931630dd", "lon": -77.02694033333333}, {"is_reserved": 0, "lat": 38.90338933333334, "is_disabled": 0, "type": "electric_scooter", "fusion_lat": 0.0, "bike_id": "82596f50b0b4911f611b057ac5abc7a5", "rental_uris": {"ios": "https://dc.lft.to/lastmile_qr_scan", "android": "https://dc.lft.to/lastmile_qr_scan"}, "fusion_lon": 0.0, "name": "82596f50b0b4911f611b057ac5abc7a5", "lon": -77.0433105}, {"is_reserved": 0, "lat": 38.9181135, "is_disabled": 0, "type": "electric_scooter", "fusion_lat": 0.0, "bike_id": "ded84820439f5d2526351314b5a1f4cf", "rental_uris": {"ios": "https://dc.lft.to/lastmile_qr_scan", "android": "https://dc.lft.to/lastmile_qr_scan"}, "fusion_lon": 0.0, "name": "ded84820439f5d2526351314b5a1f4cf", "lon": -77.0247795}, {"is_reserved": 0, "lat": 38.90834866666667, "is_disabled": 0, "type": "electric_scooter", "fusion_lat": 0.0, "bike_id": "19cbc6bbd2ecdb6c1be2f6a0fdded428", "rental_uris": {"ios": "https://dc.lft.to/lastmile_qr_scan", "android": "https://dc.lft.to/lastmile_qr_scan"}, "fusion_lon": 0.0, "name": "19cbc6bbd2ecdb6c1be2f6a0fdded428", "lon": -77.0355905}, {"is_reserved": 0, "lat": 38.8754245, "is_disabled": 0, "type": "electric_scooter", "fusion_lat": 0.0, "bike_id": "14b0d834623bdd3ff5c2806a0b7231ef", "rental_uris": {"ios": "https://dc.lft.to/lastmile_qr_scan", "android": "https://dc.lft.to/lastmile_qr_scan"}, "fusion_lon": 0.0, "name": "14b0d834623bdd3ff5c2806a0b7231ef", "lon": -77.00539033333334}, {"is_reserved": 0, "lat": 38.92514583333333, "is_disabled": 0, "type": "electric_scooter", "fusion_lat": 0.0, "bike_id": "197c8f1b2ebcb0808fd02f15265a6656", "rental_uris": {"ios": "https://dc.lft.to/lastmile_qr_scan", "android": "https://dc.lft.to/lastmile_qr_scan"}, "fusion_lon": 0.0, "name": "197c8f1b2ebcb0808fd02f15265a6656", "lon": -77.0236375}, {"is_reserved": 0, "lat": 38.890079666666665, "is_disabled": 0, "type": "electric_scooter", "fusion_lat": 0.0, "bike_id": "8a12a70677df113cf2ad26bb0f5e0008", "rental_uris": {"ios": "https://dc.lft.to/lastmile_qr_scan", "android": "https://dc.lft.to/lastmile_qr_scan"}, "fusion_lon": 0.0, "name": "8a12a70677df113cf2ad26bb0f5e0008", "lon": -76.93737116666667}, {"is_reserved": 0, "lat": 38.885015833333334, "is_disabled": 0, "type": "electric_scooter", "fusion_lat": 0.0, "bike_id": "70bbab7fce5c397df241820cbb17a7b4", "rental_uris": {"ios": "https://dc.lft.to/lastmile_qr_scan", "android": "https://dc.lft.to/lastmile_qr_scan"}, "fusion_lon": 0.0, "name": "70bbab7fce5c397df241820cbb17a7b4", "lon": -77.005684}, {"is_reserved": 0, "lat": 38.9078025, "is_disabled": 0, "type": "electric_scooter", "fusion_lat": 0.0, "bike_id": "54b854c335f8b9d329b597f60cf1d91c", "rental_uris": {"ios": "https://dc.lft.to/lastmile_qr_scan", "android": "https://dc.lft.to/lastmile_qr_scan"}, "fusion_lon": 0.0, "name": "54b854c335f8b9d329b597f60cf1d91c", "lon": -77.01777216666666}, {"is_reserved": 0, "lat": 38.85559933333333, "is_disabled": 0, "type": "electric_bike", "fusion_lat": 0.0, "bike_id": "249582582b855062d157906048c8f5da", "rental_uris": {"ios": "https://dc.lft.to/lastmile_qr_scan", "android": "https://dc.lft.to/lastmile_qr_scan"}, "fusion_lon": 0.0, "name": "249582582b855062d157906048c8f5da", "lon": -77.08189316666666}, {"is_reserved": 0, "lat": 38.86510583333333, "is_disabled": 0, "type": "electric_scooter", "fusion_lat": 0.0, "bike_id": "9fe6a978392ef97b68c31fa753cd7c92", "rental_uris": {"ios": "https://dc.lft.to/lastmile_qr_scan", "android": "https://dc.lft.to/lastmile_qr_scan"}, "fusion_lon": 0.0, "name": "9fe6a978392ef97b68c31fa753cd7c92", "lon": -76.98974316666667}, {"is_reserved": 0, "lat": 38.90510333333334, "is_disabled": 0, "type": "electric_scooter", "fusion_lat": 0.0, "bike_id": "2384e63e10a6fe9e72a56d5273d68bae", "rental_uris": {"ios": "https://dc.lft.to/lastmile_qr_scan", "android": "https://dc.lft.to/lastmile_qr_scan"}, "fusion_lon": 0.0, "name": "2384e63e10a6fe9e72a56d5273d68bae", "lon": -77.0013555}, {"is_reserved": 0, "lat": 38.907383333333335, "is_disabled": 0, "type": "electric_scooter", "fusion_lat": 0.0, "bike_id": "852e0224dfd8d72a0cb309f4056cedb2", "rental_uris": {"ios": "https://dc.lft.to/lastmile_qr_scan", "android": "https://dc.lft.to/lastmile_qr_scan"}, "fusion_lon": 0.0, "name": "852e0224dfd8d72a0cb309f4056cedb2", "lon": -76.951844}, {"is_reserved": 0, "lat": 38.920658833333334, "is_disabled": 0, "type": "electric_scooter", "fusion_lat": 0.0, "bike_id": "f85ba1b4b64bf5fff9bd31d22c927c94", "rental_uris": {"ios": "https://dc.lft.to/lastmile_qr_scan", "android": "https://dc.lft.to/lastmile_qr_scan"}, "fusion_lon": 0.0, "name": "f85ba1b4b64bf5fff9bd31d22c927c94", "lon": -77.043982}, {"is_reserved": 0, "lat": 38.9223955, "is_disabled": 0, "type": "electric_scooter", "fusion_lat": 0.0, "bike_id": "32fe89e74e0db7bc5f7f51f82f05f3d4", "rental_uris": {"ios": "https://dc.lft.to/lastmile_qr_scan", "android": "https://dc.lft.to/lastmile_qr_scan"}, "fusion_lon": 0.0, "name": "32fe89e74e0db7bc5f7f51f82f05f3d4", "lon": -77.033504}, {"is_reserved": 0, "lat": 38.905562333333336, "is_disabled": 0, "type": "electric_scooter", "fusion_lat": 0.0, "bike_id": "a5962af1da631d62f7af7d3a6ad3e2e4", "rental_uris": {"ios": "https://dc.lft.to/lastmile_qr_scan", "android": "https://dc.lft.to/lastmile_qr_scan"}, "fusion_lon": 0.0, "name": "a5962af1da631d62f7af7d3a6ad3e2e4", "lon": -77.0418105}, {"is_reserved": 0, "lat": 38.892185166666664, "is_disabled": 0, "type": "electric_scooter", "fusion_lat": 0.0, "bike_id": "253d4c5de2d569b824aedc58f4bc879b", "rental_uris": {"ios": "https://dc.lft.to/lastmile_qr_scan", "android": "https://dc.lft.to/lastmile_qr_scan"}, "fusion_lon": 0.0, "name": "253d4c5de2d569b824aedc58f4bc879b", "lon": -77.0316635}, {"is_reserved": 0, "lat": 38.895174, "is_disabled": 0, "type": "electric_scooter", "fusion_lat": 0.0, "bike_id": "d256d3a883104fffacb495053013fb86", "rental_uris": {"ios": "https://dc.lft.to/lastmile_qr_scan", "android": "https://dc.lft.to/lastmile_qr_scan"}, "fusion_lon": 0.0, "name": "d256d3a883104fffacb495053013fb86", "lon": -77.02806716666667}, {"is_reserved": 0, "lat": 38.93605783333334, "is_disabled": 0, "type": "electric_scooter", "fusion_lat": 0.0, "bike_id": "618ef3ee354a0fcbed51a59f57a23b5e", "rental_uris": {"ios": "https://dc.lft.to/lastmile_qr_scan", "android": "https://dc.lft.to/lastmile_qr_scan"}, "fusion_lon": 0.0, "name": "618ef3ee354a0fcbed51a59f57a23b5e", "lon": -77.05860116666666}, {"is_reserved": 0, "lat": 38.923965, "is_disabled": 0, "type": "electric_scooter", "fusion_lat": 0.0, "bike_id": "b340dd067bf8834310b36e8a578692ab", "rental_uris": {"ios": "https://dc.lft.to/lastmile_qr_scan", "android": "https://dc.lft.to/lastmile_qr_scan"}, "fusion_lon": 0.0, "name": "b340dd067bf8834310b36e8a578692ab", "lon": -77.04092233333333}, {"is_reserved": 0, "lat": 38.86372733333333, "is_disabled": 0, "type": "electric_scooter", "fusion_lat": 0.0, "bike_id": "e8c014b0a36e39c3c16757b0ba732a76", "rental_uris": {"ios": "https://dc.lft.to/lastmile_qr_scan", "android": "https://dc.lft.to/lastmile_qr_scan"}, "fusion_lon": 0.0, "name": "e8c014b0a36e39c3c16757b0ba732a76", "lon": -76.990273}, {"is_reserved": 0, "lat": 38.91709866666667, "is_disabled": 0, "type": "electric_scooter", "fusion_lat": 0.0, "bike_id": "e4c385c9b074eb42dab370fddf2a4632", "rental_uris": {"ios": "https://dc.lft.to/lastmile_qr_scan", "android": "https://dc.lft.to/lastmile_qr_scan"}, "fusion_lon": 0.0, "name": "e4c385c9b074eb42dab370fddf2a4632", "lon": -77.0351015}, {"is_reserved": 0, "lat": 38.905866833333334, "is_disabled": 0, "type": "electric_scooter", "fusion_lat": 0.0, "bike_id": "b463e0baf7df35bd44778d2d707d1e20", "rental_uris": {"ios": "https://dc.lft.to/lastmile_qr_scan", "android": "https://dc.lft.to/lastmile_qr_scan"}, "fusion_lon": 0.0, "name": "b463e0baf7df35bd44778d2d707d1e20", "lon": -77.06515116666667}, {"is_reserved": 0, "lat": 38.928343166666664, "is_disabled": 0, "type": "electric_scooter", "fusion_lat": 0.0, "bike_id": "7b682704c7fb36899bf10275d5f61a60", "rental_uris": {"ios": "https://dc.lft.to/lastmile_qr_scan", "android": "https://dc.lft.to/lastmile_qr_scan"}, "fusion_lon": 0.0, "name": "7b682704c7fb36899bf10275d5f61a60", "lon": -76.99366816666667}, {"is_reserved": 0, "lat": 38.9155895, "is_disabled": 0, "type": "electric_scooter", "fusion_lat": 0.0, "bike_id": "ddfd62e3e1a9e06ec271f91f64ee1305", "rental_uris": {"ios": "https://dc.lft.to/lastmile_qr_scan", "android": "https://dc.lft.to/lastmile_qr_scan"}, "fusion_lon": 0.0, "name": "ddfd62e3e1a9e06ec271f91f64ee1305", "lon": -77.03219766666666}, {"is_reserved": 0, "lat": 38.892214, "is_disabled": 0, "type": "electric_scooter", "fusion_lat": 0.0, "bike_id": "7f50fdc011d42aa725bfbe8c406e2e66", "rental_uris": {"ios": "https://dc.lft.to/lastmile_qr_scan", "android": "https://dc.lft.to/lastmile_qr_scan"}, "fusion_lon": 0.0, "name": "7f50fdc011d42aa725bfbe8c406e2e66", "lon": -77.031637}, {"is_reserved": 0, "lat": 38.903740666666664, "is_disabled": 0, "type": "electric_scooter", "fusion_lat": 0.0, "bike_id": "1091ec86db296928056f1cb073b69864", "rental_uris": {"ios": "https://dc.lft.to/lastmile_qr_scan", "android": "https://dc.lft.to/lastmile_qr_scan"}, "fusion_lon": 0.0, "name": "1091ec86db296928056f1cb073b69864", "lon": -77.0449265}, {"is_reserved": 0, "lat": 38.89450216666667, "is_disabled": 0, "type": "electric_bike", "fusion_lat": 0.0, "bike_id": "61b7a1fc88115b9b8ae4c0d3131d50ce", "rental_uris": {"ios": "https://dc.lft.to/lastmile_qr_scan", "android": "https://dc.lft.to/lastmile_qr_scan"}, "fusion_lon": 0.0, "name": "61b7a1fc88115b9b8ae4c0d3131d50ce", "lon": -77.15827716666666}, {"is_reserved": 0, "lat": 38.902579833333334, "is_disabled": 0, "type": "electric_scooter", "fusion_lat": 0.0, "bike_id": "f1a04b1f61d6932e5f97b5067a4077e5", "rental_uris": {"ios": "https://dc.lft.to/lastmile_qr_scan", "android": "https://dc.lft.to/lastmile_qr_scan"}, "fusion_lon": 0.0, "name": "f1a04b1f61d6932e5f97b5067a4077e5", "lon": -77.0176855}, {"is_reserved": 0, "lat": 38.917224166666664, "is_disabled": 0, "type": "electric_scooter", "fusion_lat": 0.0, "bike_id": "d64ab818b66f9b3088a67a17abf3c220", "rental_uris": {"ios": "https://dc.lft.to/lastmile_qr_scan", "android": "https://dc.lft.to/lastmile_qr_scan"}, "fusion_lon": 0.0, "name": "d64ab818b66f9b3088a67a17abf3c220", "lon": -77.02973966666667}, {"is_reserved": 0, "lat": 38.92159783333334, "is_disabled": 0, "type": "electric_scooter", "fusion_lat": 0.0, "bike_id": "cc9de07d686be46b991554d755f7655a", "rental_uris": {"ios": "https://dc.lft.to/lastmile_qr_scan", "android": "https://dc.lft.to/lastmile_qr_scan"}, "fusion_lon": 0.0, "name": "cc9de07d686be46b991554d755f7655a", "lon": -77.03326816666667}, {"is_reserved": 0, "lat": 38.89014066666667, "is_disabled": 0, "type": "electric_scooter", "fusion_lat": 0.0, "bike_id": "82fdbca5b6ba8512a638f181c3743979", "rental_uris": {"ios": "https://dc.lft.to/lastmile_qr_scan", "android": "https://dc.lft.to/lastmile_qr_scan"}, "fusion_lon": 0.0, "name": "82fdbca5b6ba8512a638f181c3743979", "lon": -76.93742716666667}, {"is_reserved": 0, "lat": 39.05498383333333, "is_disabled": 0, "type": "electric_bike", "fusion_lat": 0.0, "bike_id": "64a5a247f3102a1582c9438d152d73fe", "rental_uris": {"ios": "https://dc.lft.to/lastmile_qr_scan", "android": "https://dc.lft.to/lastmile_qr_scan"}, "fusion_lon": 0.0, "name": "64a5a247f3102a1582c9438d152d73fe", "lon": -77.04649783333333}, {"is_reserved": 0, "lat": 38.9051195, "is_disabled": 0, "type": "electric_scooter", "fusion_lat": 0.0, "bike_id": "748c793b6768d422588985a230cad42f", "rental_uris": {"ios": "https://dc.lft.to/lastmile_qr_scan", "android": "https://dc.lft.to/lastmile_qr_scan"}, "fusion_lon": 0.0, "name": "748c793b6768d422588985a230cad42f", "lon": -77.0301245}, {"is_reserved": 0, "lat": 38.9985795, "is_disabled": 0, "type": "electric_bike", "fusion_lat": 0.0, "bike_id": "8a5b54c6f311597d289c164e5b2a3f7c", "rental_uris": {"ios": "https://dc.lft.to/lastmile_qr_scan", "android": "https://dc.lft.to/lastmile_qr_scan"}, "fusion_lon": 0.0, "name": "8a5b54c6f311597d289c164e5b2a3f7c", "lon": -77.028677}, {"is_reserved": 0, "lat": 38.9034135, "is_disabled": 0, "type": "electric_scooter", "fusion_lat": 0.0, "bike_id": "d827798273a64202bc62a5b11085758d", "rental_uris": {"ios": "https://dc.lft.to/lastmile_qr_scan", "android": "https://dc.lft.to/lastmile_qr_scan"}, "fusion_lon": 0.0, "name": "d827798273a64202bc62a5b11085758d", "lon": -77.03184166666666}, {"is_reserved": 0, "lat": 38.92490333333333, "is_disabled": 0, "type": "electric_scooter", "fusion_lat": 0.0, "bike_id": "c320f4f40bd3d84944434c70375dc11f", "rental_uris": {"ios": "https://dc.lft.to/lastmile_qr_scan", "android": "https://dc.lft.to/lastmile_qr_scan"}, "fusion_lon": 0.0, "name": "c320f4f40bd3d84944434c70375dc11f", "lon": -77.0215675}, {"is_reserved": 0, "lat": 38.90474, "is_disabled": 0, "type": "electric_scooter", "fusion_lat": 0.0, "bike_id": "e2fcefea70f65fccb031a48313b65b57", "rental_uris": {"ios": "https://dc.lft.to/lastmile_qr_scan", "android": "https://dc.lft.to/lastmile_qr_scan"}, "fusion_lon": 0.0, "name": "e2fcefea70f65fccb031a48313b65b57", "lon": -77.04856783333334}, {"is_reserved": 0, "lat": 38.866533833333335, "is_disabled": 0, "type": "electric_scooter", "fusion_lat": 0.0, "bike_id": "f89594eaec23b2e59a6b9a91749e4fab", "rental_uris": {"ios": "https://dc.lft.to/lastmile_qr_scan", "android": "https://dc.lft.to/lastmile_qr_scan"}, "fusion_lon": 0.0, "name": "f89594eaec23b2e59a6b9a91749e4fab", "lon": -76.98883166666667}, {"is_reserved": 0, "lat": 38.904667333333336, "is_disabled": 0, "type": "electric_bike", "fusion_lat": 0.0, "bike_id": "64c2adf90e4050cf11492e8c3ab26734", "rental_uris": {"ios": "https://dc.lft.to/lastmile_qr_scan", "android": "https://dc.lft.to/lastmile_qr_scan"}, "fusion_lon": 0.0, "name": "64c2adf90e4050cf11492e8c3ab26734", "lon": -77.0437355}, {"is_reserved": 0, "lat": 38.9300385, "is_disabled": 0, "type": "electric_bike", "fusion_lat": 0.0, "bike_id": "24d7c33c62c08a3ce55d032cec8df5b0", "rental_uris": {"ios": "https://dc.lft.to/lastmile_qr_scan", "android": "https://dc.lft.to/lastmile_qr_scan"}, "fusion_lon": 0.0, "name": "24d7c33c62c08a3ce55d032cec8df5b0", "lon": -77.21642916666667}, {"is_reserved": 0, "lat": 38.91957933333333, "is_disabled": 0, "type": "electric_scooter", "fusion_lat": 0.0, "bike_id": "a4b00647d6ce66c9151625651e2951da", "rental_uris": {"ios": "https://dc.lft.to/lastmile_qr_scan", "android": "https://dc.lft.to/lastmile_qr_scan"}, "fusion_lon": 0.0, "name": "a4b00647d6ce66c9151625651e2951da", "lon": -77.0238055}, {"is_reserved": 0, "lat": 38.907171166666664, "is_disabled": 0, "type": "electric_scooter", "fusion_lat": 0.0, "bike_id": "1ef6f887d0ab00ffebbbac0a5fe03814", "rental_uris": {"ios": "https://dc.lft.to/lastmile_qr_scan", "android": "https://dc.lft.to/lastmile_qr_scan"}, "fusion_lon": 0.0, "name": "1ef6f887d0ab00ffebbbac0a5fe03814", "lon": -77.0341345}, {"is_reserved": 0, "lat": 38.958878, "is_disabled": 0, "type": "electric_bike", "fusion_lat": 0.0, "bike_id": "86fe1470d69552f3dd65cf6d1b69da14", "rental_uris": {"ios": "https://dc.lft.to/lastmile_qr_scan", "android": "https://dc.lft.to/lastmile_qr_scan"}, "fusion_lon": 0.0, "name": "86fe1470d69552f3dd65cf6d1b69da14", "lon": -77.0587725}, {"is_reserved": 0, "lat": 38.90185016666667, "is_disabled": 0, "type": "electric_scooter", "fusion_lat": 0.0, "bike_id": "d6c5a414cb69b49d6fe1b66747320c5d", "rental_uris": {"ios": "https://dc.lft.to/lastmile_qr_scan", "android": "https://dc.lft.to/lastmile_qr_scan"}, "fusion_lon": 0.0, "name": "d6c5a414cb69b49d6fe1b66747320c5d", "lon": -76.92997733333333}, {"is_reserved": 0, "lat": 38.9067025, "is_disabled": 0, "type": "electric_scooter", "fusion_lat": 0.0, "bike_id": "41adabe814ae9d96c50b39851483d0e6", "rental_uris": {"ios": "https://dc.lft.to/lastmile_qr_scan", "android": "https://dc.lft.to/lastmile_qr_scan"}, "fusion_lon": 0.0, "name": "41adabe814ae9d96c50b39851483d0e6", "lon": -77.04667783333333}, {"is_reserved": 0, "lat": 38.863719833333334, "is_disabled": 0, "type": "electric_scooter", "fusion_lat": 0.0, "bike_id": "0a411d0213cd3459273dbbd3cafa3377", "rental_uris": {"ios": "https://dc.lft.to/lastmile_qr_scan", "android": "https://dc.lft.to/lastmile_qr_scan"}, "fusion_lon": 0.0, "name": "0a411d0213cd3459273dbbd3cafa3377", "lon": -76.99028416666667}, {"is_reserved": 0, "lat": 38.914109, "is_disabled": 0, "type": "electric_scooter", "fusion_lat": 0.0, "bike_id": "53b6a9f4d219ea6572c4efab9d8faee1", "rental_uris": {"ios": "https://dc.lft.to/lastmile_qr_scan", "android": "https://dc.lft.to/lastmile_qr_scan"}, "fusion_lon": 0.0, "name": "53b6a9f4d219ea6572c4efab9d8faee1", "lon": -77.04278766666667}, {"is_reserved": 0, "lat": 38.89832966666667, "is_disabled": 0, "type": "electric_scooter", "fusion_lat": 0.0, "bike_id": "15878231a0f0375a2d4d809cf9c6fd23", "rental_uris": {"ios": "https://dc.lft.to/lastmile_qr_scan", "android": "https://dc.lft.to/lastmile_qr_scan"}, "fusion_lon": 0.0, "name": "15878231a0f0375a2d4d809cf9c6fd23", "lon": -77.02979566666667}, {"is_reserved": 0, "lat": 38.91424083333333, "is_disabled": 0, "type": "electric_scooter", "fusion_lat": 0.0, "bike_id": "d52a80e8aeb283f51fcec00b513cec4c", "rental_uris": {"ios": "https://dc.lft.to/lastmile_qr_scan", "android": "https://dc.lft.to/lastmile_qr_scan"}, "fusion_lon": 0.0, "name": "d52a80e8aeb283f51fcec00b513cec4c", "lon": -77.03214316666667}, {"is_reserved": 0, "lat": 38.905576833333335, "is_disabled": 0, "type": "electric_scooter", "fusion_lat": 0.0, "bike_id": "34ed0171af5fb9e51da8b0a90699f73d", "rental_uris": {"ios": "https://dc.lft.to/lastmile_qr_scan", "android": "https://dc.lft.to/lastmile_qr_scan"}, "fusion_lon": 0.0, "name": "34ed0171af5fb9e51da8b0a90699f73d", "lon": -77.0397665}, {"is_reserved": 0, "lat": 38.910743333333336, "is_disabled": 0, "type": "electric_scooter", "fusion_lat": 0.0, "bike_id": "84128796f05b85ad858903d704ad27d3", "rental_uris": {"ios": "https://dc.lft.to/lastmile_qr_scan", "android": "https://dc.lft.to/lastmile_qr_scan"}, "fusion_lon": 0.0, "name": "84128796f05b85ad858903d704ad27d3", "lon": -77.02286183333334}, {"is_reserved": 0, "lat": 38.909690833333336, "is_disabled": 0, "type": "electric_scooter", "fusion_lat": 0.0, "bike_id": "e06f786e3995f6efafe31abad7316f83", "rental_uris": {"ios": "https://dc.lft.to/lastmile_qr_scan", "android": "https://dc.lft.to/lastmile_qr_scan"}, "fusion_lon": 0.0, "name": "e06f786e3995f6efafe31abad7316f83", "lon": -77.0371725}, {"is_reserved": 0, "lat": 38.90237033333333, "is_disabled": 0, "type": "electric_scooter", "fusion_lat": 0.0, "bike_id": "c75ba3eab3723b53a9a3afb0f23da9e9", "rental_uris": {"ios": "https://dc.lft.to/lastmile_qr_scan", "android": "https://dc.lft.to/lastmile_qr_scan"}, "fusion_lon": 0.0, "name": "c75ba3eab3723b53a9a3afb0f23da9e9", "lon": -77.0457365}, {"is_reserved": 0, "lat": 38.9563515, "is_disabled": 0, "type": "electric_scooter", "fusion_lat": 0.0, "bike_id": "dcb7d87928c842deb929c7b95cc2ce30", "rental_uris": {"ios": "https://dc.lft.to/lastmile_qr_scan", "android": "https://dc.lft.to/lastmile_qr_scan"}, "fusion_lon": 0.0, "name": "dcb7d87928c842deb929c7b95cc2ce30", "lon": -77.032909}, {"is_reserved": 0, "lat": 38.86659183333333, "is_disabled": 0, "type": "electric_scooter", "fusion_lat": 0.0, "bike_id": "d6d7644009e8b3519ae4bfaae00d3724", "rental_uris": {"ios": "https://dc.lft.to/lastmile_qr_scan", "android": "https://dc.lft.to/lastmile_qr_scan"}, "fusion_lon": 0.0, "name": "d6d7644009e8b3519ae4bfaae00d3724", "lon": -76.98881316666666}, {"is_reserved": 0, "lat": 38.886806666666665, "is_disabled": 0, "type": "electric_bike", "fusion_lat": 0.0, "bike_id": "63a7af26a05c80b4f0018d2a5a22a1e4", "rental_uris": {"ios": "https://dc.lft.to/lastmile_qr_scan", "android": "https://dc.lft.to/lastmile_qr_scan"}, "fusion_lon": 0.0, "name": "63a7af26a05c80b4f0018d2a5a22a1e4", "lon": -77.16087433333334}, {"is_reserved": 0, "lat": 38.924473166666665, "is_disabled": 0, "type": "electric_scooter", "fusion_lat": 0.0, "bike_id": "1ce6f76045da95d33842f06450e90d59", "rental_uris": {"ios": "https://dc.lft.to/lastmile_qr_scan", "android": "https://dc.lft.to/lastmile_qr_scan"}, "fusion_lon": 0.0, "name": "1ce6f76045da95d33842f06450e90d59", "lon": -77.041109}, {"is_reserved": 0, "lat": 38.9178055, "is_disabled": 0, "type": "electric_scooter", "fusion_lat": 0.0, "bike_id": "75d6605a30ebf18ddf9ca5905ae8c7bc", "rental_uris": {"ios": "https://dc.lft.to/lastmile_qr_scan", "android": "https://dc.lft.to/lastmile_qr_scan"}, "fusion_lon": 0.0, "name": "75d6605a30ebf18ddf9ca5905ae8c7bc", "lon": -77.02308483333333}, {"is_reserved": 0, "lat": 38.901084166666664, "is_disabled": 0, "type": "electric_scooter", "fusion_lat": 0.0, "bike_id": "7eca2d559d01bf28238baaaf05419e69", "rental_uris": {"ios": "https://dc.lft.to/lastmile_qr_scan", "android": "https://dc.lft.to/lastmile_qr_scan"}, "fusion_lon": 0.0, "name": "7eca2d559d01bf28238baaaf05419e69", "lon": -77.04476016666666}, {"is_reserved": 0, "lat": 38.899368, "is_disabled": 0, "type": "electric_scooter", "fusion_lat": 0.0, "bike_id": "39239c6caf905c21141fca8e36eeef1a", "rental_uris": {"ios": "https://dc.lft.to/lastmile_qr_scan", "android": "https://dc.lft.to/lastmile_qr_scan"}, "fusion_lon": 0.0, "name": "39239c6caf905c21141fca8e36eeef1a", "lon": -77.0142445}, {"is_reserved": 0, "lat": 38.91959533333333, "is_disabled": 0, "type": "electric_scooter", "fusion_lat": 0.0, "bike_id": "e38cffa81235711ad50c27b5ebde5f8c", "rental_uris": {"ios": "https://dc.lft.to/lastmile_qr_scan", "android": "https://dc.lft.to/lastmile_qr_scan"}, "fusion_lon": 0.0, "name": "e38cffa81235711ad50c27b5ebde5f8c", "lon": -77.02388416666666}, {"is_reserved": 0, "lat": 38.9224035, "is_disabled": 0, "type": "electric_scooter", "fusion_lat": 0.0, "bike_id": "b1b46434e6ef6cf1f698b2ddf8f228b5", "rental_uris": {"ios": "https://dc.lft.to/lastmile_qr_scan", "android": "https://dc.lft.to/lastmile_qr_scan"}, "fusion_lon": 0.0, "name": "b1b46434e6ef6cf1f698b2ddf8f228b5", "lon": -77.0223775}, {"is_reserved": 0, "lat": 38.802274, "is_disabled": 0, "type": "electric_bike", "fusion_lat": 0.0, "bike_id": "168d5c88d8ed426da6457cbe31477fc5", "rental_uris": {"ios": "https://dc.lft.to/lastmile_qr_scan", "android": "https://dc.lft.to/lastmile_qr_scan"}, "fusion_lon": 0.0, "name": "168d5c88d8ed426da6457cbe31477fc5", "lon": -77.079201}, {"is_reserved": 0, "lat": 38.92256116666667, "is_disabled": 0, "type": "electric_scooter", "fusion_lat": 0.0, "bike_id": "aa2ead527e9d5f99e8fa2f5e473d1604", "rental_uris": {"ios": "https://dc.lft.to/lastmile_qr_scan", "android": "https://dc.lft.to/lastmile_qr_scan"}, "fusion_lon": 0.0, "name": "aa2ead527e9d5f99e8fa2f5e473d1604", "lon": -77.0297115}, {"is_reserved": 0, "lat": 38.8401145, "is_disabled": 0, "type": "electric_bike", "fusion_lat": 0.0, "bike_id": "130598acfbf1adbcde0beca097865c09", "rental_uris": {"ios": "https://dc.lft.to/lastmile_qr_scan", "android": "https://dc.lft.to/lastmile_qr_scan"}, "fusion_lon": 0.0, "name": "130598acfbf1adbcde0beca097865c09", "lon": -76.97536483333333}, {"is_reserved": 0, "lat": 38.90595916666667, "is_disabled": 0, "type": "electric_scooter", "fusion_lat": 0.0, "bike_id": "46118db4ff02dba120a116060740f0a0", "rental_uris": {"ios": "https://dc.lft.to/lastmile_qr_scan", "android": "https://dc.lft.to/lastmile_qr_scan"}, "fusion_lon": 0.0, "name": "46118db4ff02dba120a116060740f0a0", "lon": -77.039763}, {"is_reserved": 0, "lat": 38.92637083333334, "is_disabled": 0, "type": "electric_scooter", "fusion_lat": 0.0, "bike_id": "095b0319e8872c60b8b69813ced48002", "rental_uris": {"ios": "https://dc.lft.to/lastmile_qr_scan", "android": "https://dc.lft.to/lastmile_qr_scan"}, "fusion_lon": 0.0, "name": "095b0319e8872c60b8b69813ced48002", "lon": -77.0133275}, {"is_reserved": 0, "lat": 38.903214166666665, "is_disabled": 0, "type": "electric_scooter", "fusion_lat": 0.0, "bike_id": "ce9b1c2dfccacc3062e3c43b2aa9609c", "rental_uris": {"ios": "https://dc.lft.to/lastmile_qr_scan", "android": "https://dc.lft.to/lastmile_qr_scan"}, "fusion_lon": 0.0, "name": "ce9b1c2dfccacc3062e3c43b2aa9609c", "lon": -77.039981}, {"is_reserved": 0, "lat": 38.930812, "is_disabled": 0, "type": "electric_scooter", "fusion_lat": 0.0, "bike_id": "50031faacf27ef688b67907cc2d4aa4a", "rental_uris": {"ios": "https://dc.lft.to/lastmile_qr_scan", "android": "https://dc.lft.to/lastmile_qr_scan"}, "fusion_lon": 0.0, "name": "50031faacf27ef688b67907cc2d4aa4a", "lon": -77.02790266666666}, {"is_reserved": 0, "lat": 38.85393666666667, "is_disabled": 0, "type": "electric_bike", "fusion_lat": 0.0, "bike_id": "181f0219839611325b0bd48e31862ab4", "rental_uris": {"ios": "https://dc.lft.to/lastmile_qr_scan", "android": "https://dc.lft.to/lastmile_qr_scan"}, "fusion_lon": 0.0, "name": "181f0219839611325b0bd48e31862ab4", "lon": -77.12485716666667}, {"is_reserved": 0, "lat": 38.91265833333333, "is_disabled": 0, "type": "electric_scooter", "fusion_lat": 0.0, "bike_id": "b58be56cdc4a1469bb240846ed09d677", "rental_uris": {"ios": "https://dc.lft.to/lastmile_qr_scan", "android": "https://dc.lft.to/lastmile_qr_scan"}, "fusion_lon": 0.0, "name": "b58be56cdc4a1469bb240846ed09d677", "lon": -77.028808}, {"is_reserved": 0, "lat": 38.884102166666665, "is_disabled": 0, "type": "electric_scooter", "fusion_lat": 0.0, "bike_id": "bceb5c406a5f95fece6f73f1b9a61a3f", "rental_uris": {"ios": "https://dc.lft.to/lastmile_qr_scan", "android": "https://dc.lft.to/lastmile_qr_scan"}, "fusion_lon": 0.0, "name": "bceb5c406a5f95fece6f73f1b9a61a3f", "lon": -76.97594483333333}, {"is_reserved": 0, "lat": 38.898508166666666, "is_disabled": 0, "type": "electric_scooter", "fusion_lat": 0.0, "bike_id": "526079b18163b2f5a12b09a58ef9df90", "rental_uris": {"ios": "https://dc.lft.to/lastmile_qr_scan", "android": "https://dc.lft.to/lastmile_qr_scan"}, "fusion_lon": 0.0, "name": "526079b18163b2f5a12b09a58ef9df90", "lon": -77.04373066666666}, {"is_reserved": 0, "lat": 38.862470333333334, "is_disabled": 0, "type": "electric_scooter", "fusion_lat": 0.0, "bike_id": "2331daf611c7b8fe038e5dcc88b2ea8e", "rental_uris": {"ios": "https://dc.lft.to/lastmile_qr_scan", "android": "https://dc.lft.to/lastmile_qr_scan"}, "fusion_lon": 0.0, "name": "2331daf611c7b8fe038e5dcc88b2ea8e", "lon": -76.99481416666667}, {"is_reserved": 0, "lat": 38.944662, "is_disabled": 0, "type": "electric_scooter", "fusion_lat": 0.0, "bike_id": "0aac1a5bcfa671b1bbec0bec9646aa68", "rental_uris": {"ios": "https://dc.lft.to/lastmile_qr_scan", "android": "https://dc.lft.to/lastmile_qr_scan"}, "fusion_lon": 0.0, "name": "0aac1a5bcfa671b1bbec0bec9646aa68", "lon": -77.02342083333333}, {"is_reserved": 0, "lat": 38.914055166666664, "is_disabled": 0, "type": "electric_scooter", "fusion_lat": 0.0, "bike_id": "2cdd9a1b05a3d9fb0a3648574dfb6c98", "rental_uris": {"ios": "https://dc.lft.to/lastmile_qr_scan", "android": "https://dc.lft.to/lastmile_qr_scan"}, "fusion_lon": 0.0, "name": "2cdd9a1b05a3d9fb0a3648574dfb6c98", "lon": -77.04568683333333}, {"is_reserved": 0, "lat": 38.884993, "is_disabled": 0, "type": "electric_scooter", "fusion_lat": 0.0, "bike_id": "1bce2c4002d93c5ceec254cf0a2911ee", "rental_uris": {"ios": "https://dc.lft.to/lastmile_qr_scan", "android": "https://dc.lft.to/lastmile_qr_scan"}, "fusion_lon": 0.0, "name": "1bce2c4002d93c5ceec254cf0a2911ee", "lon": -77.00567516666666}, {"is_reserved": 0, "lat": 38.920391333333335, "is_disabled": 0, "type": "electric_scooter", "fusion_lat": 0.0, "bike_id": "ea33299de08d18fc1e4d8fd9107a4ca3", "rental_uris": {"ios": "https://dc.lft.to/lastmile_qr_scan", "android": "https://dc.lft.to/lastmile_qr_scan"}, "fusion_lon": 0.0, "name": "ea33299de08d18fc1e4d8fd9107a4ca3", "lon": -77.04180116666667}, {"is_reserved": 0, "lat": 38.91481816666667, "is_disabled": 0, "type": "electric_scooter", "fusion_lat": 0.0, "bike_id": "9a4d68d0d9d47f8f296dc8b50398cc9b", "rental_uris": {"ios": "https://dc.lft.to/lastmile_qr_scan", "android": "https://dc.lft.to/lastmile_qr_scan"}, "fusion_lon": 0.0, "name": "9a4d68d0d9d47f8f296dc8b50398cc9b", "lon": -77.03212716666667}, {"is_reserved": 0, "lat": 38.92721316666667, "is_disabled": 0, "type": "electric_scooter", "fusion_lat": 0.0, "bike_id": "2e144cf0774dd02f0eb9b449b5908bee", "rental_uris": {"ios": "https://dc.lft.to/lastmile_qr_scan", "android": "https://dc.lft.to/lastmile_qr_scan"}, "fusion_lon": 0.0, "name": "2e144cf0774dd02f0eb9b449b5908bee", "lon": -77.03667666666666}, {"is_reserved": 0, "lat": 38.9286715, "is_disabled": 0, "type": "electric_scooter", "fusion_lat": 0.0, "bike_id": "ec7a7a109e21ab204c9fdd887a51e1e9", "rental_uris": {"ios": "https://dc.lft.to/lastmile_qr_scan", "android": "https://dc.lft.to/lastmile_qr_scan"}, "fusion_lon": 0.0, "name": "ec7a7a109e21ab204c9fdd887a51e1e9", "lon": -77.0316755}, {"is_reserved": 0, "lat": 38.915195, "is_disabled": 0, "type": "electric_scooter", "fusion_lat": 0.0, "bike_id": "005eb73e00b2b3c349570ebdcee62f6b", "rental_uris": {"ios": "https://dc.lft.to/lastmile_qr_scan", "android": "https://dc.lft.to/lastmile_qr_scan"}, "fusion_lon": 0.0, "name": "005eb73e00b2b3c349570ebdcee62f6b", "lon": -77.01848866666667}, {"is_reserved": 0, "lat": 38.925303666666665, "is_disabled": 0, "type": "electric_scooter", "fusion_lat": 0.0, "bike_id": "fad575e47aeaa2629bf9da232a3373fa", "rental_uris": {"ios": "https://dc.lft.to/lastmile_qr_scan", "android": "https://dc.lft.to/lastmile_qr_scan"}, "fusion_lon": 0.0, "name": "fad575e47aeaa2629bf9da232a3373fa", "lon": -77.0256495}, {"is_reserved": 0, "lat": 38.899444333333335, "is_disabled": 0, "type": "electric_scooter", "fusion_lat": 0.0, "bike_id": "2c54a4affb8e89ce1831955e7ca6d584", "rental_uris": {"ios": "https://dc.lft.to/lastmile_qr_scan", "android": "https://dc.lft.to/lastmile_qr_scan"}, "fusion_lon": 0.0, "name": "2c54a4affb8e89ce1831955e7ca6d584", "lon": -77.02024066666667}, {"is_reserved": 0, "lat": 38.886660666666664, "is_disabled": 0, "type": "electric_scooter", "fusion_lat": 0.0, "bike_id": "f90d248dd6e1462d87aa92f885a54a68", "rental_uris": {"ios": "https://dc.lft.to/lastmile_qr_scan", "android": "https://dc.lft.to/lastmile_qr_scan"}, "fusion_lon": 0.0, "name": "f90d248dd6e1462d87aa92f885a54a68", "lon": -76.93612833333333}, {"is_reserved": 0, "lat": 38.915610666666666, "is_disabled": 0, "type": "electric_scooter", "fusion_lat": 0.0, "bike_id": "fd22abeeafc2dd6ecb35488468de2c4e", "rental_uris": {"ios": "https://dc.lft.to/lastmile_qr_scan", "android": "https://dc.lft.to/lastmile_qr_scan"}, "fusion_lon": 0.0, "name": "fd22abeeafc2dd6ecb35488468de2c4e", "lon": -77.02509533333334}, {"is_reserved": 0, "lat": 38.9090045, "is_disabled": 0, "type": "electric_scooter", "fusion_lat": 0.0, "bike_id": "50cd4f28b1b2d332cd6dc5b5af94a2d2", "rental_uris": {"ios": "https://dc.lft.to/lastmile_qr_scan", "android": "https://dc.lft.to/lastmile_qr_scan"}, "fusion_lon": 0.0, "name": "50cd4f28b1b2d332cd6dc5b5af94a2d2", "lon": -76.99778566666667}, {"is_reserved": 0, "lat": 38.94955433333333, "is_disabled": 0, "type": "electric_scooter", "fusion_lat": 0.0, "bike_id": "0936323bfd56919541e01f2218cc3444", "rental_uris": {"ios": "https://dc.lft.to/lastmile_qr_scan", "android": "https://dc.lft.to/lastmile_qr_scan"}, "fusion_lon": 0.0, "name": "0936323bfd56919541e01f2218cc3444", "lon": -77.02723766666666}, {"is_reserved": 0, "lat": 38.9287325, "is_disabled": 0, "type": "electric_scooter", "fusion_lat": 0.0, "bike_id": "14df03adf5d5fc66d8809dd5b885b0d0", "rental_uris": {"ios": "https://dc.lft.to/lastmile_qr_scan", "android": "https://dc.lft.to/lastmile_qr_scan"}, "fusion_lon": 0.0, "name": "14df03adf5d5fc66d8809dd5b885b0d0", "lon": -77.029659}, {"is_reserved": 0, "lat": 38.892191, "is_disabled": 0, "type": "electric_scooter", "fusion_lat": 0.0, "bike_id": "016b33f37817072dd080ceb05f8f94f9", "rental_uris": {"ios": "https://dc.lft.to/lastmile_qr_scan", "android": "https://dc.lft.to/lastmile_qr_scan"}, "fusion_lon": 0.0, "name": "016b33f37817072dd080ceb05f8f94f9", "lon": -77.04803583333333}, {"is_reserved": 0, "lat": 38.897214166666664, "is_disabled": 0, "type": "electric_scooter", "fusion_lat": 0.0, "bike_id": "de254f59bb36754dd22451a22b89e4b4", "rental_uris": {"ios": "https://dc.lft.to/lastmile_qr_scan", "android": "https://dc.lft.to/lastmile_qr_scan"}, "fusion_lon": 0.0, "name": "de254f59bb36754dd22451a22b89e4b4", "lon": -77.02681}, {"is_reserved": 0, "lat": 38.91217616666667, "is_disabled": 0, "type": "electric_scooter", "fusion_lat": 0.0, "bike_id": "f08e864853b57551138b987955553778", "rental_uris": {"ios": "https://dc.lft.to/lastmile_qr_scan", "android": "https://dc.lft.to/lastmile_qr_scan"}, "fusion_lon": 0.0, "name": "f08e864853b57551138b987955553778", "lon": -77.0320125}, {"is_reserved": 0, "lat": 38.930152, "is_disabled": 0, "type": "electric_scooter", "fusion_lat": 0.0, "bike_id": "93048a273672fb6cb08ae789c71e4a7c", "rental_uris": {"ios": "https://dc.lft.to/lastmile_qr_scan", "android": "https://dc.lft.to/lastmile_qr_scan"}, "fusion_lon": 0.0, "name": "93048a273672fb6cb08ae789c71e4a7c", "lon": -77.02008733333334}, {"is_reserved": 0, "lat": 38.925175833333334, "is_disabled": 0, "type": "electric_scooter", "fusion_lat": 0.0, "bike_id": "507925d8152789f770f92340ae4ea4a5", "rental_uris": {"ios": "https://dc.lft.to/lastmile_qr_scan", "android": "https://dc.lft.to/lastmile_qr_scan"}, "fusion_lon": 0.0, "name": "507925d8152789f770f92340ae4ea4a5", "lon": -77.03812166666667}, {"is_reserved": 0, "lat": 38.90665633333333, "is_disabled": 0, "type": "electric_scooter", "fusion_lat": 0.0, "bike_id": "cd786b9fcbbd12aaf28d338bfca371be", "rental_uris": {"ios": "https://dc.lft.to/lastmile_qr_scan", "android": "https://dc.lft.to/lastmile_qr_scan"}, "fusion_lon": 0.0, "name": "cd786b9fcbbd12aaf28d338bfca371be", "lon": -77.026997}, {"is_reserved": 0, "lat": 38.9382985, "is_disabled": 0, "type": "electric_scooter", "fusion_lat": 0.0, "bike_id": "c9c421b60c0c6acd341401670998bb13", "rental_uris": {"ios": "https://dc.lft.to/lastmile_qr_scan", "android": "https://dc.lft.to/lastmile_qr_scan"}, "fusion_lon": 0.0, "name": "c9c421b60c0c6acd341401670998bb13", "lon": -76.98616433333333}, {"is_reserved": 0, "lat": 38.90353966666667, "is_disabled": 0, "type": "electric_scooter", "fusion_lat": 0.0, "bike_id": "9743198583b7c3b95235fc90a681162d", "rental_uris": {"ios": "https://dc.lft.to/lastmile_qr_scan", "android": "https://dc.lft.to/lastmile_qr_scan"}, "fusion_lon": 0.0, "name": "9743198583b7c3b95235fc90a681162d", "lon": -76.99612433333333}, {"is_reserved": 0, "lat": 38.911947, "is_disabled": 0, "type": "electric_scooter", "fusion_lat": 0.0, "bike_id": "21fe63d4504b54dccc52daa6178f6a74", "rental_uris": {"ios": "https://dc.lft.to/lastmile_qr_scan", "android": "https://dc.lft.to/lastmile_qr_scan"}, "fusion_lon": 0.0, "name": "21fe63d4504b54dccc52daa6178f6a74", "lon": -77.031859}, {"is_reserved": 0, "lat": 38.892270333333336, "is_disabled": 0, "type": "electric_scooter", "fusion_lat": 0.0, "bike_id": "13b4d14b4974d0e6c8d066a1d3bb6924", "rental_uris": {"ios": "https://dc.lft.to/lastmile_qr_scan", "android": "https://dc.lft.to/lastmile_qr_scan"}, "fusion_lon": 0.0, "name": "13b4d14b4974d0e6c8d066a1d3bb6924", "lon": -77.04998566666667}, {"is_reserved": 0, "lat": 38.95419066666667, "is_disabled": 0, "type": "electric_scooter", "fusion_lat": 0.0, "bike_id": "a1e01f7ffd4c2b6ed60c50fd91d09295", "rental_uris": {"ios": "https://dc.lft.to/lastmile_qr_scan", "android": "https://dc.lft.to/lastmile_qr_scan"}, "fusion_lon": 0.0, "name": "a1e01f7ffd4c2b6ed60c50fd91d09295", "lon": -77.02760533333333}, {"is_reserved": 0, "lat": 38.88244483333333, "is_disabled": 0, "type": "electric_scooter", "fusion_lat": 0.0, "bike_id": "071accb6b25e23c70c46b2783ea985e6", "rental_uris": {"ios": "https://dc.lft.to/lastmile_qr_scan", "android": "https://dc.lft.to/lastmile_qr_scan"}, "fusion_lon": 0.0, "name": "071accb6b25e23c70c46b2783ea985e6", "lon": -76.9950675}, {"is_reserved": 0, "lat": 38.90512416666667, "is_disabled": 0, "type": "electric_scooter", "fusion_lat": 0.0, "bike_id": "1170902547901c5f4001e62d431e409e", "rental_uris": {"ios": "https://dc.lft.to/lastmile_qr_scan", "android": "https://dc.lft.to/lastmile_qr_scan"}, "fusion_lon": 0.0, "name": "1170902547901c5f4001e62d431e409e", "lon": -77.04928633333333}, {"is_reserved": 0, "lat": 38.9237305, "is_disabled": 0, "type": "electric_scooter", "fusion_lat": 0.0, "bike_id": "a52c82fc9c8b3c441239c7ebb566a3b3", "rental_uris": {"ios": "https://dc.lft.to/lastmile_qr_scan", "android": "https://dc.lft.to/lastmile_qr_scan"}, "fusion_lon": 0.0, "name": "a52c82fc9c8b3c441239c7ebb566a3b3", "lon": -77.03130916666667}, {"is_reserved": 0, "lat": 38.92344933333333, "is_disabled": 0, "type": "electric_scooter", "fusion_lat": 0.0, "bike_id": "e382c8743cfeb242cbb0c6651c7c9b13", "rental_uris": {"ios": "https://dc.lft.to/lastmile_qr_scan", "android": "https://dc.lft.to/lastmile_qr_scan"}, "fusion_lon": 0.0, "name": "e382c8743cfeb242cbb0c6651c7c9b13", "lon": -77.0534585}, {"is_reserved": 0, "lat": 38.92428866666667, "is_disabled": 0, "type": "electric_scooter", "fusion_lat": 0.0, "bike_id": "a753870b0d423c49c6914e982c88ff3e", "rental_uris": {"ios": "https://dc.lft.to/lastmile_qr_scan", "android": "https://dc.lft.to/lastmile_qr_scan"}, "fusion_lon": 0.0, "name": "a753870b0d423c49c6914e982c88ff3e", "lon": -77.0400765},