{"data": {"bikes": [{"is_disabled": 0, "fusion_lon": 0.0, "fusion_lat": 0.0, "lat": 38.893131833333335, "type": "electric_scooter", "lon": -77.01956916666667, "bike_id": "95e7dd0fc6aad897a43c5c9dadcb7ad5", "rental_uris": {"android": "https://dc.lft.to/lastmile_qr_scan", "ios": "https://dc.lft.to/lastmile_qr_scan"}, "name": "95e7dd0fc6aad897a43c5c9dadcb7ad5", "is_reserved": 0}, {"is_disabled": 0, "fusion_lon": 0.0, "fusion_lat": 0.0, "lat": 38.91539083333333, "type": "electric_scooter", "lon": -77.03208683333334, "bike_id": "d89b5629f6127d5eb793c60db75a9a69", "rental_uris": {"android": "https://dc.lft.to/lastmile_qr_scan", "ios": "https://dc.lft.to/lastmile_qr_scan"}, "name": "d89b5629f6127d5eb793c60db75a9a69", "is_reserved": 0}, {"is_disabled": 0, "fusion_lon": 0.0, "fusion_lat": 0.0, "lat": 38.85064583333333, "type": "electric_scooter", "lon": -76.9652345, "bike_id": "b89e76d97ea893b2b4ed1bd4061fa6fc", "rental_uris": {"android": "https://dc.lft.to/lastmile_qr_scan", "ios": "https://dc.lft.to/lastmile_qr_scan"}, "name": "b89e76d97ea893b2b4ed1bd4061fa6fc", "is_reserved": 0}, {"is_disabled": 0, "fusion_lon": 0.0, "fusion_lat": 0.0, "lat": 38.901682, "type": "electric_scooter", "lon": -77.04174766666667, "bike_id": "f052410cbd1e7d91b73899e77c0e230b", "rental_uris": {"android": "https://dc.lft.to/lastmile_qr_scan", "ios": "https://dc.lft.to/lastmile_qr_scan"}, "name": "f052410cbd1e7d91b73899e77c0e230b", "is_reserved": 0}, {"is_disabled": 0, "fusion_lon": 0.0, "fusion_lat": 0.0, "lat": 38.9016, "type": "electric_scooter", "lon": -77.041706, "bike_id": "3a25d845a3f60eab3891211c2eb35ba5", "rental_uris": {"android": "https://dc.lft.to/lastmile_qr_scan", "ios": "https://dc.lft.to/lastmile_qr_scan"}, "name": "3a25d845a3f60eab3891211c2eb35ba5", "is_reserved": 0}, {"is_disabled": 0, "fusion_lon": 0.0, "fusion_lat": 0.0, "lat": 38.89709116666667, "type": "electric_scooter", "lon": -77.02056016666667, "bike_id": "e68ef3855a8fa880540800aa89af7d30", "rental_uris": {"android": "https://dc.lft.to/lastmile_qr_scan", "ios": "https://dc.lft.to/lastmile_qr_scan"}, "name": "e68ef3855a8fa880540800aa89af7d30", "is_reserved": 0}, {"is_disabled": 0, "fusion_lon": 0.0, "fusion_lat": 0.0, "lat": 38.905645, "type": "electric_scooter", "lon": -77.02178433333333, "bike_id": "83c614776f698f6f407a668fe2c4930e", "rental_uris": {"android": "https://dc.lft.to/lastmile_qr_scan", "ios": "https://dc.lft.to/lastmile_qr_scan"}, "name": "83c614776f698f6f407a668fe2c4930e", "is_reserved": 0}, {"is_disabled": 0, "fusion_lon": 0.0, "fusion_lat": 0.0, "lat": 38.831186833333334, "type": "electric_bike", "lon": -77.043226, "bike_id": "262333e7ec6ce40c4dd9d2ae8d69ac76", "rental_uris": {"android": "https://dc.lft.to/lastmile_qr_scan", "ios": "https://dc.lft.to/lastmile_qr_scan"}, "name": "262333e7ec6ce40c4dd9d2ae8d69ac76", "is_reserved": 0}, {"is_disabled": 0, "fusion_lon": 0.0, "fusion_lat": 0.0, "lat": 38.906562666666666, "type": "electric_scooter", "lon": -77.03454883333333, "bike_id": "7edbefd9cf8a6aaf800a89cbbd0f62b2", "rental_uris": {"android": "https://dc.lft.to/lastmile_qr_scan", "ios": "https://dc.lft.to/lastmile_qr_scan"}, "name": "7edbefd9cf8a6aaf800a89cbbd0f62b2", "is_reserved": 0}, {"is_disabled": 0, "fusion_lon": 0.0, "fusion_lat": 0.0, "lat": 38.91917083333333, "type": "electric_scooter", "lon": -77.03179933333334, "bike_id": "40491a25485200cc0900b91b6eb87f4b", "rental_uris": {"android": "https://dc.lft.to/lastmile_qr_scan", "ios": "https://dc.lft.to/lastmile_qr_scan"}, "name": "40491a25485200cc0900b91b6eb87f4b", "is_reserved": 0}, {"is_disabled": 0, "fusion_lon": 0.0, "fusion_lat": 0.0, "lat": 38.893532, "type": "electric_scooter", "lon": -77.00334483333333, "bike_id": "29d86b91382e28583899bce72d6e594d", "rental_uris": {"android": "https://dc.lft.to/lastmile_qr_scan", "ios": "https://dc.lft.to/lastmile_qr_scan"}, "name": "29d86b91382e28583899bce72d6e594d", "is_reserved": 0}, {"is_disabled": 0, "fusion_lon": 0.0, "fusion_lat": 0.0, "lat": 38.908078, "type": "electric_scooter", "lon": -77.03859833333334, "bike_id": "2ff00d8a07c38b637870a81015afcfcc", "rental_uris": {"android": "https://dc.lft.to/lastmile_qr_scan", "ios": "https://dc.lft.to/lastmile_qr_scan"}, "name": "2ff00d8a07c38b637870a81015afcfcc", "is_reserved": 0}, {"is_disabled": 0, "fusion_lon": 0.0, "fusion_lat": 0.0, "lat": 38.888630166666665, "type": "electric_scooter", "lon": -76.97737383333333, "bike_id": "329107d67586065ae7b84b34bd3c618d", "rental_uris": {"android": "https://dc.lft.to/lastmile_qr_scan", "ios": "https://dc.lft.to/lastmile_qr_scan"}, "name": "329107d67586065ae7b84b34bd3c618d", "is_reserved": 0}, {"is_disabled": 0, "fusion_lon": 0.0, "fusion_lat": 0.0, "lat": 38.827229, "type": "electric_bike", "lon": -77.008627, "bike_id": "28cd2c8db1acd926a56cac42c2b778e4", "rental_uris": {"android": "https://dc.lft.to/lastmile_qr_scan", "ios": "https://dc.lft.to/lastmile_qr_scan"}, "name": "28cd2c8db1acd926a56cac42c2b778e4", "is_reserved": 0}, {"is_disabled": 0, "fusion_lon": 0.0, "fusion_lat": 0.0, "lat": 38.89502916666667, "type": "electric_scooter", "lon": -77.02197216666667, "bike_id": "b5360ea0893a26ededc94d75dec4e940", "rental_uris": {"android": "https://dc.lft.to/lastmile_qr_scan", "ios": "https://dc.lft.to/lastmile_qr_scan"}, "name": "b5360ea0893a26ededc94d75dec4e940", "is_reserved": 0}, {"is_disabled": 0, "fusion_lon": 0.0, "fusion_lat": 0.0, "lat": 38.875758833333336, "type": "electric_scooter", "lon": -77.00613133333333, "bike_id": "2ad4fe1a847fab13211d4ed145add1a1", "rental_uris": {"android": "https://dc.lft.to/lastmile_qr_scan", "ios": "https://dc.lft.to/lastmile_qr_scan"}, "name": "2ad4fe1a847fab13211d4ed145add1a1", "is_reserved": 0}, {"is_disabled": 0, "fusion_lon": 0.0, "fusion_lat": 0.0, "lat": 38.905599333333335, "type": "electric_scooter", "lon": -77.033642, "bike_id": "0360e2f9be4cd473b41ee27d1dea1392", "rental_uris": {"android": "https://dc.lft.to/lastmile_qr_scan", "ios": "https://dc.lft.to/lastmile_qr_scan"}, "name": "0360e2f9be4cd473b41ee27d1dea1392", "is_reserved": 0}, {"is_disabled": 0, "fusion_lon": 0.0, "fusion_lat": 0.0, "lat": 38.91607166666667, "type": "electric_scooter", "lon": -77.02298366666666, "bike_id": "2e420d8df255d297e2374901374e1cc6", "rental_uris": {"android": "https://dc.lft.to/lastmile_qr_scan", "ios": "https://dc.lft.to/lastmile_qr_scan"}, "name": "2e420d8df255d297e2374901374e1cc6", "is_reserved": 0}, {"is_disabled": 0, "fusion_lon": 0.0, "fusion_lat": 0.0, "lat": 38.92277216666667, "type": "electric_scooter", "lon": -77.0729705, "bike_id": "bb7f049261e8b86a70a884ec820c43fb", "rental_uris": {"android": "https://dc.lft.to/lastmile_qr_scan", "ios": "https://dc.lft.to/lastmile_qr_scan"}, "name": "bb7f049261e8b86a70a884ec820c43fb", "is_reserved": 0}, {"is_disabled": 0, "fusion_lon": 0.0, "fusion_lat": 0.0, "lat": 38.90223916666667, "type": "electric_scooter", "lon": -77.0608325, "bike_id": "e0145383fc0cb76fb28d05b5e72fa15c", "rental_uris": {"android": "https://dc.lft.to/lastmile_qr_scan", "ios": "https://dc.lft.to/lastmile_qr_scan"}, "name": "e0145383fc0cb76fb28d05b5e72fa15c", "is_reserved": 0}, {"is_disabled": 0, "fusion_lon": 0.0, "fusion_lat": 0.0, "lat": 38.901690333333335, "type": "electric_scooter", "lon": -77.02203116666666, "bike_id": "595c5449dfc494ef13525b8f44a95d96", "rental_uris": {"android": "https://dc.lft.to/lastmile_qr_scan", "ios": "https://dc.lft.to/lastmile_qr_scan"}, "name": "595c5449dfc494ef13525b8f44a95d96", "is_reserved": 0}, {"is_disabled": 0, "fusion_lon": 0.0, "fusion_lat": 0.0, "lat": 39.000163, "type": "electric_bike", "lon": -76.87285416666667, "bike_id": "6bd1798b09dd701f489f6f850085d50c", "rental_uris": {"android": "https://dc.lft.to/lastmile_qr_scan", "ios": "https://dc.lft.to/lastmile_qr_scan"}, "name": "6bd1798b09dd701f489f6f850085d50c", "is_reserved": 0}, {"is_disabled": 0, "fusion_lon": 0.0, "fusion_lat": 0.0, "lat": 38.916883, "type": "electric_scooter", "lon": -77.02839133333333, "bike_id": "4e270c42da42069219ea081a384fa139", "rental_uris": {"android": "https://dc.lft.to/lastmile_qr_scan", "ios": "https://dc.lft.to/lastmile_qr_scan"}, "name": "4e270c42da42069219ea081a384fa139", "is_reserved": 0}, {"is_disabled": 0, "fusion_lon": 0.0, "fusion_lat": 0.0, "lat": 38.9038165, "type": "electric_scooter", "lon": -77.0330035, "bike_id": "f9f5f5220a2e31c9afc0bbd905ad9d21", "rental_uris": {"android": "https://dc.lft.to/lastmile_qr_scan", "ios": "https://dc.lft.to/lastmile_qr_scan"}, "name": "f9f5f5220a2e31c9afc0bbd905ad9d21", "is_reserved": 0}, {"is_disabled": 0, "fusion_lon": 0.0, "fusion_lat": 0.0, "lat": 38.828698, "type": "electric_bike", "lon": -77.112182, "bike_id": "f667a1e45401e0b67b6c2aeb454e96d8", "rental_uris": {"android": "https://dc.lft.to/lastmile_qr_scan", "ios": "https://dc.lft.to/lastmile_qr_scan"}, "name": "f667a1e45401e0b67b6c2aeb454e96d8", "is_reserved": 0}, {"is_disabled": 0, "fusion_lon": 0.0, "fusion_lat": 0.0, "lat": 38.907701833333334, "type": "electric_scooter", "lon": -77.03858833333334, "bike_id": "234d7c5b7abe5bc1e0efee9420b6888e", "rental_uris": {"android": "https://dc.lft.to/lastmile_qr_scan", "ios": "https://dc.lft.to/lastmile_qr_scan"}, "name": "234d7c5b7abe5bc1e0efee9420b6888e", "is_reserved": 0}, {"is_disabled": 0, "fusion_lon": 0.0, "fusion_lat": 0.0, "lat": 38.8971015, "type": "electric_scooter", "lon": -77.02150183333333, "bike_id": "f81f5268d12f91f33eddbd72025cbb2f", "rental_uris": {"android": "https://dc.lft.to/lastmile_qr_scan", "ios": "https://dc.lft.to/lastmile_qr_scan"}, "name": "f81f5268d12f91f33eddbd72025cbb2f", "is_reserved": 0}, {"is_disabled": 0, "fusion_lon": 0.0, "fusion_lat": 0.0, "lat": 38.91547683333334, "type": "electric_scooter", "lon": -77.038481, "bike_id": "6993fb05a8d727942b16fe9a1c4c6aa6", "rental_uris": {"android": "https://dc.lft.to/lastmile_qr_scan", "ios": "https://dc.lft.to/lastmile_qr_scan"}, "name": "6993fb05a8d727942b16fe9a1c4c6aa6", "is_reserved": 0}, {"is_disabled": 0, "fusion_lon": 0.0, "fusion_lat": 0.0, "lat": 38.92214033333333, "type": "electric_scooter", "lon": -77.0329155, "bike_id": "d83b7c6587e4588f4d8b0ff1df4e4410", "rental_uris": {"android": "https://dc.lft.to/lastmile_qr_scan", "ios": "https://dc.lft.to/lastmile_qr_scan"}, "name": "d83b7c6587e4588f4d8b0ff1df4e4410", "is_reserved": 0}, {"is_disabled": 0, "fusion_lon": 0.0, "fusion_lat": 0.0, "lat": 38.91864733333333, "type": "electric_scooter", "lon": -77.04449883333334, "bike_id": "cc0b9b5c2d268d80ca221a51fd1abefa", "rental_uris": {"android": "https://dc.lft.to/lastmile_qr_scan", "ios": "https://dc.lft.to/lastmile_qr_scan"}, "name": "cc0b9b5c2d268d80ca221a51fd1abefa", "is_reserved": 0}, {"is_disabled": 0, "fusion_lon": 0.0, "fusion_lat": 0.0, "lat": 38.899424, "type": "electric_bike", "lon": -77.03368733333333, "bike_id": "fa5dac80b1260fb25b77ab7f5d21729e", "rental_uris": {"android": "https://dc.lft.to/lastmile_qr_scan", "ios": "https://dc.lft.to/lastmile_qr_scan"}, "name": "fa5dac80b1260fb25b77ab7f5d21729e", "is_reserved": 0}, {"is_disabled": 0, "fusion_lon": 0.0, "fusion_lat": 0.0, "lat": 38.92574916666667, "type": "electric_scooter", "lon": -76.99493083333333, "bike_id": "007ea30d1bd4e2a511d0ee456df64163", "rental_uris": {"android": "https://dc.lft.to/lastmile_qr_scan", "ios": "https://dc.lft.to/lastmile_qr_scan"}, "name": "007ea30d1bd4e2a511d0ee456df64163", "is_reserved": 0}, {"is_disabled": 0, "fusion_lon": 0.0, "fusion_lat": 0.0, "lat": 38.907583, "type": "electric_scooter", "lon": -77.02806883333334, "bike_id": "ea74759787b3df347b0d238e06899af1", "rental_uris": {"android": "https://dc.lft.to/lastmile_qr_scan", "ios": "https://dc.lft.to/lastmile_qr_scan"}, "name": "ea74759787b3df347b0d238e06899af1", "is_reserved": 0}, {"is_disabled": 0, "fusion_lon": 0.0, "fusion_lat": 0.0, "lat": 38.90018116666667, "type": "electric_scooter", "lon": -76.98816516666666, "bike_id": "16798debe8dba749410047b9f3c91aef", "rental_uris": {"android": "https://dc.lft.to/lastmile_qr_scan", "ios": "https://dc.lft.to/lastmile_qr_scan"}, "name": "16798debe8dba749410047b9f3c91aef", "is_reserved": 0}, {"is_disabled": 0, "fusion_lon": 0.0, "fusion_lat": 0.0, "lat": 38.892292833333336, "type": "electric_scooter", "lon": -77.02585083333334, "bike_id": "c2f1f114bc93ba804d10cef97a412ee4", "rental_uris": {"android": "https://dc.lft.to/lastmile_qr_scan", "ios": "https://dc.lft.to/lastmile_qr_scan"}, "name": "c2f1f114bc93ba804d10cef97a412ee4", "is_reserved": 0}, {"is_disabled": 0, "fusion_lon": 0.0, "fusion_lat": 0.0, "lat": 38.907919166666666, "type": "electric_scooter", "lon": -77.04989116666667, "bike_id": "4486d210d427506d14c4d026ad247e8b", "rental_uris": {"android": "https://dc.lft.to/lastmile_qr_scan", "ios": "https://dc.lft.to/lastmile_qr_scan"}, "name": "4486d210d427506d14c4d026ad247e8b", "is_reserved": 0}, {"is_disabled": 0, "fusion_lon": 0.0, "fusion_lat": 0.0, "lat": 38.87627966666667, "type": "electric_scooter", "lon": -76.96526783333333, "bike_id": "2580985a05e29506972f5a9974634a06", "rental_uris": {"android": "https://dc.lft.to/lastmile_qr_scan", "ios": "https://dc.lft.to/lastmile_qr_scan"}, "name": "2580985a05e29506972f5a9974634a06", "is_reserved": 0}, {"is_disabled": 0, "fusion_lon": 0.0, "fusion_lat": 0.0, "lat": 38.92133616666667, "type": "electric_bike", "lon": -76.97532366666667, "bike_id": "fd401400ea5ca598b3c87a8a90a40786", "rental_uris": {"android": "https://dc.lft.to/lastmile_qr_scan", "ios": "https://dc.lft.to/lastmile_qr_scan"}, "name": "fd401400ea5ca598b3c87a8a90a40786", "is_reserved": 0}, {"is_disabled": 0, "fusion_lon": 0.0, "fusion_lat": 0.0, "lat": 38.91990116666667, "type": "electric_scooter", "lon": -77.03272816666667, "bike_id": "325cd528d222e49489a409cebbd9d78b", "rental_uris": {"android": "https://dc.lft.to/lastmile_qr_scan", "ios": "https://dc.lft.to/lastmile_qr_scan"}, "name": "325cd528d222e49489a409cebbd9d78b", "is_reserved": 0}, {"is_disabled": 0, "fusion_lon": 0.0, "fusion_lat": 0.0, "lat": 38.919905166666666, "type": "electric_scooter", "lon": -77.02515016666666, "bike_id": "ca9f2c53bfd9db6220e894bc1faca622", "rental_uris": {"android": "https://dc.lft.to/lastmile_qr_scan", "ios": "https://dc.lft.to/lastmile_qr_scan"}, "name": "ca9f2c53bfd9db6220e894bc1faca622", "is_reserved": 0}, {"is_disabled": 0, "fusion_lon": 0.0, "fusion_lat": 0.0, "lat": 38.9056095, "type": "electric_scooter", "lon": -77.03637, "bike_id": "2a2fe19bb6d0434c7d5dbbf433cd96e6", "rental_uris": {"android": "https://dc.lft.to/lastmile_qr_scan", "ios": "https://dc.lft.to/lastmile_qr_scan"}, "name": "2a2fe19bb6d0434c7d5dbbf433cd96e6", "is_reserved": 0}, {"is_disabled": 0, "fusion_lon": 0.0, "fusion_lat": 0.0, "lat": 38.94447566666667, "type": "electric_scooter", "lon": -77.06044683333333, "bike_id": "da311ef77d25257691b07120a22a92e9", "rental_uris": {"android": "https://dc.lft.to/lastmile_qr_scan", "ios": "https://dc.lft.to/lastmile_qr_scan"}, "name": "da311ef77d25257691b07120a22a92e9", "is_reserved": 0}, {"is_disabled": 0, "fusion_lon": 0.0, "fusion_lat": 0.0, "lat": 38.91054483333333, "type": "electric_scooter", "lon": -77.02180233333333, "bike_id": "3e1d5a82aa09c5b8e09ee4fc780d5cd2", "rental_uris": {"android": "https://dc.lft.to/lastmile_qr_scan", "ios": "https://dc.lft.to/lastmile_qr_scan"}, "name": "3e1d5a82aa09c5b8e09ee4fc780d5cd2", "is_reserved": 0}, {"is_disabled": 0, "fusion_lon": 0.0, "fusion_lat": 0.0, "lat": 38.907081166666664, "type": "electric_scooter", "lon": -77.0239285, "bike_id": "0b19f50258004db935925df831007f75", "rental_uris": {"android": "https://dc.lft.to/lastmile_qr_scan", "ios": "https://dc.lft.to/lastmile_qr_scan"}, "name": "0b19f50258004db935925df831007f75", "is_reserved": 0}, {"is_disabled": 0, "fusion_lon": 0.0, "fusion_lat": 0.0, "lat": 38.9163395, "type": "electric_scooter", "lon": -77.050587, "bike_id": "a583ce26c50a102336f1d97e685fb191", "rental_uris": {"android": "https://dc.lft.to/lastmile_qr_scan", "ios": "https://dc.lft.to/lastmile_qr_scan"}, "name": "a583ce26c50a102336f1d97e685fb191", "is_reserved": 0}, {"is_disabled": 0, "fusion_lon": 0.0, "fusion_lat": 0.0, "lat": 38.93188333333333, "type": "electric_scooter", "lon": -77.02836533333333, "bike_id": "5b3d0975adfd9a380e8993b4e31d736b", "rental_uris": {"android": "https://dc.lft.to/lastmile_qr_scan", "ios": "https://dc.lft.to/lastmile_qr_scan"}, "name": "5b3d0975adfd9a380e8993b4e31d736b", "is_reserved": 0}, {"is_disabled": 0, "fusion_lon": 0.0, "fusion_lat": 0.0, "lat": 38.897389833333335, "type": "electric_scooter", "lon": -77.0160215, "bike_id": "eeb06ae85dad03ce0032035d48175883", "rental_uris": {"android": "https://dc.lft.to/lastmile_qr_scan", "ios": "https://dc.lft.to/lastmile_qr_scan"}, "name": "eeb06ae85dad03ce0032035d48175883", "is_reserved": 0}, {"is_disabled": 0, "fusion_lon": 0.0, "fusion_lat": 0.0, "lat": 38.92236466666667, "type": "electric_scooter", "lon": -77.027841, "bike_id": "d762b08a1d10eea1172e10c352d83ef4", "rental_uris": {"android": "https://dc.lft.to/lastmile_qr_scan", "ios": "https://dc.lft.to/lastmile_qr_scan"}, "name": "d762b08a1d10eea1172e10c352d83ef4", "is_reserved": 0}, {"is_disabled": 0, "fusion_lon": 0.0, "fusion_lat": 0.0, "lat": 38.909346166666666, "type": "electric_scooter", "lon": -76.9922535, "bike_id": "5f9240708d1338e5c8e6bd558f3119ff", "rental_uris": {"android": "https://dc.lft.to/lastmile_qr_scan", "ios": "https://dc.lft.to/lastmile_qr_scan"}, "name": "5f9240708d1338e5c8e6bd558f3119ff", "is_reserved": 0}, {"is_disabled": 0, "fusion_lon": 0.0, "fusion_lat": 0.0, "lat": 38.926016833333335, "type": "electric_scooter", "lon": -77.02687816666666, "bike_id": "4ca4c921ce6ac36f11be7b844cdaefa6", "rental_uris": {"android": "https://dc.lft.to/lastmile_qr_scan", "ios": "https://dc.lft.to/lastmile_qr_scan"}, "name": "4ca4c921ce6ac36f11be7b844cdaefa6", "is_reserved": 0}, {"is_disabled": 0, "fusion_lon": 0.0, "fusion_lat": 0.0, "lat": 38.89972783333333, "type": "electric_scooter", "lon": -77.01626666666667, "bike_id": "e811bdc54358b86e25fdcc879df10353", "rental_uris": {"android": "https://dc.lft.to/lastmile_qr_scan", "ios": "https://dc.lft.to/lastmile_qr_scan"}, "name": "e811bdc54358b86e25fdcc879df10353", "is_reserved": 0}, {"is_disabled": 0, "fusion_lon": 0.0, "fusion_lat": 0.0, "lat": 38.90089116666667, "type": "electric_scooter", "lon": -77.03923083333333, "bike_id": "0dc2cdf63e166f080dd8e7c1a7812541", "rental_uris": {"android": "https://dc.lft.to/lastmile_qr_scan", "ios": "https://dc.lft.to/lastmile_qr_scan"}, "name": "0dc2cdf63e166f080dd8e7c1a7812541", "is_reserved": 0}, {"is_disabled": 0, "fusion_lon": 0.0, "fusion_lat": 0.0, "lat": 38.89782866666667, "type": "electric_scooter", "lon": -76.97098016666666, "bike_id": "e9956997c0f0bd402673616561d3e591", "rental_uris": {"android": "https://dc.lft.to/lastmile_qr_scan", "ios": "https://dc.lft.to/lastmile_qr_scan"}, "name": "e9956997c0f0bd402673616561d3e591", "is_reserved": 0}, {"is_disabled": 0, "fusion_lon": 0.0, "fusion_lat": 0.0, "lat": 38.894779166666666, "type": "electric_scooter", "lon": -76.994155, "bike_id": "dd5cc1763ed7a7c6beddd7cb58d61b38", "rental_uris": {"android": "https://dc.lft.to/lastmile_qr_scan", "ios": "https://dc.lft.to/lastmile_qr_scan"}, "name": "dd5cc1763ed7a7c6beddd7cb58d61b38", "is_reserved": 0}, {"is_disabled": 0, "fusion_lon": 0.0, "fusion_lat": 0.0, "lat": 38.899479, "type": "electric_scooter", "lon": -77.047879, "bike_id": "ee219a27358a8fabd05ff7860f0ff3b2", "rental_uris": {"android": "https://dc.lft.to/lastmile_qr_scan", "ios": "https://dc.lft.to/lastmile_qr_scan"}, "name": "ee219a27358a8fabd05ff7860f0ff3b2", "is_reserved": 0}, {"is_disabled": 0, "fusion_lon": 0.0, "fusion_lat": 0.0, "lat": 38.86348983333333, "type": "electric_scooter", "lon": -76.990492, "bike_id": "7f6d234e8e748c4ced6d78ba7319c1b9", "rental_uris": {"android": "https://dc.lft.to/lastmile_qr_scan", "ios": "https://dc.lft.to/lastmile_qr_scan"}, "name": "7f6d234e8e748c4ced6d78ba7319c1b9", "is_reserved": 0}, {"is_disabled": 0, "fusion_lon": 0.0, "fusion_lat": 0.0, "lat": 38.92170633333333, "type": "electric_scooter", "lon": -76.99405133333333, "bike_id": "1c8a2bddf7758128b38b982b9de6797c", "rental_uris": {"android": "https://dc.lft.to/lastmile_qr_scan", "ios": "https://dc.lft.to/lastmile_qr_scan"}, "name": "1c8a2bddf7758128b38b982b9de6797c", "is_reserved": 0}, {"is_disabled": 0, "fusion_lon": 0.0, "fusion_lat": 0.0, "lat": 38.902572166666666, "type": "electric_scooter", "lon": -77.034477, "bike_id": "a38e90c5a00f408adaede642279cf8cc", "rental_uris": {"android": "https://dc.lft.to/lastmile_qr_scan", "ios": "https://dc.lft.to/lastmile_qr_scan"}, "name": "a38e90c5a00f408adaede642279cf8cc", "is_reserved": 0}, {"is_disabled": 0, "fusion_lon": 0.0, "fusion_lat": 0.0, "lat": 38.907017333333336, "type": "electric_scooter", "lon": -76.9869065, "bike_id": "eb49a45f00bc0d29e23d4f17e1177c2f", "rental_uris": {"android": "https://dc.lft.to/lastmile_qr_scan", "ios": "https://dc.lft.to/lastmile_qr_scan"}, "name": "eb49a45f00bc0d29e23d4f17e1177c2f", "is_reserved": 0}, {"is_disabled": 0, "fusion_lon": 0.0, "fusion_lat": 0.0, "lat": 38.899637166666665, "type": "electric_scooter", "lon": -77.02050983333334, "bike_id": "f231a0580ebd11a8add72bbca39db6ce", "rental_uris": {"android": "https://dc.lft.to/lastmile_qr_scan", "ios": "https://dc.lft.to/lastmile_qr_scan"}, "name": "f231a0580ebd11a8add72bbca39db6ce", "is_reserved": 0}, {"is_disabled": 0, "fusion_lon": 0.0, "fusion_lat": 0.0, "lat": 38.9856325, "type": "electric_bike", "lon": -76.98827783333333, "bike_id": "31e06a8f38e1d84232ae60c72f8c1a0b", "rental_uris": {"android": "https://dc.lft.to/lastmile_qr_scan", "ios": "https://dc.lft.to/lastmile_qr_scan"}, "name": "31e06a8f38e1d84232ae60c72f8c1a0b", "is_reserved": 0}, {"is_disabled": 0, "fusion_lon": 0.0, "fusion_lat": 0.0, "lat": 38.842913833333334, "type": "electric_scooter", "lon": -76.99946683333333, "bike_id": "c1e4078d2f63c5d505d324db78c65371", "rental_uris": {"android": "https://dc.lft.to/lastmile_qr_scan", "ios": "https://dc.lft.to/lastmile_qr_scan"}, "name": "c1e4078d2f63c5d505d324db78c65371", "is_reserved": 0}, {"is_disabled": 0, "fusion_lon": 0.0, "fusion_lat": 0.0, "lat": 38.9083065, "type": "electric_scooter", "lon": -76.9969555, "bike_id": "c0c53a4932b6c8e5d8e90427680643c3", "rental_uris": {"android": "https://dc.lft.to/lastmile_qr_scan", "ios": "https://dc.lft.to/lastmile_qr_scan"}, "name": "c0c53a4932b6c8e5d8e90427680643c3", "is_reserved": 0}, {"is_disabled": 0, "fusion_lon": 0.0, "fusion_lat": 0.0, "lat": 38.942799, "type": "electric_scooter", "lon": -77.02937716666666, "bike_id": "3fdb4596872c658283c85e8dcf5e1118", "rental_uris": {"android": "https://dc.lft.to/lastmile_qr_scan", "ios": "https://dc.lft.to/lastmile_qr_scan"}, "name": "3fdb4596872c658283c85e8dcf5e1118", "is_reserved": 0}, {"is_disabled": 0, "fusion_lon": 0.0, "fusion_lat": 0.0, "lat": 38.92894583333333, "type": "electric_scooter", "lon": -77.03261833333333, "bike_id": "34df0b9188d255c761796f60e1e7b755", "rental_uris": {"android": "https://dc.lft.to/lastmile_qr_scan", "ios": "https://dc.lft.to/lastmile_qr_scan"}, "name": "34df0b9188d255c761796f60e1e7b755", "is_reserved": 0}, {"is_disabled": 0, "fusion_lon": 0.0, "fusion_lat": 0.0, "lat": 38.9168435, "type": "electric_scooter", "lon": -76.98085416666666, "bike_id": "c3e0c27f636fb743fa13f59a4eb012a7", "rental_uris": {"android": "https://dc.lft.to/lastmile_qr_scan", "ios": "https://dc.lft.to/lastmile_qr_scan"}, "name": "c3e0c27f636fb743fa13f59a4eb012a7", "is_reserved": 0}, {"is_disabled": 0, "fusion_lon": 0.0, "fusion_lat": 0.0, "lat": 38.93300516666667, "type": "electric_scooter", "lon": -77.02842833333334, "bike_id": "0f59999b7f55e0841a5553f8967488a8", "rental_uris": {"android": "https://dc.lft.to/lastmile_qr_scan", "ios": "https://dc.lft.to/lastmile_qr_scan"}, "name": "0f59999b7f55e0841a5553f8967488a8", "is_reserved": 0}, {"is_disabled": 0, "fusion_lon": 0.0, "fusion_lat": 0.0, "lat": 39.0300135, "type": "electric_bike", "lon": -77.10652933333333, "bike_id": "f0eb442854640dc6b237314343d0c739", "rental_uris": {"android": "https://dc.lft.to/lastmile_qr_scan", "ios": "https://dc.lft.to/lastmile_qr_scan"}, "name": "f0eb442854640dc6b237314343d0c739", "is_reserved": 0}, {"is_disabled": 0, "fusion_lon": 0.0, "fusion_lat": 0.0, "lat": 38.8940535, "type": "electric_scooter", "lon": -77.021846, "bike_id": "4dca4ae6c2b8bb9b2a6876bbdf6f14ca", "rental_uris": {"android": "https://dc.lft.to/lastmile_qr_scan", "ios": "https://dc.lft.to/lastmile_qr_scan"}, "name": "4dca4ae6c2b8bb9b2a6876bbdf6f14ca", "is_reserved": 0}, {"is_disabled": 0, "fusion_lon": 0.0, "fusion_lat": 0.0, "lat": 38.905086, "type": "electric_scooter", "lon": -77.05088666666667, "bike_id": "df0c08b2bbe020e0776cdd73ae93bd30", "rental_uris": {"android": "https://dc.lft.to/lastmile_qr_scan", "ios": "https://dc.lft.to/lastmile_qr_scan"}, "name": "df0c08b2bbe020e0776cdd73ae93bd30", "is_reserved": 0}, {"is_disabled": 0, "fusion_lon": 0.0, "fusion_lat": 0.0, "lat": 38.897321, "type": "electric_scooter", "lon": -77.04668483333333, "bike_id": "504d35b261c613ba570af01aa8212116", "rental_uris": {"android": "https://dc.lft.to/lastmile_qr_scan", "ios": "https://dc.lft.to/lastmile_qr_scan"}, "name": "504d35b261c613ba570af01aa8212116", "is_reserved": 0}, {"is_disabled": 0, "fusion_lon": 0.0, "fusion_lat": 0.0, "lat": 38.89849316666667, "type": "electric_scooter", "lon": -77.03931166666666, "bike_id": "20a291888e0ae325cbb1142db4b79d14", "rental_uris": {"android": "https://dc.lft.to/lastmile_qr_scan", "ios": "https://dc.lft.to/lastmile_qr_scan"}, "name": "20a291888e0ae325cbb1142db4b79d14", "is_reserved": 0}, {"is_disabled": 0, "fusion_lon": 0.0, "fusion_lat": 0.0, "lat": 38.84879516666667, "type": "electric_scooter", "lon": -77.00515383333334, "bike_id": "d8f9b16ee5b14ff4ffd21f6ccb3ebcf4", "rental_uris": {"android": "https://dc.lft.to/lastmile_qr_scan", "ios": "https://dc.lft.to/lastmile_qr_scan"}, "name": "d8f9b16ee5b14ff4ffd21f6ccb3ebcf4", "is_reserved": 0}, {"is_disabled": 0, "fusion_lon": 0.0, "fusion_lat": 0.0, "lat": 38.877759, "type": "electric_scooter", "lon": -77.014374, "bike_id": "7fea8e9812b38c9f70651f82e82c4496", "rental_uris": {"android": "https://dc.lft.to/lastmile_qr_scan", "ios": "https://dc.lft.to/lastmile_qr_scan"}, "name": "7fea8e9812b38c9f70651f82e82c4496", "is_reserved": 0}, {"is_disabled": 0, "fusion_lon": 0.0, "fusion_lat": 0.0, "lat": 38.981301, "type": "electric_bike", "lon": -77.0077005, "bike_id": "82fc23157b650cff77786bc928f99e6d", "rental_uris": {"android": "https://dc.lft.to/lastmile_qr_scan", "ios": "https://dc.lft.to/lastmile_qr_scan"}, "name": "82fc23157b650cff77786bc928f99e6d", "is_reserved": 0}, {"is_disabled": 0, "fusion_lon": 0.0, "fusion_lat": 0.0, "lat": 38.90053066666667, "type": "electric_scooter", "lon": -77.00744716666667, "bike_id": "f4e8fccc457d06482b178ec47c508ed5", "rental_uris": {"android": "https://dc.lft.to/lastmile_qr_scan", "ios": "https://dc.lft.to/lastmile_qr_scan"}, "name": "f4e8fccc457d06482b178ec47c508ed5", "is_reserved": 0}, {"is_disabled": 0, "fusion_lon": 0.0, "fusion_lat": 0.0, "lat": 38.91859866666667, "type": "electric_scooter", "lon": -77.04457316666667, "bike_id": "21fdcb120af7401c701524ca7311b872", "rental_uris": {"android": "https://dc.lft.to/lastmile_qr_scan", "ios": "https://dc.lft.to/lastmile_qr_scan"}, "name": "21fdcb120af7401c701524ca7311b872", "is_reserved": 0}, {"is_disabled": 0, "fusion_lon": 0.0, "fusion_lat": 0.0, "lat": 38.926018166666665, "type": "electric_scooter", "lon": -77.0215395, "bike_id": "905dfd93bc952335b31e295acaf3b7a4", "rental_uris": {"android": "https://dc.lft.to/lastmile_qr_scan", "ios": "https://dc.lft.to/lastmile_qr_scan"}, "name": "905dfd93bc952335b31e295acaf3b7a4", "is_reserved": 0}, {"is_disabled": 0, "fusion_lon": 0.0, "fusion_lat": 0.0, "lat": 38.91809416666667, "type": "electric_scooter", "lon": -77.04155883333334, "bike_id": "82e94296912a33aa9642c0890682224e", "rental_uris": {"android": "https://dc.lft.to/lastmile_qr_scan", "ios": "https://dc.lft.to/lastmile_qr_scan"}, "name": "82e94296912a33aa9642c0890682224e", "is_reserved": 0}, {"is_disabled": 0, "fusion_lon": 0.0, "fusion_lat": 0.0, "lat": 38.898763833333334, "type": "electric_scooter", "lon": -76.93186166666666, "bike_id": "cdb859913d19a78d1eca3c9d48319a85", "rental_uris": {"android": "https://dc.lft.to/lastmile_qr_scan", "ios": "https://dc.lft.to/lastmile_qr_scan"}, "name": "cdb859913d19a78d1eca3c9d48319a85", "is_reserved": 0}, {"is_disabled": 0, "fusion_lon": 0.0, "fusion_lat": 0.0, "lat": 38.887278, "type": "electric_scooter", "lon": -77.02831766666667, "bike_id": "e98eabed94a7260b951a9d4af398f96b", "rental_uris": {"android": "https://dc.lft.to/lastmile_qr_scan", "ios": "https://dc.lft.to/lastmile_qr_scan"}, "name": "e98eabed94a7260b951a9d4af398f96b", "is_reserved": 0}, {"is_disabled": 0, "fusion_lon": 0.0, "fusion_lat": 0.0, "lat": 38.910318833333335, "type": "electric_scooter", "lon": -77.04057383333334, "bike_id": "a8fcb231e94898656d4781c588d28fc0", "rental_uris": {"android": "https://dc.lft.to/lastmile_qr_scan", "ios": "https://dc.lft.to/lastmile_qr_scan"}, "name": "a8fcb231e94898656d4781c588d28fc0", "is_reserved": 0}, {"is_disabled": 0, "fusion_lon": 0.0, "fusion_lat": 0.0, "lat": 38.926115, "type": "electric_scooter", "lon": -77.05703133333333, "bike_id": "52c2197f906198ae21ef20269817ad2d", "rental_uris": {"android": "https://dc.lft.to/lastmile_qr_scan", "ios": "https://dc.lft.to/lastmile_qr_scan"}, "name": "52c2197f906198ae21ef20269817ad2d", "is_reserved": 0}, {"is_disabled": 0, "fusion_lon": 0.0, "fusion_lat": 0.0, "lat": 38.95266133333333, "type": "electric_scooter", "lon": -77.06853683333334, "bike_id": "c544f3433e74d40520bbe57c5a470c0b", "rental_uris": {"android": "https://dc.lft.to/lastmile_qr_scan", "ios": "https://dc.lft.to/lastmile_qr_scan"}, "name": "c544f3433e74d40520bbe57c5a470c0b", "is_reserved": 0}, {"is_disabled": 0, "fusion_lon": 0.0, "fusion_lat": 0.0, "lat": 38.887608166666666, "type": "electric_scooter", "lon": -76.956729, "bike_id": "0d6903fae8eb7053b3f2ad067824506b", "rental_uris": {"android": "https://dc.lft.to/lastmile_qr_scan", "ios": "https://dc.lft.to/lastmile_qr_scan"}, "name": "0d6903fae8eb7053b3f2ad067824506b", "is_reserved": 0}, {"is_disabled": 0, "fusion_lon": 0.0, "fusion_lat": 0.0, "lat": 38.90416916666667, "type": "electric_scooter", "lon": -76.98511133333334, "bike_id": "5ed49ec412000177f88f921c397df2c3", "rental_uris": {"android": "https://dc.lft.to/lastmile_qr_scan", "ios": "https://dc.lft.to/lastmile_qr_scan"}, "name": "5ed49ec412000177f88f921c397df2c3", "is_reserved": 0}, {"is_disabled": 0, "fusion_lon": 0.0, "fusion_lat": 0.0, "lat": 38.959582833333336, "type": "electric_bike", "lon": -76.9815915, "bike_id": "45931287f53a266f5a2990510ac51f1d", "rental_uris": {"android": "https://dc.lft.to/lastmile_qr_scan", "ios": "https://dc.lft.to/lastmile_qr_scan"}, "name": "45931287f53a266f5a2990510ac51f1d", "is_reserved": 0}, {"is_disabled": 0, "fusion_lon": 0.0, "fusion_lat": 0.0, "lat": 38.900308, "type": "electric_scooter", "lon": -76.998258, "bike_id": "f5001fba45507db68da029996ff9cacd", "rental_uris": {"android": "https://dc.lft.to/lastmile_qr_scan", "ios": "https://dc.lft.to/lastmile_qr_scan"}, "name": "f5001fba45507db68da029996ff9cacd", "is_reserved": 0}, {"is_disabled": 0, "fusion_lon": 0.0, "fusion_lat": 0.0, "lat": 38.9025895, "type": "electric_scooter", "lon": -77.01966833333333, "bike_id": "5dbcc249fe59fc0dfae06a75f77c9505", "rental_uris": {"android": "https://dc.lft.to/lastmile_qr_scan", "ios": "https://dc.lft.to/lastmile_qr_scan"}, "name": "5dbcc249fe59fc0dfae06a75f77c9505", "is_reserved": 0}, {"is_disabled": 0, "fusion_lon": 0.0, "fusion_lat": 0.0, "lat": 38.918129666666665, "type": "electric_scooter", "lon": -77.024753, "bike_id": "8f96f09dc6f4020f3c3c83da22a1b9ff", "rental_uris": {"android": "https://dc.lft.to/lastmile_qr_scan", "ios": "https://dc.lft.to/lastmile_qr_scan"}, "name": "8f96f09dc6f4020f3c3c83da22a1b9ff", "is_reserved": 0}, {"is_disabled": 0, "fusion_lon": 0.0, "fusion_lat": 0.0, "lat": 38.876328, "type": "electric_scooter", "lon": -77.012529, "bike_id": "f0ecf927cfd73df32db9b46bf1a3eff7", "rental_uris": {"android": "https://dc.lft.to/lastmile_qr_scan", "ios": "https://dc.lft.to/lastmile_qr_scan"}, "name": "f0ecf927cfd73df32db9b46bf1a3eff7", "is_reserved": 0}, {"is_disabled": 0, "fusion_lon": 0.0, "fusion_lat": 0.0, "lat": 38.930961, "type": "electric_scooter", "lon": -77.02472633333333, "bike_id": "c8e1ca3ac0ca6fc4fd895dc9ee2bddbf", "rental_uris": {"android": "https://dc.lft.to/lastmile_qr_scan", "ios": "https://dc.lft.to/lastmile_qr_scan"}, "name": "c8e1ca3ac0ca6fc4fd895dc9ee2bddbf", "is_reserved": 0}, {"is_disabled": 0, "fusion_lon": 0.0, "fusion_lat": 0.0, "lat": 38.932390166666664, "type": "electric_scooter", "lon": -77.03412983333334, "bike_id": "0e26b39543bb74bc22f5e31fe532d80a", "rental_uris": {"android": "https://dc.lft.to/lastmile_qr_scan", "ios": "https://dc.lft.to/lastmile_qr_scan"}, "name": "0e26b39543bb74bc22f5e31fe532d80a", "is_reserved": 0}, {"is_disabled": 0, "fusion_lon": 0.0, "fusion_lat": 0.0, "lat": 38.946217833333336, "type": "electric_bike", "lon": -76.93409116666666, "bike_id": "edc4aaf603232c64019c569c5dab61ec", "rental_uris": {"android": "https://dc.lft.to/lastmile_qr_scan", "ios": "https://dc.lft.to/lastmile_qr_scan"}, "name": "edc4aaf603232c64019c569c5dab61ec", "is_reserved": 0}, {"is_disabled": 0, "fusion_lon": 0.0, "fusion_lat": 0.0, "lat": 38.93151533333333, "type": "electric_scooter", "lon": -77.04368683333334, "bike_id": "4976eca654b9af0cccbe2142e2cc5cf1", "rental_uris": {"android": "https://dc.lft.to/lastmile_qr_scan", "ios": "https://dc.lft.to/lastmile_qr_scan"}, "name": "4976eca654b9af0cccbe2142e2cc5cf1", "is_reserved": 0}, {"is_disabled": 0, "fusion_lon": 0.0, "fusion_lat": 0.0, "lat": 38.918835333333334, "type": "electric_scooter", "lon": -77.0417195, "bike_id": "d55a2bbe6d387cb1b4f0a7d40d1f6ee7", "rental_uris": {"android": "https://dc.lft.to/lastmile_qr_scan", "ios": "https://dc.lft.to/lastmile_qr_scan"}, "name": "d55a2bbe6d387cb1b4f0a7d40d1f6ee7", "is_reserved": 0}, {"is_disabled": 0, "fusion_lon": 0.0, "fusion_lat": 0.0, "lat": 38.909562, "type": "electric_scooter", "lon": -77.0317365, "bike_id": "88f1656a97e2551987c3927bf276e5ab", "rental_uris": {"android": "https://dc.lft.to/lastmile_qr_scan", "ios": "https://dc.lft.to/lastmile_qr_scan"}, "name": "88f1656a97e2551987c3927bf276e5ab", "is_reserved": 0}, {"is_disabled": 0, "fusion_lon": 0.0, "fusion_lat": 0.0, "lat": 38.903075666666666, "type": "electric_scooter", "lon": -77.023668, "bike_id": "26f9b193ddcdc5cad3caa9ff98b7dc34", "rental_uris": {"android": "https://dc.lft.to/lastmile_qr_scan", "ios": "https://dc.lft.to/lastmile_qr_scan"}, "name": "26f9b193ddcdc5cad3caa9ff98b7dc34", "is_reserved": 0}, {"is_disabled": 0, "fusion_lon": 0.0, "fusion_lat": 0.0, "lat": 38.90444933333333, "type": "electric_scooter", "lon": -77.03837316666667, "bike_id": "2f8891ea7f1884d4020e15c40c3d2ed5", "rental_uris": {"android": "https://dc.lft.to/lastmile_qr_scan", "ios": "https://dc.lft.to/lastmile_qr_scan"}, "name": "2f8891ea7f1884d4020e15c40c3d2ed5", "is_reserved": 0}, {"is_disabled": 0, "fusion_lon": 0.0, "fusion_lat": 0.0, "lat": 38.9170145, "type": "electric_scooter", "lon": -77.04011266666667, "bike_id": "a2fb5e052fc5d898ebe219b2be6825b0", "rental_uris": {"android": "https://dc.lft.to/lastmile_qr_scan", "ios": "https://dc.lft.to/lastmile_qr_scan"}, "name": "a2fb5e052fc5d898ebe219b2be6825b0", "is_reserved": 0}, {"is_disabled": 0, "fusion_lon": 0.0, "fusion_lat": 0.0, "lat": 38.90568566666666, "type": "electric_scooter", "lon": -77.023753, "bike_id": "461f9dca741fd39323e65dce19f77ada", "rental_uris": {"android": "https://dc.lft.to/lastmile_qr_scan", "ios": "https://dc.lft.to/lastmile_qr_scan"}, "name": "461f9dca741fd39323e65dce19f77ada", "is_reserved": 0}, {"is_disabled": 0, "fusion_lon": 0.0, "fusion_lat": 0.0, "lat": 38.918099833333336, "type": "electric_scooter", "lon": -77.03179833333333, "bike_id": "40ed1abee2739b9d0706bff0a2e31a03", "rental_uris": {"android": "https://dc.lft.to/lastmile_qr_scan", "ios": "https://dc.lft.to/lastmile_qr_scan"}, "name": "40ed1abee2739b9d0706bff0a2e31a03", "is_reserved": 0}, {"is_disabled": 0, "fusion_lon": 0.0, "fusion_lat": 0.0, "lat": 38.91693333333333, "type": "electric_scooter", "lon": -77.03389066666666, "bike_id": "d2ccb04bbb7e2f13620315285d7bfb6d", "rental_uris": {"android": "https://dc.lft.to/lastmile_qr_scan", "ios": "https://dc.lft.to/lastmile_qr_scan"}, "name": "d2ccb04bbb7e2f13620315285d7bfb6d", "is_reserved": 0}, {"is_disabled": 0, "fusion_lon": 0.0, "fusion_lat": 0.0, "lat": 38.93713016666667, "type": "electric_scooter", "lon": -77.0326275, "bike_id": "04af169260045d239b73e61d09425038", "rental_uris": {"android": "https://dc.lft.to/lastmile_qr_scan", "ios": "https://dc.lft.to/lastmile_qr_scan"}, "name": "04af169260045d239b73e61d09425038", "is_reserved": 0}, {"is_disabled": 0, "fusion_lon": 0.0, "fusion_lat": 0.0, "lat": 38.8671155, "type": "electric_scooter", "lon": -76.98729666666667, "bike_id": "7a4de907da51eba7d4d91a4e1187355e", "rental_uris": {"android": "https://dc.lft.to/lastmile_qr_scan", "ios": "https://dc.lft.to/lastmile_qr_scan"}, "name": "7a4de907da51eba7d4d91a4e1187355e", "is_reserved": 0}, {"is_disabled": 0, "fusion_lon": 0.0, "fusion_lat": 0.0, "lat": 38.902528, "type": "electric_scooter", "lon": -77.02152466666666, "bike_id": "a64a632880e0cec8094e38117245fc2b", "rental_uris": {"android": "https://dc.lft.to/lastmile_qr_scan", "ios": "https://dc.lft.to/lastmile_qr_scan"}, "name": "a64a632880e0cec8094e38117245fc2b", "is_reserved": 0}, {"is_disabled": 0, "fusion_lon": 0.0, "fusion_lat": 0.0, "lat": 38.911009166666666, "type": "electric_scooter", "lon": -77.04489883333333, "bike_id": "7d845049fac4a1085217461c9aa8bc7d", "rental_uris": {"android": "https://dc.lft.to/lastmile_qr_scan", "ios": "https://dc.lft.to/lastmile_qr_scan"}, "name": "7d845049fac4a1085217461c9aa8bc7d", "is_reserved": 0}, {"is_disabled": 0, "fusion_lon": 0.0, "fusion_lat": 0.0, "lat": 38.93911683333333, "type": "electric_scooter", "lon": -77.02473316666666, "bike_id": "447abfa7502c0029619c452d4fe5cc95", "rental_uris": {"android": "https://dc.lft.to/lastmile_qr_scan", "ios": "https://dc.lft.to/lastmile_qr_scan"}, "name": "447abfa7502c0029619c452d4fe5cc95", "is_reserved": 0}, {"is_disabled": 0, "fusion_lon": 0.0, "fusion_lat": 0.0, "lat": 38.90242333333333, "type": "electric_scooter", "lon": -77.03102266666667, "bike_id": "7c9e19d12bb01a7027415ef903c37482", "rental_uris": {"android": "https://dc.lft.to/lastmile_qr_scan", "ios": "https://dc.lft.to/lastmile_qr_scan"}, "name": "7c9e19d12bb01a7027415ef903c37482", "is_reserved": 0}, {"is_disabled": 0, "fusion_lon": 0.0, "fusion_lat": 0.0, "lat": 39.003763666666664, "type": "electric_bike", "lon": -77.01292683333334, "bike_id": "3f4c6419d5ba4590505756ee606d3e76", "rental_uris": {"android": "https://dc.lft.to/lastmile_qr_scan", "ios": "https://dc.lft.to/lastmile_qr_scan"}, "name": "3f4c6419d5ba4590505756ee606d3e76", "is_reserved": 0}, {"is_disabled": 0, "fusion_lon": 0.0, "fusion_lat": 0.0, "lat": 38.9245445, "type": "electric_scooter", "lon": -76.99901333333334, "bike_id": "ca0fe9a0d439eb68630978b9c2d1cde7", "rental_uris": {"android": "https://dc.lft.to/lastmile_qr_scan", "ios": "https://dc.lft.to/lastmile_qr_scan"}, "name": "ca0fe9a0d439eb68630978b9c2d1cde7", "is_reserved": 0}, {"is_disabled": 0, "fusion_lon": 0.0, "fusion_lat": 0.0, "lat": 38.89880633333333, "type": "electric_scooter", "lon": -77.04162116666667, "bike_id": "82cadfd254a53bac0c104674a97a3d63", "rental_uris": {"android": "https://dc.lft.to/lastmile_qr_scan", "ios": "https://dc.lft.to/lastmile_qr_scan"}, "name": "82cadfd254a53bac0c104674a97a3d63", "is_reserved": 0}, {"is_disabled": 0, "fusion_lon": 0.0, "fusion_lat": 0.0, "lat": 38.912692666666665, "type": "electric_scooter", "lon": -77.0222345, "bike_id": "a942a31a8e876415b977776d7154d4a4", "rental_uris": {"android": "https://dc.lft.to/lastmile_qr_scan", "ios": "https://dc.lft.to/lastmile_qr_scan"}, "name": "a942a31a8e876415b977776d7154d4a4", "is_reserved": 0}, {"is_disabled": 0, "fusion_lon": 0.0, "fusion_lat": 0.0, "lat": 38.88501933333333, "type": "electric_scooter", "lon": -77.00567416666667, "bike_id": "6842602335c92c90c7115f5636ca3e37", "rental_uris": {"android": "https://dc.lft.to/lastmile_qr_scan", "ios": "https://dc.lft.to/lastmile_qr_scan"}, "name": "6842602335c92c90c7115f5636ca3e37", "is_reserved": 0}, {"is_disabled": 0, "fusion_lon": 0.0, "fusion_lat": 0.0, "lat": 38.90918216666667, "type": "electric_scooter", "lon": -77.01526066666666, "bike_id": "de8b9166d99b9dc1960a9d62490cf596", "rental_uris": {"android": "https://dc.lft.to/lastmile_qr_scan", "ios": "https://dc.lft.to/lastmile_qr_scan"}, "name": "de8b9166d99b9dc1960a9d62490cf596", "is_reserved": 0}, {"is_disabled": 0, "fusion_lon": 0.0, "fusion_lat": 0.0, "lat": 38.9187635, "type": "electric_scooter", "lon": -77.04186633333333, "bike_id": "4d324c7b11f141a0bc7ca7f6cbdc0ee6", "rental_uris": {"android": "https://dc.lft.to/lastmile_qr_scan", "ios": "https://dc.lft.to/lastmile_qr_scan"}, "name": "4d324c7b11f141a0bc7ca7f6cbdc0ee6", "is_reserved": 0}, {"is_disabled": 0, "fusion_lon": 0.0, "fusion_lat": 0.0, "lat": 38.92157916666667, "type": "electric_scooter", "lon": -77.03252416666666, "bike_id": "3011c3aae7b855eec264c98f10e023f1", "rental_uris": {"android": "https://dc.lft.to/lastmile_qr_scan", "ios": "https://dc.lft.to/lastmile_qr_scan"}, "name": "3011c3aae7b855eec264c98f10e023f1", "is_reserved": 0}, {"is_disabled": 0, "fusion_lon": 0.0, "fusion_lat": 0.0, "lat": 38.899113166666666, "type": "electric_scooter", "lon": -76.93366983333334, "bike_id": "db87ce73934fc44b1705058a8a1587a4", "rental_uris": {"android": "https://dc.lft.to/lastmile_qr_scan", "ios": "https://dc.lft.to/lastmile_qr_scan"}, "name": "db87ce73934fc44b1705058a8a1587a4", "is_reserved": 0}, {"is_disabled": 0, "fusion_lon": 0.0, "fusion_lat": 0.0, "lat": 38.937117, "type": "electric_scooter", "lon": -77.03264266666666, "bike_id": "a9ed0eb73ed434f386b1c5246c18ea11", "rental_uris": {"android": "https://dc.lft.to/lastmile_qr_scan", "ios": "https://dc.lft.to/lastmile_qr_scan"}, "name": "a9ed0eb73ed434f386b1c5246c18ea11", "is_reserved": 0}, {"is_disabled": 0, "fusion_lon": 0.0, "fusion_lat": 0.0, "lat": 38.886360333333336, "type": "electric_scooter", "lon": -77.0225215, "bike_id": "67f75604bb6b4716ebb5ccbfb5c0538c", "rental_uris": {"android": "https://dc.lft.to/lastmile_qr_scan", "ios": "https://dc.lft.to/lastmile_qr_scan"}, "name": "67f75604bb6b4716ebb5ccbfb5c0538c", "is_reserved": 0}, {"is_disabled": 0, "fusion_lon": 0.0, "fusion_lat": 0.0, "lat": 38.892582, "type": "electric_scooter", "lon": -76.9415705, "bike_id": "74efc882459d4ffb21394976cfed78c7", "rental_uris": {"android": "https://dc.lft.to/lastmile_qr_scan", "ios": "https://dc.lft.to/lastmile_qr_scan"}, "name": "74efc882459d4ffb21394976cfed78c7", "is_reserved": 0}, {"is_disabled": 0, "fusion_lon": 0.0, "fusion_lat": 0.0, "lat": 38.86503183333333, "type": "electric_scooter", "lon": -76.98998983333334, "bike_id": "81c19943554ce8579da55135019b49a9", "rental_uris": {"android": "https://dc.lft.to/lastmile_qr_scan", "ios": "https://dc.lft.to/lastmile_qr_scan"}, "name": "81c19943554ce8579da55135019b49a9", "is_reserved": 0}, {"is_disabled": 0, "fusion_lon": 0.0, "fusion_lat": 0.0, "lat": 38.91734533333333, "type": "electric_scooter", "lon": -77.03661483333333, "bike_id": "622f27e256c3079ba0b6ebfd933d54e7", "rental_uris": {"android": "https://dc.lft.to/lastmile_qr_scan", "ios": "https://dc.lft.to/lastmile_qr_scan"}, "name": "622f27e256c3079ba0b6ebfd933d54e7", "is_reserved": 0}, {"is_disabled": 0, "fusion_lon": 0.0, "fusion_lat": 0.0, "lat": 38.89793216666666, "type": "electric_scooter", "lon": -76.93049716666667, "bike_id": "ef5afacb58c27a702d6cfe62559b7d01", "rental_uris": {"android": "https://dc.lft.to/lastmile_qr_scan", "ios": "https://dc.lft.to/lastmile_qr_scan"}, "name": "ef5afacb58c27a702d6cfe62559b7d01", "is_reserved": 0}, {"is_disabled": 0, "fusion_lon": 0.0, "fusion_lat": 0.0, "lat": 38.89507066666667, "type": "electric_scooter", "lon": -77.022043, "bike_id": "b90e4e7a008dc9a8efb82a7e80ee368b", "rental_uris": {"android": "https://dc.lft.to/lastmile_qr_scan", "ios": "https://dc.lft.to/lastmile_qr_scan"}, "name": "b90e4e7a008dc9a8efb82a7e80ee368b", "is_reserved": 0}, {"is_disabled": 0, "fusion_lon": 0.0, "fusion_lat": 0.0, "lat": 38.9526635, "type": "electric_bike", "lon": -77.06979533333333, "bike_id": "10ab8ef0598257c7cc0e9f6a71f22f1a", "rental_uris": {"android": "https://dc.lft.to/lastmile_qr_scan", "ios": "https://dc.lft.to/lastmile_qr_scan"}, "name": "10ab8ef0598257c7cc0e9f6a71f22f1a", "is_reserved": 0}, {"is_disabled": 0, "fusion_lon": 0.0, "fusion_lat": 0.0, "lat": 38.89465233333333, "type": "electric_scooter", "lon": -77.0224185, "bike_id": "068802d05962cf35f1474d6edb520639", "rental_uris": {"android": "https://dc.lft.to/lastmile_qr_scan", "ios": "https://dc.lft.to/lastmile_qr_scan"}, "name": "068802d05962cf35f1474d6edb520639", "is_reserved": 0}, {"is_disabled": 0, "fusion_lon": 0.0, "fusion_lat": 0.0, "lat": 38.918412333333336, "type": "electric_scooter", "lon": -77.03203033333334, "bike_id": "1186e92005bf6211dc1a05d2ff7552b0", "rental_uris": {"android": "https://dc.lft.to/lastmile_qr_scan", "ios": "https://dc.lft.to/lastmile_qr_scan"}, "name": "1186e92005bf6211dc1a05d2ff7552b0", "is_reserved": 0}, {"is_disabled": 0, "fusion_lon": 0.0, "fusion_lat": 0.0, "lat": 38.84617466666667, "type": "electric_scooter", "lon": -76.9963035, "bike_id": "af7ca695b348756025b9034981d7fd53", "rental_uris": {"android": "https://dc.lft.to/lastmile_qr_scan", "ios": "https://dc.lft.to/lastmile_qr_scan"}, "name": "af7ca695b348756025b9034981d7fd53", "is_reserved": 0}, {"is_disabled": 0, "fusion_lon": 0.0, "fusion_lat": 0.0, "lat": 38.899421333333336, "type": "electric_scooter", "lon": -77.01499166666666, "bike_id": "304aee9d135787c7bd2e54215dff631e", "rental_uris": {"android": "https://dc.lft.to/lastmile_qr_scan", "ios": "https://dc.lft.to/lastmile_qr_scan"}, "name": "304aee9d135787c7bd2e54215dff631e", "is_reserved": 0}, {"is_disabled": 0, "fusion_lon": 0.0, "fusion_lat": 0.0, "lat": 38.88649516666667, "type": "electric_bike", "lon": -77.16226233333333, "bike_id": "cebe2c0591b00db5fd3ef57bdf96a75f", "rental_uris": {"android": "https://dc.lft.to/lastmile_qr_scan", "ios": "https://dc.lft.to/lastmile_qr_scan"}, "name": "cebe2c0591b00db5fd3ef57bdf96a75f", "is_reserved": 0}, {"is_disabled": 0, "fusion_lon": 0.0, "fusion_lat": 0.0, "lat": 38.909507, "type": "electric_scooter", "lon": -77.02382866666666, "bike_id": "a19cea30a2da6de6af2d41e7c149d85f", "rental_uris": {"android": "https://dc.lft.to/lastmile_qr_scan", "ios": "https://dc.lft.to/lastmile_qr_scan"}, "name": "a19cea30a2da6de6af2d41e7c149d85f", "is_reserved": 0}, {"is_disabled": 0, "fusion_lon": 0.0, "fusion_lat": 0.0, "lat": 38.912197166666665, "type": "electric_scooter", "lon": -77.0317805, "bike_id": "3239bb357bd76f15caebfab747326b87", "rental_uris": {"android": "https://dc.lft.to/lastmile_qr_scan", "ios": "https://dc.lft.to/lastmile_qr_scan"}, "name": "3239bb357bd76f15caebfab747326b87", "is_reserved": 0}, {"is_disabled": 0, "fusion_lon": 0.0, "fusion_lat": 0.0, "lat": 38.8923895, "type": "electric_scooter", "lon": -77.046583, "bike_id": "e3b72341df39ecd5f97757b8f263a93e", "rental_uris": {"android": "https://dc.lft.to/lastmile_qr_scan", "ios": "https://dc.lft.to/lastmile_qr_scan"}, "name": "e3b72341df39ecd5f97757b8f263a93e", "is_reserved": 0}, {"is_disabled": 0, "fusion_lon": 0.0, "fusion_lat": 0.0, "lat": 38.949802, "type": "electric_scooter", "lon": -77.02699733333333, "bike_id": "e8330ebe3f8e7e13dfc1504081e83b1e", "rental_uris": {"android": "https://dc.lft.to/lastmile_qr_scan", "ios": "https://dc.lft.to/lastmile_qr_scan"}, "name": "e8330ebe3f8e7e13dfc1504081e83b1e", "is_reserved": 0}, {"is_disabled": 0, "fusion_lon": 0.0, "fusion_lat": 0.0, "lat": 38.95313616666667, "type": "electric_scooter", "lon": -77.03600116666667, "bike_id": "28b2737d880cc65a97ed73b3c8a43a78", "rental_uris": {"android": "https://dc.lft.to/lastmile_qr_scan", "ios": "https://dc.lft.to/lastmile_qr_scan"}, "name": "28b2737d880cc65a97ed73b3c8a43a78", "is_reserved": 0}, {"is_disabled": 0, "fusion_lon": 0.0, "fusion_lat": 0.0, "lat": 38.9873975, "type": "electric_bike", "lon": -77.02704133333333, "bike_id": "db3ed44747bac4b3eff194e38328e539", "rental_uris": {"android": "https://dc.lft.to/lastmile_qr_scan", "ios": "https://dc.lft.to/lastmile_qr_scan"}, "name": "db3ed44747bac4b3eff194e38328e539", "is_reserved": 0}, {"is_disabled": 0, "fusion_lon": 0.0, "fusion_lat": 0.0, "lat": 38.90766333333333, "type": "electric_scooter", "lon": -77.04486866666667, "bike_id": "1a892799643d983233939a7afc517bb8", "rental_uris": {"android": "https://dc.lft.to/lastmile_qr_scan", "ios": "https://dc.lft.to/lastmile_qr_scan"}, "name": "1a892799643d983233939a7afc517bb8", "is_reserved": 0}, {"is_disabled": 0, "fusion_lon": 0.0, "fusion_lat": 0.0, "lat": 38.918821333333334, "type": "electric_scooter", "lon": -77.04172383333334, "bike_id": "b3b81ebb48fbcd68c18c4d75706ff9ff", "rental_uris": {"android": "https://dc.lft.to/lastmile_qr_scan", "ios": "https://dc.lft.to/lastmile_qr_scan"}, "name": "b3b81ebb48fbcd68c18c4d75706ff9ff", "is_reserved": 0}, {"is_disabled": 0, "fusion_lon": 0.0, "fusion_lat": 0.0, "lat": 38.90008133333333, "type": "electric_scooter", "lon": -76.995987, "bike_id": "b167e79f89c4cf53e4bf653633b18aed", "rental_uris": {"android": "https://dc.lft.to/lastmile_qr_scan", "ios": "https://dc.lft.to/lastmile_qr_scan"}, "name": "b167e79f89c4cf53e4bf653633b18aed", "is_reserved": 0}, {"is_disabled": 0, "fusion_lon": 0.0, "fusion_lat": 0.0, "lat": 38.8319225, "type": "electric_bike", "lon": -77.076818, "bike_id": "021a54065b0a6f8452f8888a0e87d617", "rental_uris": {"android": "https://dc.lft.to/lastmile_qr_scan", "ios": "https://dc.lft.to/lastmile_qr_scan"}, "name": "021a54065b0a6f8452f8888a0e87d617", "is_reserved": 0}, {"is_disabled": 0, "fusion_lon": 0.0, "fusion_lat": 0.0, "lat": 38.89899333333334, "type": "electric_scooter", "lon": -77.04075233333333, "bike_id": "d4bb0fc2932bc1543fea79844d984bba", "rental_uris": {"android": "https://dc.lft.to/lastmile_qr_scan", "ios": "https://dc.lft.to/lastmile_qr_scan"}, "name": "d4bb0fc2932bc1543fea79844d984bba", "is_reserved": 0}, {"is_disabled": 0, "fusion_lon": 0.0, "fusion_lat": 0.0, "lat": 38.9025295, "type": "electric_scooter", "lon": -77.03465933333334, "bike_id": "5bd7a6f05259ea41bef724528054106e", "rental_uris": {"android": "https://dc.lft.to/lastmile_qr_scan", "ios": "https://dc.lft.to/lastmile_qr_scan"}, "name": "5bd7a6f05259ea41bef724528054106e", "is_reserved": 0}, {"is_disabled": 0, "fusion_lon": 0.0, "fusion_lat": 0.0, "lat": 38.955473, "type": "electric_bike", "lon": -76.93546466666666, "bike_id": "dd804391b3e23fcec821c93a22443bcd", "rental_uris": {"android": "https://dc.lft.to/lastmile_qr_scan", "ios": "https://dc.lft.to/lastmile_qr_scan"}, "name": "dd804391b3e23fcec821c93a22443bcd", "is_reserved": 0}, {"is_disabled": 0, "fusion_lon": 0.0, "fusion_lat": 0.0, "lat": 38.913310833333334, "type": "electric_scooter", "lon": -77.04865316666667, "bike_id": "b2e5e20e51c8b3ce73539312c3eeb579", "rental_uris": {"android": "https://dc.lft.to/lastmile_qr_scan", "ios": "https://dc.lft.to/lastmile_qr_scan"}, "name": "b2e5e20e51c8b3ce73539312c3eeb579", "is_reserved": 0}, {"is_disabled": 0, "fusion_lon": 0.0, "fusion_lat": 0.0, "lat": 38.8287475, "type": "electric_bike", "lon": -77.1122055, "bike_id": "6dc5f208d51589d24f2bfeb352a789ad", "rental_uris": {"android": "https://dc.lft.to/lastmile_qr_scan", "ios": "https://dc.lft.to/lastmile_qr_scan"}, "name": "6dc5f208d51589d24f2bfeb352a789ad", "is_reserved": 0}, {"is_disabled": 0, "fusion_lon": 0.0, "fusion_lat": 0.0, "lat": 38.91217233333333, "type": "electric_scooter", "lon": -77.05119616666667, "bike_id": "d7a5360ef7df444bea3e99bf62ca69c2", "rental_uris": {"android": "https://dc.lft.to/lastmile_qr_scan", "ios": "https://dc.lft.to/lastmile_qr_scan"}, "name": "d7a5360ef7df444bea3e99bf62ca69c2", "is_reserved": 0}, {"is_disabled": 0, "fusion_lon": 0.0, "fusion_lat": 0.0, "lat": 38.8331895, "type": "electric_scooter", "lon": -77.000051, "bike_id": "b96c5cfbd1bd58a17e1620bca67fdd59", "rental_uris": {"android": "https://dc.lft.to/lastmile_qr_scan", "ios": "https://dc.lft.to/lastmile_qr_scan"}, "name": "b96c5cfbd1bd58a17e1620bca67fdd59", "is_reserved": 0}, {"is_disabled": 0, "fusion_lon": 0.0, "fusion_lat": 0.0, "lat": 38.925954833333336, "type": "electric_scooter", "lon": -77.05532516666666, "bike_id": "303460ea43f71d3721d37658202c12ec", "rental_uris": {"android": "https://dc.lft.to/lastmile_qr_scan", "ios": "https://dc.lft.to/lastmile_qr_scan"}, "name": "303460ea43f71d3721d37658202c12ec", "is_reserved": 0}, {"is_disabled": 0, "fusion_lon": 0.0, "fusion_lat": 0.0, "lat": 38.88765716666666, "type": "electric_bike", "lon": -77.1225735, "bike_id": "4632ecfe72967e7135553649a76f5843", "rental_uris": {"android": "https://dc.lft.to/lastmile_qr_scan", "ios": "https://dc.lft.to/lastmile_qr_scan"}, "name": "4632ecfe72967e7135553649a76f5843", "is_reserved": 0}, {"is_disabled": 0, "fusion_lon": 0.0, "fusion_lat": 0.0, "lat": 38.916916666666665, "type": "electric_scooter", "lon": -77.0243645, "bike_id": "3b3a10ec1dfd354167b3a988414760cd", "rental_uris": {"android": "https://dc.lft.to/lastmile_qr_scan", "ios": "https://dc.lft.to/lastmile_qr_scan"}, "name": "3b3a10ec1dfd354167b3a988414760cd", "is_reserved": 0}, {"is_disabled": 0, "fusion_lon": 0.0, "fusion_lat": 0.0, "lat": 38.8778575, "type": "electric_scooter", "lon": -76.9940955, "bike_id": "cb6c5cc3ad824958a92711a759f438f7", "rental_uris": {"android": "https://dc.lft.to/lastmile_qr_scan", "ios": "https://dc.lft.to/lastmile_qr_scan"}, "name": "cb6c5cc3ad824958a92711a759f438f7", "is_reserved": 0}, {"is_disabled": 0, "fusion_lon": 0.0, "fusion_lat": 0.0, "lat": 38.862474166666665, "type": "electric_scooter", "lon": -76.99528066666667, "bike_id": "c45048c88ae2eff5a41bcf4b706226d9", "rental_uris": {"android": "https://dc.lft.to/lastmile_qr_scan", "ios": "https://dc.lft.to/lastmile_qr_scan"}, "name": "c45048c88ae2eff5a41bcf4b706226d9", "is_reserved": 0}, {"is_disabled": 0, "fusion_lon": 0.0, "fusion_lat": 0.0, "lat": 38.84290683333333, "type": "electric_scooter", "lon": -76.99947933333334, "bike_id": "3a60846341622d539aa530323b3ad88d", "rental_uris": {"android": "https://dc.lft.to/lastmile_qr_scan", "ios": "https://dc.lft.to/lastmile_qr_scan"}, "name": "3a60846341622d539aa530323b3ad88d", "is_reserved": 0}, {"is_disabled": 0, "fusion_lon": 0.0, "fusion_lat": 0.0, "lat": 38.91918416666667, "type": "electric_scooter", "lon": -77.0318355, "bike_id": "5dd3155e738d1267e68cc7bd0a9e8c33", "rental_uris": {"android": "https://dc.lft.to/lastmile_qr_scan", "ios": "https://dc.lft.to/lastmile_qr_scan"}, "name": "5dd3155e738d1267e68cc7bd0a9e8c33", "is_reserved": 0}, {"is_disabled": 0, "fusion_lon": 0.0, "fusion_lat": 0.0, "lat": 38.895257, "type": "electric_scooter", "lon": -76.94891766666667, "bike_id": "47eddccc99258b9de8ed01278dcc68bb", "rental_uris": {"android": "https://dc.lft.to/lastmile_qr_scan", "ios": "https://dc.lft.to/lastmile_qr_scan"}, "name": "47eddccc99258b9de8ed01278dcc68bb", "is_reserved": 0}, {"is_disabled": 0, "fusion_lon": 0.0, "fusion_lat": 0.0, "lat": 38.90004533333333, "type": "electric_scooter", "lon": -77.00662516666667, "bike_id": "fc205a81933e444ac244360dcb7b9ed3", "rental_uris": {"android": "https://dc.lft.to/lastmile_qr_scan", "ios": "https://dc.lft.to/lastmile_qr_scan"}, "name": "fc205a81933e444ac244360dcb7b9ed3", "is_reserved": 0}, {"is_disabled": 0, "fusion_lon": 0.0, "fusion_lat": 0.0, "lat": 38.8870535, "type": "electric_scooter", "lon": -76.953682, "bike_id": "0b95574e7ec764971528b381d07cb7ee", "rental_uris": {"android": "https://dc.lft.to/lastmile_qr_scan", "ios": "https://dc.lft.to/lastmile_qr_scan"}, "name": "0b95574e7ec764971528b381d07cb7ee", "is_reserved": 0}, {"is_disabled": 0, "fusion_lon": 0.0, "fusion_lat": 0.0, "lat": 38.91734016666667, "type": "electric_scooter", "lon": -77.03657116666666, "bike_id": "2779374f34e52931debf8d08024f8193", "rental_uris": {"android": "https://dc.lft.to/lastmile_qr_scan", "ios": "https://dc.lft.to/lastmile_qr_scan"}, "name": "2779374f34e52931debf8d08024f8193", "is_reserved": 0}, {"is_disabled": 0, "fusion_lon": 0.0, "fusion_lat": 0.0, "lat": 38.91677883333333, "type": "electric_scooter", "lon": -77.026872, "bike_id": "9be09b940a6cfdaf6585ab3012c274d6", "rental_uris": {"android": "https://dc.lft.to/lastmile_qr_scan", "ios": "https://dc.lft.to/lastmile_qr_scan"}, "name": "9be09b940a6cfdaf6585ab3012c274d6", "is_reserved": 0}, {"is_disabled": 0, "fusion_lon": 0.0, "fusion_lat": 0.0, "lat": 38.9043165, "type": "electric_scooter", "lon": -77.02608583333334, "bike_id": "93860e1ee775467d1562725c5e2909f0", "rental_uris": {"android": "https://dc.lft.to/lastmile_qr_scan", "ios": "https://dc.lft.to/lastmile_qr_scan"}, "name": "93860e1ee775467d1562725c5e2909f0", "is_reserved": 0}, {"is_disabled": 0, "fusion_lon": 0.0, "fusion_lat": 0.0, "lat": 38.905249833333336, "type": "electric_scooter", "lon": -77.05334833333333, "bike_id": "de38b4194fa311462e609485a7aefd48", "rental_uris": {"android": "https://dc.lft.to/lastmile_qr_scan", "ios": "https://dc.lft.to/lastmile_qr_scan"}, "name": "de38b4194fa311462e609485a7aefd48", "is_reserved": 0}, {"is_disabled": 0, "fusion_lon": 0.0, "fusion_lat": 0.0, "lat": 38.92966666666667, "type": "electric_scooter", "lon": -77.00533716666666, "bike_id": "600b65dde5873ccb0cd3b446b7f22ade", "rental_uris": {"android": "https://dc.lft.to/lastmile_qr_scan", "ios": "https://dc.lft.to/lastmile_qr_scan"}, "name": "600b65dde5873ccb0cd3b446b7f22ade", "is_reserved": 0}, {"is_disabled": 0, "fusion_lon": 0.0, "fusion_lat": 0.0, "lat": 38.90107033333334, "type": "electric_scooter", "lon": -77.027909, "bike_id": "eeb2a097cd75f95ff275322c5c1e1cc5", "rental_uris": {"android": "https://dc.lft.to/lastmile_qr_scan", "ios": "https://dc.lft.to/lastmile_qr_scan"}, "name": "eeb2a097cd75f95ff275322c5c1e1cc5", "is_reserved": 0}, {"is_disabled": 0, "fusion_lon": 0.0, "fusion_lat": 0.0, "lat": 39.058118666666665, "type": "electric_bike", "lon": -77.12625633333333, "bike_id": "bdddb44fa66a2b165a279b5444abb9de", "rental_uris": {"android": "https://dc.lft.to/lastmile_qr_scan", "ios": "https://dc.lft.to/lastmile_qr_scan"}, "name": "bdddb44fa66a2b165a279b5444abb9de", "is_reserved": 0}, {"is_disabled": 0, "fusion_lon": 0.0, "fusion_lat": 0.0, "lat": 38.9177155, "type": "electric_scooter", "lon": -77.01500133333333, "bike_id": "3ca37365457cca75c75b4b66fddfe673", "rental_uris": {"android": "https://dc.lft.to/lastmile_qr_scan", "ios": "https://dc.lft.to/lastmile_qr_scan"}, "name": "3ca37365457cca75c75b4b66fddfe673", "is_reserved": 0}, {"is_disabled": 0, "fusion_lon": 0.0, "fusion_lat": 0.0, "lat": 38.893538, "type": "electric_scooter", "lon": -77.0033235, "bike_id": "0910436e443154ed5317d0e0ec8acbdd", "rental_uris": {"android": "https://dc.lft.to/lastmile_qr_scan", "ios": "https://dc.lft.to/lastmile_qr_scan"}, "name": "0910436e443154ed5317d0e0ec8acbdd", "is_reserved": 0}, {"is_disabled": 0, "fusion_lon": 0.0, "fusion_lat": 0.0, "lat": 38.8922185, "type": "electric_scooter", "lon": -77.0319045, "bike_id": "9aa22e5777d05d332c38dba9241d5823", "rental_uris": {"android": "https://dc.lft.to/lastmile_qr_scan", "ios": "https://dc.lft.to/lastmile_qr_scan"}, "name": "9aa22e5777d05d332c38dba9241d5823", "is_reserved": 0}, {"is_disabled": 0, "fusion_lon": 0.0, "fusion_lat": 0.0, "lat": 38.92809183333333, "type": "electric_scooter", "lon": -77.02346133333333, "bike_id": "a1851e2776546b621a5d8f96f87eb7d3", "rental_uris": {"android": "https://dc.lft.to/lastmile_qr_scan", "ios": "https://dc.lft.to/lastmile_qr_scan"}, "name": "a1851e2776546b621a5d8f96f87eb7d3", "is_reserved": 0}, {"is_disabled": 0, "fusion_lon": 0.0, "fusion_lat": 0.0, "lat": 38.905492333333335, "type": "electric_scooter", "lon": -77.034757, "bike_id": "72d28f7faba6243e92e475df0fe541b1", "rental_uris": {"android": "https://dc.lft.to/lastmile_qr_scan", "ios": "https://dc.lft.to/lastmile_qr_scan"}, "name": "72d28f7faba6243e92e475df0fe541b1", "is_reserved": 0}, {"is_disabled": 0, "fusion_lon": 0.0, "fusion_lat": 0.0, "lat": 38.898217833333334, "type": "electric_scooter", "lon": -77.02925433333333, "bike_id": "9251fd624b04441f42733c27d9da7213", "rental_uris": {"android": "https://dc.lft.to/lastmile_qr_scan", "ios": "https://dc.lft.to/lastmile_qr_scan"}, "name": "9251fd624b04441f42733c27d9da7213", "is_reserved": 0}, {"is_disabled": 0, "fusion_lon": 0.0, "fusion_lat": 0.0, "lat": 38.896102666666664, "type": "electric_scooter", "lon": -77.01079133333333, "bike_id": "9b1309e5d34351c714087114b98bb4ba", "rental_uris": {"android": "https://dc.lft.to/lastmile_qr_scan", "ios": "https://dc.lft.to/lastmile_qr_scan"}, "name": "9b1309e5d34351c714087114b98bb4ba", "is_reserved": 0}, {"is_disabled": 0, "fusion_lon": 0.0, "fusion_lat": 0.0, "lat": 38.85789466666667, "type": "electric_bike", "lon": -77.0996075, "bike_id": "d3565bdbcb42e571024b8a10b1a59ba6", "rental_uris": {"android": "https://dc.lft.to/lastmile_qr_scan", "ios": "https://dc.lft.to/lastmile_qr_scan"}, "name": "d3565bdbcb42e571024b8a10b1a59ba6", "is_reserved": 0}, {"is_disabled": 0, "fusion_lon": 0.0, "fusion_lat": 0.0, "lat": 38.93493466666666, "type": "electric_scooter", "lon": -77.02413566666667, "bike_id": "f819cfba73f40d2c22a9a9619756fbc2", "rental_uris": {"android": "https://dc.lft.to/lastmile_qr_scan", "ios": "https://dc.lft.to/lastmile_qr_scan"}, "name": "f819cfba73f40d2c22a9a9619756fbc2", "is_reserved": 0}, {"is_disabled": 0, "fusion_lon": 0.0, "fusion_lat": 0.0, "lat": 38.90198916666667, "type": "electric_scooter", "lon": -77.06121333333333, "bike_id": "16b3770ad6493e1812451a8457c4c08c", "rental_uris": {"android": "https://dc.lft.to/lastmile_qr_scan", "ios": "https://dc.lft.to/lastmile_qr_scan"}, "name": "16b3770ad6493e1812451a8457c4c08c", "is_reserved": 0}, {"is_disabled": 0, "fusion_lon": 0.0, "fusion_lat": 0.0, "lat": 38.9134725, "type": "electric_scooter", "lon": -77.03255466666667, "bike_id": "c4df9073b69aceff61682965ba4c1309", "rental_uris": {"android": "https://dc.lft.to/lastmile_qr_scan", "ios": "https://dc.lft.to/lastmile_qr_scan"}, "name": "c4df9073b69aceff61682965ba4c1309", "is_reserved": 0}, {"is_disabled": 0, "fusion_lon": 0.0, "fusion_lat": 0.0, "lat": 38.926555666666665, "type": "electric_scooter", "lon": -77.03709433333333, "bike_id": "cb5c0337ef68b81e3f98f99def80a7e1", "rental_uris": {"android": "https://dc.lft.to/lastmile_qr_scan", "ios": "https://dc.lft.to/lastmile_qr_scan"}, "name": "cb5c0337ef68b81e3f98f99def80a7e1", "is_reserved": 0}, {"is_disabled": 0, "fusion_lon": 0.0, "fusion_lat": 0.0, "lat": 38.90436733333333, "type": "electric_scooter", "lon": -77.04353983333333, "bike_id": "0d31a22de3626242fe8c85ce133bee15", "rental_uris": {"android": "https://dc.lft.to/lastmile_qr_scan", "ios": "https://dc.lft.to/lastmile_qr_scan"}, "name": "0d31a22de3626242fe8c85ce133bee15", "is_reserved": 0}, {"is_disabled": 0, "fusion_lon": 0.0, "fusion_lat": 0.0, "lat": 38.9084125, "type": "electric_scooter", "lon": -77.03443633333333, "bike_id": "77f820d18763e1fbcaa7f866342a16dc", "rental_uris": {"android": "https://dc.lft.to/lastmile_qr_scan", "ios": "https://dc.lft.to/lastmile_qr_scan"}, "name": "77f820d18763e1fbcaa7f866342a16dc", "is_reserved": 0}, {"is_disabled": 0, "fusion_lon": 0.0, "fusion_lat": 0.0, "lat": 38.90177466666667, "type": "electric_scooter", "lon": -77.01835383333334, "bike_id": "d97bb9808cd82cd3cafc5e2bb5075fb2", "rental_uris": {"android": "https://dc.lft.to/lastmile_qr_scan", "ios": "https://dc.lft.to/lastmile_qr_scan"}, "name": "d97bb9808cd82cd3cafc5e2bb5075fb2", "is_reserved": 0}, {"is_disabled": 0, "fusion_lon": 0.0, "fusion_lat": 0.0, "lat": 38.89823066666666, "type": "electric_scooter", "lon": -77.03177866666667, "bike_id": "032af9ed49bc4c4f6c8e4da630e087d4", "rental_uris": {"android": "https://dc.lft.to/lastmile_qr_scan", "ios": "https://dc.lft.to/lastmile_qr_scan"}, "name": "032af9ed49bc4c4f6c8e4da630e087d4", "is_reserved": 0}, {"is_disabled": 0, "fusion_lon": 0.0, "fusion_lat": 0.0, "lat": 38.921462, "type": "electric_scooter", "lon": -77.03863816666667, "bike_id": "974e44e268deca652650ab02547baf30", "rental_uris": {"android": "https://dc.lft.to/lastmile_qr_scan", "ios": "https://dc.lft.to/lastmile_qr_scan"}, "name": "974e44e268deca652650ab02547baf30", "is_reserved": 0}, {"is_disabled": 0, "fusion_lon": 0.0, "fusion_lat": 0.0, "lat": 38.947522166666666, "type": "electric_scooter", "lon": -77.02978316666666, "bike_id": "1498074f6ac005a2e19408cd9934b6ee", "rental_uris": {"android": "https://dc.lft.to/lastmile_qr_scan", "ios": "https://dc.lft.to/lastmile_qr_scan"}, "name": "1498074f6ac005a2e19408cd9934b6ee", "is_reserved": 0}, {"is_disabled": 0, "fusion_lon": 0.0, "fusion_lat": 0.0, "lat": 38.9311135, "type": "electric_scooter", "lon": -77.012491, "bike_id": "240cb3242da1c7f4f7ca99c32672b695", "rental_uris": {"android": "https://dc.lft.to/lastmile_qr_scan", "ios": "https://dc.lft.to/lastmile_qr_scan"}, "name": "240cb3242da1c7f4f7ca99c32672b695", "is_reserved": 0}, {"is_disabled": 0, "fusion_lon": 0.0, "fusion_lat": 0.0, "lat": 38.926539, "type": "electric_scooter", "lon": -77.0371365, "bike_id": "59547492739a29ad41ccb830e3a658d0", "rental_uris": {"android": "https://dc.lft.to/lastmile_qr_scan", "ios": "https://dc.lft.to/lastmile_qr_scan"}, "name": "59547492739a29ad41ccb830e3a658d0", "is_reserved": 0}, {"is_disabled": 0, "fusion_lon": 0.0, "fusion_lat": 0.0, "lat": 38.90974833333333, "type": "electric_scooter", "lon": -77.031991, "bike_id": "16815aad7154e8aa6a5d3d31c800f860", "rental_uris": {"android": "https://dc.lft.to/lastmile_qr_scan", "ios": "https://dc.lft.to/lastmile_qr_scan"}, "name": "16815aad7154e8aa6a5d3d31c800f860", "is_reserved": 0}, {"is_disabled": 0, "fusion_lon": 0.0, "fusion_lat": 0.0, "lat": 38.86357316666667, "type": "electric_scooter", "lon": -76.99052016666667, "bike_id": "742fcc3ed8cc752b9a304d48257306e4", "rental_uris": {"android": "https://dc.lft.to/lastmile_qr_scan", "ios": "https://dc.lft.to/lastmile_qr_scan"}, "name": "742fcc3ed8cc752b9a304d48257306e4", "is_reserved": 0}, {"is_disabled": 0, "fusion_lon": 0.0, "fusion_lat": 0.0, "lat": 38.90233833333333, "type": "electric_scooter", "lon": -77.0268575, "bike_id": "bab62ec54d6c532525d461fd16f12871", "rental_uris": {"android": "https://dc.lft.to/lastmile_qr_scan", "ios": "https://dc.lft.to/lastmile_qr_scan"}, "name": "bab62ec54d6c532525d461fd16f12871", "is_reserved": 0}, {"is_disabled": 0, "fusion_lon": 0.0, "fusion_lat": 0.0, "lat": 38.9044605, "type": "electric_scooter", "lon": -77.043565, "bike_id": "9d9de3ed48e5836d18dfe35addc6d734", "rental_uris": {"android": "https://dc.lft.to/lastmile_qr_scan", "ios": "https://dc.lft.to/lastmile_qr_scan"}, "name": "9d9de3ed48e5836d18dfe35addc6d734", "is_reserved": 0}, {"is_disabled": 0, "fusion_lon": 0.0, "fusion_lat": 0.0, "lat": 38.899668, "type": "electric_scooter", "lon": -77.01629, "bike_id": "65d28eee26e400e5a9434876ae063607", "rental_uris": {"android": "https://dc.lft.to/lastmile_qr_scan", "ios": "https://dc.lft.to/lastmile_qr_scan"}, "name": "65d28eee26e400e5a9434876ae063607", "is_reserved": 0}, {"is_disabled": 0, "fusion_lon": 0.0, "fusion_lat": 0.0, "lat": 38.8765285, "type": "electric_scooter", "lon": -77.00747333333334, "bike_id": "5c6c2d31d3dee36cbb4c8e61a2d3cdfe", "rental_uris": {"android": "https://dc.lft.to/lastmile_qr_scan", "ios": "https://dc.lft.to/lastmile_qr_scan"}, "name": "5c6c2d31d3dee36cbb4c8e61a2d3cdfe", "is_reserved": 0}, {"is_disabled": 0, "fusion_lon": 0.0, "fusion_lat": 0.0, "lat": 38.9095395, "type": "electric_scooter", "lon": -77.0394795, "bike_id": "14ceeee32e6eb6d09fc0706187b3ff68", "rental_uris": {"android": "https://dc.lft.to/lastmile_qr_scan", "ios": "https://dc.lft.to/lastmile_qr_scan"}, "name": "14ceeee32e6eb6d09fc0706187b3ff68", "is_reserved": 0}, {"is_disabled": 0, "fusion_lon": 0.0, "fusion_lat": 0.0, "lat": 38.92664966666667, "type": "electric_scooter", "lon": -77.0150305, "bike_id": "18018abdd9e26b23b0eb0088cfe210bf", "rental_uris": {"android": "https://dc.lft.to/lastmile_qr_scan", "ios": "https://dc.lft.to/lastmile_qr_scan"}, "name": "18018abdd9e26b23b0eb0088cfe210bf", "is_reserved": 0}, {"is_disabled": 0, "fusion_lon": 0.0, "fusion_lat": 0.0, "lat": 39.05266266666667, "type": "electric_bike", "lon": -77.04382466666667, "bike_id": "479d38b25ceb344b078fdf8d6a098142", "rental_uris": {"android": "https://dc.lft.to/lastmile_qr_scan", "ios": "https://dc.lft.to/lastmile_qr_scan"}, "name": "479d38b25ceb344b078fdf8d6a098142", "is_reserved": 0}, {"is_disabled": 0, "fusion_lon": 0.0, "fusion_lat": 0.0, "lat": 38.93367516666667, "type": "electric_scooter", "lon": -77.05748133333333, "bike_id": "8ef8a8b7a0bd5a7fc6a8b57945337167", "rental_uris": {"android": "https://dc.lft.to/lastmile_qr_scan", "ios": "https://dc.lft.to/lastmile_qr_scan"}, "name": "8ef8a8b7a0bd5a7fc6a8b57945337167", "is_reserved": 0}, {"is_disabled": 0, "fusion_lon": 0.0, "fusion_lat": 0.0, "lat": 38.917000333333334, "type": "electric_bike", "lon": -77.095655, "bike_id": "102e8df2276378db096fcc484e549be5", "rental_uris": {"android": "https://dc.lft.to/lastmile_qr_scan", "ios": "https://dc.lft.to/lastmile_qr_scan"}, "name": "102e8df2276378db096fcc484e549be5", "is_reserved": 0}, {"is_disabled": 0, "fusion_lon": 0.0, "fusion_lat": 0.0, "lat": 38.903647166666666, "type": "electric_scooter", "lon": -77.0383685, "bike_id": "f6482b630a0032fe386e4edc29c927bb", "rental_uris": {"android": "https://dc.lft.to/lastmile_qr_scan", "ios": "https://dc.lft.to/lastmile_qr_scan"}, "name": "f6482b630a0032fe386e4edc29c927bb", "is_reserved": 0}, {"is_disabled": 0, "fusion_lon": 0.0, "fusion_lat": 0.0, "lat": 38.865033333333336, "type": "electric_scooter", "lon": -76.99001833333334, "bike_id": "20fa5335d3f4945acff9d9a81cceee4f", "rental_uris": {"android": "https://dc.lft.to/lastmile_qr_scan", "ios": "https://dc.lft.to/lastmile_qr_scan"}, "name": "20fa5335d3f4945acff9d9a81cceee4f", "is_reserved": 0}, {"is_disabled": 0, "fusion_lon": 0.0, "fusion_lat": 0.0, "lat": 38.928109, "type": "electric_scooter", "lon": -77.02348033333334, "bike_id": "f61b29a82ffe4db9a8b9dc745503ea01", "rental_uris": {"android": "https://dc.lft.to/lastmile_qr_scan", "ios": "https://dc.lft.to/lastmile_qr_scan"}, "name": "f61b29a82ffe4db9a8b9dc745503ea01", "is_reserved": 0}, {"is_disabled": 0, "fusion_lon": 0.0, "fusion_lat": 0.0, "lat": 38.908661, "type": "electric_scooter", "lon": -77.03219416666667, "bike_id": "5b114158f61ca47a847b5dba84dce643", "rental_uris": {"android": "https://dc.lft.to/lastmile_qr_scan", "ios": "https://dc.lft.to/lastmile_qr_scan"}, "name": "5b114158f61ca47a847b5dba84dce643", "is_reserved": 0}, {"is_disabled": 0, "fusion_lon": 0.0, "fusion_lat": 0.0, "lat": 38.948973333333335, "type": "electric_bike", "lon": -76.963685, "bike_id": "2a5d87c1acf46011d4b671ad84c4c8bf", "rental_uris": {"android": "https://dc.lft.to/lastmile_qr_scan", "ios": "https://dc.lft.to/lastmile_qr_scan"}, "name": "2a5d87c1acf46011d4b671ad84c4c8bf", "is_reserved": 0}, {"is_disabled": 0, "fusion_lon": 0.0, "fusion_lat": 0.0, "lat": 38.88740966666667, "type": "electric_scooter", "lon": -77.0142925, "bike_id": "356e00ab3ee690d8043592cb7a1a0cf3", "rental_uris": {"android": "https://dc.lft.to/lastmile_qr_scan", "ios": "https://dc.lft.to/lastmile_qr_scan"}, "name": "356e00ab3ee690d8043592cb7a1a0cf3", "is_reserved": 0}, {"is_disabled": 0, "fusion_lon": 0.0, "fusion_lat": 0.0, "lat": 38.88852266666667, "type": "electric_bike", "lon": -76.97701833333333, "bike_id": "53bb0df9ab7018040ff8009e00ab2e58", "rental_uris": {"android": "https://dc.lft.to/lastmile_qr_scan", "ios": "https://dc.lft.to/lastmile_qr_scan"}, "name": "53bb0df9ab7018040ff8009e00ab2e58", "is_reserved": 0}, {"is_disabled": 0, "fusion_lon": 0.0, "fusion_lat": 0.0, "lat": 38.86669333333333, "type": "electric_scooter", "lon": -76.98880816666667, "bike_id": "270fa61228ce81001cf15e8fd943cfed", "rental_uris": {"android": "https://dc.lft.to/lastmile_qr_scan", "ios": "https://dc.lft.to/lastmile_qr_scan"}, "name": "270fa61228ce81001cf15e8fd943cfed", "is_reserved": 0}, {"is_disabled": 0, "fusion_lon": 0.0, "fusion_lat": 0.0, "lat": 38.928338, "type": "electric_scooter", "lon": -77.0554415, "bike_id": "2efa18dec3c16944d33271831f3b67e1", "rental_uris": {"android": "https://dc.lft.to/lastmile_qr_scan", "ios": "https://dc.lft.to/lastmile_qr_scan"}, "name": "2efa18dec3c16944d33271831f3b67e1", "is_reserved": 0}, {"is_disabled": 0, "fusion_lon": 0.0, "fusion_lat": 0.0, "lat": 38.910368, "type": "electric_scooter", "lon": -77.03795533333333, "bike_id": "ae30186b5acf18261f5fefcb28c4408a", "rental_uris": {"android": "https://dc.lft.to/lastmile_qr_scan", "ios": "https://dc.lft.to/lastmile_qr_scan"}, "name": "ae30186b5acf18261f5fefcb28c4408a", "is_reserved": 0}, {"is_disabled": 0, "fusion_lon": 0.0, "fusion_lat": 0.0, "lat": 38.8922825, "type": "electric_scooter", "lon": -77.00309216666666, "bike_id": "69c1a569d99777c3927a43d7c2c161c8", "rental_uris": {"android": "https://dc.lft.to/lastmile_qr_scan", "ios": "https://dc.lft.to/lastmile_qr_scan"}, "name": "69c1a569d99777c3927a43d7c2c161c8", "is_reserved": 0}, {"is_disabled": 0, "fusion_lon": 0.0, "fusion_lat": 0.0, "lat": 38.86805183333333, "type": "electric_scooter", "lon": -77.01184083333334, "bike_id": "60c5a57129a2e4e3797c9105c9b5973e", "rental_uris": {"android": "https://dc.lft.to/lastmile_qr_scan", "ios": "https://dc.lft.to/lastmile_qr_scan"}, "name": "60c5a57129a2e4e3797c9105c9b5973e", "is_reserved": 0}, {"is_disabled": 0, "fusion_lon": 0.0, "fusion_lat": 0.0, "lat": 38.89846133333333, "type": "electric_scooter", "lon": -77.02181266666666, "bike_id": "7c97a010b71c3af7671a37475ad853ea", "rental_uris": {"android": "https://dc.lft.to/lastmile_qr_scan", "ios": "https://dc.lft.to/lastmile_qr_scan"}, "name": "7c97a010b71c3af7671a37475ad853ea", "is_reserved": 0}, {"is_disabled": 0, "fusion_lon": 0.0, "fusion_lat": 0.0, "lat": 38.91701883333333, "type": "electric_scooter", "lon": -77.034707, "bike_id": "f628ce3f7861b2e6b11f4976f84c4f45", "rental_uris": {"android": "https://dc.lft.to/lastmile_qr_scan", "ios": "https://dc.lft.to/lastmile_qr_scan"}, "name": "f628ce3f7861b2e6b11f4976f84c4f45", "is_reserved": 0}, {"is_disabled": 0, "fusion_lon": 0.0, "fusion_lat": 0.0, "lat": 38.893882166666664, "type": "electric_scooter", "lon": -76.94998683333333, "bike_id": "265d96f3f1f3c1dfb90cd784a5751759", "rental_uris": {"android": "https://dc.lft.to/lastmile_qr_scan", "ios": "https://dc.lft.to/lastmile_qr_scan"}, "name": "265d96f3f1f3c1dfb90cd784a5751759", "is_reserved": 0}, {"is_disabled": 0, "fusion_lon": 0.0, "fusion_lat": 0.0, "lat": 38.89725033333333, "type": "electric_scooter", "lon": -77.047145, "bike_id": "c34633292bd05375c823cfd23cfc787a", "rental_uris": {"android": "https://dc.lft.to/lastmile_qr_scan", "ios": "https://dc.lft.to/lastmile_qr_scan"}, "name": "c34633292bd05375c823cfd23cfc787a", "is_reserved": 0}, {"is_disabled": 0, "fusion_lon": 0.0, "fusion_lat": 0.0, "lat": 39.05455883333333, "type": "electric_bike", "lon": -77.14327733333333, "bike_id": "73ec642a75e5a93727a3ee60d1204110", "rental_uris": {"android": "https://dc.lft.to/lastmile_qr_scan", "ios": "https://dc.lft.to/lastmile_qr_scan"}, "name": "73ec642a75e5a93727a3ee60d1204110", "is_reserved": 0}, {"is_disabled": 0, "fusion_lon": 0.0, "fusion_lat": 0.0, "lat": 38.945862166666664, "type": "electric_bike", "lon": -77.34410433333333, "bike_id": "5d7181955c8fb5a6edad961959f5d6b2", "rental_uris": {"android": "https://dc.lft.to/lastmile_qr_scan", "ios": "https://dc.lft.to/lastmile_qr_scan"}, "name": "5d7181955c8fb5a6edad961959f5d6b2", "is_reserved": 0}, {"is_disabled": 0, "fusion_lon": 0.0, "fusion_lat": 0.0, "lat": 38.928228833333336, "type": "electric_scooter", "lon": -77.02145333333333, "bike_id": "e4d1d0c5cef59ce6842994e3a95e802b", "rental_uris": {"android": "https://dc.lft.to/lastmile_qr_scan", "ios": "https://dc.lft.to/lastmile_qr_scan"}, "name": "e4d1d0c5cef59ce6842994e3a95e802b", "is_reserved": 0}, {"is_disabled": 0, "fusion_lon": 0.0, "fusion_lat": 0.0, "lat": 38.89822483333333, "type": "electric_scooter", "lon": -77.02955466666667, "bike_id": "06858d0e9a02e0cd191f577cee820e02", "rental_uris": {"android": "https://dc.lft.to/lastmile_qr_scan", "ios": "https://dc.lft.to/lastmile_qr_scan"}, "name": "06858d0e9a02e0cd191f577cee820e02", "is_reserved": 0}, {"is_disabled": 0, "fusion_lon": 0.0, "fusion_lat": 0.0, "lat": 38.871134, "type": "electric_scooter", "lon": -77.00768883333333, "bike_id": "24eb6f53505d4155e030dcf6a1c28604", "rental_uris": {"android": "https://dc.lft.to/lastmile_qr_scan", "ios": "https://dc.lft.to/lastmile_qr_scan"}, "name": "24eb6f53505d4155e030dcf6a1c28604", "is_reserved": 0}, {"is_disabled": 0, "fusion_lon": 0.0, "fusion_lat": 0.0, "lat": 38.89978683333333, "type": "electric_scooter", "lon": -77.02181433333334, "bike_id": "6d53c24d60b95bb3bb67031e3d758ab4", "rental_uris": {"android": "https://dc.lft.to/lastmile_qr_scan", "ios": "https://dc.lft.to/lastmile_qr_scan"}, "name": "6d53c24d60b95bb3bb67031e3d758ab4", "is_reserved": 0}, {"is_disabled": 0, "fusion_lon": 0.0, "fusion_lat": 0.0, "lat": 38.870678166666664, "type": "electric_scooter", "lon": -76.97980666666666, "bike_id": "2b927d440e28f5850855fe49ca0dc659", "rental_uris": {"android": "https://dc.lft.to/lastmile_qr_scan", "ios": "https://dc.lft.to/lastmile_qr_scan"}, "name": "2b927d440e28f5850855fe49ca0dc659", "is_reserved": 0}, {"is_disabled": 0, "fusion_lon": 0.0, "fusion_lat": 0.0, "lat": 38.90139816666667, "type": "electric_scooter", "lon": -76.95173866666667, "bike_id": "736e95cbbff1f1a27a22c350518031b8", "rental_uris": {"android": "https://dc.lft.to/lastmile_qr_scan", "ios": "https://dc.lft.to/lastmile_qr_scan"}, "name": "736e95cbbff1f1a27a22c350518031b8", "is_reserved": 0}, {"is_disabled": 0, "fusion_lon": 0.0, "fusion_lat": 0.0, "lat": 38.883075, "type": "electric_scooter", "lon": -77.0163285, "bike_id": "3883349d3f62360d8f5c76cae7c0190c", "rental_uris": {"android": "https://dc.lft.to/lastmile_qr_scan", "ios": "https://dc.lft.to/lastmile_qr_scan"}, "name": "3883349d3f62360d8f5c76cae7c0190c", "is_reserved": 0}, {"is_disabled": 0, "fusion_lon": 0.0, "fusion_lat": 0.0, "lat": 38.88012066666667, "type": "electric_bike", "lon": -76.91598133333333, "bike_id": "0bb6f1f03ea6a29c677cdd80cae6b3a5", "rental_uris": {"android": "https://dc.lft.to/lastmile_qr_scan", "ios": "https://dc.lft.to/lastmile_qr_scan"}, "name": "0bb6f1f03ea6a29c677cdd80cae6b3a5", "is_reserved": 0}, {"is_disabled": 0, "fusion_lon": 0.0, "fusion_lat": 0.0, "lat": 38.99454383333333, "type": "electric_bike", "lon": -76.90817783333334, "bike_id": "15f3f64fd61162240e4b48240c5bf3a6", "rental_uris": {"android": "https://dc.lft.to/lastmile_qr_scan", "ios": "https://dc.lft.to/lastmile_qr_scan"}, "name": "15f3f64fd61162240e4b48240c5bf3a6", "is_reserved": 0}, {"is_disabled": 0, "fusion_lon": 0.0, "fusion_lat": 0.0, "lat": 38.9033105, "type": "electric_scooter", "lon": -76.97589816666667, "bike_id": "1cfe89b72b6b536d1b7882680cbf6fc6", "rental_uris": {"android": "https://dc.lft.to/lastmile_qr_scan", "ios": "https://dc.lft.to/lastmile_qr_scan"}, "name": "1cfe89b72b6b536d1b7882680cbf6fc6", "is_reserved": 0}, {"is_disabled": 0, "fusion_lon": 0.0, "fusion_lat": 0.0, "lat": 38.909816, "type": "electric_scooter", "lon": -77.03398416666667, "bike_id": "00cf81047f5678121fbd17fedbc720b9", "rental_uris": {"android": "https://dc.lft.to/lastmile_qr_scan", "ios": "https://dc.lft.to/lastmile_qr_scan"}, "name": "00cf81047f5678121fbd17fedbc720b9", "is_reserved": 0}, {"is_disabled": 0, "fusion_lon": 0.0, "fusion_lat": 0.0, "lat": 38.901163333333336, "type": "electric_scooter", "lon": -77.03346483333333, "bike_id": "e9cd04a5e33f422f73b45d5f28af7a4f", "rental_uris": {"android": "https://dc.lft.to/lastmile_qr_scan", "ios": "https://dc.lft.to/lastmile_qr_scan"}, "name": "e9cd04a5e33f422f73b45d5f28af7a4f", "is_reserved": 0}, {"is_disabled": 0, "fusion_lon": 0.0, "fusion_lat": 0.0, "lat": 38.873771833333336, "type": "electric_scooter", "lon": -77.00194783333333, "bike_id": "88442e6ae209a870ca83664e422065ce", "rental_uris": {"android": "https://dc.lft.to/lastmile_qr_scan", "ios": "https://dc.lft.to/lastmile_qr_scan"}, "name": "88442e6ae209a870ca83664e422065ce", "is_reserved": 0}, {"is_disabled": 0, "fusion_lon": 0.0, "fusion_lat": 0.0, "lat": 38.887671833333336, "type": "electric_scooter", "lon": -77.015484, "bike_id": "1f466c22216171ae0481bec0c6eb8ceb", "rental_uris": {"android": "https://dc.lft.to/lastmile_qr_scan", "ios": "https://dc.lft.to/lastmile_qr_scan"}, "name": "1f466c22216171ae0481bec0c6eb8ceb", "is_reserved": 0}, {"is_disabled": 0, "fusion_lon": 0.0, "fusion_lat": 0.0, "lat": 38.904449666666665, "type": "electric_scooter", "lon": -77.03454516666666, "bike_id": "93f1fe255cba202679b1d67fa3265779", "rental_uris": {"android": "https://dc.lft.to/lastmile_qr_scan", "ios": "https://dc.lft.to/lastmile_qr_scan"}, "name": "93f1fe255cba202679b1d67fa3265779", "is_reserved": 0}, {"is_disabled": 0, "fusion_lon": 0.0, "fusion_lat": 0.0, "lat": 38.893711, "type": "electric_scooter", "lon": -77.0478905, "bike_id": "bbf0b95cf6a1c7a50999136cb4e73750", "rental_uris": {"android": "https://dc.lft.to/lastmile_qr_scan", "ios": "https://dc.lft.to/lastmile_qr_scan"}, "name": "bbf0b95cf6a1c7a50999136cb4e73750", "is_reserved": 0}, {"is_disabled": 0, "fusion_lon": 0.0, "fusion_lat": 0.0, "lat": 38.909722333333335, "type": "electric_scooter", "lon": -77.03218683333333, "bike_id": "9bdea9bfa6b7bf82fa1a7555a82b0c7f", "rental_uris": {"android": "https://dc.lft.to/lastmile_qr_scan", "ios": "https://dc.lft.to/lastmile_qr_scan"}, "name": "9bdea9bfa6b7bf82fa1a7555a82b0c7f", "is_reserved": 0}, {"is_disabled": 0, "fusion_lon": 0.0, "fusion_lat": 0.0, "lat": 38.863371, "type": "electric_bike", "lon": -76.98717133333334, "bike_id": "90f3cad5d90329f838ce54a0d92c1e49", "rental_uris": {"android": "https://dc.lft.to/lastmile_qr_scan", "ios": "https://dc.lft.to/lastmile_qr_scan"}, "name": "90f3cad5d90329f838ce54a0d92c1e49", "is_reserved": 0}, {"is_disabled": 0, "fusion_lon": 0.0, "fusion_lat": 0.0, "lat": 38.9214135, "type": "electric_scooter", "lon": -77.04361516666667, "bike_id": "907f92e2152ee1f97784dbf9ce657bef", "rental_uris": {"android": "https://dc.lft.to/lastmile_qr_scan", "ios": "https://dc.lft.to/lastmile_qr_scan"}, "name": "907f92e2152ee1f97784dbf9ce657bef", "is_reserved": 0}, {"is_disabled": 0, "fusion_lon": 0.0, "fusion_lat": 0.0, "lat": 38.88139983333333, "type": "electric_scooter", "lon": -76.99160383333333, "bike_id": "1eb8b114e3611701e214aa12dbd19e85", "rental_uris": {"android": "https://dc.lft.to/lastmile_qr_scan", "ios": "https://dc.lft.to/lastmile_qr_scan"}, "name": "1eb8b114e3611701e214aa12dbd19e85", "is_reserved": 0}, {"is_disabled": 0, "fusion_lon": 0.0, "fusion_lat": 0.0, "lat": 38.89962833333333, "type": "electric_scooter", "lon": -77.01629016666666, "bike_id": "fd08c91c366cfcca3fe0b5049555929b", "rental_uris": {"android": "https://dc.lft.to/lastmile_qr_scan", "ios": "https://dc.lft.to/lastmile_qr_scan"}, "name": "fd08c91c366cfcca3fe0b5049555929b", "is_reserved": 0}, {"is_disabled": 0, "fusion_lon": 0.0, "fusion_lat": 0.0, "lat": 38.902322, "type": "electric_scooter", "lon": -77.00204, "bike_id": "6bcaf8d9686db62f0297ff7bf2af05e2", "rental_uris": {"android": "https://dc.lft.to/lastmile_qr_scan", "ios": "https://dc.lft.to/lastmile_qr_scan"}, "name": "6bcaf8d9686db62f0297ff7bf2af05e2", "is_reserved": 0}, {"is_disabled": 0, "fusion_lon": 0.0, "fusion_lat": 0.0, "lat": 38.885708666666666, "type": "electric_scooter", "lon": -77.01546283333333, "bike_id": "f572a933d0df357e871585b364a8ab47", "rental_uris": {"android": "https://dc.lft.to/lastmile_qr_scan", "ios": "https://dc.lft.to/lastmile_qr_scan"}, "name": "f572a933d0df357e871585b364a8ab47", "is_reserved": 0}, {"is_disabled": 0, "fusion_lon": 0.0, "fusion_lat": 0.0, "lat": 38.924686666666666, "type": "electric_scooter", "lon": -77.0306445, "bike_id": "8652fa0317fb43c74a0645f5965168a5", "rental_uris": {"android": "https://dc.lft.to/lastmile_qr_scan", "ios": "https://dc.lft.to/lastmile_qr_scan"}, "name": "8652fa0317fb43c74a0645f5965168a5", "is_reserved": 0}, {"is_disabled": 0, "fusion_lon": 0.0, "fusion_lat": 0.0, "lat": 38.90048516666667, "type": "electric_scooter", "lon": -77.02964133333333, "bike_id": "6b738254d264e9cfb53e761f8a8b449f", "rental_uris": {"android": "https://dc.lft.to/lastmile_qr_scan", "ios": "https://dc.lft.to/lastmile_qr_scan"}, "name": "6b738254d264e9cfb53e761f8a8b449f", "is_reserved": 0}, {"is_disabled": 0, "fusion_lon": 0.0, "fusion_lat": 0.0, "lat": 38.91953, "type": "electric_scooter", "lon": -77.01653733333333, "bike_id": "12a426fc4565d4d6bc9df5104f1680a3", "rental_uris": {"android": "https://dc.lft.to/lastmile_qr_scan", "ios": "https://dc.lft.to/lastmile_qr_scan"}, "name": "12a426fc4565d4d6bc9df5104f1680a3", "is_reserved": 0}, {"is_disabled": 0, "fusion_lon": 0.0, "fusion_lat": 0.0, "lat": 38.9257905, "type": "electric_scooter", "lon": -77.0321125, "bike_id": "ba43e95618e1803e9bf2fb4fbc8b2862", "rental_uris": {"android": "https://dc.lft.to/lastmile_qr_scan", "ios": "https://dc.lft.to/lastmile_qr_scan"}, "name": "ba43e95618e1803e9bf2fb4fbc8b2862", "is_reserved": 0}, {"is_disabled": 0, "fusion_lon": 0.0, "fusion_lat": 0.0, "lat": 38.91512916666667, "type": "electric_scooter", "lon": -77.04606566666666, "bike_id": "a3da11b2c25a8fc82d5f5ab032d7a4a2", "rental_uris": {"android": "https://dc.lft.to/lastmile_qr_scan", "ios": "https://dc.lft.to/lastmile_qr_scan"}, "name": "a3da11b2c25a8fc82d5f5ab032d7a4a2", "is_reserved": 0}, {"is_disabled": 0, "fusion_lon": 0.0, "fusion_lat": 0.0, "lat": 38.893631666666664, "type": "electric_scooter", "lon": -76.94019366666667, "bike_id": "dde1f08ffb60830375a0fd662058f883", "rental_uris": {"android": "https://dc.lft.to/lastmile_qr_scan", "ios": "https://dc.lft.to/lastmile_qr_scan"}, "name": "dde1f08ffb60830375a0fd662058f883", "is_reserved": 0}, {"is_disabled": 0, "fusion_lon": 0.0, "fusion_lat": 0.0, "lat": 38.95778333333333, "type": "electric_bike", "lon": -76.94098783333334, "bike_id": "2eeb33e724601e2c24967454f250510b", "rental_uris": {"android": "https://dc.lft.to/lastmile_qr_scan", "ios": "https://dc.lft.to/lastmile_qr_scan"}, "name": "2eeb33e724601e2c24967454f250510b", "is_reserved": 0}, {"is_disabled": 0, "fusion_lon": 0.0, "fusion_lat": 0.0, "lat": 38.90685533333333, "type": "electric_bike", "lon": -76.95189266666667, "bike_id": "4076aeae3c6fe3ff5c6412c883108d97", "rental_uris": {"android": "https://dc.lft.to/lastmile_qr_scan", "ios": "https://dc.lft.to/lastmile_qr_scan"}, "name": "4076aeae3c6fe3ff5c6412c883108d97", "is_reserved": 0}, {"is_disabled": 0, "fusion_lon": 0.0, "fusion_lat": 0.0, "lat": 38.91009583333334, "type": "electric_scooter", "lon": -76.99395133333333, "bike_id": "3c24b5fd05bc2f6e3a54f54666339de4", "rental_uris": {"android": "https://dc.lft.to/lastmile_qr_scan", "ios": "https://dc.lft.to/lastmile_qr_scan"}, "name": "3c24b5fd05bc2f6e3a54f54666339de4", "is_reserved": 0}, {"is_disabled": 0, "fusion_lon": 0.0, "fusion_lat": 0.0, "lat": 38.87480033333333, "type": "electric_bike", "lon": -76.9652735, "bike_id": "86357d90242d135d1acb6e5781da9882", "rental_uris": {"android": "https://dc.lft.to/lastmile_qr_scan", "ios": "https://dc.lft.to/lastmile_qr_scan"}, "name": "86357d90242d135d1acb6e5781da9882", "is_reserved": 0}, {"is_disabled": 0, "fusion_lon": 0.0, "fusion_lat": 0.0, "lat": 38.921102166666664, "type": "electric_scooter", "lon": -77.04225033333333, "bike_id": "c881230684ec587e30b2a691c35ec071", "rental_uris": {"android": "https://dc.lft.to/lastmile_qr_scan", "ios": "https://dc.lft.to/lastmile_qr_scan"}, "name": "c881230684ec587e30b2a691c35ec071", "is_reserved": 0}, {"is_disabled": 0, "fusion_lon": 0.0, "fusion_lat": 0.0, "lat": 38.9140875, "type": "electric_scooter", "lon": -77.041782, "bike_id": "2b7fb318b3f4b2125c866b652e950353", "rental_uris": {"android": "https://dc.lft.to/lastmile_qr_scan", "ios": "https://dc.lft.to/lastmile_qr_scan"}, "name": "2b7fb318b3f4b2125c866b652e950353", "is_reserved": 0}, {"is_disabled": 0, "fusion_lon": 0.0, "fusion_lat": 0.0, "lat": 38.91012766666667, "type": "electric_scooter", "lon": -76.993882, "bike_id": "f32b62c2d8487a6d33f60c37eead1c09", "rental_uris": {"android": "https://dc.lft.to/lastmile_qr_scan", "ios": "https://dc.lft.to/lastmile_qr_scan"}, "name": "f32b62c2d8487a6d33f60c37eead1c09", "is_reserved": 0}, {"is_disabled": 0, "fusion_lon": 0.0, "fusion_lat": 0.0, "lat": 38.92736816666667, "type": "electric_scooter", "lon": -77.012024, "bike_id": "ddb7b3546a68aec06a80115acabd31d4", "rental_uris": {"android": "https://dc.lft.to/lastmile_qr_scan", "ios": "https://dc.lft.to/lastmile_qr_scan"}, "name": "ddb7b3546a68aec06a80115acabd31d4", "is_reserved": 0}, {"is_disabled": 0, "fusion_lon": 0.0, "fusion_lat": 0.0, "lat": 38.937522333333334, "type": "electric_scooter", "lon": -77.0249745, "bike_id": "2ade352589ced7fe226a4ff06b2f6cc5", "rental_uris": {"android": "https://dc.lft.to/lastmile_qr_scan", "ios": "https://dc.lft.to/lastmile_qr_scan"}, "name": "2ade352589ced7fe226a4ff06b2f6cc5", "is_reserved": 0}, {"is_disabled": 0, "fusion_lon": 0.0, "fusion_lat": 0.0, "lat": 38.8442875, "type": "electric_scooter", "lon": -76.9977925, "bike_id": "55cf1c9d011ab230a537fc0b02c4e336", "rental_uris": {"android": "https://dc.lft.to/lastmile_qr_scan", "ios": "https://dc.lft.to/lastmile_qr_scan"}, "name": "55cf1c9d011ab230a537fc0b02c4e336", "is_reserved": 0}, {"is_disabled": 0, "fusion_lon": 0.0, "fusion_lat": 0.0, "lat": 38.9086685, "type": "electric_scooter", "lon": -77.02689616666666, "bike_id": "89695021a14076e04bb0037635b72193", "rental_uris": {"android": "https://dc.lft.to/lastmile_qr_scan", "ios": "https://dc.lft.to/lastmile_qr_scan"}, "name": "89695021a14076e04bb0037635b72193", "is_reserved": 0}, {"is_disabled": 0, "fusion_lon": 0.0, "fusion_lat": 0.0, "lat": 38.905299, "type": "electric_scooter", "lon": -77.05705183333333, "bike_id": "2ffc9216fb19e8cd58a4ec8890d986b1", "rental_uris": {"android": "https://dc.lft.to/lastmile_qr_scan", "ios": "https://dc.lft.to/lastmile_qr_scan"}, "name": "2ffc9216fb19e8cd58a4ec8890d986b1", "is_reserved": 0}, {"is_disabled": 0, "fusion_lon": 0.0, "fusion_lat": 0.0, "lat": 38.93251166666667, "type": "electric_scooter", "lon": -77.032777, "bike_id": "08d5ca29ea71ce07df6c1f266dbf4122", "rental_uris": {"android": "https://dc.lft.to/lastmile_qr_scan", "ios": "https://dc.lft.to/lastmile_qr_scan"}, "name": "08d5ca29ea71ce07df6c1f266dbf4122", "is_reserved": 0}, {"is_disabled": 0, "fusion_lon": 0.0, "fusion_lat": 0.0, "lat": 38.910394, "type": "electric_scooter", "lon": -77.0439205, "bike_id": "0bb6988f1cde999f68c5cca6c1983f51", "rental_uris": {"android": "https://dc.lft.to/lastmile_qr_scan", "ios": "https://dc.lft.to/lastmile_qr_scan"}, "name": "0bb6988f1cde999f68c5cca6c1983f51", "is_reserved": 0}, {"is_disabled": 0, "fusion_lon": 0.0, "fusion_lat": 0.0, "lat": 38.905244833333334, "type": "electric_scooter", "lon": -77.05095683333333, "bike_id": "6cfcdc1f5efdd2e925aa1fb7d617fb0e", "rental_uris": {"android": "https://dc.lft.to/lastmile_qr_scan", "ios": "https://dc.lft.to/lastmile_qr_scan"}, "name": "6cfcdc1f5efdd2e925aa1fb7d617fb0e", "is_reserved": 0}, {"is_disabled": 0, "fusion_lon": 0.0, "fusion_lat": 0.0, "lat": 38.9802635, "type": "electric_bike", "lon": -76.9291575, "bike_id": "68ed0563d7152f40bb7e0dace746529b", "rental_uris": {"android": "https://dc.lft.to/lastmile_qr_scan", "ios": "https://dc.lft.to/lastmile_qr_scan"}, "name": "68ed0563d7152f40bb7e0dace746529b", "is_reserved": 0}, {"is_disabled": 0, "fusion_lon": 0.0, "fusion_lat": 0.0, "lat": 38.8987585, "type": "electric_scooter", "lon": -76.93187883333333, "bike_id": "d81f5197d6888d093d0e225986714e24", "rental_uris": {"android": "https://dc.lft.to/lastmile_qr_scan", "ios": "https://dc.lft.to/lastmile_qr_scan"}, "name": "d81f5197d6888d093d0e225986714e24", "is_reserved": 0}, {"is_disabled": 0, "fusion_lon": 0.0, "fusion_lat": 0.0, "lat": 38.90674933333333, "type": "electric_scooter", "lon": -77.03759083333334, "bike_id": "35b0cd7591032751d4d0e54c0fb97a40", "rental_uris": {"android": "https://dc.lft.to/lastmile_qr_scan", "ios": "https://dc.lft.to/lastmile_qr_scan"}, "name": "35b0cd7591032751d4d0e54c0fb97a40", "is_reserved": 0}, {"is_disabled": 0, "fusion_lon": 0.0, "fusion_lat": 0.0, "lat": 38.895542166666665, "type": "electric_scooter", "lon": -77.00410816666667, "bike_id": "605c95f6b01e4318c2bf0c7453d99e74", "rental_uris": {"android": "https://dc.lft.to/lastmile_qr_scan", "ios": "https://dc.lft.to/lastmile_qr_scan"}, "name": "605c95f6b01e4318c2bf0c7453d99e74", "is_reserved": 0}, {"is_disabled": 0, "fusion_lon": 0.0, "fusion_lat": 0.0, "lat": 38.915519, "type": "electric_scooter", "lon": -77.0461095, "bike_id": "77084b703643a68d70a9318ad1b3a543", "rental_uris": {"android": "https://dc.lft.to/lastmile_qr_scan", "ios": "https://dc.lft.to/lastmile_qr_scan"}, "name": "77084b703643a68d70a9318ad1b3a543", "is_reserved": 0}, {"is_disabled": 0, "fusion_lon": 0.0, "fusion_lat": 0.0, "lat": 38.90233283333333, "type": "electric_scooter", "lon": -77.0452415, "bike_id": "2370de7ff888b3ccb785f41f613b1670", "rental_uris": {"android": "https://dc.lft.to/lastmile_qr_scan", "ios": "https://dc.lft.to/lastmile_qr_scan"}, "name": "2370de7ff888b3ccb785f41f613b1670", "is_reserved": 0}, {"is_disabled": 0, "fusion_lon": 0.0, "fusion_lat": 0.0, "lat": 38.877433333333336, "type": "electric_scooter", "lon": -77.00059383333334, "bike_id": "1e92e8a38ce479c0a5a7da0d3b15cfd6", "rental_uris": {"android": "https://dc.lft.to/lastmile_qr_scan", "ios": "https://dc.lft.to/lastmile_qr_scan"}, "name": "1e92e8a38ce479c0a5a7da0d3b15cfd6", "is_reserved": 0}, {"is_disabled": 0, "fusion_lon": 0.0, "fusion_lat": 0.0, "lat": 38.912657833333334, "type": "electric_scooter", "lon": -77.04153416666666, "bike_id": "8acb89810c78ebf861cad6bad53ce60f", "rental_uris": {"android": "https://dc.lft.to/lastmile_qr_scan", "ios": "https://dc.lft.to/lastmile_qr_scan"}, "name": "8acb89810c78ebf861cad6bad53ce60f", "is_reserved": 0}, {"is_disabled": 0, "fusion_lon": 0.0, "fusion_lat": 0.0, "lat": 38.907418166666666, "type": "electric_scooter", "lon": -77.03472883333333, "bike_id": "9c5e941330e477740b14ce579ff581bb", "rental_uris": {"android": "https://dc.lft.to/lastmile_qr_scan", "ios": "https://dc.lft.to/lastmile_qr_scan"}, "name": "9c5e941330e477740b14ce579ff581bb", "is_reserved": 0}, {"is_disabled": 0, "fusion_lon": 0.0, "fusion_lat": 0.0, "lat": 38.898409666666666, "type": "electric_scooter", "lon": -76.94634366666666, "bike_id": "40f6707e48d4ab8a3a50de2c6b77eb10", "rental_uris": {"android": "https://dc.lft.to/lastmile_qr_scan", "ios": "https://dc.lft.to/lastmile_qr_scan"}, "name": "40f6707e48d4ab8a3a50de2c6b77eb10", "is_reserved": 0}, {"is_disabled": 0, "fusion_lon": 0.0, "fusion_lat": 0.0, "lat": 38.9157505, "type": "electric_scooter", "lon": -77.0200145, "bike_id": "ac7ef2939d25dbc7043d237841c23f5f", "rental_uris": {"android": "https://dc.lft.to/lastmile_qr_scan", "ios": "https://dc.lft.to/lastmile_qr_scan"}, "name": "ac7ef2939d25dbc7043d237841c23f5f", "is_reserved": 0}, {"is_disabled": 0, "fusion_lon": 0.0, "fusion_lat": 0.0, "lat": 38.920215666666664, "type": "electric_scooter", "lon": -77.03203616666667, "bike_id": "8463700d5987893f7fe7b8fdec73d766", "rental_uris": {"android": "https://dc.lft.to/lastmile_qr_scan", "ios": "https://dc.lft.to/lastmile_qr_scan"}, "name": "8463700d5987893f7fe7b8fdec73d766", "is_reserved": 0}, {"is_disabled": 0, "fusion_lon": 0.0, "fusion_lat": 0.0, "lat": 38.90278983333333, "type": "electric_scooter", "lon": -77.02428333333333, "bike_id": "01edf543733245ad49f386b12693e7bd", "rental_uris": {"android": "https://dc.lft.to/lastmile_qr_scan", "ios": "https://dc.lft.to/lastmile_qr_scan"}, "name": "01edf543733245ad49f386b12693e7bd", "is_reserved": 0}, {"is_disabled": 0, "fusion_lon": 0.0, "fusion_lat": 0.0, "lat": 38.909411, "type": "electric_scooter", "lon": -77.045202, "bike_id": "839f49d8f4761fc6935921aefc417651", "rental_uris": {"android": "https://dc.lft.to/lastmile_qr_scan", "ios": "https://dc.lft.to/lastmile_qr_scan"}, "name": "839f49d8f4761fc6935921aefc417651", "is_reserved": 0}, {"is_disabled": 0, "fusion_lon": 0.0, "fusion_lat": 0.0, "lat": 38.94517366666667, "type": "electric_scooter", "lon": -77.02981033333333, "bike_id": "d110f36d4305f3a3b3f821427a17b612", "rental_uris": {"android": "https://dc.lft.to/lastmile_qr_scan", "ios": "https://dc.lft.to/lastmile_qr_scan"}, "name": "d110f36d4305f3a3b3f821427a17b612", "is_reserved": 0}, {"is_disabled": 0, "fusion_lon": 0.0, "fusion_lat": 0.0, "lat": 38.89833, "type": "electric_scooter", "lon": -77.03132516666666, "bike_id": "9f16e40933ba37e63a43a66e57dcf9c9", "rental_uris": {"android": "https://dc.lft.to/lastmile_qr_scan", "ios": "https://dc.lft.to/lastmile_qr_scan"}, "name": "9f16e40933ba37e63a43a66e57dcf9c9", "is_reserved": 0}, {"is_disabled": 0, "fusion_lon": 0.0, "fusion_lat": 0.0, "lat": 38.90597416666667, "type": "electric_scooter", "lon": -77.063717, "bike_id": "0146efd78929db0e70c1b1f9f7f7fe6d", "rental_uris": {"android": "https://dc.lft.to/lastmile_qr_scan", "ios": "https://dc.lft.to/lastmile_qr_scan"}, "name": "0146efd78929db0e70c1b1f9f7f7fe6d", "is_reserved": 0}, {"is_disabled": 0, "fusion_lon": 0.0, "fusion_lat": 0.0, "lat": 38.9012245, "type": "electric_scooter", "lon": -77.01636333333333, "bike_id": "90053799b88e4d8c084ffa8486b312cb", "rental_uris": {"android": "https://dc.lft.to/lastmile_qr_scan", "ios": "https://dc.lft.to/lastmile_qr_scan"}, "name": "90053799b88e4d8c084ffa8486b312cb", "is_reserved": 0}, {"is_disabled": 0, "fusion_lon": 0.0, "fusion_lat": 0.0, "lat": 38.910114, "type": "electric_scooter", "lon": -77.03643166666667, "bike_id": "7b664cb92aec4b834b2692faf8282e47", "rental_uris": {"android": "https://dc.lft.to/lastmile_qr_scan", "ios": "https://dc.lft.to/lastmile_qr_scan"}, "name": "7b664cb92aec4b834b2692faf8282e47", "is_reserved": 0}, {"is_disabled": 0, "fusion_lon": 0.0, "fusion_lat": 0.0, "lat": 38.862117833333336, "type": "electric_scooter", "lon": -76.994728, "bike_id": "22ace29eff4767f34ead05e52f6d3ccc", "rental_uris": {"android": "https://dc.lft.to/lastmile_qr_scan", "ios": "https://dc.lft.to/lastmile_qr_scan"}, "name": "22ace29eff4767f34ead05e52f6d3ccc", "is_reserved": 0}, {"is_disabled": 0, "fusion_lon": 0.0, "fusion_lat": 0.0, "lat": 38.883704, "type": "electric_scooter", "lon": -76.92371883333334, "bike_id": "4694b5368051b2564c5ce71f08eea1da", "rental_uris": {"android": "https://dc.lft.to/lastmile_qr_scan", "ios": "https://dc.lft.to/lastmile_qr_scan"}, "name": "4694b5368051b2564c5ce71f08eea1da", "is_reserved": 0}, {"is_disabled": 0, "fusion_lon": 0.0, "fusion_lat": 0.0, "lat": 38.902826833333336, "type": "electric_scooter", "lon": -77.03629366666667, "bike_id": "c5dba9d4169d48cc26152afa8fac7415", "rental_uris": {"android": "https://dc.lft.to/lastmile_qr_scan", "ios": "https://dc.lft.to/lastmile_qr_scan"}, "name": "c5dba9d4169d48cc26152afa8fac7415", "is_reserved": 0}, {"is_disabled": 0, "fusion_lon": 0.0, "fusion_lat": 0.0, "lat": 38.905015166666665, "type": "electric_scooter", "lon": -77.0408965, "bike_id": "3a745fe80e8d298d59ddbe04fef6451c", "rental_uris": {"android": "https://dc.lft.to/lastmile_qr_scan", "ios": "https://dc.lft.to/lastmile_qr_scan"}, "name": "3a745fe80e8d298d59ddbe04fef6451c", "is_reserved": 0}, {"is_disabled": 0, "fusion_lon": 0.0, "fusion_lat": 0.0, "lat": 38.92407933333333, "type": "electric_scooter", "lon": -76.997354, "bike_id": "0335ed69da6c6bcf4fd962de16be40a4", "rental_uris": {"android": "https://dc.lft.to/lastmile_qr_scan", "ios": "https://dc.lft.to/lastmile_qr_scan"}, "name": "0335ed69da6c6bcf4fd962de16be40a4", "is_reserved": 0},