{"data": {"bikes": [{"is_disabled": 0, "is_reserved": 0, "fusion_lat": 0.0, "lat": 38.898355333333335, "fusion_lon": 0.0, "rental_uris": {"ios": "https://dc.lft.to/lastmile_qr_scan", "android": "https://dc.lft.to/lastmile_qr_scan"}, "lon": -76.92599333333334, "bike_id": "a8fa8ed91902881433a73759a816cea7", "type": "electric_scooter", "name": "a8fa8ed91902881433a73759a816cea7"}, {"is_disabled": 0, "is_reserved": 0, "fusion_lat": 0.0, "lat": 38.909023833333336, "fusion_lon": 0.0, "rental_uris": {"ios": "https://dc.lft.to/lastmile_qr_scan", "android": "https://dc.lft.to/lastmile_qr_scan"}, "lon": -77.00454383333333, "bike_id": "3a833a54bbe1b5df22482b510ac0a98a", "type": "electric_scooter", "name": "3a833a54bbe1b5df22482b510ac0a98a"}, {"is_disabled": 0, "is_reserved": 0, "fusion_lat": 0.0, "lat": 38.92147966666667, "fusion_lon": 0.0, "rental_uris": {"ios": "https://dc.lft.to/lastmile_qr_scan", "android": "https://dc.lft.to/lastmile_qr_scan"}, "lon": -77.03506983333334, "bike_id": "fce18d4ec0498585071b886ad81489b4", "type": "electric_scooter", "name": "fce18d4ec0498585071b886ad81489b4"}, {"is_disabled": 0, "is_reserved": 0, "fusion_lat": 0.0, "lat": 38.92117783333333, "fusion_lon": 0.0, "rental_uris": {"ios": "https://dc.lft.to/lastmile_qr_scan", "android": "https://dc.lft.to/lastmile_qr_scan"}, "lon": -77.01205466666667, "bike_id": "220e6cc49b1a1367cb6d9ce10e17882c", "type": "electric_scooter", "name": "220e6cc49b1a1367cb6d9ce10e17882c"}, {"is_disabled": 0, "is_reserved": 0, "fusion_lat": 0.0, "lat": 38.91625366666667, "fusion_lon": 0.0, "rental_uris": {"ios": "https://dc.lft.to/lastmile_qr_scan", "android": "https://dc.lft.to/lastmile_qr_scan"}, "lon": -77.03496816666667, "bike_id": "0f24de9f8fb6f74d426a0bf168da1b3a", "type": "electric_scooter", "name": "0f24de9f8fb6f74d426a0bf168da1b3a"}, {"is_disabled": 0, "is_reserved": 0, "fusion_lat": 0.0, "lat": 38.90531433333334, "fusion_lon": 0.0, "rental_uris": {"ios": "https://dc.lft.to/lastmile_qr_scan", "android": "https://dc.lft.to/lastmile_qr_scan"}, "lon": -77.0169495, "bike_id": "0c671787395bf6dead0b4c934ebe0bd1", "type": "electric_scooter", "name": "0c671787395bf6dead0b4c934ebe0bd1"}, {"is_disabled": 0, "is_reserved": 0, "fusion_lat": 0.0, "lat": 38.95687816666667, "fusion_lon": 0.0, "rental_uris": {"ios": "https://dc.lft.to/lastmile_qr_scan", "android": "https://dc.lft.to/lastmile_qr_scan"}, "lon": -77.0221895, "bike_id": "84d5bfb950c15ab36b995becfc833645", "type": "electric_bike", "name": "84d5bfb950c15ab36b995becfc833645"}, {"is_disabled": 0, "is_reserved": 0, "fusion_lat": 0.0, "lat": 38.9387485, "fusion_lon": 0.0, "rental_uris": {"ios": "https://dc.lft.to/lastmile_qr_scan", "android": "https://dc.lft.to/lastmile_qr_scan"}, "lon": -77.03041416666667, "bike_id": "d944616c9af472511ed6a60fba5b5daf", "type": "electric_scooter", "name": "d944616c9af472511ed6a60fba5b5daf"}, {"is_disabled": 0, "is_reserved": 0, "fusion_lat": 0.0, "lat": 38.932909, "fusion_lon": 0.0, "rental_uris": {"ios": "https://dc.lft.to/lastmile_qr_scan", "android": "https://dc.lft.to/lastmile_qr_scan"}, "lon": -77.03541466666667, "bike_id": "381ea553c804e0e60dd409267fdc4d93", "type": "electric_scooter", "name": "381ea553c804e0e60dd409267fdc4d93"}, {"is_disabled": 0, "is_reserved": 0, "fusion_lat": 0.0, "lat": 38.89884683333333, "fusion_lon": 0.0, "rental_uris": {"ios": "https://dc.lft.to/lastmile_qr_scan", "android": "https://dc.lft.to/lastmile_qr_scan"}, "lon": -76.93229716666667, "bike_id": "2b243252e4485f2e9b97a3b81240be7a", "type": "electric_scooter", "name": "2b243252e4485f2e9b97a3b81240be7a"}, {"is_disabled": 0, "is_reserved": 0, "fusion_lat": 0.0, "lat": 38.896812833333335, "fusion_lon": 0.0, "rental_uris": {"ios": "https://dc.lft.to/lastmile_qr_scan", "android": "https://dc.lft.to/lastmile_qr_scan"}, "lon": -77.05110216666667, "bike_id": "c47e7062c69526de93547d9a9d058da6", "type": "electric_scooter", "name": "c47e7062c69526de93547d9a9d058da6"}, {"is_disabled": 0, "is_reserved": 0, "fusion_lat": 0.0, "lat": 38.899528833333335, "fusion_lon": 0.0, "rental_uris": {"ios": "https://dc.lft.to/lastmile_qr_scan", "android": "https://dc.lft.to/lastmile_qr_scan"}, "lon": -77.05268766666667, "bike_id": "b236e4e832f98338f915823e78fd6799", "type": "electric_scooter", "name": "b236e4e832f98338f915823e78fd6799"}, {"is_disabled": 0, "is_reserved": 0, "fusion_lat": 0.0, "lat": 38.888978333333334, "fusion_lon": 0.0, "rental_uris": {"ios": "https://dc.lft.to/lastmile_qr_scan", "android": "https://dc.lft.to/lastmile_qr_scan"}, "lon": -76.98365516666667, "bike_id": "65d44a40ab88e1a4413effd450ff17d2", "type": "electric_scooter", "name": "65d44a40ab88e1a4413effd450ff17d2"}, {"is_disabled": 0, "is_reserved": 0, "fusion_lat": 0.0, "lat": 38.89300983333333, "fusion_lon": 0.0, "rental_uris": {"ios": "https://dc.lft.to/lastmile_qr_scan", "android": "https://dc.lft.to/lastmile_qr_scan"}, "lon": -76.99957066666667, "bike_id": "31d1e95ea4e056e002046abcde652797", "type": "electric_scooter", "name": "31d1e95ea4e056e002046abcde652797"}, {"is_disabled": 0, "is_reserved": 0, "fusion_lat": 0.0, "lat": 38.842568666666665, "fusion_lon": 0.0, "rental_uris": {"ios": "https://dc.lft.to/lastmile_qr_scan", "android": "https://dc.lft.to/lastmile_qr_scan"}, "lon": -76.988329, "bike_id": "d6f89d9c51f69b0614d364794f371aac", "type": "electric_scooter", "name": "d6f89d9c51f69b0614d364794f371aac"}, {"is_disabled": 0, "is_reserved": 0, "fusion_lat": 0.0, "lat": 38.90441283333333, "fusion_lon": 0.0, "rental_uris": {"ios": "https://dc.lft.to/lastmile_qr_scan", "android": "https://dc.lft.to/lastmile_qr_scan"}, "lon": -76.97303883333333, "bike_id": "19312a45d0671439107fc439fc5b2b4c", "type": "electric_scooter", "name": "19312a45d0671439107fc439fc5b2b4c"}, {"is_disabled": 0, "is_reserved": 0, "fusion_lat": 0.0, "lat": 38.876195833333334, "fusion_lon": 0.0, "rental_uris": {"ios": "https://dc.lft.to/lastmile_qr_scan", "android": "https://dc.lft.to/lastmile_qr_scan"}, "lon": -77.01572716666666, "bike_id": "9c2082409bb9a87a91ebc8a0e4b3dfc8", "type": "electric_scooter", "name": "9c2082409bb9a87a91ebc8a0e4b3dfc8"}, {"is_disabled": 0, "is_reserved": 0, "fusion_lat": 0.0, "lat": 38.963558666666664, "fusion_lon": 0.0, "rental_uris": {"ios": "https://dc.lft.to/lastmile_qr_scan", "android": "https://dc.lft.to/lastmile_qr_scan"}, "lon": -77.03435016666667, "bike_id": "3dba0d05b9f1f16524966316d70e2c20", "type": "electric_scooter", "name": "3dba0d05b9f1f16524966316d70e2c20"}, {"is_disabled": 0, "is_reserved": 0, "fusion_lat": 0.0, "lat": 38.903621333333334, "fusion_lon": 0.0, "rental_uris": {"ios": "https://dc.lft.to/lastmile_qr_scan", "android": "https://dc.lft.to/lastmile_qr_scan"}, "lon": -77.05981433333334, "bike_id": "dc6924cea62d6729a9ee5bc7d641671f", "type": "electric_scooter", "name": "dc6924cea62d6729a9ee5bc7d641671f"}, {"is_disabled": 0, "is_reserved": 0, "fusion_lat": 0.0, "lat": 38.917088666666665, "fusion_lon": 0.0, "rental_uris": {"ios": "https://dc.lft.to/lastmile_qr_scan", "android": "https://dc.lft.to/lastmile_qr_scan"}, "lon": -77.034626, "bike_id": "811b9fb342750a17b13c4b9395093ee3", "type": "electric_scooter", "name": "811b9fb342750a17b13c4b9395093ee3"}, {"is_disabled": 0, "is_reserved": 0, "fusion_lat": 0.0, "lat": 38.91774266666667, "fusion_lon": 0.0, "rental_uris": {"ios": "https://dc.lft.to/lastmile_qr_scan", "android": "https://dc.lft.to/lastmile_qr_scan"}, "lon": -77.02318116666666, "bike_id": "bbad6dc9d0feb53beceeacdce8db287f", "type": "electric_scooter", "name": "bbad6dc9d0feb53beceeacdce8db287f"}, {"is_disabled": 0, "is_reserved": 0, "fusion_lat": 0.0, "lat": 38.93194716666667, "fusion_lon": 0.0, "rental_uris": {"ios": "https://dc.lft.to/lastmile_qr_scan", "android": "https://dc.lft.to/lastmile_qr_scan"}, "lon": -77.02350733333333, "bike_id": "2fee71dc7b72ba3f0db551a581e2bc6d", "type": "electric_scooter", "name": "2fee71dc7b72ba3f0db551a581e2bc6d"}, {"is_disabled": 0, "is_reserved": 0, "fusion_lat": 0.0, "lat": 38.91903033333333, "fusion_lon": 0.0, "rental_uris": {"ios": "https://dc.lft.to/lastmile_qr_scan", "android": "https://dc.lft.to/lastmile_qr_scan"}, "lon": -77.01164983333334, "bike_id": "3743182ba7746a3b72f041a383cc5966", "type": "electric_scooter", "name": "3743182ba7746a3b72f041a383cc5966"}, {"is_disabled": 0, "is_reserved": 0, "fusion_lat": 0.0, "lat": 38.896199333333335, "fusion_lon": 0.0, "rental_uris": {"ios": "https://dc.lft.to/lastmile_qr_scan", "android": "https://dc.lft.to/lastmile_qr_scan"}, "lon": -76.90750316666667, "bike_id": "4c26671213a786489aa88a19fd0e6497", "type": "electric_bike", "name": "4c26671213a786489aa88a19fd0e6497"}, {"is_disabled": 0, "is_reserved": 0, "fusion_lat": 0.0, "lat": 38.9225215, "fusion_lon": 0.0, "rental_uris": {"ios": "https://dc.lft.to/lastmile_qr_scan", "android": "https://dc.lft.to/lastmile_qr_scan"}, "lon": -77.03415883333334, "bike_id": "2d1cf8a637a09ffd8016d3843dd3faab", "type": "electric_scooter", "name": "2d1cf8a637a09ffd8016d3843dd3faab"}, {"is_disabled": 0, "is_reserved": 0, "fusion_lat": 0.0, "lat": 38.958786, "fusion_lon": 0.0, "rental_uris": {"ios": "https://dc.lft.to/lastmile_qr_scan", "android": "https://dc.lft.to/lastmile_qr_scan"}, "lon": -77.01403916666666, "bike_id": "1e4eadf3ff45f438aac70be708532c66", "type": "electric_bike", "name": "1e4eadf3ff45f438aac70be708532c66"}, {"is_disabled": 0, "is_reserved": 0, "fusion_lat": 0.0, "lat": 38.9232825, "fusion_lon": 0.0, "rental_uris": {"ios": "https://dc.lft.to/lastmile_qr_scan", "android": "https://dc.lft.to/lastmile_qr_scan"}, "lon": -77.03659883333333, "bike_id": "50058ef62df885bfe4075b39144d1787", "type": "electric_scooter", "name": "50058ef62df885bfe4075b39144d1787"}, {"is_disabled": 0, "is_reserved": 0, "fusion_lat": 0.0, "lat": 38.901635, "fusion_lon": 0.0, "rental_uris": {"ios": "https://dc.lft.to/lastmile_qr_scan", "android": "https://dc.lft.to/lastmile_qr_scan"}, "lon": -77.0532675, "bike_id": "e648b0891dfda049e6ad14a47713812a", "type": "electric_scooter", "name": "e648b0891dfda049e6ad14a47713812a"}, {"is_disabled": 0, "is_reserved": 0, "fusion_lat": 0.0, "lat": 38.9568925, "fusion_lon": 0.0, "rental_uris": {"ios": "https://dc.lft.to/lastmile_qr_scan", "android": "https://dc.lft.to/lastmile_qr_scan"}, "lon": -77.022173, "bike_id": "f76d26ae8dcec809b5b112b41ca7b08e", "type": "electric_scooter", "name": "f76d26ae8dcec809b5b112b41ca7b08e"}, {"is_disabled": 0, "is_reserved": 0, "fusion_lat": 0.0, "lat": 38.878839666666664, "fusion_lon": 0.0, "rental_uris": {"ios": "https://dc.lft.to/lastmile_qr_scan", "android": "https://dc.lft.to/lastmile_qr_scan"}, "lon": -76.96541816666667, "bike_id": "1ae28f9269874dfa918a969d5606f6b0", "type": "electric_scooter", "name": "1ae28f9269874dfa918a969d5606f6b0"}, {"is_disabled": 0, "is_reserved": 0, "fusion_lat": 0.0, "lat": 38.919805, "fusion_lon": 0.0, "rental_uris": {"ios": "https://dc.lft.to/lastmile_qr_scan", "android": "https://dc.lft.to/lastmile_qr_scan"}, "lon": -77.017893, "bike_id": "8cfdc759125365999fdfcd27640f7083", "type": "electric_scooter", "name": "8cfdc759125365999fdfcd27640f7083"}, {"is_disabled": 0, "is_reserved": 0, "fusion_lat": 0.0, "lat": 38.90525933333333, "fusion_lon": 0.0, "rental_uris": {"ios": "https://dc.lft.to/lastmile_qr_scan", "android": "https://dc.lft.to/lastmile_qr_scan"}, "lon": -77.06602216666667, "bike_id": "c5a58384a219c4e329b7fd4d51e71416", "type": "electric_scooter", "name": "c5a58384a219c4e329b7fd4d51e71416"}, {"is_disabled": 0, "is_reserved": 0, "fusion_lat": 0.0, "lat": 38.92831133333333, "fusion_lon": 0.0, "rental_uris": {"ios": "https://dc.lft.to/lastmile_qr_scan", "android": "https://dc.lft.to/lastmile_qr_scan"}, "lon": -77.01413783333334, "bike_id": "47ae41776ed5de245b1704152fafaf05", "type": "electric_scooter", "name": "47ae41776ed5de245b1704152fafaf05"}, {"is_disabled": 0, "is_reserved": 0, "fusion_lat": 0.0, "lat": 38.9328935, "fusion_lon": 0.0, "rental_uris": {"ios": "https://dc.lft.to/lastmile_qr_scan", "android": "https://dc.lft.to/lastmile_qr_scan"}, "lon": -77.0361405, "bike_id": "ff76e702e8378277c4044c2d14684557", "type": "electric_scooter", "name": "ff76e702e8378277c4044c2d14684557"}, {"is_disabled": 0, "is_reserved": 0, "fusion_lat": 0.0, "lat": 38.90948316666667, "fusion_lon": 0.0, "rental_uris": {"ios": "https://dc.lft.to/lastmile_qr_scan", "android": "https://dc.lft.to/lastmile_qr_scan"}, "lon": -77.0225525, "bike_id": "851ccdeae5a04223c67dea12b12672ab", "type": "electric_scooter", "name": "851ccdeae5a04223c67dea12b12672ab"}, {"is_disabled": 0, "is_reserved": 0, "fusion_lat": 0.0, "lat": 38.881305833333336, "fusion_lon": 0.0, "rental_uris": {"ios": "https://dc.lft.to/lastmile_qr_scan", "android": "https://dc.lft.to/lastmile_qr_scan"}, "lon": -77.02261583333333, "bike_id": "29e2112ad3f63611231a6b52d325a458", "type": "electric_scooter", "name": "29e2112ad3f63611231a6b52d325a458"}, {"is_disabled": 0, "is_reserved": 0, "fusion_lat": 0.0, "lat": 38.89980833333333, "fusion_lon": 0.0, "rental_uris": {"ios": "https://dc.lft.to/lastmile_qr_scan", "android": "https://dc.lft.to/lastmile_qr_scan"}, "lon": -77.02942383333334, "bike_id": "9b98f58116b4e0cefe38aa481ad3d2ef", "type": "electric_scooter", "name": "9b98f58116b4e0cefe38aa481ad3d2ef"}, {"is_disabled": 0, "is_reserved": 0, "fusion_lat": 0.0, "lat": 38.882998, "fusion_lon": 0.0, "rental_uris": {"ios": "https://dc.lft.to/lastmile_qr_scan", "android": "https://dc.lft.to/lastmile_qr_scan"}, "lon": -76.94853133333334, "bike_id": "534defec75e563a69c6f35ac5dcb213b", "type": "electric_scooter", "name": "534defec75e563a69c6f35ac5dcb213b"}, {"is_disabled": 0, "is_reserved": 0, "fusion_lat": 0.0, "lat": 38.922191833333336, "fusion_lon": 0.0, "rental_uris": {"ios": "https://dc.lft.to/lastmile_qr_scan", "android": "https://dc.lft.to/lastmile_qr_scan"}, "lon": -77.04237916666666, "bike_id": "f67897b768fb562632c0dcc23edb3392", "type": "electric_scooter", "name": "f67897b768fb562632c0dcc23edb3392"}, {"is_disabled": 0, "is_reserved": 0, "fusion_lat": 0.0, "lat": 38.89244866666667, "fusion_lon": 0.0, "rental_uris": {"ios": "https://dc.lft.to/lastmile_qr_scan", "android": "https://dc.lft.to/lastmile_qr_scan"}, "lon": -76.98538583333334, "bike_id": "7b4cf99547a1ee9b4d7e9735fb0d4c98", "type": "electric_bike", "name": "7b4cf99547a1ee9b4d7e9735fb0d4c98"}, {"is_disabled": 0, "is_reserved": 0, "fusion_lat": 0.0, "lat": 38.970302333333336, "fusion_lon": 0.0, "rental_uris": {"ios": "https://dc.lft.to/lastmile_qr_scan", "android": "https://dc.lft.to/lastmile_qr_scan"}, "lon": -77.02232916666667, "bike_id": "3ed8ddaed74f54b07ba926ea5b7b881f", "type": "electric_bike", "name": "3ed8ddaed74f54b07ba926ea5b7b881f"}, {"is_disabled": 0, "is_reserved": 0, "fusion_lat": 0.0, "lat": 38.9119995, "fusion_lon": 0.0, "rental_uris": {"ios": "https://dc.lft.to/lastmile_qr_scan", "android": "https://dc.lft.to/lastmile_qr_scan"}, "lon": -76.9877, "bike_id": "5c79cafeb4e507905c5e50c843c23470", "type": "electric_scooter", "name": "5c79cafeb4e507905c5e50c843c23470"}, {"is_disabled": 0, "is_reserved": 0, "fusion_lat": 0.0, "lat": 38.916177833333336, "fusion_lon": 0.0, "rental_uris": {"ios": "https://dc.lft.to/lastmile_qr_scan", "android": "https://dc.lft.to/lastmile_qr_scan"}, "lon": -77.00293433333333, "bike_id": "8aecb93f1bdf1880e9b1a1d68299b79a", "type": "electric_bike", "name": "8aecb93f1bdf1880e9b1a1d68299b79a"}, {"is_disabled": 0, "is_reserved": 0, "fusion_lat": 0.0, "lat": 38.841934, "fusion_lon": 0.0, "rental_uris": {"ios": "https://dc.lft.to/lastmile_qr_scan", "android": "https://dc.lft.to/lastmile_qr_scan"}, "lon": -77.0774965, "bike_id": "c32d1b48a717be3ec82ecb4a4db2ab19", "type": "electric_bike", "name": "c32d1b48a717be3ec82ecb4a4db2ab19"}, {"is_disabled": 0, "is_reserved": 0, "fusion_lat": 0.0, "lat": 38.921491333333336, "fusion_lon": 0.0, "rental_uris": {"ios": "https://dc.lft.to/lastmile_qr_scan", "android": "https://dc.lft.to/lastmile_qr_scan"}, "lon": -77.03865416666666, "bike_id": "094c2a9df5390a8ac7409ef5a09208a6", "type": "electric_scooter", "name": "094c2a9df5390a8ac7409ef5a09208a6"}, {"is_disabled": 0, "is_reserved": 0, "fusion_lat": 0.0, "lat": 38.90028866666667, "fusion_lon": 0.0, "rental_uris": {"ios": "https://dc.lft.to/lastmile_qr_scan", "android": "https://dc.lft.to/lastmile_qr_scan"}, "lon": -76.9987055, "bike_id": "526139b5763ecb74bfbe47ec364be4bd", "type": "electric_scooter", "name": "526139b5763ecb74bfbe47ec364be4bd"}, {"is_disabled": 0, "is_reserved": 0, "fusion_lat": 0.0, "lat": 38.918196, "fusion_lon": 0.0, "rental_uris": {"ios": "https://dc.lft.to/lastmile_qr_scan", "android": "https://dc.lft.to/lastmile_qr_scan"}, "lon": -77.03443316666667, "bike_id": "bf01ac38a1b604e0aa0953e48bfedf53", "type": "electric_scooter", "name": "bf01ac38a1b604e0aa0953e48bfedf53"}, {"is_disabled": 0, "is_reserved": 0, "fusion_lat": 0.0, "lat": 38.92340633333333, "fusion_lon": 0.0, "rental_uris": {"ios": "https://dc.lft.to/lastmile_qr_scan", "android": "https://dc.lft.to/lastmile_qr_scan"}, "lon": -76.998524, "bike_id": "1a41c3d115b3aa65f3550ab8f7354059", "type": "electric_scooter", "name": "1a41c3d115b3aa65f3550ab8f7354059"}, {"is_disabled": 0, "is_reserved": 0, "fusion_lat": 0.0, "lat": 38.85532533333333, "fusion_lon": 0.0, "rental_uris": {"ios": "https://dc.lft.to/lastmile_qr_scan", "android": "https://dc.lft.to/lastmile_qr_scan"}, "lon": -77.12056283333334, "bike_id": "490d5aae9744c8fd3c356b34fa91e737", "type": "electric_bike", "name": "490d5aae9744c8fd3c356b34fa91e737"}, {"is_disabled": 0, "is_reserved": 0, "fusion_lat": 0.0, "lat": 38.87441333333334, "fusion_lon": 0.0, "rental_uris": {"ios": "https://dc.lft.to/lastmile_qr_scan", "android": "https://dc.lft.to/lastmile_qr_scan"}, "lon": -77.00027816666666, "bike_id": "f3243610c3f85048c75e6694e4524e00", "type": "electric_scooter", "name": "f3243610c3f85048c75e6694e4524e00"}, {"is_disabled": 0, "is_reserved": 0, "fusion_lat": 0.0, "lat": 38.898039, "fusion_lon": 0.0, "rental_uris": {"ios": "https://dc.lft.to/lastmile_qr_scan", "android": "https://dc.lft.to/lastmile_qr_scan"}, "lon": -76.97946116666667, "bike_id": "441da9efb4ff72e88da2810b39038537", "type": "electric_scooter", "name": "441da9efb4ff72e88da2810b39038537"}, {"is_disabled": 0, "is_reserved": 0, "fusion_lat": 0.0, "lat": 38.93066133333333, "fusion_lon": 0.0, "rental_uris": {"ios": "https://dc.lft.to/lastmile_qr_scan", "android": "https://dc.lft.to/lastmile_qr_scan"}, "lon": -77.0215495, "bike_id": "8dd559e5a0979e1bb1dcc10a9cd7314f", "type": "electric_scooter", "name": "8dd559e5a0979e1bb1dcc10a9cd7314f"}, {"is_disabled": 0, "is_reserved": 0, "fusion_lat": 0.0, "lat": 38.892413, "fusion_lon": 0.0, "rental_uris": {"ios": "https://dc.lft.to/lastmile_qr_scan", "android": "https://dc.lft.to/lastmile_qr_scan"}, "lon": -77.032093, "bike_id": "2066d7d1a2eaddbf6dbb68172757aff0", "type": "electric_scooter", "name": "2066d7d1a2eaddbf6dbb68172757aff0"}, {"is_disabled": 0, "is_reserved": 0, "fusion_lat": 0.0, "lat": 38.900039166666666, "fusion_lon": 0.0, "rental_uris": {"ios": "https://dc.lft.to/lastmile_qr_scan", "android": "https://dc.lft.to/lastmile_qr_scan"}, "lon": -77.027137, "bike_id": "47674b8e8ea1e2e68092e41933616449", "type": "electric_bike", "name": "47674b8e8ea1e2e68092e41933616449"}, {"is_disabled": 0, "is_reserved": 0, "fusion_lat": 0.0, "lat": 38.936325, "fusion_lon": 0.0, "rental_uris": {"ios": "https://dc.lft.to/lastmile_qr_scan", "android": "https://dc.lft.to/lastmile_qr_scan"}, "lon": -77.03682833333333, "bike_id": "7438d8852dce75f584331eb615d45531", "type": "electric_scooter", "name": "7438d8852dce75f584331eb615d45531"}, {"is_disabled": 0, "is_reserved": 0, "fusion_lat": 0.0, "lat": 38.891996, "fusion_lon": 0.0, "rental_uris": {"ios": "https://dc.lft.to/lastmile_qr_scan", "android": "https://dc.lft.to/lastmile_qr_scan"}, "lon": -77.04390116666667, "bike_id": "6f48e87c67d32c15d381a5c42633f481", "type": "electric_scooter", "name": "6f48e87c67d32c15d381a5c42633f481"}, {"is_disabled": 0, "is_reserved": 0, "fusion_lat": 0.0, "lat": 38.92154033333333, "fusion_lon": 0.0, "rental_uris": {"ios": "https://dc.lft.to/lastmile_qr_scan", "android": "https://dc.lft.to/lastmile_qr_scan"}, "lon": -77.03384666666666, "bike_id": "d280ab942b5e539ee3e38c058e552560", "type": "electric_scooter", "name": "d280ab942b5e539ee3e38c058e552560"}, {"is_disabled": 0, "is_reserved": 0, "fusion_lat": 0.0, "lat": 38.9008385, "fusion_lon": 0.0, "rental_uris": {"ios": "https://dc.lft.to/lastmile_qr_scan", "android": "https://dc.lft.to/lastmile_qr_scan"}, "lon": -77.04748916666667, "bike_id": "cd0a803389064240035fc6f1fb78c340", "type": "electric_scooter", "name": "cd0a803389064240035fc6f1fb78c340"}, {"is_disabled": 0, "is_reserved": 0, "fusion_lat": 0.0, "lat": 38.92774466666667, "fusion_lon": 0.0, "rental_uris": {"ios": "https://dc.lft.to/lastmile_qr_scan", "android": "https://dc.lft.to/lastmile_qr_scan"}, "lon": -77.052569, "bike_id": "4bb89f7d71b8f498663492b72e505398", "type": "electric_scooter", "name": "4bb89f7d71b8f498663492b72e505398"}, {"is_disabled": 0, "is_reserved": 0, "fusion_lat": 0.0, "lat": 38.9067165, "fusion_lon": 0.0, "rental_uris": {"ios": "https://dc.lft.to/lastmile_qr_scan", "android": "https://dc.lft.to/lastmile_qr_scan"}, "lon": -77.02700116666666, "bike_id": "90974da2213c0e9b9682b570af50fdfa", "type": "electric_scooter", "name": "90974da2213c0e9b9682b570af50fdfa"}, {"is_disabled": 0, "is_reserved": 0, "fusion_lat": 0.0, "lat": 38.8651455, "fusion_lon": 0.0, "rental_uris": {"ios": "https://dc.lft.to/lastmile_qr_scan", "android": "https://dc.lft.to/lastmile_qr_scan"}, "lon": -76.97322333333334, "bike_id": "0e8e7dd08ddab39168b1bed699a923ee", "type": "electric_scooter", "name": "0e8e7dd08ddab39168b1bed699a923ee"}, {"is_disabled": 0, "is_reserved": 0, "fusion_lat": 0.0, "lat": 38.9369115, "fusion_lon": 0.0, "rental_uris": {"ios": "https://dc.lft.to/lastmile_qr_scan", "android": "https://dc.lft.to/lastmile_qr_scan"}, "lon": -77.0326895, "bike_id": "e479c4d54fda59a76fdd4e26740aff46", "type": "electric_scooter", "name": "e479c4d54fda59a76fdd4e26740aff46"}, {"is_disabled": 0, "is_reserved": 0, "fusion_lat": 0.0, "lat": 38.92616833333334, "fusion_lon": 0.0, "rental_uris": {"ios": "https://dc.lft.to/lastmile_qr_scan", "android": "https://dc.lft.to/lastmile_qr_scan"}, "lon": -77.022642, "bike_id": "68ab5c6928594ff6c97a0783781d8698", "type": "electric_scooter", "name": "68ab5c6928594ff6c97a0783781d8698"}, {"is_disabled": 0, "is_reserved": 0, "fusion_lat": 0.0, "lat": 38.9067545, "fusion_lon": 0.0, "rental_uris": {"ios": "https://dc.lft.to/lastmile_qr_scan", "android": "https://dc.lft.to/lastmile_qr_scan"}, "lon": -77.02701533333334, "bike_id": "589b673dc060ee550d68cbaa944ca62b", "type": "electric_scooter", "name": "589b673dc060ee550d68cbaa944ca62b"}, {"is_disabled": 0, "is_reserved": 0, "fusion_lat": 0.0, "lat": 38.94289283333333, "fusion_lon": 0.0, "rental_uris": {"ios": "https://dc.lft.to/lastmile_qr_scan", "android": "https://dc.lft.to/lastmile_qr_scan"}, "lon": -77.07701083333333, "bike_id": "cb457c25dae76f43185dbea0cb4a250f", "type": "electric_scooter", "name": "cb457c25dae76f43185dbea0cb4a250f"}, {"is_disabled": 0, "is_reserved": 0, "fusion_lat": 0.0, "lat": 38.91620983333333, "fusion_lon": 0.0, "rental_uris": {"ios": "https://dc.lft.to/lastmile_qr_scan", "android": "https://dc.lft.to/lastmile_qr_scan"}, "lon": -77.0504965, "bike_id": "4cbaf6b903f56f771551476570923437", "type": "electric_scooter", "name": "4cbaf6b903f56f771551476570923437"}, {"is_disabled": 0, "is_reserved": 0, "fusion_lat": 0.0, "lat": 38.96770983333333, "fusion_lon": 0.0, "rental_uris": {"ios": "https://dc.lft.to/lastmile_qr_scan", "android": "https://dc.lft.to/lastmile_qr_scan"}, "lon": -77.03335283333334, "bike_id": "ad489d16ec3f810ce2fd605a4706784d", "type": "electric_scooter", "name": "ad489d16ec3f810ce2fd605a4706784d"}, {"is_disabled": 0, "is_reserved": 0, "fusion_lat": 0.0, "lat": 38.925116333333335, "fusion_lon": 0.0, "rental_uris": {"ios": "https://dc.lft.to/lastmile_qr_scan", "android": "https://dc.lft.to/lastmile_qr_scan"}, "lon": -77.02127583333333, "bike_id": "7097882ada8a5015c10da07ad7ae8509", "type": "electric_scooter", "name": "7097882ada8a5015c10da07ad7ae8509"}, {"is_disabled": 0, "is_reserved": 0, "fusion_lat": 0.0, "lat": 38.92880233333333, "fusion_lon": 0.0, "rental_uris": {"ios": "https://dc.lft.to/lastmile_qr_scan", "android": "https://dc.lft.to/lastmile_qr_scan"}, "lon": -77.02598683333333, "bike_id": "e470fd742f6206b09d7fcd0075e80c24", "type": "electric_scooter", "name": "e470fd742f6206b09d7fcd0075e80c24"}, {"is_disabled": 0, "is_reserved": 0, "fusion_lat": 0.0, "lat": 38.907847333333336, "fusion_lon": 0.0, "rental_uris": {"ios": "https://dc.lft.to/lastmile_qr_scan", "android": "https://dc.lft.to/lastmile_qr_scan"}, "lon": -77.04649216666667, "bike_id": "20ad3c734f68e3257bb5e6e0a91dbce8", "type": "electric_scooter", "name": "20ad3c734f68e3257bb5e6e0a91dbce8"}, {"is_disabled": 0, "is_reserved": 0, "fusion_lat": 0.0, "lat": 38.835866833333334, "fusion_lon": 0.0, "rental_uris": {"ios": "https://dc.lft.to/lastmile_qr_scan", "android": "https://dc.lft.to/lastmile_qr_scan"}, "lon": -76.99026866666667, "bike_id": "e238b6dc3c24034d39d1e3db5ada1828", "type": "electric_bike", "name": "e238b6dc3c24034d39d1e3db5ada1828"}, {"is_disabled": 0, "is_reserved": 0, "fusion_lat": 0.0, "lat": 38.93256066666667, "fusion_lon": 0.0, "rental_uris": {"ios": "https://dc.lft.to/lastmile_qr_scan", "android": "https://dc.lft.to/lastmile_qr_scan"}, "lon": -77.03270666666667, "bike_id": "5312877bf6d7126997863e2595207676", "type": "electric_scooter", "name": "5312877bf6d7126997863e2595207676"}, {"is_disabled": 0, "is_reserved": 0, "fusion_lat": 0.0, "lat": 38.90639683333333, "fusion_lon": 0.0, "rental_uris": {"ios": "https://dc.lft.to/lastmile_qr_scan", "android": "https://dc.lft.to/lastmile_qr_scan"}, "lon": -77.0245565, "bike_id": "b5085d0542efb0d48c221d42da17dc43", "type": "electric_scooter", "name": "b5085d0542efb0d48c221d42da17dc43"}, {"is_disabled": 0, "is_reserved": 0, "fusion_lat": 0.0, "lat": 38.90904883333333, "fusion_lon": 0.0, "rental_uris": {"ios": "https://dc.lft.to/lastmile_qr_scan", "android": "https://dc.lft.to/lastmile_qr_scan"}, "lon": -76.997782, "bike_id": "50b64b2dfbff42e98fd976f149b8bcbb", "type": "electric_scooter", "name": "50b64b2dfbff42e98fd976f149b8bcbb"}, {"is_disabled": 0, "is_reserved": 0, "fusion_lat": 0.0, "lat": 38.928711666666665, "fusion_lon": 0.0, "rental_uris": {"ios": "https://dc.lft.to/lastmile_qr_scan", "android": "https://dc.lft.to/lastmile_qr_scan"}, "lon": -77.03439133333333, "bike_id": "3bfd4c8378975eb96ad4aeffc23aba5b", "type": "electric_scooter", "name": "3bfd4c8378975eb96ad4aeffc23aba5b"}, {"is_disabled": 0, "is_reserved": 0, "fusion_lat": 0.0, "lat": 38.8839215, "fusion_lon": 0.0, "rental_uris": {"ios": "https://dc.lft.to/lastmile_qr_scan", "android": "https://dc.lft.to/lastmile_qr_scan"}, "lon": -77.0304235, "bike_id": "cbb79cd95326263b12a6457511c5b3a1", "type": "electric_scooter", "name": "cbb79cd95326263b12a6457511c5b3a1"}, {"is_disabled": 0, "is_reserved": 0, "fusion_lat": 0.0, "lat": 38.902384833333336, "fusion_lon": 0.0, "rental_uris": {"ios": "https://dc.lft.to/lastmile_qr_scan", "android": "https://dc.lft.to/lastmile_qr_scan"}, "lon": -77.0531755, "bike_id": "55f8a670d05a967fd654f7d1518775c5", "type": "electric_scooter", "name": "55f8a670d05a967fd654f7d1518775c5"}, {"is_disabled": 0, "is_reserved": 0, "fusion_lat": 0.0, "lat": 38.936010333333336, "fusion_lon": 0.0, "rental_uris": {"ios": "https://dc.lft.to/lastmile_qr_scan", "android": "https://dc.lft.to/lastmile_qr_scan"}, "lon": -77.03873983333334, "bike_id": "00d10298951f6270349af487a534941c", "type": "electric_scooter", "name": "00d10298951f6270349af487a534941c"}, {"is_disabled": 0, "is_reserved": 0, "fusion_lat": 0.0, "lat": 38.9002905, "fusion_lon": 0.0, "rental_uris": {"ios": "https://dc.lft.to/lastmile_qr_scan", "android": "https://dc.lft.to/lastmile_qr_scan"}, "lon": -76.998415, "bike_id": "ab70cca756c3843feaaf2e48046ff383", "type": "electric_scooter", "name": "ab70cca756c3843feaaf2e48046ff383"}, {"is_disabled": 0, "is_reserved": 0, "fusion_lat": 0.0, "lat": 38.92048, "fusion_lon": 0.0, "rental_uris": {"ios": "https://dc.lft.to/lastmile_qr_scan", "android": "https://dc.lft.to/lastmile_qr_scan"}, "lon": -77.04535283333334, "bike_id": "bbbc7e56ac01c248ed1b88f202de0338", "type": "electric_scooter", "name": "bbbc7e56ac01c248ed1b88f202de0338"}, {"is_disabled": 0, "is_reserved": 0, "fusion_lat": 0.0, "lat": 38.902653666666666, "fusion_lon": 0.0, "rental_uris": {"ios": "https://dc.lft.to/lastmile_qr_scan", "android": "https://dc.lft.to/lastmile_qr_scan"}, "lon": -77.001997, "bike_id": "7528616fab3233a77fd2632cf2446458", "type": "electric_scooter", "name": "7528616fab3233a77fd2632cf2446458"}, {"is_disabled": 0, "is_reserved": 0, "fusion_lat": 0.0, "lat": 38.91906983333333, "fusion_lon": 0.0, "rental_uris": {"ios": "https://dc.lft.to/lastmile_qr_scan", "android": "https://dc.lft.to/lastmile_qr_scan"}, "lon": -77.10174616666667, "bike_id": "d3f9e4069cf41687b4b5df1d14eef374", "type": "electric_bike", "name": "d3f9e4069cf41687b4b5df1d14eef374"}, {"is_disabled": 0, "is_reserved": 0, "fusion_lat": 0.0, "lat": 38.9191275, "fusion_lon": 0.0, "rental_uris": {"ios": "https://dc.lft.to/lastmile_qr_scan", "android": "https://dc.lft.to/lastmile_qr_scan"}, "lon": -77.0446365, "bike_id": "c2902a89f06f169554f13d1050dd5403", "type": "electric_scooter", "name": "c2902a89f06f169554f13d1050dd5403"}, {"is_disabled": 0, "is_reserved": 0, "fusion_lat": 0.0, "lat": 38.923206666666665, "fusion_lon": 0.0, "rental_uris": {"ios": "https://dc.lft.to/lastmile_qr_scan", "android": "https://dc.lft.to/lastmile_qr_scan"}, "lon": -77.03913883333334, "bike_id": "64b60f2d8b66f4a865badfa8f01c814d", "type": "electric_scooter", "name": "64b60f2d8b66f4a865badfa8f01c814d"}, {"is_disabled": 0, "is_reserved": 0, "fusion_lat": 0.0, "lat": 38.90686216666667, "fusion_lon": 0.0, "rental_uris": {"ios": "https://dc.lft.to/lastmile_qr_scan", "android": "https://dc.lft.to/lastmile_qr_scan"}, "lon": -76.97932216666666, "bike_id": "061b17fb2d2f693f93215b39db40d111", "type": "electric_scooter", "name": "061b17fb2d2f693f93215b39db40d111"}, {"is_disabled": 0, "is_reserved": 0, "fusion_lat": 0.0, "lat": 38.90790966666667, "fusion_lon": 0.0, "rental_uris": {"ios": "https://dc.lft.to/lastmile_qr_scan", "android": "https://dc.lft.to/lastmile_qr_scan"}, "lon": -77.002493, "bike_id": "fa44252db71c9a4b9cb84e64a253cfc7", "type": "electric_scooter", "name": "fa44252db71c9a4b9cb84e64a253cfc7"}, {"is_disabled": 0, "is_reserved": 0, "fusion_lat": 0.0, "lat": 38.918140333333334, "fusion_lon": 0.0, "rental_uris": {"ios": "https://dc.lft.to/lastmile_qr_scan", "android": "https://dc.lft.to/lastmile_qr_scan"}, "lon": -77.03999033333334, "bike_id": "718ec0b200e338a1a1f19d4e533848a3", "type": "electric_scooter", "name": "718ec0b200e338a1a1f19d4e533848a3"}, {"is_disabled": 0, "is_reserved": 0, "fusion_lat": 0.0, "lat": 38.90219283333333, "fusion_lon": 0.0, "rental_uris": {"ios": "https://dc.lft.to/lastmile_qr_scan", "android": "https://dc.lft.to/lastmile_qr_scan"}, "lon": -76.9317245, "bike_id": "490b26945d7e99a1e29dfcbb77e7fad4", "type": "electric_bike", "name": "490b26945d7e99a1e29dfcbb77e7fad4"}, {"is_disabled": 0, "is_reserved": 0, "fusion_lat": 0.0, "lat": 38.91173766666667, "fusion_lon": 0.0, "rental_uris": {"ios": "https://dc.lft.to/lastmile_qr_scan", "android": "https://dc.lft.to/lastmile_qr_scan"}, "lon": -77.00269083333333, "bike_id": "74c8ad2033b6e4ed68fb3b73d423026a", "type": "electric_bike", "name": "74c8ad2033b6e4ed68fb3b73d423026a"}, {"is_disabled": 0, "is_reserved": 0, "fusion_lat": 0.0, "lat": 38.9409645, "fusion_lon": 0.0, "rental_uris": {"ios": "https://dc.lft.to/lastmile_qr_scan", "android": "https://dc.lft.to/lastmile_qr_scan"}, "lon": -77.03279783333333, "bike_id": "da9c5bc61f7108bae6718764de78d438", "type": "electric_scooter", "name": "da9c5bc61f7108bae6718764de78d438"}, {"is_disabled": 0, "is_reserved": 0, "fusion_lat": 0.0, "lat": 38.9181415, "fusion_lon": 0.0, "rental_uris": {"ios": "https://dc.lft.to/lastmile_qr_scan", "android": "https://dc.lft.to/lastmile_qr_scan"}, "lon": -77.04004783333333, "bike_id": "68c4a2c1497d6c0eee2276b365c84316", "type": "electric_scooter", "name": "68c4a2c1497d6c0eee2276b365c84316"}, {"is_disabled": 0, "is_reserved": 0, "fusion_lat": 0.0, "lat": 38.8799225, "fusion_lon": 0.0, "rental_uris": {"ios": "https://dc.lft.to/lastmile_qr_scan", "android": "https://dc.lft.to/lastmile_qr_scan"}, "lon": -77.0373715, "bike_id": "be18b806c186ce0e0f280558233ad027", "type": "electric_scooter", "name": "be18b806c186ce0e0f280558233ad027"}, {"is_disabled": 0, "is_reserved": 0, "fusion_lat": 0.0, "lat": 38.918070166666666, "fusion_lon": 0.0, "rental_uris": {"ios": "https://dc.lft.to/lastmile_qr_scan", "android": "https://dc.lft.to/lastmile_qr_scan"}, "lon": -77.03175, "bike_id": "f275dec39313508dd238dab83a66c651", "type": "electric_scooter", "name": "f275dec39313508dd238dab83a66c651"}, {"is_disabled": 0, "is_reserved": 0, "fusion_lat": 0.0, "lat": 38.83867683333333, "fusion_lon": 0.0, "rental_uris": {"ios": "https://dc.lft.to/lastmile_qr_scan", "android": "https://dc.lft.to/lastmile_qr_scan"}, "lon": -76.99689766666667, "bike_id": "cac670529c6d6a22c826972be0c8530e", "type": "electric_bike", "name": "cac670529c6d6a22c826972be0c8530e"}, {"is_disabled": 0, "is_reserved": 0, "fusion_lat": 0.0, "lat": 38.93063183333334, "fusion_lon": 0.0, "rental_uris": {"ios": "https://dc.lft.to/lastmile_qr_scan", "android": "https://dc.lft.to/lastmile_qr_scan"}, "lon": -77.040487, "bike_id": "311009b1ce6c3cb099ffa70517294c79", "type": "electric_scooter", "name": "311009b1ce6c3cb099ffa70517294c79"}, {"is_disabled": 0, "is_reserved": 0, "fusion_lat": 0.0, "lat": 38.91472433333333, "fusion_lon": 0.0, "rental_uris": {"ios": "https://dc.lft.to/lastmile_qr_scan", "android": "https://dc.lft.to/lastmile_qr_scan"}, "lon": -77.0091215, "bike_id": "cc50dd9e0e67d9c6482069f38692ec00", "type": "electric_scooter", "name": "cc50dd9e0e67d9c6482069f38692ec00"}, {"is_disabled": 0, "is_reserved": 0, "fusion_lat": 0.0, "lat": 38.9261785, "fusion_lon": 0.0, "rental_uris": {"ios": "https://dc.lft.to/lastmile_qr_scan", "android": "https://dc.lft.to/lastmile_qr_scan"}, "lon": -77.05297066666667, "bike_id": "a3f21ee6c2f84cd3960d81396caa8a5f", "type": "electric_scooter", "name": "a3f21ee6c2f84cd3960d81396caa8a5f"}, {"is_disabled": 0, "is_reserved": 0, "fusion_lat": 0.0, "lat": 38.91459866666667, "fusion_lon": 0.0, "rental_uris": {"ios": "https://dc.lft.to/lastmile_qr_scan", "android": "https://dc.lft.to/lastmile_qr_scan"}, "lon": -77.03180466666667, "bike_id": "41dc52a3fb1cf0ca391415e20dab21b7", "type": "electric_scooter", "name": "41dc52a3fb1cf0ca391415e20dab21b7"}, {"is_disabled": 0, "is_reserved": 0, "fusion_lat": 0.0, "lat": 39.02646033333333, "fusion_lon": 0.0, "rental_uris": {"ios": "https://dc.lft.to/lastmile_qr_scan", "android": "https://dc.lft.to/lastmile_qr_scan"}, "lon": -77.0368615, "bike_id": "e58a11e1fc80a9a876f48a224f352efc", "type": "electric_bike", "name": "e58a11e1fc80a9a876f48a224f352efc"}, {"is_disabled": 0, "is_reserved": 0, "fusion_lat": 0.0, "lat": 38.930224333333335, "fusion_lon": 0.0, "rental_uris": {"ios": "https://dc.lft.to/lastmile_qr_scan", "android": "https://dc.lft.to/lastmile_qr_scan"}, "lon": -77.02338283333333, "bike_id": "3e09b6425fcdc4495fa3632326f29870", "type": "electric_scooter", "name": "3e09b6425fcdc4495fa3632326f29870"}, {"is_disabled": 0, "is_reserved": 0, "fusion_lat": 0.0, "lat": 38.94328983333333, "fusion_lon": 0.0, "rental_uris": {"ios": "https://dc.lft.to/lastmile_qr_scan", "android": "https://dc.lft.to/lastmile_qr_scan"}, "lon": -77.02690566666666, "bike_id": "ba66b3521644534b337f30f564c863ac", "type": "electric_scooter", "name": "ba66b3521644534b337f30f564c863ac"}, {"is_disabled": 0, "is_reserved": 0, "fusion_lat": 0.0, "lat": 38.90511583333333, "fusion_lon": 0.0, "rental_uris": {"ios": "https://dc.lft.to/lastmile_qr_scan", "android": "https://dc.lft.to/lastmile_qr_scan"}, "lon": -76.95198683333334, "bike_id": "58070a101e2c6caf9622f3a5623461aa", "type": "electric_scooter", "name": "58070a101e2c6caf9622f3a5623461aa"}, {"is_disabled": 0, "is_reserved": 0, "fusion_lat": 0.0, "lat": 38.914102666666665, "fusion_lon": 0.0, "rental_uris": {"ios": "https://dc.lft.to/lastmile_qr_scan", "android": "https://dc.lft.to/lastmile_qr_scan"}, "lon": -77.0520935, "bike_id": "563a0ac41db912d889d0af26195886bf", "type": "electric_scooter", "name": "563a0ac41db912d889d0af26195886bf"}, {"is_disabled": 0, "is_reserved": 0, "fusion_lat": 0.0, "lat": 38.88619666666666, "fusion_lon": 0.0, "rental_uris": {"ios": "https://dc.lft.to/lastmile_qr_scan", "android": "https://dc.lft.to/lastmile_qr_scan"}, "lon": -76.92634583333333, "bike_id": "711c3d1dcc7f7c6194808381d27f9a78", "type": "electric_scooter", "name": "711c3d1dcc7f7c6194808381d27f9a78"}, {"is_disabled": 0, "is_reserved": 0, "fusion_lat": 0.0, "lat": 38.9235385, "fusion_lon": 0.0, "rental_uris": {"ios": "https://dc.lft.to/lastmile_qr_scan", "android": "https://dc.lft.to/lastmile_qr_scan"}, "lon": -77.02138083333334, "bike_id": "f796fa7a1e06700b3dd99ea378cc29d0", "type": "electric_scooter", "name": "f796fa7a1e06700b3dd99ea378cc29d0"}, {"is_disabled": 0, "is_reserved": 0, "fusion_lat": 0.0, "lat": 38.89996166666667, "fusion_lon": 0.0, "rental_uris": {"ios": "https://dc.lft.to/lastmile_qr_scan", "android": "https://dc.lft.to/lastmile_qr_scan"}, "lon": -77.02700283333333, "bike_id": "2df925581f1e95a06fbe13c171dc2194", "type": "electric_scooter", "name": "2df925581f1e95a06fbe13c171dc2194"}, {"is_disabled": 0, "is_reserved": 0, "fusion_lat": 0.0, "lat": 38.91414566666667, "fusion_lon": 0.0, "rental_uris": {"ios": "https://dc.lft.to/lastmile_qr_scan", "android": "https://dc.lft.to/lastmile_qr_scan"}, "lon": -77.02230116666667, "bike_id": "ccbe940d3e916f14bf1b2c2148e54946", "type": "electric_scooter", "name": "ccbe940d3e916f14bf1b2c2148e54946"}, {"is_disabled": 0, "is_reserved": 0, "fusion_lat": 0.0, "lat": 38.917631, "fusion_lon": 0.0, "rental_uris": {"ios": "https://dc.lft.to/lastmile_qr_scan", "android": "https://dc.lft.to/lastmile_qr_scan"}, "lon": -77.03186, "bike_id": "6e2a5b7f408658ce6fae996b8819df4e", "type": "electric_scooter", "name": "6e2a5b7f408658ce6fae996b8819df4e"}, {"is_disabled": 0, "is_reserved": 0, "fusion_lat": 0.0, "lat": 38.933652, "fusion_lon": 0.0, "rental_uris": {"ios": "https://dc.lft.to/lastmile_qr_scan", "android": "https://dc.lft.to/lastmile_qr_scan"}, "lon": -77.02367683333334, "bike_id": "63904a7b695e638f9860ff8ac0e958ac", "type": "electric_scooter", "name": "63904a7b695e638f9860ff8ac0e958ac"}, {"is_disabled": 0, "is_reserved": 0, "fusion_lat": 0.0, "lat": 38.8962785, "fusion_lon": 0.0, "rental_uris": {"ios": "https://dc.lft.to/lastmile_qr_scan", "android": "https://dc.lft.to/lastmile_qr_scan"}, "lon": -77.023895, "bike_id": "c78347a79cb60005a608935c182d624c", "type": "electric_scooter", "name": "c78347a79cb60005a608935c182d624c"}, {"is_disabled": 0, "is_reserved": 0, "fusion_lat": 0.0, "lat": 38.898106166666665, "fusion_lon": 0.0, "rental_uris": {"ios": "https://dc.lft.to/lastmile_qr_scan", "android": "https://dc.lft.to/lastmile_qr_scan"}, "lon": -76.9718245, "bike_id": "e2f9e3187e637521891d15941469765d", "type": "electric_scooter", "name": "e2f9e3187e637521891d15941469765d"}, {"is_disabled": 0, "is_reserved": 0, "fusion_lat": 0.0, "lat": 38.902568, "fusion_lon": 0.0, "rental_uris": {"ios": "https://dc.lft.to/lastmile_qr_scan", "android": "https://dc.lft.to/lastmile_qr_scan"}, "lon": -77.0189855, "bike_id": "ee6f54d140c0140527627d15ff8b767f", "type": "electric_scooter", "name": "ee6f54d140c0140527627d15ff8b767f"}, {"is_disabled": 0, "is_reserved": 0, "fusion_lat": 0.0, "lat": 39.03474, "fusion_lon": 0.0, "rental_uris": {"ios": "https://dc.lft.to/lastmile_qr_scan", "android": "https://dc.lft.to/lastmile_qr_scan"}, "lon": -77.01656133333333, "bike_id": "af4b054911c7eda583e37e7f38f25261", "type": "electric_bike", "name": "af4b054911c7eda583e37e7f38f25261"}, {"is_disabled": 0, "is_reserved": 0, "fusion_lat": 0.0, "lat": 39.0847205, "fusion_lon": 0.0, "rental_uris": {"ios": "https://dc.lft.to/lastmile_qr_scan", "android": "https://dc.lft.to/lastmile_qr_scan"}, "lon": -76.95058316666666, "bike_id": "43a4254269eb7f32c393e5a01f876737", "type": "electric_bike", "name": "43a4254269eb7f32c393e5a01f876737"}, {"is_disabled": 0, "is_reserved": 0, "fusion_lat": 0.0, "lat": 38.921631166666664, "fusion_lon": 0.0, "rental_uris": {"ios": "https://dc.lft.to/lastmile_qr_scan", "android": "https://dc.lft.to/lastmile_qr_scan"}, "lon": -77.04008583333334, "bike_id": "adf1961485dacc2b98db77f4ddcbdae4", "type": "electric_scooter", "name": "adf1961485dacc2b98db77f4ddcbdae4"}, {"is_disabled": 0, "is_reserved": 0, "fusion_lat": 0.0, "lat": 38.892000333333336, "fusion_lon": 0.0, "rental_uris": {"ios": "https://dc.lft.to/lastmile_qr_scan", "android": "https://dc.lft.to/lastmile_qr_scan"}, "lon": -77.024713, "bike_id": "a9aac396c42705c638746c3a0faa7d8c", "type": "electric_scooter", "name": "a9aac396c42705c638746c3a0faa7d8c"}, {"is_disabled": 0, "is_reserved": 0, "fusion_lat": 0.0, "lat": 38.953500166666664, "fusion_lon": 0.0, "rental_uris": {"ios": "https://dc.lft.to/lastmile_qr_scan", "android": "https://dc.lft.to/lastmile_qr_scan"}, "lon": -77.08143666666666, "bike_id": "13d6b3deb871b04ed7e676712ed9eb8b", "type": "electric_scooter", "name": "13d6b3deb871b04ed7e676712ed9eb8b"}, {"is_disabled": 0, "is_reserved": 0, "fusion_lat": 0.0, "lat": 38.89671766666667, "fusion_lon": 0.0, "rental_uris": {"ios": "https://dc.lft.to/lastmile_qr_scan", "android": "https://dc.lft.to/lastmile_qr_scan"}, "lon": -76.94907583333334, "bike_id": "0b7aac27f9729d0b4d40230954545241", "type": "electric_scooter", "name": "0b7aac27f9729d0b4d40230954545241"}, {"is_disabled": 0, "is_reserved": 0, "fusion_lat": 0.0, "lat": 38.90946, "fusion_lon": 0.0, "rental_uris": {"ios": "https://dc.lft.to/lastmile_qr_scan", "android": "https://dc.lft.to/lastmile_qr_scan"}, "lon": -77.04732283333334, "bike_id": "9b7cfab54eeb7dcc121c10fba912a05a", "type": "electric_scooter", "name": "9b7cfab54eeb7dcc121c10fba912a05a"}, {"is_disabled": 0, "is_reserved": 0, "fusion_lat": 0.0, "lat": 38.941710666666665, "fusion_lon": 0.0, "rental_uris": {"ios": "https://dc.lft.to/lastmile_qr_scan", "android": "https://dc.lft.to/lastmile_qr_scan"}, "lon": -77.01522183333333, "bike_id": "d77001f6969b7c41434a9e35a5dab7a0", "type": "electric_scooter", "name": "d77001f6969b7c41434a9e35a5dab7a0"}, {"is_disabled": 0, "is_reserved": 0, "fusion_lat": 0.0, "lat": 38.9096815, "fusion_lon": 0.0, "rental_uris": {"ios": "https://dc.lft.to/lastmile_qr_scan", "android": "https://dc.lft.to/lastmile_qr_scan"}, "lon": -77.0240905, "bike_id": "423941b9c73563843e5b969b3b3307e8", "type": "electric_scooter", "name": "423941b9c73563843e5b969b3b3307e8"}, {"is_disabled": 0, "is_reserved": 0, "fusion_lat": 0.0, "lat": 38.91542166666667, "fusion_lon": 0.0, "rental_uris": {"ios": "https://dc.lft.to/lastmile_qr_scan", "android": "https://dc.lft.to/lastmile_qr_scan"}, "lon": -77.04446933333334, "bike_id": "e3b23b45a4e9efea33a23b4e2f94a6d5", "type": "electric_scooter", "name": "e3b23b45a4e9efea33a23b4e2f94a6d5"}, {"is_disabled": 0, "is_reserved": 0, "fusion_lat": 0.0, "lat": 38.91476866666667, "fusion_lon": 0.0, "rental_uris": {"ios": "https://dc.lft.to/lastmile_qr_scan", "android": "https://dc.lft.to/lastmile_qr_scan"}, "lon": -77.0188285, "bike_id": "eb3cd22bb70b12fd8f6a068233e43b63", "type": "electric_scooter", "name": "eb3cd22bb70b12fd8f6a068233e43b63"}, {"is_disabled": 0, "is_reserved": 0, "fusion_lat": 0.0, "lat": 38.942884166666666, "fusion_lon": 0.0, "rental_uris": {"ios": "https://dc.lft.to/lastmile_qr_scan", "android": "https://dc.lft.to/lastmile_qr_scan"}, "lon": -77.021627, "bike_id": "fe45f41d44b7ee440a5b9751afa32414", "type": "electric_scooter", "name": "fe45f41d44b7ee440a5b9751afa32414"}, {"is_disabled": 0, "is_reserved": 0, "fusion_lat": 0.0, "lat": 38.9216435, "fusion_lon": 0.0, "rental_uris": {"ios": "https://dc.lft.to/lastmile_qr_scan", "android": "https://dc.lft.to/lastmile_qr_scan"}, "lon": -77.042256, "bike_id": "f5f4a06aad77d50c5fe19d215a4da5f4", "type": "electric_scooter", "name": "f5f4a06aad77d50c5fe19d215a4da5f4"}, {"is_disabled": 0, "is_reserved": 0, "fusion_lat": 0.0, "lat": 38.91420166666666, "fusion_lon": 0.0, "rental_uris": {"ios": "https://dc.lft.to/lastmile_qr_scan", "android": "https://dc.lft.to/lastmile_qr_scan"}, "lon": -77.03176, "bike_id": "02c52124969dde36843f71f446782fc3", "type": "electric_scooter", "name": "02c52124969dde36843f71f446782fc3"}, {"is_disabled": 0, "is_reserved": 0, "fusion_lat": 0.0, "lat": 38.918215833333335, "fusion_lon": 0.0, "rental_uris": {"ios": "https://dc.lft.to/lastmile_qr_scan", "android": "https://dc.lft.to/lastmile_qr_scan"}, "lon": -77.04508016666666, "bike_id": "9a58c835f768704d1213d4c4e291fde4", "type": "electric_scooter", "name": "9a58c835f768704d1213d4c4e291fde4"}, {"is_disabled": 0, "is_reserved": 0, "fusion_lat": 0.0, "lat": 38.922773666666664, "fusion_lon": 0.0, "rental_uris": {"ios": "https://dc.lft.to/lastmile_qr_scan", "android": "https://dc.lft.to/lastmile_qr_scan"}, "lon": -77.03396683333334, "bike_id": "397ebef226e1634eaf41131ae99cb47e", "type": "electric_scooter", "name": "397ebef226e1634eaf41131ae99cb47e"}, {"is_disabled": 0, "is_reserved": 0, "fusion_lat": 0.0, "lat": 38.916915333333336, "fusion_lon": 0.0, "rental_uris": {"ios": "https://dc.lft.to/lastmile_qr_scan", "android": "https://dc.lft.to/lastmile_qr_scan"}, "lon": -77.03180483333334, "bike_id": "e05a17eba042de3a2e50aa7a9aba4974", "type": "electric_scooter", "name": "e05a17eba042de3a2e50aa7a9aba4974"}, {"is_disabled": 0, "is_reserved": 0, "fusion_lat": 0.0, "lat": 38.9202475, "fusion_lon": 0.0, "rental_uris": {"ios": "https://dc.lft.to/lastmile_qr_scan", "android": "https://dc.lft.to/lastmile_qr_scan"}, "lon": -76.99562733333333, "bike_id": "e60d54e987973bff1b252d059c279a8a", "type": "electric_scooter", "name": "e60d54e987973bff1b252d059c279a8a"}, {"is_disabled": 0, "is_reserved": 0, "fusion_lat": 0.0, "lat": 38.956352333333335, "fusion_lon": 0.0, "rental_uris": {"ios": "https://dc.lft.to/lastmile_qr_scan", "android": "https://dc.lft.to/lastmile_qr_scan"}, "lon": -77.03630366666667, "bike_id": "1f0772078119707ea869cfd92d036d09", "type": "electric_scooter", "name": "1f0772078119707ea869cfd92d036d09"}, {"is_disabled": 0, "is_reserved": 0, "fusion_lat": 0.0, "lat": 38.890835833333334, "fusion_lon": 0.0, "rental_uris": {"ios": "https://dc.lft.to/lastmile_qr_scan", "android": "https://dc.lft.to/lastmile_qr_scan"}, "lon": -76.95466966666666, "bike_id": "a5f0edb72fb999a6f8ccb5fcea6be4cf", "type": "electric_bike", "name": "a5f0edb72fb999a6f8ccb5fcea6be4cf"}, {"is_disabled": 0, "is_reserved": 0, "fusion_lat": 0.0, "lat": 38.92594716666667, "fusion_lon": 0.0, "rental_uris": {"ios": "https://dc.lft.to/lastmile_qr_scan", "android": "https://dc.lft.to/lastmile_qr_scan"}, "lon": -76.98235083333333, "bike_id": "4dfb7053bff2d7cabbc47c4a7107e1af", "type": "electric_bike", "name": "4dfb7053bff2d7cabbc47c4a7107e1af"}, {"is_disabled": 0, "is_reserved": 0, "fusion_lat": 0.0, "lat": 38.931880666666665, "fusion_lon": 0.0, "rental_uris": {"ios": "https://dc.lft.to/lastmile_qr_scan", "android": "https://dc.lft.to/lastmile_qr_scan"}, "lon": -77.01857883333334, "bike_id": "e36c9352a8ee06074680f658e97659f5", "type": "electric_scooter", "name": "e36c9352a8ee06074680f658e97659f5"}, {"is_disabled": 0, "is_reserved": 0, "fusion_lat": 0.0, "lat": 38.90717433333333, "fusion_lon": 0.0, "rental_uris": {"ios": "https://dc.lft.to/lastmile_qr_scan", "android": "https://dc.lft.to/lastmile_qr_scan"}, "lon": -77.05304066666666, "bike_id": "4b191ba53796b62854afd72fc1ddfc94", "type": "electric_scooter", "name": "4b191ba53796b62854afd72fc1ddfc94"}, {"is_disabled": 0, "is_reserved": 0, "fusion_lat": 0.0, "lat": 38.931366, "fusion_lon": 0.0, "rental_uris": {"ios": "https://dc.lft.to/lastmile_qr_scan", "android": "https://dc.lft.to/lastmile_qr_scan"}, "lon": -77.0280545, "bike_id": "4a86bda51b01b9d2ba9b6be0242ac7c8", "type": "electric_scooter", "name": "4a86bda51b01b9d2ba9b6be0242ac7c8"}, {"is_disabled": 0, "is_reserved": 0, "fusion_lat": 0.0, "lat": 38.893513, "fusion_lon": 0.0, "rental_uris": {"ios": "https://dc.lft.to/lastmile_qr_scan", "android": "https://dc.lft.to/lastmile_qr_scan"}, "lon": -76.99205933333333, "bike_id": "f1b00bbcbdb333b34e808116584367b2", "type": "electric_scooter", "name": "f1b00bbcbdb333b34e808116584367b2"}, {"is_disabled": 0, "is_reserved": 0, "fusion_lat": 0.0, "lat": 38.93070066666667, "fusion_lon": 0.0, "rental_uris": {"ios": "https://dc.lft.to/lastmile_qr_scan", "android": "https://dc.lft.to/lastmile_qr_scan"}, "lon": -77.03204966666667, "bike_id": "c126e745d587fd75aee93cb59d0befaa", "type": "electric_scooter", "name": "c126e745d587fd75aee93cb59d0befaa"}, {"is_disabled": 0, "is_reserved": 0, "fusion_lat": 0.0, "lat": 38.92156116666666, "fusion_lon": 0.0, "rental_uris": {"ios": "https://dc.lft.to/lastmile_qr_scan", "android": "https://dc.lft.to/lastmile_qr_scan"}, "lon": -77.0346275, "bike_id": "34d90f30858da977164758474f99737d", "type": "electric_scooter", "name": "34d90f30858da977164758474f99737d"}, {"is_disabled": 0, "is_reserved": 0, "fusion_lat": 0.0, "lat": 38.933108833333335, "fusion_lon": 0.0, "rental_uris": {"ios": "https://dc.lft.to/lastmile_qr_scan", "android": "https://dc.lft.to/lastmile_qr_scan"}, "lon": -77.03181966666666, "bike_id": "ec9b4d17bda183eb2ccc858cb2878edf", "type": "electric_scooter", "name": "ec9b4d17bda183eb2ccc858cb2878edf"}, {"is_disabled": 0, "is_reserved": 0, "fusion_lat": 0.0, "lat": 38.8848095, "fusion_lon": 0.0, "rental_uris": {"ios": "https://dc.lft.to/lastmile_qr_scan", "android": "https://dc.lft.to/lastmile_qr_scan"}, "lon": -77.03345583333333, "bike_id": "6e49e8752a9a8636c94b1b8a774fbb50", "type": "electric_scooter", "name": "6e49e8752a9a8636c94b1b8a774fbb50"}, {"is_disabled": 0, "is_reserved": 0, "fusion_lat": 0.0, "lat": 38.91337333333333, "fusion_lon": 0.0, "rental_uris": {"ios": "https://dc.lft.to/lastmile_qr_scan", "android": "https://dc.lft.to/lastmile_qr_scan"}, "lon": -77.00217983333333, "bike_id": "7761b2e44748a5141b0e945cc3f63b28", "type": "electric_scooter", "name": "7761b2e44748a5141b0e945cc3f63b28"}, {"is_disabled": 0, "is_reserved": 0, "fusion_lat": 0.0, "lat": 38.923278333333336, "fusion_lon": 0.0, "rental_uris": {"ios": "https://dc.lft.to/lastmile_qr_scan", "android": "https://dc.lft.to/lastmile_qr_scan"}, "lon": -77.00883416666667, "bike_id": "29ce2f38895cef325a1fb1d9f9439101", "type": "electric_scooter", "name": "29ce2f38895cef325a1fb1d9f9439101"}, {"is_disabled": 0, "is_reserved": 0, "fusion_lat": 0.0, "lat": 38.892587666666664, "fusion_lon": 0.0, "rental_uris": {"ios": "https://dc.lft.to/lastmile_qr_scan", "android": "https://dc.lft.to/lastmile_qr_scan"}, "lon": -77.050243, "bike_id": "e12489641c2d45728787d885ddd11580", "type": "electric_scooter", "name": "e12489641c2d45728787d885ddd11580"}, {"is_disabled": 0, "is_reserved": 0, "fusion_lat": 0.0, "lat": 38.91755783333333, "fusion_lon": 0.0, "rental_uris": {"ios": "https://dc.lft.to/lastmile_qr_scan", "android": "https://dc.lft.to/lastmile_qr_scan"}, "lon": -77.004469, "bike_id": "59ce9ba0d407dc3aaa58c544a675b804", "type": "electric_scooter", "name": "59ce9ba0d407dc3aaa58c544a675b804"}, {"is_disabled": 0, "is_reserved": 0, "fusion_lat": 0.0, "lat": 38.92165266666667, "fusion_lon": 0.0, "rental_uris": {"ios": "https://dc.lft.to/lastmile_qr_scan", "android": "https://dc.lft.to/lastmile_qr_scan"}, "lon": -77.0365935, "bike_id": "4d3aa1039b7f33e754fb9b82838ab690", "type": "electric_scooter", "name": "4d3aa1039b7f33e754fb9b82838ab690"}, {"is_disabled": 0, "is_reserved": 0, "fusion_lat": 0.0, "lat": 38.91202116666667, "fusion_lon": 0.0, "rental_uris": {"ios": "https://dc.lft.to/lastmile_qr_scan", "android": "https://dc.lft.to/lastmile_qr_scan"}, "lon": -77.020912, "bike_id": "23e67ccd59fdc6bee259bdf189d1ee70", "type": "electric_scooter", "name": "23e67ccd59fdc6bee259bdf189d1ee70"}, {"is_disabled": 0, "is_reserved": 0, "fusion_lat": 0.0, "lat": 38.876705666666666, "fusion_lon": 0.0, "rental_uris": {"ios": "https://dc.lft.to/lastmile_qr_scan", "android": "https://dc.lft.to/lastmile_qr_scan"}, "lon": -77.01753316666667, "bike_id": "b627f1a0cc2698c0c6673b3375bc599f", "type": "electric_scooter", "name": "b627f1a0cc2698c0c6673b3375bc599f"}, {"is_disabled": 0, "is_reserved": 0, "fusion_lat": 0.0, "lat": 38.93514533333333, "fusion_lon": 0.0, "rental_uris": {"ios": "https://dc.lft.to/lastmile_qr_scan", "android": "https://dc.lft.to/lastmile_qr_scan"}, "lon": -77.0816205, "bike_id": "086dfc3c5ea8641c4fb41824f9022ebf", "type": "electric_scooter", "name": "086dfc3c5ea8641c4fb41824f9022ebf"}, {"is_disabled": 0, "is_reserved": 0, "fusion_lat": 0.0, "lat": 38.91621766666667, "fusion_lon": 0.0, "rental_uris": {"ios": "https://dc.lft.to/lastmile_qr_scan", "android": "https://dc.lft.to/lastmile_qr_scan"}, "lon": -77.02395766666666, "bike_id": "b3f3e6159fc727907f26cdfb6bf28333", "type": "electric_scooter", "name": "b3f3e6159fc727907f26cdfb6bf28333"}, {"is_disabled": 0, "is_reserved": 0, "fusion_lat": 0.0, "lat": 38.871662, "fusion_lon": 0.0, "rental_uris": {"ios": "https://dc.lft.to/lastmile_qr_scan", "android": "https://dc.lft.to/lastmile_qr_scan"}, "lon": -77.01354933333333, "bike_id": "e239848fec35cc60db086450293efb70", "type": "electric_scooter", "name": "e239848fec35cc60db086450293efb70"}, {"is_disabled": 0, "is_reserved": 0, "fusion_lat": 0.0, "lat": 38.884129, "fusion_lon": 0.0, "rental_uris": {"ios": "https://dc.lft.to/lastmile_qr_scan", "android": "https://dc.lft.to/lastmile_qr_scan"}, "lon": -77.02917233333334, "bike_id": "0174d92fc919571c35d09c15feb1ca28", "type": "electric_scooter", "name": "0174d92fc919571c35d09c15feb1ca28"}, {"is_disabled": 0, "is_reserved": 0, "fusion_lat": 0.0, "lat": 38.9234895, "fusion_lon": 0.0, "rental_uris": {"ios": "https://dc.lft.to/lastmile_qr_scan", "android": "https://dc.lft.to/lastmile_qr_scan"}, "lon": -77.0336895, "bike_id": "817aca15b0650edfe406ef84a8465455", "type": "electric_scooter", "name": "817aca15b0650edfe406ef84a8465455"}, {"is_disabled": 0, "is_reserved": 0, "fusion_lat": 0.0, "lat": 38.914164666666665, "fusion_lon": 0.0, "rental_uris": {"ios": "https://dc.lft.to/lastmile_qr_scan", "android": "https://dc.lft.to/lastmile_qr_scan"}, "lon": -77.022154, "bike_id": "8fd0cc37aea4d0c1bad5835b5aa58988", "type": "electric_scooter", "name": "8fd0cc37aea4d0c1bad5835b5aa58988"}, {"is_disabled": 0, "is_reserved": 0, "fusion_lat": 0.0, "lat": 38.89899166666667, "fusion_lon": 0.0, "rental_uris": {"ios": "https://dc.lft.to/lastmile_qr_scan", "android": "https://dc.lft.to/lastmile_qr_scan"}, "lon": -77.0322905, "bike_id": "e5322944576d73e331b74c2c1b0df116", "type": "electric_scooter", "name": "e5322944576d73e331b74c2c1b0df116"}, {"is_disabled": 0, "is_reserved": 0, "fusion_lat": 0.0, "lat": 38.906243333333336, "fusion_lon": 0.0, "rental_uris": {"ios": "https://dc.lft.to/lastmile_qr_scan", "android": "https://dc.lft.to/lastmile_qr_scan"}, "lon": -76.98657733333333, "bike_id": "8c58abe01f154e4ebb82e527ee03ab47", "type": "electric_scooter", "name": "8c58abe01f154e4ebb82e527ee03ab47"}, {"is_disabled": 0, "is_reserved": 0, "fusion_lat": 0.0, "lat": 38.92503, "fusion_lon": 0.0, "rental_uris": {"ios": "https://dc.lft.to/lastmile_qr_scan", "android": "https://dc.lft.to/lastmile_qr_scan"}, "lon": -77.023528, "bike_id": "680ebf6847d6059fd44f81d8da1d199c", "type": "electric_scooter", "name": "680ebf6847d6059fd44f81d8da1d199c"}, {"is_disabled": 0, "is_reserved": 0, "fusion_lat": 0.0, "lat": 38.91758633333333, "fusion_lon": 0.0, "rental_uris": {"ios": "https://dc.lft.to/lastmile_qr_scan", "android": "https://dc.lft.to/lastmile_qr_scan"}, "lon": -77.03874733333333, "bike_id": "1c7c53a2aa2a7631a9a5c727ad88fd7d", "type": "electric_scooter", "name": "1c7c53a2aa2a7631a9a5c727ad88fd7d"}, {"is_disabled": 0, "is_reserved": 0, "fusion_lat": 0.0, "lat": 38.902516166666665, "fusion_lon": 0.0, "rental_uris": {"ios": "https://dc.lft.to/lastmile_qr_scan", "android": "https://dc.lft.to/lastmile_qr_scan"}, "lon": -77.02667433333333, "bike_id": "15b0b5a85f5d8ff9e96db1e48ad2565f", "type": "electric_scooter", "name": "15b0b5a85f5d8ff9e96db1e48ad2565f"}, {"is_disabled": 0, "is_reserved": 0, "fusion_lat": 0.0, "lat": 38.92161483333334, "fusion_lon": 0.0, "rental_uris": {"ios": "https://dc.lft.to/lastmile_qr_scan", "android": "https://dc.lft.to/lastmile_qr_scan"}, "lon": -77.04006433333333, "bike_id": "fd9c1b694dddc9311e0a2ed44bb0b35e", "type": "electric_scooter", "name": "fd9c1b694dddc9311e0a2ed44bb0b35e"}, {"is_disabled": 0, "is_reserved": 0, "fusion_lat": 0.0, "lat": 38.92148816666667, "fusion_lon": 0.0, "rental_uris": {"ios": "https://dc.lft.to/lastmile_qr_scan", "android": "https://dc.lft.to/lastmile_qr_scan"}, "lon": -77.03508833333333, "bike_id": "6002f2b89b9c33ca88c8ef4d65178ade", "type": "electric_scooter", "name": "6002f2b89b9c33ca88c8ef4d65178ade"}, {"is_disabled": 0, "is_reserved": 0, "fusion_lat": 0.0, "lat": 38.91030333333333, "fusion_lon": 0.0, "rental_uris": {"ios": "https://dc.lft.to/lastmile_qr_scan", "android": "https://dc.lft.to/lastmile_qr_scan"}, "lon": -76.92327033333333, "bike_id": "99d1114e6bc6b30cdc217b534d9a3339", "type": "electric_bike", "name": "99d1114e6bc6b30cdc217b534d9a3339"}, {"is_disabled": 0, "is_reserved": 0, "fusion_lat": 0.0, "lat": 38.93345216666667, "fusion_lon": 0.0, "rental_uris": {"ios": "https://dc.lft.to/lastmile_qr_scan", "android": "https://dc.lft.to/lastmile_qr_scan"}, "lon": -77.059356, "bike_id": "87c89e009c8e9374dd040f93622af51b", "type": "electric_scooter", "name": "87c89e009c8e9374dd040f93622af51b"}, {"is_disabled": 0, "is_reserved": 0, "fusion_lat": 0.0, "lat": 38.89958583333333, "fusion_lon": 0.0, "rental_uris": {"ios": "https://dc.lft.to/lastmile_qr_scan", "android": "https://dc.lft.to/lastmile_qr_scan"}, "lon": -77.04793333333333, "bike_id": "bb27b86c27f851a0a91b2b4ca3ae56a1", "type": "electric_scooter", "name": "bb27b86c27f851a0a91b2b4ca3ae56a1"}, {"is_disabled": 0, "is_reserved": 0, "fusion_lat": 0.0, "lat": 38.90160566666667, "fusion_lon": 0.0, "rental_uris": {"ios": "https://dc.lft.to/lastmile_qr_scan", "android": "https://dc.lft.to/lastmile_qr_scan"}, "lon": -77.02406366666666, "bike_id": "72ee5231f8b3e1c779b3c34a7eea4221", "type": "electric_scooter", "name": "72ee5231f8b3e1c779b3c34a7eea4221"}, {"is_disabled": 0, "is_reserved": 0, "fusion_lat": 0.0, "lat": 38.9046365, "fusion_lon": 0.0, "rental_uris": {"ios": "https://dc.lft.to/lastmile_qr_scan", "android": "https://dc.lft.to/lastmile_qr_scan"}, "lon": -77.048453, "bike_id": "50177ad604df5bea748830fd9931f7e9", "type": "electric_scooter", "name": "50177ad604df5bea748830fd9931f7e9"}, {"is_disabled": 0, "is_reserved": 0, "fusion_lat": 0.0, "lat": 38.92865483333333, "fusion_lon": 0.0, "rental_uris": {"ios": "https://dc.lft.to/lastmile_qr_scan", "android": "https://dc.lft.to/lastmile_qr_scan"}, "lon": -77.07890516666667, "bike_id": "f1d4da601890d999353f00ff73c92850", "type": "electric_scooter", "name": "f1d4da601890d999353f00ff73c92850"}, {"is_disabled": 0, "is_reserved": 0, "fusion_lat": 0.0, "lat": 38.9170815, "fusion_lon": 0.0, "rental_uris": {"ios": "https://dc.lft.to/lastmile_qr_scan", "android": "https://dc.lft.to/lastmile_qr_scan"}, "lon": -77.03862633333334, "bike_id": "bfb5c49aa47dc738acefe07a04e96111", "type": "electric_scooter", "name": "bfb5c49aa47dc738acefe07a04e96111"}, {"is_disabled": 0, "is_reserved": 0, "fusion_lat": 0.0, "lat": 38.877920333333336, "fusion_lon": 0.0, "rental_uris": {"ios": "https://dc.lft.to/lastmile_qr_scan", "android": "https://dc.lft.to/lastmile_qr_scan"}, "lon": -77.001202, "bike_id": "48909170a80f3e9dd3ab97fc0a992daf", "type": "electric_scooter", "name": "48909170a80f3e9dd3ab97fc0a992daf"}, {"is_disabled": 0, "is_reserved": 0, "fusion_lat": 0.0, "lat": 38.883610833333336, "fusion_lon": 0.0, "rental_uris": {"ios": "https://dc.lft.to/lastmile_qr_scan", "android": "https://dc.lft.to/lastmile_qr_scan"}, "lon": -76.927911, "bike_id": "fce3eb3cac0742ea61bc8a0d05411133", "type": "electric_scooter", "name": "fce3eb3cac0742ea61bc8a0d05411133"}, {"is_disabled": 0, "is_reserved": 0, "fusion_lat": 0.0, "lat": 38.91836266666667, "fusion_lon": 0.0, "rental_uris": {"ios": "https://dc.lft.to/lastmile_qr_scan", "android": "https://dc.lft.to/lastmile_qr_scan"}, "lon": -77.04169166666667, "bike_id": "e1f076226595dfe16fdd7f367ebee6be", "type": "electric_scooter", "name": "e1f076226595dfe16fdd7f367ebee6be"}, {"is_disabled": 0, "is_reserved": 0, "fusion_lat": 0.0, "lat": 38.922345166666666, "fusion_lon": 0.0, "rental_uris": {"ios": "https://dc.lft.to/lastmile_qr_scan", "android": "https://dc.lft.to/lastmile_qr_scan"}, "lon": -77.02710466666667, "bike_id": "3c5d826f9d7408db31d90976f0fa1cb8", "type": "electric_scooter", "name": "3c5d826f9d7408db31d90976f0fa1cb8"}, {"is_disabled": 0, "is_reserved": 0, "fusion_lat": 0.0, "lat": 38.923279666666666, "fusion_lon": 0.0, "rental_uris": {"ios": "https://dc.lft.to/lastmile_qr_scan", "android": "https://dc.lft.to/lastmile_qr_scan"}, "lon": -77.0568295, "bike_id": "b1e6fc8a54414acb0d83549a9db711ac", "type": "electric_scooter", "name": "b1e6fc8a54414acb0d83549a9db711ac"}, {"is_disabled": 0, "is_reserved": 0, "fusion_lat": 0.0, "lat": 38.91837483333333, "fusion_lon": 0.0, "rental_uris": {"ios": "https://dc.lft.to/lastmile_qr_scan", "android": "https://dc.lft.to/lastmile_qr_scan"}, "lon": -77.039107, "bike_id": "efc732710f3b05f24d8308c823391d4a", "type": "electric_scooter", "name": "efc732710f3b05f24d8308c823391d4a"}, {"is_disabled": 0, "is_reserved": 0, "fusion_lat": 0.0, "lat": 38.92388533333333, "fusion_lon": 0.0, "rental_uris": {"ios": "https://dc.lft.to/lastmile_qr_scan", "android": "https://dc.lft.to/lastmile_qr_scan"}, "lon": -77.02590233333333, "bike_id": "5a48ac1bae82dd6baffb3e960f455257", "type": "electric_scooter", "name": "5a48ac1bae82dd6baffb3e960f455257"}, {"is_disabled": 0, "is_reserved": 0, "fusion_lat": 0.0, "lat": 38.9247155, "fusion_lon": 0.0, "rental_uris": {"ios": "https://dc.lft.to/lastmile_qr_scan", "android": "https://dc.lft.to/lastmile_qr_scan"}, "lon": -77.035293, "bike_id": "8c4e878a147bdc71197babced4b34dd3", "type": "electric_scooter", "name": "8c4e878a147bdc71197babced4b34dd3"}, {"is_disabled": 0, "is_reserved": 0, "fusion_lat": 0.0, "lat": 38.88282616666667, "fusion_lon": 0.0, "rental_uris": {"ios": "https://dc.lft.to/lastmile_qr_scan", "android": "https://dc.lft.to/lastmile_qr_scan"}, "lon": -76.93238933333333, "bike_id": "9a9e763717c763120a16efef5f697c10", "type": "electric_bike", "name": "9a9e763717c763120a16efef5f697c10"}, {"is_disabled": 0, "is_reserved": 0, "fusion_lat": 0.0, "lat": 38.92291633333333, "fusion_lon": 0.0, "rental_uris": {"ios": "https://dc.lft.to/lastmile_qr_scan", "android": "https://dc.lft.to/lastmile_qr_scan"}, "lon": -77.0422295, "bike_id": "2e4c6d0d8ac544cd5db4b1588b24f5c1", "type": "electric_scooter", "name": "2e4c6d0d8ac544cd5db4b1588b24f5c1"}, {"is_disabled": 0, "is_reserved": 0, "fusion_lat": 0.0, "lat": 38.90190716666667, "fusion_lon": 0.0, "rental_uris": {"ios": "https://dc.lft.to/lastmile_qr_scan", "android": "https://dc.lft.to/lastmile_qr_scan"}, "lon": -77.04997283333333, "bike_id": "5fbf5ae7a5518202848afd2316b25e96", "type": "electric_scooter", "name": "5fbf5ae7a5518202848afd2316b25e96"}, {"is_disabled": 0, "is_reserved": 0, "fusion_lat": 0.0, "lat": 38.94815416666667, "fusion_lon": 0.0, "rental_uris": {"ios": "https://dc.lft.to/lastmile_qr_scan", "android": "https://dc.lft.to/lastmile_qr_scan"}, "lon": -77.0252755, "bike_id": "818d46be655abd3c0282174a303692ba", "type": "electric_scooter", "name": "818d46be655abd3c0282174a303692ba"}, {"is_disabled": 0, "is_reserved": 0, "fusion_lat": 0.0, "lat": 38.938635833333336, "fusion_lon": 0.0, "rental_uris": {"ios": "https://dc.lft.to/lastmile_qr_scan", "android": "https://dc.lft.to/lastmile_qr_scan"}, "lon": -77.03040533333333, "bike_id": "1db4127e459b8f643ecfe75bcd11f2e0", "type": "electric_scooter", "name": "1db4127e459b8f643ecfe75bcd11f2e0"}, {"is_disabled": 0, "is_reserved": 0, "fusion_lat": 0.0, "lat": 38.90682, "fusion_lon": 0.0, "rental_uris": {"ios": "https://dc.lft.to/lastmile_qr_scan", "android": "https://dc.lft.to/lastmile_qr_scan"}, "lon": -77.05318333333334, "bike_id": "27153f563a8ac853a072668bea258b6a", "type": "electric_scooter", "name": "27153f563a8ac853a072668bea258b6a"}, {"is_disabled": 0, "is_reserved": 0, "fusion_lat": 0.0, "lat": 38.920045333333334, "fusion_lon": 0.0, "rental_uris": {"ios": "https://dc.lft.to/lastmile_qr_scan", "android": "https://dc.lft.to/lastmile_qr_scan"}, "lon": -77.04166783333334, "bike_id": "f149937da0bbebe913ad32bcdfe91c94", "type": "electric_scooter", "name": "f149937da0bbebe913ad32bcdfe91c94"}, {"is_disabled": 0, "is_reserved": 0, "fusion_lat": 0.0, "lat": 38.905326, "fusion_lon": 0.0, "rental_uris": {"ios": "https://dc.lft.to/lastmile_qr_scan", "android": "https://dc.lft.to/lastmile_qr_scan"}, "lon": -77.006942, "bike_id": "f980478e50339673664124221a06d27d", "type": "electric_scooter", "name": "f980478e50339673664124221a06d27d"}, {"is_disabled": 0, "is_reserved": 0, "fusion_lat": 0.0, "lat": 38.90259666666667, "fusion_lon": 0.0, "rental_uris": {"ios": "https://dc.lft.to/lastmile_qr_scan", "android": "https://dc.lft.to/lastmile_qr_scan"}, "lon": -77.058803, "bike_id": "89d0f0db15cf4a124d54e9cdf8f1e5e2", "type": "electric_scooter", "name": "89d0f0db15cf4a124d54e9cdf8f1e5e2"}, {"is_disabled": 0, "is_reserved": 0, "fusion_lat": 0.0, "lat": 38.85221216666667, "fusion_lon": 0.0, "rental_uris": {"ios": "https://dc.lft.to/lastmile_qr_scan", "android": "https://dc.lft.to/lastmile_qr_scan"}, "lon": -76.99370133333333, "bike_id": "190939b37cc3196d8a1742a687129d5e", "type": "electric_bike", "name": "190939b37cc3196d8a1742a687129d5e"}, {"is_disabled": 0, "is_reserved": 0, "fusion_lat": 0.0, "lat": 38.917571833333334, "fusion_lon": 0.0, "rental_uris": {"ios": "https://dc.lft.to/lastmile_qr_scan", "android": "https://dc.lft.to/lastmile_qr_scan"}, "lon": -77.03907466666666, "bike_id": "0d1c07dd8ce0af3662a57b3e45c22c16", "type": "electric_scooter", "name": "0d1c07dd8ce0af3662a57b3e45c22c16"}, {"is_disabled": 0, "is_reserved": 0, "fusion_lat": 0.0, "lat": 38.9199365, "fusion_lon": 0.0, "rental_uris": {"ios": "https://dc.lft.to/lastmile_qr_scan", "android": "https://dc.lft.to/lastmile_qr_scan"}, "lon": -77.0473355, "bike_id": "936a41d2364d56bbb20b826ec07566f1", "type": "electric_scooter", "name": "936a41d2364d56bbb20b826ec07566f1"}, {"is_disabled": 0, "is_reserved": 0, "fusion_lat": 0.0, "lat": 38.883563, "fusion_lon": 0.0, "rental_uris": {"ios": "https://dc.lft.to/lastmile_qr_scan", "android": "https://dc.lft.to/lastmile_qr_scan"}, "lon": -76.957685, "bike_id": "507659b2139562027b0f90f818786514", "type": "electric_scooter", "name": "507659b2139562027b0f90f818786514"}, {"is_disabled": 0, "is_reserved": 0, "fusion_lat": 0.0, "lat": 38.94458016666667, "fusion_lon": 0.0, "rental_uris": {"ios": "https://dc.lft.to/lastmile_qr_scan", "android": "https://dc.lft.to/lastmile_qr_scan"}, "lon": -77.00646283333333, "bike_id": "9ca650184de2ad86bfb9c87884c55ea7", "type": "electric_scooter", "name": "9ca650184de2ad86bfb9c87884c55ea7"}, {"is_disabled": 0, "is_reserved": 0, "fusion_lat": 0.0, "lat": 38.898467, "fusion_lon": 0.0, "rental_uris": {"ios": "https://dc.lft.to/lastmile_qr_scan", "android": "https://dc.lft.to/lastmile_qr_scan"}, "lon": -76.94251733333333, "bike_id": "595eb556fed0d1d2dbb4236f4be4d5c4", "type": "electric_bike", "name": "595eb556fed0d1d2dbb4236f4be4d5c4"}, {"is_disabled": 0, "is_reserved": 0, "fusion_lat": 0.0, "lat": 38.948336833333336, "fusion_lon": 0.0, "rental_uris": {"ios": "https://dc.lft.to/lastmile_qr_scan", "android": "https://dc.lft.to/lastmile_qr_scan"}, "lon": -77.07981933333333, "bike_id": "c6ce5170bc0e2fe665384c4aac23656a", "type": "electric_scooter", "name": "c6ce5170bc0e2fe665384c4aac23656a"}, {"is_disabled": 0, "is_reserved": 0, "fusion_lat": 0.0, "lat": 38.89228166666667, "fusion_lon": 0.0, "rental_uris": {"ios": "https://dc.lft.to/lastmile_qr_scan", "android": "https://dc.lft.to/lastmile_qr_scan"}, "lon": -77.049978, "bike_id": "6b35ee197dcf4b5cdd106b4d52484946", "type": "electric_scooter", "name": "6b35ee197dcf4b5cdd106b4d52484946"}, {"is_disabled": 0, "is_reserved": 0, "fusion_lat": 0.0, "lat": 38.89252366666667, "fusion_lon": 0.0, "rental_uris": {"ios": "https://dc.lft.to/lastmile_qr_scan", "android": "https://dc.lft.to/lastmile_qr_scan"}, "lon": -76.92548316666667, "bike_id": "30735bf170334de99e015e13f7eb2332", "type": "electric_scooter", "name": "30735bf170334de99e015e13f7eb2332"}, {"is_disabled": 0, "is_reserved": 0, "fusion_lat": 0.0, "lat": 38.90868866666667, "fusion_lon": 0.0, "rental_uris": {"ios": "https://dc.lft.to/lastmile_qr_scan", "android": "https://dc.lft.to/lastmile_qr_scan"}, "lon": -77.032841, "bike_id": "0cf0b5bf13104822172c46c93c6d7ea2", "type": "electric_scooter", "name": "0cf0b5bf13104822172c46c93c6d7ea2"}, {"is_disabled": 0, "is_reserved": 0, "fusion_lat": 0.0, "lat": 38.91223166666666, "fusion_lon": 0.0, "rental_uris": {"ios": "https://dc.lft.to/lastmile_qr_scan", "android": "https://dc.lft.to/lastmile_qr_scan"}, "lon": -77.0363805, "bike_id": "a9dd20205e42824390afc1a300997e37", "type": "electric_scooter", "name": "a9dd20205e42824390afc1a300997e37"}, {"is_disabled": 0, "is_reserved": 0, "fusion_lat": 0.0, "lat": 38.89403133333333, "fusion_lon": 0.0, "rental_uris": {"ios": "https://dc.lft.to/lastmile_qr_scan", "android": "https://dc.lft.to/lastmile_qr_scan"}, "lon": -77.03378366666666, "bike_id": "6dec299fb042d4cd992af040a9bed39f", "type": "electric_scooter", "name": "6dec299fb042d4cd992af040a9bed39f"}, {"is_disabled": 0, "is_reserved": 0, "fusion_lat": 0.0, "lat": 38.91863516666667, "fusion_lon": 0.0, "rental_uris": {"ios": "https://dc.lft.to/lastmile_qr_scan", "android": "https://dc.lft.to/lastmile_qr_scan"}, "lon": -76.96085016666666, "bike_id": "beedd5085bc160e6b53172562837f4bb", "type": "electric_scooter", "name": "beedd5085bc160e6b53172562837f4bb"}, {"is_disabled": 0, "is_reserved": 0, "fusion_lat": 0.0, "lat": 38.91922183333333, "fusion_lon": 0.0, "rental_uris": {"ios": "https://dc.lft.to/lastmile_qr_scan", "android": "https://dc.lft.to/lastmile_qr_scan"}, "lon": -77.0321495, "bike_id": "1df931d624a83a9cfa12b3d909747758", "type": "electric_scooter", "name": "1df931d624a83a9cfa12b3d909747758"}, {"is_disabled": 0, "is_reserved": 0, "fusion_lat": 0.0, "lat": 38.91923216666667, "fusion_lon": 0.0, "rental_uris": {"ios": "https://dc.lft.to/lastmile_qr_scan", "android": "https://dc.lft.to/lastmile_qr_scan"}, "lon": -77.01352433333334, "bike_id": "21c666ccb88723dbbbc6f8d04da651b9", "type": "electric_scooter", "name": "21c666ccb88723dbbbc6f8d04da651b9"}, {"is_disabled": 0, "is_reserved": 0, "fusion_lat": 0.0, "lat": 38.88599516666667, "fusion_lon": 0.0, "rental_uris": {"ios": "https://dc.lft.to/lastmile_qr_scan", "android": "https://dc.lft.to/lastmile_qr_scan"}, "lon": -77.00075566666666, "bike_id": "d914cacbe99925df0be77d78e7e8e53e", "type": "electric_bike", "name": "d914cacbe99925df0be77d78e7e8e53e"}, {"is_disabled": 0, "is_reserved": 0, "fusion_lat": 0.0, "lat": 38.9145395, "fusion_lon": 0.0, "rental_uris": {"ios": "https://dc.lft.to/lastmile_qr_scan", "android": "https://dc.lft.to/lastmile_qr_scan"}, "lon": -76.97279483333334, "bike_id": "7be8f703d7e5a85243ae9950d4b73cda", "type": "electric_bike", "name": "7be8f703d7e5a85243ae9950d4b73cda"}, {"is_disabled": 0, "is_reserved": 0, "fusion_lat": 0.0, "lat": 38.92466266666667, "fusion_lon": 0.0, "rental_uris": {"ios": "https://dc.lft.to/lastmile_qr_scan", "android": "https://dc.lft.to/lastmile_qr_scan"}, "lon": -77.02021483333333, "bike_id": "62225b3b0279ec275be9cdc17e144bde", "type": "electric_scooter", "name": "62225b3b0279ec275be9cdc17e144bde"}, {"is_disabled": 0, "is_reserved": 0, "fusion_lat": 0.0, "lat": 38.882942166666666, "fusion_lon": 0.0, "rental_uris": {"ios": "https://dc.lft.to/lastmile_qr_scan", "android": "https://dc.lft.to/lastmile_qr_scan"}, "lon": -76.93489883333334, "bike_id": "c743fb8edb181bac6c8e48b5111bb387", "type": "electric_scooter", "name": "c743fb8edb181bac6c8e48b5111bb387"}, {"is_disabled": 0, "is_reserved": 0, "fusion_lat": 0.0, "lat": 38.89245533333333, "fusion_lon": 0.0, "rental_uris": {"ios": "https://dc.lft.to/lastmile_qr_scan", "android": "https://dc.lft.to/lastmile_qr_scan"}, "lon": -77.046467, "bike_id": "7de4db119ba9786d68516cf3d3dd992e", "type": "electric_scooter", "name": "7de4db119ba9786d68516cf3d3dd992e"}, {"is_disabled": 0, "is_reserved": 0, "fusion_lat": 0.0, "lat": 38.91346633333333, "fusion_lon": 0.0, "rental_uris": {"ios": "https://dc.lft.to/lastmile_qr_scan", "android": "https://dc.lft.to/lastmile_qr_scan"}, "lon": -77.063943, "bike_id": "61d0f7ea651da1d4ef02737e873e4ef4", "type": "electric_scooter", "name": "61d0f7ea651da1d4ef02737e873e4ef4"}, {"is_disabled": 0, "is_reserved": 0, "fusion_lat": 0.0, "lat": 38.90167566666667, "fusion_lon": 0.0, "rental_uris": {"ios": "https://dc.lft.to/lastmile_qr_scan", "android": "https://dc.lft.to/lastmile_qr_scan"}, "lon": -76.98063716666667, "bike_id": "cf723327d234eefced2fe2be8847e82d", "type": "electric_scooter", "name": "cf723327d234eefced2fe2be8847e82d"}, {"is_disabled": 0, "is_reserved": 0, "fusion_lat": 0.0, "lat": 38.922158, "fusion_lon": 0.0, "rental_uris": {"ios": "https://dc.lft.to/lastmile_qr_scan", "android": "https://dc.lft.to/lastmile_qr_scan"}, "lon": -77.04238483333333, "bike_id": "d48ee6d6f8f1f5ca99c5f7f80ed92786", "type": "electric_scooter", "name": "d48ee6d6f8f1f5ca99c5f7f80ed92786"}, {"is_disabled": 0, "is_reserved": 0, "fusion_lat": 0.0, "lat": 38.8966635, "fusion_lon": 0.0, "rental_uris": {"ios": "https://dc.lft.to/lastmile_qr_scan", "android": "https://dc.lft.to/lastmile_qr_scan"}, "lon": -76.93205816666666, "bike_id": "33a202bb55601dd2565c0039d28c0dbf", "type": "electric_bike", "name": "33a202bb55601dd2565c0039d28c0dbf"}, {"is_disabled": 0, "is_reserved": 0, "fusion_lat": 0.0, "lat": 38.91778166666667, "fusion_lon": 0.0, "rental_uris": {"ios": "https://dc.lft.to/lastmile_qr_scan", "android": "https://dc.lft.to/lastmile_qr_scan"}, "lon": -77.04530766666667, "bike_id": "ba61f5d87e45cfd7b0c11abd5b89bba1", "type": "electric_scooter", "name": "ba61f5d87e45cfd7b0c11abd5b89bba1"}, {"is_disabled": 0, "is_reserved": 0, "fusion_lat": 0.0, "lat": 38.92848133333333, "fusion_lon": 0.0, "rental_uris": {"ios": "https://dc.lft.to/lastmile_qr_scan", "android": "https://dc.lft.to/lastmile_qr_scan"}, "lon": -77.02954883333334, "bike_id": "4ec48d46248e4d0e1f5083faa9f95239", "type": "electric_scooter", "name": "4ec48d46248e4d0e1f5083faa9f95239"}, {"is_disabled": 0, "is_reserved": 0, "fusion_lat": 0.0, "lat": 38.934156, "fusion_lon": 0.0, "rental_uris": {"ios": "https://dc.lft.to/lastmile_qr_scan", "android": "https://dc.lft.to/lastmile_qr_scan"}, "lon": -77.07239083333333, "bike_id": "28642b0086f79c690202d8e1110060a9", "type": "electric_scooter", "name": "28642b0086f79c690202d8e1110060a9"}, {"is_disabled": 0, "is_reserved": 0, "fusion_lat": 0.0, "lat": 38.97440783333333, "fusion_lon": 0.0, "rental_uris": {"ios": "https://dc.lft.to/lastmile_qr_scan", "android": "https://dc.lft.to/lastmile_qr_scan"}, "lon": -77.09586566666667, "bike_id": "f9a45a220fc5dd8ac08517ef0a1551d6", "type": "electric_bike", "name": "f9a45a220fc5dd8ac08517ef0a1551d6"}, {"is_disabled": 0, "is_reserved": 0, "fusion_lat": 0.0, "lat": 38.91761533333333, "fusion_lon": 0.0, "rental_uris": {"ios": "https://dc.lft.to/lastmile_qr_scan", "android": "https://dc.lft.to/lastmile_qr_scan"}, "lon": -77.02948566666667, "bike_id": "ea8feeb59b005f9a524c8ace62608745", "type": "electric_scooter", "name": "ea8feeb59b005f9a524c8ace62608745"}, {"is_disabled": 0, "is_reserved": 0, "fusion_lat": 0.0, "lat": 38.9230095, "fusion_lon": 0.0, "rental_uris": {"ios": "https://dc.lft.to/lastmile_qr_scan", "android": "https://dc.lft.to/lastmile_qr_scan"}, "lon": -77.03397366666667, "bike_id": "be566739304769aaf75b20dc60616244", "type": "electric_scooter", "name": "be566739304769aaf75b20dc60616244"}, {"is_disabled": 0, "is_reserved": 0, "fusion_lat": 0.0, "lat": 38.90960916666667, "fusion_lon": 0.0, "rental_uris": {"ios": "https://dc.lft.to/lastmile_qr_scan", "android": "https://dc.lft.to/lastmile_qr_scan"}, "lon": -77.0334065, "bike_id": "bf227419d7c6ea8b39ecf8e7ae1e3221", "type": "electric_scooter", "name": "bf227419d7c6ea8b39ecf8e7ae1e3221"}, {"is_disabled": 0, "is_reserved": 0, "fusion_lat": 0.0, "lat": 38.87653066666667, "fusion_lon": 0.0, "rental_uris": {"ios": "https://dc.lft.to/lastmile_qr_scan", "android": "https://dc.lft.to/lastmile_qr_scan"}, "lon": -77.00895033333333, "bike_id": "aa871eb9fc9b50b46527c3710ab01c48", "type": "electric_scooter", "name": "aa871eb9fc9b50b46527c3710ab01c48"}, {"is_disabled": 0, "is_reserved": 0, "fusion_lat": 0.0, "lat": 38.919850833333335, "fusion_lon": 0.0, "rental_uris": {"ios": "https://dc.lft.to/lastmile_qr_scan", "android": "https://dc.lft.to/lastmile_qr_scan"}, "lon": -77.04167016666666, "bike_id": "bb047350fd10b440024b3b3a351ef870", "type": "electric_scooter", "name": "bb047350fd10b440024b3b3a351ef870"}, {"is_disabled": 0, "is_reserved": 0, "fusion_lat": 0.0, "lat": 38.89290716666667, "fusion_lon": 0.0, "rental_uris": {"ios": "https://dc.lft.to/lastmile_qr_scan", "android": "https://dc.lft.to/lastmile_qr_scan"}, "lon": -76.976153, "bike_id": "88515027b860c0f89e2ef1dcab5514a4", "type": "electric_bike", "name": "88515027b860c0f89e2ef1dcab5514a4"}, {"is_disabled": 0, "is_reserved": 0, "fusion_lat": 0.0, "lat": 38.926558166666666, "fusion_lon": 0.0, "rental_uris": {"ios": "https://dc.lft.to/lastmile_qr_scan", "android": "https://dc.lft.to/lastmile_qr_scan"}, "lon": -77.024425, "bike_id": "a0e2d490ff14baa4ca055344791a8152", "type": "electric_scooter", "name": "a0e2d490ff14baa4ca055344791a8152"}, {"is_disabled": 0, "is_reserved": 0, "fusion_lat": 0.0, "lat": 38.923534333333336, "fusion_lon": 0.0, "rental_uris": {"ios": "https://dc.lft.to/lastmile_qr_scan", "android": "https://dc.lft.to/lastmile_qr_scan"}, "lon": -77.07301816666667, "bike_id": "78f5ca015a6df0893d19af1b38645439", "type": "electric_scooter", "name": "78f5ca015a6df0893d19af1b38645439"}, {"is_disabled": 0, "is_reserved": 0, "fusion_lat": 0.0, "lat": 38.93700483333333, "fusion_lon": 0.0, "rental_uris": {"ios": "https://dc.lft.to/lastmile_qr_scan", "android": "https://dc.lft.to/lastmile_qr_scan"}, "lon": -77.055962, "bike_id": "aa2b1564a51df50cd865f43d64314b1c", "type": "electric_scooter", "name": "aa2b1564a51df50cd865f43d64314b1c"}, {"is_disabled": 0, "is_reserved": 0, "fusion_lat": 0.0, "lat": 38.92398466666667, "fusion_lon": 0.0, "rental_uris": {"ios": "https://dc.lft.to/lastmile_qr_scan", "android": "https://dc.lft.to/lastmile_qr_scan"}, "lon": -76.99374383333334, "bike_id": "08bfd3f91f7fc0ea2eabd552f14f632c", "type": "electric_scooter", "name": "08bfd3f91f7fc0ea2eabd552f14f632c"}, {"is_disabled": 0, "is_reserved": 0, "fusion_lat": 0.0, "lat": 38.892069, "fusion_lon": 0.0, "rental_uris": {"ios": "https://dc.lft.to/lastmile_qr_scan", "android": "https://dc.lft.to/lastmile_qr_scan"}, "lon": -76.99842483333333, "bike_id": "30c1304b920727fae712c343bc8236e4", "type": "electric_scooter", "name": "30c1304b920727fae712c343bc8236e4"}, {"is_disabled": 0, "is_reserved": 0, "fusion_lat": 0.0, "lat": 38.93117, "fusion_lon": 0.0, "rental_uris": {"ios": "https://dc.lft.to/lastmile_qr_scan", "android": "https://dc.lft.to/lastmile_qr_scan"}, "lon": -77.02065866666666, "bike_id": "e0f438f598007177c891270e0ba36a77", "type": "electric_scooter", "name": "e0f438f598007177c891270e0ba36a77"}, {"is_disabled": 0, "is_reserved": 0, "fusion_lat": 0.0, "lat": 38.90797216666667, "fusion_lon": 0.0, "rental_uris": {"ios": "https://dc.lft.to/lastmile_qr_scan", "android": "https://dc.lft.to/lastmile_qr_scan"}, "lon": -77.0497375, "bike_id": "ba9c9499c7ac7b27c9a6547fb45ecb24", "type": "electric_scooter", "name": "ba9c9499c7ac7b27c9a6547fb45ecb24"}, {"is_disabled": 0, "is_reserved": 0, "fusion_lat": 0.0, "lat": 38.91859633333333, "fusion_lon": 0.0, "rental_uris": {"ios": "https://dc.lft.to/lastmile_qr_scan", "android": "https://dc.lft.to/lastmile_qr_scan"}, "lon": -77.044453, "bike_id": "763561292c96ed24e7698955c9fb7a6e", "type": "electric_scooter", "name": "763561292c96ed24e7698955c9fb7a6e"}, {"is_disabled": 0, "is_reserved": 0, "fusion_lat": 0.0, "lat": 38.90732783333333, "fusion_lon": 0.0, "rental_uris": {"ios": "https://dc.lft.to/lastmile_qr_scan", "android": "https://dc.lft.to/lastmile_qr_scan"}, "lon": -77.02792716666667, "bike_id": "544d494ffcf05c5ca5c8f4a31cfbce49", "type": "electric_scooter", "name": "544d494ffcf05c5ca5c8f4a31cfbce49"}, {"is_disabled": 0, "is_reserved": 0, "fusion_lat": 0.0, "lat": 38.932548, "fusion_lon": 0.0, "rental_uris": {"ios": "https://dc.lft.to/lastmile_qr_scan", "android": "https://dc.lft.to/lastmile_qr_scan"}, "lon": -77.03266383333333, "bike_id": "19df205321e8f9a789c68e6580f6c194", "type": "electric_scooter", "name": "19df205321e8f9a789c68e6580f6c194"}, {"is_disabled": 0, "is_reserved": 0, "fusion_lat": 0.0, "lat": 38.91920733333333, "fusion_lon": 0.0, "rental_uris": {"ios": "https://dc.lft.to/lastmile_qr_scan", "android": "https://dc.lft.to/lastmile_qr_scan"}, "lon": -77.03423783333334, "bike_id": "c56e05655503e751e4ff411001f0826b", "type": "electric_scooter", "name": "c56e05655503e751e4ff411001f0826b"}, {"is_disabled": 0, "is_reserved": 0, "fusion_lat": 0.0, "lat": 38.85556966666667, "fusion_lon": 0.0, "rental_uris": {"ios": "https://dc.lft.to/lastmile_qr_scan", "android": "https://dc.lft.to/lastmile_qr_scan"}, "lon": -77.0640085, "bike_id": "36994fa85492d52d2a10abff9375543c", "type": "electric_bike", "name": "36994fa85492d52d2a10abff9375543c"}, {"is_disabled": 0, "is_reserved": 0, "fusion_lat": 0.0, "lat": 38.84230566666667, "fusion_lon": 0.0, "rental_uris": {"ios": "https://dc.lft.to/lastmile_qr_scan", "android": "https://dc.lft.to/lastmile_qr_scan"}, "lon": -76.94884916666666, "bike_id": "ebb6170b2c0796b7e8813763894cff02", "type": "electric_bike", "name": "ebb6170b2c0796b7e8813763894cff02"}, {"is_disabled": 0, "is_reserved": 0, "fusion_lat": 0.0, "lat": 38.92257566666667, "fusion_lon": 0.0, "rental_uris": {"ios": "https://dc.lft.to/lastmile_qr_scan", "android": "https://dc.lft.to/lastmile_qr_scan"}, "lon": -77.036584, "bike_id": "7d8f6adb34c8a2f9941747d9958079f0", "type": "electric_scooter", "name": "7d8f6adb34c8a2f9941747d9958079f0"}, {"is_disabled": 0, "is_reserved": 0, "fusion_lat": 0.0, "lat": 38.90260683333333, "fusion_lon": 0.0, "rental_uris": {"ios": "https://dc.lft.to/lastmile_qr_scan", "android": "https://dc.lft.to/lastmile_qr_scan"}, "lon": -77.01760666666667, "bike_id": "2ca14756f25eb55da09e9d1e781ae9bc", "type": "electric_scooter", "name": "2ca14756f25eb55da09e9d1e781ae9bc"}, {"is_disabled": 0, "is_reserved": 0, "fusion_lat": 0.0, "lat": 38.92824233333333, "fusion_lon": 0.0, "rental_uris": {"ios": "https://dc.lft.to/lastmile_qr_scan", "android": "https://dc.lft.to/lastmile_qr_scan"}, "lon": -77.0225235, "bike_id": "69b9cf0c2602fa21d9a0161804f3263c", "type": "electric_scooter", "name": "69b9cf0c2602fa21d9a0161804f3263c"}, {"is_disabled": 0, "is_reserved": 0, "fusion_lat": 0.0, "lat": 38.92708583333334, "fusion_lon": 0.0, "rental_uris": {"ios": "https://dc.lft.to/lastmile_qr_scan", "android": "https://dc.lft.to/lastmile_qr_scan"}, "lon": -77.03810466666667, "bike_id": "df9c7d1f352cf5035327fca78815e51d", "type": "electric_scooter", "name": "df9c7d1f352cf5035327fca78815e51d"}, {"is_disabled": 0, "is_reserved": 0, "fusion_lat": 0.0, "lat": 38.9574615, "fusion_lon": 0.0, "rental_uris": {"ios": "https://dc.lft.to/lastmile_qr_scan", "android": "https://dc.lft.to/lastmile_qr_scan"}, "lon": -77.020594, "bike_id": "05e678b1c290d9cd5e2e8e84170dd6ec", "type": "electric_scooter", "name": "05e678b1c290d9cd5e2e8e84170dd6ec"}, {"is_disabled": 0, "is_reserved": 0, "fusion_lat": 0.0, "lat": 38.983647500000004, "fusion_lon": 0.0, "rental_uris": {"ios": "https://dc.lft.to/lastmile_qr_scan", "android": "https://dc.lft.to/lastmile_qr_scan"}, "lon": -76.98846416666666, "bike_id": "69faaaf21b7ef54f8088ad3e1c788a20", "type": "electric_bike", "name": "69faaaf21b7ef54f8088ad3e1c788a20"}, {"is_disabled": 0, "is_reserved": 0, "fusion_lat": 0.0, "lat": 38.923314166666664, "fusion_lon": 0.0, "rental_uris": {"ios": "https://dc.lft.to/lastmile_qr_scan", "android": "https://dc.lft.to/lastmile_qr_scan"}, "lon": -77.056792, "bike_id": "f09cb4c488c53b70136140ee5b61170f", "type": "electric_scooter", "name": "f09cb4c488c53b70136140ee5b61170f"}, {"is_disabled": 0, "is_reserved": 0, "fusion_lat": 0.0, "lat": 38.8559175, "fusion_lon": 0.0, "rental_uris": {"ios": "https://dc.lft.to/lastmile_qr_scan", "android": "https://dc.lft.to/lastmile_qr_scan"}, "lon": -76.98552583333333, "bike_id": "8abfc7411409419569c189f54bfe1198", "type": "electric_scooter", "name": "8abfc7411409419569c189f54bfe1198"}, {"is_disabled": 0, "is_reserved": 0, "fusion_lat": 0.0, "lat": 38.894734166666666, "fusion_lon": 0.0, "rental_uris": {"ios": "https://dc.lft.to/lastmile_qr_scan", "android": "https://dc.lft.to/lastmile_qr_scan"}, "lon": -77.041671, "bike_id": "f4718072d3960335a93c9be5758276ee", "type": "electric_scooter", "name": "f4718072d3960335a93c9be5758276ee"}, {"is_disabled": 0, "is_reserved": 0, "fusion_lat": 0.0, "lat": 38.955901, "fusion_lon": 0.0, "rental_uris": {"ios": "https://dc.lft.to/lastmile_qr_scan", "android": "https://dc.lft.to/lastmile_qr_scan"}, "lon": -77.02803466666667, "bike_id": "e774f3d330365afa36a76d7bdb21c7c0", "type": "electric_scooter", "name": "e774f3d330365afa36a76d7bdb21c7c0"}, {"is_disabled": 0, "is_reserved": 0, "fusion_lat": 0.0, "lat": 38.907321, "fusion_lon": 0.0, "rental_uris": {"ios": "https://dc.lft.to/lastmile_qr_scan", "android": "https://dc.lft.to/lastmile_qr_scan"}, "lon": -77.0272685, "bike_id": "a57b92342c630081c13fd46272c745e7", "type": "electric_scooter", "name": "a57b92342c630081c13fd46272c745e7"}, {"is_disabled": 0, "is_reserved": 0, "fusion_lat": 0.0, "lat": 38.951412, "fusion_lon": 0.0, "rental_uris": {"ios": "https://dc.lft.to/lastmile_qr_scan", "android": "https://dc.lft.to/lastmile_qr_scan"}, "lon": -76.966169, "bike_id": "63589cb28bfc16c461801ddc77ccff7a", "type": "electric_bike", "name": "63589cb28bfc16c461801ddc77ccff7a"}, {"is_disabled": 0, "is_reserved": 0, "fusion_lat": 0.0, "lat": 38.8578955, "fusion_lon": 0.0, "rental_uris": {"ios": "https://dc.lft.to/lastmile_qr_scan", "android": "https://dc.lft.to/lastmile_qr_scan"}, "lon": -77.09961166666666, "bike_id": "f087cf6262d190b3b2011062ec06b7cd", "type": "electric_bike", "name": "f087cf6262d190b3b2011062ec06b7cd"}, {"is_disabled": 0, "is_reserved": 0, "fusion_lat": 0.0, "lat": 38.90677, "fusion_lon": 0.0, "rental_uris": {"ios": "https://dc.lft.to/lastmile_qr_scan", "android": "https://dc.lft.to/lastmile_qr_scan"}, "lon": -77.0270315, "bike_id": "69ac9f3d4c53483d65ac56a3abbafae3", "type": "electric_scooter", "name": "69ac9f3d4c53483d65ac56a3abbafae3"}, {"is_disabled": 0, "is_reserved": 0, "fusion_lat": 0.0, "lat": 38.893858, "fusion_lon": 0.0, "rental_uris": {"ios": "https://dc.lft.to/lastmile_qr_scan", "android": "https://dc.lft.to/lastmile_qr_scan"}, "lon": -77.0442515, "bike_id": "e35c1497978f0f465df9c13ebc023440", "type": "electric_scooter", "name": "e35c1497978f0f465df9c13ebc023440"}, {"is_disabled": 0, "is_reserved": 0, "fusion_lat": 0.0, "lat": 38.915532166666665, "fusion_lon": 0.0, "rental_uris": {"ios": "https://dc.lft.to/lastmile_qr_scan", "android": "https://dc.lft.to/lastmile_qr_scan"}, "lon": -77.04177083333333, "bike_id": "7cadda56f1df1f0acd52809193d26d2a", "type": "electric_scooter", "name": "7cadda56f1df1f0acd52809193d26d2a"}, {"is_disabled": 0, "is_reserved": 0, "fusion_lat": 0.0, "lat": 38.90515116666667, "fusion_lon": 0.0, "rental_uris": {"ios": "https://dc.lft.to/lastmile_qr_scan", "android": "https://dc.lft.to/lastmile_qr_scan"}, "lon": -77.06568966666667, "bike_id": "c5800e5412a4cb7cf135cd2abf228621", "type": "electric_scooter", "name": "c5800e5412a4cb7cf135cd2abf228621"}, {"is_disabled": 0, "is_reserved": 0, "fusion_lat": 0.0, "lat": 38.91767216666667, "fusion_lon": 0.0, "rental_uris": {"ios": "https://dc.lft.to/lastmile_qr_scan", "android": "https://dc.lft.to/lastmile_qr_scan"}, "lon": -77.02207316666667, "bike_id": "32ed826aefa781025a8a1040cc6b9c89", "type": "electric_scooter", "name": "32ed826aefa781025a8a1040cc6b9c89"}, {"is_disabled": 0, "is_reserved": 0, "fusion_lat": 0.0, "lat": 38.92150433333333, "fusion_lon": 0.0, "rental_uris": {"ios": "https://dc.lft.to/lastmile_qr_scan", "android": "https://dc.lft.to/lastmile_qr_scan"}, "lon": -77.03503433333333, "bike_id": "c8ee0e2f9cd6b7dd8eb175191f998005", "type": "electric_scooter", "name": "c8ee0e2f9cd6b7dd8eb175191f998005"}, {"is_disabled": 0, "is_reserved": 0, "fusion_lat": 0.0, "lat": 38.95781383333333, "fusion_lon": 0.0, "rental_uris": {"ios": "https://dc.lft.to/lastmile_qr_scan", "android": "https://dc.lft.to/lastmile_qr_scan"}, "lon": -77.02411616666667, "bike_id": "26c5d7948975b55445f65d6910cd8833", "type": "electric_scooter", "name": "26c5d7948975b55445f65d6910cd8833"}, {"is_disabled": 0, "is_reserved": 0, "fusion_lat": 0.0, "lat": 38.915128833333334, "fusion_lon": 0.0, "rental_uris": {"ios": "https://dc.lft.to/lastmile_qr_scan", "android": "https://dc.lft.to/lastmile_qr_scan"}, "lon": -77.0184785, "bike_id": "fb4f1eb41460ed4cccbf837de0257750", "type": "electric_scooter", "name": "fb4f1eb41460ed4cccbf837de0257750"}, {"is_disabled": 0, "is_reserved": 0, "fusion_lat": 0.0, "lat": 38.929710666666665, "fusion_lon": 0.0, "rental_uris": {"ios": "https://dc.lft.to/lastmile_qr_scan", "android": "https://dc.lft.to/lastmile_qr_scan"}, "lon": -77.02818166666667, "bike_id": "c555f35a12aa79a4faf03420f5bf5499", "type": "electric_scooter", "name": "c555f35a12aa79a4faf03420f5bf5499"}, {"is_disabled": 0, "is_reserved": 0, "fusion_lat": 0.0, "lat": 38.9216615, "fusion_lon": 0.0, "rental_uris": {"ios": "https://dc.lft.to/lastmile_qr_scan", "android": "https://dc.lft.to/lastmile_qr_scan"}, "lon": -77.02687066666667, "bike_id": "f6f4d19362159b65baea2c475099a99a", "type": "electric_scooter", "name": "f6f4d19362159b65baea2c475099a99a"}, {"is_disabled": 0, "is_reserved": 0, "fusion_lat": 0.0, "lat": 38.87639433333333, "fusion_lon": 0.0, "rental_uris": {"ios": "https://dc.lft.to/lastmile_qr_scan", "android": "https://dc.lft.to/lastmile_qr_scan"}, "lon": -77.00841833333334, "bike_id": "e225f0338ab1718a61e3509c39940050", "type": "electric_scooter", "name": "e225f0338ab1718a61e3509c39940050"}, {"is_disabled": 0, "is_reserved": 0, "fusion_lat": 0.0, "lat": 38.904496, "fusion_lon": 0.0, "rental_uris": {"ios": "https://dc.lft.to/lastmile_qr_scan", "android": "https://dc.lft.to/lastmile_qr_scan"}, "lon": -77.02669533333334, "bike_id": "3b1aba887608a36b29fbb25c281f5e69", "type": "electric_scooter", "name": "3b1aba887608a36b29fbb25c281f5e69"}, {"is_disabled": 0, "is_reserved": 0, "fusion_lat": 0.0, "lat": 38.875748, "fusion_lon": 0.0, "rental_uris": {"ios": "https://dc.lft.to/lastmile_qr_scan", "android": "https://dc.lft.to/lastmile_qr_scan"}, "lon": -77.00600166666666, "bike_id": "9bbd1f778ea3e397def4127d5dc392d2", "type": "electric_scooter", "name": "9bbd1f778ea3e397def4127d5dc392d2"}, {"is_disabled": 0, "is_reserved": 0, "fusion_lat": 0.0, "lat": 38.915725, "fusion_lon": 0.0, "rental_uris": {"ios": "https://dc.lft.to/lastmile_qr_scan", "android": "https://dc.lft.to/lastmile_qr_scan"}, "lon": -77.0503565, "bike_id": "1355d21ee937adfcc092d041c8cecff1", "type": "electric_scooter", "name": "1355d21ee937adfcc092d041c8cecff1"}, {"is_disabled": 0, "is_reserved": 0, "fusion_lat": 0.0, "lat": 38.92105133333333, "fusion_lon": 0.0, "rental_uris": {"ios": "https://dc.lft.to/lastmile_qr_scan", "android": "https://dc.lft.to/lastmile_qr_scan"}, "lon": -77.031602, "bike_id": "7cf747ae2d7572069a3b6aa083083aa1", "type": "electric_scooter", "name": "7cf747ae2d7572069a3b6aa083083aa1"}, {"is_disabled": 0, "is_reserved": 0, "fusion_lat": 0.0, "lat": 38.91115166666667, "fusion_lon": 0.0, "rental_uris": {"ios": "https://dc.lft.to/lastmile_qr_scan", "android": "https://dc.lft.to/lastmile_qr_scan"}, "lon": -77.03829816666666, "bike_id": "02a3df696a7a50bc40459f4b1cface18", "type": "electric_scooter", "name": "02a3df696a7a50bc40459f4b1cface18"}, {"is_disabled": 0, "is_reserved": 0, "fusion_lat": 0.0, "lat": 38.868896166666666, "fusion_lon": 0.0, "rental_uris": {"ios": "https://dc.lft.to/lastmile_qr_scan", "android": "https://dc.lft.to/lastmile_qr_scan"}, "lon": -76.99001583333333, "bike_id": "5c77f32ed70ad6a8f2f351a357eac84c", "type": "electric_scooter", "name": "5c77f32ed70ad6a8f2f351a357eac84c"}, {"is_disabled": 0, "is_reserved": 0, "fusion_lat": 0.0, "lat": 38.88655466666667, "fusion_lon": 0.0, "rental_uris": {"ios": "https://dc.lft.to/lastmile_qr_scan", "android": "https://dc.lft.to/lastmile_qr_scan"}, "lon": -77.02825383333334, "bike_id": "5615161467ef3161ee235b2ee142eac5", "type": "electric_scooter", "name": "5615161467ef3161ee235b2ee142eac5"}, {"is_disabled": 0, "is_reserved": 0, "fusion_lat": 0.0, "lat": 38.895982333333336, "fusion_lon": 0.0, "rental_uris": {"ios": "https://dc.lft.to/lastmile_qr_scan", "android": "https://dc.lft.to/lastmile_qr_scan"}, "lon": -76.98312116666666, "bike_id": "95107262d53106309230cfef09d1aa22", "type": "electric_scooter", "name": "95107262d53106309230cfef09d1aa22"}, {"is_disabled": 0, "is_reserved": 0, "fusion_lat": 0.0, "lat": 38.925255666666665, "fusion_lon": 0.0, "rental_uris": {"ios": "https://dc.lft.to/lastmile_qr_scan", "android": "https://dc.lft.to/lastmile_qr_scan"}, "lon": -77.03844266666667, "bike_id": "3ed7b7df53d24ce735f7bbce6505abbe", "type": "electric_scooter", "name": "3ed7b7df53d24ce735f7bbce6505abbe"}, {"is_disabled": 0, "is_reserved": 0, "fusion_lat": 0.0, "lat": 38.92702216666667, "fusion_lon": 0.0, "rental_uris": {"ios": "https://dc.lft.to/lastmile_qr_scan", "android": "https://dc.lft.to/lastmile_qr_scan"}, "lon": -76.960723, "bike_id": "c7c2725c6462b0b9793184ba86b0611f", "type": "electric_scooter", "name": "c7c2725c6462b0b9793184ba86b0611f"}, {"is_disabled": 0, "is_reserved": 0, "fusion_lat": 0.0, "lat": 38.9182015, "fusion_lon": 0.0, "rental_uris": {"ios": "https://dc.lft.to/lastmile_qr_scan", "android": "https://dc.lft.to/lastmile_qr_scan"}, "lon": -77.0253095, "bike_id": "3727c6d7bea3192cafac650c362fe445", "type": "electric_scooter", "name": "3727c6d7bea3192cafac650c362fe445"}, {"is_disabled": 0, "is_reserved": 0, "fusion_lat": 0.0, "lat": 38.880813333333336, "fusion_lon": 0.0, "rental_uris": {"ios": "https://dc.lft.to/lastmile_qr_scan", "android": "https://dc.lft.to/lastmile_qr_scan"}, "lon": -76.98521733333334, "bike_id": "819659c4d441cb07f08ab8831ab8d372", "type": "electric_bike", "name": "819659c4d441cb07f08ab8831ab8d372"}, {"is_disabled": 0, "is_reserved": 0, "fusion_lat": 0.0, "lat": 38.94915533333333, "fusion_lon": 0.0, "rental_uris": {"ios": "https://dc.lft.to/lastmile_qr_scan", "android": "https://dc.lft.to/lastmile_qr_scan"}, "lon": -77.0208035, "bike_id": "e4047a3d586e74f3acb38d4f42d1abaa", "type": "electric_scooter", "name": "e4047a3d586e74f3acb38d4f42d1abaa"}, {"is_disabled": 0, "is_reserved": 0, "fusion_lat": 0.0, "lat": 38.87523216666666, "fusion_lon": 0.0, "rental_uris": {"ios": "https://dc.lft.to/lastmile_qr_scan", "android": "https://dc.lft.to/lastmile_qr_scan"}, "lon": -77.0122025, "bike_id": "ced28062d512b32f848176686fcce8a0", "type": "electric_scooter", "name": "ced28062d512b32f848176686fcce8a0"}, {"is_disabled": 0, "is_reserved": 0, "fusion_lat": 0.0, "lat": 38.91549416666667, "fusion_lon": 0.0, "rental_uris": {"ios": "https://dc.lft.to/lastmile_qr_scan", "android": "https://dc.lft.to/lastmile_qr_scan"}, "lon": -77.00361366666667, "bike_id": "d91a040fdc12436dc6585e7dec7e5e87", "type": "electric_scooter", "name": "d91a040fdc12436dc6585e7dec7e5e87"}, {"is_disabled": 0, "is_reserved": 0, "fusion_lat": 0.0, "lat": 38.9016515, "fusion_lon": 0.0, "rental_uris": {"ios": "https://dc.lft.to/lastmile_qr_scan", "android": "https://dc.lft.to/lastmile_qr_scan"}, "lon": -77.0238285, "bike_id": "334f0e2007cd8d268ee70b4f0c7a2cfa", "type": "electric_scooter", "name": "334f0e2007cd8d268ee70b4f0c7a2cfa"}, {"is_disabled": 0, "is_reserved": 0, "fusion_lat": 0.0, "lat": 38.916192833333334, "fusion_lon": 0.0, "rental_uris": {"ios": "https://dc.lft.to/lastmile_qr_scan", "android": "https://dc.lft.to/lastmile_qr_scan"}, "lon": -77.02090716666666, "bike_id": "610efc8d6dff28ab656b1f868a82f97d", "type": "electric_scooter", "name": "610efc8d6dff28ab656b1f868a82f97d"}, {"is_disabled": 0, "is_reserved": 0, "fusion_lat": 0.0, "lat": 38.907689, "fusion_lon": 0.0, "rental_uris": {"ios": "https://dc.lft.to/lastmile_qr_scan", "android": "https://dc.lft.to/lastmile_qr_scan"}, "lon": -77.04536733333333, "bike_id": "441e1016facf4e3416dc759c08397180", "type": "electric_scooter", "name": "441e1016facf4e3416dc759c08397180"}, {"is_disabled": 0, "is_reserved": 0, "fusion_lat": 0.0, "lat": 38.89996083333333, "fusion_lon": 0.0, "rental_uris": {"ios": "https://dc.lft.to/lastmile_qr_scan", "android": "https://dc.lft.to/lastmile_qr_scan"}, "lon": -77.01213316666667, "bike_id": "0b89121c5092c5ea5239ada33b1cc9ce", "type": "electric_scooter", "name": "0b89121c5092c5ea5239ada33b1cc9ce"}, {"is_disabled": 0, "is_reserved": 0, "fusion_lat": 0.0, "lat": 38.87082383333333, "fusion_lon": 0.0, "rental_uris": {"ios": "https://dc.lft.to/lastmile_qr_scan", "android": "https://dc.lft.to/lastmile_qr_scan"}, "lon": -77.0108, "bike_id": "beef7a9b5e11f32c98de316eaa3f423a", "type": "electric_scooter", "name": "beef7a9b5e11f32c98de316eaa3f423a"}, {"is_disabled": 0, "is_reserved": 0, "fusion_lat": 0.0, "lat": 38.919169833333335, "fusion_lon": 0.0, "rental_uris": {"ios": "https://dc.lft.to/lastmile_qr_scan", "android": "https://dc.lft.to/lastmile_qr_scan"}, "lon": -77.03413283333333, "bike_id": "3b1a5b17939a6d5fb23ce8e0f12d1b62", "type": "electric_scooter", "name": "3b1a5b17939a6d5fb23ce8e0f12d1b62"}, {"is_disabled": 0, "is_reserved": 0, "fusion_lat": 0.0, "lat": 38.807324666666666, "fusion_lon": 0.0, "rental_uris": {"ios": "https://dc.lft.to/lastmile_qr_scan", "android": "https://dc.lft.to/lastmile_qr_scan"}, "lon": -76.99265383333334, "bike_id": "7151e0c8365557c93e82601d008c17f5", "type": "electric_bike", "name": "7151e0c8365557c93e82601d008c17f5"}, {"is_disabled": 0, "is_reserved": 0, "fusion_lat": 0.0, "lat": 38.91987316666667, "fusion_lon": 0.0, "rental_uris": {"ios": "https://dc.lft.to/lastmile_qr_scan", "android": "https://dc.lft.to/lastmile_qr_scan"}, "lon": -77.03237433333334, "bike_id": "7a6e5ba9bc6ac5f7ca8cc2d8a9e528d1", "type": "electric_scooter", "name": "7a6e5ba9bc6ac5f7ca8cc2d8a9e528d1"}, {"is_disabled": 0, "is_reserved": 0, "fusion_lat": 0.0, "lat": 38.96231516666667, "fusion_lon": 0.0, "rental_uris": {"ios": "https://dc.lft.to/lastmile_qr_scan", "android": "https://dc.lft.to/lastmile_qr_scan"}, "lon": -77.0262275, "bike_id": "15f3de532762149acbd1b24da99a269d", "type": "electric_bike", "name": "15f3de532762149acbd1b24da99a269d"}, {"is_disabled": 0, "is_reserved": 0, "fusion_lat": 0.0, "lat": 38.92447716666667, "fusion_lon": 0.0, "rental_uris": {"ios": "https://dc.lft.to/lastmile_qr_scan", "android": "https://dc.lft.to/lastmile_qr_scan"}, "lon": -77.02034533333334, "bike_id": "62c9aa1c5c47a9524e3d00bfcdbb533a", "type": "electric_scooter", "name": "62c9aa1c5c47a9524e3d00bfcdbb533a"}, {"is_disabled": 0, "is_reserved": 0, "fusion_lat": 0.0, "lat": 38.92278616666667, "fusion_lon": 0.0, "rental_uris": {"ios": "https://dc.lft.to/lastmile_qr_scan", "android": "https://dc.lft.to/lastmile_qr_scan"}, "lon": -77.02959316666667, "bike_id": "742d3f1094bdb34ec1950678f3bfe8c0", "type": "electric_scooter", "name": "742d3f1094bdb34ec1950678f3bfe8c0"},