{"data": {"bikes": [{"name": "7b6abc95e38a601aa8d0415ce87c041f", "type": "electric_scooter", "lat": 38.900091833333335, "is_reserved": 0, "lon": -76.99115116666667, "fusion_lon": 0.0, "is_disabled": 0, "fusion_lat": 0.0, "bike_id": "7b6abc95e38a601aa8d0415ce87c041f", "rental_uris": {"ios": "https://dc.lft.to/lastmile_qr_scan", "android": "https://dc.lft.to/lastmile_qr_scan"}}, {"name": "84aa1820459d6e0bec2b428773ca04bd", "type": "electric_scooter", "lat": 38.900823333333335, "is_reserved": 0, "lon": -77.05021383333333, "fusion_lon": 0.0, "is_disabled": 0, "fusion_lat": 0.0, "bike_id": "84aa1820459d6e0bec2b428773ca04bd", "rental_uris": {"ios": "https://dc.lft.to/lastmile_qr_scan", "android": "https://dc.lft.to/lastmile_qr_scan"}}, {"name": "01d4caeefe59df362075298493ea90bc", "type": "electric_scooter", "lat": 38.90523733333333, "is_reserved": 0, "lon": -77.043488, "fusion_lon": 0.0, "is_disabled": 0, "fusion_lat": 0.0, "bike_id": "01d4caeefe59df362075298493ea90bc", "rental_uris": {"ios": "https://dc.lft.to/lastmile_qr_scan", "android": "https://dc.lft.to/lastmile_qr_scan"}}, {"name": "b74ecf30da67508f24957293028bf56b", "type": "electric_scooter", "lat": 38.883130333333334, "is_reserved": 0, "lon": -77.01731183333334, "fusion_lon": 0.0, "is_disabled": 0, "fusion_lat": 0.0, "bike_id": "b74ecf30da67508f24957293028bf56b", "rental_uris": {"ios": "https://dc.lft.to/lastmile_qr_scan", "android": "https://dc.lft.to/lastmile_qr_scan"}}, {"name": "557253aabca7ab0177cb943d162d5010", "type": "electric_scooter", "lat": 38.94302033333334, "is_reserved": 0, "lon": -77.0592295, "fusion_lon": 0.0, "is_disabled": 0, "fusion_lat": 0.0, "bike_id": "557253aabca7ab0177cb943d162d5010", "rental_uris": {"ios": "https://dc.lft.to/lastmile_qr_scan", "android": "https://dc.lft.to/lastmile_qr_scan"}}, {"name": "590e7a514445f81fac9664a8e2eec067", "type": "electric_scooter", "lat": 38.916263, "is_reserved": 0, "lon": -77.01331833333333, "fusion_lon": 0.0, "is_disabled": 0, "fusion_lat": 0.0, "bike_id": "590e7a514445f81fac9664a8e2eec067", "rental_uris": {"ios": "https://dc.lft.to/lastmile_qr_scan", "android": "https://dc.lft.to/lastmile_qr_scan"}}, {"name": "fe0a279f113ecf69cfd81ab37fcded4a", "type": "electric_scooter", "lat": 38.91821983333333, "is_reserved": 0, "lon": -77.03446066666666, "fusion_lon": 0.0, "is_disabled": 0, "fusion_lat": 0.0, "bike_id": "fe0a279f113ecf69cfd81ab37fcded4a", "rental_uris": {"ios": "https://dc.lft.to/lastmile_qr_scan", "android": "https://dc.lft.to/lastmile_qr_scan"}}, {"name": "e5fca91cb0e33cb96972421846f952b8", "type": "electric_scooter", "lat": 38.90125, "is_reserved": 0, "lon": -77.041481, "fusion_lon": 0.0, "is_disabled": 0, "fusion_lat": 0.0, "bike_id": "e5fca91cb0e33cb96972421846f952b8", "rental_uris": {"ios": "https://dc.lft.to/lastmile_qr_scan", "android": "https://dc.lft.to/lastmile_qr_scan"}}, {"name": "2a0d5b77a9bd99b061df8a99a30fcacb", "type": "electric_scooter", "lat": 38.917043166666666, "is_reserved": 0, "lon": -77.03468766666667, "fusion_lon": 0.0, "is_disabled": 0, "fusion_lat": 0.0, "bike_id": "2a0d5b77a9bd99b061df8a99a30fcacb", "rental_uris": {"ios": "https://dc.lft.to/lastmile_qr_scan", "android": "https://dc.lft.to/lastmile_qr_scan"}}, {"name": "5eccf7644c25690cf1e253671d12b5f1", "type": "electric_scooter", "lat": 38.91586433333333, "is_reserved": 0, "lon": -77.04494633333333, "fusion_lon": 0.0, "is_disabled": 0, "fusion_lat": 0.0, "bike_id": "5eccf7644c25690cf1e253671d12b5f1", "rental_uris": {"ios": "https://dc.lft.to/lastmile_qr_scan", "android": "https://dc.lft.to/lastmile_qr_scan"}}, {"name": "e96535c7ac1e5de1743e1c411f146e44", "type": "electric_scooter", "lat": 38.90615783333333, "is_reserved": 0, "lon": -77.07487133333333, "fusion_lon": 0.0, "is_disabled": 0, "fusion_lat": 0.0, "bike_id": "e96535c7ac1e5de1743e1c411f146e44", "rental_uris": {"ios": "https://dc.lft.to/lastmile_qr_scan", "android": "https://dc.lft.to/lastmile_qr_scan"}}, {"name": "71fc86223d91e16dddad01f2d71646dd", "type": "electric_bike", "lat": 39.03881283333333, "is_reserved": 0, "lon": -76.9903975, "fusion_lon": 0.0, "is_disabled": 0, "fusion_lat": 0.0, "bike_id": "71fc86223d91e16dddad01f2d71646dd", "rental_uris": {"ios": "https://dc.lft.to/lastmile_qr_scan", "android": "https://dc.lft.to/lastmile_qr_scan"}}, {"name": "a00205f05ad51010d0a818aad85537f0", "type": "electric_scooter", "lat": 38.9413465, "is_reserved": 0, "lon": -77.01544333333334, "fusion_lon": 0.0, "is_disabled": 0, "fusion_lat": 0.0, "bike_id": "a00205f05ad51010d0a818aad85537f0", "rental_uris": {"ios": "https://dc.lft.to/lastmile_qr_scan", "android": "https://dc.lft.to/lastmile_qr_scan"}}, {"name": "fe29afd1da2bf07c1210f5888815d601", "type": "electric_scooter", "lat": 38.9095965, "is_reserved": 0, "lon": -77.03395516666667, "fusion_lon": 0.0, "is_disabled": 0, "fusion_lat": 0.0, "bike_id": "fe29afd1da2bf07c1210f5888815d601", "rental_uris": {"ios": "https://dc.lft.to/lastmile_qr_scan", "android": "https://dc.lft.to/lastmile_qr_scan"}}, {"name": "6f6ac0e434be35be0b1f01060af447b5", "type": "electric_scooter", "lat": 38.898138833333334, "is_reserved": 0, "lon": -77.03282316666666, "fusion_lon": 0.0, "is_disabled": 0, "fusion_lat": 0.0, "bike_id": "6f6ac0e434be35be0b1f01060af447b5", "rental_uris": {"ios": "https://dc.lft.to/lastmile_qr_scan", "android": "https://dc.lft.to/lastmile_qr_scan"}}, {"name": "f6dcf0254ecc35072e0a784c1603174e", "type": "electric_bike", "lat": 38.83236933333333, "is_reserved": 0, "lon": -76.946224, "fusion_lon": 0.0, "is_disabled": 0, "fusion_lat": 0.0, "bike_id": "f6dcf0254ecc35072e0a784c1603174e", "rental_uris": {"ios": "https://dc.lft.to/lastmile_qr_scan", "android": "https://dc.lft.to/lastmile_qr_scan"}}, {"name": "fa238717ebc1ad8af2781ffa080d835c", "type": "electric_scooter", "lat": 38.92159016666667, "is_reserved": 0, "lon": -77.03249783333334, "fusion_lon": 0.0, "is_disabled": 0, "fusion_lat": 0.0, "bike_id": "fa238717ebc1ad8af2781ffa080d835c", "rental_uris": {"ios": "https://dc.lft.to/lastmile_qr_scan", "android": "https://dc.lft.to/lastmile_qr_scan"}}, {"name": "b2aea09146353cc75798a6a5b3c0209b", "type": "electric_scooter", "lat": 38.909484166666665, "is_reserved": 0, "lon": -77.04319116666667, "fusion_lon": 0.0, "is_disabled": 0, "fusion_lat": 0.0, "bike_id": "b2aea09146353cc75798a6a5b3c0209b", "rental_uris": {"ios": "https://dc.lft.to/lastmile_qr_scan", "android": "https://dc.lft.to/lastmile_qr_scan"}}, {"name": "27e744f1e2f3eeb29e5a43135355c523", "type": "electric_scooter", "lat": 38.915987333333334, "is_reserved": 0, "lon": -76.98378783333334, "fusion_lon": 0.0, "is_disabled": 0, "fusion_lat": 0.0, "bike_id": "27e744f1e2f3eeb29e5a43135355c523", "rental_uris": {"ios": "https://dc.lft.to/lastmile_qr_scan", "android": "https://dc.lft.to/lastmile_qr_scan"}}, {"name": "6209d4fdef94939df263bd33090cf288", "type": "electric_bike", "lat": 38.871347, "is_reserved": 0, "lon": -76.93729516666667, "fusion_lon": 0.0, "is_disabled": 0, "fusion_lat": 0.0, "bike_id": "6209d4fdef94939df263bd33090cf288", "rental_uris": {"ios": "https://dc.lft.to/lastmile_qr_scan", "android": "https://dc.lft.to/lastmile_qr_scan"}}, {"name": "c031aedae312fb4e984f29ade56e1bbb", "type": "electric_scooter", "lat": 38.92993666666667, "is_reserved": 0, "lon": -77.07942533333333, "fusion_lon": 0.0, "is_disabled": 0, "fusion_lat": 0.0, "bike_id": "c031aedae312fb4e984f29ade56e1bbb", "rental_uris": {"ios": "https://dc.lft.to/lastmile_qr_scan", "android": "https://dc.lft.to/lastmile_qr_scan"}}, {"name": "e47e3c180d84ba0b0bd1ce3b86fc86d2", "type": "electric_scooter", "lat": 38.92480533333333, "is_reserved": 0, "lon": -77.0271285, "fusion_lon": 0.0, "is_disabled": 0, "fusion_lat": 0.0, "bike_id": "e47e3c180d84ba0b0bd1ce3b86fc86d2", "rental_uris": {"ios": "https://dc.lft.to/lastmile_qr_scan", "android": "https://dc.lft.to/lastmile_qr_scan"}}, {"name": "297b0a4b60e89c449c0dce0b18448b25", "type": "electric_scooter", "lat": 38.91685116666667, "is_reserved": 0, "lon": -77.0295095, "fusion_lon": 0.0, "is_disabled": 0, "fusion_lat": 0.0, "bike_id": "297b0a4b60e89c449c0dce0b18448b25", "rental_uris": {"ios": "https://dc.lft.to/lastmile_qr_scan", "android": "https://dc.lft.to/lastmile_qr_scan"}}, {"name": "ade402a992026bcc3a38106fcd58dd92", "type": "electric_scooter", "lat": 38.97503316666667, "is_reserved": 0, "lon": -77.0168605, "fusion_lon": 0.0, "is_disabled": 0, "fusion_lat": 0.0, "bike_id": "ade402a992026bcc3a38106fcd58dd92", "rental_uris": {"ios": "https://dc.lft.to/lastmile_qr_scan", "android": "https://dc.lft.to/lastmile_qr_scan"}}, {"name": "36143e1ba75376f516b0b9a67605003f", "type": "electric_bike", "lat": 38.953309, "is_reserved": 0, "lon": -76.98251516666667, "fusion_lon": 0.0, "is_disabled": 0, "fusion_lat": 0.0, "bike_id": "36143e1ba75376f516b0b9a67605003f", "rental_uris": {"ios": "https://dc.lft.to/lastmile_qr_scan", "android": "https://dc.lft.to/lastmile_qr_scan"}}, {"name": "2ad3545a11b95d5cb593960bccf66471", "type": "electric_scooter", "lat": 38.90274983333333, "is_reserved": 0, "lon": -77.03859666666666, "fusion_lon": 0.0, "is_disabled": 0, "fusion_lat": 0.0, "bike_id": "2ad3545a11b95d5cb593960bccf66471", "rental_uris": {"ios": "https://dc.lft.to/lastmile_qr_scan", "android": "https://dc.lft.to/lastmile_qr_scan"}}, {"name": "5a7bf47e3c697e1a8ca87a70fdb22129", "type": "electric_bike", "lat": 38.959297166666666, "is_reserved": 0, "lon": -76.925342, "fusion_lon": 0.0, "is_disabled": 0, "fusion_lat": 0.0, "bike_id": "5a7bf47e3c697e1a8ca87a70fdb22129", "rental_uris": {"ios": "https://dc.lft.to/lastmile_qr_scan", "android": "https://dc.lft.to/lastmile_qr_scan"}}, {"name": "186117c892fdd15b4df37525716c2f58", "type": "electric_scooter", "lat": 38.912347833333335, "is_reserved": 0, "lon": -77.048683, "fusion_lon": 0.0, "is_disabled": 0, "fusion_lat": 0.0, "bike_id": "186117c892fdd15b4df37525716c2f58", "rental_uris": {"ios": "https://dc.lft.to/lastmile_qr_scan", "android": "https://dc.lft.to/lastmile_qr_scan"}}, {"name": "d25dbda79b4fef1d012909593b428351", "type": "electric_scooter", "lat": 38.9096515, "is_reserved": 0, "lon": -77.01114016666666, "fusion_lon": 0.0, "is_disabled": 0, "fusion_lat": 0.0, "bike_id": "d25dbda79b4fef1d012909593b428351", "rental_uris": {"ios": "https://dc.lft.to/lastmile_qr_scan", "android": "https://dc.lft.to/lastmile_qr_scan"}}, {"name": "3d1139dd627d95e6d879c91dd42e7145", "type": "electric_scooter", "lat": 38.924375833333336, "is_reserved": 0, "lon": -77.04253083333333, "fusion_lon": 0.0, "is_disabled": 0, "fusion_lat": 0.0, "bike_id": "3d1139dd627d95e6d879c91dd42e7145", "rental_uris": {"ios": "https://dc.lft.to/lastmile_qr_scan", "android": "https://dc.lft.to/lastmile_qr_scan"}}, {"name": "521417d330ece9065759a6e207787ef0", "type": "electric_scooter", "lat": 38.90663883333333, "is_reserved": 0, "lon": -77.0269165, "fusion_lon": 0.0, "is_disabled": 0, "fusion_lat": 0.0, "bike_id": "521417d330ece9065759a6e207787ef0", "rental_uris": {"ios": "https://dc.lft.to/lastmile_qr_scan", "android": "https://dc.lft.to/lastmile_qr_scan"}}, {"name": "28b49ef196c8949632cfaa26d8791f38", "type": "electric_scooter", "lat": 38.869589166666664, "is_reserved": 0, "lon": -77.01376866666666, "fusion_lon": 0.0, "is_disabled": 0, "fusion_lat": 0.0, "bike_id": "28b49ef196c8949632cfaa26d8791f38", "rental_uris": {"ios": "https://dc.lft.to/lastmile_qr_scan", "android": "https://dc.lft.to/lastmile_qr_scan"}}, {"name": "13e95077f75242ba29c069b12da2d961", "type": "electric_bike", "lat": 38.939517, "is_reserved": 0, "lon": -77.360915, "fusion_lon": 0.0, "is_disabled": 0, "fusion_lat": 0.0, "bike_id": "13e95077f75242ba29c069b12da2d961", "rental_uris": {"ios": "https://dc.lft.to/lastmile_qr_scan", "android": "https://dc.lft.to/lastmile_qr_scan"}}, {"name": "03056da6f2d962b3193d23b397bcf222", "type": "electric_scooter", "lat": 38.8923115, "is_reserved": 0, "lon": -77.02207033333333, "fusion_lon": 0.0, "is_disabled": 0, "fusion_lat": 0.0, "bike_id": "03056da6f2d962b3193d23b397bcf222", "rental_uris": {"ios": "https://dc.lft.to/lastmile_qr_scan", "android": "https://dc.lft.to/lastmile_qr_scan"}}, {"name": "4b4ba2b3f7b4d8226537a5da91cc61d1", "type": "electric_bike", "lat": 38.9909085, "is_reserved": 0, "lon": -76.87493716666667, "fusion_lon": 0.0, "is_disabled": 0, "fusion_lat": 0.0, "bike_id": "4b4ba2b3f7b4d8226537a5da91cc61d1", "rental_uris": {"ios": "https://dc.lft.to/lastmile_qr_scan", "android": "https://dc.lft.to/lastmile_qr_scan"}}, {"name": "261ba350b46b4407cc1a20b8a5886d7d", "type": "electric_scooter", "lat": 38.905361666666664, "is_reserved": 0, "lon": -77.05923716666666, "fusion_lon": 0.0, "is_disabled": 0, "fusion_lat": 0.0, "bike_id": "261ba350b46b4407cc1a20b8a5886d7d", "rental_uris": {"ios": "https://dc.lft.to/lastmile_qr_scan", "android": "https://dc.lft.to/lastmile_qr_scan"}}, {"name": "2317d630ff80d2dcbc609cdfe8110c24", "type": "electric_bike", "lat": 38.828736666666664, "is_reserved": 0, "lon": -77.11218566666666, "fusion_lon": 0.0, "is_disabled": 0, "fusion_lat": 0.0, "bike_id": "2317d630ff80d2dcbc609cdfe8110c24", "rental_uris": {"ios": "https://dc.lft.to/lastmile_qr_scan", "android": "https://dc.lft.to/lastmile_qr_scan"}}, {"name": "c2e07f6d0ed0ec41a84ba8cb9d4fbb4a", "type": "electric_scooter", "lat": 38.919155, "is_reserved": 0, "lon": -77.03121716666666, "fusion_lon": 0.0, "is_disabled": 0, "fusion_lat": 0.0, "bike_id": "c2e07f6d0ed0ec41a84ba8cb9d4fbb4a", "rental_uris": {"ios": "https://dc.lft.to/lastmile_qr_scan", "android": "https://dc.lft.to/lastmile_qr_scan"}}, {"name": "abe330f5381d17a42a7677cd05c83b9a", "type": "electric_scooter", "lat": 38.90005133333333, "is_reserved": 0, "lon": -77.01118216666667, "fusion_lon": 0.0, "is_disabled": 0, "fusion_lat": 0.0, "bike_id": "abe330f5381d17a42a7677cd05c83b9a", "rental_uris": {"ios": "https://dc.lft.to/lastmile_qr_scan", "android": "https://dc.lft.to/lastmile_qr_scan"}}, {"name": "2cd02906a27cd5fd08a836c91b0b9b27", "type": "electric_scooter", "lat": 38.8763565, "is_reserved": 0, "lon": -77.00914633333333, "fusion_lon": 0.0, "is_disabled": 0, "fusion_lat": 0.0, "bike_id": "2cd02906a27cd5fd08a836c91b0b9b27", "rental_uris": {"ios": "https://dc.lft.to/lastmile_qr_scan", "android": "https://dc.lft.to/lastmile_qr_scan"}}, {"name": "ae0b85a75d4d8188da811d52cb7a32f6", "type": "electric_scooter", "lat": 38.9058035, "is_reserved": 0, "lon": -77.04867833333333, "fusion_lon": 0.0, "is_disabled": 0, "fusion_lat": 0.0, "bike_id": "ae0b85a75d4d8188da811d52cb7a32f6", "rental_uris": {"ios": "https://dc.lft.to/lastmile_qr_scan", "android": "https://dc.lft.to/lastmile_qr_scan"}}, {"name": "166c1edf38fca59dc1cd20c6d213c3a9", "type": "electric_scooter", "lat": 38.924406833333336, "is_reserved": 0, "lon": -77.0335305, "fusion_lon": 0.0, "is_disabled": 0, "fusion_lat": 0.0, "bike_id": "166c1edf38fca59dc1cd20c6d213c3a9", "rental_uris": {"ios": "https://dc.lft.to/lastmile_qr_scan", "android": "https://dc.lft.to/lastmile_qr_scan"}}, {"name": "1e1b0a98aeff5160b8228ecbc8308006", "type": "electric_scooter", "lat": 38.88409333333333, "is_reserved": 0, "lon": -77.01522416666667, "fusion_lon": 0.0, "is_disabled": 0, "fusion_lat": 0.0, "bike_id": "1e1b0a98aeff5160b8228ecbc8308006", "rental_uris": {"ios": "https://dc.lft.to/lastmile_qr_scan", "android": "https://dc.lft.to/lastmile_qr_scan"}}, {"name": "aacc9781e9fc5b5f08737c7930b1ba91", "type": "electric_scooter", "lat": 38.905679166666665, "is_reserved": 0, "lon": -77.0057055, "fusion_lon": 0.0, "is_disabled": 0, "fusion_lat": 0.0, "bike_id": "aacc9781e9fc5b5f08737c7930b1ba91", "rental_uris": {"ios": "https://dc.lft.to/lastmile_qr_scan", "android": "https://dc.lft.to/lastmile_qr_scan"}}, {"name": "889e3a836fec51d494fb256eca79fe60", "type": "electric_bike", "lat": 39.03048166666667, "is_reserved": 0, "lon": -77.09486316666667, "fusion_lon": 0.0, "is_disabled": 0, "fusion_lat": 0.0, "bike_id": "889e3a836fec51d494fb256eca79fe60", "rental_uris": {"ios": "https://dc.lft.to/lastmile_qr_scan", "android": "https://dc.lft.to/lastmile_qr_scan"}}, {"name": "22482383fe84fc8e23fe0554f628e4af", "type": "electric_bike", "lat": 38.913577833333335, "is_reserved": 0, "lon": -77.02872466666666, "fusion_lon": 0.0, "is_disabled": 0, "fusion_lat": 0.0, "bike_id": "22482383fe84fc8e23fe0554f628e4af", "rental_uris": {"ios": "https://dc.lft.to/lastmile_qr_scan", "android": "https://dc.lft.to/lastmile_qr_scan"}}, {"name": "dda830836abce4fb4a0432dd4d08f24a", "type": "electric_scooter", "lat": 38.905212666666664, "is_reserved": 0, "lon": -77.05192766666667, "fusion_lon": 0.0, "is_disabled": 0, "fusion_lat": 0.0, "bike_id": "dda830836abce4fb4a0432dd4d08f24a", "rental_uris": {"ios": "https://dc.lft.to/lastmile_qr_scan", "android": "https://dc.lft.to/lastmile_qr_scan"}}, {"name": "695a69daef613529461c990bfdcc31c9", "type": "electric_bike", "lat": 38.90477883333333, "is_reserved": 0, "lon": -77.027496, "fusion_lon": 0.0, "is_disabled": 0, "fusion_lat": 0.0, "bike_id": "695a69daef613529461c990bfdcc31c9", "rental_uris": {"ios": "https://dc.lft.to/lastmile_qr_scan", "android": "https://dc.lft.to/lastmile_qr_scan"}}, {"name": "e51c00f5983a3a2ec77309f7790138a2", "type": "electric_bike", "lat": 38.970620333333336, "is_reserved": 0, "lon": -76.93614983333333, "fusion_lon": 0.0, "is_disabled": 0, "fusion_lat": 0.0, "bike_id": "e51c00f5983a3a2ec77309f7790138a2", "rental_uris": {"ios": "https://dc.lft.to/lastmile_qr_scan", "android": "https://dc.lft.to/lastmile_qr_scan"}}, {"name": "ce798ee61afd8ac162cdcc09b177f601", "type": "electric_scooter", "lat": 38.90305716666667, "is_reserved": 0, "lon": -77.023681, "fusion_lon": 0.0, "is_disabled": 0, "fusion_lat": 0.0, "bike_id": "ce798ee61afd8ac162cdcc09b177f601", "rental_uris": {"ios": "https://dc.lft.to/lastmile_qr_scan", "android": "https://dc.lft.to/lastmile_qr_scan"}}, {"name": "273240f6dc14ead6165ec82952d981ce", "type": "electric_scooter", "lat": 38.90212566666667, "is_reserved": 0, "lon": -77.05030766666667, "fusion_lon": 0.0, "is_disabled": 0, "fusion_lat": 0.0, "bike_id": "273240f6dc14ead6165ec82952d981ce", "rental_uris": {"ios": "https://dc.lft.to/lastmile_qr_scan", "android": "https://dc.lft.to/lastmile_qr_scan"}}, {"name": "ae0a1294fa0717215ee091c414322f08", "type": "electric_scooter", "lat": 38.931102, "is_reserved": 0, "lon": -77.03839983333333, "fusion_lon": 0.0, "is_disabled": 0, "fusion_lat": 0.0, "bike_id": "ae0a1294fa0717215ee091c414322f08", "rental_uris": {"ios": "https://dc.lft.to/lastmile_qr_scan", "android": "https://dc.lft.to/lastmile_qr_scan"}}, {"name": "77fe7a7cb5ee836760ce021ca56e254b", "type": "electric_scooter", "lat": 38.92361416666667, "is_reserved": 0, "lon": -77.05036816666667, "fusion_lon": 0.0, "is_disabled": 0, "fusion_lat": 0.0, "bike_id": "77fe7a7cb5ee836760ce021ca56e254b", "rental_uris": {"ios": "https://dc.lft.to/lastmile_qr_scan", "android": "https://dc.lft.to/lastmile_qr_scan"}}, {"name": "572c0c1a3e3459fe2f2e207d23ae950f", "type": "electric_scooter", "lat": 38.93576266666667, "is_reserved": 0, "lon": -76.9911155, "fusion_lon": 0.0, "is_disabled": 0, "fusion_lat": 0.0, "bike_id": "572c0c1a3e3459fe2f2e207d23ae950f", "rental_uris": {"ios": "https://dc.lft.to/lastmile_qr_scan", "android": "https://dc.lft.to/lastmile_qr_scan"}}, {"name": "0b397b90b8796f912c89cf861eb883e1", "type": "electric_scooter", "lat": 38.92463816666667, "is_reserved": 0, "lon": -77.03757233333333, "fusion_lon": 0.0, "is_disabled": 0, "fusion_lat": 0.0, "bike_id": "0b397b90b8796f912c89cf861eb883e1", "rental_uris": {"ios": "https://dc.lft.to/lastmile_qr_scan", "android": "https://dc.lft.to/lastmile_qr_scan"}}, {"name": "bf9e42b1073e25ec1d5b565935aa8a29", "type": "electric_scooter", "lat": 38.92232116666667, "is_reserved": 0, "lon": -77.033468, "fusion_lon": 0.0, "is_disabled": 0, "fusion_lat": 0.0, "bike_id": "bf9e42b1073e25ec1d5b565935aa8a29", "rental_uris": {"ios": "https://dc.lft.to/lastmile_qr_scan", "android": "https://dc.lft.to/lastmile_qr_scan"}}, {"name": "70b0bbc0c16694a990452f3c8e7fe960", "type": "electric_scooter", "lat": 38.924707166666664, "is_reserved": 0, "lon": -77.028338, "fusion_lon": 0.0, "is_disabled": 0, "fusion_lat": 0.0, "bike_id": "70b0bbc0c16694a990452f3c8e7fe960", "rental_uris": {"ios": "https://dc.lft.to/lastmile_qr_scan", "android": "https://dc.lft.to/lastmile_qr_scan"}}, {"name": "3e10fac39322531c30ec76c17b751ae8", "type": "electric_scooter", "lat": 38.910866666666664, "is_reserved": 0, "lon": -77.0384195, "fusion_lon": 0.0, "is_disabled": 0, "fusion_lat": 0.0, "bike_id": "3e10fac39322531c30ec76c17b751ae8", "rental_uris": {"ios": "https://dc.lft.to/lastmile_qr_scan", "android": "https://dc.lft.to/lastmile_qr_scan"}}, {"name": "204936242bbe3c27284a4d6d8984bc9b", "type": "electric_scooter", "lat": 38.894021333333335, "is_reserved": 0, "lon": -76.947965, "fusion_lon": 0.0, "is_disabled": 0, "fusion_lat": 0.0, "bike_id": "204936242bbe3c27284a4d6d8984bc9b", "rental_uris": {"ios": "https://dc.lft.to/lastmile_qr_scan", "android": "https://dc.lft.to/lastmile_qr_scan"}}, {"name": "bbc714bee3b6519b715dc464bbc2643e", "type": "electric_scooter", "lat": 38.90841533333333, "is_reserved": 0, "lon": -77.0269475, "fusion_lon": 0.0, "is_disabled": 0, "fusion_lat": 0.0, "bike_id": "bbc714bee3b6519b715dc464bbc2643e", "rental_uris": {"ios": "https://dc.lft.to/lastmile_qr_scan", "android": "https://dc.lft.to/lastmile_qr_scan"}}, {"name": "2078ed55700531e0287664dbc42266ec", "type": "electric_bike", "lat": 38.99296966666667, "is_reserved": 0, "lon": -77.02537783333334, "fusion_lon": 0.0, "is_disabled": 0, "fusion_lat": 0.0, "bike_id": "2078ed55700531e0287664dbc42266ec", "rental_uris": {"ios": "https://dc.lft.to/lastmile_qr_scan", "android": "https://dc.lft.to/lastmile_qr_scan"}}, {"name": "9caa05e1039cae3bfcf23e0f043ba518", "type": "electric_scooter", "lat": 38.935417, "is_reserved": 0, "lon": -77.03700733333334, "fusion_lon": 0.0, "is_disabled": 0, "fusion_lat": 0.0, "bike_id": "9caa05e1039cae3bfcf23e0f043ba518", "rental_uris": {"ios": "https://dc.lft.to/lastmile_qr_scan", "android": "https://dc.lft.to/lastmile_qr_scan"}}, {"name": "e5258c56a554f55349a38c0080f910c0", "type": "electric_bike", "lat": 38.88003483333333, "is_reserved": 0, "lon": -76.91595483333333, "fusion_lon": 0.0, "is_disabled": 0, "fusion_lat": 0.0, "bike_id": "e5258c56a554f55349a38c0080f910c0", "rental_uris": {"ios": "https://dc.lft.to/lastmile_qr_scan", "android": "https://dc.lft.to/lastmile_qr_scan"}}, {"name": "d3b17ecfc0013c458f4648cf8a85659a", "type": "electric_scooter", "lat": 38.925279833333335, "is_reserved": 0, "lon": -77.05540566666667, "fusion_lon": 0.0, "is_disabled": 0, "fusion_lat": 0.0, "bike_id": "d3b17ecfc0013c458f4648cf8a85659a", "rental_uris": {"ios": "https://dc.lft.to/lastmile_qr_scan", "android": "https://dc.lft.to/lastmile_qr_scan"}}, {"name": "58d7d4ce551424c70c858e0cc73c5159", "type": "electric_scooter", "lat": 38.91868133333333, "is_reserved": 0, "lon": -77.04378533333333, "fusion_lon": 0.0, "is_disabled": 0, "fusion_lat": 0.0, "bike_id": "58d7d4ce551424c70c858e0cc73c5159", "rental_uris": {"ios": "https://dc.lft.to/lastmile_qr_scan", "android": "https://dc.lft.to/lastmile_qr_scan"}}, {"name": "c8d470909cc0f18fd40733404307e0c3", "type": "electric_scooter", "lat": 38.926886833333334, "is_reserved": 0, "lon": -77.09549916666667, "fusion_lon": 0.0, "is_disabled": 0, "fusion_lat": 0.0, "bike_id": "c8d470909cc0f18fd40733404307e0c3", "rental_uris": {"ios": "https://dc.lft.to/lastmile_qr_scan", "android": "https://dc.lft.to/lastmile_qr_scan"}}, {"name": "4675d7947e77110feb7550e07f9cc7f8", "type": "electric_scooter", "lat": 38.90149316666667, "is_reserved": 0, "lon": -76.93059733333334, "fusion_lon": 0.0, "is_disabled": 0, "fusion_lat": 0.0, "bike_id": "4675d7947e77110feb7550e07f9cc7f8", "rental_uris": {"ios": "https://dc.lft.to/lastmile_qr_scan", "android": "https://dc.lft.to/lastmile_qr_scan"}}, {"name": "7769c7fbf3a1005982eedd02606f12b7", "type": "electric_scooter", "lat": 38.9158775, "is_reserved": 0, "lon": -77.04479583333334, "fusion_lon": 0.0, "is_disabled": 0, "fusion_lat": 0.0, "bike_id": "7769c7fbf3a1005982eedd02606f12b7", "rental_uris": {"ios": "https://dc.lft.to/lastmile_qr_scan", "android": "https://dc.lft.to/lastmile_qr_scan"}}, {"name": "adbd5cb4982cdcc5fa216b93b3fff187", "type": "electric_scooter", "lat": 38.9147505, "is_reserved": 0, "lon": -77.008361, "fusion_lon": 0.0, "is_disabled": 0, "fusion_lat": 0.0, "bike_id": "adbd5cb4982cdcc5fa216b93b3fff187", "rental_uris": {"ios": "https://dc.lft.to/lastmile_qr_scan", "android": "https://dc.lft.to/lastmile_qr_scan"}}, {"name": "eca0b6101ab414e22e5064ee1018e875", "type": "electric_scooter", "lat": 38.8987215, "is_reserved": 0, "lon": -77.03272583333333, "fusion_lon": 0.0, "is_disabled": 0, "fusion_lat": 0.0, "bike_id": "eca0b6101ab414e22e5064ee1018e875", "rental_uris": {"ios": "https://dc.lft.to/lastmile_qr_scan", "android": "https://dc.lft.to/lastmile_qr_scan"}}, {"name": "2b1a1c0830808490fc0c2b91bb361047", "type": "electric_bike", "lat": 38.95287966666667, "is_reserved": 0, "lon": -76.97804466666666, "fusion_lon": 0.0, "is_disabled": 0, "fusion_lat": 0.0, "bike_id": "2b1a1c0830808490fc0c2b91bb361047", "rental_uris": {"ios": "https://dc.lft.to/lastmile_qr_scan", "android": "https://dc.lft.to/lastmile_qr_scan"}}, {"name": "e794c79b5a44e13bdacff10b8d61adfb", "type": "electric_scooter", "lat": 38.885019, "is_reserved": 0, "lon": -76.99840033333334, "fusion_lon": 0.0, "is_disabled": 0, "fusion_lat": 0.0, "bike_id": "e794c79b5a44e13bdacff10b8d61adfb", "rental_uris": {"ios": "https://dc.lft.to/lastmile_qr_scan", "android": "https://dc.lft.to/lastmile_qr_scan"}}, {"name": "7c94ea0ddafe6c823eb5bc205bb9f4c8", "type": "electric_scooter", "lat": 38.941790166666664, "is_reserved": 0, "lon": -77.03029916666667, "fusion_lon": 0.0, "is_disabled": 0, "fusion_lat": 0.0, "bike_id": "7c94ea0ddafe6c823eb5bc205bb9f4c8", "rental_uris": {"ios": "https://dc.lft.to/lastmile_qr_scan", "android": "https://dc.lft.to/lastmile_qr_scan"}}, {"name": "5d5947ab39db56538eae601685a90bb4", "type": "electric_scooter", "lat": 38.899213333333336, "is_reserved": 0, "lon": -77.015168, "fusion_lon": 0.0, "is_disabled": 0, "fusion_lat": 0.0, "bike_id": "5d5947ab39db56538eae601685a90bb4", "rental_uris": {"ios": "https://dc.lft.to/lastmile_qr_scan", "android": "https://dc.lft.to/lastmile_qr_scan"}}, {"name": "42e8c60321676db82e3955a079e31691", "type": "electric_scooter", "lat": 38.902636333333334, "is_reserved": 0, "lon": -77.03172083333334, "fusion_lon": 0.0, "is_disabled": 0, "fusion_lat": 0.0, "bike_id": "42e8c60321676db82e3955a079e31691", "rental_uris": {"ios": "https://dc.lft.to/lastmile_qr_scan", "android": "https://dc.lft.to/lastmile_qr_scan"}}, {"name": "6069d671751684e4d71350346b4affd4", "type": "electric_bike", "lat": 38.846079333333336, "is_reserved": 0, "lon": -76.97831033333334, "fusion_lon": 0.0, "is_disabled": 0, "fusion_lat": 0.0, "bike_id": "6069d671751684e4d71350346b4affd4", "rental_uris": {"ios": "https://dc.lft.to/lastmile_qr_scan", "android": "https://dc.lft.to/lastmile_qr_scan"}}, {"name": "f5255fe41316cf8c4676a822ef8fa644", "type": "electric_scooter", "lat": 38.91592816666667, "is_reserved": 0, "lon": -76.98365933333334, "fusion_lon": 0.0, "is_disabled": 0, "fusion_lat": 0.0, "bike_id": "f5255fe41316cf8c4676a822ef8fa644", "rental_uris": {"ios": "https://dc.lft.to/lastmile_qr_scan", "android": "https://dc.lft.to/lastmile_qr_scan"}}, {"name": "f650cf55289cfa29171b07ac54d87bd8", "type": "electric_bike", "lat": 39.05809766666667, "is_reserved": 0, "lon": -77.12624516666666, "fusion_lon": 0.0, "is_disabled": 0, "fusion_lat": 0.0, "bike_id": "f650cf55289cfa29171b07ac54d87bd8", "rental_uris": {"ios": "https://dc.lft.to/lastmile_qr_scan", "android": "https://dc.lft.to/lastmile_qr_scan"}}, {"name": "c901298b62c1082a04245130e93a092e", "type": "electric_scooter", "lat": 38.894991166666664, "is_reserved": 0, "lon": -77.02387833333333, "fusion_lon": 0.0, "is_disabled": 0, "fusion_lat": 0.0, "bike_id": "c901298b62c1082a04245130e93a092e", "rental_uris": {"ios": "https://dc.lft.to/lastmile_qr_scan", "android": "https://dc.lft.to/lastmile_qr_scan"}}, {"name": "f1b49eea71584df5d2e2d152bca569c7", "type": "electric_bike", "lat": 38.82725683333334, "is_reserved": 0, "lon": -77.00865483333334, "fusion_lon": 0.0, "is_disabled": 0, "fusion_lat": 0.0, "bike_id": "f1b49eea71584df5d2e2d152bca569c7", "rental_uris": {"ios": "https://dc.lft.to/lastmile_qr_scan", "android": "https://dc.lft.to/lastmile_qr_scan"}}, {"name": "a36b994019753cb3c91cf38ef80b0ff2", "type": "electric_scooter", "lat": 38.92605833333333, "is_reserved": 0, "lon": -77.02152833333334, "fusion_lon": 0.0, "is_disabled": 0, "fusion_lat": 0.0, "bike_id": "a36b994019753cb3c91cf38ef80b0ff2", "rental_uris": {"ios": "https://dc.lft.to/lastmile_qr_scan", "android": "https://dc.lft.to/lastmile_qr_scan"}}, {"name": "5a083aca92a3c1afb2f69af3613cbd6f", "type": "electric_scooter", "lat": 38.884929666666665, "is_reserved": 0, "lon": -77.00728066666667, "fusion_lon": 0.0, "is_disabled": 0, "fusion_lat": 0.0, "bike_id": "5a083aca92a3c1afb2f69af3613cbd6f", "rental_uris": {"ios": "https://dc.lft.to/lastmile_qr_scan", "android": "https://dc.lft.to/lastmile_qr_scan"}}, {"name": "8d98161d402b26715be532f16c29e0d1", "type": "electric_scooter", "lat": 38.8887365, "is_reserved": 0, "lon": -76.99034216666666, "fusion_lon": 0.0, "is_disabled": 0, "fusion_lat": 0.0, "bike_id": "8d98161d402b26715be532f16c29e0d1", "rental_uris": {"ios": "https://dc.lft.to/lastmile_qr_scan", "android": "https://dc.lft.to/lastmile_qr_scan"}}, {"name": "ac6e350c0b1f3b1ce417175c261767cc", "type": "electric_scooter", "lat": 38.93412166666667, "is_reserved": 0, "lon": -77.024195, "fusion_lon": 0.0, "is_disabled": 0, "fusion_lat": 0.0, "bike_id": "ac6e350c0b1f3b1ce417175c261767cc", "rental_uris": {"ios": "https://dc.lft.to/lastmile_qr_scan", "android": "https://dc.lft.to/lastmile_qr_scan"}}, {"name": "b70f54d9736a9dd11f064852e7788def", "type": "electric_scooter", "lat": 38.90047783333333, "is_reserved": 0, "lon": -77.0317985, "fusion_lon": 0.0, "is_disabled": 0, "fusion_lat": 0.0, "bike_id": "b70f54d9736a9dd11f064852e7788def", "rental_uris": {"ios": "https://dc.lft.to/lastmile_qr_scan", "android": "https://dc.lft.to/lastmile_qr_scan"}}, {"name": "07156ff460ae9e0e23a57ab2a7ff7128", "type": "electric_scooter", "lat": 38.90431866666667, "is_reserved": 0, "lon": -77.03437133333334, "fusion_lon": 0.0, "is_disabled": 0, "fusion_lat": 0.0, "bike_id": "07156ff460ae9e0e23a57ab2a7ff7128", "rental_uris": {"ios": "https://dc.lft.to/lastmile_qr_scan", "android": "https://dc.lft.to/lastmile_qr_scan"}}, {"name": "d67c8f0cdaa8bd191d57f8555a785f67", "type": "electric_scooter", "lat": 38.8987475, "is_reserved": 0, "lon": -77.032669, "fusion_lon": 0.0, "is_disabled": 0, "fusion_lat": 0.0, "bike_id": "d67c8f0cdaa8bd191d57f8555a785f67", "rental_uris": {"ios": "https://dc.lft.to/lastmile_qr_scan", "android": "https://dc.lft.to/lastmile_qr_scan"}}, {"name": "3b6de39e8ff095bdceacedb57f0b7891", "type": "electric_scooter", "lat": 38.90080283333333, "is_reserved": 0, "lon": -76.93860983333333, "fusion_lon": 0.0, "is_disabled": 0, "fusion_lat": 0.0, "bike_id": "3b6de39e8ff095bdceacedb57f0b7891", "rental_uris": {"ios": "https://dc.lft.to/lastmile_qr_scan", "android": "https://dc.lft.to/lastmile_qr_scan"}}, {"name": "c411bc4acab9ef5f729e91ff7a7fcc26", "type": "electric_scooter", "lat": 38.898176, "is_reserved": 0, "lon": -77.03339833333334, "fusion_lon": 0.0, "is_disabled": 0, "fusion_lat": 0.0, "bike_id": "c411bc4acab9ef5f729e91ff7a7fcc26", "rental_uris": {"ios": "https://dc.lft.to/lastmile_qr_scan", "android": "https://dc.lft.to/lastmile_qr_scan"}}, {"name": "a49faf0e2f9749f1372bb570550e57da", "type": "electric_scooter", "lat": 38.88013883333333, "is_reserved": 0, "lon": -76.9312585, "fusion_lon": 0.0, "is_disabled": 0, "fusion_lat": 0.0, "bike_id": "a49faf0e2f9749f1372bb570550e57da", "rental_uris": {"ios": "https://dc.lft.to/lastmile_qr_scan", "android": "https://dc.lft.to/lastmile_qr_scan"}}, {"name": "f0b29b6c1f7979abe27561940f861f4f", "type": "electric_scooter", "lat": 38.910557, "is_reserved": 0, "lon": -77.0458165, "fusion_lon": 0.0, "is_disabled": 0, "fusion_lat": 0.0, "bike_id": "f0b29b6c1f7979abe27561940f861f4f", "rental_uris": {"ios": "https://dc.lft.to/lastmile_qr_scan", "android": "https://dc.lft.to/lastmile_qr_scan"}}, {"name": "ebff99fdaadd563ecfce9cd25a88f8f0", "type": "electric_scooter", "lat": 38.927932, "is_reserved": 0, "lon": -77.05354983333334, "fusion_lon": 0.0, "is_disabled": 0, "fusion_lat": 0.0, "bike_id": "ebff99fdaadd563ecfce9cd25a88f8f0", "rental_uris": {"ios": "https://dc.lft.to/lastmile_qr_scan", "android": "https://dc.lft.to/lastmile_qr_scan"}}, {"name": "38db1ccb42f362cc9278553050f070d9", "type": "electric_scooter", "lat": 38.916803333333334, "is_reserved": 0, "lon": -77.02806516666666, "fusion_lon": 0.0, "is_disabled": 0, "fusion_lat": 0.0, "bike_id": "38db1ccb42f362cc9278553050f070d9", "rental_uris": {"ios": "https://dc.lft.to/lastmile_qr_scan", "android": "https://dc.lft.to/lastmile_qr_scan"}}, {"name": "5dd040000df2db5bbafbed7687adb370", "type": "electric_scooter", "lat": 38.892377333333336, "is_reserved": 0, "lon": -77.01535533333333, "fusion_lon": 0.0, "is_disabled": 0, "fusion_lat": 0.0, "bike_id": "5dd040000df2db5bbafbed7687adb370", "rental_uris": {"ios": "https://dc.lft.to/lastmile_qr_scan", "android": "https://dc.lft.to/lastmile_qr_scan"}}, {"name": "41c9dd08044020ca48e9e43fe0c0cecf", "type": "electric_scooter", "lat": 38.932872, "is_reserved": 0, "lon": -77.03981166666667, "fusion_lon": 0.0, "is_disabled": 0, "fusion_lat": 0.0, "bike_id": "41c9dd08044020ca48e9e43fe0c0cecf", "rental_uris": {"ios": "https://dc.lft.to/lastmile_qr_scan", "android": "https://dc.lft.to/lastmile_qr_scan"}}, {"name": "835758568092f43b15fdcb1e208d368b", "type": "electric_scooter", "lat": 38.9286685, "is_reserved": 0, "lon": -77.0138675, "fusion_lon": 0.0, "is_disabled": 0, "fusion_lat": 0.0, "bike_id": "835758568092f43b15fdcb1e208d368b", "rental_uris": {"ios": "https://dc.lft.to/lastmile_qr_scan", "android": "https://dc.lft.to/lastmile_qr_scan"}}, {"name": "b21551fcc95204305d36697035eee6dc", "type": "electric_scooter", "lat": 38.90842133333334, "is_reserved": 0, "lon": -77.026953, "fusion_lon": 0.0, "is_disabled": 0, "fusion_lat": 0.0, "bike_id": "b21551fcc95204305d36697035eee6dc", "rental_uris": {"ios": "https://dc.lft.to/lastmile_qr_scan", "android": "https://dc.lft.to/lastmile_qr_scan"}}, {"name": "4608530d484a03161150fc042ef51b20", "type": "electric_scooter", "lat": 38.865236, "is_reserved": 0, "lon": -76.9902725, "fusion_lon": 0.0, "is_disabled": 0, "fusion_lat": 0.0, "bike_id": "4608530d484a03161150fc042ef51b20", "rental_uris": {"ios": "https://dc.lft.to/lastmile_qr_scan", "android": "https://dc.lft.to/lastmile_qr_scan"}}, {"name": "434d6c62f59785ecb9cd9c2dae8287b0", "type": "electric_scooter", "lat": 38.88692066666667, "is_reserved": 0, "lon": -76.957613, "fusion_lon": 0.0, "is_disabled": 0, "fusion_lat": 0.0, "bike_id": "434d6c62f59785ecb9cd9c2dae8287b0", "rental_uris": {"ios": "https://dc.lft.to/lastmile_qr_scan", "android": "https://dc.lft.to/lastmile_qr_scan"}}, {"name": "9c6cdb2da6bb058d4a8b67c240d14501", "type": "electric_scooter", "lat": 38.906726166666665, "is_reserved": 0, "lon": -77.038137, "fusion_lon": 0.0, "is_disabled": 0, "fusion_lat": 0.0, "bike_id": "9c6cdb2da6bb058d4a8b67c240d14501", "rental_uris": {"ios": "https://dc.lft.to/lastmile_qr_scan", "android": "https://dc.lft.to/lastmile_qr_scan"}}, {"name": "5947f31e24b5fa18820d5ee4ac93a412", "type": "electric_scooter", "lat": 38.89454216666667, "is_reserved": 0, "lon": -77.01920266666667, "fusion_lon": 0.0, "is_disabled": 0, "fusion_lat": 0.0, "bike_id": "5947f31e24b5fa18820d5ee4ac93a412", "rental_uris": {"ios": "https://dc.lft.to/lastmile_qr_scan", "android": "https://dc.lft.to/lastmile_qr_scan"}}, {"name": "85c721d342a4bbb23c77c9b22633475c", "type": "electric_scooter", "lat": 38.89738083333334, "is_reserved": 0, "lon": -76.93840233333333, "fusion_lon": 0.0, "is_disabled": 0, "fusion_lat": 0.0, "bike_id": "85c721d342a4bbb23c77c9b22633475c", "rental_uris": {"ios": "https://dc.lft.to/lastmile_qr_scan", "android": "https://dc.lft.to/lastmile_qr_scan"}}, {"name": "cd9903194fdf17798d346ffdbcfcb564", "type": "electric_scooter", "lat": 38.87630016666667, "is_reserved": 0, "lon": -76.965222, "fusion_lon": 0.0, "is_disabled": 0, "fusion_lat": 0.0, "bike_id": "cd9903194fdf17798d346ffdbcfcb564", "rental_uris": {"ios": "https://dc.lft.to/lastmile_qr_scan", "android": "https://dc.lft.to/lastmile_qr_scan"}}, {"name": "08d12e1d28644240fec6c33433b3bc23", "type": "electric_bike", "lat": 38.838251666666665, "is_reserved": 0, "lon": -76.9968205, "fusion_lon": 0.0, "is_disabled": 0, "fusion_lat": 0.0, "bike_id": "08d12e1d28644240fec6c33433b3bc23", "rental_uris": {"ios": "https://dc.lft.to/lastmile_qr_scan", "android": "https://dc.lft.to/lastmile_qr_scan"}}, {"name": "63870bf67c89479f5361fa2d2328edff", "type": "electric_scooter", "lat": 38.92350166666667, "is_reserved": 0, "lon": -77.05308683333334, "fusion_lon": 0.0, "is_disabled": 0, "fusion_lat": 0.0, "bike_id": "63870bf67c89479f5361fa2d2328edff", "rental_uris": {"ios": "https://dc.lft.to/lastmile_qr_scan", "android": "https://dc.lft.to/lastmile_qr_scan"}}, {"name": "8df77c82e462d95491c36f06985c4a99", "type": "electric_bike", "lat": 38.952699833333334, "is_reserved": 0, "lon": -77.0697115, "fusion_lon": 0.0, "is_disabled": 0, "fusion_lat": 0.0, "bike_id": "8df77c82e462d95491c36f06985c4a99", "rental_uris": {"ios": "https://dc.lft.to/lastmile_qr_scan", "android": "https://dc.lft.to/lastmile_qr_scan"}}, {"name": "e6f4fa11b8ed6a5bb1b39072f713bf35", "type": "electric_scooter", "lat": 38.886046, "is_reserved": 0, "lon": -76.99509833333333, "fusion_lon": 0.0, "is_disabled": 0, "fusion_lat": 0.0, "bike_id": "e6f4fa11b8ed6a5bb1b39072f713bf35", "rental_uris": {"ios": "https://dc.lft.to/lastmile_qr_scan", "android": "https://dc.lft.to/lastmile_qr_scan"}}, {"name": "d70832f1dd24010bc73c664bcaa56388", "type": "electric_scooter", "lat": 38.921521, "is_reserved": 0, "lon": -77.0338625, "fusion_lon": 0.0, "is_disabled": 0, "fusion_lat": 0.0, "bike_id": "d70832f1dd24010bc73c664bcaa56388", "rental_uris": {"ios": "https://dc.lft.to/lastmile_qr_scan", "android": "https://dc.lft.to/lastmile_qr_scan"}}, {"name": "a9b231de25f7802f1a76b7a2e8d06af2", "type": "electric_scooter", "lat": 38.863745333333334, "is_reserved": 0, "lon": -76.99063583333333, "fusion_lon": 0.0, "is_disabled": 0, "fusion_lat": 0.0, "bike_id": "a9b231de25f7802f1a76b7a2e8d06af2", "rental_uris": {"ios": "https://dc.lft.to/lastmile_qr_scan", "android": "https://dc.lft.to/lastmile_qr_scan"}}, {"name": "6663bed492a14ac200c71c7fbaca907f", "type": "electric_scooter", "lat": 38.919944, "is_reserved": 0, "lon": -77.03885566666666, "fusion_lon": 0.0, "is_disabled": 0, "fusion_lat": 0.0, "bike_id": "6663bed492a14ac200c71c7fbaca907f", "rental_uris": {"ios": "https://dc.lft.to/lastmile_qr_scan", "android": "https://dc.lft.to/lastmile_qr_scan"}}, {"name": "2e9340b00dc1e339c3c227ed9bd21fbd", "type": "electric_bike", "lat": 38.86277483333333, "is_reserved": 0, "lon": -77.0635075, "fusion_lon": 0.0, "is_disabled": 0, "fusion_lat": 0.0, "bike_id": "2e9340b00dc1e339c3c227ed9bd21fbd", "rental_uris": {"ios": "https://dc.lft.to/lastmile_qr_scan", "android": "https://dc.lft.to/lastmile_qr_scan"}}, {"name": "a95b637b39dabfaafe2410d95269b979", "type": "electric_scooter", "lat": 38.86659783333333, "is_reserved": 0, "lon": -76.98887133333334, "fusion_lon": 0.0, "is_disabled": 0, "fusion_lat": 0.0, "bike_id": "a95b637b39dabfaafe2410d95269b979", "rental_uris": {"ios": "https://dc.lft.to/lastmile_qr_scan", "android": "https://dc.lft.to/lastmile_qr_scan"}}, {"name": "d74c06b326203abbcbf57ce6e76491fa", "type": "electric_scooter", "lat": 38.90673, "is_reserved": 0, "lon": -77.038341, "fusion_lon": 0.0, "is_disabled": 0, "fusion_lat": 0.0, "bike_id": "d74c06b326203abbcbf57ce6e76491fa", "rental_uris": {"ios": "https://dc.lft.to/lastmile_qr_scan", "android": "https://dc.lft.to/lastmile_qr_scan"}}, {"name": "269d85025821882169bdf292ded59e80", "type": "electric_scooter", "lat": 38.92685633333333, "is_reserved": 0, "lon": -77.02780833333334, "fusion_lon": 0.0, "is_disabled": 0, "fusion_lat": 0.0, "bike_id": "269d85025821882169bdf292ded59e80", "rental_uris": {"ios": "https://dc.lft.to/lastmile_qr_scan", "android": "https://dc.lft.to/lastmile_qr_scan"}}, {"name": "0a931fa2a8742034c838b78a1ed27ce0", "type": "electric_scooter", "lat": 38.893898666666665, "is_reserved": 0, "lon": -77.029872, "fusion_lon": 0.0, "is_disabled": 0, "fusion_lat": 0.0, "bike_id": "0a931fa2a8742034c838b78a1ed27ce0", "rental_uris": {"ios": "https://dc.lft.to/lastmile_qr_scan", "android": "https://dc.lft.to/lastmile_qr_scan"}}, {"name": "0cc30acfe22178d290a85c133b29f2c9", "type": "electric_scooter", "lat": 38.8652065, "is_reserved": 0, "lon": -76.9902825, "fusion_lon": 0.0, "is_disabled": 0, "fusion_lat": 0.0, "bike_id": "0cc30acfe22178d290a85c133b29f2c9", "rental_uris": {"ios": "https://dc.lft.to/lastmile_qr_scan", "android": "https://dc.lft.to/lastmile_qr_scan"}}, {"name": "194b6775f001daf13af1269661ba049c", "type": "electric_scooter", "lat": 38.91107933333333, "is_reserved": 0, "lon": -77.038298, "fusion_lon": 0.0, "is_disabled": 0, "fusion_lat": 0.0, "bike_id": "194b6775f001daf13af1269661ba049c", "rental_uris": {"ios": "https://dc.lft.to/lastmile_qr_scan", "android": "https://dc.lft.to/lastmile_qr_scan"}}, {"name": "97319b25c29e531d918f4e74f14475c6", "type": "electric_scooter", "lat": 38.92475733333333, "is_reserved": 0, "lon": -77.03483516666667, "fusion_lon": 0.0, "is_disabled": 0, "fusion_lat": 0.0, "bike_id": "97319b25c29e531d918f4e74f14475c6", "rental_uris": {"ios": "https://dc.lft.to/lastmile_qr_scan", "android": "https://dc.lft.to/lastmile_qr_scan"}}, {"name": "e5ab8e508fe2c7c73a081dd8cac8f4a6", "type": "electric_scooter", "lat": 38.927458666666666, "is_reserved": 0, "lon": -77.03256633333334, "fusion_lon": 0.0, "is_disabled": 0, "fusion_lat": 0.0, "bike_id": "e5ab8e508fe2c7c73a081dd8cac8f4a6", "rental_uris": {"ios": "https://dc.lft.to/lastmile_qr_scan", "android": "https://dc.lft.to/lastmile_qr_scan"}}, {"name": "7d58cf6151f148f148fd87eaf5f00bf7", "type": "electric_scooter", "lat": 38.9251445, "is_reserved": 0, "lon": -77.0193675, "fusion_lon": 0.0, "is_disabled": 0, "fusion_lat": 0.0, "bike_id": "7d58cf6151f148f148fd87eaf5f00bf7", "rental_uris": {"ios": "https://dc.lft.to/lastmile_qr_scan", "android": "https://dc.lft.to/lastmile_qr_scan"}}, {"name": "ede09287b1bdc9ee080e94212c2cefe8", "type": "electric_scooter", "lat": 38.90349466666667, "is_reserved": 0, "lon": -77.0110295, "fusion_lon": 0.0, "is_disabled": 0, "fusion_lat": 0.0, "bike_id": "ede09287b1bdc9ee080e94212c2cefe8", "rental_uris": {"ios": "https://dc.lft.to/lastmile_qr_scan", "android": "https://dc.lft.to/lastmile_qr_scan"}}, {"name": "d0220a11eb3a977911f78505ec39a871", "type": "electric_scooter", "lat": 38.92898733333333, "is_reserved": 0, "lon": -77.05457283333334, "fusion_lon": 0.0, "is_disabled": 0, "fusion_lat": 0.0, "bike_id": "d0220a11eb3a977911f78505ec39a871", "rental_uris": {"ios": "https://dc.lft.to/lastmile_qr_scan", "android": "https://dc.lft.to/lastmile_qr_scan"}}, {"name": "0f6305ee17c6160b164dd51eb62807d8", "type": "electric_scooter", "lat": 38.902384, "is_reserved": 0, "lon": -77.0019685, "fusion_lon": 0.0, "is_disabled": 0, "fusion_lat": 0.0, "bike_id": "0f6305ee17c6160b164dd51eb62807d8", "rental_uris": {"ios": "https://dc.lft.to/lastmile_qr_scan", "android": "https://dc.lft.to/lastmile_qr_scan"}}, {"name": "58b53358241e8ae3dfef92013efceee2", "type": "electric_scooter", "lat": 38.903368, "is_reserved": 0, "lon": -77.066535, "fusion_lon": 0.0, "is_disabled": 0, "fusion_lat": 0.0, "bike_id": "58b53358241e8ae3dfef92013efceee2", "rental_uris": {"ios": "https://dc.lft.to/lastmile_qr_scan", "android": "https://dc.lft.to/lastmile_qr_scan"}}, {"name": "e2123e28a6400efc11c1afa22fa5f0c3", "type": "electric_scooter", "lat": 38.910251833333334, "is_reserved": 0, "lon": -77.0480505, "fusion_lon": 0.0, "is_disabled": 0, "fusion_lat": 0.0, "bike_id": "e2123e28a6400efc11c1afa22fa5f0c3", "rental_uris": {"ios": "https://dc.lft.to/lastmile_qr_scan", "android": "https://dc.lft.to/lastmile_qr_scan"}}, {"name": "dc4ecf7a95b7900ec7e462ba2954135a", "type": "electric_scooter", "lat": 38.941729, "is_reserved": 0, "lon": -77.04130483333333, "fusion_lon": 0.0, "is_disabled": 0, "fusion_lat": 0.0, "bike_id": "dc4ecf7a95b7900ec7e462ba2954135a", "rental_uris": {"ios": "https://dc.lft.to/lastmile_qr_scan", "android": "https://dc.lft.to/lastmile_qr_scan"}}, {"name": "3779572ceedffea42c167bc2f5581151", "type": "electric_scooter", "lat": 38.9264065, "is_reserved": 0, "lon": -77.03399233333333, "fusion_lon": 0.0, "is_disabled": 0, "fusion_lat": 0.0, "bike_id": "3779572ceedffea42c167bc2f5581151", "rental_uris": {"ios": "https://dc.lft.to/lastmile_qr_scan", "android": "https://dc.lft.to/lastmile_qr_scan"}}, {"name": "852bf6b3cdd499186831c8c91954802e", "type": "electric_scooter", "lat": 38.8987655, "is_reserved": 0, "lon": -76.931593, "fusion_lon": 0.0, "is_disabled": 0, "fusion_lat": 0.0, "bike_id": "852bf6b3cdd499186831c8c91954802e", "rental_uris": {"ios": "https://dc.lft.to/lastmile_qr_scan", "android": "https://dc.lft.to/lastmile_qr_scan"}}, {"name": "5c8848bcb993b655672274694c78982a", "type": "electric_scooter", "lat": 38.856327666666665, "is_reserved": 0, "lon": -76.97450433333333, "fusion_lon": 0.0, "is_disabled": 0, "fusion_lat": 0.0, "bike_id": "5c8848bcb993b655672274694c78982a", "rental_uris": {"ios": "https://dc.lft.to/lastmile_qr_scan", "android": "https://dc.lft.to/lastmile_qr_scan"}}, {"name": "4f671ff9d251c69a2d0cd7e89c1686bb", "type": "electric_scooter", "lat": 38.920601, "is_reserved": 0, "lon": -76.97810333333334, "fusion_lon": 0.0, "is_disabled": 0, "fusion_lat": 0.0, "bike_id": "4f671ff9d251c69a2d0cd7e89c1686bb", "rental_uris": {"ios": "https://dc.lft.to/lastmile_qr_scan", "android": "https://dc.lft.to/lastmile_qr_scan"}}, {"name": "fd90fdc751427c9d49437b61ba65edb0", "type": "electric_scooter", "lat": 38.9051725, "is_reserved": 0, "lon": -77.06387116666667, "fusion_lon": 0.0, "is_disabled": 0, "fusion_lat": 0.0, "bike_id": "fd90fdc751427c9d49437b61ba65edb0", "rental_uris": {"ios": "https://dc.lft.to/lastmile_qr_scan", "android": "https://dc.lft.to/lastmile_qr_scan"}}, {"name": "8eb7901cac75bb8174645eb619480618", "type": "electric_scooter", "lat": 38.90967283333333, "is_reserved": 0, "lon": -77.01120416666667, "fusion_lon": 0.0, "is_disabled": 0, "fusion_lat": 0.0, "bike_id": "8eb7901cac75bb8174645eb619480618", "rental_uris": {"ios": "https://dc.lft.to/lastmile_qr_scan", "android": "https://dc.lft.to/lastmile_qr_scan"}}, {"name": "d61f58562754d51ec4bba59035f0f47f", "type": "electric_scooter", "lat": 38.90584716666667, "is_reserved": 0, "lon": -77.065182, "fusion_lon": 0.0, "is_disabled": 0, "fusion_lat": 0.0, "bike_id": "d61f58562754d51ec4bba59035f0f47f", "rental_uris": {"ios": "https://dc.lft.to/lastmile_qr_scan", "android": "https://dc.lft.to/lastmile_qr_scan"}}, {"name": "3cbed519fad97694f57ce0c82ff1d461", "type": "electric_scooter", "lat": 38.926300833333336, "is_reserved": 0, "lon": -77.03504316666667, "fusion_lon": 0.0, "is_disabled": 0, "fusion_lat": 0.0, "bike_id": "3cbed519fad97694f57ce0c82ff1d461", "rental_uris": {"ios": "https://dc.lft.to/lastmile_qr_scan", "android": "https://dc.lft.to/lastmile_qr_scan"}}, {"name": "5640ba4e97c952a4ea1119456d53fa9c", "type": "electric_scooter", "lat": 38.919688, "is_reserved": 0, "lon": -77.001074, "fusion_lon": 0.0, "is_disabled": 0, "fusion_lat": 0.0, "bike_id": "5640ba4e97c952a4ea1119456d53fa9c", "rental_uris": {"ios": "https://dc.lft.to/lastmile_qr_scan", "android": "https://dc.lft.to/lastmile_qr_scan"}}, {"name": "b12da010146c3673f3d3ef273417af4b", "type": "electric_scooter", "lat": 38.9022715, "is_reserved": 0, "lon": -77.0175605, "fusion_lon": 0.0, "is_disabled": 0, "fusion_lat": 0.0, "bike_id": "b12da010146c3673f3d3ef273417af4b", "rental_uris": {"ios": "https://dc.lft.to/lastmile_qr_scan", "android": "https://dc.lft.to/lastmile_qr_scan"}}, {"name": "bc072fe5a53f8c81f39c62e491791e8a", "type": "electric_scooter", "lat": 38.905878666666666, "is_reserved": 0, "lon": -77.06515866666666, "fusion_lon": 0.0, "is_disabled": 0, "fusion_lat": 0.0, "bike_id": "bc072fe5a53f8c81f39c62e491791e8a", "rental_uris": {"ios": "https://dc.lft.to/lastmile_qr_scan", "android": "https://dc.lft.to/lastmile_qr_scan"}}, {"name": "51bb803844a765caf9d83a929e4f6ad4", "type": "electric_scooter", "lat": 38.9205725, "is_reserved": 0, "lon": -77.02978066666667, "fusion_lon": 0.0, "is_disabled": 0, "fusion_lat": 0.0, "bike_id": "51bb803844a765caf9d83a929e4f6ad4", "rental_uris": {"ios": "https://dc.lft.to/lastmile_qr_scan", "android": "https://dc.lft.to/lastmile_qr_scan"}}, {"name": "b3cc6c859ddc9ff8d99758545acb9a03", "type": "electric_bike", "lat": 38.955339333333335, "is_reserved": 0, "lon": -77.0229765, "fusion_lon": 0.0, "is_disabled": 0, "fusion_lat": 0.0, "bike_id": "b3cc6c859ddc9ff8d99758545acb9a03", "rental_uris": {"ios": "https://dc.lft.to/lastmile_qr_scan", "android": "https://dc.lft.to/lastmile_qr_scan"}}, {"name": "ab924e4f069e836356036ae3531f690d", "type": "electric_scooter", "lat": 38.92347433333333, "is_reserved": 0, "lon": -77.0189985, "fusion_lon": 0.0, "is_disabled": 0, "fusion_lat": 0.0, "bike_id": "ab924e4f069e836356036ae3531f690d", "rental_uris": {"ios": "https://dc.lft.to/lastmile_qr_scan", "android": "https://dc.lft.to/lastmile_qr_scan"}}, {"name": "68051998adb9f22abfe56348f56cfc8f", "type": "electric_scooter", "lat": 38.903330833333335, "is_reserved": 0, "lon": -76.9897005, "fusion_lon": 0.0, "is_disabled": 0, "fusion_lat": 0.0, "bike_id": "68051998adb9f22abfe56348f56cfc8f", "rental_uris": {"ios": "https://dc.lft.to/lastmile_qr_scan", "android": "https://dc.lft.to/lastmile_qr_scan"}}, {"name": "0c7859c71a7a10953cbc19c68726218a", "type": "electric_scooter", "lat": 38.9221235, "is_reserved": 0, "lon": -77.04239083333333, "fusion_lon": 0.0, "is_disabled": 0, "fusion_lat": 0.0, "bike_id": "0c7859c71a7a10953cbc19c68726218a", "rental_uris": {"ios": "https://dc.lft.to/lastmile_qr_scan", "android": "https://dc.lft.to/lastmile_qr_scan"}}, {"name": "a450de3b503554f8f6b6b37db54171f5", "type": "electric_scooter", "lat": 38.915625, "is_reserved": 0, "lon": -77.02722283333334, "fusion_lon": 0.0, "is_disabled": 0, "fusion_lat": 0.0, "bike_id": "a450de3b503554f8f6b6b37db54171f5", "rental_uris": {"ios": "https://dc.lft.to/lastmile_qr_scan", "android": "https://dc.lft.to/lastmile_qr_scan"}}, {"name": "31f894a50985929d1e6200493834a104", "type": "electric_scooter", "lat": 38.902757, "is_reserved": 0, "lon": -77.03195833333334, "fusion_lon": 0.0, "is_disabled": 0, "fusion_lat": 0.0, "bike_id": "31f894a50985929d1e6200493834a104", "rental_uris": {"ios": "https://dc.lft.to/lastmile_qr_scan", "android": "https://dc.lft.to/lastmile_qr_scan"}}, {"name": "0c88219dd34ff343c1b62b71c6e1b614", "type": "electric_scooter", "lat": 38.9057225, "is_reserved": 0, "lon": -77.00587416666667, "fusion_lon": 0.0, "is_disabled": 0, "fusion_lat": 0.0, "bike_id": "0c88219dd34ff343c1b62b71c6e1b614", "rental_uris": {"ios": "https://dc.lft.to/lastmile_qr_scan", "android": "https://dc.lft.to/lastmile_qr_scan"}}, {"name": "4f02f1b12568060d6a96e2cfdd8a4d8d", "type": "electric_scooter", "lat": 38.90258466666667, "is_reserved": 0, "lon": -77.01755016666667, "fusion_lon": 0.0, "is_disabled": 0, "fusion_lat": 0.0, "bike_id": "4f02f1b12568060d6a96e2cfdd8a4d8d", "rental_uris": {"ios": "https://dc.lft.to/lastmile_qr_scan", "android": "https://dc.lft.to/lastmile_qr_scan"}}, {"name": "4ce0961e868baab59972333d02aa11cd", "type": "electric_scooter", "lat": 38.90729066666667, "is_reserved": 0, "lon": -77.01130466666666, "fusion_lon": 0.0, "is_disabled": 0, "fusion_lat": 0.0, "bike_id": "4ce0961e868baab59972333d02aa11cd", "rental_uris": {"ios": "https://dc.lft.to/lastmile_qr_scan", "android": "https://dc.lft.to/lastmile_qr_scan"}}, {"name": "fe3739b2ae6967b0f868f978376f5576", "type": "electric_scooter", "lat": 38.92153883333334, "is_reserved": 0, "lon": -77.03385633333333, "fusion_lon": 0.0, "is_disabled": 0, "fusion_lat": 0.0, "bike_id": "fe3739b2ae6967b0f868f978376f5576", "rental_uris": {"ios": "https://dc.lft.to/lastmile_qr_scan", "android": "https://dc.lft.to/lastmile_qr_scan"}}, {"name": "9d178902e2e816306078cd1598a83c5c", "type": "electric_scooter", "lat": 38.88607566666667, "is_reserved": 0, "lon": -76.995066, "fusion_lon": 0.0, "is_disabled": 0, "fusion_lat": 0.0, "bike_id": "9d178902e2e816306078cd1598a83c5c", "rental_uris": {"ios": "https://dc.lft.to/lastmile_qr_scan", "android": "https://dc.lft.to/lastmile_qr_scan"}}, {"name": "6f5c569087b5f88bc5f830fe69b3c415", "type": "electric_scooter", "lat": 38.8822005, "is_reserved": 0, "lon": -76.941792, "fusion_lon": 0.0, "is_disabled": 0, "fusion_lat": 0.0, "bike_id": "6f5c569087b5f88bc5f830fe69b3c415", "rental_uris": {"ios": "https://dc.lft.to/lastmile_qr_scan", "android": "https://dc.lft.to/lastmile_qr_scan"}}, {"name": "ee112ae650b183f367f991b78c3ae014", "type": "electric_scooter", "lat": 38.887237, "is_reserved": 0, "lon": -77.02825816666666, "fusion_lon": 0.0, "is_disabled": 0, "fusion_lat": 0.0, "bike_id": "ee112ae650b183f367f991b78c3ae014", "rental_uris": {"ios": "https://dc.lft.to/lastmile_qr_scan", "android": "https://dc.lft.to/lastmile_qr_scan"}}, {"name": "8133d83ab72c3480ed23683fb0288ea5", "type": "electric_scooter", "lat": 38.933034, "is_reserved": 0, "lon": -77.03761866666666, "fusion_lon": 0.0, "is_disabled": 0, "fusion_lat": 0.0, "bike_id": "8133d83ab72c3480ed23683fb0288ea5", "rental_uris": {"ios": "https://dc.lft.to/lastmile_qr_scan", "android": "https://dc.lft.to/lastmile_qr_scan"}}, {"name": "e115dce2b16c042c970aff1d3f9a6e19", "type": "electric_bike", "lat": 39.029324833333334, "is_reserved": 0, "lon": -77.04927583333334, "fusion_lon": 0.0, "is_disabled": 0, "fusion_lat": 0.0, "bike_id": "e115dce2b16c042c970aff1d3f9a6e19", "rental_uris": {"ios": "https://dc.lft.to/lastmile_qr_scan", "android": "https://dc.lft.to/lastmile_qr_scan"}}, {"name": "a1d8a3ebb3dc2962b93d0d27b33de23d", "type": "electric_scooter", "lat": 38.90747566666667, "is_reserved": 0, "lon": -77.00367366666667, "fusion_lon": 0.0, "is_disabled": 0, "fusion_lat": 0.0, "bike_id": "a1d8a3ebb3dc2962b93d0d27b33de23d", "rental_uris": {"ios": "https://dc.lft.to/lastmile_qr_scan", "android": "https://dc.lft.to/lastmile_qr_scan"}}, {"name": "a34551afc9dd015dff9af2d5c509ae05", "type": "electric_scooter", "lat": 38.906333000000004, "is_reserved": 0, "lon": -77.05136416666667, "fusion_lon": 0.0, "is_disabled": 0, "fusion_lat": 0.0, "bike_id": "a34551afc9dd015dff9af2d5c509ae05", "rental_uris": {"ios": "https://dc.lft.to/lastmile_qr_scan", "android": "https://dc.lft.to/lastmile_qr_scan"}}, {"name": "d640e50089a06d712a552c8e9bf99473", "type": "electric_scooter", "lat": 38.9682065, "is_reserved": 0, "lon": -77.017855, "fusion_lon": 0.0, "is_disabled": 0, "fusion_lat": 0.0, "bike_id": "d640e50089a06d712a552c8e9bf99473", "rental_uris": {"ios": "https://dc.lft.to/lastmile_qr_scan", "android": "https://dc.lft.to/lastmile_qr_scan"}}, {"name": "2fe4b235c27071c4affd83281457affc", "type": "electric_scooter", "lat": 38.9260185, "is_reserved": 0, "lon": -77.02152666666667, "fusion_lon": 0.0, "is_disabled": 0, "fusion_lat": 0.0, "bike_id": "2fe4b235c27071c4affd83281457affc", "rental_uris": {"ios": "https://dc.lft.to/lastmile_qr_scan", "android": "https://dc.lft.to/lastmile_qr_scan"}}, {"name": "65dae1c15065555affe5269c76bf2be7", "type": "electric_scooter", "lat": 38.92574483333333, "is_reserved": 0, "lon": -77.05261, "fusion_lon": 0.0, "is_disabled": 0, "fusion_lat": 0.0, "bike_id": "65dae1c15065555affe5269c76bf2be7", "rental_uris": {"ios": "https://dc.lft.to/lastmile_qr_scan", "android": "https://dc.lft.to/lastmile_qr_scan"}}, {"name": "075827b444e77f62f51a8339e2afba00", "type": "electric_scooter", "lat": 38.896074, "is_reserved": 0, "lon": -77.04504, "fusion_lon": 0.0, "is_disabled": 0, "fusion_lat": 0.0, "bike_id": "075827b444e77f62f51a8339e2afba00", "rental_uris": {"ios": "https://dc.lft.to/lastmile_qr_scan", "android": "https://dc.lft.to/lastmile_qr_scan"}}, {"name": "9182d0f19d0aa2b8e09bd004cab47f86", "type": "electric_scooter", "lat": 38.898411333333335, "is_reserved": 0, "lon": -77.042762, "fusion_lon": 0.0, "is_disabled": 0, "fusion_lat": 0.0, "bike_id": "9182d0f19d0aa2b8e09bd004cab47f86", "rental_uris": {"ios": "https://dc.lft.to/lastmile_qr_scan", "android": "https://dc.lft.to/lastmile_qr_scan"}}, {"name": "7b5582715ebd794ba0494e44c071ef41", "type": "electric_scooter", "lat": 38.9345875, "is_reserved": 0, "lon": -77.029314, "fusion_lon": 0.0, "is_disabled": 0, "fusion_lat": 0.0, "bike_id": "7b5582715ebd794ba0494e44c071ef41", "rental_uris": {"ios": "https://dc.lft.to/lastmile_qr_scan", "android": "https://dc.lft.to/lastmile_qr_scan"}}, {"name": "14d6fa8af053ac7e17d60f10ab2be90e", "type": "electric_scooter", "lat": 38.9177465, "is_reserved": 0, "lon": -77.04102316666666, "fusion_lon": 0.0, "is_disabled": 0, "fusion_lat": 0.0, "bike_id": "14d6fa8af053ac7e17d60f10ab2be90e", "rental_uris": {"ios": "https://dc.lft.to/lastmile_qr_scan", "android": "https://dc.lft.to/lastmile_qr_scan"}}, {"name": "bf20b95ec08fa8b791942a0c8420ee7d", "type": "electric_scooter", "lat": 38.912576666666666, "is_reserved": 0, "lon": -77.03547533333334, "fusion_lon": 0.0, "is_disabled": 0, "fusion_lat": 0.0, "bike_id": "bf20b95ec08fa8b791942a0c8420ee7d", "rental_uris": {"ios": "https://dc.lft.to/lastmile_qr_scan", "android": "https://dc.lft.to/lastmile_qr_scan"}}, {"name": "8240efd8ec91913e5cc6673b29523b9e", "type": "electric_scooter", "lat": 38.892190666666664, "is_reserved": 0, "lon": -77.04638616666666, "fusion_lon": 0.0, "is_disabled": 0, "fusion_lat": 0.0, "bike_id": "8240efd8ec91913e5cc6673b29523b9e", "rental_uris": {"ios": "https://dc.lft.to/lastmile_qr_scan", "android": "https://dc.lft.to/lastmile_qr_scan"}}, {"name": "94f28a67e8d70cbf7e72fd6dbe87806a", "type": "electric_scooter", "lat": 38.9353975, "is_reserved": 0, "lon": -77.03459233333334, "fusion_lon": 0.0, "is_disabled": 0, "fusion_lat": 0.0, "bike_id": "94f28a67e8d70cbf7e72fd6dbe87806a", "rental_uris": {"ios": "https://dc.lft.to/lastmile_qr_scan", "android": "https://dc.lft.to/lastmile_qr_scan"}}, {"name": "7f0f12bfdbf76430baf6dd551e1038da", "type": "electric_scooter", "lat": 38.92171583333333, "is_reserved": 0, "lon": -77.04010166666667, "fusion_lon": 0.0, "is_disabled": 0, "fusion_lat": 0.0, "bike_id": "7f0f12bfdbf76430baf6dd551e1038da", "rental_uris": {"ios": "https://dc.lft.to/lastmile_qr_scan", "android": "https://dc.lft.to/lastmile_qr_scan"}}, {"name": "2f18bdefa3567411bd3072b2fdc466c4", "type": "electric_scooter", "lat": 38.9019905, "is_reserved": 0, "lon": -77.02160133333334, "fusion_lon": 0.0, "is_disabled": 0, "fusion_lat": 0.0, "bike_id": "2f18bdefa3567411bd3072b2fdc466c4", "rental_uris": {"ios": "https://dc.lft.to/lastmile_qr_scan", "android": "https://dc.lft.to/lastmile_qr_scan"}}, {"name": "db357e41684ca1bc588ea1613cefbcbe", "type": "electric_scooter", "lat": 38.894996, "is_reserved": 0, "lon": -77.01116066666667, "fusion_lon": 0.0, "is_disabled": 0, "fusion_lat": 0.0, "bike_id": "db357e41684ca1bc588ea1613cefbcbe", "rental_uris": {"ios": "https://dc.lft.to/lastmile_qr_scan", "android": "https://dc.lft.to/lastmile_qr_scan"}}, {"name": "901cc158b1624c216c7ac65ead4ce79c", "type": "electric_scooter", "lat": 38.892217, "is_reserved": 0, "lon": -77.04260383333333, "fusion_lon": 0.0, "is_disabled": 0, "fusion_lat": 0.0, "bike_id": "901cc158b1624c216c7ac65ead4ce79c", "rental_uris": {"ios": "https://dc.lft.to/lastmile_qr_scan", "android": "https://dc.lft.to/lastmile_qr_scan"}}, {"name": "b085e2dc1c920b5336ed07ad35d914e1", "type": "electric_bike", "lat": 38.92850166666667, "is_reserved": 0, "lon": -77.106776, "fusion_lon": 0.0, "is_disabled": 0, "fusion_lat": 0.0, "bike_id": "b085e2dc1c920b5336ed07ad35d914e1", "rental_uris": {"ios": "https://dc.lft.to/lastmile_qr_scan", "android": "https://dc.lft.to/lastmile_qr_scan"}}, {"name": "5a28b86871177a1a9577c8b351980950", "type": "electric_scooter", "lat": 38.863680333333335, "is_reserved": 0, "lon": -77.01359233333334, "fusion_lon": 0.0, "is_disabled": 0, "fusion_lat": 0.0, "bike_id": "5a28b86871177a1a9577c8b351980950", "rental_uris": {"ios": "https://dc.lft.to/lastmile_qr_scan", "android": "https://dc.lft.to/lastmile_qr_scan"}}, {"name": "5e344f520dd4ef7accba296561ffd8ee", "type": "electric_scooter", "lat": 38.93057833333334, "is_reserved": 0, "lon": -77.02318133333333, "fusion_lon": 0.0, "is_disabled": 0, "fusion_lat": 0.0, "bike_id": "5e344f520dd4ef7accba296561ffd8ee", "rental_uris": {"ios": "https://dc.lft.to/lastmile_qr_scan", "android": "https://dc.lft.to/lastmile_qr_scan"}}, {"name": "ca955680d88219f0660f8047f024a27b", "type": "electric_scooter", "lat": 38.8834445, "is_reserved": 0, "lon": -76.9494185, "fusion_lon": 0.0, "is_disabled": 0, "fusion_lat": 0.0, "bike_id": "ca955680d88219f0660f8047f024a27b", "rental_uris": {"ios": "https://dc.lft.to/lastmile_qr_scan", "android": "https://dc.lft.to/lastmile_qr_scan"}}, {"name": "de52f9865373b2a33336316008ee58b4", "type": "electric_scooter", "lat": 38.924866, "is_reserved": 0, "lon": -77.02710683333333, "fusion_lon": 0.0, "is_disabled": 0, "fusion_lat": 0.0, "bike_id": "de52f9865373b2a33336316008ee58b4", "rental_uris": {"ios": "https://dc.lft.to/lastmile_qr_scan", "android": "https://dc.lft.to/lastmile_qr_scan"}}, {"name": "8aef5cfe6c02e6fe25afff570e3529c7", "type": "electric_scooter", "lat": 38.9239715, "is_reserved": 0, "lon": -77.052676, "fusion_lon": 0.0, "is_disabled": 0, "fusion_lat": 0.0, "bike_id": "8aef5cfe6c02e6fe25afff570e3529c7", "rental_uris": {"ios": "https://dc.lft.to/lastmile_qr_scan", "android": "https://dc.lft.to/lastmile_qr_scan"}}, {"name": "b5ec0460da06ae0f85dfd2fdd72cd480", "type": "electric_bike", "lat": 38.8616425, "is_reserved": 0, "lon": -76.950653, "fusion_lon": 0.0, "is_disabled": 0, "fusion_lat": 0.0, "bike_id": "b5ec0460da06ae0f85dfd2fdd72cd480", "rental_uris": {"ios": "https://dc.lft.to/lastmile_qr_scan", "android": "https://dc.lft.to/lastmile_qr_scan"}}, {"name": "f618c303468d281de146086fe96cf798", "type": "electric_scooter", "lat": 38.91106816666667, "is_reserved": 0, "lon": -77.010566, "fusion_lon": 0.0, "is_disabled": 0, "fusion_lat": 0.0, "bike_id": "f618c303468d281de146086fe96cf798", "rental_uris": {"ios": "https://dc.lft.to/lastmile_qr_scan", "android": "https://dc.lft.to/lastmile_qr_scan"}}, {"name": "596e19ac132ca57a0329492a3cd89c6b", "type": "electric_scooter", "lat": 38.916832166666666, "is_reserved": 0, "lon": -77.02522066666667, "fusion_lon": 0.0, "is_disabled": 0, "fusion_lat": 0.0, "bike_id": "596e19ac132ca57a0329492a3cd89c6b", "rental_uris": {"ios": "https://dc.lft.to/lastmile_qr_scan", "android": "https://dc.lft.to/lastmile_qr_scan"}}, {"name": "6e6f4fe9a5d9ff5b108d5a3644f24767", "type": "electric_scooter", "lat": 38.89246416666667, "is_reserved": 0, "lon": -77.03199283333333, "fusion_lon": 0.0, "is_disabled": 0, "fusion_lat": 0.0, "bike_id": "6e6f4fe9a5d9ff5b108d5a3644f24767", "rental_uris": {"ios": "https://dc.lft.to/lastmile_qr_scan", "android": "https://dc.lft.to/lastmile_qr_scan"}}, {"name": "1bb47219d3e3f86c4494dd37e8d98ca5", "type": "electric_scooter", "lat": 38.916815166666666, "is_reserved": 0, "lon": -77.029694, "fusion_lon": 0.0, "is_disabled": 0, "fusion_lat": 0.0, "bike_id": "1bb47219d3e3f86c4494dd37e8d98ca5", "rental_uris": {"ios": "https://dc.lft.to/lastmile_qr_scan", "android": "https://dc.lft.to/lastmile_qr_scan"}}, {"name": "51dd73cdfd3fb135c6254c2f29251269", "type": "electric_scooter", "lat": 38.908061333333336, "is_reserved": 0, "lon": -77.03864683333333, "fusion_lon": 0.0, "is_disabled": 0, "fusion_lat": 0.0, "bike_id": "51dd73cdfd3fb135c6254c2f29251269", "rental_uris": {"ios": "https://dc.lft.to/lastmile_qr_scan", "android": "https://dc.lft.to/lastmile_qr_scan"}}, {"name": "32a99dd06c529e316ec0aee151af9dd7", "type": "electric_scooter", "lat": 38.939107, "is_reserved": 0, "lon": -77.02482516666667, "fusion_lon": 0.0, "is_disabled": 0, "fusion_lat": 0.0, "bike_id": "32a99dd06c529e316ec0aee151af9dd7", "rental_uris": {"ios": "https://dc.lft.to/lastmile_qr_scan", "android": "https://dc.lft.to/lastmile_qr_scan"}}, {"name": "c22b5acd0dd4181f5ff707aa8b0bf9be", "type": "electric_scooter", "lat": 38.9233655, "is_reserved": 0, "lon": -77.03881766666667, "fusion_lon": 0.0, "is_disabled": 0, "fusion_lat": 0.0, "bike_id": "c22b5acd0dd4181f5ff707aa8b0bf9be", "rental_uris": {"ios": "https://dc.lft.to/lastmile_qr_scan", "android": "https://dc.lft.to/lastmile_qr_scan"}}, {"name": "7c88b7ba1ceef262e87382bf7b44f3e2", "type": "electric_scooter", "lat": 38.90504283333333, "is_reserved": 0, "lon": -77.06935666666666, "fusion_lon": 0.0, "is_disabled": 0, "fusion_lat": 0.0, "bike_id": "7c88b7ba1ceef262e87382bf7b44f3e2", "rental_uris": {"ios": "https://dc.lft.to/lastmile_qr_scan", "android": "https://dc.lft.to/lastmile_qr_scan"}}, {"name": "75a4f2e1d4b27bcd316435ff79ada135", "type": "electric_scooter", "lat": 38.90090433333334, "is_reserved": 0, "lon": -77.04923266666667, "fusion_lon": 0.0, "is_disabled": 0, "fusion_lat": 0.0, "bike_id": "75a4f2e1d4b27bcd316435ff79ada135", "rental_uris": {"ios": "https://dc.lft.to/lastmile_qr_scan", "android": "https://dc.lft.to/lastmile_qr_scan"}}, {"name": "409d145cae273af32f45e185a0216eea", "type": "electric_scooter", "lat": 38.920435833333336, "is_reserved": 0, "lon": -77.03431666666667, "fusion_lon": 0.0, "is_disabled": 0, "fusion_lat": 0.0, "bike_id": "409d145cae273af32f45e185a0216eea", "rental_uris": {"ios": "https://dc.lft.to/lastmile_qr_scan", "android": "https://dc.lft.to/lastmile_qr_scan"}}, {"name": "a8d5180d755c78d9e56d8d98df7b2622", "type": "electric_scooter", "lat": 38.914064, "is_reserved": 0, "lon": -77.02116483333333, "fusion_lon": 0.0, "is_disabled": 0, "fusion_lat": 0.0, "bike_id": "a8d5180d755c78d9e56d8d98df7b2622", "rental_uris": {"ios": "https://dc.lft.to/lastmile_qr_scan", "android": "https://dc.lft.to/lastmile_qr_scan"}}, {"name": "31f733e41298ef7c5774e50baca8a0f0", "type": "electric_scooter", "lat": 38.917595166666665, "is_reserved": 0, "lon": -77.027123, "fusion_lon": 0.0, "is_disabled": 0, "fusion_lat": 0.0, "bike_id": "31f733e41298ef7c5774e50baca8a0f0", "rental_uris": {"ios": "https://dc.lft.to/lastmile_qr_scan", "android": "https://dc.lft.to/lastmile_qr_scan"}}, {"name": "576d0e654bfffb52f8cc472d92cc10e2", "type": "electric_bike", "lat": 38.88081366666667, "is_reserved": 0, "lon": -76.98529433333333, "fusion_lon": 0.0, "is_disabled": 0, "fusion_lat": 0.0, "bike_id": "576d0e654bfffb52f8cc472d92cc10e2", "rental_uris": {"ios": "https://dc.lft.to/lastmile_qr_scan", "android": "https://dc.lft.to/lastmile_qr_scan"}}, {"name": "268f8ca1386129998acd0e5e5820d491", "type": "electric_scooter", "lat": 38.9086275, "is_reserved": 0, "lon": -77.02497883333334, "fusion_lon": 0.0, "is_disabled": 0, "fusion_lat": 0.0, "bike_id": "268f8ca1386129998acd0e5e5820d491", "rental_uris": {"ios": "https://dc.lft.to/lastmile_qr_scan", "android": "https://dc.lft.to/lastmile_qr_scan"}}, {"name": "7304e043ccf1936c688c0cef0a076dfb", "type": "electric_scooter", "lat": 38.9036555, "is_reserved": 0, "lon": -77.04465416666666, "fusion_lon": 0.0, "is_disabled": 0, "fusion_lat": 0.0, "bike_id": "7304e043ccf1936c688c0cef0a076dfb", "rental_uris": {"ios": "https://dc.lft.to/lastmile_qr_scan", "android": "https://dc.lft.to/lastmile_qr_scan"}}, {"name": "c1abdbd909674cfd63b439a3d6b3363a", "type": "electric_scooter", "lat": 38.9027125, "is_reserved": 0, "lon": -77.053118, "fusion_lon": 0.0, "is_disabled": 0, "fusion_lat": 0.0, "bike_id": "c1abdbd909674cfd63b439a3d6b3363a", "rental_uris": {"ios": "https://dc.lft.to/lastmile_qr_scan", "android": "https://dc.lft.to/lastmile_qr_scan"}}, {"name": "8e7450ae87923b68449647115719395c", "type": "electric_scooter", "lat": 38.915725, "is_reserved": 0, "lon": -77.04613283333333, "fusion_lon": 0.0, "is_disabled": 0, "fusion_lat": 0.0, "bike_id": "8e7450ae87923b68449647115719395c", "rental_uris": {"ios": "https://dc.lft.to/lastmile_qr_scan", "android": "https://dc.lft.to/lastmile_qr_scan"}}, {"name": "85dd88920abb4b144a49d40ad7430c2d", "type": "electric_scooter", "lat": 38.902397666666666, "is_reserved": 0, "lon": -77.00199333333333, "fusion_lon": 0.0, "is_disabled": 0, "fusion_lat": 0.0, "bike_id": "85dd88920abb4b144a49d40ad7430c2d", "rental_uris": {"ios": "https://dc.lft.to/lastmile_qr_scan", "android": "https://dc.lft.to/lastmile_qr_scan"}}, {"name": "4d672018f5a6c14417100aa75a01d669", "type": "electric_scooter", "lat": 38.91705983333333, "is_reserved": 0, "lon": -77.03117533333334, "fusion_lon": 0.0, "is_disabled": 0, "fusion_lat": 0.0, "bike_id": "4d672018f5a6c14417100aa75a01d669", "rental_uris": {"ios": "https://dc.lft.to/lastmile_qr_scan", "android": "https://dc.lft.to/lastmile_qr_scan"}}, {"name": "b23bb03802648fefda9a0c7d3d1a0ce3", "type": "electric_scooter", "lat": 38.88515316666667, "is_reserved": 0, "lon": -77.00567933333333, "fusion_lon": 0.0, "is_disabled": 0, "fusion_lat": 0.0, "bike_id": "b23bb03802648fefda9a0c7d3d1a0ce3", "rental_uris": {"ios": "https://dc.lft.to/lastmile_qr_scan", "android": "https://dc.lft.to/lastmile_qr_scan"}}, {"name": "ca032a9f4c4cdc62013f4a8e0fe235be", "type": "electric_scooter", "lat": 38.92238583333334, "is_reserved": 0, "lon": -77.030852, "fusion_lon": 0.0, "is_disabled": 0, "fusion_lat": 0.0, "bike_id": "ca032a9f4c4cdc62013f4a8e0fe235be", "rental_uris": {"ios": "https://dc.lft.to/lastmile_qr_scan", "android": "https://dc.lft.to/lastmile_qr_scan"}}, {"name": "ca2fa092f23136ae24b3b6c5b0b71c69", "type": "electric_scooter", "lat": 38.898204166666666, "is_reserved": 0, "lon": -77.03143116666666, "fusion_lon": 0.0, "is_disabled": 0, "fusion_lat": 0.0, "bike_id": "ca2fa092f23136ae24b3b6c5b0b71c69", "rental_uris": {"ios": "https://dc.lft.to/lastmile_qr_scan", "android": "https://dc.lft.to/lastmile_qr_scan"}}, {"name": "d34bfdb5e1e16fe38cd22797122bb7cc", "type": "electric_scooter", "lat": 38.91402383333333, "is_reserved": 0, "lon": -77.0083185, "fusion_lon": 0.0, "is_disabled": 0, "fusion_lat": 0.0, "bike_id": "d34bfdb5e1e16fe38cd22797122bb7cc", "rental_uris": {"ios": "https://dc.lft.to/lastmile_qr_scan", "android": "https://dc.lft.to/lastmile_qr_scan"}}, {"name": "feba4e3c145704f5a24ddb97785c996d", "type": "electric_scooter", "lat": 38.90374933333333, "is_reserved": 0, "lon": -77.01734333333333, "fusion_lon": 0.0, "is_disabled": 0, "fusion_lat": 0.0, "bike_id": "feba4e3c145704f5a24ddb97785c996d", "rental_uris": {"ios": "https://dc.lft.to/lastmile_qr_scan", "android": "https://dc.lft.to/lastmile_qr_scan"}}, {"name": "74c15febd295ff5598be7d6bfb4d57f1", "type": "electric_scooter", "lat": 38.89516916666667, "is_reserved": 0, "lon": -77.011072, "fusion_lon": 0.0, "is_disabled": 0, "fusion_lat": 0.0, "bike_id": "74c15febd295ff5598be7d6bfb4d57f1", "rental_uris": {"ios": "https://dc.lft.to/lastmile_qr_scan", "android": "https://dc.lft.to/lastmile_qr_scan"}}, {"name": "39c7e3928caf7684d34bc637cfee41b5", "type": "electric_scooter", "lat": 38.917245666666666, "is_reserved": 0, "lon": -77.03653183333333, "fusion_lon": 0.0, "is_disabled": 0, "fusion_lat": 0.0, "bike_id": "39c7e3928caf7684d34bc637cfee41b5", "rental_uris": {"ios": "https://dc.lft.to/lastmile_qr_scan", "android": "https://dc.lft.to/lastmile_qr_scan"}}, {"name": "e29024e623c693f18bb5020c82acd860", "type": "electric_bike", "lat": 38.858501, "is_reserved": 0, "lon": -77.09751916666667, "fusion_lon": 0.0, "is_disabled": 0, "fusion_lat": 0.0, "bike_id": "e29024e623c693f18bb5020c82acd860", "rental_uris": {"ios": "https://dc.lft.to/lastmile_qr_scan", "android": "https://dc.lft.to/lastmile_qr_scan"}}, {"name": "b4739e20e34c418a050fdd65366bbdd5", "type": "electric_bike", "lat": 38.96622033333333, "is_reserved": 0, "lon": -76.97667633333333, "fusion_lon": 0.0, "is_disabled": 0, "fusion_lat": 0.0, "bike_id": "b4739e20e34c418a050fdd65366bbdd5", "rental_uris": {"ios": "https://dc.lft.to/lastmile_qr_scan", "android": "https://dc.lft.to/lastmile_qr_scan"}}, {"name": "c3309ff36c7ddc2d3b914f34034e0d96", "type": "electric_scooter", "lat": 38.933798, "is_reserved": 0, "lon": -77.02962516666666, "fusion_lon": 0.0, "is_disabled": 0, "fusion_lat": 0.0, "bike_id": "c3309ff36c7ddc2d3b914f34034e0d96", "rental_uris": {"ios": "https://dc.lft.to/lastmile_qr_scan", "android": "https://dc.lft.to/lastmile_qr_scan"}}, {"name": "6d81c4b6b70d6d59146affee7878ccb3", "type": "electric_scooter", "lat": 38.939794666666664, "is_reserved": 0, "lon": -77.028947, "fusion_lon": 0.0, "is_disabled": 0, "fusion_lat": 0.0, "bike_id": "6d81c4b6b70d6d59146affee7878ccb3", "rental_uris": {"ios": "https://dc.lft.to/lastmile_qr_scan", "android": "https://dc.lft.to/lastmile_qr_scan"}}, {"name": "a43c037b88bb54f9d42119bfacc9c465", "type": "electric_scooter", "lat": 38.920556, "is_reserved": 0, "lon": -77.03341683333333, "fusion_lon": 0.0, "is_disabled": 0, "fusion_lat": 0.0, "bike_id": "a43c037b88bb54f9d42119bfacc9c465", "rental_uris": {"ios": "https://dc.lft.to/lastmile_qr_scan", "android": "https://dc.lft.to/lastmile_qr_scan"}}, {"name": "d3be44a8701a6bdf867a722484d97aaf", "type": "electric_bike", "lat": 38.999411, "is_reserved": 0, "lon": -77.017664, "fusion_lon": 0.0, "is_disabled": 0, "fusion_lat": 0.0, "bike_id": "d3be44a8701a6bdf867a722484d97aaf", "rental_uris": {"ios": "https://dc.lft.to/lastmile_qr_scan", "android": "https://dc.lft.to/lastmile_qr_scan"}}, {"name": "5dd139bcebf55e655a081f93d3e04b3f", "type": "electric_scooter", "lat": 38.92050666666667, "is_reserved": 0, "lon": -77.03473316666667, "fusion_lon": 0.0, "is_disabled": 0, "fusion_lat": 0.0, "bike_id": "5dd139bcebf55e655a081f93d3e04b3f", "rental_uris": {"ios": "https://dc.lft.to/lastmile_qr_scan", "android": "https://dc.lft.to/lastmile_qr_scan"}}, {"name": "a427bb51029b6915d6fa488e6791ee4c", "type": "electric_scooter", "lat": 38.866969, "is_reserved": 0, "lon": -76.98716933333333, "fusion_lon": 0.0, "is_disabled": 0, "fusion_lat": 0.0, "bike_id": "a427bb51029b6915d6fa488e6791ee4c", "rental_uris": {"ios": "https://dc.lft.to/lastmile_qr_scan", "android": "https://dc.lft.to/lastmile_qr_scan"}}, {"name": "efc929decd7d86236f04bff2cb464b6c", "type": "electric_scooter", "lat": 38.899997166666665, "is_reserved": 0, "lon": -77.0119655, "fusion_lon": 0.0, "is_disabled": 0, "fusion_lat": 0.0, "bike_id": "efc929decd7d86236f04bff2cb464b6c", "rental_uris": {"ios": "https://dc.lft.to/lastmile_qr_scan", "android": "https://dc.lft.to/lastmile_qr_scan"}}, {"name": "4101d01ba30be6e6033037bd17566f85", "type": "electric_scooter", "lat": 38.907460666666665, "is_reserved": 0, "lon": -77.041657, "fusion_lon": 0.0, "is_disabled": 0, "fusion_lat": 0.0, "bike_id": "4101d01ba30be6e6033037bd17566f85", "rental_uris": {"ios": "https://dc.lft.to/lastmile_qr_scan", "android": "https://dc.lft.to/lastmile_qr_scan"}}, {"name": "115576e1ffef5b96d94cd75fc6dc46fb", "type": "electric_scooter", "lat": 38.8972425, "is_reserved": 0, "lon": -77.04329183333333, "fusion_lon": 0.0, "is_disabled": 0, "fusion_lat": 0.0, "bike_id": "115576e1ffef5b96d94cd75fc6dc46fb", "rental_uris": {"ios": "https://dc.lft.to/lastmile_qr_scan", "android": "https://dc.lft.to/lastmile_qr_scan"}}, {"name": "704321b7692cb297e35aeb0f6653d990", "type": "electric_scooter", "lat": 38.906338, "is_reserved": 0, "lon": -77.05142866666667, "fusion_lon": 0.0, "is_disabled": 0, "fusion_lat": 0.0, "bike_id": "704321b7692cb297e35aeb0f6653d990", "rental_uris": {"ios": "https://dc.lft.to/lastmile_qr_scan", "android": "https://dc.lft.to/lastmile_qr_scan"}}, {"name": "3d2f336dc65b4afa9f5ab57d93bd7663", "type": "electric_scooter", "lat": 38.91091683333333, "is_reserved": 0, "lon": -77.0049565, "fusion_lon": 0.0, "is_disabled": 0, "fusion_lat": 0.0, "bike_id": "3d2f336dc65b4afa9f5ab57d93bd7663", "rental_uris": {"ios": "https://dc.lft.to/lastmile_qr_scan", "android": "https://dc.lft.to/lastmile_qr_scan"}}, {"name": "c252247922ae939a6ab75459282529f9", "type": "electric_scooter", "lat": 38.90661716666666, "is_reserved": 0, "lon": -77.0512895, "fusion_lon": 0.0, "is_disabled": 0, "fusion_lat": 0.0, "bike_id": "c252247922ae939a6ab75459282529f9", "rental_uris": {"ios": "https://dc.lft.to/lastmile_qr_scan", "android": "https://dc.lft.to/lastmile_qr_scan"}}, {"name": "ae5fd553ad84d3273fe4b690a7994366", "type": "electric_scooter", "lat": 38.89999316666667, "is_reserved": 0, "lon": -77.04031, "fusion_lon": 0.0, "is_disabled": 0, "fusion_lat": 0.0, "bike_id": "ae5fd553ad84d3273fe4b690a7994366", "rental_uris": {"ios": "https://dc.lft.to/lastmile_qr_scan", "android": "https://dc.lft.to/lastmile_qr_scan"}}, {"name": "d4ba2168ac943ba7eca9c88e8adb1f16", "type": "electric_scooter", "lat": 38.930117333333335, "is_reserved": 0, "lon": -77.0232675, "fusion_lon": 0.0, "is_disabled": 0, "fusion_lat": 0.0, "bike_id": "d4ba2168ac943ba7eca9c88e8adb1f16", "rental_uris": {"ios": "https://dc.lft.to/lastmile_qr_scan", "android": "https://dc.lft.to/lastmile_qr_scan"}}, {"name": "b323dadc896c3ccded48f6af29c0f8a3", "type": "electric_scooter", "lat": 38.9057345, "is_reserved": 0, "lon": -77.03452, "fusion_lon": 0.0, "is_disabled": 0, "fusion_lat": 0.0, "bike_id": "b323dadc896c3ccded48f6af29c0f8a3", "rental_uris": {"ios": "https://dc.lft.to/lastmile_qr_scan", "android": "https://dc.lft.to/lastmile_qr_scan"}}, {"name": "830354747d5cafb45d0e2c4cfbfb5cf3", "type": "electric_scooter", "lat": 38.92757366666667, "is_reserved": 0, "lon": -77.02418783333333, "fusion_lon": 0.0, "is_disabled": 0, "fusion_lat": 0.0, "bike_id": "830354747d5cafb45d0e2c4cfbfb5cf3", "rental_uris": {"ios": "https://dc.lft.to/lastmile_qr_scan", "android": "https://dc.lft.to/lastmile_qr_scan"}}, {"name": "39db5976d82caf78183ee89d0c3122b3", "type": "electric_scooter", "lat": 38.90122083333333, "is_reserved": 0, "lon": -77.04236683333333, "fusion_lon": 0.0, "is_disabled": 0, "fusion_lat": 0.0, "bike_id": "39db5976d82caf78183ee89d0c3122b3", "rental_uris": {"ios": "https://dc.lft.to/lastmile_qr_scan", "android": "https://dc.lft.to/lastmile_qr_scan"}}, {"name": "bedc7b7bf315ed4971cb11804c1654a3", "type": "electric_scooter", "lat": 38.898840166666666, "is_reserved": 0, "lon": -76.93176383333333, "fusion_lon": 0.0, "is_disabled": 0, "fusion_lat": 0.0, "bike_id": "bedc7b7bf315ed4971cb11804c1654a3", "rental_uris": {"ios": "https://dc.lft.to/lastmile_qr_scan", "android": "https://dc.lft.to/lastmile_qr_scan"}}, {"name": "636d5993c46e6cede3b35e314744e0d2", "type": "electric_scooter", "lat": 38.92886216666667, "is_reserved": 0, "lon": -77.03730483333334, "fusion_lon": 0.0, "is_disabled": 0, "fusion_lat": 0.0, "bike_id": "636d5993c46e6cede3b35e314744e0d2", "rental_uris": {"ios": "https://dc.lft.to/lastmile_qr_scan", "android": "https://dc.lft.to/lastmile_qr_scan"}}, {"name": "4dbc0aabf509830ba4168d25dd2ef72b", "type": "electric_scooter", "lat": 38.91641583333333, "is_reserved": 0, "lon": -77.04623133333334, "fusion_lon": 0.0, "is_disabled": 0, "fusion_lat": 0.0, "bike_id": "4dbc0aabf509830ba4168d25dd2ef72b", "rental_uris": {"ios": "https://dc.lft.to/lastmile_qr_scan", "android": "https://dc.lft.to/lastmile_qr_scan"}}, {"name": "7cda248b589a938805a8ec82f113add4", "type": "electric_scooter", "lat": 38.89402416666667, "is_reserved": 0, "lon": -76.99363233333334, "fusion_lon": 0.0, "is_disabled": 0, "fusion_lat": 0.0, "bike_id": "7cda248b589a938805a8ec82f113add4", "rental_uris": {"ios": "https://dc.lft.to/lastmile_qr_scan", "android": "https://dc.lft.to/lastmile_qr_scan"}}, {"name": "bd204bfe2b79fa8bb36b6039e3c8fabc", "type": "electric_scooter", "lat": 38.90509316666667, "is_reserved": 0, "lon": -77.06625183333334, "fusion_lon": 0.0, "is_disabled": 0, "fusion_lat": 0.0, "bike_id": "bd204bfe2b79fa8bb36b6039e3c8fabc", "rental_uris": {"ios": "https://dc.lft.to/lastmile_qr_scan", "android": "https://dc.lft.to/lastmile_qr_scan"}}, {"name": "abe5a7e78643e082fda1bb5520d89214", "type": "electric_scooter", "lat": 38.946354166666666, "is_reserved": 0, "lon": -77.0191915, "fusion_lon": 0.0, "is_disabled": 0, "fusion_lat": 0.0, "bike_id": "abe5a7e78643e082fda1bb5520d89214", "rental_uris": {"ios": "https://dc.lft.to/lastmile_qr_scan", "android": "https://dc.lft.to/lastmile_qr_scan"}}, {"name": "a31df62dfc810df40dbbdbf767da2575", "type": "electric_bike", "lat": 38.94268533333333, "is_reserved": 0, "lon": -76.98070983333334, "fusion_lon": 0.0, "is_disabled": 0, "fusion_lat": 0.0, "bike_id": "a31df62dfc810df40dbbdbf767da2575", "rental_uris": {"ios": "https://dc.lft.to/lastmile_qr_scan", "android": "https://dc.lft.to/lastmile_qr_scan"}}, {"name": "a4bb5fd804eb4ae60bf5f3b540cc2e1a", "type": "electric_scooter", "lat": 38.92731766666667, "is_reserved": 0, "lon": -77.02984266666667, "fusion_lon": 0.0, "is_disabled": 0, "fusion_lat": 0.0, "bike_id": "a4bb5fd804eb4ae60bf5f3b540cc2e1a", "rental_uris": {"ios": "https://dc.lft.to/lastmile_qr_scan", "android": "https://dc.lft.to/lastmile_qr_scan"}}, {"name": "4fa0f502a94db9a1dcc5e3a3d242b048", "type": "electric_scooter", "lat": 38.93937433333333, "is_reserved": 0, "lon": -77.0170765, "fusion_lon": 0.0, "is_disabled": 0, "fusion_lat": 0.0, "bike_id": "4fa0f502a94db9a1dcc5e3a3d242b048", "rental_uris": {"ios": "https://dc.lft.to/lastmile_qr_scan", "android": "https://dc.lft.to/lastmile_qr_scan"}}, {"name": "be997c173c1b40cfe6fa1570a62967da", "type": "electric_scooter", "lat": 38.9345045, "is_reserved": 0, "lon": -77.07238416666667, "fusion_lon": 0.0, "is_disabled": 0, "fusion_lat": 0.0, "bike_id": "be997c173c1b40cfe6fa1570a62967da", "rental_uris": {"ios": "https://dc.lft.to/lastmile_qr_scan", "android": "https://dc.lft.to/lastmile_qr_scan"}}, {"name": "db5e5281b135a9791a2b1922a1e732f2", "type": "electric_scooter", "lat": 38.896085, "is_reserved": 0, "lon": -77.04503566666666, "fusion_lon": 0.0, "is_disabled": 0, "fusion_lat": 0.0, "bike_id": "db5e5281b135a9791a2b1922a1e732f2", "rental_uris": {"ios": "https://dc.lft.to/lastmile_qr_scan", "android": "https://dc.lft.to/lastmile_qr_scan"}}, {"name": "25c9949b038405d0d40363b9a4d67563", "type": "electric_scooter", "lat": 38.88311083333333, "is_reserved": 0, "lon": -77.00933266666667, "fusion_lon": 0.0, "is_disabled": 0, "fusion_lat": 0.0, "bike_id": "25c9949b038405d0d40363b9a4d67563", "rental_uris": {"ios": "https://dc.lft.to/lastmile_qr_scan", "android": "https://dc.lft.to/lastmile_qr_scan"}}, {"name": "2571281faabec4dbf0aa10e8ab5541ad", "type": "electric_scooter", "lat": 38.905257166666665, "is_reserved": 0, "lon": -77.0501995, "fusion_lon": 0.0, "is_disabled": 0, "fusion_lat": 0.0, "bike_id": "2571281faabec4dbf0aa10e8ab5541ad", "rental_uris": {"ios": "https://dc.lft.to/lastmile_qr_scan", "android": "https://dc.lft.to/lastmile_qr_scan"}}, {"name": "32b9b97b42b4defa32c922b661996bce", "type": "electric_scooter", "lat": 38.895104, "is_reserved": 0, "lon": -77.0227745, "fusion_lon": 0.0, "is_disabled": 0, "fusion_lat": 0.0, "bike_id": "32b9b97b42b4defa32c922b661996bce", "rental_uris": {"ios": "https://dc.lft.to/lastmile_qr_scan", "android": "https://dc.lft.to/lastmile_qr_scan"}}, {"name": "821c07431cf42c7d89bade36a75dad2c", "type": "electric_scooter", "lat": 38.89597833333333, "is_reserved": 0, "lon": -77.01010083333334, "fusion_lon": 0.0, "is_disabled": 0, "fusion_lat": 0.0, "bike_id": "821c07431cf42c7d89bade36a75dad2c", "rental_uris": {"ios": "https://dc.lft.to/lastmile_qr_scan", "android": "https://dc.lft.to/lastmile_qr_scan"}}, {"name": "0f221415c0e87001729c01e5a548fdf9", "type": "electric_bike", "lat": 38.87480983333333, "is_reserved": 0, "lon": -76.965266, "fusion_lon": 0.0, "is_disabled": 0, "fusion_lat": 0.0, "bike_id": "0f221415c0e87001729c01e5a548fdf9", "rental_uris": {"ios": "https://dc.lft.to/lastmile_qr_scan", "android": "https://dc.lft.to/lastmile_qr_scan"}}, {"name": "50a0325cb32e671000c240c809f8e0eb", "type": "electric_scooter", "lat": 38.866601833333334, "is_reserved": 0, "lon": -76.98884883333334, "fusion_lon": 0.0, "is_disabled": 0, "fusion_lat": 0.0, "bike_id": "50a0325cb32e671000c240c809f8e0eb", "rental_uris": {"ios": "https://dc.lft.to/lastmile_qr_scan", "android": "https://dc.lft.to/lastmile_qr_scan"}}, {"name": "067b921da4f2839c56edf34dae1a3a0b", "type": "electric_scooter", "lat": 38.884509333333334, "is_reserved": 0, "lon": -77.00573733333333, "fusion_lon": 0.0, "is_disabled": 0, "fusion_lat": 0.0, "bike_id": "067b921da4f2839c56edf34dae1a3a0b", "rental_uris": {"ios": "https://dc.lft.to/lastmile_qr_scan", "android": "https://dc.lft.to/lastmile_qr_scan"}}, {"name": "7394986ef293c3e2126e17639db59132", "type": "electric_bike", "lat": 38.8988555, "is_reserved": 0, "lon": -76.983901, "fusion_lon": 0.0, "is_disabled": 0, "fusion_lat": 0.0, "bike_id": "7394986ef293c3e2126e17639db59132", "rental_uris": {"ios": "https://dc.lft.to/lastmile_qr_scan", "android": "https://dc.lft.to/lastmile_qr_scan"}}, {"name": "d201bfc1a8aba489580c6b7f32ceea29", "type": "electric_scooter", "lat": 38.91183066666667, "is_reserved": 0, "lon": -77.0322, "fusion_lon": 0.0, "is_disabled": 0, "fusion_lat": 0.0, "bike_id": "d201bfc1a8aba489580c6b7f32ceea29", "rental_uris": {"ios": "https://dc.lft.to/lastmile_qr_scan", "android": "https://dc.lft.to/lastmile_qr_scan"}}, {"name": "e04f328f9a798e6c427afe8a3934308b", "type": "electric_scooter", "lat": 38.89738216666667, "is_reserved": 0, "lon": -76.9425265, "fusion_lon": 0.0, "is_disabled": 0, "fusion_lat": 0.0, "bike_id": "e04f328f9a798e6c427afe8a3934308b", "rental_uris": {"ios": "https://dc.lft.to/lastmile_qr_scan", "android": "https://dc.lft.to/lastmile_qr_scan"}}, {"name": "4fc5e5e7cd9d8861451a7fe39abebbe0", "type": "electric_scooter", "lat": 38.899990333333335, "is_reserved": 0, "lon": -77.033217, "fusion_lon": 0.0, "is_disabled": 0, "fusion_lat": 0.0, "bike_id": "4fc5e5e7cd9d8861451a7fe39abebbe0", "rental_uris": {"ios": "https://dc.lft.to/lastmile_qr_scan", "android": "https://dc.lft.to/lastmile_qr_scan"}}, {"name": "5c71c61821d430deb1f301975a3be6eb", "type": "electric_scooter", "lat": 38.908605666666666, "is_reserved": 0, "lon": -77.02485283333333, "fusion_lon": 0.0, "is_disabled": 0, "fusion_lat": 0.0, "bike_id": "5c71c61821d430deb1f301975a3be6eb", "rental_uris": {"ios": "https://dc.lft.to/lastmile_qr_scan", "android": "https://dc.lft.to/lastmile_qr_scan"}}, {"name": "f5888ba84eb519d4d8f54b2b5fc40d51", "type": "electric_bike", "lat": 38.916949, "is_reserved": 0, "lon": -77.03756583333333, "fusion_lon": 0.0, "is_disabled": 0, "fusion_lat": 0.0, "bike_id": "f5888ba84eb519d4d8f54b2b5fc40d51", "rental_uris": {"ios": "https://dc.lft.to/lastmile_qr_scan", "android": "https://dc.lft.to/lastmile_qr_scan"}}, {"name": "56b9ae0826cde11f963328c28df0659f", "type": "electric_scooter", "lat": 38.90511983333333, "is_reserved": 0, "lon": -77.0532485, "fusion_lon": 0.0, "is_disabled": 0, "fusion_lat": 0.0, "bike_id": "56b9ae0826cde11f963328c28df0659f", "rental_uris": {"ios": "https://dc.lft.to/lastmile_qr_scan", "android": "https://dc.lft.to/lastmile_qr_scan"}}, {"name": "2d847658641bc08ceaf586e15cbd0d8a", "type": "electric_scooter", "lat": 38.9132435, "is_reserved": 0, "lon": -77.02175, "fusion_lon": 0.0, "is_disabled": 0, "fusion_lat": 0.0, "bike_id": "2d847658641bc08ceaf586e15cbd0d8a", "rental_uris": {"ios": "https://dc.lft.to/lastmile_qr_scan", "android": "https://dc.lft.to/lastmile_qr_scan"}}, {"name": "52cfeedca8a6966bdd76872bf43c9116", "type": "electric_scooter", "lat": 38.894686, "is_reserved": 0, "lon": -76.97716833333334, "fusion_lon": 0.0, "is_disabled": 0, "fusion_lat": 0.0, "bike_id": "52cfeedca8a6966bdd76872bf43c9116", "rental_uris": {"ios": "https://dc.lft.to/lastmile_qr_scan", "android": "https://dc.lft.to/lastmile_qr_scan"}}, {"name": "acef52430fca700ae66c1c9f7a700434", "type": "electric_scooter", "lat": 38.94178816666667, "is_reserved": 0, "lon": -77.03651216666667, "fusion_lon": 0.0, "is_disabled": 0, "fusion_lat": 0.0, "bike_id": "acef52430fca700ae66c1c9f7a700434", "rental_uris": {"ios": "https://dc.lft.to/lastmile_qr_scan", "android": "https://dc.lft.to/lastmile_qr_scan"}}, {"name": "4b1b0d6f7be60df409a5e2abe609f6b3", "type": "electric_scooter", "lat": 38.90731133333333, "is_reserved": 0, "lon": -77.0434075, "fusion_lon": 0.0, "is_disabled": 0, "fusion_lat": 0.0, "bike_id": "4b1b0d6f7be60df409a5e2abe609f6b3", "rental_uris": {"ios": "https://dc.lft.to/lastmile_qr_scan", "android": "https://dc.lft.to/lastmile_qr_scan"}}, {"name": "a21af9dd7f0ed03079c94b06d2360c85", "type": "electric_scooter", "lat": 38.921150833333336, "is_reserved": 0, "lon": -77.042094, "fusion_lon": 0.0, "is_disabled": 0, "fusion_lat": 0.0, "bike_id": "a21af9dd7f0ed03079c94b06d2360c85", "rental_uris": {"ios": "https://dc.lft.to/lastmile_qr_scan", "android": "https://dc.lft.to/lastmile_qr_scan"}}, {"name": "b91aae783d5d68a5c8dce60666eb5a23", "type": "electric_scooter", "lat": 38.86518916666667, "is_reserved": 0, "lon": -76.99034533333334, "fusion_lon": 0.0, "is_disabled": 0, "fusion_lat": 0.0, "bike_id": "b91aae783d5d68a5c8dce60666eb5a23", "rental_uris": {"ios": "https://dc.lft.to/lastmile_qr_scan", "android": "https://dc.lft.to/lastmile_qr_scan"}}, {"name": "072dee7102145dd15fc04dfdeb783b4f", "type": "electric_scooter", "lat": 38.893631666666664, "is_reserved": 0, "lon": -77.04679933333334, "fusion_lon": 0.0, "is_disabled": 0, "fusion_lat": 0.0, "bike_id": "072dee7102145dd15fc04dfdeb783b4f", "rental_uris": {"ios": "https://dc.lft.to/lastmile_qr_scan", "android": "https://dc.lft.to/lastmile_qr_scan"}}, {"name": "adf6d616b08c072dfcb27f997e95ebdf", "type": "electric_scooter", "lat": 38.922609666666666, "is_reserved": 0, "lon": -77.03637466666666, "fusion_lon": 0.0, "is_disabled": 0, "fusion_lat": 0.0, "bike_id": "adf6d616b08c072dfcb27f997e95ebdf", "rental_uris": {"ios": "https://dc.lft.to/lastmile_qr_scan", "android": "https://dc.lft.to/lastmile_qr_scan"}}, {"name": "33b2b6f8d88f0d2c4a094508db559bc7", "type": "electric_scooter", "lat": 38.899729, "is_reserved": 0, "lon": -77.02945483333333, "fusion_lon": 0.0, "is_disabled": 0, "fusion_lat": 0.0, "bike_id": "33b2b6f8d88f0d2c4a094508db559bc7", "rental_uris": {"ios": "https://dc.lft.to/lastmile_qr_scan", "android": "https://dc.lft.to/lastmile_qr_scan"}}, {"name": "66d99927f56c7535b604d61c61ac34c8", "type": "electric_scooter", "lat": 38.92472166666667, "is_reserved": 0, "lon": -77.02663333333334, "fusion_lon": 0.0, "is_disabled": 0, "fusion_lat": 0.0, "bike_id": "66d99927f56c7535b604d61c61ac34c8", "rental_uris": {"ios": "https://dc.lft.to/lastmile_qr_scan", "android": "https://dc.lft.to/lastmile_qr_scan"}}, {"name": "8a5988f76962c4d18bf03d697a8a6208", "type": "electric_scooter", "lat": 38.9553025, "is_reserved": 0, "lon": -77.0697785, "fusion_lon": 0.0, "is_disabled": 0, "fusion_lat": 0.0, "bike_id": "8a5988f76962c4d18bf03d697a8a6208", "rental_uris": {"ios": "https://dc.lft.to/lastmile_qr_scan", "android": "https://dc.lft.to/lastmile_qr_scan"}}, {"name": "fbeafa0126eff797c27dcd4fc0017add", "type": "electric_scooter", "lat": 38.919401, "is_reserved": 0, "lon": -77.04541933333333, "fusion_lon": 0.0, "is_disabled": 0, "fusion_lat": 0.0, "bike_id": "fbeafa0126eff797c27dcd4fc0017add", "rental_uris": {"ios": "https://dc.lft.to/lastmile_qr_scan", "android": "https://dc.lft.to/lastmile_qr_scan"}}, {"name": "d22afcab808c4dc23b403c69690d652d", "type": "electric_bike", "lat": 38.807431, "is_reserved": 0, "lon": -77.09426416666666, "fusion_lon": 0.0, "is_disabled": 0, "fusion_lat": 0.0, "bike_id": "d22afcab808c4dc23b403c69690d652d", "rental_uris": {"ios": "https://dc.lft.to/lastmile_qr_scan", "android": "https://dc.lft.to/lastmile_qr_scan"}}, {"name": "f9a1ea3cc0c50ae1dcc7698b06677a2b", "type": "electric_scooter", "lat": 38.886385, "is_reserved": 0, "lon": -77.02136616666667, "fusion_lon": 0.0, "is_disabled": 0, "fusion_lat": 0.0, "bike_id": "f9a1ea3cc0c50ae1dcc7698b06677a2b", "rental_uris": {"ios": "https://dc.lft.to/lastmile_qr_scan", "android": "https://dc.lft.to/lastmile_qr_scan"}}, {"name": "7cebb7c6a9cce16a49e90347736c1d93", "type": "electric_scooter", "lat": 38.9002915, "is_reserved": 0, "lon": -77.001994, "fusion_lon": 0.0, "is_disabled": 0, "fusion_lat": 0.0, "bike_id": "7cebb7c6a9cce16a49e90347736c1d93", "rental_uris": {"ios": "https://dc.lft.to/lastmile_qr_scan", "android": "https://dc.lft.to/lastmile_qr_scan"}}, {"name": "4f948a70cdde92d24021a37266465bd7", "type": "electric_scooter", "lat": 38.86657783333333, "is_reserved": 0, "lon": -76.98881966666667, "fusion_lon": 0.0, "is_disabled": 0, "fusion_lat": 0.0, "bike_id": "4f948a70cdde92d24021a37266465bd7", "rental_uris": {"ios": "https://dc.lft.to/lastmile_qr_scan", "android": "https://dc.lft.to/lastmile_qr_scan"}}, {"name": "8828a1a94a3252b910fe28795e57f93d", "type": "electric_scooter", "lat": 38.9361025, "is_reserved": 0, "lon": -77.02245, "fusion_lon": 0.0, "is_disabled": 0, "fusion_lat": 0.0, "bike_id": "8828a1a94a3252b910fe28795e57f93d", "rental_uris": {"ios": "https://dc.lft.to/lastmile_qr_scan", "android": "https://dc.lft.to/lastmile_qr_scan"}}, {"name": "a95f755075da1566c3f097caab176af2", "type": "electric_scooter", "lat": 38.932383, "is_reserved": 0, "lon": -77.03832116666666, "fusion_lon": 0.0, "is_disabled": 0, "fusion_lat": 0.0, "bike_id": "a95f755075da1566c3f097caab176af2", "rental_uris": {"ios": "https://dc.lft.to/lastmile_qr_scan", "android": "https://dc.lft.to/lastmile_qr_scan"}}, {"name": "0ed0ca92a8569eb7ac9eb0b1090f9fbe", "type": "electric_scooter", "lat": 38.9327765, "is_reserved": 0, "lon": -77.0349825, "fusion_lon": 0.0, "is_disabled": 0, "fusion_lat": 0.0, "bike_id": "0ed0ca92a8569eb7ac9eb0b1090f9fbe", "rental_uris": {"ios": "https://dc.lft.to/lastmile_qr_scan", "android": "https://dc.lft.to/lastmile_qr_scan"}}, {"name": "025e8d0d74a771d8339b3d893e446def", "type": "electric_scooter", "lat": 38.944615666666664, "is_reserved": 0, "lon": -77.00657083333333, "fusion_lon": 0.0, "is_disabled": 0, "fusion_lat": 0.0, "bike_id": "025e8d0d74a771d8339b3d893e446def", "rental_uris": {"ios": "https://dc.lft.to/lastmile_qr_scan", "android": "https://dc.lft.to/lastmile_qr_scan"}}, {"name": "faaee15408d44ecce272139f11caae03", "type": "electric_scooter", "lat": 38.90924716666667, "is_reserved": 0, "lon": -76.99967816666667, "fusion_lon": 0.0, "is_disabled": 0, "fusion_lat": 0.0, "bike_id": "faaee15408d44ecce272139f11caae03", "rental_uris": {"ios": "https://dc.lft.to/lastmile_qr_scan", "android": "https://dc.lft.to/lastmile_qr_scan"}}, {"name": "5aef80d41a6bfa32e7d3ff9704819bf7", "type": "electric_scooter", "lat": 38.926453333333335, "is_reserved": 0, "lon": -77.03693916666667, "fusion_lon": 0.0, "is_disabled": 0, "fusion_lat": 0.0, "bike_id": "5aef80d41a6bfa32e7d3ff9704819bf7", "rental_uris": {"ios": "https://dc.lft.to/lastmile_qr_scan", "android": "https://dc.lft.to/lastmile_qr_scan"}}, {"name": "4089e6401df7b7fb6138dfc708e1bfb6", "type": "electric_scooter", "lat": 38.865657666666664, "is_reserved": 0, "lon": -76.98546916666666, "fusion_lon": 0.0, "is_disabled": 0, "fusion_lat": 0.0, "bike_id": "4089e6401df7b7fb6138dfc708e1bfb6", "rental_uris": {"ios": "https://dc.lft.to/lastmile_qr_scan", "android": "https://dc.lft.to/lastmile_qr_scan"}}, {"name": "92cc64ce24849ae1480642c2c3a9c78e", "type": "electric_scooter", "lat": 38.903177166666666, "is_reserved": 0, "lon": -77.03173166666667, "fusion_lon": 0.0, "is_disabled": 0, "fusion_lat": 0.0, "bike_id": "92cc64ce24849ae1480642c2c3a9c78e", "rental_uris": {"ios": "https://dc.lft.to/lastmile_qr_scan", "android": "https://dc.lft.to/lastmile_qr_scan"}}, {"name": "7b1809325a0b87ac1d88aacb1c6ffd32", "type": "electric_scooter", "lat": 38.930670666666664, "is_reserved": 0, "lon": -77.03401733333334, "fusion_lon": 0.0, "is_disabled": 0, "fusion_lat": 0.0, "bike_id": "7b1809325a0b87ac1d88aacb1c6ffd32", "rental_uris": {"ios": "https://dc.lft.to/lastmile_qr_scan", "android": "https://dc.lft.to/lastmile_qr_scan"}}, {"name": "14ba84e7e48b1db5380a0622ef5b8f7d", "type": "electric_scooter", "lat": 38.944371833333335, "is_reserved": 0, "lon": -77.06353733333333, "fusion_lon": 0.0, "is_disabled": 0, "fusion_lat": 0.0, "bike_id": "14ba84e7e48b1db5380a0622ef5b8f7d", "rental_uris": {"ios": "https://dc.lft.to/lastmile_qr_scan", "android": "https://dc.lft.to/lastmile_qr_scan"}}, {"name": "29a3903cc2a5980e19220076644722d6", "type": "electric_scooter", "lat": 38.90064783333333, "is_reserved": 0, "lon": -76.9871125, "fusion_lon": 0.0, "is_disabled": 0, "fusion_lat": 0.0, "bike_id": "29a3903cc2a5980e19220076644722d6", "rental_uris": {"ios": "https://dc.lft.to/lastmile_qr_scan", "android": "https://dc.lft.to/lastmile_qr_scan"}}, {"name": "99b5c7b27e702c161c11aa8a3f22a362", "type": "electric_scooter", "lat": 38.873408833333336, "is_reserved": 0, "lon": -77.01855066666667, "fusion_lon": 0.0, "is_disabled": 0, "fusion_lat": 0.0, "bike_id": "99b5c7b27e702c161c11aa8a3f22a362", "rental_uris": {"ios": "https://dc.lft.to/lastmile_qr_scan", "android": "https://dc.lft.to/lastmile_qr_scan"}}, {"name": "438eba520bcaaa37bffe569d26c87328", "type": "electric_bike", "lat": 38.86991866666666, "is_reserved": 0, "lon": -76.959803, "fusion_lon": 0.0, "is_disabled": 0, "fusion_lat": 0.0, "bike_id": "438eba520bcaaa37bffe569d26c87328", "rental_uris": {"ios": "https://dc.lft.to/lastmile_qr_scan", "android": "https://dc.lft.to/lastmile_qr_scan"}}, {"name": "88bbe0ded2a60ba34042ae06f638d16e", "type": "electric_scooter", "lat": 38.8624235, "is_reserved": 0, "lon": -76.99491316666666, "fusion_lon": 0.0, "is_disabled": 0, "fusion_lat": 0.0, "bike_id": "88bbe0ded2a60ba34042ae06f638d16e", "rental_uris": {"ios": "https://dc.lft.to/lastmile_qr_scan", "android": "https://dc.lft.to/lastmile_qr_scan"}}, {"name": "32d79006778319b53c133b38fc5587f0", "type": "electric_bike", "lat": 38.8204645, "is_reserved": 0, "lon": -77.053139, "fusion_lon": 0.0, "is_disabled": 0, "fusion_lat": 0.0, "bike_id": "32d79006778319b53c133b38fc5587f0", "rental_uris": {"ios": "https://dc.lft.to/lastmile_qr_scan", "android": "https://dc.lft.to/lastmile_qr_scan"}}, {"name": "f01c35573350fb41cb4219c12db51198", "type": "electric_scooter", "lat": 38.879126166666666, "is_reserved": 0, "lon": -77.00391966666666, "fusion_lon": 0.0, "is_disabled": 0, "fusion_lat": 0.0, "bike_id": "f01c35573350fb41cb4219c12db51198", "rental_uris": {"ios": "https://dc.lft.to/lastmile_qr_scan", "android": "https://dc.lft.to/lastmile_qr_scan"}}, {"name": "424bbbb770ee458054d595b18fb86e28", "type": "electric_scooter", "lat": 38.8701855, "is_reserved": 0, "lon": -77.01221383333333, "fusion_lon": 0.0, "is_disabled": 0, "fusion_lat": 0.0, "bike_id": "424bbbb770ee458054d595b18fb86e28", "rental_uris": {"ios": "https://dc.lft.to/lastmile_qr_scan", "android": "https://dc.lft.to/lastmile_qr_scan"}}, {"name": "9b276542e583104c2f9e86756fd77eb2", "type": "electric_bike", "lat": 38.98502883333333, "is_reserved": 0, "lon": -76.98210166666667, "fusion_lon": 0.0, "is_disabled": 0, "fusion_lat": 0.0, "bike_id": "9b276542e583104c2f9e86756fd77eb2", "rental_uris": {"ios": "https://dc.lft.to/lastmile_qr_scan", "android": "https://dc.lft.to/lastmile_qr_scan"}}, {"name": "f66c323aabc23ac63332547af93a3570", "type": "electric_scooter", "lat": 38.9025555, "is_reserved": 0, "lon": -77.0406105, "fusion_lon": 0.0, "is_disabled": 0, "fusion_lat": 0.0, "bike_id": "f66c323aabc23ac63332547af93a3570", "rental_uris": {"ios": "https://dc.lft.to/lastmile_qr_scan", "android": "https://dc.lft.to/lastmile_qr_scan"}}, {"name": "ef6bd93b305ca93ead75e3ee7dc3a394", "type": "electric_bike", "lat": 38.852204, "is_reserved": 0, "lon": -77.129548, "fusion_lon": 0.0, "is_disabled": 0, "fusion_lat": 0.0, "bike_id": "ef6bd93b305ca93ead75e3ee7dc3a394", "rental_uris": {"ios": "https://dc.lft.to/lastmile_qr_scan", "android": "https://dc.lft.to/lastmile_qr_scan"}},