{"data": {"bikes": [{"fusion_lat": 0.0, "name": "0ead7a70eb78f5d24b52c73a53823a20", "is_disabled": 0, "rental_uris": {"android": "https://dc.lft.to/lastmile_qr_scan", "ios": "https://dc.lft.to/lastmile_qr_scan"}, "fusion_lon": 0.0, "lat": 38.9358525, "bike_id": "0ead7a70eb78f5d24b52c73a53823a20", "type": "electric_scooter", "is_reserved": 0, "lon": -77.028492}, {"fusion_lat": 0.0, "name": "6446adb012e248b22089daaab3526b82", "is_disabled": 0, "rental_uris": {"android": "https://dc.lft.to/lastmile_qr_scan", "ios": "https://dc.lft.to/lastmile_qr_scan"}, "fusion_lon": 0.0, "lat": 38.857360666666665, "bike_id": "6446adb012e248b22089daaab3526b82", "type": "electric_bike", "is_reserved": 0, "lon": -77.053579}, {"fusion_lat": 0.0, "name": "650d975253c7ee92b97c73d8f29d4351", "is_disabled": 0, "rental_uris": {"android": "https://dc.lft.to/lastmile_qr_scan", "ios": "https://dc.lft.to/lastmile_qr_scan"}, "fusion_lon": 0.0, "lat": 38.911347666666664, "bike_id": "650d975253c7ee92b97c73d8f29d4351", "type": "electric_scooter", "is_reserved": 0, "lon": -77.04406483333334}, {"fusion_lat": 0.0, "name": "e2e5bbdc7a18a0eed1430bb53bb8abff", "is_disabled": 0, "rental_uris": {"android": "https://dc.lft.to/lastmile_qr_scan", "ios": "https://dc.lft.to/lastmile_qr_scan"}, "fusion_lon": 0.0, "lat": 38.8923175, "bike_id": "e2e5bbdc7a18a0eed1430bb53bb8abff", "type": "electric_scooter", "is_reserved": 0, "lon": -77.0465455}, {"fusion_lat": 0.0, "name": "596e87b5db09d4056c738142d2200676", "is_disabled": 0, "rental_uris": {"android": "https://dc.lft.to/lastmile_qr_scan", "ios": "https://dc.lft.to/lastmile_qr_scan"}, "fusion_lon": 0.0, "lat": 38.936413, "bike_id": "596e87b5db09d4056c738142d2200676", "type": "electric_scooter", "is_reserved": 0, "lon": -77.03670583333333}, {"fusion_lat": 0.0, "name": "36ede88baf71256dab2dd48fd95a7c3d", "is_disabled": 0, "rental_uris": {"android": "https://dc.lft.to/lastmile_qr_scan", "ios": "https://dc.lft.to/lastmile_qr_scan"}, "fusion_lon": 0.0, "lat": 38.928192333333335, "bike_id": "36ede88baf71256dab2dd48fd95a7c3d", "type": "electric_scooter", "is_reserved": 0, "lon": -77.023334}, {"fusion_lat": 0.0, "name": "6d1e73c00ce1ffa1e460eb3706737cae", "is_disabled": 0, "rental_uris": {"android": "https://dc.lft.to/lastmile_qr_scan", "ios": "https://dc.lft.to/lastmile_qr_scan"}, "fusion_lon": 0.0, "lat": 38.92759233333334, "bike_id": "6d1e73c00ce1ffa1e460eb3706737cae", "type": "electric_scooter", "is_reserved": 0, "lon": -77.024512}, {"fusion_lat": 0.0, "name": "54d9290a73b6ea820aafdbe57fa4762e", "is_disabled": 0, "rental_uris": {"android": "https://dc.lft.to/lastmile_qr_scan", "ios": "https://dc.lft.to/lastmile_qr_scan"}, "fusion_lon": 0.0, "lat": 38.9221505, "bike_id": "54d9290a73b6ea820aafdbe57fa4762e", "type": "electric_scooter", "is_reserved": 0, "lon": -76.99630333333333}, {"fusion_lat": 0.0, "name": "5d0b6c85db978f267e4a483980a45e85", "is_disabled": 0, "rental_uris": {"android": "https://dc.lft.to/lastmile_qr_scan", "ios": "https://dc.lft.to/lastmile_qr_scan"}, "fusion_lon": 0.0, "lat": 38.907306, "bike_id": "5d0b6c85db978f267e4a483980a45e85", "type": "electric_scooter", "is_reserved": 0, "lon": -77.0345125}, {"fusion_lat": 0.0, "name": "a3fa93acfb18c7e6f35d95981813d2af", "is_disabled": 0, "rental_uris": {"android": "https://dc.lft.to/lastmile_qr_scan", "ios": "https://dc.lft.to/lastmile_qr_scan"}, "fusion_lon": 0.0, "lat": 38.9080405, "bike_id": "a3fa93acfb18c7e6f35d95981813d2af", "type": "electric_scooter", "is_reserved": 0, "lon": -77.0427245}, {"fusion_lat": 0.0, "name": "d5072c10b91f310a76604329a87c4bac", "is_disabled": 0, "rental_uris": {"android": "https://dc.lft.to/lastmile_qr_scan", "ios": "https://dc.lft.to/lastmile_qr_scan"}, "fusion_lon": 0.0, "lat": 38.842842, "bike_id": "d5072c10b91f310a76604329a87c4bac", "type": "electric_bike", "is_reserved": 0, "lon": -77.04515583333334}, {"fusion_lat": 0.0, "name": "abbed575a36812da604bfcc5a3f5c949", "is_disabled": 0, "rental_uris": {"android": "https://dc.lft.to/lastmile_qr_scan", "ios": "https://dc.lft.to/lastmile_qr_scan"}, "fusion_lon": 0.0, "lat": 38.944149833333334, "bike_id": "abbed575a36812da604bfcc5a3f5c949", "type": "electric_scooter", "is_reserved": 0, "lon": -77.06325}, {"fusion_lat": 0.0, "name": "74f297f514406fe2541fc9625540c0ec", "is_disabled": 0, "rental_uris": {"android": "https://dc.lft.to/lastmile_qr_scan", "ios": "https://dc.lft.to/lastmile_qr_scan"}, "fusion_lon": 0.0, "lat": 38.936130166666665, "bike_id": "74f297f514406fe2541fc9625540c0ec", "type": "electric_scooter", "is_reserved": 0, "lon": -77.0585625}, {"fusion_lat": 0.0, "name": "d0aa760f0071a6d4f6e4c4840e6cdd84", "is_disabled": 0, "rental_uris": {"android": "https://dc.lft.to/lastmile_qr_scan", "ios": "https://dc.lft.to/lastmile_qr_scan"}, "fusion_lon": 0.0, "lat": 38.90333016666666, "bike_id": "d0aa760f0071a6d4f6e4c4840e6cdd84", "type": "electric_bike", "is_reserved": 0, "lon": -76.97529633333333}, {"fusion_lat": 0.0, "name": "e3dac6d8953a81d8a78b09c2bfefdde3", "is_disabled": 0, "rental_uris": {"android": "https://dc.lft.to/lastmile_qr_scan", "ios": "https://dc.lft.to/lastmile_qr_scan"}, "fusion_lon": 0.0, "lat": 38.944126, "bike_id": "e3dac6d8953a81d8a78b09c2bfefdde3", "type": "electric_scooter", "is_reserved": 0, "lon": -77.06326716666666}, {"fusion_lat": 0.0, "name": "3e44cd453e28be8ad94060f22822402f", "is_disabled": 0, "rental_uris": {"android": "https://dc.lft.to/lastmile_qr_scan", "ios": "https://dc.lft.to/lastmile_qr_scan"}, "fusion_lon": 0.0, "lat": 38.9209855, "bike_id": "3e44cd453e28be8ad94060f22822402f", "type": "electric_scooter", "is_reserved": 0, "lon": -77.025233}, {"fusion_lat": 0.0, "name": "bba0cc28a7309b456a4de191df6f57de", "is_disabled": 0, "rental_uris": {"android": "https://dc.lft.to/lastmile_qr_scan", "ios": "https://dc.lft.to/lastmile_qr_scan"}, "fusion_lon": 0.0, "lat": 38.906849666666666, "bike_id": "bba0cc28a7309b456a4de191df6f57de", "type": "electric_scooter", "is_reserved": 0, "lon": -77.01013033333334}, {"fusion_lat": 0.0, "name": "f73f089154ae06a5f74d775cbba1f7ca", "is_disabled": 0, "rental_uris": {"android": "https://dc.lft.to/lastmile_qr_scan", "ios": "https://dc.lft.to/lastmile_qr_scan"}, "fusion_lon": 0.0, "lat": 38.89734766666667, "bike_id": "f73f089154ae06a5f74d775cbba1f7ca", "type": "electric_scooter", "is_reserved": 0, "lon": -76.99136783333333}, {"fusion_lat": 0.0, "name": "a9842d288f7933e4849ec0aa7c32210b", "is_disabled": 0, "rental_uris": {"android": "https://dc.lft.to/lastmile_qr_scan", "ios": "https://dc.lft.to/lastmile_qr_scan"}, "fusion_lon": 0.0, "lat": 38.92338316666667, "bike_id": "a9842d288f7933e4849ec0aa7c32210b", "type": "electric_scooter", "is_reserved": 0, "lon": -77.05299166666667}, {"fusion_lat": 0.0, "name": "df420c86199423414f0eb41792ed155a", "is_disabled": 0, "rental_uris": {"android": "https://dc.lft.to/lastmile_qr_scan", "ios": "https://dc.lft.to/lastmile_qr_scan"}, "fusion_lon": 0.0, "lat": 38.908526, "bike_id": "df420c86199423414f0eb41792ed155a", "type": "electric_scooter", "is_reserved": 0, "lon": -77.02341933333334}, {"fusion_lat": 0.0, "name": "fb26ed67c0b54919ef240557d84dd78c", "is_disabled": 0, "rental_uris": {"android": "https://dc.lft.to/lastmile_qr_scan", "ios": "https://dc.lft.to/lastmile_qr_scan"}, "fusion_lon": 0.0, "lat": 38.881851166666664, "bike_id": "fb26ed67c0b54919ef240557d84dd78c", "type": "electric_bike", "is_reserved": 0, "lon": -77.086387}, {"fusion_lat": 0.0, "name": "4bbcb144735edcb49f423fa0f11c13cd", "is_disabled": 0, "rental_uris": {"android": "https://dc.lft.to/lastmile_qr_scan", "ios": "https://dc.lft.to/lastmile_qr_scan"}, "fusion_lon": 0.0, "lat": 38.918346666666665, "bike_id": "4bbcb144735edcb49f423fa0f11c13cd", "type": "electric_scooter", "is_reserved": 0, "lon": -77.04524916666666}, {"fusion_lat": 0.0, "name": "f9f4cb6e0c944f2172ecbb3a13b3f09b", "is_disabled": 0, "rental_uris": {"android": "https://dc.lft.to/lastmile_qr_scan", "ios": "https://dc.lft.to/lastmile_qr_scan"}, "fusion_lon": 0.0, "lat": 38.902793333333335, "bike_id": "f9f4cb6e0c944f2172ecbb3a13b3f09b", "type": "electric_scooter", "is_reserved": 0, "lon": -77.03451516666667}, {"fusion_lat": 0.0, "name": "a73d808f3149b9943d798115115b21d9", "is_disabled": 0, "rental_uris": {"android": "https://dc.lft.to/lastmile_qr_scan", "ios": "https://dc.lft.to/lastmile_qr_scan"}, "fusion_lon": 0.0, "lat": 38.920631, "bike_id": "a73d808f3149b9943d798115115b21d9", "type": "electric_scooter", "is_reserved": 0, "lon": -77.02363966666667}, {"fusion_lat": 0.0, "name": "fbbb806f491e63aace6d1c9ea05e44a5", "is_disabled": 0, "rental_uris": {"android": "https://dc.lft.to/lastmile_qr_scan", "ios": "https://dc.lft.to/lastmile_qr_scan"}, "fusion_lon": 0.0, "lat": 38.950874, "bike_id": "fbbb806f491e63aace6d1c9ea05e44a5", "type": "electric_bike", "is_reserved": 0, "lon": -77.01228983333333}, {"fusion_lat": 0.0, "name": "2768870ad6b12a9e899fbf5ac1810b15", "is_disabled": 0, "rental_uris": {"android": "https://dc.lft.to/lastmile_qr_scan", "ios": "https://dc.lft.to/lastmile_qr_scan"}, "fusion_lon": 0.0, "lat": 38.87940566666666, "bike_id": "2768870ad6b12a9e899fbf5ac1810b15", "type": "electric_scooter", "is_reserved": 0, "lon": -77.02373433333334}, {"fusion_lat": 0.0, "name": "bab73fe2ea736049c019bf8388605e53", "is_disabled": 0, "rental_uris": {"android": "https://dc.lft.to/lastmile_qr_scan", "ios": "https://dc.lft.to/lastmile_qr_scan"}, "fusion_lon": 0.0, "lat": 38.903471, "bike_id": "bab73fe2ea736049c019bf8388605e53", "type": "electric_scooter", "is_reserved": 0, "lon": -77.04509083333333}, {"fusion_lat": 0.0, "name": "4268e133b6b85b0792662b2c60c45fbe", "is_disabled": 0, "rental_uris": {"android": "https://dc.lft.to/lastmile_qr_scan", "ios": "https://dc.lft.to/lastmile_qr_scan"}, "fusion_lon": 0.0, "lat": 38.900178333333336, "bike_id": "4268e133b6b85b0792662b2c60c45fbe", "type": "electric_scooter", "is_reserved": 0, "lon": -76.99875133333333}, {"fusion_lat": 0.0, "name": "4c7ca0a7f3d8167ce20194c43348081f", "is_disabled": 0, "rental_uris": {"android": "https://dc.lft.to/lastmile_qr_scan", "ios": "https://dc.lft.to/lastmile_qr_scan"}, "fusion_lon": 0.0, "lat": 38.905505166666664, "bike_id": "4c7ca0a7f3d8167ce20194c43348081f", "type": "electric_scooter", "is_reserved": 0, "lon": -77.04329116666666}, {"fusion_lat": 0.0, "name": "d69be4ca4c12b4ad3e54c7f394d7ff07", "is_disabled": 0, "rental_uris": {"android": "https://dc.lft.to/lastmile_qr_scan", "ios": "https://dc.lft.to/lastmile_qr_scan"}, "fusion_lon": 0.0, "lat": 38.8954575, "bike_id": "d69be4ca4c12b4ad3e54c7f394d7ff07", "type": "electric_scooter", "is_reserved": 0, "lon": -76.983352}, {"fusion_lat": 0.0, "name": "116e12cbc4b4a6ea71696d7c475f5492", "is_disabled": 0, "rental_uris": {"android": "https://dc.lft.to/lastmile_qr_scan", "ios": "https://dc.lft.to/lastmile_qr_scan"}, "fusion_lon": 0.0, "lat": 38.902389666666664, "bike_id": "116e12cbc4b4a6ea71696d7c475f5492", "type": "electric_scooter", "is_reserved": 0, "lon": -77.00202083333333}, {"fusion_lat": 0.0, "name": "5caf1fe9f8b904c5c0f82dfba8c972ff", "is_disabled": 0, "rental_uris": {"android": "https://dc.lft.to/lastmile_qr_scan", "ios": "https://dc.lft.to/lastmile_qr_scan"}, "fusion_lon": 0.0, "lat": 38.92571683333333, "bike_id": "5caf1fe9f8b904c5c0f82dfba8c972ff", "type": "electric_scooter", "is_reserved": 0, "lon": -77.02688516666667}, {"fusion_lat": 0.0, "name": "1b672d2ced7510a51c497a33805b6c3b", "is_disabled": 0, "rental_uris": {"android": "https://dc.lft.to/lastmile_qr_scan", "ios": "https://dc.lft.to/lastmile_qr_scan"}, "fusion_lon": 0.0, "lat": 38.90630866666667, "bike_id": "1b672d2ced7510a51c497a33805b6c3b", "type": "electric_scooter", "is_reserved": 0, "lon": -77.0260665}, {"fusion_lat": 0.0, "name": "acef600236d73537546f5b60f7932d2d", "is_disabled": 0, "rental_uris": {"android": "https://dc.lft.to/lastmile_qr_scan", "ios": "https://dc.lft.to/lastmile_qr_scan"}, "fusion_lon": 0.0, "lat": 38.904143166666664, "bike_id": "acef600236d73537546f5b60f7932d2d", "type": "electric_scooter", "is_reserved": 0, "lon": -77.025954}, {"fusion_lat": 0.0, "name": "17c2517bc71943a3687b48b6c36e8b9f", "is_disabled": 0, "rental_uris": {"android": "https://dc.lft.to/lastmile_qr_scan", "ios": "https://dc.lft.to/lastmile_qr_scan"}, "fusion_lon": 0.0, "lat": 38.931134, "bike_id": "17c2517bc71943a3687b48b6c36e8b9f", "type": "electric_scooter", "is_reserved": 0, "lon": -76.996251}, {"fusion_lat": 0.0, "name": "01b716075311a4cf55734d228b5e8afb", "is_disabled": 0, "rental_uris": {"android": "https://dc.lft.to/lastmile_qr_scan", "ios": "https://dc.lft.to/lastmile_qr_scan"}, "fusion_lon": 0.0, "lat": 38.880143, "bike_id": "01b716075311a4cf55734d228b5e8afb", "type": "electric_scooter", "is_reserved": 0, "lon": -76.98066683333333}, {"fusion_lat": 0.0, "name": "fdd65aa7093302ea0904521f07456053", "is_disabled": 0, "rental_uris": {"android": "https://dc.lft.to/lastmile_qr_scan", "ios": "https://dc.lft.to/lastmile_qr_scan"}, "fusion_lon": 0.0, "lat": 38.92887783333333, "bike_id": "fdd65aa7093302ea0904521f07456053", "type": "electric_scooter", "is_reserved": 0, "lon": -76.99556683333333}, {"fusion_lat": 0.0, "name": "bfb3c8a2c32622a98bb36a372f869c06", "is_disabled": 0, "rental_uris": {"android": "https://dc.lft.to/lastmile_qr_scan", "ios": "https://dc.lft.to/lastmile_qr_scan"}, "fusion_lon": 0.0, "lat": 38.906727, "bike_id": "bfb3c8a2c32622a98bb36a372f869c06", "type": "electric_scooter", "is_reserved": 0, "lon": -77.027053}, {"fusion_lat": 0.0, "name": "ef8d3bc2a0615517045a832b87e530ea", "is_disabled": 0, "rental_uris": {"android": "https://dc.lft.to/lastmile_qr_scan", "ios": "https://dc.lft.to/lastmile_qr_scan"}, "fusion_lon": 0.0, "lat": 38.92234716666667, "bike_id": "ef8d3bc2a0615517045a832b87e530ea", "type": "electric_bike", "is_reserved": 0, "lon": -77.03076933333334}, {"fusion_lat": 0.0, "name": "1fa47781061883f226e9f95563209146", "is_disabled": 0, "rental_uris": {"android": "https://dc.lft.to/lastmile_qr_scan", "ios": "https://dc.lft.to/lastmile_qr_scan"}, "fusion_lon": 0.0, "lat": 38.94415716666666, "bike_id": "1fa47781061883f226e9f95563209146", "type": "electric_scooter", "is_reserved": 0, "lon": -77.06325016666666}, {"fusion_lat": 0.0, "name": "ee28a3407bdf91e13c63d1d8fc7d64af", "is_disabled": 0, "rental_uris": {"android": "https://dc.lft.to/lastmile_qr_scan", "ios": "https://dc.lft.to/lastmile_qr_scan"}, "fusion_lon": 0.0, "lat": 38.89943916666667, "bike_id": "ee28a3407bdf91e13c63d1d8fc7d64af", "type": "electric_scooter", "is_reserved": 0, "lon": -77.02206866666667}, {"fusion_lat": 0.0, "name": "71ed88ef10fcbc44da48e9e62d34fd05", "is_disabled": 0, "rental_uris": {"android": "https://dc.lft.to/lastmile_qr_scan", "ios": "https://dc.lft.to/lastmile_qr_scan"}, "fusion_lon": 0.0, "lat": 38.9191415, "bike_id": "71ed88ef10fcbc44da48e9e62d34fd05", "type": "electric_scooter", "is_reserved": 0, "lon": -77.03388166666667}, {"fusion_lat": 0.0, "name": "aad237fc65ceebf98dae8ed3a8a54122", "is_disabled": 0, "rental_uris": {"android": "https://dc.lft.to/lastmile_qr_scan", "ios": "https://dc.lft.to/lastmile_qr_scan"}, "fusion_lon": 0.0, "lat": 38.9588675, "bike_id": "aad237fc65ceebf98dae8ed3a8a54122", "type": "electric_scooter", "is_reserved": 0, "lon": -77.0028245}, {"fusion_lat": 0.0, "name": "ce028aaf68fa6b0fba722772a6bf6d19", "is_disabled": 0, "rental_uris": {"android": "https://dc.lft.to/lastmile_qr_scan", "ios": "https://dc.lft.to/lastmile_qr_scan"}, "fusion_lon": 0.0, "lat": 38.927397, "bike_id": "ce028aaf68fa6b0fba722772a6bf6d19", "type": "electric_scooter", "is_reserved": 0, "lon": -77.0226115}, {"fusion_lat": 0.0, "name": "8d0b5747340ee6c6d3c1d9c48f8cdec7", "is_disabled": 0, "rental_uris": {"android": "https://dc.lft.to/lastmile_qr_scan", "ios": "https://dc.lft.to/lastmile_qr_scan"}, "fusion_lon": 0.0, "lat": 38.876689666666664, "bike_id": "8d0b5747340ee6c6d3c1d9c48f8cdec7", "type": "electric_scooter", "is_reserved": 0, "lon": -77.00466883333333}, {"fusion_lat": 0.0, "name": "81df163e703d5fd64202e7fbc3a29564", "is_disabled": 0, "rental_uris": {"android": "https://dc.lft.to/lastmile_qr_scan", "ios": "https://dc.lft.to/lastmile_qr_scan"}, "fusion_lon": 0.0, "lat": 38.91688633333333, "bike_id": "81df163e703d5fd64202e7fbc3a29564", "type": "electric_scooter", "is_reserved": 0, "lon": -77.026027}, {"fusion_lat": 0.0, "name": "adf1606394f0bd75b2caefad1f591978", "is_disabled": 0, "rental_uris": {"android": "https://dc.lft.to/lastmile_qr_scan", "ios": "https://dc.lft.to/lastmile_qr_scan"}, "fusion_lon": 0.0, "lat": 38.9212405, "bike_id": "adf1606394f0bd75b2caefad1f591978", "type": "electric_scooter", "is_reserved": 0, "lon": -77.04421266666667}, {"fusion_lat": 0.0, "name": "032f3cfc9603786c650fb35cd973aec4", "is_disabled": 0, "rental_uris": {"android": "https://dc.lft.to/lastmile_qr_scan", "ios": "https://dc.lft.to/lastmile_qr_scan"}, "fusion_lon": 0.0, "lat": 38.901007, "bike_id": "032f3cfc9603786c650fb35cd973aec4", "type": "electric_bike", "is_reserved": 0, "lon": -77.03943183333334}, {"fusion_lat": 0.0, "name": "a575909ea81b33df168bb8bbbeddbc78", "is_disabled": 0, "rental_uris": {"android": "https://dc.lft.to/lastmile_qr_scan", "ios": "https://dc.lft.to/lastmile_qr_scan"}, "fusion_lon": 0.0, "lat": 38.91992233333333, "bike_id": "a575909ea81b33df168bb8bbbeddbc78", "type": "electric_scooter", "is_reserved": 0, "lon": -77.0327945}, {"fusion_lat": 0.0, "name": "d2100c43064dafb757e3178d783bbe7b", "is_disabled": 0, "rental_uris": {"android": "https://dc.lft.to/lastmile_qr_scan", "ios": "https://dc.lft.to/lastmile_qr_scan"}, "fusion_lon": 0.0, "lat": 38.923212166666666, "bike_id": "d2100c43064dafb757e3178d783bbe7b", "type": "electric_scooter", "is_reserved": 0, "lon": -77.04622866666666}, {"fusion_lat": 0.0, "name": "082fe536b0e44bbeacf4b4bd92b199a0", "is_disabled": 0, "rental_uris": {"android": "https://dc.lft.to/lastmile_qr_scan", "ios": "https://dc.lft.to/lastmile_qr_scan"}, "fusion_lon": 0.0, "lat": 38.877541666666666, "bike_id": "082fe536b0e44bbeacf4b4bd92b199a0", "type": "electric_scooter", "is_reserved": 0, "lon": -77.00359916666666}, {"fusion_lat": 0.0, "name": "e30d77c67eff4562bf2247e48139a593", "is_disabled": 0, "rental_uris": {"android": "https://dc.lft.to/lastmile_qr_scan", "ios": "https://dc.lft.to/lastmile_qr_scan"}, "fusion_lon": 0.0, "lat": 38.9141595, "bike_id": "e30d77c67eff4562bf2247e48139a593", "type": "electric_scooter", "is_reserved": 0, "lon": -77.0393275}, {"fusion_lat": 0.0, "name": "1db16167eb80cb776812bd73ba1b5ae6", "is_disabled": 0, "rental_uris": {"android": "https://dc.lft.to/lastmile_qr_scan", "ios": "https://dc.lft.to/lastmile_qr_scan"}, "fusion_lon": 0.0, "lat": 38.897361833333335, "bike_id": "1db16167eb80cb776812bd73ba1b5ae6", "type": "electric_scooter", "is_reserved": 0, "lon": -76.94720283333334}, {"fusion_lat": 0.0, "name": "65f4cd712e9ca7b1c0038fe1d86c002d", "is_disabled": 0, "rental_uris": {"android": "https://dc.lft.to/lastmile_qr_scan", "ios": "https://dc.lft.to/lastmile_qr_scan"}, "fusion_lon": 0.0, "lat": 38.90261316666667, "bike_id": "65f4cd712e9ca7b1c0038fe1d86c002d", "type": "electric_scooter", "is_reserved": 0, "lon": -76.99621766666667}, {"fusion_lat": 0.0, "name": "a4267bb9cdcadf4f56bd2d13467bf9cd", "is_disabled": 0, "rental_uris": {"android": "https://dc.lft.to/lastmile_qr_scan", "ios": "https://dc.lft.to/lastmile_qr_scan"}, "fusion_lon": 0.0, "lat": 38.90719416666666, "bike_id": "a4267bb9cdcadf4f56bd2d13467bf9cd", "type": "electric_scooter", "is_reserved": 0, "lon": -77.025002}, {"fusion_lat": 0.0, "name": "b799361c6b5d14346df148eca539f5f6", "is_disabled": 0, "rental_uris": {"android": "https://dc.lft.to/lastmile_qr_scan", "ios": "https://dc.lft.to/lastmile_qr_scan"}, "fusion_lon": 0.0, "lat": 38.874450833333334, "bike_id": "b799361c6b5d14346df148eca539f5f6", "type": "electric_scooter", "is_reserved": 0, "lon": -77.01892033333333}, {"fusion_lat": 0.0, "name": "a140bf279a84ec76958dc7463c197baa", "is_disabled": 0, "rental_uris": {"android": "https://dc.lft.to/lastmile_qr_scan", "ios": "https://dc.lft.to/lastmile_qr_scan"}, "fusion_lon": 0.0, "lat": 38.9162585, "bike_id": "a140bf279a84ec76958dc7463c197baa", "type": "electric_scooter", "is_reserved": 0, "lon": -77.003471}, {"fusion_lat": 0.0, "name": "4094bbc13eeb583fc9a200010ef6918a", "is_disabled": 0, "rental_uris": {"android": "https://dc.lft.to/lastmile_qr_scan", "ios": "https://dc.lft.to/lastmile_qr_scan"}, "fusion_lon": 0.0, "lat": 38.920569666666665, "bike_id": "4094bbc13eeb583fc9a200010ef6918a", "type": "electric_scooter", "is_reserved": 0, "lon": -77.0425295}, {"fusion_lat": 0.0, "name": "ecd4e67874bdf22d7050931d47757467", "is_disabled": 0, "rental_uris": {"android": "https://dc.lft.to/lastmile_qr_scan", "ios": "https://dc.lft.to/lastmile_qr_scan"}, "fusion_lon": 0.0, "lat": 38.9273105, "bike_id": "ecd4e67874bdf22d7050931d47757467", "type": "electric_scooter", "is_reserved": 0, "lon": -77.0316365}, {"fusion_lat": 0.0, "name": "2a0d1e557cd7ca02b6545efc1874f7d7", "is_disabled": 0, "rental_uris": {"android": "https://dc.lft.to/lastmile_qr_scan", "ios": "https://dc.lft.to/lastmile_qr_scan"}, "fusion_lon": 0.0, "lat": 38.9107725, "bike_id": "2a0d1e557cd7ca02b6545efc1874f7d7", "type": "electric_scooter", "is_reserved": 0, "lon": -77.06543083333334}, {"fusion_lat": 0.0, "name": "c494aff32640af32163b5ae9656b1bea", "is_disabled": 0, "rental_uris": {"android": "https://dc.lft.to/lastmile_qr_scan", "ios": "https://dc.lft.to/lastmile_qr_scan"}, "fusion_lon": 0.0, "lat": 38.916148166666666, "bike_id": "c494aff32640af32163b5ae9656b1bea", "type": "electric_scooter", "is_reserved": 0, "lon": -77.04624316666667}, {"fusion_lat": 0.0, "name": "3862faacdabbb2ce7c17cea61d7e3a32", "is_disabled": 0, "rental_uris": {"android": "https://dc.lft.to/lastmile_qr_scan", "ios": "https://dc.lft.to/lastmile_qr_scan"}, "fusion_lon": 0.0, "lat": 38.94089966666667, "bike_id": "3862faacdabbb2ce7c17cea61d7e3a32", "type": "electric_scooter", "is_reserved": 0, "lon": -77.02322016666666}, {"fusion_lat": 0.0, "name": "10e678c20183f42a79331d42a6974d05", "is_disabled": 0, "rental_uris": {"android": "https://dc.lft.to/lastmile_qr_scan", "ios": "https://dc.lft.to/lastmile_qr_scan"}, "fusion_lon": 0.0, "lat": 38.90054816666667, "bike_id": "10e678c20183f42a79331d42a6974d05", "type": "electric_scooter", "is_reserved": 0, "lon": -77.0220405}, {"fusion_lat": 0.0, "name": "98bb23d6aad555458c1d352022eb9f8b", "is_disabled": 0, "rental_uris": {"android": "https://dc.lft.to/lastmile_qr_scan", "ios": "https://dc.lft.to/lastmile_qr_scan"}, "fusion_lon": 0.0, "lat": 38.8888115, "bike_id": "98bb23d6aad555458c1d352022eb9f8b", "type": "electric_scooter", "is_reserved": 0, "lon": -77.02843333333334}, {"fusion_lat": 0.0, "name": "302290be12f611ae6466ce9dfcfba57e", "is_disabled": 0, "rental_uris": {"android": "https://dc.lft.to/lastmile_qr_scan", "ios": "https://dc.lft.to/lastmile_qr_scan"}, "fusion_lon": 0.0, "lat": 38.912547833333335, "bike_id": "302290be12f611ae6466ce9dfcfba57e", "type": "electric_scooter", "is_reserved": 0, "lon": -77.03809466666667}, {"fusion_lat": 0.0, "name": "d5b44d5cadd935919beedf5cb42af299", "is_disabled": 0, "rental_uris": {"android": "https://dc.lft.to/lastmile_qr_scan", "ios": "https://dc.lft.to/lastmile_qr_scan"}, "fusion_lon": 0.0, "lat": 38.91961283333333, "bike_id": "d5b44d5cadd935919beedf5cb42af299", "type": "electric_scooter", "is_reserved": 0, "lon": -77.041478}, {"fusion_lat": 0.0, "name": "f29a9a3206e08553e5b5130541260592", "is_disabled": 0, "rental_uris": {"android": "https://dc.lft.to/lastmile_qr_scan", "ios": "https://dc.lft.to/lastmile_qr_scan"}, "fusion_lon": 0.0, "lat": 38.925466166666666, "bike_id": "f29a9a3206e08553e5b5130541260592", "type": "electric_scooter", "is_reserved": 0, "lon": -77.03335766666666}, {"fusion_lat": 0.0, "name": "c706a540817129dd83bf88a817f4de18", "is_disabled": 0, "rental_uris": {"android": "https://dc.lft.to/lastmile_qr_scan", "ios": "https://dc.lft.to/lastmile_qr_scan"}, "fusion_lon": 0.0, "lat": 38.842987, "bike_id": "c706a540817129dd83bf88a817f4de18", "type": "electric_bike", "is_reserved": 0, "lon": -77.10864433333333}, {"fusion_lat": 0.0, "name": "be3b54033f86eeec087c45de3d901379", "is_disabled": 0, "rental_uris": {"android": "https://dc.lft.to/lastmile_qr_scan", "ios": "https://dc.lft.to/lastmile_qr_scan"}, "fusion_lon": 0.0, "lat": 38.8991115, "bike_id": "be3b54033f86eeec087c45de3d901379", "type": "electric_scooter", "is_reserved": 0, "lon": -76.94550433333333}, {"fusion_lat": 0.0, "name": "44e15d4d5cb5ef9e5869eb3432c9f438", "is_disabled": 0, "rental_uris": {"android": "https://dc.lft.to/lastmile_qr_scan", "ios": "https://dc.lft.to/lastmile_qr_scan"}, "fusion_lon": 0.0, "lat": 38.8959825, "bike_id": "44e15d4d5cb5ef9e5869eb3432c9f438", "type": "electric_scooter", "is_reserved": 0, "lon": -77.00948483333333}, {"fusion_lat": 0.0, "name": "1d9b77b17b2266fc4713437e607c5e15", "is_disabled": 0, "rental_uris": {"android": "https://dc.lft.to/lastmile_qr_scan", "ios": "https://dc.lft.to/lastmile_qr_scan"}, "fusion_lon": 0.0, "lat": 38.94741166666667, "bike_id": "1d9b77b17b2266fc4713437e607c5e15", "type": "electric_scooter", "is_reserved": 0, "lon": -77.01619916666667}, {"fusion_lat": 0.0, "name": "addf0cc286c7aa17ed5e4e088922bce9", "is_disabled": 0, "rental_uris": {"android": "https://dc.lft.to/lastmile_qr_scan", "ios": "https://dc.lft.to/lastmile_qr_scan"}, "fusion_lon": 0.0, "lat": 38.904461, "bike_id": "addf0cc286c7aa17ed5e4e088922bce9", "type": "electric_scooter", "is_reserved": 0, "lon": -77.06013266666666}, {"fusion_lat": 0.0, "name": "feb1b2e31b50add843b55380f840dcc6", "is_disabled": 0, "rental_uris": {"android": "https://dc.lft.to/lastmile_qr_scan", "ios": "https://dc.lft.to/lastmile_qr_scan"}, "fusion_lon": 0.0, "lat": 38.92956983333333, "bike_id": "feb1b2e31b50add843b55380f840dcc6", "type": "electric_scooter", "is_reserved": 0, "lon": -77.01981416666666}, {"fusion_lat": 0.0, "name": "f8a1083eb0e263610b8688fe9ee29866", "is_disabled": 0, "rental_uris": {"android": "https://dc.lft.to/lastmile_qr_scan", "ios": "https://dc.lft.to/lastmile_qr_scan"}, "fusion_lon": 0.0, "lat": 38.8921025, "bike_id": "f8a1083eb0e263610b8688fe9ee29866", "type": "electric_scooter", "is_reserved": 0, "lon": -77.03211033333334}, {"fusion_lat": 0.0, "name": "74bd0ba09b4afb1b4192a2e324366fc8", "is_disabled": 0, "rental_uris": {"android": "https://dc.lft.to/lastmile_qr_scan", "ios": "https://dc.lft.to/lastmile_qr_scan"}, "fusion_lon": 0.0, "lat": 38.944085333333334, "bike_id": "74bd0ba09b4afb1b4192a2e324366fc8", "type": "electric_scooter", "is_reserved": 0, "lon": -77.03861966666666}, {"fusion_lat": 0.0, "name": "5628e881c33ae0bee38b607461b79d50", "is_disabled": 0, "rental_uris": {"android": "https://dc.lft.to/lastmile_qr_scan", "ios": "https://dc.lft.to/lastmile_qr_scan"}, "fusion_lon": 0.0, "lat": 38.892168, "bike_id": "5628e881c33ae0bee38b607461b79d50", "type": "electric_scooter", "is_reserved": 0, "lon": -77.02407833333334}, {"fusion_lat": 0.0, "name": "e9818ef69315007c4d2ef9f8f4eda6e2", "is_disabled": 0, "rental_uris": {"android": "https://dc.lft.to/lastmile_qr_scan", "ios": "https://dc.lft.to/lastmile_qr_scan"}, "fusion_lon": 0.0, "lat": 38.910858166666664, "bike_id": "e9818ef69315007c4d2ef9f8f4eda6e2", "type": "electric_scooter", "is_reserved": 0, "lon": -77.06502783333333}, {"fusion_lat": 0.0, "name": "aca13510cc1bab2368bac05b37902c94", "is_disabled": 0, "rental_uris": {"android": "https://dc.lft.to/lastmile_qr_scan", "ios": "https://dc.lft.to/lastmile_qr_scan"}, "fusion_lon": 0.0, "lat": 38.82455783333333, "bike_id": "aca13510cc1bab2368bac05b37902c94", "type": "electric_bike", "is_reserved": 0, "lon": -77.00794383333333}, {"fusion_lat": 0.0, "name": "72b6df1712f6c2ffef94e3b2c9897223", "is_disabled": 0, "rental_uris": {"android": "https://dc.lft.to/lastmile_qr_scan", "ios": "https://dc.lft.to/lastmile_qr_scan"}, "fusion_lon": 0.0, "lat": 38.8801565, "bike_id": "72b6df1712f6c2ffef94e3b2c9897223", "type": "electric_scooter", "is_reserved": 0, "lon": -76.9311365}, {"fusion_lat": 0.0, "name": "02ba924f51d538babfa39a34dcac955d", "is_disabled": 0, "rental_uris": {"android": "https://dc.lft.to/lastmile_qr_scan", "ios": "https://dc.lft.to/lastmile_qr_scan"}, "fusion_lon": 0.0, "lat": 38.91400733333333, "bike_id": "02ba924f51d538babfa39a34dcac955d", "type": "electric_scooter", "is_reserved": 0, "lon": -77.00838466666667}, {"fusion_lat": 0.0, "name": "2024e5b70c81b5b7a8ebd85c6eed3567", "is_disabled": 0, "rental_uris": {"android": "https://dc.lft.to/lastmile_qr_scan", "ios": "https://dc.lft.to/lastmile_qr_scan"}, "fusion_lon": 0.0, "lat": 38.907217333333335, "bike_id": "2024e5b70c81b5b7a8ebd85c6eed3567", "type": "electric_scooter", "is_reserved": 0, "lon": -77.03184616666667}, {"fusion_lat": 0.0, "name": "529b5a1b4cf5cb7a42c658e604762f7d", "is_disabled": 0, "rental_uris": {"android": "https://dc.lft.to/lastmile_qr_scan", "ios": "https://dc.lft.to/lastmile_qr_scan"}, "fusion_lon": 0.0, "lat": 38.92121133333333, "bike_id": "529b5a1b4cf5cb7a42c658e604762f7d", "type": "electric_scooter", "is_reserved": 0, "lon": -77.0316915}, {"fusion_lat": 0.0, "name": "79a7d7a1997eb364399a450a4a40de70", "is_disabled": 0, "rental_uris": {"android": "https://dc.lft.to/lastmile_qr_scan", "ios": "https://dc.lft.to/lastmile_qr_scan"}, "fusion_lon": 0.0, "lat": 38.923671666666664, "bike_id": "79a7d7a1997eb364399a450a4a40de70", "type": "electric_scooter", "is_reserved": 0, "lon": -77.05027583333333}, {"fusion_lat": 0.0, "name": "54f0a9e6467b9631528e3df3b91dacc5", "is_disabled": 0, "rental_uris": {"android": "https://dc.lft.to/lastmile_qr_scan", "ios": "https://dc.lft.to/lastmile_qr_scan"}, "fusion_lon": 0.0, "lat": 38.905451, "bike_id": "54f0a9e6467b9631528e3df3b91dacc5", "type": "electric_scooter", "is_reserved": 0, "lon": -77.04097383333334}, {"fusion_lat": 0.0, "name": "74064166fb428014d0e101c4a448850a", "is_disabled": 0, "rental_uris": {"android": "https://dc.lft.to/lastmile_qr_scan", "ios": "https://dc.lft.to/lastmile_qr_scan"}, "fusion_lon": 0.0, "lat": 38.9173985, "bike_id": "74064166fb428014d0e101c4a448850a", "type": "electric_scooter", "is_reserved": 0, "lon": -77.031909}, {"fusion_lat": 0.0, "name": "caa4868a255f6def4c44713c64db7c9c", "is_disabled": 0, "rental_uris": {"android": "https://dc.lft.to/lastmile_qr_scan", "ios": "https://dc.lft.to/lastmile_qr_scan"}, "fusion_lon": 0.0, "lat": 38.91798083333333, "bike_id": "caa4868a255f6def4c44713c64db7c9c", "type": "electric_scooter", "is_reserved": 0, "lon": -77.03436733333334}, {"fusion_lat": 0.0, "name": "2b41118c6d15d6d7171a48c139a3b4c7", "is_disabled": 0, "rental_uris": {"android": "https://dc.lft.to/lastmile_qr_scan", "ios": "https://dc.lft.to/lastmile_qr_scan"}, "fusion_lon": 0.0, "lat": 38.90573233333333, "bike_id": "2b41118c6d15d6d7171a48c139a3b4c7", "type": "electric_scooter", "is_reserved": 0, "lon": -77.02208366666666}, {"fusion_lat": 0.0, "name": "d2a60c1b1784e3b5031dee7ab718d4b6", "is_disabled": 0, "rental_uris": {"android": "https://dc.lft.to/lastmile_qr_scan", "ios": "https://dc.lft.to/lastmile_qr_scan"}, "fusion_lon": 0.0, "lat": 38.91996416666667, "bike_id": "d2a60c1b1784e3b5031dee7ab718d4b6", "type": "electric_scooter", "is_reserved": 0, "lon": -77.0231145}, {"fusion_lat": 0.0, "name": "92a0ebab5e0b7da2cb7c9facbd54c347", "is_disabled": 0, "rental_uris": {"android": "https://dc.lft.to/lastmile_qr_scan", "ios": "https://dc.lft.to/lastmile_qr_scan"}, "fusion_lon": 0.0, "lat": 38.93368916666667, "bike_id": "92a0ebab5e0b7da2cb7c9facbd54c347", "type": "electric_scooter", "is_reserved": 0, "lon": -77.05736016666667}, {"fusion_lat": 0.0, "name": "38d4b97b51c809be63a1bd674b6aa02d", "is_disabled": 0, "rental_uris": {"android": "https://dc.lft.to/lastmile_qr_scan", "ios": "https://dc.lft.to/lastmile_qr_scan"}, "fusion_lon": 0.0, "lat": 38.9944155, "bike_id": "38d4b97b51c809be63a1bd674b6aa02d", "type": "electric_bike", "is_reserved": 0, "lon": -76.99588116666666}, {"fusion_lat": 0.0, "name": "50cc7c37717fc622f4391313644f382e", "is_disabled": 0, "rental_uris": {"android": "https://dc.lft.to/lastmile_qr_scan", "ios": "https://dc.lft.to/lastmile_qr_scan"}, "fusion_lon": 0.0, "lat": 38.903079166666664, "bike_id": "50cc7c37717fc622f4391313644f382e", "type": "electric_scooter", "is_reserved": 0, "lon": -76.97655533333334}, {"fusion_lat": 0.0, "name": "88bf49f981770ad628266fb47cb19450", "is_disabled": 0, "rental_uris": {"android": "https://dc.lft.to/lastmile_qr_scan", "ios": "https://dc.lft.to/lastmile_qr_scan"}, "fusion_lon": 0.0, "lat": 38.9277445, "bike_id": "88bf49f981770ad628266fb47cb19450", "type": "electric_scooter", "is_reserved": 0, "lon": -77.0274565}, {"fusion_lat": 0.0, "name": "b42eb4ca79b5b625c6332e93c226c303", "is_disabled": 0, "rental_uris": {"android": "https://dc.lft.to/lastmile_qr_scan", "ios": "https://dc.lft.to/lastmile_qr_scan"}, "fusion_lon": 0.0, "lat": 38.853570166666664, "bike_id": "b42eb4ca79b5b625c6332e93c226c303", "type": "electric_bike", "is_reserved": 0, "lon": -77.13466216666667}, {"fusion_lat": 0.0, "name": "bef9781a36e34ed714dd001d8cd4c784", "is_disabled": 0, "rental_uris": {"android": "https://dc.lft.to/lastmile_qr_scan", "ios": "https://dc.lft.to/lastmile_qr_scan"}, "fusion_lon": 0.0, "lat": 38.9254535, "bike_id": "bef9781a36e34ed714dd001d8cd4c784", "type": "electric_scooter", "is_reserved": 0, "lon": -77.0334185}, {"fusion_lat": 0.0, "name": "72fe33c918fb204f062a7441f76828f0", "is_disabled": 0, "rental_uris": {"android": "https://dc.lft.to/lastmile_qr_scan", "ios": "https://dc.lft.to/lastmile_qr_scan"}, "fusion_lon": 0.0, "lat": 38.912583166666664, "bike_id": "72fe33c918fb204f062a7441f76828f0", "type": "electric_scooter", "is_reserved": 0, "lon": -77.0386865}, {"fusion_lat": 0.0, "name": "6b53e5345d8fe733574db5803b80eaf2", "is_disabled": 0, "rental_uris": {"android": "https://dc.lft.to/lastmile_qr_scan", "ios": "https://dc.lft.to/lastmile_qr_scan"}, "fusion_lon": 0.0, "lat": 38.914326333333335, "bike_id": "6b53e5345d8fe733574db5803b80eaf2", "type": "electric_scooter", "is_reserved": 0, "lon": -77.01216116666667}, {"fusion_lat": 0.0, "name": "3c788905128b31d67f1075878f9db82e", "is_disabled": 0, "rental_uris": {"android": "https://dc.lft.to/lastmile_qr_scan", "ios": "https://dc.lft.to/lastmile_qr_scan"}, "fusion_lon": 0.0, "lat": 38.84756216666667, "bike_id": "3c788905128b31d67f1075878f9db82e", "type": "electric_scooter", "is_reserved": 0, "lon": -76.99505433333333}, {"fusion_lat": 0.0, "name": "0326d4065162cfdd83f7d6ea99fbb68d", "is_disabled": 0, "rental_uris": {"android": "https://dc.lft.to/lastmile_qr_scan", "ios": "https://dc.lft.to/lastmile_qr_scan"}, "fusion_lon": 0.0, "lat": 38.874893166666666, "bike_id": "0326d4065162cfdd83f7d6ea99fbb68d", "type": "electric_scooter", "is_reserved": 0, "lon": -77.00031983333334}, {"fusion_lat": 0.0, "name": "e13789e52fdc8f29f1b6b5f5ff998ea5", "is_disabled": 0, "rental_uris": {"android": "https://dc.lft.to/lastmile_qr_scan", "ios": "https://dc.lft.to/lastmile_qr_scan"}, "fusion_lon": 0.0, "lat": 38.916136333333334, "bike_id": "e13789e52fdc8f29f1b6b5f5ff998ea5", "type": "electric_scooter", "is_reserved": 0, "lon": -77.0462245}, {"fusion_lat": 0.0, "name": "25a7f1de664d339bbd449e8f9b2994a4", "is_disabled": 0, "rental_uris": {"android": "https://dc.lft.to/lastmile_qr_scan", "ios": "https://dc.lft.to/lastmile_qr_scan"}, "fusion_lon": 0.0, "lat": 38.915979166666666, "bike_id": "25a7f1de664d339bbd449e8f9b2994a4", "type": "electric_scooter", "is_reserved": 0, "lon": -76.99362083333334}, {"fusion_lat": 0.0, "name": "1a4450859cb9baef0a94240567f44114", "is_disabled": 0, "rental_uris": {"android": "https://dc.lft.to/lastmile_qr_scan", "ios": "https://dc.lft.to/lastmile_qr_scan"}, "fusion_lon": 0.0, "lat": 38.89498966666667, "bike_id": "1a4450859cb9baef0a94240567f44114", "type": "electric_scooter", "is_reserved": 0, "lon": -77.02199316666666}, {"fusion_lat": 0.0, "name": "11ad87e129ee2e5ec394b9f432098efa", "is_disabled": 0, "rental_uris": {"android": "https://dc.lft.to/lastmile_qr_scan", "ios": "https://dc.lft.to/lastmile_qr_scan"}, "fusion_lon": 0.0, "lat": 38.92613816666667, "bike_id": "11ad87e129ee2e5ec394b9f432098efa", "type": "electric_scooter", "is_reserved": 0, "lon": -77.03745616666667}, {"fusion_lat": 0.0, "name": "dc54d8c2795db3075f3b9f9e27c6df53", "is_disabled": 0, "rental_uris": {"android": "https://dc.lft.to/lastmile_qr_scan", "ios": "https://dc.lft.to/lastmile_qr_scan"}, "fusion_lon": 0.0, "lat": 38.9129685, "bike_id": "dc54d8c2795db3075f3b9f9e27c6df53", "type": "electric_scooter", "is_reserved": 0, "lon": -77.00899683333333}, {"fusion_lat": 0.0, "name": "e370be44c9dd6e321a4e7fc0bad5ab71", "is_disabled": 0, "rental_uris": {"android": "https://dc.lft.to/lastmile_qr_scan", "ios": "https://dc.lft.to/lastmile_qr_scan"}, "fusion_lon": 0.0, "lat": 38.912093666666664, "bike_id": "e370be44c9dd6e321a4e7fc0bad5ab71", "type": "electric_scooter", "is_reserved": 0, "lon": -77.03204983333333}, {"fusion_lat": 0.0, "name": "b387aa0de31a75902769b54ea8e80153", "is_disabled": 0, "rental_uris": {"android": "https://dc.lft.to/lastmile_qr_scan", "ios": "https://dc.lft.to/lastmile_qr_scan"}, "fusion_lon": 0.0, "lat": 38.909844666666665, "bike_id": "b387aa0de31a75902769b54ea8e80153", "type": "electric_scooter", "is_reserved": 0, "lon": -77.03216083333334}, {"fusion_lat": 0.0, "name": "5d65c3b8d5d69ceef45f15cd28a78629", "is_disabled": 0, "rental_uris": {"android": "https://dc.lft.to/lastmile_qr_scan", "ios": "https://dc.lft.to/lastmile_qr_scan"}, "fusion_lon": 0.0, "lat": 38.92238966666667, "bike_id": "5d65c3b8d5d69ceef45f15cd28a78629", "type": "electric_scooter", "is_reserved": 0, "lon": -77.03522166666667}, {"fusion_lat": 0.0, "name": "e1827ac189b105309dd5943c6055bbd3", "is_disabled": 0, "rental_uris": {"android": "https://dc.lft.to/lastmile_qr_scan", "ios": "https://dc.lft.to/lastmile_qr_scan"}, "fusion_lon": 0.0, "lat": 38.91710333333333, "bike_id": "e1827ac189b105309dd5943c6055bbd3", "type": "electric_scooter", "is_reserved": 0, "lon": -77.04203483333333}, {"fusion_lat": 0.0, "name": "7c7429bb9289987df2afdb78db4a9f42", "is_disabled": 0, "rental_uris": {"android": "https://dc.lft.to/lastmile_qr_scan", "ios": "https://dc.lft.to/lastmile_qr_scan"}, "fusion_lon": 0.0, "lat": 38.932047833333336, "bike_id": "7c7429bb9289987df2afdb78db4a9f42", "type": "electric_scooter", "is_reserved": 0, "lon": -77.03666366666667}, {"fusion_lat": 0.0, "name": "8bb09c3a1dea493295c82abddf14c729", "is_disabled": 0, "rental_uris": {"android": "https://dc.lft.to/lastmile_qr_scan", "ios": "https://dc.lft.to/lastmile_qr_scan"}, "fusion_lon": 0.0, "lat": 38.8922645, "bike_id": "8bb09c3a1dea493295c82abddf14c729", "type": "electric_scooter", "is_reserved": 0, "lon": -77.04868083333334}, {"fusion_lat": 0.0, "name": "d1607e602aa7b21c309ad514f522ec4e", "is_disabled": 0, "rental_uris": {"android": "https://dc.lft.to/lastmile_qr_scan", "ios": "https://dc.lft.to/lastmile_qr_scan"}, "fusion_lon": 0.0, "lat": 38.887096666666665, "bike_id": "d1607e602aa7b21c309ad514f522ec4e", "type": "electric_scooter", "is_reserved": 0, "lon": -76.9967745}, {"fusion_lat": 0.0, "name": "4e7fd03435184c24b26d520d78f7088c", "is_disabled": 0, "rental_uris": {"android": "https://dc.lft.to/lastmile_qr_scan", "ios": "https://dc.lft.to/lastmile_qr_scan"}, "fusion_lon": 0.0, "lat": 38.8954835, "bike_id": "4e7fd03435184c24b26d520d78f7088c", "type": "electric_scooter", "is_reserved": 0, "lon": -76.98339116666666}, {"fusion_lat": 0.0, "name": "c29d23a008819772b0787218a54fde5a", "is_disabled": 0, "rental_uris": {"android": "https://dc.lft.to/lastmile_qr_scan", "ios": "https://dc.lft.to/lastmile_qr_scan"}, "fusion_lon": 0.0, "lat": 38.9344655, "bike_id": "c29d23a008819772b0787218a54fde5a", "type": "electric_scooter", "is_reserved": 0, "lon": -77.0387275}, {"fusion_lat": 0.0, "name": "d35b17424aa2fd2a0a9039485d522867", "is_disabled": 0, "rental_uris": {"android": "https://dc.lft.to/lastmile_qr_scan", "ios": "https://dc.lft.to/lastmile_qr_scan"}, "fusion_lon": 0.0, "lat": 38.90268483333333, "bike_id": "d35b17424aa2fd2a0a9039485d522867", "type": "electric_scooter", "is_reserved": 0, "lon": -77.00326183333334}, {"fusion_lat": 0.0, "name": "65fe21645f6c5553fc2a0d28b0cef562", "is_disabled": 0, "rental_uris": {"android": "https://dc.lft.to/lastmile_qr_scan", "ios": "https://dc.lft.to/lastmile_qr_scan"}, "fusion_lon": 0.0, "lat": 38.90574016666667, "bike_id": "65fe21645f6c5553fc2a0d28b0cef562", "type": "electric_scooter", "is_reserved": 0, "lon": -77.00740133333333}, {"fusion_lat": 0.0, "name": "de38f898170d8090854e16c154a8398b", "is_disabled": 0, "rental_uris": {"android": "https://dc.lft.to/lastmile_qr_scan", "ios": "https://dc.lft.to/lastmile_qr_scan"}, "fusion_lon": 0.0, "lat": 38.92528816666667, "bike_id": "de38f898170d8090854e16c154a8398b", "type": "electric_scooter", "is_reserved": 0, "lon": -77.03487333333334}, {"fusion_lat": 0.0, "name": "21fdcbf0d6e397f50b107ac5c9501382", "is_disabled": 0, "rental_uris": {"android": "https://dc.lft.to/lastmile_qr_scan", "ios": "https://dc.lft.to/lastmile_qr_scan"}, "fusion_lon": 0.0, "lat": 38.90255066666667, "bike_id": "21fdcbf0d6e397f50b107ac5c9501382", "type": "electric_scooter", "is_reserved": 0, "lon": -77.01716466666667}, {"fusion_lat": 0.0, "name": "8444b7f5b34e37128f377d760edbd7ce", "is_disabled": 0, "rental_uris": {"android": "https://dc.lft.to/lastmile_qr_scan", "ios": "https://dc.lft.to/lastmile_qr_scan"}, "fusion_lon": 0.0, "lat": 38.88189933333334, "bike_id": "8444b7f5b34e37128f377d760edbd7ce", "type": "electric_scooter", "is_reserved": 0, "lon": -77.00353666666666}, {"fusion_lat": 0.0, "name": "22606fc67e48652fd254bac2e87546ae", "is_disabled": 0, "rental_uris": {"android": "https://dc.lft.to/lastmile_qr_scan", "ios": "https://dc.lft.to/lastmile_qr_scan"}, "fusion_lon": 0.0, "lat": 38.9273685, "bike_id": "22606fc67e48652fd254bac2e87546ae", "type": "electric_scooter", "is_reserved": 0, "lon": -77.05264616666666}, {"fusion_lat": 0.0, "name": "3fb1ca229462b896e75ae63e635d5c8f", "is_disabled": 0, "rental_uris": {"android": "https://dc.lft.to/lastmile_qr_scan", "ios": "https://dc.lft.to/lastmile_qr_scan"}, "fusion_lon": 0.0, "lat": 38.904221166666666, "bike_id": "3fb1ca229462b896e75ae63e635d5c8f", "type": "electric_scooter", "is_reserved": 0, "lon": -77.051392}, {"fusion_lat": 0.0, "name": "c84517e2d8362574410d3ce0091c49a8", "is_disabled": 0, "rental_uris": {"android": "https://dc.lft.to/lastmile_qr_scan", "ios": "https://dc.lft.to/lastmile_qr_scan"}, "fusion_lon": 0.0, "lat": 38.92382533333333, "bike_id": "c84517e2d8362574410d3ce0091c49a8", "type": "electric_scooter", "is_reserved": 0, "lon": -77.0447135}, {"fusion_lat": 0.0, "name": "c6d3e56102a3ee15ce42af001f1fe026", "is_disabled": 0, "rental_uris": {"android": "https://dc.lft.to/lastmile_qr_scan", "ios": "https://dc.lft.to/lastmile_qr_scan"}, "fusion_lon": 0.0, "lat": 38.9200915, "bike_id": "c6d3e56102a3ee15ce42af001f1fe026", "type": "electric_scooter", "is_reserved": 0, "lon": -77.038865}, {"fusion_lat": 0.0, "name": "efd3ddc6f1de1421ec8a1337f687fbea", "is_disabled": 0, "rental_uris": {"android": "https://dc.lft.to/lastmile_qr_scan", "ios": "https://dc.lft.to/lastmile_qr_scan"}, "fusion_lon": 0.0, "lat": 38.90381716666667, "bike_id": "efd3ddc6f1de1421ec8a1337f687fbea", "type": "electric_scooter", "is_reserved": 0, "lon": -76.97618116666666}, {"fusion_lat": 0.0, "name": "02ff581c0f4d253595fc753b37caa8e7", "is_disabled": 0, "rental_uris": {"android": "https://dc.lft.to/lastmile_qr_scan", "ios": "https://dc.lft.to/lastmile_qr_scan"}, "fusion_lon": 0.0, "lat": 38.92755433333333, "bike_id": "02ff581c0f4d253595fc753b37caa8e7", "type": "electric_scooter", "is_reserved": 0, "lon": -77.032758}, {"fusion_lat": 0.0, "name": "e632bc922ea87613608ace276b8c93fa", "is_disabled": 0, "rental_uris": {"android": "https://dc.lft.to/lastmile_qr_scan", "ios": "https://dc.lft.to/lastmile_qr_scan"}, "fusion_lon": 0.0, "lat": 38.963930166666664, "bike_id": "e632bc922ea87613608ace276b8c93fa", "type": "electric_scooter", "is_reserved": 0, "lon": -77.02592116666666}, {"fusion_lat": 0.0, "name": "694a6ea33f713014cf433f800755940c", "is_disabled": 0, "rental_uris": {"android": "https://dc.lft.to/lastmile_qr_scan", "ios": "https://dc.lft.to/lastmile_qr_scan"}, "fusion_lon": 0.0, "lat": 38.9070875, "bike_id": "694a6ea33f713014cf433f800755940c", "type": "electric_scooter", "is_reserved": 0, "lon": -77.03203416666666}, {"fusion_lat": 0.0, "name": "165b09dd2a376c87698ec3a0aa153a45", "is_disabled": 0, "rental_uris": {"android": "https://dc.lft.to/lastmile_qr_scan", "ios": "https://dc.lft.to/lastmile_qr_scan"}, "fusion_lon": 0.0, "lat": 38.802972, "bike_id": "165b09dd2a376c87698ec3a0aa153a45", "type": "electric_bike", "is_reserved": 0, "lon": -77.05941}, {"fusion_lat": 0.0, "name": "d6873d9e597fd601035d9837a1503023", "is_disabled": 0, "rental_uris": {"android": "https://dc.lft.to/lastmile_qr_scan", "ios": "https://dc.lft.to/lastmile_qr_scan"}, "fusion_lon": 0.0, "lat": 38.932460166666665, "bike_id": "d6873d9e597fd601035d9837a1503023", "type": "electric_scooter", "is_reserved": 0, "lon": -77.03277166666666}, {"fusion_lat": 0.0, "name": "e92ad2fa0a7222d3f63882b0c4741dff", "is_disabled": 0, "rental_uris": {"android": "https://dc.lft.to/lastmile_qr_scan", "ios": "https://dc.lft.to/lastmile_qr_scan"}, "fusion_lon": 0.0, "lat": 38.879875, "bike_id": "e92ad2fa0a7222d3f63882b0c4741dff", "type": "electric_scooter", "is_reserved": 0, "lon": -77.0060575}, {"fusion_lat": 0.0, "name": "30bd12bc3f724012f6c310d481d9dbe1", "is_disabled": 0, "rental_uris": {"android": "https://dc.lft.to/lastmile_qr_scan", "ios": "https://dc.lft.to/lastmile_qr_scan"}, "fusion_lon": 0.0, "lat": 38.900336833333334, "bike_id": "30bd12bc3f724012f6c310d481d9dbe1", "type": "electric_scooter", "is_reserved": 0, "lon": -77.01174016666667}, {"fusion_lat": 0.0, "name": "06ab28033f3e38ef8fc397a69fd5642f", "is_disabled": 0, "rental_uris": {"android": "https://dc.lft.to/lastmile_qr_scan", "ios": "https://dc.lft.to/lastmile_qr_scan"}, "fusion_lon": 0.0, "lat": 38.89239466666667, "bike_id": "06ab28033f3e38ef8fc397a69fd5642f", "type": "electric_scooter", "is_reserved": 0, "lon": -77.04364733333334}, {"fusion_lat": 0.0, "name": "b6fd5ddc2ed115c5d8a15810a15710ef", "is_disabled": 0, "rental_uris": {"android": "https://dc.lft.to/lastmile_qr_scan", "ios": "https://dc.lft.to/lastmile_qr_scan"}, "fusion_lon": 0.0, "lat": 38.922618666666665, "bike_id": "b6fd5ddc2ed115c5d8a15810a15710ef", "type": "electric_scooter", "is_reserved": 0, "lon": -77.03654316666666}, {"fusion_lat": 0.0, "name": "af42fdc7bd4b09f3a322e48a1a5dde2f", "is_disabled": 0, "rental_uris": {"android": "https://dc.lft.to/lastmile_qr_scan", "ios": "https://dc.lft.to/lastmile_qr_scan"}, "fusion_lon": 0.0, "lat": 38.921194166666666, "bike_id": "af42fdc7bd4b09f3a322e48a1a5dde2f", "type": "electric_scooter", "is_reserved": 0, "lon": -77.03179483333334}, {"fusion_lat": 0.0, "name": "09e6bfb2259c91b5fabd71bdc1219a02", "is_disabled": 0, "rental_uris": {"android": "https://dc.lft.to/lastmile_qr_scan", "ios": "https://dc.lft.to/lastmile_qr_scan"}, "fusion_lon": 0.0, "lat": 38.9084525, "bike_id": "09e6bfb2259c91b5fabd71bdc1219a02", "type": "electric_scooter", "is_reserved": 0, "lon": -77.0270355}, {"fusion_lat": 0.0, "name": "b1385590d3b0aba0c3fd1364de930cab", "is_disabled": 0, "rental_uris": {"android": "https://dc.lft.to/lastmile_qr_scan", "ios": "https://dc.lft.to/lastmile_qr_scan"}, "fusion_lon": 0.0, "lat": 38.8773465, "bike_id": "b1385590d3b0aba0c3fd1364de930cab", "type": "electric_scooter", "is_reserved": 0, "lon": -76.970314}, {"fusion_lat": 0.0, "name": "96168fd50cf678927facc45ee57fe3ba", "is_disabled": 0, "rental_uris": {"android": "https://dc.lft.to/lastmile_qr_scan", "ios": "https://dc.lft.to/lastmile_qr_scan"}, "fusion_lon": 0.0, "lat": 38.93084733333333, "bike_id": "96168fd50cf678927facc45ee57fe3ba", "type": "electric_scooter", "is_reserved": 0, "lon": -77.0365705}, {"fusion_lat": 0.0, "name": "047e847f4a0024b4bb2906f5f35ba242", "is_disabled": 0, "rental_uris": {"android": "https://dc.lft.to/lastmile_qr_scan", "ios": "https://dc.lft.to/lastmile_qr_scan"}, "fusion_lon": 0.0, "lat": 38.984724166666666, "bike_id": "047e847f4a0024b4bb2906f5f35ba242", "type": "electric_scooter", "is_reserved": 0, "lon": -77.0263985}, {"fusion_lat": 0.0, "name": "e9acb7a0e7fdc172d9603e1ac6a34cc7", "is_disabled": 0, "rental_uris": {"android": "https://dc.lft.to/lastmile_qr_scan", "ios": "https://dc.lft.to/lastmile_qr_scan"}, "fusion_lon": 0.0, "lat": 38.9213355, "bike_id": "e9acb7a0e7fdc172d9603e1ac6a34cc7", "type": "electric_scooter", "is_reserved": 0, "lon": -77.00403033333333}, {"fusion_lat": 0.0, "name": "1c2456a36c4e6bf123013f943700bc63", "is_disabled": 0, "rental_uris": {"android": "https://dc.lft.to/lastmile_qr_scan", "ios": "https://dc.lft.to/lastmile_qr_scan"}, "fusion_lon": 0.0, "lat": 38.9096425, "bike_id": "1c2456a36c4e6bf123013f943700bc63", "type": "electric_scooter", "is_reserved": 0, "lon": -77.046156}, {"fusion_lat": 0.0, "name": "0428a0fb491cee7eb39111c22a9dbdf4", "is_disabled": 0, "rental_uris": {"android": "https://dc.lft.to/lastmile_qr_scan", "ios": "https://dc.lft.to/lastmile_qr_scan"}, "fusion_lon": 0.0, "lat": 38.919831, "bike_id": "0428a0fb491cee7eb39111c22a9dbdf4", "type": "electric_scooter", "is_reserved": 0, "lon": -77.04088783333333}, {"fusion_lat": 0.0, "name": "57c4daae397b43e9ede12b93f5304776", "is_disabled": 0, "rental_uris": {"android": "https://dc.lft.to/lastmile_qr_scan", "ios": "https://dc.lft.to/lastmile_qr_scan"}, "fusion_lon": 0.0, "lat": 38.99224483333333, "bike_id": "57c4daae397b43e9ede12b93f5304776", "type": "electric_bike", "is_reserved": 0, "lon": -76.944427}, {"fusion_lat": 0.0, "name": "2d0a4ef3b3c4c47ba97d524cfea1bbeb", "is_disabled": 0, "rental_uris": {"android": "https://dc.lft.to/lastmile_qr_scan", "ios": "https://dc.lft.to/lastmile_qr_scan"}, "fusion_lon": 0.0, "lat": 38.905353, "bike_id": "2d0a4ef3b3c4c47ba97d524cfea1bbeb", "type": "electric_scooter", "is_reserved": 0, "lon": -77.03647783333334}, {"fusion_lat": 0.0, "name": "8a70c2efdc2ae8d25262daed8d282a36", "is_disabled": 0, "rental_uris": {"android": "https://dc.lft.to/lastmile_qr_scan", "ios": "https://dc.lft.to/lastmile_qr_scan"}, "fusion_lon": 0.0, "lat": 38.9287525, "bike_id": "8a70c2efdc2ae8d25262daed8d282a36", "type": "electric_scooter", "is_reserved": 0, "lon": -77.01359083333334}, {"fusion_lat": 0.0, "name": "442d91ec976e555971db89198b091468", "is_disabled": 0, "rental_uris": {"android": "https://dc.lft.to/lastmile_qr_scan", "ios": "https://dc.lft.to/lastmile_qr_scan"}, "fusion_lon": 0.0, "lat": 38.874009666666666, "bike_id": "442d91ec976e555971db89198b091468", "type": "electric_scooter", "is_reserved": 0, "lon": -77.00062}, {"fusion_lat": 0.0, "name": "afe5c7325ed10a9552d0c251cb969924", "is_disabled": 0, "rental_uris": {"android": "https://dc.lft.to/lastmile_qr_scan", "ios": "https://dc.lft.to/lastmile_qr_scan"}, "fusion_lon": 0.0, "lat": 38.9072945, "bike_id": "afe5c7325ed10a9552d0c251cb969924", "type": "electric_scooter", "is_reserved": 0, "lon": -77.02964316666667}, {"fusion_lat": 0.0, "name": "f5d8324b03d305e9ee52d03f0e7b8a2c", "is_disabled": 0, "rental_uris": {"android": "https://dc.lft.to/lastmile_qr_scan", "ios": "https://dc.lft.to/lastmile_qr_scan"}, "fusion_lon": 0.0, "lat": 38.9151985, "bike_id": "f5d8324b03d305e9ee52d03f0e7b8a2c", "type": "electric_scooter", "is_reserved": 0, "lon": -77.01224116666667}, {"fusion_lat": 0.0, "name": "2259a90f74efe97f5f47c12485b727a5", "is_disabled": 0, "rental_uris": {"android": "https://dc.lft.to/lastmile_qr_scan", "ios": "https://dc.lft.to/lastmile_qr_scan"}, "fusion_lon": 0.0, "lat": 38.8782835, "bike_id": "2259a90f74efe97f5f47c12485b727a5", "type": "electric_scooter", "is_reserved": 0, "lon": -77.0080485}, {"fusion_lat": 0.0, "name": "ebe52a01b136a12dad588a32c3e62293", "is_disabled": 0, "rental_uris": {"android": "https://dc.lft.to/lastmile_qr_scan", "ios": "https://dc.lft.to/lastmile_qr_scan"}, "fusion_lon": 0.0, "lat": 38.920786166666666, "bike_id": "ebe52a01b136a12dad588a32c3e62293", "type": "electric_scooter", "is_reserved": 0, "lon": -77.02556333333334}, {"fusion_lat": 0.0, "name": "091fdcbcd062d03bf21cb670edb2d4ee", "is_disabled": 0, "rental_uris": {"android": "https://dc.lft.to/lastmile_qr_scan", "ios": "https://dc.lft.to/lastmile_qr_scan"}, "fusion_lon": 0.0, "lat": 38.87725316666667, "bike_id": "091fdcbcd062d03bf21cb670edb2d4ee", "type": "electric_scooter", "is_reserved": 0, "lon": -77.01761966666666}, {"fusion_lat": 0.0, "name": "da3af9b17a1bfc619508162535bf49dc", "is_disabled": 0, "rental_uris": {"android": "https://dc.lft.to/lastmile_qr_scan", "ios": "https://dc.lft.to/lastmile_qr_scan"}, "fusion_lon": 0.0, "lat": 38.9003985, "bike_id": "da3af9b17a1bfc619508162535bf49dc", "type": "electric_scooter", "is_reserved": 0, "lon": -77.00204116666667}, {"fusion_lat": 0.0, "name": "34d6c2617b7dc52470e84983c5e42964", "is_disabled": 0, "rental_uris": {"android": "https://dc.lft.to/lastmile_qr_scan", "ios": "https://dc.lft.to/lastmile_qr_scan"}, "fusion_lon": 0.0, "lat": 38.907072, "bike_id": "34d6c2617b7dc52470e84983c5e42964", "type": "electric_scooter", "is_reserved": 0, "lon": -77.04956966666667}, {"fusion_lat": 0.0, "name": "8555eff6a5d508e4d57030002b9c0a38", "is_disabled": 0, "rental_uris": {"android": "https://dc.lft.to/lastmile_qr_scan", "ios": "https://dc.lft.to/lastmile_qr_scan"}, "fusion_lon": 0.0, "lat": 38.871042833333334, "bike_id": "8555eff6a5d508e4d57030002b9c0a38", "type": "electric_scooter", "is_reserved": 0, "lon": -76.96574033333333}, {"fusion_lat": 0.0, "name": "d46ae07d530191177be9fb01275e35ee", "is_disabled": 0, "rental_uris": {"android": "https://dc.lft.to/lastmile_qr_scan", "ios": "https://dc.lft.to/lastmile_qr_scan"}, "fusion_lon": 0.0, "lat": 38.90684233333333, "bike_id": "d46ae07d530191177be9fb01275e35ee", "type": "electric_scooter", "is_reserved": 0, "lon": -77.026969}, {"fusion_lat": 0.0, "name": "5e1e1803825637361dd65bf4fb9fb848", "is_disabled": 0, "rental_uris": {"android": "https://dc.lft.to/lastmile_qr_scan", "ios": "https://dc.lft.to/lastmile_qr_scan"}, "fusion_lon": 0.0, "lat": 38.914174833333334, "bike_id": "5e1e1803825637361dd65bf4fb9fb848", "type": "electric_scooter", "is_reserved": 0, "lon": -77.03813083333333}, {"fusion_lat": 0.0, "name": "d8a9a10f543d0387a0c985ec07c5cc73", "is_disabled": 0, "rental_uris": {"android": "https://dc.lft.to/lastmile_qr_scan", "ios": "https://dc.lft.to/lastmile_qr_scan"}, "fusion_lon": 0.0, "lat": 38.896274166666664, "bike_id": "d8a9a10f543d0387a0c985ec07c5cc73", "type": "electric_bike", "is_reserved": 0, "lon": -77.02207033333333}, {"fusion_lat": 0.0, "name": "325d10f19f42099796bdfefbb833682a", "is_disabled": 0, "rental_uris": {"android": "https://dc.lft.to/lastmile_qr_scan", "ios": "https://dc.lft.to/lastmile_qr_scan"}, "fusion_lon": 0.0, "lat": 38.926996, "bike_id": "325d10f19f42099796bdfefbb833682a", "type": "electric_scooter", "is_reserved": 0, "lon": -77.0205895}, {"fusion_lat": 0.0, "name": "067c68f8f50309768dc3d25f2426aa36", "is_disabled": 0, "rental_uris": {"android": "https://dc.lft.to/lastmile_qr_scan", "ios": "https://dc.lft.to/lastmile_qr_scan"}, "fusion_lon": 0.0, "lat": 38.959550166666666, "bike_id": "067c68f8f50309768dc3d25f2426aa36", "type": "electric_bike", "is_reserved": 0, "lon": -77.03057966666667}, {"fusion_lat": 0.0, "name": "65a99a3ea4944812529a58740104b70e", "is_disabled": 0, "rental_uris": {"android": "https://dc.lft.to/lastmile_qr_scan", "ios": "https://dc.lft.to/lastmile_qr_scan"}, "fusion_lon": 0.0, "lat": 38.902680333333336, "bike_id": "65a99a3ea4944812529a58740104b70e", "type": "electric_scooter", "is_reserved": 0, "lon": -77.03380466666667}, {"fusion_lat": 0.0, "name": "7c6508c37fc8a657054c0246f4e8f589", "is_disabled": 0, "rental_uris": {"android": "https://dc.lft.to/lastmile_qr_scan", "ios": "https://dc.lft.to/lastmile_qr_scan"}, "fusion_lon": 0.0, "lat": 38.907007, "bike_id": "7c6508c37fc8a657054c0246f4e8f589", "type": "electric_scooter", "is_reserved": 0, "lon": -77.04503983333333}, {"fusion_lat": 0.0, "name": "e7980a2cf6316cc84c8b567639afb236", "is_disabled": 0, "rental_uris": {"android": "https://dc.lft.to/lastmile_qr_scan", "ios": "https://dc.lft.to/lastmile_qr_scan"}, "fusion_lon": 0.0, "lat": 38.906011166666666, "bike_id": "e7980a2cf6316cc84c8b567639afb236", "type": "electric_scooter", "is_reserved": 0, "lon": -77.0715165}, {"fusion_lat": 0.0, "name": "54b4e922de9efa92a37faf95be7262bf", "is_disabled": 0, "rental_uris": {"android": "https://dc.lft.to/lastmile_qr_scan", "ios": "https://dc.lft.to/lastmile_qr_scan"}, "fusion_lon": 0.0, "lat": 38.8923095, "bike_id": "54b4e922de9efa92a37faf95be7262bf", "type": "electric_scooter", "is_reserved": 0, "lon": -77.050017}, {"fusion_lat": 0.0, "name": "97bdd675974c5ba03f6a3bfa461a29b2", "is_disabled": 0, "rental_uris": {"android": "https://dc.lft.to/lastmile_qr_scan", "ios": "https://dc.lft.to/lastmile_qr_scan"}, "fusion_lon": 0.0, "lat": 38.934526166666664, "bike_id": "97bdd675974c5ba03f6a3bfa461a29b2", "type": "electric_scooter", "is_reserved": 0, "lon": -77.03869883333333}, {"fusion_lat": 0.0, "name": "577fd8cc246f3240673be7843ec9a987", "is_disabled": 0, "rental_uris": {"android": "https://dc.lft.to/lastmile_qr_scan", "ios": "https://dc.lft.to/lastmile_qr_scan"}, "fusion_lon": 0.0, "lat": 38.949796, "bike_id": "577fd8cc246f3240673be7843ec9a987", "type": "electric_scooter", "is_reserved": 0, "lon": -77.02450033333334}, {"fusion_lat": 0.0, "name": "d1dac21da9f5dab933713eedf4031a75", "is_disabled": 0, "rental_uris": {"android": "https://dc.lft.to/lastmile_qr_scan", "ios": "https://dc.lft.to/lastmile_qr_scan"}, "fusion_lon": 0.0, "lat": 38.91807266666667, "bike_id": "d1dac21da9f5dab933713eedf4031a75", "type": "electric_scooter", "is_reserved": 0, "lon": -77.027099}, {"fusion_lat": 0.0, "name": "52a3d64a3c2014826bacd66683d29002", "is_disabled": 0, "rental_uris": {"android": "https://dc.lft.to/lastmile_qr_scan", "ios": "https://dc.lft.to/lastmile_qr_scan"}, "fusion_lon": 0.0, "lat": 38.905959833333334, "bike_id": "52a3d64a3c2014826bacd66683d29002", "type": "electric_scooter", "is_reserved": 0, "lon": -77.0260345}, {"fusion_lat": 0.0, "name": "f8b39c8888275ec3de582fe3f9dd9b78", "is_disabled": 0, "rental_uris": {"android": "https://dc.lft.to/lastmile_qr_scan", "ios": "https://dc.lft.to/lastmile_qr_scan"}, "fusion_lon": 0.0, "lat": 38.899923666666666, "bike_id": "f8b39c8888275ec3de582fe3f9dd9b78", "type": "electric_scooter", "is_reserved": 0, "lon": -77.02305666666666}, {"fusion_lat": 0.0, "name": "81789f0e11d8f56bdb00c50a08483679", "is_disabled": 0, "rental_uris": {"android": "https://dc.lft.to/lastmile_qr_scan", "ios": "https://dc.lft.to/lastmile_qr_scan"}, "fusion_lon": 0.0, "lat": 38.911208, "bike_id": "81789f0e11d8f56bdb00c50a08483679", "type": "electric_scooter", "is_reserved": 0, "lon": -77.0383475}, {"fusion_lat": 0.0, "name": "cc5561ec47a8e27adc5a45a802ec90bf", "is_disabled": 0, "rental_uris": {"android": "https://dc.lft.to/lastmile_qr_scan", "ios": "https://dc.lft.to/lastmile_qr_scan"}, "fusion_lon": 0.0, "lat": 38.90174916666667, "bike_id": "cc5561ec47a8e27adc5a45a802ec90bf", "type": "electric_scooter", "is_reserved": 0, "lon": -77.0417905}, {"fusion_lat": 0.0, "name": "5df68e20316c9359af6c7b4b0338f5de", "is_disabled": 0, "rental_uris": {"android": "https://dc.lft.to/lastmile_qr_scan", "ios": "https://dc.lft.to/lastmile_qr_scan"}, "fusion_lon": 0.0, "lat": 38.879572333333336, "bike_id": "5df68e20316c9359af6c7b4b0338f5de", "type": "electric_scooter", "is_reserved": 0, "lon": -77.00824766666666}, {"fusion_lat": 0.0, "name": "db3915a3568e996f9282f3d5fce441db", "is_disabled": 0, "rental_uris": {"android": "https://dc.lft.to/lastmile_qr_scan", "ios": "https://dc.lft.to/lastmile_qr_scan"}, "fusion_lon": 0.0, "lat": 38.9467865, "bike_id": "db3915a3568e996f9282f3d5fce441db", "type": "electric_bike", "is_reserved": 0, "lon": -76.95674266666667}, {"fusion_lat": 0.0, "name": "35a12ff14d11b36e22b868f1ffdee93e", "is_disabled": 0, "rental_uris": {"android": "https://dc.lft.to/lastmile_qr_scan", "ios": "https://dc.lft.to/lastmile_qr_scan"}, "fusion_lon": 0.0, "lat": 38.89637916666667, "bike_id": "35a12ff14d11b36e22b868f1ffdee93e", "type": "electric_scooter", "is_reserved": 0, "lon": -77.02135183333333}, {"fusion_lat": 0.0, "name": "133dc2dac9578674b2a256b4b71fa1c9", "is_disabled": 0, "rental_uris": {"android": "https://dc.lft.to/lastmile_qr_scan", "ios": "https://dc.lft.to/lastmile_qr_scan"}, "fusion_lon": 0.0, "lat": 38.919191, "bike_id": "133dc2dac9578674b2a256b4b71fa1c9", "type": "electric_scooter", "is_reserved": 0, "lon": -77.0337305}, {"fusion_lat": 0.0, "name": "35eba86e215124327526f8ef98700afa", "is_disabled": 0, "rental_uris": {"android": "https://dc.lft.to/lastmile_qr_scan", "ios": "https://dc.lft.to/lastmile_qr_scan"}, "fusion_lon": 0.0, "lat": 38.938783666666666, "bike_id": "35eba86e215124327526f8ef98700afa", "type": "electric_scooter", "is_reserved": 0, "lon": -77.02920716666667}, {"fusion_lat": 0.0, "name": "a1a0e2678e47a4330c2bf441851b03aa", "is_disabled": 0, "rental_uris": {"android": "https://dc.lft.to/lastmile_qr_scan", "ios": "https://dc.lft.to/lastmile_qr_scan"}, "fusion_lon": 0.0, "lat": 38.92041233333333, "bike_id": "a1a0e2678e47a4330c2bf441851b03aa", "type": "electric_scooter", "is_reserved": 0, "lon": -77.03408733333333}, {"fusion_lat": 0.0, "name": "b22a81d3d46359e2d5ff3b6bf44baa14", "is_disabled": 0, "rental_uris": {"android": "https://dc.lft.to/lastmile_qr_scan", "ios": "https://dc.lft.to/lastmile_qr_scan"}, "fusion_lon": 0.0, "lat": 38.962352, "bike_id": "b22a81d3d46359e2d5ff3b6bf44baa14", "type": "electric_bike", "is_reserved": 0, "lon": -76.92799}, {"fusion_lat": 0.0, "name": "bcce20570d10167a31f7c100280f6e4f", "is_disabled": 0, "rental_uris": {"android": "https://dc.lft.to/lastmile_qr_scan", "ios": "https://dc.lft.to/lastmile_qr_scan"}, "fusion_lon": 0.0, "lat": 38.92734633333333, "bike_id": "bcce20570d10167a31f7c100280f6e4f", "type": "electric_scooter", "is_reserved": 0, "lon": -77.02278033333333}, {"fusion_lat": 0.0, "name": "5bfb261358e71d4fa8ff6ed4ab14fc13", "is_disabled": 0, "rental_uris": {"android": "https://dc.lft.to/lastmile_qr_scan", "ios": "https://dc.lft.to/lastmile_qr_scan"}, "fusion_lon": 0.0, "lat": 38.920348833333335, "bike_id": "5bfb261358e71d4fa8ff6ed4ab14fc13", "type": "electric_scooter", "is_reserved": 0, "lon": -76.9899595}, {"fusion_lat": 0.0, "name": "410099595d7c2d6715c473d575b7e590", "is_disabled": 0, "rental_uris": {"android": "https://dc.lft.to/lastmile_qr_scan", "ios": "https://dc.lft.to/lastmile_qr_scan"}, "fusion_lon": 0.0, "lat": 38.94835883333333, "bike_id": "410099595d7c2d6715c473d575b7e590", "type": "electric_scooter", "is_reserved": 0, "lon": -77.02571716666667}, {"fusion_lat": 0.0, "name": "7a2ca651d5601134f030fb9df414b9ac", "is_disabled": 0, "rental_uris": {"android": "https://dc.lft.to/lastmile_qr_scan", "ios": "https://dc.lft.to/lastmile_qr_scan"}, "fusion_lon": 0.0, "lat": 38.90369316666666, "bike_id": "7a2ca651d5601134f030fb9df414b9ac", "type": "electric_scooter", "is_reserved": 0, "lon": -77.03771633333334}, {"fusion_lat": 0.0, "name": "7674f194ffb73c6d4708db17089ec5fc", "is_disabled": 0, "rental_uris": {"android": "https://dc.lft.to/lastmile_qr_scan", "ios": "https://dc.lft.to/lastmile_qr_scan"}, "fusion_lon": 0.0, "lat": 38.807506000000004, "bike_id": "7674f194ffb73c6d4708db17089ec5fc", "type": "electric_bike", "is_reserved": 0, "lon": -77.09453516666666}, {"fusion_lat": 0.0, "name": "38ead8110f6a3daf4395b900a70c189a", "is_disabled": 0, "rental_uris": {"android": "https://dc.lft.to/lastmile_qr_scan", "ios": "https://dc.lft.to/lastmile_qr_scan"}, "fusion_lon": 0.0, "lat": 38.854271, "bike_id": "38ead8110f6a3daf4395b900a70c189a", "type": "electric_bike", "is_reserved": 0, "lon": -77.1207905}, {"fusion_lat": 0.0, "name": "0c7c5e9461f63acf7ef3b957badcb612", "is_disabled": 0, "rental_uris": {"android": "https://dc.lft.to/lastmile_qr_scan", "ios": "https://dc.lft.to/lastmile_qr_scan"}, "fusion_lon": 0.0, "lat": 38.93154716666667, "bike_id": "0c7c5e9461f63acf7ef3b957badcb612", "type": "electric_scooter", "is_reserved": 0, "lon": -77.039587}, {"fusion_lat": 0.0, "name": "1fa8c1ceb12e2ce232ea275594288896", "is_disabled": 0, "rental_uris": {"android": "https://dc.lft.to/lastmile_qr_scan", "ios": "https://dc.lft.to/lastmile_qr_scan"}, "fusion_lon": 0.0, "lat": 38.9061225, "bike_id": "1fa8c1ceb12e2ce232ea275594288896", "type": "electric_scooter", "is_reserved": 0, "lon": -77.04166116666667}, {"fusion_lat": 0.0, "name": "042901c507bb46138fe2230ab18d0eac", "is_disabled": 0, "rental_uris": {"android": "https://dc.lft.to/lastmile_qr_scan", "ios": "https://dc.lft.to/lastmile_qr_scan"}, "fusion_lon": 0.0, "lat": 38.905736, "bike_id": "042901c507bb46138fe2230ab18d0eac", "type": "electric_scooter", "is_reserved": 0, "lon": -77.0056065}, {"fusion_lat": 0.0, "name": "7b6545db775f47e6232891577297f836", "is_disabled": 0, "rental_uris": {"android": "https://dc.lft.to/lastmile_qr_scan", "ios": "https://dc.lft.to/lastmile_qr_scan"}, "fusion_lon": 0.0, "lat": 38.92688783333333, "bike_id": "7b6545db775f47e6232891577297f836", "type": "electric_scooter", "is_reserved": 0, "lon": -77.0254445}, {"fusion_lat": 0.0, "name": "e6a91676909c5e7699a793d93b5229c2", "is_disabled": 0, "rental_uris": {"android": "https://dc.lft.to/lastmile_qr_scan", "ios": "https://dc.lft.to/lastmile_qr_scan"}, "fusion_lon": 0.0, "lat": 38.940806333333335, "bike_id": "e6a91676909c5e7699a793d93b5229c2", "type": "electric_scooter", "is_reserved": 0, "lon": -77.052151}, {"fusion_lat": 0.0, "name": "0521b7cd725b8d782c32e18d3894ed57", "is_disabled": 0, "rental_uris": {"android": "https://dc.lft.to/lastmile_qr_scan", "ios": "https://dc.lft.to/lastmile_qr_scan"}, "fusion_lon": 0.0, "lat": 38.911047333333336, "bike_id": "0521b7cd725b8d782c32e18d3894ed57", "type": "electric_scooter", "is_reserved": 0, "lon": -77.0383795}, {"fusion_lat": 0.0, "name": "56f348b9f91c7dc160ac7a5e5e62bbf2", "is_disabled": 0, "rental_uris": {"android": "https://dc.lft.to/lastmile_qr_scan", "ios": "https://dc.lft.to/lastmile_qr_scan"}, "fusion_lon": 0.0, "lat": 38.9199845, "bike_id": "56f348b9f91c7dc160ac7a5e5e62bbf2", "type": "electric_scooter", "is_reserved": 0, "lon": -77.07186533333334}, {"fusion_lat": 0.0, "name": "d53b88074c874fa6d0071fb88ace14da", "is_disabled": 0, "rental_uris": {"android": "https://dc.lft.to/lastmile_qr_scan", "ios": "https://dc.lft.to/lastmile_qr_scan"}, "fusion_lon": 0.0, "lat": 38.88308, "bike_id": "d53b88074c874fa6d0071fb88ace14da", "type": "electric_bike", "is_reserved": 0, "lon": -77.0155955}, {"fusion_lat": 0.0, "name": "bee7e6f546db3e8510e58467d770b527", "is_disabled": 0, "rental_uris": {"android": "https://dc.lft.to/lastmile_qr_scan", "ios": "https://dc.lft.to/lastmile_qr_scan"}, "fusion_lon": 0.0, "lat": 38.882985833333336, "bike_id": "bee7e6f546db3e8510e58467d770b527", "type": "electric_scooter", "is_reserved": 0, "lon": -76.94854133333334}, {"fusion_lat": 0.0, "name": "70fc4183554ac59330b03dfac383caef", "is_disabled": 0, "rental_uris": {"android": "https://dc.lft.to/lastmile_qr_scan", "ios": "https://dc.lft.to/lastmile_qr_scan"}, "fusion_lon": 0.0, "lat": 38.907577, "bike_id": "70fc4183554ac59330b03dfac383caef", "type": "electric_scooter", "is_reserved": 0, "lon": -77.03842716666666}, {"fusion_lat": 0.0, "name": "038fd56884bce2240b2419e2b9758dab", "is_disabled": 0, "rental_uris": {"android": "https://dc.lft.to/lastmile_qr_scan", "ios": "https://dc.lft.to/lastmile_qr_scan"}, "fusion_lon": 0.0, "lat": 38.886791833333334, "bike_id": "038fd56884bce2240b2419e2b9758dab", "type": "electric_scooter", "is_reserved": 0, "lon": -77.01984183333333}, {"fusion_lat": 0.0, "name": "93681dfd97b6b7690771a05a5976d29f", "is_disabled": 0, "rental_uris": {"android": "https://dc.lft.to/lastmile_qr_scan", "ios": "https://dc.lft.to/lastmile_qr_scan"}, "fusion_lon": 0.0, "lat": 38.92249533333333, "bike_id": "93681dfd97b6b7690771a05a5976d29f", "type": "electric_scooter", "is_reserved": 0, "lon": -77.01952483333334}, {"fusion_lat": 0.0, "name": "d9060cc471f08bac3ce7946f9b171ded", "is_disabled": 0, "rental_uris": {"android": "https://dc.lft.to/lastmile_qr_scan", "ios": "https://dc.lft.to/lastmile_qr_scan"}, "fusion_lon": 0.0, "lat": 38.9073525, "bike_id": "d9060cc471f08bac3ce7946f9b171ded", "type": "electric_scooter", "is_reserved": 0, "lon": -77.03455883333334}, {"fusion_lat": 0.0, "name": "b641a051bed0a3b8e5133ecfb136518b", "is_disabled": 0, "rental_uris": {"android": "https://dc.lft.to/lastmile_qr_scan", "ios": "https://dc.lft.to/lastmile_qr_scan"}, "fusion_lon": 0.0, "lat": 38.918043833333336, "bike_id": "b641a051bed0a3b8e5133ecfb136518b", "type": "electric_scooter", "is_reserved": 0, "lon": -77.0344145}, {"fusion_lat": 0.0, "name": "f1413985841ece3d13df007226fb6ea2", "is_disabled": 0, "rental_uris": {"android": "https://dc.lft.to/lastmile_qr_scan", "ios": "https://dc.lft.to/lastmile_qr_scan"}, "fusion_lon": 0.0, "lat": 38.919174166666664, "bike_id": "f1413985841ece3d13df007226fb6ea2", "type": "electric_scooter", "is_reserved": 0, "lon": -77.01363533333334}, {"fusion_lat": 0.0, "name": "5fe893ee088b0dbda79a9a0f525974aa", "is_disabled": 0, "rental_uris": {"android": "https://dc.lft.to/lastmile_qr_scan", "ios": "https://dc.lft.to/lastmile_qr_scan"}, "fusion_lon": 0.0, "lat": 38.91338983333333, "bike_id": "5fe893ee088b0dbda79a9a0f525974aa", "type": "electric_scooter", "is_reserved": 0, "lon": -77.04790983333334}, {"fusion_lat": 0.0, "name": "b20f810c01b32c9d679d702d6039c180", "is_disabled": 0, "rental_uris": {"android": "https://dc.lft.to/lastmile_qr_scan", "ios": "https://dc.lft.to/lastmile_qr_scan"}, "fusion_lon": 0.0, "lat": 38.92549283333334, "bike_id": "b20f810c01b32c9d679d702d6039c180", "type": "electric_scooter", "is_reserved": 0, "lon": -77.04292033333333}, {"fusion_lat": 0.0, "name": "a674602d879f755d9ac682e5ff40bd55", "is_disabled": 0, "rental_uris": {"android": "https://dc.lft.to/lastmile_qr_scan", "ios": "https://dc.lft.to/lastmile_qr_scan"}, "fusion_lon": 0.0, "lat": 38.920201666666664, "bike_id": "a674602d879f755d9ac682e5ff40bd55", "type": "electric_scooter", "is_reserved": 0, "lon": -77.0712415}, {"fusion_lat": 0.0, "name": "562a5e8faf874804ef9e6451f6e61ff0", "is_disabled": 0, "rental_uris": {"android": "https://dc.lft.to/lastmile_qr_scan", "ios": "https://dc.lft.to/lastmile_qr_scan"}, "fusion_lon": 0.0, "lat": 38.91719116666667, "bike_id": "562a5e8faf874804ef9e6451f6e61ff0", "type": "electric_scooter", "is_reserved": 0, "lon": -77.03199583333334}, {"fusion_lat": 0.0, "name": "72484d622f2bdc39ffd2203be2dc1874", "is_disabled": 0, "rental_uris": {"android": "https://dc.lft.to/lastmile_qr_scan", "ios": "https://dc.lft.to/lastmile_qr_scan"}, "fusion_lon": 0.0, "lat": 38.926168833333335, "bike_id": "72484d622f2bdc39ffd2203be2dc1874", "type": "electric_scooter", "is_reserved": 0, "lon": -77.04325183333333}, {"fusion_lat": 0.0, "name": "5b6be47c7b46168ca037c2b6df8bbcdb", "is_disabled": 0, "rental_uris": {"android": "https://dc.lft.to/lastmile_qr_scan", "ios": "https://dc.lft.to/lastmile_qr_scan"}, "fusion_lon": 0.0, "lat": 38.953826166666666, "bike_id": "5b6be47c7b46168ca037c2b6df8bbcdb", "type": "electric_bike", "is_reserved": 0, "lon": -76.97960933333333}, {"fusion_lat": 0.0, "name": "4727dd4425f36c13cb601347e5367990", "is_disabled": 0, "rental_uris": {"android": "https://dc.lft.to/lastmile_qr_scan", "ios": "https://dc.lft.to/lastmile_qr_scan"}, "fusion_lon": 0.0, "lat": 38.889881833333334, "bike_id": "4727dd4425f36c13cb601347e5367990", "type": "electric_scooter", "is_reserved": 0, "lon": -77.003356}, {"fusion_lat": 0.0, "name": "baeb0c3497091e276f8ee8ed2440af55", "is_disabled": 0, "rental_uris": {"android": "https://dc.lft.to/lastmile_qr_scan", "ios": "https://dc.lft.to/lastmile_qr_scan"}, "fusion_lon": 0.0, "lat": 38.89665166666666, "bike_id": "baeb0c3497091e276f8ee8ed2440af55", "type": "electric_scooter", "is_reserved": 0, "lon": -77.02460866666667}, {"fusion_lat": 0.0, "name": "d5b02d0a9f06ee13adf69f0715b81a18", "is_disabled": 0, "rental_uris": {"android": "https://dc.lft.to/lastmile_qr_scan", "ios": "https://dc.lft.to/lastmile_qr_scan"}, "fusion_lon": 0.0, "lat": 38.91094366666667, "bike_id": "d5b02d0a9f06ee13adf69f0715b81a18", "type": "electric_scooter", "is_reserved": 0, "lon": -77.073525}, {"fusion_lat": 0.0, "name": "43abe5686c07853e1767d9b99357f108", "is_disabled": 0, "rental_uris": {"android": "https://dc.lft.to/lastmile_qr_scan", "ios": "https://dc.lft.to/lastmile_qr_scan"}, "fusion_lon": 0.0, "lat": 38.905649833333335, "bike_id": "43abe5686c07853e1767d9b99357f108", "type": "electric_scooter", "is_reserved": 0, "lon": -77.03475366666666}, {"fusion_lat": 0.0, "name": "63a243257cde36b67b97b82c2587edf3", "is_disabled": 0, "rental_uris": {"android": "https://dc.lft.to/lastmile_qr_scan", "ios": "https://dc.lft.to/lastmile_qr_scan"}, "fusion_lon": 0.0, "lat": 38.876365, "bike_id": "63a243257cde36b67b97b82c2587edf3", "type": "electric_scooter", "is_reserved": 0, "lon": -77.00817283333333}, {"fusion_lat": 0.0, "name": "8bcc13c1ace765050334c77023c8691c", "is_disabled": 0, "rental_uris": {"android": "https://dc.lft.to/lastmile_qr_scan", "ios": "https://dc.lft.to/lastmile_qr_scan"}, "fusion_lon": 0.0, "lat": 38.899553833333336, "bike_id": "8bcc13c1ace765050334c77023c8691c", "type": "electric_scooter", "is_reserved": 0, "lon": -77.0570315}, {"fusion_lat": 0.0, "name": "08eaa01cc0d65bd100871f2078312fc4", "is_disabled": 0, "rental_uris": {"android": "https://dc.lft.to/lastmile_qr_scan", "ios": "https://dc.lft.to/lastmile_qr_scan"}, "fusion_lon": 0.0, "lat": 38.87654083333334, "bike_id": "08eaa01cc0d65bd100871f2078312fc4", "type": "electric_scooter", "is_reserved": 0, "lon": -77.00753333333333}, {"fusion_lat": 0.0, "name": "16067e6f18bb9eaae366bd11f1b88dcc", "is_disabled": 0, "rental_uris": {"android": "https://dc.lft.to/lastmile_qr_scan", "ios": "https://dc.lft.to/lastmile_qr_scan"}, "fusion_lon": 0.0, "lat": 38.874664333333335, "bike_id": "16067e6f18bb9eaae366bd11f1b88dcc", "type": "electric_scooter", "is_reserved": 0, "lon": -77.00558816666667}, {"fusion_lat": 0.0, "name": "cf811800e4b04def11c211b39517778a", "is_disabled": 0, "rental_uris": {"android": "https://dc.lft.to/lastmile_qr_scan", "ios": "https://dc.lft.to/lastmile_qr_scan"}, "fusion_lon": 0.0, "lat": 38.933817, "bike_id": "cf811800e4b04def11c211b39517778a", "type": "electric_scooter", "is_reserved": 0, "lon": -77.038899}, {"fusion_lat": 0.0, "name": "ce3fa317b699bedf18c4766326405e16", "is_disabled": 0, "rental_uris": {"android": "https://dc.lft.to/lastmile_qr_scan", "ios": "https://dc.lft.to/lastmile_qr_scan"}, "fusion_lon": 0.0, "lat": 38.92633516666667, "bike_id": "ce3fa317b699bedf18c4766326405e16", "type": "electric_scooter", "is_reserved": 0, "lon": -77.03500183333334}, {"fusion_lat": 0.0, "name": "ddf7df75a9a461f6f916723d8f0338ad", "is_disabled": 0, "rental_uris": {"android": "https://dc.lft.to/lastmile_qr_scan", "ios": "https://dc.lft.to/lastmile_qr_scan"}, "fusion_lon": 0.0, "lat": 38.93601316666667, "bike_id": "ddf7df75a9a461f6f916723d8f0338ad", "type": "electric_scooter", "is_reserved": 0, "lon": -77.03652566666666}, {"fusion_lat": 0.0, "name": "d705f11a26c442a22c229d135e06be72", "is_disabled": 0, "rental_uris": {"android": "https://dc.lft.to/lastmile_qr_scan", "ios": "https://dc.lft.to/lastmile_qr_scan"}, "fusion_lon": 0.0, "lat": 38.92460033333333, "bike_id": "d705f11a26c442a22c229d135e06be72", "type": "electric_scooter", "is_reserved": 0, "lon": -76.99913866666667}, {"fusion_lat": 0.0, "name": "ed3bc8449705751fbb816635981e0938", "is_disabled": 0, "rental_uris": {"android": "https://dc.lft.to/lastmile_qr_scan", "ios": "https://dc.lft.to/lastmile_qr_scan"}, "fusion_lon": 0.0, "lat": 38.91290866666667, "bike_id": "ed3bc8449705751fbb816635981e0938", "type": "electric_scooter", "is_reserved": 0, "lon": -77.0451655}, {"fusion_lat": 0.0, "name": "f184d763df70caa6e15c2f75a0e6b188", "is_disabled": 0, "rental_uris": {"android": "https://dc.lft.to/lastmile_qr_scan", "ios": "https://dc.lft.to/lastmile_qr_scan"}, "fusion_lon": 0.0, "lat": 38.965939, "bike_id": "f184d763df70caa6e15c2f75a0e6b188", "type": "electric_scooter", "is_reserved": 0, "lon": -77.01595783333333}, {"fusion_lat": 0.0, "name": "c4d24f0a21d8b1c386b7e506f976a753", "is_disabled": 0, "rental_uris": {"android": "https://dc.lft.to/lastmile_qr_scan", "ios": "https://dc.lft.to/lastmile_qr_scan"}, "fusion_lon": 0.0, "lat": 38.90821433333333, "bike_id": "c4d24f0a21d8b1c386b7e506f976a753", "type": "electric_scooter", "is_reserved": 0, "lon": -77.03654333333333}, {"fusion_lat": 0.0, "name": "085a5784b2cc7ba984e9923326dde249", "is_disabled": 0, "rental_uris": {"android": "https://dc.lft.to/lastmile_qr_scan", "ios": "https://dc.lft.to/lastmile_qr_scan"}, "fusion_lon": 0.0, "lat": 38.922004333333334, "bike_id": "085a5784b2cc7ba984e9923326dde249", "type": "electric_scooter", "is_reserved": 0, "lon": -77.0808215}, {"fusion_lat": 0.0, "name": "0395db2da2e4ced09387d5a3f493dc32", "is_disabled": 0, "rental_uris": {"android": "https://dc.lft.to/lastmile_qr_scan", "ios": "https://dc.lft.to/lastmile_qr_scan"}, "fusion_lon": 0.0, "lat": 38.915504166666665, "bike_id": "0395db2da2e4ced09387d5a3f493dc32", "type": "electric_scooter", "is_reserved": 0, "lon": -77.031359}, {"fusion_lat": 0.0, "name": "1c946fd9a7c64a5f045d744f1a090b92", "is_disabled": 0, "rental_uris": {"android": "https://dc.lft.to/lastmile_qr_scan", "ios": "https://dc.lft.to/lastmile_qr_scan"}, "fusion_lon": 0.0, "lat": 38.91438516666667, "bike_id": "1c946fd9a7c64a5f045d744f1a090b92", "type": "electric_scooter", "is_reserved": 0, "lon": -77.0449085}, {"fusion_lat": 0.0, "name": "f804c53163677da069bf23231afc4952", "is_disabled": 0, "rental_uris": {"android": "https://dc.lft.to/lastmile_qr_scan", "ios": "https://dc.lft.to/lastmile_qr_scan"}, "fusion_lon": 0.0, "lat": 38.89294116666667, "bike_id": "f804c53163677da069bf23231afc4952", "type": "electric_scooter", "is_reserved": 0, "lon": -77.0487685}, {"fusion_lat": 0.0, "name": "2c663d73214a8467751c1772498d992f", "is_disabled": 0, "rental_uris": {"android": "https://dc.lft.to/lastmile_qr_scan", "ios": "https://dc.lft.to/lastmile_qr_scan"}, "fusion_lon": 0.0, "lat": 38.904938, "bike_id": "2c663d73214a8467751c1772498d992f", "type": "electric_scooter", "is_reserved": 0, "lon": -77.04660866666667}, {"fusion_lat": 0.0, "name": "4c2101e9172d6a52fd6417e04e21206e", "is_disabled": 0, "rental_uris": {"android": "https://dc.lft.to/lastmile_qr_scan", "ios": "https://dc.lft.to/lastmile_qr_scan"}, "fusion_lon": 0.0, "lat": 38.95799016666667, "bike_id": "4c2101e9172d6a52fd6417e04e21206e", "type": "electric_bike", "is_reserved": 0, "lon": -76.9604715}, {"fusion_lat": 0.0, "name": "764be4dc249d689ea4650f8e06882d6d", "is_disabled": 0, "rental_uris": {"android": "https://dc.lft.to/lastmile_qr_scan", "ios": "https://dc.lft.to/lastmile_qr_scan"}, "fusion_lon": 0.0, "lat": 38.925090833333336, "bike_id": "764be4dc249d689ea4650f8e06882d6d", "type": "electric_scooter", "is_reserved": 0, "lon": -77.05226166666667}, {"fusion_lat": 0.0, "name": "581616a2c4e505fa6b8b2e9517c0a34d", "is_disabled": 0, "rental_uris": {"android": "https://dc.lft.to/lastmile_qr_scan", "ios": "https://dc.lft.to/lastmile_qr_scan"}, "fusion_lon": 0.0, "lat": 38.889858833333335, "bike_id": "581616a2c4e505fa6b8b2e9517c0a34d", "type": "electric_scooter", "is_reserved": 0, "lon": -76.91417983333334}, {"fusion_lat": 0.0, "name": "ae046abf7136c0832de067e75f7e798e", "is_disabled": 0, "rental_uris": {"android": "https://dc.lft.to/lastmile_qr_scan", "ios": "https://dc.lft.to/lastmile_qr_scan"}, "fusion_lon": 0.0, "lat": 38.90719833333333, "bike_id": "ae046abf7136c0832de067e75f7e798e", "type": "electric_scooter", "is_reserved": 0, "lon": -77.03201516666667}, {"fusion_lat": 0.0, "name": "5337985ceaa6cb74f91cab31d33fc5ae", "is_disabled": 0, "rental_uris": {"android": "https://dc.lft.to/lastmile_qr_scan", "ios": "https://dc.lft.to/lastmile_qr_scan"}, "fusion_lon": 0.0, "lat": 38.920442333333334, "bike_id": "5337985ceaa6cb74f91cab31d33fc5ae", "type": "electric_scooter", "is_reserved": 0, "lon": -77.01795666666666}, {"fusion_lat": 0.0, "name": "8aa04e3517d638650068b7e07fca1ab0", "is_disabled": 0, "rental_uris": {"android": "https://dc.lft.to/lastmile_qr_scan", "ios": "https://dc.lft.to/lastmile_qr_scan"}, "fusion_lon": 0.0, "lat": 38.908462166666666, "bike_id": "8aa04e3517d638650068b7e07fca1ab0", "type": "electric_scooter", "is_reserved": 0, "lon": -77.04667216666667}, {"fusion_lat": 0.0, "name": "0c447d03e67b24ff6ca95a7bc7a2f473", "is_disabled": 0, "rental_uris": {"android": "https://dc.lft.to/lastmile_qr_scan", "ios": "https://dc.lft.to/lastmile_qr_scan"}, "fusion_lon": 0.0, "lat": 38.915615833333334, "bike_id": "0c447d03e67b24ff6ca95a7bc7a2f473", "type": "electric_scooter", "is_reserved": 0, "lon": -77.0386035}, {"fusion_lat": 0.0, "name": "f71383ff1bf406e11fa694402c5988f9", "is_disabled": 0, "rental_uris": {"android": "https://dc.lft.to/lastmile_qr_scan", "ios": "https://dc.lft.to/lastmile_qr_scan"}, "fusion_lon": 0.0, "lat": 38.95081066666667, "bike_id": "f71383ff1bf406e11fa694402c5988f9", "type": "electric_bike", "is_reserved": 0, "lon": -77.011978}, {"fusion_lat": 0.0, "name": "fb81d98c66e34cb2b0f981ab7cda78ad", "is_disabled": 0, "rental_uris": {"android": "https://dc.lft.to/lastmile_qr_scan", "ios": "https://dc.lft.to/lastmile_qr_scan"}, "fusion_lon": 0.0, "lat": 38.8974505, "bike_id": "fb81d98c66e34cb2b0f981ab7cda78ad", "type": "electric_scooter", "is_reserved": 0, "lon": -77.04823833333333}, {"fusion_lat": 0.0, "name": "6451e71855bf915d555a29b9335a719c", "is_disabled": 0, "rental_uris": {"android": "https://dc.lft.to/lastmile_qr_scan", "ios": "https://dc.lft.to/lastmile_qr_scan"}, "fusion_lon": 0.0, "lat": 38.878109, "bike_id": "6451e71855bf915d555a29b9335a719c", "type": "electric_scooter", "is_reserved": 0, "lon": -77.0153155}, {"fusion_lat": 0.0, "name": "296e4e1d8f6cf1651bf2af84c47a8e15", "is_disabled": 0, "rental_uris": {"android": "https://dc.lft.to/lastmile_qr_scan", "ios": "https://dc.lft.to/lastmile_qr_scan"}, "fusion_lon": 0.0, "lat": 38.87132666666667, "bike_id": "296e4e1d8f6cf1651bf2af84c47a8e15", "type": "electric_scooter", "is_reserved": 0, "lon": -77.01223033333333}, {"fusion_lat": 0.0, "name": "139350fc111ff01850b3f2cfa4d8cfe8", "is_disabled": 0, "rental_uris": {"android": "https://dc.lft.to/lastmile_qr_scan", "ios": "https://dc.lft.to/lastmile_qr_scan"}, "fusion_lon": 0.0, "lat": 38.935754833333334, "bike_id": "139350fc111ff01850b3f2cfa4d8cfe8", "type": "electric_scooter", "is_reserved": 0, "lon": -77.01924316666667}, {"fusion_lat": 0.0, "name": "94bb755d6af9a2668a95cf85c4546350", "is_disabled": 0, "rental_uris": {"android": "https://dc.lft.to/lastmile_qr_scan", "ios": "https://dc.lft.to/lastmile_qr_scan"}, "fusion_lon": 0.0, "lat": 38.916120166666666, "bike_id": "94bb755d6af9a2668a95cf85c4546350", "type": "electric_scooter", "is_reserved": 0, "lon": -77.04585033333333}, {"fusion_lat": 0.0, "name": "b1bce33decab176baf93f65df1d4469b", "is_disabled": 0, "rental_uris": {"android": "https://dc.lft.to/lastmile_qr_scan", "ios": "https://dc.lft.to/lastmile_qr_scan"}, "fusion_lon": 0.0, "lat": 38.92249566666667, "bike_id": "b1bce33decab176baf93f65df1d4469b", "type": "electric_scooter", "is_reserved": 0, "lon": -77.03383983333333}, {"fusion_lat": 0.0, "name": "76d4fe76b0edbbfa2d4d92da80d9a1ca", "is_disabled": 0, "rental_uris": {"android": "https://dc.lft.to/lastmile_qr_scan", "ios": "https://dc.lft.to/lastmile_qr_scan"}, "fusion_lon": 0.0, "lat": 38.932612166666665, "bike_id": "76d4fe76b0edbbfa2d4d92da80d9a1ca", "type": "electric_scooter", "is_reserved": 0, "lon": -77.03456783333333}, {"fusion_lat": 0.0, "name": "aab2b885ca752bbc39a999c39515839e", "is_disabled": 0, "rental_uris": {"android": "https://dc.lft.to/lastmile_qr_scan", "ios": "https://dc.lft.to/lastmile_qr_scan"}, "fusion_lon": 0.0, "lat": 38.91290083333333, "bike_id": "aab2b885ca752bbc39a999c39515839e", "type": "electric_scooter", "is_reserved": 0, "lon": -77.0451385}, {"fusion_lat": 0.0, "name": "9571e096522c6f568df171c31f102d88", "is_disabled": 0, "rental_uris": {"android": "https://dc.lft.to/lastmile_qr_scan", "ios": "https://dc.lft.to/lastmile_qr_scan"}, "fusion_lon": 0.0, "lat": 38.92251516666666, "bike_id": "9571e096522c6f568df171c31f102d88", "type": "electric_scooter", "is_reserved": 0, "lon": -77.04267716666666}, {"fusion_lat": 0.0, "name": "07732fe3c67fd6396e95ede3d15a8a4d", "is_disabled": 0, "rental_uris": {"android": "https://dc.lft.to/lastmile_qr_scan", "ios": "https://dc.lft.to/lastmile_qr_scan"}, "fusion_lon": 0.0, "lat": 38.897738333333336, "bike_id": "07732fe3c67fd6396e95ede3d15a8a4d", "type": "electric_scooter", "is_reserved": 0, "lon": -77.02704616666666}, {"fusion_lat": 0.0, "name": "c6d5efef20ef28a39c35c2ffa748a592", "is_disabled": 0, "rental_uris": {"android": "https://dc.lft.to/lastmile_qr_scan", "ios": "https://dc.lft.to/lastmile_qr_scan"}, "fusion_lon": 0.0, "lat": 38.94177583333333, "bike_id": "c6d5efef20ef28a39c35c2ffa748a592", "type": "electric_scooter", "is_reserved": 0, "lon": -77.03655033333334}, {"fusion_lat": 0.0, "name": "c0637e6d881a80acf747b95ba37097d4", "is_disabled": 0, "rental_uris": {"android": "https://dc.lft.to/lastmile_qr_scan", "ios": "https://dc.lft.to/lastmile_qr_scan"}, "fusion_lon": 0.0, "lat": 38.888738333333336, "bike_id": "c0637e6d881a80acf747b95ba37097d4", "type": "electric_scooter", "is_reserved": 0, "lon": -77.02858283333333}, {"fusion_lat": 0.0, "name": "35a1a02282d925dfe2a9a39a78f6fc5f", "is_disabled": 0, "rental_uris": {"android": "https://dc.lft.to/lastmile_qr_scan", "ios": "https://dc.lft.to/lastmile_qr_scan"}, "fusion_lon": 0.0, "lat": 38.911057666666665, "bike_id": "35a1a02282d925dfe2a9a39a78f6fc5f", "type": "electric_scooter", "is_reserved": 0, "lon": -77.0420295}, {"fusion_lat": 0.0, "name": "2f09b476c8bcda2ad45410d431d7db68", "is_disabled": 0, "rental_uris": {"android": "https://dc.lft.to/lastmile_qr_scan", "ios": "https://dc.lft.to/lastmile_qr_scan"}, "fusion_lon": 0.0, "lat": 38.892367666666665, "bike_id": "2f09b476c8bcda2ad45410d431d7db68", "type": "electric_scooter", "is_reserved": 0, "lon": -77.04897066666666}, {"fusion_lat": 0.0, "name": "68f6f720c74a6b91e7b26c687037fccf", "is_disabled": 0, "rental_uris": {"android": "https://dc.lft.to/lastmile_qr_scan", "ios": "https://dc.lft.to/lastmile_qr_scan"}, "fusion_lon": 0.0, "lat": 38.919836833333335, "bike_id": "68f6f720c74a6b91e7b26c687037fccf", "type": "electric_scooter", "is_reserved": 0, "lon": -77.0408935}, {"fusion_lat": 0.0, "name": "b5b1f5299850ea3a4bda29c56bfa796c", "is_disabled": 0, "rental_uris": {"android": "https://dc.lft.to/lastmile_qr_scan", "ios": "https://dc.lft.to/lastmile_qr_scan"}, "fusion_lon": 0.0, "lat": 38.924594166666665, "bike_id": "b5b1f5299850ea3a4bda29c56bfa796c", "type": "electric_scooter", "is_reserved": 0, "lon": -76.993338}, {"fusion_lat": 0.0, "name": "5408ea939a88c3d8f2a061658f8d7996", "is_disabled": 0, "rental_uris": {"android": "https://dc.lft.to/lastmile_qr_scan", "ios": "https://dc.lft.to/lastmile_qr_scan"}, "fusion_lon": 0.0, "lat": 38.91034033333333, "bike_id": "5408ea939a88c3d8f2a061658f8d7996", "type": "electric_scooter", "is_reserved": 0, "lon": -77.007607}, {"fusion_lat": 0.0, "name": "3883bbe82d164191102c801056c9f001", "is_disabled": 0, "rental_uris": {"android": "https://dc.lft.to/lastmile_qr_scan", "ios": "https://dc.lft.to/lastmile_qr_scan"}, "fusion_lon": 0.0, "lat": 38.9009805, "bike_id": "3883bbe82d164191102c801056c9f001", "type": "electric_scooter", "is_reserved": 0, "lon": -77.01977383333333}, {"fusion_lat": 0.0, "name": "1b3836362b4eff67915c1842b35776a9", "is_disabled": 0, "rental_uris": {"android": "https://dc.lft.to/lastmile_qr_scan", "ios": "https://dc.lft.to/lastmile_qr_scan"}, "fusion_lon": 0.0, "lat": 38.8580585, "bike_id": "1b3836362b4eff67915c1842b35776a9", "type": "electric_bike", "is_reserved": 0, "lon": -76.98744233333333}, {"fusion_lat": 0.0, "name": "3fc65f3c0da5352dc9a2885791438c13", "is_disabled": 0, "rental_uris": {"android": "https://dc.lft.to/lastmile_qr_scan", "ios": "https://dc.lft.to/lastmile_qr_scan"}, "fusion_lon": 0.0, "lat": 38.92067733333333, "bike_id": "3fc65f3c0da5352dc9a2885791438c13", "type": "electric_scooter", "is_reserved": 0, "lon": -76.998639}, {"fusion_lat": 0.0, "name": "20797600e9e8009b8d31324406e4e66d", "is_disabled": 0, "rental_uris": {"android": "https://dc.lft.to/lastmile_qr_scan", "ios": "https://dc.lft.to/lastmile_qr_scan"}, "fusion_lon": 0.0, "lat": 38.928385666666664, "bike_id": "20797600e9e8009b8d31324406e4e66d", "type": "electric_scooter", "is_reserved": 0, "lon": -76.98030933333334}, {"fusion_lat": 0.0, "name": "73ecc04e21357557dcd766113b0c340c", "is_disabled": 0, "rental_uris": {"android": "https://dc.lft.to/lastmile_qr_scan", "ios": "https://dc.lft.to/lastmile_qr_scan"}, "fusion_lon": 0.0, "lat": 38.91721016666666, "bike_id": "73ecc04e21357557dcd766113b0c340c", "type": "electric_scooter", "is_reserved": 0, "lon": -77.00816633333334}, {"fusion_lat": 0.0, "name": "8e6dd0f4555af2bf41fb4d9dfa32245a", "is_disabled": 0, "rental_uris": {"android": "https://dc.lft.to/lastmile_qr_scan", "ios": "https://dc.lft.to/lastmile_qr_scan"}, "fusion_lon": 0.0, "lat": 38.868854666666664, "bike_id": "8e6dd0f4555af2bf41fb4d9dfa32245a", "type": "electric_bike", "is_reserved": 0, "lon": -76.98321433333334}, {"fusion_lat": 0.0, "name": "42396495904d45b0e822ed56f4bf3f5b", "is_disabled": 0, "rental_uris": {"android": "https://dc.lft.to/lastmile_qr_scan", "ios": "https://dc.lft.to/lastmile_qr_scan"}, "fusion_lon": 0.0, "lat": 38.86246666666667, "bike_id": "42396495904d45b0e822ed56f4bf3f5b", "type": "electric_bike", "is_reserved": 0, "lon": -76.98330966666667}, {"fusion_lat": 0.0, "name": "b5b1612d966675b89dd3fc06a72110ca", "is_disabled": 0, "rental_uris": {"android": "https://dc.lft.to/lastmile_qr_scan", "ios": "https://dc.lft.to/lastmile_qr_scan"}, "fusion_lon": 0.0, "lat": 38.923352333333334, "bike_id": "b5b1612d966675b89dd3fc06a72110ca", "type": "electric_scooter", "is_reserved": 0, "lon": -77.03565483333334}, {"fusion_lat": 0.0, "name": "e54d0f7358a33198b02104062ee5b961", "is_disabled": 0, "rental_uris": {"android": "https://dc.lft.to/lastmile_qr_scan", "ios": "https://dc.lft.to/lastmile_qr_scan"}, "fusion_lon": 0.0, "lat": 38.92511416666667, "bike_id": "e54d0f7358a33198b02104062ee5b961", "type": "electric_scooter", "is_reserved": 0, "lon": -77.01952666666666}, {"fusion_lat": 0.0, "name": "66f314fe6821fe13bb289760ba9f5b36", "is_disabled": 0, "rental_uris": {"android": "https://dc.lft.to/lastmile_qr_scan", "ios": "https://dc.lft.to/lastmile_qr_scan"}, "fusion_lon": 0.0, "lat": 38.9348725, "bike_id": "66f314fe6821fe13bb289760ba9f5b36", "type": "electric_scooter", "is_reserved": 0, "lon": -77.03606016666667}, {"fusion_lat": 0.0, "name": "cd28619fa43926388513ff8de92432d4", "is_disabled": 0, "rental_uris": {"android": "https://dc.lft.to/lastmile_qr_scan", "ios": "https://dc.lft.to/lastmile_qr_scan"}, "fusion_lon": 0.0, "lat": 38.89220616666667, "bike_id": "cd28619fa43926388513ff8de92432d4", "type": "electric_scooter", "is_reserved": 0, "lon": -77.0221845}, {"fusion_lat": 0.0, "name": "63ff3969679bdfd78c9896771c9d43a5", "is_disabled": 0, "rental_uris": {"android": "https://dc.lft.to/lastmile_qr_scan", "ios": "https://dc.lft.to/lastmile_qr_scan"}, "fusion_lon": 0.0, "lat": 38.90921783333334, "bike_id": "63ff3969679bdfd78c9896771c9d43a5", "type": "electric_scooter", "is_reserved": 0, "lon": -77.02313066666666}, {"fusion_lat": 0.0, "name": "da3cc1a65d57af7a7e32ef716ef54375", "is_disabled": 0, "rental_uris": {"android": "https://dc.lft.to/lastmile_qr_scan", "ios": "https://dc.lft.to/lastmile_qr_scan"}, "fusion_lon": 0.0, "lat": 38.92318016666667, "bike_id": "da3cc1a65d57af7a7e32ef716ef54375", "type": "electric_scooter", "is_reserved": 0, "lon": -77.041377}, {"fusion_lat": 0.0, "name": "9dbcd09a3c5b4d9673a64c7854bbeee7", "is_disabled": 0, "rental_uris": {"android": "https://dc.lft.to/lastmile_qr_scan", "ios": "https://dc.lft.to/lastmile_qr_scan"}, "fusion_lon": 0.0, "lat": 38.91031, "bike_id": "9dbcd09a3c5b4d9673a64c7854bbeee7", "type": "electric_scooter", "is_reserved": 0, "lon": -77.03426716666667}, {"fusion_lat": 0.0, "name": "6d04ba839f087c2389d51f4b027f7ce5", "is_disabled": 0, "rental_uris": {"android": "https://dc.lft.to/lastmile_qr_scan", "ios": "https://dc.lft.to/lastmile_qr_scan"}, "fusion_lon": 0.0, "lat": 38.919089166666666, "bike_id": "6d04ba839f087c2389d51f4b027f7ce5", "type": "electric_scooter", "is_reserved": 0, "lon": -77.02402283333333}, {"fusion_lat": 0.0, "name": "4ebf04b780882981ef0afecd52c79edc", "is_disabled": 0, "rental_uris": {"android": "https://dc.lft.to/lastmile_qr_scan", "ios": "https://dc.lft.to/lastmile_qr_scan"}, "fusion_lon": 0.0, "lat": 38.905018, "bike_id": "4ebf04b780882981ef0afecd52c79edc", "type": "electric_scooter", "is_reserved": 0, "lon": -77.029615}, {"fusion_lat": 0.0, "name": "06d3c750f67306f9d58e43fac92fa8a2", "is_disabled": 0, "rental_uris": {"android": "https://dc.lft.to/lastmile_qr_scan", "ios": "https://dc.lft.to/lastmile_qr_scan"}, "fusion_lon": 0.0, "lat": 38.91743233333333, "bike_id": "06d3c750f67306f9d58e43fac92fa8a2", "type": "electric_scooter", "is_reserved": 0, "lon": -77.0319035}, {"fusion_lat": 0.0, "name": "30b8803d5c8cf226164de87bde1c0fb5", "is_disabled": 0, "rental_uris": {"android": "https://dc.lft.to/lastmile_qr_scan", "ios": "https://dc.lft.to/lastmile_qr_scan"}, "fusion_lon": 0.0, "lat": 38.918148, "bike_id": "30b8803d5c8cf226164de87bde1c0fb5", "type": "electric_scooter", "is_reserved": 0, "lon": -77.0270925}, {"fusion_lat": 0.0, "name": "8a412a0dc0bad78dcedc0d1db191944b", "is_disabled": 0, "rental_uris": {"android": "https://dc.lft.to/lastmile_qr_scan", "ios": "https://dc.lft.to/lastmile_qr_scan"}, "fusion_lon": 0.0, "lat": 38.899567166666664, "bike_id": "8a412a0dc0bad78dcedc0d1db191944b", "type": "electric_scooter", "is_reserved": 0, "lon": -77.04873183333333}, {"fusion_lat": 0.0, "name": "36bab81e976d29ac26f7d5fcddb5eec1", "is_disabled": 0, "rental_uris": {"android": "https://dc.lft.to/lastmile_qr_scan", "ios": "https://dc.lft.to/lastmile_qr_scan"}, "fusion_lon": 0.0, "lat": 38.92769633333333, "bike_id": "36bab81e976d29ac26f7d5fcddb5eec1", "type": "electric_scooter", "is_reserved": 0, "lon": -77.02309066666666}, {"fusion_lat": 0.0, "name": "ba58674e15e63069536ca3b69eb2b74e", "is_disabled": 0, "rental_uris": {"android": "https://dc.lft.to/lastmile_qr_scan", "ios": "https://dc.lft.to/lastmile_qr_scan"}, "fusion_lon": 0.0, "lat": 38.9111865, "bike_id": "ba58674e15e63069536ca3b69eb2b74e", "type": "electric_scooter", "is_reserved": 0, "lon": -77.01159766666666}, {"fusion_lat": 0.0, "name": "0652bbf036982de5e8a6a749a4168e2d", "is_disabled": 0, "rental_uris": {"android": "https://dc.lft.to/lastmile_qr_scan", "ios": "https://dc.lft.to/lastmile_qr_scan"}, "fusion_lon": 0.0, "lat": 38.9011595, "bike_id": "0652bbf036982de5e8a6a749a4168e2d", "type": "electric_scooter", "is_reserved": 0, "lon": -77.04144883333333}, {"fusion_lat": 0.0, "name": "51af5924a5535955dbebfc1ef0340162", "is_disabled": 0, "rental_uris": {"android": "https://dc.lft.to/lastmile_qr_scan", "ios": "https://dc.lft.to/lastmile_qr_scan"}, "fusion_lon": 0.0, "lat": 38.904254333333334, "bike_id": "51af5924a5535955dbebfc1ef0340162", "type": "electric_scooter", "is_reserved": 0, "lon": -77.02600183333334}, {"fusion_lat": 0.0, "name": "d350a3dfd90e781af4fbe57329a31f79", "is_disabled": 0, "rental_uris": {"android": "https://dc.lft.to/lastmile_qr_scan", "ios": "https://dc.lft.to/lastmile_qr_scan"}, "fusion_lon": 0.0, "lat": 38.90626, "bike_id": "d350a3dfd90e781af4fbe57329a31f79", "type": "electric_scooter", "is_reserved": 0, "lon": -77.04872616666667}, {"fusion_lat": 0.0, "name": "d7ab14f130a843c362b2c23fe93404b9", "is_disabled": 0, "rental_uris": {"android": "https://dc.lft.to/lastmile_qr_scan", "ios": "https://dc.lft.to/lastmile_qr_scan"}, "fusion_lon": 0.0, "lat": 38.92254233333333, "bike_id": "d7ab14f130a843c362b2c23fe93404b9", "type": "electric_scooter", "is_reserved": 0, "lon": -77.03665033333333}, {"fusion_lat": 0.0, "name": "9e84c8bab4e6354e6cdc5cdfd58445c8", "is_disabled": 0, "rental_uris": {"android": "https://dc.lft.to/lastmile_qr_scan", "ios": "https://dc.lft.to/lastmile_qr_scan"}, "fusion_lon": 0.0, "lat": 38.898619833333335, "bike_id": "9e84c8bab4e6354e6cdc5cdfd58445c8", "type": "electric_scooter", "is_reserved": 0, "lon": -77.022187}, {"fusion_lat": 0.0, "name": "751a2ac30752fa13458743d45f089663", "is_disabled": 0, "rental_uris": {"android": "https://dc.lft.to/lastmile_qr_scan", "ios": "https://dc.lft.to/lastmile_qr_scan"}, "fusion_lon": 0.0, "lat": 38.90954683333333, "bike_id": "751a2ac30752fa13458743d45f089663", "type": "electric_scooter", "is_reserved": 0, "lon": -77.02377083333333}, {"fusion_lat": 0.0, "name": "4e29d084c426138389c461ac89c21539", "is_disabled": 0, "rental_uris": {"android": "https://dc.lft.to/lastmile_qr_scan", "ios": "https://dc.lft.to/lastmile_qr_scan"}, "fusion_lon": 0.0, "lat": 38.90416733333333, "bike_id": "4e29d084c426138389c461ac89c21539", "type": "electric_scooter", "is_reserved": 0, "lon": -77.0368775}, {"fusion_lat": 0.0, "name": "6aaf6f6284a97b8edf28c013e8d93dde", "is_disabled": 0, "rental_uris": {"android": "https://dc.lft.to/lastmile_qr_scan", "ios": "https://dc.lft.to/lastmile_qr_scan"}, "fusion_lon": 0.0, "lat": 38.878875666666666, "bike_id": "6aaf6f6284a97b8edf28c013e8d93dde", "type": "electric_scooter", "is_reserved": 0, "lon": -76.965439}, {"fusion_lat": 0.0, "name": "d4d6528f60de1d96a910c6cb7d0161a0", "is_disabled": 0, "rental_uris": {"android": "https://dc.lft.to/lastmile_qr_scan", "ios": "https://dc.lft.to/lastmile_qr_scan"}, "fusion_lon": 0.0, "lat": 38.89515166666666, "bike_id": "d4d6528f60de1d96a910c6cb7d0161a0", "type": "electric_scooter", "is_reserved": 0, "lon": -77.00917683333333}, {"fusion_lat": 0.0, "name": "a09158bd40796856cc7f26325820dcf5", "is_disabled": 0, "rental_uris": {"android": "https://dc.lft.to/lastmile_qr_scan", "ios": "https://dc.lft.to/lastmile_qr_scan"}, "fusion_lon": 0.0, "lat": 38.901627500000004, "bike_id": "a09158bd40796856cc7f26325820dcf5", "type": "electric_scooter", "is_reserved": 0, "lon": -77.03178016666666}, {"fusion_lat": 0.0, "name": "d9ba77b1ee642b4453a64031f0dfefe5", "is_disabled": 0, "rental_uris": {"android": "https://dc.lft.to/lastmile_qr_scan", "ios": "https://dc.lft.to/lastmile_qr_scan"}, "fusion_lon": 0.0, "lat": 38.9225, "bike_id": "d9ba77b1ee642b4453a64031f0dfefe5", "type": "electric_scooter", "is_reserved": 0, "lon": -77.04254333333333}, {"fusion_lat": 0.0, "name": "3d3139400fce660233f572bdba5585fa", "is_disabled": 0, "rental_uris": {"android": "https://dc.lft.to/lastmile_qr_scan", "ios": "https://dc.lft.to/lastmile_qr_scan"}, "fusion_lon": 0.0, "lat": 38.923906333333335, "bike_id": "3d3139400fce660233f572bdba5585fa", "type": "electric_scooter", "is_reserved": 0, "lon": -77.02744433333334}, {"fusion_lat": 0.0, "name": "7cba309682c311573d16cea75bd80f16", "is_disabled": 0, "rental_uris": {"android": "https://dc.lft.to/lastmile_qr_scan", "ios": "https://dc.lft.to/lastmile_qr_scan"}, "fusion_lon": 0.0, "lat": 38.912917166666666, "bike_id": "7cba309682c311573d16cea75bd80f16", "type": "electric_scooter", "is_reserved": 0, "lon": -77.04519366666666}, {"fusion_lat": 0.0, "name": "afbff587d734116456eae81dd2268cac", "is_disabled": 0, "rental_uris": {"android": "https://dc.lft.to/lastmile_qr_scan", "ios": "https://dc.lft.to/lastmile_qr_scan"}, "fusion_lon": 0.0, "lat": 38.9116725, "bike_id": "afbff587d734116456eae81dd2268cac", "type": "electric_scooter", "is_reserved": 0, "lon": -76.987212}, {"fusion_lat": 0.0, "name": "6ceea2523f4757c53178f0a47412c3b0", "is_disabled": 0, "rental_uris": {"android": "https://dc.lft.to/lastmile_qr_scan", "ios": "https://dc.lft.to/lastmile_qr_scan"}, "fusion_lon": 0.0, "lat": 38.95462883333333, "bike_id": "6ceea2523f4757c53178f0a47412c3b0", "type": "electric_scooter", "is_reserved": 0, "lon": -77.00794},