{"data": {"bikes": [{"rental_uris": {"android": "https://dc.lft.to/lastmile_qr_scan", "ios": "https://dc.lft.to/lastmile_qr_scan"}, "is_reserved": 0, "is_disabled": 0, "name": "c2ac62cd252cb70ec864d0416b7bc90a", "bike_id": "c2ac62cd252cb70ec864d0416b7bc90a", "fusion_lat": 0.0, "lon": -77.03754533333333, "type": "electric_scooter", "fusion_lon": 0.0, "lat": 38.90266616666667}, {"rental_uris": {"android": "https://dc.lft.to/lastmile_qr_scan", "ios": "https://dc.lft.to/lastmile_qr_scan"}, "is_reserved": 0, "is_disabled": 0, "name": "797a6b24145653ddd5ed691f7844ad1c", "bike_id": "797a6b24145653ddd5ed691f7844ad1c", "fusion_lat": 0.0, "lon": -77.0244515, "type": "electric_scooter", "fusion_lon": 0.0, "lat": 38.949788}, {"rental_uris": {"android": "https://dc.lft.to/lastmile_qr_scan", "ios": "https://dc.lft.to/lastmile_qr_scan"}, "is_reserved": 0, "is_disabled": 0, "name": "f5576f05f2f77b22b4cd1c3037ba3109", "bike_id": "f5576f05f2f77b22b4cd1c3037ba3109", "fusion_lat": 0.0, "lon": -77.03359033333334, "type": "electric_scooter", "fusion_lon": 0.0, "lat": 38.900328333333334}, {"rental_uris": {"android": "https://dc.lft.to/lastmile_qr_scan", "ios": "https://dc.lft.to/lastmile_qr_scan"}, "is_reserved": 0, "is_disabled": 0, "name": "cf54ba8b957b60286d9bbc9ff7a73209", "bike_id": "cf54ba8b957b60286d9bbc9ff7a73209", "fusion_lat": 0.0, "lon": -77.02465116666667, "type": "electric_scooter", "fusion_lon": 0.0, "lat": 38.957856166666666}, {"rental_uris": {"android": "https://dc.lft.to/lastmile_qr_scan", "ios": "https://dc.lft.to/lastmile_qr_scan"}, "is_reserved": 0, "is_disabled": 0, "name": "f0b8f007bcbf291a54b08e77b7560912", "bike_id": "f0b8f007bcbf291a54b08e77b7560912", "fusion_lat": 0.0, "lon": -77.00016583333333, "type": "electric_scooter", "fusion_lon": 0.0, "lat": 38.9197835}, {"rental_uris": {"android": "https://dc.lft.to/lastmile_qr_scan", "ios": "https://dc.lft.to/lastmile_qr_scan"}, "is_reserved": 0, "is_disabled": 0, "name": "9d45877ea6c3ecf9a4193fd36121b421", "bike_id": "9d45877ea6c3ecf9a4193fd36121b421", "fusion_lat": 0.0, "lon": -77.029718, "type": "electric_scooter", "fusion_lon": 0.0, "lat": 38.93532416666667}, {"rental_uris": {"android": "https://dc.lft.to/lastmile_qr_scan", "ios": "https://dc.lft.to/lastmile_qr_scan"}, "is_reserved": 0, "is_disabled": 0, "name": "1537a4e0a86bff1d8d50498d1e21edea", "bike_id": "1537a4e0a86bff1d8d50498d1e21edea", "fusion_lat": 0.0, "lon": -77.02708, "type": "electric_bike", "fusion_lon": 0.0, "lat": 38.89646033333333}, {"rental_uris": {"android": "https://dc.lft.to/lastmile_qr_scan", "ios": "https://dc.lft.to/lastmile_qr_scan"}, "is_reserved": 0, "is_disabled": 0, "name": "6c69eb97034c4887f14fcb0e066e42f4", "bike_id": "6c69eb97034c4887f14fcb0e066e42f4", "fusion_lat": 0.0, "lon": -77.03801466666667, "type": "electric_scooter", "fusion_lon": 0.0, "lat": 38.90674683333334}, {"rental_uris": {"android": "https://dc.lft.to/lastmile_qr_scan", "ios": "https://dc.lft.to/lastmile_qr_scan"}, "is_reserved": 0, "is_disabled": 0, "name": "90b94e30cada6d69afa6c030f3e8975c", "bike_id": "90b94e30cada6d69afa6c030f3e8975c", "fusion_lat": 0.0, "lon": -77.04876533333334, "type": "electric_scooter", "fusion_lon": 0.0, "lat": 38.898762166666664}, {"rental_uris": {"android": "https://dc.lft.to/lastmile_qr_scan", "ios": "https://dc.lft.to/lastmile_qr_scan"}, "is_reserved": 0, "is_disabled": 0, "name": "9e3a9a21df44dd7fe32ff4001c0a86b8", "bike_id": "9e3a9a21df44dd7fe32ff4001c0a86b8", "fusion_lat": 0.0, "lon": -77.02398933333333, "type": "electric_scooter", "fusion_lon": 0.0, "lat": 38.937075666666665}, {"rental_uris": {"android": "https://dc.lft.to/lastmile_qr_scan", "ios": "https://dc.lft.to/lastmile_qr_scan"}, "is_reserved": 0, "is_disabled": 0, "name": "99f454784f6cfe1b30e270005040b74f", "bike_id": "99f454784f6cfe1b30e270005040b74f", "fusion_lat": 0.0, "lon": -77.05823666666667, "type": "electric_scooter", "fusion_lon": 0.0, "lat": 38.935342}, {"rental_uris": {"android": "https://dc.lft.to/lastmile_qr_scan", "ios": "https://dc.lft.to/lastmile_qr_scan"}, "is_reserved": 0, "is_disabled": 0, "name": "c77ddf1b02940c0cf74d5635312c33e8", "bike_id": "c77ddf1b02940c0cf74d5635312c33e8", "fusion_lat": 0.0, "lon": -76.97330133333334, "type": "electric_scooter", "fusion_lon": 0.0, "lat": 38.90408133333333}, {"rental_uris": {"android": "https://dc.lft.to/lastmile_qr_scan", "ios": "https://dc.lft.to/lastmile_qr_scan"}, "is_reserved": 0, "is_disabled": 0, "name": "b9a0f1a48348acdabeeabcc831f37059", "bike_id": "b9a0f1a48348acdabeeabcc831f37059", "fusion_lat": 0.0, "lon": -77.06945083333333, "type": "electric_bike", "fusion_lon": 0.0, "lat": 38.836274333333336}, {"rental_uris": {"android": "https://dc.lft.to/lastmile_qr_scan", "ios": "https://dc.lft.to/lastmile_qr_scan"}, "is_reserved": 0, "is_disabled": 0, "name": "718c98a0c23577c8258408c9aea14266", "bike_id": "718c98a0c23577c8258408c9aea14266", "fusion_lat": 0.0, "lon": -77.023764, "type": "electric_scooter", "fusion_lon": 0.0, "lat": 38.952752333333336}, {"rental_uris": {"android": "https://dc.lft.to/lastmile_qr_scan", "ios": "https://dc.lft.to/lastmile_qr_scan"}, "is_reserved": 0, "is_disabled": 0, "name": "36edffc479812d29d636ad0f95928c01", "bike_id": "36edffc479812d29d636ad0f95928c01", "fusion_lat": 0.0, "lon": -77.0406085, "type": "electric_scooter", "fusion_lon": 0.0, "lat": 38.903401}, {"rental_uris": {"android": "https://dc.lft.to/lastmile_qr_scan", "ios": "https://dc.lft.to/lastmile_qr_scan"}, "is_reserved": 0, "is_disabled": 0, "name": "a293e8e055e11e589043d4bb88d58ce8", "bike_id": "a293e8e055e11e589043d4bb88d58ce8", "fusion_lat": 0.0, "lon": -77.02195933333333, "type": "electric_scooter", "fusion_lon": 0.0, "lat": 38.90024283333333}, {"rental_uris": {"android": "https://dc.lft.to/lastmile_qr_scan", "ios": "https://dc.lft.to/lastmile_qr_scan"}, "is_reserved": 0, "is_disabled": 0, "name": "7cbea4de393208ef640a85efb64e6872", "bike_id": "7cbea4de393208ef640a85efb64e6872", "fusion_lat": 0.0, "lon": -77.06311583333333, "type": "electric_scooter", "fusion_lon": 0.0, "lat": 38.943819833333336}, {"rental_uris": {"android": "https://dc.lft.to/lastmile_qr_scan", "ios": "https://dc.lft.to/lastmile_qr_scan"}, "is_reserved": 0, "is_disabled": 0, "name": "450cb08b02ef1e7141f9260ac043734e", "bike_id": "450cb08b02ef1e7141f9260ac043734e", "fusion_lat": 0.0, "lon": -77.04539416666667, "type": "electric_scooter", "fusion_lon": 0.0, "lat": 38.902723}, {"rental_uris": {"android": "https://dc.lft.to/lastmile_qr_scan", "ios": "https://dc.lft.to/lastmile_qr_scan"}, "is_reserved": 0, "is_disabled": 0, "name": "51f2c31d8db318f04a2c2b026e551157", "bike_id": "51f2c31d8db318f04a2c2b026e551157", "fusion_lat": 0.0, "lon": -77.02604433333333, "type": "electric_scooter", "fusion_lon": 0.0, "lat": 38.900471833333334}, {"rental_uris": {"android": "https://dc.lft.to/lastmile_qr_scan", "ios": "https://dc.lft.to/lastmile_qr_scan"}, "is_reserved": 0, "is_disabled": 0, "name": "f116bc3f0a9badc8feded90f0bcb9b27", "bike_id": "f116bc3f0a9badc8feded90f0bcb9b27", "fusion_lat": 0.0, "lon": -77.015186, "type": "electric_scooter", "fusion_lon": 0.0, "lat": 38.895861333333336}, {"rental_uris": {"android": "https://dc.lft.to/lastmile_qr_scan", "ios": "https://dc.lft.to/lastmile_qr_scan"}, "is_reserved": 0, "is_disabled": 0, "name": "3a5b7f050f4275cb20d8aed53598577f", "bike_id": "3a5b7f050f4275cb20d8aed53598577f", "fusion_lat": 0.0, "lon": -77.03425816666666, "type": "electric_scooter", "fusion_lon": 0.0, "lat": 38.902664333333334}, {"rental_uris": {"android": "https://dc.lft.to/lastmile_qr_scan", "ios": "https://dc.lft.to/lastmile_qr_scan"}, "is_reserved": 0, "is_disabled": 0, "name": "ebd9e22c378fff1e432b0ad569698c6a", "bike_id": "ebd9e22c378fff1e432b0ad569698c6a", "fusion_lat": 0.0, "lon": -77.00889183333334, "type": "electric_scooter", "fusion_lon": 0.0, "lat": 38.899004166666664}, {"rental_uris": {"android": "https://dc.lft.to/lastmile_qr_scan", "ios": "https://dc.lft.to/lastmile_qr_scan"}, "is_reserved": 0, "is_disabled": 0, "name": "fdf9b9568ae451dfd0f24d95f9f107af", "bike_id": "fdf9b9568ae451dfd0f24d95f9f107af", "fusion_lat": 0.0, "lon": -77.05909366666667, "type": "electric_scooter", "fusion_lon": 0.0, "lat": 38.90165433333333}, {"rental_uris": {"android": "https://dc.lft.to/lastmile_qr_scan", "ios": "https://dc.lft.to/lastmile_qr_scan"}, "is_reserved": 0, "is_disabled": 0, "name": "6d6d8f324e497fffd8aa1cff1987cca7", "bike_id": "6d6d8f324e497fffd8aa1cff1987cca7", "fusion_lat": 0.0, "lon": -77.05328283333333, "type": "electric_scooter", "fusion_lon": 0.0, "lat": 38.90509016666667}, {"rental_uris": {"android": "https://dc.lft.to/lastmile_qr_scan", "ios": "https://dc.lft.to/lastmile_qr_scan"}, "is_reserved": 0, "is_disabled": 0, "name": "e58832e8df8e569f3b42742eae4e0d23", "bike_id": "e58832e8df8e569f3b42742eae4e0d23", "fusion_lat": 0.0, "lon": -77.026871, "type": "electric_scooter", "fusion_lon": 0.0, "lat": 38.9025075}, {"rental_uris": {"android": "https://dc.lft.to/lastmile_qr_scan", "ios": "https://dc.lft.to/lastmile_qr_scan"}, "is_reserved": 0, "is_disabled": 0, "name": "50d8c5cf40ae9346dabf55a8edbaf5a4", "bike_id": "50d8c5cf40ae9346dabf55a8edbaf5a4", "fusion_lat": 0.0, "lon": -76.94087616666667, "type": "electric_scooter", "fusion_lon": 0.0, "lat": 38.891226333333336}, {"rental_uris": {"android": "https://dc.lft.to/lastmile_qr_scan", "ios": "https://dc.lft.to/lastmile_qr_scan"}, "is_reserved": 0, "is_disabled": 0, "name": "a7c641f50c1b2734a8b61cf17ba54144", "bike_id": "a7c641f50c1b2734a8b61cf17ba54144", "fusion_lat": 0.0, "lon": -77.0405445, "type": "electric_scooter", "fusion_lon": 0.0, "lat": 38.908872333333335}, {"rental_uris": {"android": "https://dc.lft.to/lastmile_qr_scan", "ios": "https://dc.lft.to/lastmile_qr_scan"}, "is_reserved": 0, "is_disabled": 0, "name": "cfaaa1410d6f9ba9beea24a11b1b0c33", "bike_id": "cfaaa1410d6f9ba9beea24a11b1b0c33", "fusion_lat": 0.0, "lon": -77.03179583333333, "type": "electric_scooter", "fusion_lon": 0.0, "lat": 38.930599666666666}, {"rental_uris": {"android": "https://dc.lft.to/lastmile_qr_scan", "ios": "https://dc.lft.to/lastmile_qr_scan"}, "is_reserved": 0, "is_disabled": 0, "name": "1715364daf11af191412ec3d3a5e7108", "bike_id": "1715364daf11af191412ec3d3a5e7108", "fusion_lat": 0.0, "lon": -77.03862216666667, "type": "electric_scooter", "fusion_lon": 0.0, "lat": 38.90272183333333}, {"rental_uris": {"android": "https://dc.lft.to/lastmile_qr_scan", "ios": "https://dc.lft.to/lastmile_qr_scan"}, "is_reserved": 0, "is_disabled": 0, "name": "9000da18d18cd10923199bfdcfdb2649", "bike_id": "9000da18d18cd10923199bfdcfdb2649", "fusion_lat": 0.0, "lon": -76.98854933333334, "type": "electric_scooter", "fusion_lon": 0.0, "lat": 38.844193}, {"rental_uris": {"android": "https://dc.lft.to/lastmile_qr_scan", "ios": "https://dc.lft.to/lastmile_qr_scan"}, "is_reserved": 0, "is_disabled": 0, "name": "2330aad1f910ddecb21356157e4a98e9", "bike_id": "2330aad1f910ddecb21356157e4a98e9", "fusion_lat": 0.0, "lon": -76.98819583333334, "type": "electric_bike", "fusion_lon": 0.0, "lat": 38.842811}, {"rental_uris": {"android": "https://dc.lft.to/lastmile_qr_scan", "ios": "https://dc.lft.to/lastmile_qr_scan"}, "is_reserved": 0, "is_disabled": 0, "name": "f241a4b6c64b4ec301be1c06fd43ab1e", "bike_id": "f241a4b6c64b4ec301be1c06fd43ab1e", "fusion_lat": 0.0, "lon": -77.033164, "type": "electric_scooter", "fusion_lon": 0.0, "lat": 38.92450383333333}, {"rental_uris": {"android": "https://dc.lft.to/lastmile_qr_scan", "ios": "https://dc.lft.to/lastmile_qr_scan"}, "is_reserved": 0, "is_disabled": 0, "name": "aed0849a6a1e5d8b2d4392658600a362", "bike_id": "aed0849a6a1e5d8b2d4392658600a362", "fusion_lat": 0.0, "lon": -77.06839016666666, "type": "electric_scooter", "fusion_lon": 0.0, "lat": 38.904017}, {"rental_uris": {"android": "https://dc.lft.to/lastmile_qr_scan", "ios": "https://dc.lft.to/lastmile_qr_scan"}, "is_reserved": 0, "is_disabled": 0, "name": "d496c3c2fe7ed95e9024d37c34de1b23", "bike_id": "d496c3c2fe7ed95e9024d37c34de1b23", "fusion_lat": 0.0, "lon": -77.02270683333333, "type": "electric_scooter", "fusion_lon": 0.0, "lat": 38.902862666666664}, {"rental_uris": {"android": "https://dc.lft.to/lastmile_qr_scan", "ios": "https://dc.lft.to/lastmile_qr_scan"}, "is_reserved": 0, "is_disabled": 0, "name": "496eafa184fd4061db6272f7a0628f7f", "bike_id": "496eafa184fd4061db6272f7a0628f7f", "fusion_lat": 0.0, "lon": -77.02884216666666, "type": "electric_scooter", "fusion_lon": 0.0, "lat": 38.91655216666667}, {"rental_uris": {"android": "https://dc.lft.to/lastmile_qr_scan", "ios": "https://dc.lft.to/lastmile_qr_scan"}, "is_reserved": 0, "is_disabled": 0, "name": "74d67248fa86223e675f228f64f45e2c", "bike_id": "74d67248fa86223e675f228f64f45e2c", "fusion_lat": 0.0, "lon": -77.05892433333334, "type": "electric_scooter", "fusion_lon": 0.0, "lat": 38.9361245}, {"rental_uris": {"android": "https://dc.lft.to/lastmile_qr_scan", "ios": "https://dc.lft.to/lastmile_qr_scan"}, "is_reserved": 0, "is_disabled": 0, "name": "142bf6665ff3ec481067c577b68c02ff", "bike_id": "142bf6665ff3ec481067c577b68c02ff", "fusion_lat": 0.0, "lon": -77.03868283333334, "type": "electric_scooter", "fusion_lon": 0.0, "lat": 38.903556}, {"rental_uris": {"android": "https://dc.lft.to/lastmile_qr_scan", "ios": "https://dc.lft.to/lastmile_qr_scan"}, "is_reserved": 0, "is_disabled": 0, "name": "0fe14fdb94e79aa55bd6fed5f103b207", "bike_id": "0fe14fdb94e79aa55bd6fed5f103b207", "fusion_lat": 0.0, "lon": -77.022262, "type": "electric_bike", "fusion_lon": 0.0, "lat": 38.912595333333336}, {"rental_uris": {"android": "https://dc.lft.to/lastmile_qr_scan", "ios": "https://dc.lft.to/lastmile_qr_scan"}, "is_reserved": 0, "is_disabled": 0, "name": "8962047422d3df8b1d2114efe9817b56", "bike_id": "8962047422d3df8b1d2114efe9817b56", "fusion_lat": 0.0, "lon": -77.027652, "type": "electric_scooter", "fusion_lon": 0.0, "lat": 38.904298}, {"rental_uris": {"android": "https://dc.lft.to/lastmile_qr_scan", "ios": "https://dc.lft.to/lastmile_qr_scan"}, "is_reserved": 0, "is_disabled": 0, "name": "1ad67971e34c19267e03859e9c0ddb20", "bike_id": "1ad67971e34c19267e03859e9c0ddb20", "fusion_lat": 0.0, "lon": -77.00293116666667, "type": "electric_scooter", "fusion_lon": 0.0, "lat": 38.89204183333333}, {"rental_uris": {"android": "https://dc.lft.to/lastmile_qr_scan", "ios": "https://dc.lft.to/lastmile_qr_scan"}, "is_reserved": 0, "is_disabled": 0, "name": "e213e143a76e7fcd9860538de6700da1", "bike_id": "e213e143a76e7fcd9860538de6700da1", "fusion_lat": 0.0, "lon": -77.04413883333334, "type": "electric_scooter", "fusion_lon": 0.0, "lat": 38.90907683333333}, {"rental_uris": {"android": "https://dc.lft.to/lastmile_qr_scan", "ios": "https://dc.lft.to/lastmile_qr_scan"}, "is_reserved": 0, "is_disabled": 0, "name": "9748bc276c0e6b7ca7fb2276d2f32259", "bike_id": "9748bc276c0e6b7ca7fb2276d2f32259", "fusion_lat": 0.0, "lon": -77.05992116666667, "type": "electric_scooter", "fusion_lon": 0.0, "lat": 38.902356833333336}, {"rental_uris": {"android": "https://dc.lft.to/lastmile_qr_scan", "ios": "https://dc.lft.to/lastmile_qr_scan"}, "is_reserved": 0, "is_disabled": 0, "name": "7ba07c687f56051b1eac1acad9fc8121", "bike_id": "7ba07c687f56051b1eac1acad9fc8121", "fusion_lat": 0.0, "lon": -77.02032316666667, "type": "electric_scooter", "fusion_lon": 0.0, "lat": 38.924430666666666}, {"rental_uris": {"android": "https://dc.lft.to/lastmile_qr_scan", "ios": "https://dc.lft.to/lastmile_qr_scan"}, "is_reserved": 0, "is_disabled": 0, "name": "ee31ee60091783ded9ebba6677a5faa3", "bike_id": "ee31ee60091783ded9ebba6677a5faa3", "fusion_lat": 0.0, "lon": -76.98747633333333, "type": "electric_bike", "fusion_lon": 0.0, "lat": 38.85769}, {"rental_uris": {"android": "https://dc.lft.to/lastmile_qr_scan", "ios": "https://dc.lft.to/lastmile_qr_scan"}, "is_reserved": 0, "is_disabled": 0, "name": "2f88b1539c846250423f71b24fc53995", "bike_id": "2f88b1539c846250423f71b24fc53995", "fusion_lat": 0.0, "lon": -77.02786316666666, "type": "electric_scooter", "fusion_lon": 0.0, "lat": 38.884286}, {"rental_uris": {"android": "https://dc.lft.to/lastmile_qr_scan", "ios": "https://dc.lft.to/lastmile_qr_scan"}, "is_reserved": 0, "is_disabled": 0, "name": "2ce14c59a7d2a97034c6f99866b6d12d", "bike_id": "2ce14c59a7d2a97034c6f99866b6d12d", "fusion_lat": 0.0, "lon": -77.02089616666666, "type": "electric_scooter", "fusion_lon": 0.0, "lat": 38.921529666666665}, {"rental_uris": {"android": "https://dc.lft.to/lastmile_qr_scan", "ios": "https://dc.lft.to/lastmile_qr_scan"}, "is_reserved": 0, "is_disabled": 0, "name": "19b0e60e65b7de3ff070c15fdb587fc1", "bike_id": "19b0e60e65b7de3ff070c15fdb587fc1", "fusion_lat": 0.0, "lon": -77.019524, "type": "electric_scooter", "fusion_lon": 0.0, "lat": 38.92329433333333}, {"rental_uris": {"android": "https://dc.lft.to/lastmile_qr_scan", "ios": "https://dc.lft.to/lastmile_qr_scan"}, "is_reserved": 0, "is_disabled": 0, "name": "504c09274878ea81348b6b36f3090042", "bike_id": "504c09274878ea81348b6b36f3090042", "fusion_lat": 0.0, "lon": -77.12977616666667, "type": "electric_bike", "fusion_lon": 0.0, "lat": 38.79987}, {"rental_uris": {"android": "https://dc.lft.to/lastmile_qr_scan", "ios": "https://dc.lft.to/lastmile_qr_scan"}, "is_reserved": 0, "is_disabled": 0, "name": "95d90784646ffe607d27bb9892ef428c", "bike_id": "95d90784646ffe607d27bb9892ef428c", "fusion_lat": 0.0, "lon": -77.0727835, "type": "electric_scooter", "fusion_lon": 0.0, "lat": 38.9347685}, {"rental_uris": {"android": "https://dc.lft.to/lastmile_qr_scan", "ios": "https://dc.lft.to/lastmile_qr_scan"}, "is_reserved": 0, "is_disabled": 0, "name": "454dbc47eb9ecaf6dada07b84532a45a", "bike_id": "454dbc47eb9ecaf6dada07b84532a45a", "fusion_lat": 0.0, "lon": -77.01677433333333, "type": "electric_scooter", "fusion_lon": 0.0, "lat": 38.920482}, {"rental_uris": {"android": "https://dc.lft.to/lastmile_qr_scan", "ios": "https://dc.lft.to/lastmile_qr_scan"}, "is_reserved": 0, "is_disabled": 0, "name": "58e4e904323a7ca7b445fac5de5eca34", "bike_id": "58e4e904323a7ca7b445fac5de5eca34", "fusion_lat": 0.0, "lon": -77.03446866666667, "type": "electric_scooter", "fusion_lon": 0.0, "lat": 38.904224}, {"rental_uris": {"android": "https://dc.lft.to/lastmile_qr_scan", "ios": "https://dc.lft.to/lastmile_qr_scan"}, "is_reserved": 0, "is_disabled": 0, "name": "a396339fdaecc3c248ef956eab9f2e88", "bike_id": "a396339fdaecc3c248ef956eab9f2e88", "fusion_lat": 0.0, "lon": -76.97335733333334, "type": "electric_scooter", "fusion_lon": 0.0, "lat": 38.904054333333335}, {"rental_uris": {"android": "https://dc.lft.to/lastmile_qr_scan", "ios": "https://dc.lft.to/lastmile_qr_scan"}, "is_reserved": 0, "is_disabled": 0, "name": "a73ca0bb0728027e1be62deed5371005", "bike_id": "a73ca0bb0728027e1be62deed5371005", "fusion_lat": 0.0, "lon": -77.02075716666667, "type": "electric_scooter", "fusion_lon": 0.0, "lat": 38.91904533333334}, {"rental_uris": {"android": "https://dc.lft.to/lastmile_qr_scan", "ios": "https://dc.lft.to/lastmile_qr_scan"}, "is_reserved": 0, "is_disabled": 0, "name": "4bf64494734c1d50bcfbc17f07bd56b4", "bike_id": "4bf64494734c1d50bcfbc17f07bd56b4", "fusion_lat": 0.0, "lon": -76.97807733333333, "type": "electric_scooter", "fusion_lon": 0.0, "lat": 38.9203695}, {"rental_uris": {"android": "https://dc.lft.to/lastmile_qr_scan", "ios": "https://dc.lft.to/lastmile_qr_scan"}, "is_reserved": 0, "is_disabled": 0, "name": "ce35bfa0c073b7ebc9239dbc2b82bb4e", "bike_id": "ce35bfa0c073b7ebc9239dbc2b82bb4e", "fusion_lat": 0.0, "lon": -77.05929916666666, "type": "electric_scooter", "fusion_lon": 0.0, "lat": 38.94328016666667}, {"rental_uris": {"android": "https://dc.lft.to/lastmile_qr_scan", "ios": "https://dc.lft.to/lastmile_qr_scan"}, "is_reserved": 0, "is_disabled": 0, "name": "050281a30c94f34b0c000175d0aa20cd", "bike_id": "050281a30c94f34b0c000175d0aa20cd", "fusion_lat": 0.0, "lon": -77.02017616666667, "type": "electric_scooter", "fusion_lon": 0.0, "lat": 38.915648833333336}, {"rental_uris": {"android": "https://dc.lft.to/lastmile_qr_scan", "ios": "https://dc.lft.to/lastmile_qr_scan"}, "is_reserved": 0, "is_disabled": 0, "name": "3418acfd1cbd8c7a0e0effa8d58850b6", "bike_id": "3418acfd1cbd8c7a0e0effa8d58850b6", "fusion_lat": 0.0, "lon": -77.01114483333333, "type": "electric_scooter", "fusion_lon": 0.0, "lat": 38.88508316666667}, {"rental_uris": {"android": "https://dc.lft.to/lastmile_qr_scan", "ios": "https://dc.lft.to/lastmile_qr_scan"}, "is_reserved": 0, "is_disabled": 0, "name": "85cb4c9f31908f0b668752036dbc1417", "bike_id": "85cb4c9f31908f0b668752036dbc1417", "fusion_lat": 0.0, "lon": -77.04675666666667, "type": "electric_scooter", "fusion_lon": 0.0, "lat": 38.89561783333333}, {"rental_uris": {"android": "https://dc.lft.to/lastmile_qr_scan", "ios": "https://dc.lft.to/lastmile_qr_scan"}, "is_reserved": 0, "is_disabled": 0, "name": "94fe3ec43715de400ccb7decd5b64926", "bike_id": "94fe3ec43715de400ccb7decd5b64926", "fusion_lat": 0.0, "lon": -77.0327325, "type": "electric_bike", "fusion_lon": 0.0, "lat": 38.91147683333333}, {"rental_uris": {"android": "https://dc.lft.to/lastmile_qr_scan", "ios": "https://dc.lft.to/lastmile_qr_scan"}, "is_reserved": 0, "is_disabled": 0, "name": "6743c573f4af4506454ee2b233b576ea", "bike_id": "6743c573f4af4506454ee2b233b576ea", "fusion_lat": 0.0, "lon": -77.02818916666666, "type": "electric_scooter", "fusion_lon": 0.0, "lat": 38.9298005}, {"rental_uris": {"android": "https://dc.lft.to/lastmile_qr_scan", "ios": "https://dc.lft.to/lastmile_qr_scan"}, "is_reserved": 0, "is_disabled": 0, "name": "c0285dd1deddb5a44b49126528d73a79", "bike_id": "c0285dd1deddb5a44b49126528d73a79", "fusion_lat": 0.0, "lon": -77.04457183333334, "type": "electric_scooter", "fusion_lon": 0.0, "lat": 38.90267716666666}, {"rental_uris": {"android": "https://dc.lft.to/lastmile_qr_scan", "ios": "https://dc.lft.to/lastmile_qr_scan"}, "is_reserved": 0, "is_disabled": 0, "name": "a1e9977829fbe73ee6dc356855ca505f", "bike_id": "a1e9977829fbe73ee6dc356855ca505f", "fusion_lat": 0.0, "lon": -76.9977025, "type": "electric_scooter", "fusion_lon": 0.0, "lat": 38.90126766666667}, {"rental_uris": {"android": "https://dc.lft.to/lastmile_qr_scan", "ios": "https://dc.lft.to/lastmile_qr_scan"}, "is_reserved": 0, "is_disabled": 0, "name": "7c3dbe625ea16b278fa98591bddc2fb2", "bike_id": "7c3dbe625ea16b278fa98591bddc2fb2", "fusion_lat": 0.0, "lon": -77.03644466666667, "type": "electric_scooter", "fusion_lon": 0.0, "lat": 38.902878}, {"rental_uris": {"android": "https://dc.lft.to/lastmile_qr_scan", "ios": "https://dc.lft.to/lastmile_qr_scan"}, "is_reserved": 0, "is_disabled": 0, "name": "1bd1614125c977380dfafdbe36e1fdf2", "bike_id": "1bd1614125c977380dfafdbe36e1fdf2", "fusion_lat": 0.0, "lon": -77.04087133333333, "type": "electric_scooter", "fusion_lon": 0.0, "lat": 38.903825}, {"rental_uris": {"android": "https://dc.lft.to/lastmile_qr_scan", "ios": "https://dc.lft.to/lastmile_qr_scan"}, "is_reserved": 0, "is_disabled": 0, "name": "2db2d90f57e41ed7d7bcece07fa9806f", "bike_id": "2db2d90f57e41ed7d7bcece07fa9806f", "fusion_lat": 0.0, "lon": -77.02161516666666, "type": "electric_scooter", "fusion_lon": 0.0, "lat": 38.926119666666665}, {"rental_uris": {"android": "https://dc.lft.to/lastmile_qr_scan", "ios": "https://dc.lft.to/lastmile_qr_scan"}, "is_reserved": 0, "is_disabled": 0, "name": "4eb89ad0a06d4bfac509fdeeb784f018", "bike_id": "4eb89ad0a06d4bfac509fdeeb784f018", "fusion_lat": 0.0, "lon": -77.02250066666667, "type": "electric_scooter", "fusion_lon": 0.0, "lat": 38.901983666666666}, {"rental_uris": {"android": "https://dc.lft.to/lastmile_qr_scan", "ios": "https://dc.lft.to/lastmile_qr_scan"}, "is_reserved": 0, "is_disabled": 0, "name": "ae401bfc94392d8150d9b7cf6f8bc5c8", "bike_id": "ae401bfc94392d8150d9b7cf6f8bc5c8", "fusion_lat": 0.0, "lon": -77.02716783333334, "type": "electric_scooter", "fusion_lon": 0.0, "lat": 38.91376116666667}, {"rental_uris": {"android": "https://dc.lft.to/lastmile_qr_scan", "ios": "https://dc.lft.to/lastmile_qr_scan"}, "is_reserved": 0, "is_disabled": 0, "name": "cb805f14cdccc210187c35b372e315db", "bike_id": "cb805f14cdccc210187c35b372e315db", "fusion_lat": 0.0, "lon": -77.02447166666667, "type": "electric_scooter", "fusion_lon": 0.0, "lat": 38.94976666666667}, {"rental_uris": {"android": "https://dc.lft.to/lastmile_qr_scan", "ios": "https://dc.lft.to/lastmile_qr_scan"}, "is_reserved": 0, "is_disabled": 0, "name": "742a669870b4616b868749d451ea2865", "bike_id": "742a669870b4616b868749d451ea2865", "fusion_lat": 0.0, "lon": -77.04563483333334, "type": "electric_scooter", "fusion_lon": 0.0, "lat": 38.90372816666667}, {"rental_uris": {"android": "https://dc.lft.to/lastmile_qr_scan", "ios": "https://dc.lft.to/lastmile_qr_scan"}, "is_reserved": 0, "is_disabled": 0, "name": "e82d7cfdd4ae5de2eee8698af1bcc366", "bike_id": "e82d7cfdd4ae5de2eee8698af1bcc366", "fusion_lat": 0.0, "lon": -77.03256066666667, "type": "electric_scooter", "fusion_lon": 0.0, "lat": 38.920592666666664}, {"rental_uris": {"android": "https://dc.lft.to/lastmile_qr_scan", "ios": "https://dc.lft.to/lastmile_qr_scan"}, "is_reserved": 0, "is_disabled": 0, "name": "468b87c99f3f46e809f9ab4926185545", "bike_id": "468b87c99f3f46e809f9ab4926185545", "fusion_lat": 0.0, "lon": -77.04673116666666, "type": "electric_scooter", "fusion_lon": 0.0, "lat": 38.89741516666667}, {"rental_uris": {"android": "https://dc.lft.to/lastmile_qr_scan", "ios": "https://dc.lft.to/lastmile_qr_scan"}, "is_reserved": 0, "is_disabled": 0, "name": "7927d02a97a623d71f9801f59bcb626c", "bike_id": "7927d02a97a623d71f9801f59bcb626c", "fusion_lat": 0.0, "lon": -77.022241, "type": "electric_scooter", "fusion_lon": 0.0, "lat": 38.924806833333335}, {"rental_uris": {"android": "https://dc.lft.to/lastmile_qr_scan", "ios": "https://dc.lft.to/lastmile_qr_scan"}, "is_reserved": 0, "is_disabled": 0, "name": "e2f9c8eb646d020c581dd68588ec42e2", "bike_id": "e2f9c8eb646d020c581dd68588ec42e2", "fusion_lat": 0.0, "lon": -77.009129, "type": "electric_scooter", "fusion_lon": 0.0, "lat": 38.90069116666667}, {"rental_uris": {"android": "https://dc.lft.to/lastmile_qr_scan", "ios": "https://dc.lft.to/lastmile_qr_scan"}, "is_reserved": 0, "is_disabled": 0, "name": "8ce0ee826a9ea5c6dcf6855c6051d693", "bike_id": "8ce0ee826a9ea5c6dcf6855c6051d693", "fusion_lat": 0.0, "lon": -77.032637, "type": "electric_scooter", "fusion_lon": 0.0, "lat": 38.920004666666664}, {"rental_uris": {"android": "https://dc.lft.to/lastmile_qr_scan", "ios": "https://dc.lft.to/lastmile_qr_scan"}, "is_reserved": 0, "is_disabled": 0, "name": "eb78bedc9838a97c1d04a7257836812d", "bike_id": "eb78bedc9838a97c1d04a7257836812d", "fusion_lat": 0.0, "lon": -77.00331416666667, "type": "electric_scooter", "fusion_lon": 0.0, "lat": 38.876878166666664}, {"rental_uris": {"android": "https://dc.lft.to/lastmile_qr_scan", "ios": "https://dc.lft.to/lastmile_qr_scan"}, "is_reserved": 0, "is_disabled": 0, "name": "6324fe68b0e5be14c6571fb8005bfe63", "bike_id": "6324fe68b0e5be14c6571fb8005bfe63", "fusion_lat": 0.0, "lon": -77.01822566666667, "type": "electric_scooter", "fusion_lon": 0.0, "lat": 38.909747}, {"rental_uris": {"android": "https://dc.lft.to/lastmile_qr_scan", "ios": "https://dc.lft.to/lastmile_qr_scan"}, "is_reserved": 0, "is_disabled": 0, "name": "2ea6692030b9af6ed3c204eb166763ca", "bike_id": "2ea6692030b9af6ed3c204eb166763ca", "fusion_lat": 0.0, "lon": -77.023811, "type": "electric_bike", "fusion_lon": 0.0, "lat": 38.8822525}, {"rental_uris": {"android": "https://dc.lft.to/lastmile_qr_scan", "ios": "https://dc.lft.to/lastmile_qr_scan"}, "is_reserved": 0, "is_disabled": 0, "name": "dd7e86927f82c6533b7d4762cabd9351", "bike_id": "dd7e86927f82c6533b7d4762cabd9351", "fusion_lat": 0.0, "lon": -77.01135083333334, "type": "electric_scooter", "fusion_lon": 0.0, "lat": 38.90023983333333}, {"rental_uris": {"android": "https://dc.lft.to/lastmile_qr_scan", "ios": "https://dc.lft.to/lastmile_qr_scan"}, "is_reserved": 0, "is_disabled": 0, "name": "54cedacdf6bb90582c466c6f773ca44c", "bike_id": "54cedacdf6bb90582c466c6f773ca44c", "fusion_lat": 0.0, "lon": -77.03956866666667, "type": "electric_scooter", "fusion_lon": 0.0, "lat": 38.892496666666666}, {"rental_uris": {"android": "https://dc.lft.to/lastmile_qr_scan", "ios": "https://dc.lft.to/lastmile_qr_scan"}, "is_reserved": 0, "is_disabled": 0, "name": "e4be6aa732c8958e79895a9b9ffe7de9", "bike_id": "e4be6aa732c8958e79895a9b9ffe7de9", "fusion_lat": 0.0, "lon": -77.055045, "type": "electric_scooter", "fusion_lon": 0.0, "lat": 38.929791}, {"rental_uris": {"android": "https://dc.lft.to/lastmile_qr_scan", "ios": "https://dc.lft.to/lastmile_qr_scan"}, "is_reserved": 0, "is_disabled": 0, "name": "20b5b94213d1af1c63ba6067ca2678c4", "bike_id": "20b5b94213d1af1c63ba6067ca2678c4", "fusion_lat": 0.0, "lon": -77.0180975, "type": "electric_scooter", "fusion_lon": 0.0, "lat": 38.921452333333335}, {"rental_uris": {"android": "https://dc.lft.to/lastmile_qr_scan", "ios": "https://dc.lft.to/lastmile_qr_scan"}, "is_reserved": 0, "is_disabled": 0, "name": "81df265b61d6c403277bdd9b59922e2d", "bike_id": "81df265b61d6c403277bdd9b59922e2d", "fusion_lat": 0.0, "lon": -77.02179033333333, "type": "electric_scooter", "fusion_lon": 0.0, "lat": 38.892287}, {"rental_uris": {"android": "https://dc.lft.to/lastmile_qr_scan", "ios": "https://dc.lft.to/lastmile_qr_scan"}, "is_reserved": 0, "is_disabled": 0, "name": "dad28ee1fb27c4146aaf438bdc18f599", "bike_id": "dad28ee1fb27c4146aaf438bdc18f599", "fusion_lat": 0.0, "lon": -76.94871383333333, "type": "electric_scooter", "fusion_lon": 0.0, "lat": 38.89497166666666}, {"rental_uris": {"android": "https://dc.lft.to/lastmile_qr_scan", "ios": "https://dc.lft.to/lastmile_qr_scan"}, "is_reserved": 0, "is_disabled": 0, "name": "6ac976da4e5cf3700ebe63d19111a862", "bike_id": "6ac976da4e5cf3700ebe63d19111a862", "fusion_lat": 0.0, "lon": -77.1487005, "type": "electric_bike", "fusion_lon": 0.0, "lat": 38.87741233333333}, {"rental_uris": {"android": "https://dc.lft.to/lastmile_qr_scan", "ios": "https://dc.lft.to/lastmile_qr_scan"}, "is_reserved": 0, "is_disabled": 0, "name": "74f2138619d682139b81f154df90771d", "bike_id": "74f2138619d682139b81f154df90771d", "fusion_lat": 0.0, "lon": -77.03220983333334, "type": "electric_scooter", "fusion_lon": 0.0, "lat": 38.9299935}, {"rental_uris": {"android": "https://dc.lft.to/lastmile_qr_scan", "ios": "https://dc.lft.to/lastmile_qr_scan"}, "is_reserved": 0, "is_disabled": 0, "name": "b7a8f87ce6f8c7a1963180c999023462", "bike_id": "b7a8f87ce6f8c7a1963180c999023462", "fusion_lat": 0.0, "lon": -77.0460885, "type": "electric_scooter", "fusion_lon": 0.0, "lat": 38.89826333333333}, {"rental_uris": {"android": "https://dc.lft.to/lastmile_qr_scan", "ios": "https://dc.lft.to/lastmile_qr_scan"}, "is_reserved": 0, "is_disabled": 0, "name": "8ba17f72c63cc68c3b9aadc151ed6efa", "bike_id": "8ba17f72c63cc68c3b9aadc151ed6efa", "fusion_lat": 0.0, "lon": -77.04154316666667, "type": "electric_scooter", "fusion_lon": 0.0, "lat": 38.9044885}, {"rental_uris": {"android": "https://dc.lft.to/lastmile_qr_scan", "ios": "https://dc.lft.to/lastmile_qr_scan"}, "is_reserved": 0, "is_disabled": 0, "name": "bd5997d8e5a57df8989724145a026f27", "bike_id": "bd5997d8e5a57df8989724145a026f27", "fusion_lat": 0.0, "lon": -77.01798466666666, "type": "electric_scooter", "fusion_lon": 0.0, "lat": 38.91949683333333}, {"rental_uris": {"android": "https://dc.lft.to/lastmile_qr_scan", "ios": "https://dc.lft.to/lastmile_qr_scan"}, "is_reserved": 0, "is_disabled": 0, "name": "cd5fd59e951a0e4cd8b57425529c7b59", "bike_id": "cd5fd59e951a0e4cd8b57425529c7b59", "fusion_lat": 0.0, "lon": -77.04547083333334, "type": "electric_scooter", "fusion_lon": 0.0, "lat": 38.913668}, {"rental_uris": {"android": "https://dc.lft.to/lastmile_qr_scan", "ios": "https://dc.lft.to/lastmile_qr_scan"}, "is_reserved": 0, "is_disabled": 0, "name": "74060a66e0593d091a343677f1a5d9d9", "bike_id": "74060a66e0593d091a343677f1a5d9d9", "fusion_lat": 0.0, "lon": -77.0417265, "type": "electric_scooter", "fusion_lon": 0.0, "lat": 38.91733883333333}, {"rental_uris": {"android": "https://dc.lft.to/lastmile_qr_scan", "ios": "https://dc.lft.to/lastmile_qr_scan"}, "is_reserved": 0, "is_disabled": 0, "name": "9bd69eea4ce356cca54b7661919cc8d4", "bike_id": "9bd69eea4ce356cca54b7661919cc8d4", "fusion_lat": 0.0, "lon": -77.02195383333333, "type": "electric_scooter", "fusion_lon": 0.0, "lat": 38.9450415}, {"rental_uris": {"android": "https://dc.lft.to/lastmile_qr_scan", "ios": "https://dc.lft.to/lastmile_qr_scan"}, "is_reserved": 0, "is_disabled": 0, "name": "c46ca82368f583d794d6478a53d3ada8", "bike_id": "c46ca82368f583d794d6478a53d3ada8", "fusion_lat": 0.0, "lon": -77.03993966666667, "type": "electric_scooter", "fusion_lon": 0.0, "lat": 38.93397816666667}, {"rental_uris": {"android": "https://dc.lft.to/lastmile_qr_scan", "ios": "https://dc.lft.to/lastmile_qr_scan"}, "is_reserved": 0, "is_disabled": 0, "name": "65008ba8391ea2700341e081ecadb8bf", "bike_id": "65008ba8391ea2700341e081ecadb8bf", "fusion_lat": 0.0, "lon": -77.0430535, "type": "electric_scooter", "fusion_lon": 0.0, "lat": 38.91876366666666}, {"rental_uris": {"android": "https://dc.lft.to/lastmile_qr_scan", "ios": "https://dc.lft.to/lastmile_qr_scan"}, "is_reserved": 0, "is_disabled": 0, "name": "b988768cc39f0993b7dd9df9f191fde8", "bike_id": "b988768cc39f0993b7dd9df9f191fde8", "fusion_lat": 0.0, "lon": -77.02944366666667, "type": "electric_scooter", "fusion_lon": 0.0, "lat": 38.897490833333336}, {"rental_uris": {"android": "https://dc.lft.to/lastmile_qr_scan", "ios": "https://dc.lft.to/lastmile_qr_scan"}, "is_reserved": 0, "is_disabled": 0, "name": "6d7c0e253da0abe4f168d4ffa25e0625", "bike_id": "6d7c0e253da0abe4f168d4ffa25e0625", "fusion_lat": 0.0, "lon": -77.0304955, "type": "electric_bike", "fusion_lon": 0.0, "lat": 38.91638616666667}, {"rental_uris": {"android": "https://dc.lft.to/lastmile_qr_scan", "ios": "https://dc.lft.to/lastmile_qr_scan"}, "is_reserved": 0, "is_disabled": 0, "name": "167dc8633adfd87267a995c402efd2a6", "bike_id": "167dc8633adfd87267a995c402efd2a6", "fusion_lat": 0.0, "lon": -77.0231745, "type": "electric_scooter", "fusion_lon": 0.0, "lat": 38.87881733333333}, {"rental_uris": {"android": "https://dc.lft.to/lastmile_qr_scan", "ios": "https://dc.lft.to/lastmile_qr_scan"}, "is_reserved": 0, "is_disabled": 0, "name": "5142c508f719c960a7fb66bbabda037f", "bike_id": "5142c508f719c960a7fb66bbabda037f", "fusion_lat": 0.0, "lon": -77.02754, "type": "electric_scooter", "fusion_lon": 0.0, "lat": 38.922773666666664}, {"rental_uris": {"android": "https://dc.lft.to/lastmile_qr_scan", "ios": "https://dc.lft.to/lastmile_qr_scan"}, "is_reserved": 0, "is_disabled": 0, "name": "47df4d66e3b64388301234e0dc37c4e2", "bike_id": "47df4d66e3b64388301234e0dc37c4e2", "fusion_lat": 0.0, "lon": -77.04349516666667, "type": "electric_scooter", "fusion_lon": 0.0, "lat": 38.901544666666666}, {"rental_uris": {"android": "https://dc.lft.to/lastmile_qr_scan", "ios": "https://dc.lft.to/lastmile_qr_scan"}, "is_reserved": 0, "is_disabled": 0, "name": "cfa5be4c261e89a12298afe5774ecc4d", "bike_id": "cfa5be4c261e89a12298afe5774ecc4d", "fusion_lat": 0.0, "lon": -77.00332683333333, "type": "electric_scooter", "fusion_lon": 0.0, "lat": 38.8936005}, {"rental_uris": {"android": "https://dc.lft.to/lastmile_qr_scan", "ios": "https://dc.lft.to/lastmile_qr_scan"}, "is_reserved": 0, "is_disabled": 0, "name": "3fdf86d7bd46f8fc37d8fcd8b577211a", "bike_id": "3fdf86d7bd46f8fc37d8fcd8b577211a", "fusion_lat": 0.0, "lon": -77.04868116666667, "type": "electric_scooter", "fusion_lon": 0.0, "lat": 38.90044733333333}, {"rental_uris": {"android": "https://dc.lft.to/lastmile_qr_scan", "ios": "https://dc.lft.to/lastmile_qr_scan"}, "is_reserved": 0, "is_disabled": 0, "name": "be59df9936835de276ddece395ae9e02", "bike_id": "be59df9936835de276ddece395ae9e02", "fusion_lat": 0.0, "lon": -76.98059016666667, "type": "electric_bike", "fusion_lon": 0.0, "lat": 38.97250283333333}, {"rental_uris": {"android": "https://dc.lft.to/lastmile_qr_scan", "ios": "https://dc.lft.to/lastmile_qr_scan"}, "is_reserved": 0, "is_disabled": 0, "name": "a256850cdd9ff1f518af7f1c2b746e9b", "bike_id": "a256850cdd9ff1f518af7f1c2b746e9b", "fusion_lat": 0.0, "lon": -77.0195105, "type": "electric_scooter", "fusion_lon": 0.0, "lat": 38.923258}, {"rental_uris": {"android": "https://dc.lft.to/lastmile_qr_scan", "ios": "https://dc.lft.to/lastmile_qr_scan"}, "is_reserved": 0, "is_disabled": 0, "name": "311767ee1f89eb0c0121383e2c2eb36b", "bike_id": "311767ee1f89eb0c0121383e2c2eb36b", "fusion_lat": 0.0, "lon": -77.02917966666666, "type": "electric_scooter", "fusion_lon": 0.0, "lat": 38.898413}, {"rental_uris": {"android": "https://dc.lft.to/lastmile_qr_scan", "ios": "https://dc.lft.to/lastmile_qr_scan"}, "is_reserved": 0, "is_disabled": 0, "name": "e17b3a676d83fd543aa9c97799ad3dcc", "bike_id": "e17b3a676d83fd543aa9c97799ad3dcc", "fusion_lat": 0.0, "lon": -77.00201316666667, "type": "electric_scooter", "fusion_lon": 0.0, "lat": 38.900177166666666}, {"rental_uris": {"android": "https://dc.lft.to/lastmile_qr_scan", "ios": "https://dc.lft.to/lastmile_qr_scan"}, "is_reserved": 0, "is_disabled": 0, "name": "fedcaedd6ed6f8cf442ed9acf5127e00", "bike_id": "fedcaedd6ed6f8cf442ed9acf5127e00", "fusion_lat": 0.0, "lon": -77.0425195, "type": "electric_scooter", "fusion_lon": 0.0, "lat": 38.911978166666664}, {"rental_uris": {"android": "https://dc.lft.to/lastmile_qr_scan", "ios": "https://dc.lft.to/lastmile_qr_scan"}, "is_reserved": 0, "is_disabled": 0, "name": "b0c2163d8e8f22291f2559c38704cca1", "bike_id": "b0c2163d8e8f22291f2559c38704cca1", "fusion_lat": 0.0, "lon": -76.99847816666667, "type": "electric_scooter", "fusion_lon": 0.0, "lat": 38.9026415}, {"rental_uris": {"android": "https://dc.lft.to/lastmile_qr_scan", "ios": "https://dc.lft.to/lastmile_qr_scan"}, "is_reserved": 0, "is_disabled": 0, "name": "baabc70bb699c93b67359f211381eb5e", "bike_id": "baabc70bb699c93b67359f211381eb5e", "fusion_lat": 0.0, "lon": -77.022166, "type": "electric_scooter", "fusion_lon": 0.0, "lat": 38.9207935}, {"rental_uris": {"android": "https://dc.lft.to/lastmile_qr_scan", "ios": "https://dc.lft.to/lastmile_qr_scan"}, "is_reserved": 0, "is_disabled": 0, "name": "03ed6be589920ae6f98b93f930f197ba", "bike_id": "03ed6be589920ae6f98b93f930f197ba", "fusion_lat": 0.0, "lon": -77.02282183333334, "type": "electric_scooter", "fusion_lon": 0.0, "lat": 38.895021166666666}, {"rental_uris": {"android": "https://dc.lft.to/lastmile_qr_scan", "ios": "https://dc.lft.to/lastmile_qr_scan"}, "is_reserved": 0, "is_disabled": 0, "name": "4dab031987119d0a1a25dfb314e24043", "bike_id": "4dab031987119d0a1a25dfb314e24043", "fusion_lat": 0.0, "lon": -77.02241183333334, "type": "electric_scooter", "fusion_lon": 0.0, "lat": 38.9248965}, {"rental_uris": {"android": "https://dc.lft.to/lastmile_qr_scan", "ios": "https://dc.lft.to/lastmile_qr_scan"}, "is_reserved": 0, "is_disabled": 0, "name": "f3aa1f262b39a02c6db1f6de11857c88", "bike_id": "f3aa1f262b39a02c6db1f6de11857c88", "fusion_lat": 0.0, "lon": -77.01947766666666, "type": "electric_scooter", "fusion_lon": 0.0, "lat": 38.92327183333333}, {"rental_uris": {"android": "https://dc.lft.to/lastmile_qr_scan", "ios": "https://dc.lft.to/lastmile_qr_scan"}, "is_reserved": 0, "is_disabled": 0, "name": "a95d3e181cde435951cfa7f79a9de5e4", "bike_id": "a95d3e181cde435951cfa7f79a9de5e4", "fusion_lat": 0.0, "lon": -77.09660033333333, "type": "electric_bike", "fusion_lon": 0.0, "lat": 38.95221466666667}, {"rental_uris": {"android": "https://dc.lft.to/lastmile_qr_scan", "ios": "https://dc.lft.to/lastmile_qr_scan"}, "is_reserved": 0, "is_disabled": 0, "name": "b341c398a348c5ba098f08f09da183a1", "bike_id": "b341c398a348c5ba098f08f09da183a1", "fusion_lat": 0.0, "lon": -77.03376183333333, "type": "electric_scooter", "fusion_lon": 0.0, "lat": 38.900319333333336}, {"rental_uris": {"android": "https://dc.lft.to/lastmile_qr_scan", "ios": "https://dc.lft.to/lastmile_qr_scan"}, "is_reserved": 0, "is_disabled": 0, "name": "07310c32bae520831a52a58f92857c85", "bike_id": "07310c32bae520831a52a58f92857c85", "fusion_lat": 0.0, "lon": -76.9927155, "type": "electric_bike", "fusion_lon": 0.0, "lat": 38.972614}, {"rental_uris": {"android": "https://dc.lft.to/lastmile_qr_scan", "ios": "https://dc.lft.to/lastmile_qr_scan"}, "is_reserved": 0, "is_disabled": 0, "name": "e6ca952a9b997ff088562cf73d19693a", "bike_id": "e6ca952a9b997ff088562cf73d19693a", "fusion_lat": 0.0, "lon": -77.017985, "type": "electric_scooter", "fusion_lon": 0.0, "lat": 38.91939716666667}, {"rental_uris": {"android": "https://dc.lft.to/lastmile_qr_scan", "ios": "https://dc.lft.to/lastmile_qr_scan"}, "is_reserved": 0, "is_disabled": 0, "name": "6fdac03c637886761770b41bf60f7011", "bike_id": "6fdac03c637886761770b41bf60f7011", "fusion_lat": 0.0, "lon": -77.02880233333333, "type": "electric_scooter", "fusion_lon": 0.0, "lat": 38.91349616666667}, {"rental_uris": {"android": "https://dc.lft.to/lastmile_qr_scan", "ios": "https://dc.lft.to/lastmile_qr_scan"}, "is_reserved": 0, "is_disabled": 0, "name": "c34a62706df4dc5d0e206e525ae6c888", "bike_id": "c34a62706df4dc5d0e206e525ae6c888", "fusion_lat": 0.0, "lon": -77.02215133333333, "type": "electric_scooter", "fusion_lon": 0.0, "lat": 38.924704166666665}, {"rental_uris": {"android": "https://dc.lft.to/lastmile_qr_scan", "ios": "https://dc.lft.to/lastmile_qr_scan"}, "is_reserved": 0, "is_disabled": 0, "name": "8d119bd1ed6d7a1cf73df75ef7fd4e15", "bike_id": "8d119bd1ed6d7a1cf73df75ef7fd4e15", "fusion_lat": 0.0, "lon": -77.02584383333334, "type": "electric_scooter", "fusion_lon": 0.0, "lat": 38.9036105}, {"rental_uris": {"android": "https://dc.lft.to/lastmile_qr_scan", "ios": "https://dc.lft.to/lastmile_qr_scan"}, "is_reserved": 0, "is_disabled": 0, "name": "03e4431266d28bb9c461edc753ffcf23", "bike_id": "03e4431266d28bb9c461edc753ffcf23", "fusion_lat": 0.0, "lon": -76.99695216666667, "type": "electric_bike", "fusion_lon": 0.0, "lat": 38.838692}, {"rental_uris": {"android": "https://dc.lft.to/lastmile_qr_scan", "ios": "https://dc.lft.to/lastmile_qr_scan"}, "is_reserved": 0, "is_disabled": 0, "name": "6a6327a0385e75cc520a752442da09df", "bike_id": "6a6327a0385e75cc520a752442da09df", "fusion_lat": 0.0, "lon": -77.04152716666667, "type": "electric_scooter", "fusion_lon": 0.0, "lat": 38.91723433333333}, {"rental_uris": {"android": "https://dc.lft.to/lastmile_qr_scan", "ios": "https://dc.lft.to/lastmile_qr_scan"}, "is_reserved": 0, "is_disabled": 0, "name": "9cb882eaa2ee98572489f2b6dd649c3c", "bike_id": "9cb882eaa2ee98572489f2b6dd649c3c", "fusion_lat": 0.0, "lon": -77.02507116666666, "type": "electric_scooter", "fusion_lon": 0.0, "lat": 38.90422866666667}, {"rental_uris": {"android": "https://dc.lft.to/lastmile_qr_scan", "ios": "https://dc.lft.to/lastmile_qr_scan"}, "is_reserved": 0, "is_disabled": 0, "name": "14f76007a67d2e7515d5a41ecbfa15d2", "bike_id": "14f76007a67d2e7515d5a41ecbfa15d2", "fusion_lat": 0.0, "lon": -76.90749416666667, "type": "electric_bike", "fusion_lon": 0.0, "lat": 38.896209666666664}, {"rental_uris": {"android": "https://dc.lft.to/lastmile_qr_scan", "ios": "https://dc.lft.to/lastmile_qr_scan"}, "is_reserved": 0, "is_disabled": 0, "name": "8590106c9d8812fad410beedd87fd818", "bike_id": "8590106c9d8812fad410beedd87fd818", "fusion_lat": 0.0, "lon": -77.018075, "type": "electric_scooter", "fusion_lon": 0.0, "lat": 38.9027085}, {"rental_uris": {"android": "https://dc.lft.to/lastmile_qr_scan", "ios": "https://dc.lft.to/lastmile_qr_scan"}, "is_reserved": 0, "is_disabled": 0, "name": "b3c11ead27da2e027597a4c232924246", "bike_id": "b3c11ead27da2e027597a4c232924246", "fusion_lat": 0.0, "lon": -77.0337825, "type": "electric_scooter", "fusion_lon": 0.0, "lat": 38.930657}, {"rental_uris": {"android": "https://dc.lft.to/lastmile_qr_scan", "ios": "https://dc.lft.to/lastmile_qr_scan"}, "is_reserved": 0, "is_disabled": 0, "name": "a2ac8bf8f2e8ada7286eb1f1475e8e24", "bike_id": "a2ac8bf8f2e8ada7286eb1f1475e8e24", "fusion_lat": 0.0, "lon": -77.0217885, "type": "electric_scooter", "fusion_lon": 0.0, "lat": 38.887204833333335}, {"rental_uris": {"android": "https://dc.lft.to/lastmile_qr_scan", "ios": "https://dc.lft.to/lastmile_qr_scan"}, "is_reserved": 0, "is_disabled": 0, "name": "63d7f192f6bf6f289789ac205479e5f5", "bike_id": "63d7f192f6bf6f289789ac205479e5f5", "fusion_lat": 0.0, "lon": -77.0558695, "type": "electric_scooter", "fusion_lon": 0.0, "lat": 38.931153333333334}, {"rental_uris": {"android": "https://dc.lft.to/lastmile_qr_scan", "ios": "https://dc.lft.to/lastmile_qr_scan"}, "is_reserved": 0, "is_disabled": 0, "name": "30af9126cfe5cd1a791832bca1b67470", "bike_id": "30af9126cfe5cd1a791832bca1b67470", "fusion_lat": 0.0, "lon": -77.03261533333334, "type": "electric_scooter", "fusion_lon": 0.0, "lat": 38.94078283333333}, {"rental_uris": {"android": "https://dc.lft.to/lastmile_qr_scan", "ios": "https://dc.lft.to/lastmile_qr_scan"}, "is_reserved": 0, "is_disabled": 0, "name": "b36dd54dc26b72854f6a265637452446", "bike_id": "b36dd54dc26b72854f6a265637452446", "fusion_lat": 0.0, "lon": -76.97223433333333, "type": "electric_bike", "fusion_lon": 0.0, "lat": 38.9004485}, {"rental_uris": {"android": "https://dc.lft.to/lastmile_qr_scan", "ios": "https://dc.lft.to/lastmile_qr_scan"}, "is_reserved": 0, "is_disabled": 0, "name": "d63bb0a3771fb579a5701e696ade8f09", "bike_id": "d63bb0a3771fb579a5701e696ade8f09", "fusion_lat": 0.0, "lon": -77.00605416666667, "type": "electric_scooter", "fusion_lon": 0.0, "lat": 38.90554383333333}, {"rental_uris": {"android": "https://dc.lft.to/lastmile_qr_scan", "ios": "https://dc.lft.to/lastmile_qr_scan"}, "is_reserved": 0, "is_disabled": 0, "name": "ae9d4de3152f9c7d2c3f7478ae8b96b2", "bike_id": "ae9d4de3152f9c7d2c3f7478ae8b96b2", "fusion_lat": 0.0, "lon": -77.0218975, "type": "electric_scooter", "fusion_lon": 0.0, "lat": 38.9019795}, {"rental_uris": {"android": "https://dc.lft.to/lastmile_qr_scan", "ios": "https://dc.lft.to/lastmile_qr_scan"}, "is_reserved": 0, "is_disabled": 0, "name": "f3e222f561a88544d55d643f90ee9321", "bike_id": "f3e222f561a88544d55d643f90ee9321", "fusion_lat": 0.0, "lon": -76.92466933333333, "type": "electric_scooter", "fusion_lon": 0.0, "lat": 38.885143666666664}, {"rental_uris": {"android": "https://dc.lft.to/lastmile_qr_scan", "ios": "https://dc.lft.to/lastmile_qr_scan"}, "is_reserved": 0, "is_disabled": 0, "name": "7bea2508d370213ba59d7b528eebcfb8", "bike_id": "7bea2508d370213ba59d7b528eebcfb8", "fusion_lat": 0.0, "lon": -77.02066183333334, "type": "electric_scooter", "fusion_lon": 0.0, "lat": 38.89565966666667}, {"rental_uris": {"android": "https://dc.lft.to/lastmile_qr_scan", "ios": "https://dc.lft.to/lastmile_qr_scan"}, "is_reserved": 0, "is_disabled": 0, "name": "117e6379ee868f3d82891bf011b5afc4", "bike_id": "117e6379ee868f3d82891bf011b5afc4", "fusion_lat": 0.0, "lon": -77.01506866666666, "type": "electric_scooter", "fusion_lon": 0.0, "lat": 38.891153}, {"rental_uris": {"android": "https://dc.lft.to/lastmile_qr_scan", "ios": "https://dc.lft.to/lastmile_qr_scan"}, "is_reserved": 0, "is_disabled": 0, "name": "f726866087613b563e522706695cf19e", "bike_id": "f726866087613b563e522706695cf19e", "fusion_lat": 0.0, "lon": -77.02591866666667, "type": "electric_scooter", "fusion_lon": 0.0, "lat": 38.90350883333333}, {"rental_uris": {"android": "https://dc.lft.to/lastmile_qr_scan", "ios": "https://dc.lft.to/lastmile_qr_scan"}, "is_reserved": 0, "is_disabled": 0, "name": "63b547636a91fdd1703280ca6ce4af26", "bike_id": "63b547636a91fdd1703280ca6ce4af26", "fusion_lat": 0.0, "lon": -77.02896283333334, "type": "electric_scooter", "fusion_lon": 0.0, "lat": 38.92243916666666}, {"rental_uris": {"android": "https://dc.lft.to/lastmile_qr_scan", "ios": "https://dc.lft.to/lastmile_qr_scan"}, "is_reserved": 0, "is_disabled": 0, "name": "0476f77cd28a34e469a30da34d4b7d97", "bike_id": "0476f77cd28a34e469a30da34d4b7d97", "fusion_lat": 0.0, "lon": -77.03960833333333, "type": "electric_scooter", "fusion_lon": 0.0, "lat": 38.9014685}, {"rental_uris": {"android": "https://dc.lft.to/lastmile_qr_scan", "ios": "https://dc.lft.to/lastmile_qr_scan"}, "is_reserved": 0, "is_disabled": 0, "name": "169aacbc6a95ec7742d5474bf2989032", "bike_id": "169aacbc6a95ec7742d5474bf2989032", "fusion_lat": 0.0, "lon": -77.02719716666667, "type": "electric_scooter", "fusion_lon": 0.0, "lat": 38.9278415}, {"rental_uris": {"android": "https://dc.lft.to/lastmile_qr_scan", "ios": "https://dc.lft.to/lastmile_qr_scan"}, "is_reserved": 0, "is_disabled": 0, "name": "0c71db08d8d603177aa23581b38030f3", "bike_id": "0c71db08d8d603177aa23581b38030f3", "fusion_lat": 0.0, "lon": -76.98369583333333, "type": "electric_scooter", "fusion_lon": 0.0, "lat": 38.922258666666664}, {"rental_uris": {"android": "https://dc.lft.to/lastmile_qr_scan", "ios": "https://dc.lft.to/lastmile_qr_scan"}, "is_reserved": 0, "is_disabled": 0, "name": "d995e74503e6c3b9a93c8e51417672c4", "bike_id": "d995e74503e6c3b9a93c8e51417672c4", "fusion_lat": 0.0, "lon": -77.05077666666666, "type": "electric_scooter", "fusion_lon": 0.0, "lat": 38.900575}, {"rental_uris": {"android": "https://dc.lft.to/lastmile_qr_scan", "ios": "https://dc.lft.to/lastmile_qr_scan"}, "is_reserved": 0, "is_disabled": 0, "name": "4a3b035d24d759280e13f1344f113899", "bike_id": "4a3b035d24d759280e13f1344f113899", "fusion_lat": 0.0, "lon": -77.02333933333334, "type": "electric_scooter", "fusion_lon": 0.0, "lat": 38.922325}, {"rental_uris": {"android": "https://dc.lft.to/lastmile_qr_scan", "ios": "https://dc.lft.to/lastmile_qr_scan"}, "is_reserved": 0, "is_disabled": 0, "name": "eaf0e52c7809339393aed33d8a1ac157", "bike_id": "eaf0e52c7809339393aed33d8a1ac157", "fusion_lat": 0.0, "lon": -76.91716483333333, "type": "electric_bike", "fusion_lon": 0.0, "lat": 38.88029383333333}, {"rental_uris": {"android": "https://dc.lft.to/lastmile_qr_scan", "ios": "https://dc.lft.to/lastmile_qr_scan"}, "is_reserved": 0, "is_disabled": 0, "name": "f932e9309015e8df45f012f3b3a0e8c7", "bike_id": "f932e9309015e8df45f012f3b3a0e8c7", "fusion_lat": 0.0, "lon": -77.03294433333333, "type": "electric_scooter", "fusion_lon": 0.0, "lat": 38.95618616666667}, {"rental_uris": {"android": "https://dc.lft.to/lastmile_qr_scan", "ios": "https://dc.lft.to/lastmile_qr_scan"}, "is_reserved": 0, "is_disabled": 0, "name": "ea11e0afcd51d8ccc379e1c9a2035c95", "bike_id": "ea11e0afcd51d8ccc379e1c9a2035c95", "fusion_lat": 0.0, "lon": -77.042271, "type": "electric_scooter", "fusion_lon": 0.0, "lat": 38.92180366666667}, {"rental_uris": {"android": "https://dc.lft.to/lastmile_qr_scan", "ios": "https://dc.lft.to/lastmile_qr_scan"}, "is_reserved": 0, "is_disabled": 0, "name": "4e9b81192e5f6098de6fdf2e2ad22cc0", "bike_id": "4e9b81192e5f6098de6fdf2e2ad22cc0", "fusion_lat": 0.0, "lon": -77.03213583333333, "type": "electric_scooter", "fusion_lon": 0.0, "lat": 38.892359}, {"rental_uris": {"android": "https://dc.lft.to/lastmile_qr_scan", "ios": "https://dc.lft.to/lastmile_qr_scan"}, "is_reserved": 0, "is_disabled": 0, "name": "27bb6adefe92dbf707493d73db661276", "bike_id": "27bb6adefe92dbf707493d73db661276", "fusion_lat": 0.0, "lon": -77.033451, "type": "electric_bike", "fusion_lon": 0.0, "lat": 38.898997666666666}, {"rental_uris": {"android": "https://dc.lft.to/lastmile_qr_scan", "ios": "https://dc.lft.to/lastmile_qr_scan"}, "is_reserved": 0, "is_disabled": 0, "name": "1c868549b6aee9793c85a2f2d7e57ba3", "bike_id": "1c868549b6aee9793c85a2f2d7e57ba3", "fusion_lat": 0.0, "lon": -77.04992466666667, "type": "electric_scooter", "fusion_lon": 0.0, "lat": 38.89834066666667}, {"rental_uris": {"android": "https://dc.lft.to/lastmile_qr_scan", "ios": "https://dc.lft.to/lastmile_qr_scan"}, "is_reserved": 0, "is_disabled": 0, "name": "fa76750b3313d2cf2fb5277a03f3ca9a", "bike_id": "fa76750b3313d2cf2fb5277a03f3ca9a", "fusion_lat": 0.0, "lon": -77.03194733333333, "type": "electric_scooter", "fusion_lon": 0.0, "lat": 38.92006416666667}, {"rental_uris": {"android": "https://dc.lft.to/lastmile_qr_scan", "ios": "https://dc.lft.to/lastmile_qr_scan"}, "is_reserved": 0, "is_disabled": 0, "name": "07fc7ec36e122fb1b06788add3bff956", "bike_id": "07fc7ec36e122fb1b06788add3bff956", "fusion_lat": 0.0, "lon": -77.02194383333334, "type": "electric_scooter", "fusion_lon": 0.0, "lat": 38.92168916666667}, {"rental_uris": {"android": "https://dc.lft.to/lastmile_qr_scan", "ios": "https://dc.lft.to/lastmile_qr_scan"}, "is_reserved": 0, "is_disabled": 0, "name": "c459c863fafe16a7901c8b010fe7a214", "bike_id": "c459c863fafe16a7901c8b010fe7a214", "fusion_lat": 0.0, "lon": -77.04869083333334, "type": "electric_scooter", "fusion_lon": 0.0, "lat": 38.89222783333334}, {"rental_uris": {"android": "https://dc.lft.to/lastmile_qr_scan", "ios": "https://dc.lft.to/lastmile_qr_scan"}, "is_reserved": 0, "is_disabled": 0, "name": "a7339bbef80f2aafdd52c69e0963cce4", "bike_id": "a7339bbef80f2aafdd52c69e0963cce4", "fusion_lat": 0.0, "lon": -77.02573483333333, "type": "electric_scooter", "fusion_lon": 0.0, "lat": 38.9269175}, {"rental_uris": {"android": "https://dc.lft.to/lastmile_qr_scan", "ios": "https://dc.lft.to/lastmile_qr_scan"}, "is_reserved": 0, "is_disabled": 0, "name": "4d774fa0a0b14b07f210965fc8264032", "bike_id": "4d774fa0a0b14b07f210965fc8264032", "fusion_lat": 0.0, "lon": -76.9308215, "type": "electric_scooter", "fusion_lon": 0.0, "lat": 38.895576166666665}, {"rental_uris": {"android": "https://dc.lft.to/lastmile_qr_scan", "ios": "https://dc.lft.to/lastmile_qr_scan"}, "is_reserved": 0, "is_disabled": 0, "name": "9ef4db254297ff1080e648fc0fc5c3a9", "bike_id": "9ef4db254297ff1080e648fc0fc5c3a9", "fusion_lat": 0.0, "lon": -77.00050066666667, "type": "electric_scooter", "fusion_lon": 0.0, "lat": 38.87888183333333}, {"rental_uris": {"android": "https://dc.lft.to/lastmile_qr_scan", "ios": "https://dc.lft.to/lastmile_qr_scan"}, "is_reserved": 0, "is_disabled": 0, "name": "c59a03ed822cfe320ab1feee04570350", "bike_id": "c59a03ed822cfe320ab1feee04570350", "fusion_lat": 0.0, "lon": -77.0467135, "type": "electric_scooter", "fusion_lon": 0.0, "lat": 38.89739066666667}, {"rental_uris": {"android": "https://dc.lft.to/lastmile_qr_scan", "ios": "https://dc.lft.to/lastmile_qr_scan"}, "is_reserved": 0, "is_disabled": 0, "name": "e8378535fa4d41e5757dab6a954a70a4", "bike_id": "e8378535fa4d41e5757dab6a954a70a4", "fusion_lat": 0.0, "lon": -77.01152083333334, "type": "electric_scooter", "fusion_lon": 0.0, "lat": 38.900189}, {"rental_uris": {"android": "https://dc.lft.to/lastmile_qr_scan", "ios": "https://dc.lft.to/lastmile_qr_scan"}, "is_reserved": 0, "is_disabled": 0, "name": "27d0967f2e83d0292306e419dfb6c78d", "bike_id": "27d0967f2e83d0292306e419dfb6c78d", "fusion_lat": 0.0, "lon": -76.9989405, "type": "electric_scooter", "fusion_lon": 0.0, "lat": 38.9530085}, {"rental_uris": {"android": "https://dc.lft.to/lastmile_qr_scan", "ios": "https://dc.lft.to/lastmile_qr_scan"}, "is_reserved": 0, "is_disabled": 0, "name": "9a910932f31b0ae1e3436fe494ba06c1", "bike_id": "9a910932f31b0ae1e3436fe494ba06c1", "fusion_lat": 0.0, "lon": -77.02403766666667, "type": "electric_scooter", "fusion_lon": 0.0, "lat": 38.910981666666665}, {"rental_uris": {"android": "https://dc.lft.to/lastmile_qr_scan", "ios": "https://dc.lft.to/lastmile_qr_scan"}, "is_reserved": 0, "is_disabled": 0, "name": "95b8170219750bfe7d3205bfd37327e1", "bike_id": "95b8170219750bfe7d3205bfd37327e1", "fusion_lat": 0.0, "lon": -77.0270475, "type": "electric_scooter", "fusion_lon": 0.0, "lat": 38.900801666666666}, {"rental_uris": {"android": "https://dc.lft.to/lastmile_qr_scan", "ios": "https://dc.lft.to/lastmile_qr_scan"}, "is_reserved": 0, "is_disabled": 0, "name": "ced284fad8c14df64bfcbf0de753319b", "bike_id": "ced284fad8c14df64bfcbf0de753319b", "fusion_lat": 0.0, "lon": -77.06258933333334, "type": "electric_bike", "fusion_lon": 0.0, "lat": 38.80634166666667}, {"rental_uris": {"android": "https://dc.lft.to/lastmile_qr_scan", "ios": "https://dc.lft.to/lastmile_qr_scan"}, "is_reserved": 0, "is_disabled": 0, "name": "c8407fa8b8b49c941557fc9ccf6a003c", "bike_id": "c8407fa8b8b49c941557fc9ccf6a003c", "fusion_lat": 0.0, "lon": -77.021683, "type": "electric_scooter", "fusion_lon": 0.0, "lat": 38.90001316666667}, {"rental_uris": {"android": "https://dc.lft.to/lastmile_qr_scan", "ios": "https://dc.lft.to/lastmile_qr_scan"}, "is_reserved": 0, "is_disabled": 0, "name": "1a8aeb869135a54375d214830a367f61", "bike_id": "1a8aeb869135a54375d214830a367f61", "fusion_lat": 0.0, "lon": -76.977423, "type": "electric_bike", "fusion_lon": 0.0, "lat": 38.86494783333333}, {"rental_uris": {"android": "https://dc.lft.to/lastmile_qr_scan", "ios": "https://dc.lft.to/lastmile_qr_scan"}, "is_reserved": 0, "is_disabled": 0, "name": "33bc19f9a76b80cae006ff36a5d7c619", "bike_id": "33bc19f9a76b80cae006ff36a5d7c619", "fusion_lat": 0.0, "lon": -77.02299783333333, "type": "electric_scooter", "fusion_lon": 0.0, "lat": 38.9020045}, {"rental_uris": {"android": "https://dc.lft.to/lastmile_qr_scan", "ios": "https://dc.lft.to/lastmile_qr_scan"}, "is_reserved": 0, "is_disabled": 0, "name": "6ac05bf6ddbc6dc13fbb5c9462123b4a", "bike_id": "6ac05bf6ddbc6dc13fbb5c9462123b4a", "fusion_lat": 0.0, "lon": -77.02826166666667, "type": "electric_scooter", "fusion_lon": 0.0, "lat": 38.9027475}, {"rental_uris": {"android": "https://dc.lft.to/lastmile_qr_scan", "ios": "https://dc.lft.to/lastmile_qr_scan"}, "is_reserved": 0, "is_disabled": 0, "name": "7b33cbbff5c94923a84869258492221e", "bike_id": "7b33cbbff5c94923a84869258492221e", "fusion_lat": 0.0, "lon": -77.03215733333333, "type": "electric_scooter", "fusion_lon": 0.0, "lat": 38.896650666666666}, {"rental_uris": {"android": "https://dc.lft.to/lastmile_qr_scan", "ios": "https://dc.lft.to/lastmile_qr_scan"}, "is_reserved": 0, "is_disabled": 0, "name": "ea0c5e7f09543253c56d5f081a4bf5a1", "bike_id": "ea0c5e7f09543253c56d5f081a4bf5a1", "fusion_lat": 0.0, "lon": -77.01954733333334, "type": "electric_scooter", "fusion_lon": 0.0, "lat": 38.923287333333334}, {"rental_uris": {"android": "https://dc.lft.to/lastmile_qr_scan", "ios": "https://dc.lft.to/lastmile_qr_scan"}, "is_reserved": 0, "is_disabled": 0, "name": "3a5d7e40f08b914d50c256c4a1e65e0e", "bike_id": "3a5d7e40f08b914d50c256c4a1e65e0e", "fusion_lat": 0.0, "lon": -77.0756965, "type": "electric_scooter", "fusion_lon": 0.0, "lat": 38.90737716666667}, {"rental_uris": {"android": "https://dc.lft.to/lastmile_qr_scan", "ios": "https://dc.lft.to/lastmile_qr_scan"}, "is_reserved": 0, "is_disabled": 0, "name": "e09c8d0cd00c0f6ed5e362b69fcc26bf", "bike_id": "e09c8d0cd00c0f6ed5e362b69fcc26bf", "fusion_lat": 0.0, "lon": -77.007964, "type": "electric_scooter", "fusion_lon": 0.0, "lat": 38.926682666666665}, {"rental_uris": {"android": "https://dc.lft.to/lastmile_qr_scan", "ios": "https://dc.lft.to/lastmile_qr_scan"}, "is_reserved": 0, "is_disabled": 0, "name": "832caa416cfbb09ff776e023975a6fb4", "bike_id": "832caa416cfbb09ff776e023975a6fb4", "fusion_lat": 0.0, "lon": -77.0464055, "type": "electric_bike", "fusion_lon": 0.0, "lat": 38.81548516666667}, {"rental_uris": {"android": "https://dc.lft.to/lastmile_qr_scan", "ios": "https://dc.lft.to/lastmile_qr_scan"}, "is_reserved": 0, "is_disabled": 0, "name": "61320fca7d63d902817aeec0ccef61f3", "bike_id": "61320fca7d63d902817aeec0ccef61f3", "fusion_lat": 0.0, "lon": -77.04195983333334, "type": "electric_scooter", "fusion_lon": 0.0, "lat": 38.90552533333333}, {"rental_uris": {"android": "https://dc.lft.to/lastmile_qr_scan", "ios": "https://dc.lft.to/lastmile_qr_scan"}, "is_reserved": 0, "is_disabled": 0, "name": "5b21dd3632aaa19a53c6dc546aae652d", "bike_id": "5b21dd3632aaa19a53c6dc546aae652d", "fusion_lat": 0.0, "lon": -77.036499, "type": "electric_scooter", "fusion_lon": 0.0, "lat": 38.902454}, {"rental_uris": {"android": "https://dc.lft.to/lastmile_qr_scan", "ios": "https://dc.lft.to/lastmile_qr_scan"}, "is_reserved": 0, "is_disabled": 0, "name": "4ffcd4179533fddefc0a1e3a3b9e1f96", "bike_id": "4ffcd4179533fddefc0a1e3a3b9e1f96", "fusion_lat": 0.0, "lon": -76.98335566666667, "type": "electric_scooter", "fusion_lon": 0.0, "lat": 38.89546566666667}, {"rental_uris": {"android": "https://dc.lft.to/lastmile_qr_scan", "ios": "https://dc.lft.to/lastmile_qr_scan"}, "is_reserved": 0, "is_disabled": 0, "name": "875b90f6721215e3e353b10b0e73aae5", "bike_id": "875b90f6721215e3e353b10b0e73aae5", "fusion_lat": 0.0, "lon": -77.0226755, "type": "electric_scooter", "fusion_lon": 0.0, "lat": 38.8999605}, {"rental_uris": {"android": "https://dc.lft.to/lastmile_qr_scan", "ios": "https://dc.lft.to/lastmile_qr_scan"}, "is_reserved": 0, "is_disabled": 0, "name": "46d1bae98bf8206bfb7b6711b4fa00d0", "bike_id": "46d1bae98bf8206bfb7b6711b4fa00d0", "fusion_lat": 0.0, "lon": -77.02504666666667, "type": "electric_scooter", "fusion_lon": 0.0, "lat": 38.88032966666667}, {"rental_uris": {"android": "https://dc.lft.to/lastmile_qr_scan", "ios": "https://dc.lft.to/lastmile_qr_scan"}, "is_reserved": 0, "is_disabled": 0, "name": "8b123ba0ed51a83e3b5aff6e8a46c8b0", "bike_id": "8b123ba0ed51a83e3b5aff6e8a46c8b0", "fusion_lat": 0.0, "lon": -77.03638366666667, "type": "electric_scooter", "fusion_lon": 0.0, "lat": 38.917989}, {"rental_uris": {"android": "https://dc.lft.to/lastmile_qr_scan", "ios": "https://dc.lft.to/lastmile_qr_scan"}, "is_reserved": 0, "is_disabled": 0, "name": "9ce689464153d91474ec60408a0c9505", "bike_id": "9ce689464153d91474ec60408a0c9505", "fusion_lat": 0.0, "lon": -76.97961783333334, "type": "electric_scooter", "fusion_lon": 0.0, "lat": 38.8979515}, {"rental_uris": {"android": "https://dc.lft.to/lastmile_qr_scan", "ios": "https://dc.lft.to/lastmile_qr_scan"}, "is_reserved": 0, "is_disabled": 0, "name": "4b1a2185e55d3eddfd1a0570c48ec421", "bike_id": "4b1a2185e55d3eddfd1a0570c48ec421", "fusion_lat": 0.0, "lon": -76.9880335, "type": "electric_scooter", "fusion_lon": 0.0, "lat": 38.893670666666665}, {"rental_uris": {"android": "https://dc.lft.to/lastmile_qr_scan", "ios": "https://dc.lft.to/lastmile_qr_scan"}, "is_reserved": 0, "is_disabled": 0, "name": "21b020f8f9c8a05fdc03ce4a838f8148", "bike_id": "21b020f8f9c8a05fdc03ce4a838f8148", "fusion_lat": 0.0, "lon": -77.00759316666667, "type": "electric_scooter", "fusion_lon": 0.0, "lat": 38.90959866666667}, {"rental_uris": {"android": "https://dc.lft.to/lastmile_qr_scan", "ios": "https://dc.lft.to/lastmile_qr_scan"}, "is_reserved": 0, "is_disabled": 0, "name": "e09646c9319871a0a2b5f30bcdc02f6e", "bike_id": "e09646c9319871a0a2b5f30bcdc02f6e", "fusion_lat": 0.0, "lon": -77.04044466666667, "type": "electric_scooter", "fusion_lon": 0.0, "lat": 38.90581916666667}, {"rental_uris": {"android": "https://dc.lft.to/lastmile_qr_scan", "ios": "https://dc.lft.to/lastmile_qr_scan"}, "is_reserved": 0, "is_disabled": 0, "name": "b66e65920c3a59d811445ace73be721c", "bike_id": "b66e65920c3a59d811445ace73be721c", "fusion_lat": 0.0, "lon": -77.0056555, "type": "electric_scooter", "fusion_lon": 0.0, "lat": 38.906636}, {"rental_uris": {"android": "https://dc.lft.to/lastmile_qr_scan", "ios": "https://dc.lft.to/lastmile_qr_scan"}, "is_reserved": 0, "is_disabled": 0, "name": "1cb3d67e74dd6e19b7ad075dc5210577", "bike_id": "1cb3d67e74dd6e19b7ad075dc5210577", "fusion_lat": 0.0, "lon": -77.02736066666667, "type": "electric_scooter", "fusion_lon": 0.0, "lat": 38.95207716666667}, {"rental_uris": {"android": "https://dc.lft.to/lastmile_qr_scan", "ios": "https://dc.lft.to/lastmile_qr_scan"}, "is_reserved": 0, "is_disabled": 0, "name": "b3f3e5e0b966a5952471adb895f25d61", "bike_id": "b3f3e5e0b966a5952471adb895f25d61", "fusion_lat": 0.0, "lon": -76.98543983333333, "type": "electric_scooter", "fusion_lon": 0.0, "lat": 38.879966333333336}, {"rental_uris": {"android": "https://dc.lft.to/lastmile_qr_scan", "ios": "https://dc.lft.to/lastmile_qr_scan"}, "is_reserved": 0, "is_disabled": 0, "name": "b440bed469f1216eb083d8ea6f0c5396", "bike_id": "b440bed469f1216eb083d8ea6f0c5396", "fusion_lat": 0.0, "lon": -76.9952125, "type": "electric_scooter", "fusion_lon": 0.0, "lat": 38.883714499999996}, {"rental_uris": {"android": "https://dc.lft.to/lastmile_qr_scan", "ios": "https://dc.lft.to/lastmile_qr_scan"}, "is_reserved": 0, "is_disabled": 0, "name": "75eeb66c1555b1ebe40c3b93978e3ecc", "bike_id": "75eeb66c1555b1ebe40c3b93978e3ecc", "fusion_lat": 0.0, "lon": -77.02208783333333, "type": "electric_scooter", "fusion_lon": 0.0, "lat": 38.91889333333334}, {"rental_uris": {"android": "https://dc.lft.to/lastmile_qr_scan", "ios": "https://dc.lft.to/lastmile_qr_scan"}, "is_reserved": 0, "is_disabled": 0, "name": "fa9bdbe2dcf54cc2912f5ae445e2eb3b", "bike_id": "fa9bdbe2dcf54cc2912f5ae445e2eb3b", "fusion_lat": 0.0, "lon": -77.044525, "type": "electric_scooter", "fusion_lon": 0.0, "lat": 38.90261566666667}, {"rental_uris": {"android": "https://dc.lft.to/lastmile_qr_scan", "ios": "https://dc.lft.to/lastmile_qr_scan"}, "is_reserved": 0, "is_disabled": 0, "name": "f897b9ba03540f6d6d178ec64b7f63dc", "bike_id": "f897b9ba03540f6d6d178ec64b7f63dc", "fusion_lat": 0.0, "lon": -77.02344183333334, "type": "electric_scooter", "fusion_lon": 0.0, "lat": 38.8813345}, {"rental_uris": {"android": "https://dc.lft.to/lastmile_qr_scan", "ios": "https://dc.lft.to/lastmile_qr_scan"}, "is_reserved": 0, "is_disabled": 0, "name": "54eb86b4ff0362e8ce6efb107af70471", "bike_id": "54eb86b4ff0362e8ce6efb107af70471", "fusion_lat": 0.0, "lon": -77.05883483333334, "type": "electric_scooter", "fusion_lon": 0.0, "lat": 38.9361285}, {"rental_uris": {"android": "https://dc.lft.to/lastmile_qr_scan", "ios": "https://dc.lft.to/lastmile_qr_scan"}, "is_reserved": 0, "is_disabled": 0, "name": "6b67e146dc0649f07d0c00b26a9c938f", "bike_id": "6b67e146dc0649f07d0c00b26a9c938f", "fusion_lat": 0.0, "lon": -77.04565133333334, "type": "electric_scooter", "fusion_lon": 0.0, "lat": 38.900604666666666}, {"rental_uris": {"android": "https://dc.lft.to/lastmile_qr_scan", "ios": "https://dc.lft.to/lastmile_qr_scan"}, "is_reserved": 0, "is_disabled": 0, "name": "3ab45266552d87fb3e1382e6984083c1", "bike_id": "3ab45266552d87fb3e1382e6984083c1", "fusion_lat": 0.0, "lon": -77.02676716666667, "type": "electric_scooter", "fusion_lon": 0.0, "lat": 38.902682666666664}, {"rental_uris": {"android": "https://dc.lft.to/lastmile_qr_scan", "ios": "https://dc.lft.to/lastmile_qr_scan"}, "is_reserved": 0, "is_disabled": 0, "name": "079699b0e62a6c96d7ce5d798ffd90aa", "bike_id": "079699b0e62a6c96d7ce5d798ffd90aa", "fusion_lat": 0.0, "lon": -77.044081, "type": "electric_scooter", "fusion_lon": 0.0, "lat": 38.929520833333335}, {"rental_uris": {"android": "https://dc.lft.to/lastmile_qr_scan", "ios": "https://dc.lft.to/lastmile_qr_scan"}, "is_reserved": 0, "is_disabled": 0, "name": "260b7e5ab6c2c0f504161f7d357aafef", "bike_id": "260b7e5ab6c2c0f504161f7d357aafef", "fusion_lat": 0.0, "lon": -77.04352483333334, "type": "electric_bike", "fusion_lon": 0.0, "lat": 38.8951905}, {"rental_uris": {"android": "https://dc.lft.to/lastmile_qr_scan", "ios": "https://dc.lft.to/lastmile_qr_scan"}, "is_reserved": 0, "is_disabled": 0, "name": "9c6e0db9e5f42ff8f0c85399faecd3ae", "bike_id": "9c6e0db9e5f42ff8f0c85399faecd3ae", "fusion_lat": 0.0, "lon": -77.0191565, "type": "electric_scooter", "fusion_lon": 0.0, "lat": 38.921823}, {"rental_uris": {"android": "https://dc.lft.to/lastmile_qr_scan", "ios": "https://dc.lft.to/lastmile_qr_scan"}, "is_reserved": 0, "is_disabled": 0, "name": "a6d2e4d706842dd2da43fafda0cde4e1", "bike_id": "a6d2e4d706842dd2da43fafda0cde4e1", "fusion_lat": 0.0, "lon": -77.01434133333333, "type": "electric_scooter", "fusion_lon": 0.0, "lat": 38.928458666666664}, {"rental_uris": {"android": "https://dc.lft.to/lastmile_qr_scan", "ios": "https://dc.lft.to/lastmile_qr_scan"}, "is_reserved": 0, "is_disabled": 0, "name": "a2c4828bda97985882e9300a89f4bf68", "bike_id": "a2c4828bda97985882e9300a89f4bf68", "fusion_lat": 0.0, "lon": -77.03929133333334, "type": "electric_scooter", "fusion_lon": 0.0, "lat": 38.90843516666666}, {"rental_uris": {"android": "https://dc.lft.to/lastmile_qr_scan", "ios": "https://dc.lft.to/lastmile_qr_scan"}, "is_reserved": 0, "is_disabled": 0, "name": "d17473c7fc1067535df625435c128446", "bike_id": "d17473c7fc1067535df625435c128446", "fusion_lat": 0.0, "lon": -77.00479833333333, "type": "electric_scooter", "fusion_lon": 0.0, "lat": 38.874565}, {"rental_uris": {"android": "https://dc.lft.to/lastmile_qr_scan", "ios": "https://dc.lft.to/lastmile_qr_scan"}, "is_reserved": 0, "is_disabled": 0, "name": "ba78bda71a16510fd82c03a0feae9968", "bike_id": "ba78bda71a16510fd82c03a0feae9968", "fusion_lat": 0.0, "lon": -77.02710216666667, "type": "electric_scooter", "fusion_lon": 0.0, "lat": 38.906825166666664}, {"rental_uris": {"android": "https://dc.lft.to/lastmile_qr_scan", "ios": "https://dc.lft.to/lastmile_qr_scan"}, "is_reserved": 0, "is_disabled": 0, "name": "4e36e9b5e76059caec2597b8707f8f4a", "bike_id": "4e36e9b5e76059caec2597b8707f8f4a", "fusion_lat": 0.0, "lon": -77.02655116666666, "type": "electric_scooter", "fusion_lon": 0.0, "lat": 38.93875216666667}, {"rental_uris": {"android": "https://dc.lft.to/lastmile_qr_scan", "ios": "https://dc.lft.to/lastmile_qr_scan"}, "is_reserved": 0, "is_disabled": 0, "name": "c7ea936c6b583819193d338fb0a2b161", "bike_id": "c7ea936c6b583819193d338fb0a2b161", "fusion_lat": 0.0, "lon": -76.9835765, "type": "electric_scooter", "fusion_lon": 0.0, "lat": 38.8873385}, {"rental_uris": {"android": "https://dc.lft.to/lastmile_qr_scan", "ios": "https://dc.lft.to/lastmile_qr_scan"}, "is_reserved": 0, "is_disabled": 0, "name": "35cb453dfa16eaff581456131e74f9b1", "bike_id": "35cb453dfa16eaff581456131e74f9b1", "fusion_lat": 0.0, "lon": -76.97717566666667, "type": "electric_scooter", "fusion_lon": 0.0, "lat": 38.888179666666666}, {"rental_uris": {"android": "https://dc.lft.to/lastmile_qr_scan", "ios": "https://dc.lft.to/lastmile_qr_scan"}, "is_reserved": 0, "is_disabled": 0, "name": "95aa2c8f96072f72ba86efb0c86a8326", "bike_id": "95aa2c8f96072f72ba86efb0c86a8326", "fusion_lat": 0.0, "lon": -77.0422705, "type": "electric_scooter", "fusion_lon": 0.0, "lat": 38.90001866666667}, {"rental_uris": {"android": "https://dc.lft.to/lastmile_qr_scan", "ios": "https://dc.lft.to/lastmile_qr_scan"}, "is_reserved": 0, "is_disabled": 0, "name": "bdc85ab1c0c1f3d71f3f8f4a526d94aa", "bike_id": "bdc85ab1c0c1f3d71f3f8f4a526d94aa", "fusion_lat": 0.0, "lon": -77.0498795, "type": "electric_scooter", "fusion_lon": 0.0, "lat": 38.89846333333333}, {"rental_uris": {"android": "https://dc.lft.to/lastmile_qr_scan", "ios": "https://dc.lft.to/lastmile_qr_scan"}, "is_reserved": 0, "is_disabled": 0, "name": "96bd9180419c052297ea17ec85eccb18", "bike_id": "96bd9180419c052297ea17ec85eccb18", "fusion_lat": 0.0, "lon": -77.04315166666666, "type": "electric_scooter", "fusion_lon": 0.0, "lat": 38.89894833333334}, {"rental_uris": {"android": "https://dc.lft.to/lastmile_qr_scan", "ios": "https://dc.lft.to/lastmile_qr_scan"}, "is_reserved": 0, "is_disabled": 0, "name": "02a61fc5cc9a29a4cfd6efc19fc8f1a0", "bike_id": "02a61fc5cc9a29a4cfd6efc19fc8f1a0", "fusion_lat": 0.0, "lon": -77.030578, "type": "electric_scooter", "fusion_lon": 0.0, "lat": 38.9126545}, {"rental_uris": {"android": "https://dc.lft.to/lastmile_qr_scan", "ios": "https://dc.lft.to/lastmile_qr_scan"}, "is_reserved": 0, "is_disabled": 0, "name": "9f8304b7a5ac930c615eb4a7974a6393", "bike_id": "9f8304b7a5ac930c615eb4a7974a6393", "fusion_lat": 0.0, "lon": -77.07381216666667, "type": "electric_scooter", "fusion_lon": 0.0, "lat": 38.909324166666664}, {"rental_uris": {"android": "https://dc.lft.to/lastmile_qr_scan", "ios": "https://dc.lft.to/lastmile_qr_scan"}, "is_reserved": 0, "is_disabled": 0, "name": "1b83142ce5bf873435d60734512ffefe", "bike_id": "1b83142ce5bf873435d60734512ffefe", "fusion_lat": 0.0, "lon": -76.98246366666666, "type": "electric_bike", "fusion_lon": 0.0, "lat": 38.95243683333333}, {"rental_uris": {"android": "https://dc.lft.to/lastmile_qr_scan", "ios": "https://dc.lft.to/lastmile_qr_scan"}, "is_reserved": 0, "is_disabled": 0, "name": "441739a806c85500be18ca04a42a0287", "bike_id": "441739a806c85500be18ca04a42a0287", "fusion_lat": 0.0, "lon": -77.03183783333333, "type": "electric_scooter", "fusion_lon": 0.0, "lat": 38.919970666666664}, {"rental_uris": {"android": "https://dc.lft.to/lastmile_qr_scan", "ios": "https://dc.lft.to/lastmile_qr_scan"}, "is_reserved": 0, "is_disabled": 0, "name": "5d0ad6d5debdf24c38d348fbcb80d2ff", "bike_id": "5d0ad6d5debdf24c38d348fbcb80d2ff", "fusion_lat": 0.0, "lon": -77.02336133333333, "type": "electric_scooter", "fusion_lon": 0.0, "lat": 38.9429235}, {"rental_uris": {"android": "https://dc.lft.to/lastmile_qr_scan", "ios": "https://dc.lft.to/lastmile_qr_scan"}, "is_reserved": 0, "is_disabled": 0, "name": "8a17c9da9011cf4629d81178561437af", "bike_id": "8a17c9da9011cf4629d81178561437af", "fusion_lat": 0.0, "lon": -77.03168833333334, "type": "electric_scooter", "fusion_lon": 0.0, "lat": 38.914198666666664}, {"rental_uris": {"android": "https://dc.lft.to/lastmile_qr_scan", "ios": "https://dc.lft.to/lastmile_qr_scan"}, "is_reserved": 0, "is_disabled": 0, "name": "5fa8e1c55915c166af667fd1f6d65ed3", "bike_id": "5fa8e1c55915c166af667fd1f6d65ed3", "fusion_lat": 0.0, "lon": -77.0226955, "type": "electric_scooter", "fusion_lon": 0.0, "lat": 38.89979833333334}, {"rental_uris": {"android": "https://dc.lft.to/lastmile_qr_scan", "ios": "https://dc.lft.to/lastmile_qr_scan"}, "is_reserved": 0, "is_disabled": 0, "name": "2def00375da319b7a386829926ed0787", "bike_id": "2def00375da319b7a386829926ed0787", "fusion_lat": 0.0, "lon": -77.03223216666666, "type": "electric_scooter", "fusion_lon": 0.0, "lat": 38.896736}, {"rental_uris": {"android": "https://dc.lft.to/lastmile_qr_scan", "ios": "https://dc.lft.to/lastmile_qr_scan"}, "is_reserved": 0, "is_disabled": 0, "name": "716cc686fcb0a00e74cf9e336a3748f4", "bike_id": "716cc686fcb0a00e74cf9e336a3748f4", "fusion_lat": 0.0, "lon": -77.05198233333333, "type": "electric_scooter", "fusion_lon": 0.0, "lat": 38.9032615}, {"rental_uris": {"android": "https://dc.lft.to/lastmile_qr_scan", "ios": "https://dc.lft.to/lastmile_qr_scan"}, "is_reserved": 0, "is_disabled": 0, "name": "c6e4b4ab33ad7aabe03b96cd7f74d0b0", "bike_id": "c6e4b4ab33ad7aabe03b96cd7f74d0b0", "fusion_lat": 0.0, "lon": -77.04309383333333, "type": "electric_scooter", "fusion_lon": 0.0, "lat": 38.9232295}, {"rental_uris": {"android": "https://dc.lft.to/lastmile_qr_scan", "ios": "https://dc.lft.to/lastmile_qr_scan"}, "is_reserved": 0, "is_disabled": 0, "name": "4f8672dcdb4848ad02fc60d751571b7a", "bike_id": "4f8672dcdb4848ad02fc60d751571b7a", "fusion_lat": 0.0, "lon": -77.0396805, "type": "electric_scooter", "fusion_lon": 0.0, "lat": 38.90243366666667}, {"rental_uris": {"android": "https://dc.lft.to/lastmile_qr_scan", "ios": "https://dc.lft.to/lastmile_qr_scan"}, "is_reserved": 0, "is_disabled": 0, "name": "427dff9a416419de120c566ed06e67cb", "bike_id": "427dff9a416419de120c566ed06e67cb", "fusion_lat": 0.0, "lon": -77.0298955, "type": "electric_bike", "fusion_lon": 0.0, "lat": 38.900065166666664}, {"rental_uris": {"android": "https://dc.lft.to/lastmile_qr_scan", "ios": "https://dc.lft.to/lastmile_qr_scan"}, "is_reserved": 0, "is_disabled": 0, "name": "ed58539850e96e55062facf134d9d527", "bike_id": "ed58539850e96e55062facf134d9d527", "fusion_lat": 0.0, "lon": -77.04502566666666, "type": "electric_scooter", "fusion_lon": 0.0, "lat": 38.892310333333334}, {"rental_uris": {"android": "https://dc.lft.to/lastmile_qr_scan", "ios": "https://dc.lft.to/lastmile_qr_scan"}, "is_reserved": 0, "is_disabled": 0, "name": "4366d350b4b58c48e69ed9e7f28f1680", "bike_id": "4366d350b4b58c48e69ed9e7f28f1680", "fusion_lat": 0.0, "lon": -77.04609933333333, "type": "electric_scooter", "fusion_lon": 0.0, "lat": 38.902575666666664}, {"rental_uris": {"android": "https://dc.lft.to/lastmile_qr_scan", "ios": "https://dc.lft.to/lastmile_qr_scan"}, "is_reserved": 0, "is_disabled": 0, "name": "0bba7626147da3149be00e48f012bcb5", "bike_id": "0bba7626147da3149be00e48f012bcb5", "fusion_lat": 0.0, "lon": -77.03320783333334, "type": "electric_scooter", "fusion_lon": 0.0, "lat": 38.90006783333333}, {"rental_uris": {"android": "https://dc.lft.to/lastmile_qr_scan", "ios": "https://dc.lft.to/lastmile_qr_scan"}, "is_reserved": 0, "is_disabled": 0, "name": "41f668edb794cf71f270f814a64ac5bc", "bike_id": "41f668edb794cf71f270f814a64ac5bc", "fusion_lat": 0.0, "lon": -77.024852, "type": "electric_scooter", "fusion_lon": 0.0, "lat": 38.94185683333333}, {"rental_uris": {"android": "https://dc.lft.to/lastmile_qr_scan", "ios": "https://dc.lft.to/lastmile_qr_scan"}, "is_reserved": 0, "is_disabled": 0, "name": "48be1f7048b48c5a30199667a974bc5c", "bike_id": "48be1f7048b48c5a30199667a974bc5c", "fusion_lat": 0.0, "lon": -77.00755433333333, "type": "electric_scooter", "fusion_lon": 0.0, "lat": 38.907446166666666}, {"rental_uris": {"android": "https://dc.lft.to/lastmile_qr_scan", "ios": "https://dc.lft.to/lastmile_qr_scan"}, "is_reserved": 0, "is_disabled": 0, "name": "de26ed899cff7ca2a0236bdc8ec046d2", "bike_id": "de26ed899cff7ca2a0236bdc8ec046d2", "fusion_lat": 0.0, "lon": -77.03218266666667, "type": "electric_scooter", "fusion_lon": 0.0, "lat": 38.920746666666666}, {"rental_uris": {"android": "https://dc.lft.to/lastmile_qr_scan", "ios": "https://dc.lft.to/lastmile_qr_scan"}, "is_reserved": 0, "is_disabled": 0, "name": "5ba9090cd63f06473d7bf2d55c459b22", "bike_id": "5ba9090cd63f06473d7bf2d55c459b22", "fusion_lat": 0.0, "lon": -76.98013716666667, "type": "electric_bike", "fusion_lon": 0.0, "lat": 38.85318216666667}, {"rental_uris": {"android": "https://dc.lft.to/lastmile_qr_scan", "ios": "https://dc.lft.to/lastmile_qr_scan"}, "is_reserved": 0, "is_disabled": 0, "name": "ba6fdb10b385363378b744b76507a8b1", "bike_id": "ba6fdb10b385363378b744b76507a8b1", "fusion_lat": 0.0, "lon": -77.06831766666667, "type": "electric_scooter", "fusion_lon": 0.0, "lat": 38.9172245}, {"rental_uris": {"android": "https://dc.lft.to/lastmile_qr_scan", "ios": "https://dc.lft.to/lastmile_qr_scan"}, "is_reserved": 0, "is_disabled": 0, "name": "98afa72d96339e1eabfb8045d0c85c2a", "bike_id": "98afa72d96339e1eabfb8045d0c85c2a", "fusion_lat": 0.0, "lon": -77.0231455, "type": "electric_scooter", "fusion_lon": 0.0, "lat": 38.920737}, {"rental_uris": {"android": "https://dc.lft.to/lastmile_qr_scan", "ios": "https://dc.lft.to/lastmile_qr_scan"}, "is_reserved": 0, "is_disabled": 0, "name": "f95736197b7e9658835c6c71d3c2c0bd", "bike_id": "f95736197b7e9658835c6c71d3c2c0bd", "fusion_lat": 0.0, "lon": -77.034851, "type": "electric_scooter", "fusion_lon": 0.0, "lat": 38.90144016666667}, {"rental_uris": {"android": "https://dc.lft.to/lastmile_qr_scan", "ios": "https://dc.lft.to/lastmile_qr_scan"}, "is_reserved": 0, "is_disabled": 0, "name": "9a9c67dbdf8f13fe58bf33f0885afdc1", "bike_id": "9a9c67dbdf8f13fe58bf33f0885afdc1", "fusion_lat": 0.0, "lon": -77.01944616666667, "type": "electric_scooter", "fusion_lon": 0.0, "lat": 38.9011655}, {"rental_uris": {"android": "https://dc.lft.to/lastmile_qr_scan", "ios": "https://dc.lft.to/lastmile_qr_scan"}, "is_reserved": 0, "is_disabled": 0, "name": "e710ebb39771307c67def1cec5fb00df", "bike_id": "e710ebb39771307c67def1cec5fb00df", "fusion_lat": 0.0, "lon": -77.06384733333333, "type": "electric_scooter", "fusion_lon": 0.0, "lat": 38.90609583333333}, {"rental_uris": {"android": "https://dc.lft.to/lastmile_qr_scan", "ios": "https://dc.lft.to/lastmile_qr_scan"}, "is_reserved": 0, "is_disabled": 0, "name": "2ecebbdf63e753b1a910572d5553a0fc", "bike_id": "2ecebbdf63e753b1a910572d5553a0fc", "fusion_lat": 0.0, "lon": -77.0402015, "type": "electric_scooter", "fusion_lon": 0.0, "lat": 38.898338}, {"rental_uris": {"android": "https://dc.lft.to/lastmile_qr_scan", "ios": "https://dc.lft.to/lastmile_qr_scan"}, "is_reserved": 0, "is_disabled": 0, "name": "4d82727328cf280ec0fa0bad9c7163cd", "bike_id": "4d82727328cf280ec0fa0bad9c7163cd", "fusion_lat": 0.0, "lon": -77.02303483333333, "type": "electric_scooter", "fusion_lon": 0.0, "lat": 38.916647}, {"rental_uris": {"android": "https://dc.lft.to/lastmile_qr_scan", "ios": "https://dc.lft.to/lastmile_qr_scan"}, "is_reserved": 0, "is_disabled": 0, "name": "481f59a4b777b8b6ae779360df5a8dd1", "bike_id": "481f59a4b777b8b6ae779360df5a8dd1", "fusion_lat": 0.0, "lon": -77.046191, "type": "electric_scooter", "fusion_lon": 0.0, "lat": 38.914514}, {"rental_uris": {"android": "https://dc.lft.to/lastmile_qr_scan", "ios": "https://dc.lft.to/lastmile_qr_scan"}, "is_reserved": 0, "is_disabled": 0, "name": "39e64bd5653d4ce76753a6d667a8a264", "bike_id": "39e64bd5653d4ce76753a6d667a8a264", "fusion_lat": 0.0, "lon": -76.983776, "type": "electric_scooter", "fusion_lon": 0.0, "lat": 38.8794975}, {"rental_uris": {"android": "https://dc.lft.to/lastmile_qr_scan", "ios": "https://dc.lft.to/lastmile_qr_scan"}, "is_reserved": 0, "is_disabled": 0, "name": "58541ca00002c13e3e91ff119d7edb5d", "bike_id": "58541ca00002c13e3e91ff119d7edb5d", "fusion_lat": 0.0, "lon": -77.0388815, "type": "electric_scooter", "fusion_lon": 0.0, "lat": 38.9204285}, {"rental_uris": {"android": "https://dc.lft.to/lastmile_qr_scan", "ios": "https://dc.lft.to/lastmile_qr_scan"}, "is_reserved": 0, "is_disabled": 0, "name": "96699bffeb875c2ac76c426f5307a2e9", "bike_id": "96699bffeb875c2ac76c426f5307a2e9", "fusion_lat": 0.0, "lon": -77.02405266666666, "type": "electric_scooter", "fusion_lon": 0.0, "lat": 38.902896166666665}, {"rental_uris": {"android": "https://dc.lft.to/lastmile_qr_scan", "ios": "https://dc.lft.to/lastmile_qr_scan"}, "is_reserved": 0, "is_disabled": 0, "name": "1f8eac1ed9e6148fd6e852c232c194fc", "bike_id": "1f8eac1ed9e6148fd6e852c232c194fc", "fusion_lat": 0.0, "lon": -77.0784805, "type": "electric_scooter", "fusion_lon": 0.0, "lat": 38.94594266666667}, {"rental_uris": {"android": "https://dc.lft.to/lastmile_qr_scan", "ios": "https://dc.lft.to/lastmile_qr_scan"}, "is_reserved": 0, "is_disabled": 0, "name": "8bb5634c35ac64fa1e7d096101a0e9ca", "bike_id": "8bb5634c35ac64fa1e7d096101a0e9ca", "fusion_lat": 0.0, "lon": -77.050211, "type": "electric_scooter", "fusion_lon": 0.0, "lat": 38.896562833333334}, {"rental_uris": {"android": "https://dc.lft.to/lastmile_qr_scan", "ios": "https://dc.lft.to/lastmile_qr_scan"}, "is_reserved": 0, "is_disabled": 0, "name": "4a8fcbd7f6fb6ce0ebf6bd97e1a2a2f2", "bike_id": "4a8fcbd7f6fb6ce0ebf6bd97e1a2a2f2", "fusion_lat": 0.0, "lon": -76.98111866666666, "type": "electric_bike", "fusion_lon": 0.0, "lat": 38.945744}, {"rental_uris": {"android": "https://dc.lft.to/lastmile_qr_scan", "ios": "https://dc.lft.to/lastmile_qr_scan"}, "is_reserved": 0, "is_disabled": 0, "name": "3d17854cd58907a3c38f896a9ae917f6", "bike_id": "3d17854cd58907a3c38f896a9ae917f6", "fusion_lat": 0.0, "lon": -77.02816783333333, "type": "electric_scooter", "fusion_lon": 0.0, "lat": 38.9047165}, {"rental_uris": {"android": "https://dc.lft.to/lastmile_qr_scan", "ios": "https://dc.lft.to/lastmile_qr_scan"}, "is_reserved": 0, "is_disabled": 0, "name": "b4b94033b04f3f0361f850d114a469f2", "bike_id": "b4b94033b04f3f0361f850d114a469f2", "fusion_lat": 0.0, "lon": -77.027881, "type": "electric_scooter", "fusion_lon": 0.0, "lat": 38.9612975}, {"rental_uris": {"android": "https://dc.lft.to/lastmile_qr_scan", "ios": "https://dc.lft.to/lastmile_qr_scan"}, "is_reserved": 0, "is_disabled": 0, "name": "a642a432e14d580b4aab9573446cf220", "bike_id": "a642a432e14d580b4aab9573446cf220", "fusion_lat": 0.0, "lon": -77.018064, "type": "electric_scooter", "fusion_lon": 0.0, "lat": 38.92158166666667}, {"rental_uris": {"android": "https://dc.lft.to/lastmile_qr_scan", "ios": "https://dc.lft.to/lastmile_qr_scan"}, "is_reserved": 0, "is_disabled": 0, "name": "c51efd36e47c528ec73fd364f1b4a71e", "bike_id": "c51efd36e47c528ec73fd364f1b4a71e", "fusion_lat": 0.0, "lon": -77.02581666666667, "type": "electric_scooter", "fusion_lon": 0.0, "lat": 38.939333166666664}, {"rental_uris": {"android": "https://dc.lft.to/lastmile_qr_scan", "ios": "https://dc.lft.to/lastmile_qr_scan"}, "is_reserved": 0, "is_disabled": 0, "name": "71fe2dad98851bf74181ab534fdcc8c1", "bike_id": "71fe2dad98851bf74181ab534fdcc8c1", "fusion_lat": 0.0, "lon": -77.01994216666667, "type": "electric_scooter", "fusion_lon": 0.0, "lat": 38.8861565}, {"rental_uris": {"android": "https://dc.lft.to/lastmile_qr_scan", "ios": "https://dc.lft.to/lastmile_qr_scan"}, "is_reserved": 0, "is_disabled": 0, "name": "ac781f0f34bd38e77c743df8ef971a54", "bike_id": "ac781f0f34bd38e77c743df8ef971a54", "fusion_lat": 0.0, "lon": -77.03296283333333, "type": "electric_scooter", "fusion_lon": 0.0, "lat": 38.956181666666666}, {"rental_uris": {"android": "https://dc.lft.to/lastmile_qr_scan", "ios": "https://dc.lft.to/lastmile_qr_scan"}, "is_reserved": 0, "is_disabled": 0, "name": "be76cf798d49934451943d283e765fde", "bike_id": "be76cf798d49934451943d283e765fde", "fusion_lat": 0.0, "lon": -76.98835766666667, "type": "electric_scooter", "fusion_lon": 0.0, "lat": 38.901682666666666}, {"rental_uris": {"android": "https://dc.lft.to/lastmile_qr_scan", "ios": "https://dc.lft.to/lastmile_qr_scan"}, "is_reserved": 0, "is_disabled": 0, "name": "d96edea8bc01c4a8dd8dc73038f98f25", "bike_id": "d96edea8bc01c4a8dd8dc73038f98f25", "fusion_lat": 0.0, "lon": -77.01953466666667, "type": "electric_scooter", "fusion_lon": 0.0, "lat": 38.923278333333336}, {"rental_uris": {"android": "https://dc.lft.to/lastmile_qr_scan", "ios": "https://dc.lft.to/lastmile_qr_scan"}, "is_reserved": 0, "is_disabled": 0, "name": "3bd2aa4b9f75d40ef1f44610ebe25960", "bike_id": "3bd2aa4b9f75d40ef1f44610ebe25960", "fusion_lat": 0.0, "lon": -77.02113766666666, "type": "electric_scooter", "fusion_lon": 0.0, "lat": 38.91795333333334}, {"rental_uris": {"android": "https://dc.lft.to/lastmile_qr_scan", "ios": "https://dc.lft.to/lastmile_qr_scan"}, "is_reserved": 0, "is_disabled": 0, "name": "434fb8393e0d7e5d02330365d000bcb4", "bike_id": "434fb8393e0d7e5d02330365d000bcb4", "fusion_lat": 0.0, "lon": -77.069019, "type": "electric_scooter", "fusion_lon": 0.0, "lat": 38.907494166666666}, {"rental_uris": {"android": "https://dc.lft.to/lastmile_qr_scan", "ios": "https://dc.lft.to/lastmile_qr_scan"}, "is_reserved": 0, "is_disabled": 0, "name": "40a4b48784e0f0230ebab26476a1fe0a", "bike_id": "40a4b48784e0f0230ebab26476a1fe0a", "fusion_lat": 0.0, "lon": -77.0223285, "type": "electric_scooter", "fusion_lon": 0.0, "lat": 38.9241555}, {"rental_uris": {"android": "https://dc.lft.to/lastmile_qr_scan", "ios": "https://dc.lft.to/lastmile_qr_scan"}, "is_reserved": 0, "is_disabled": 0, "name": "76d8ca5a1e87fee0892dd633f862f7e5", "bike_id": "76d8ca5a1e87fee0892dd633f862f7e5", "fusion_lat": 0.0, "lon": -77.03476133333334, "type": "electric_scooter", "fusion_lon": 0.0, "lat": 38.903837}, {"rental_uris": {"android": "https://dc.lft.to/lastmile_qr_scan", "ios": "https://dc.lft.to/lastmile_qr_scan"}, "is_reserved": 0, "is_disabled": 0, "name": "0c6dea0024e7085a000a09ad3e0a22c0", "bike_id": "0c6dea0024e7085a000a09ad3e0a22c0", "fusion_lat": 0.0, "lon": -76.99517033333333, "type": "electric_scooter", "fusion_lon": 0.0, "lat": 38.883740333333336}, {"rental_uris": {"android": "https://dc.lft.to/lastmile_qr_scan", "ios": "https://dc.lft.to/lastmile_qr_scan"}, "is_reserved": 0, "is_disabled": 0, "name": "e8912a62bb705497b0620128d128cef3", "bike_id": "e8912a62bb705497b0620128d128cef3", "fusion_lat": 0.0, "lon": -77.032101, "type": "electric_scooter", "fusion_lon": 0.0, "lat": 38.8923775}, {"rental_uris": {"android": "https://dc.lft.to/lastmile_qr_scan", "ios": "https://dc.lft.to/lastmile_qr_scan"}, "is_reserved": 0, "is_disabled": 0, "name": "36f838bc41ed9849d3efd702d9ca51db", "bike_id": "36f838bc41ed9849d3efd702d9ca51db", "fusion_lat": 0.0, "lon": -76.94465, "type": "electric_scooter", "fusion_lon": 0.0, "lat": 38.890315333333334}, {"rental_uris": {"android": "https://dc.lft.to/lastmile_qr_scan", "ios": "https://dc.lft.to/lastmile_qr_scan"}, "is_reserved": 0, "is_disabled": 0, "name": "b3c9945f66ae9a4dc789c09f9d92cebd", "bike_id": "b3c9945f66ae9a4dc789c09f9d92cebd", "fusion_lat": 0.0, "lon": -77.04141033333333, "type": "electric_scooter", "fusion_lon": 0.0, "lat": 38.902642666666665}, {"rental_uris": {"android": "https://dc.lft.to/lastmile_qr_scan", "ios": "https://dc.lft.to/lastmile_qr_scan"}, "is_reserved": 0, "is_disabled": 0, "name": "5143a4f8b371eb6ee8f65259e2126f7a", "bike_id": "5143a4f8b371eb6ee8f65259e2126f7a", "fusion_lat": 0.0, "lon": -77.00314733333333, "type": "electric_scooter", "fusion_lon": 0.0, "lat": 38.889858333333336}, {"rental_uris": {"android": "https://dc.lft.to/lastmile_qr_scan", "ios": "https://dc.lft.to/lastmile_qr_scan"}, "is_reserved": 0, "is_disabled": 0, "name": "3157907164609631a01634464014c02c", "bike_id": "3157907164609631a01634464014c02c", "fusion_lat": 0.0, "lon": -77.02793366666667, "type": "electric_scooter", "fusion_lon": 0.0, "lat": 38.9540475}, {"rental_uris": {"android": "https://dc.lft.to/lastmile_qr_scan", "ios": "https://dc.lft.to/lastmile_qr_scan"}, "is_reserved": 0, "is_disabled": 0, "name": "fd62a07c20d51b9d38b8dde6142a2c53", "bike_id": "fd62a07c20d51b9d38b8dde6142a2c53", "fusion_lat": 0.0, "lon": -77.01664416666667, "type": "electric_scooter", "fusion_lon": 0.0, "lat": 38.876875166666665}, {"rental_uris": {"android": "https://dc.lft.to/lastmile_qr_scan", "ios": "https://dc.lft.to/lastmile_qr_scan"}, "is_reserved": 0, "is_disabled": 0, "name": "1866e6bb803f65b87aee3d4d382eb774", "bike_id": "1866e6bb803f65b87aee3d4d382eb774", "fusion_lat": 0.0, "lon": -77.0404755, "type": "electric_scooter", "fusion_lon": 0.0, "lat": 38.898779166666664}, {"rental_uris": {"android": "https://dc.lft.to/lastmile_qr_scan", "ios": "https://dc.lft.to/lastmile_qr_scan"}, "is_reserved": 0, "is_disabled": 0, "name": "71499c9eecb2f2224e6213f41a28e858", "bike_id": "71499c9eecb2f2224e6213f41a28e858", "fusion_lat": 0.0, "lon": -77.03933583333334, "type": "electric_bike", "fusion_lon": 0.0, "lat": 38.801651666666665}, {"rental_uris": {"android": "https://dc.lft.to/lastmile_qr_scan", "ios": "https://dc.lft.to/lastmile_qr_scan"}, "is_reserved": 0, "is_disabled": 0, "name": "e4fa8bdd836bc37f30ff439c23fdfb2d", "bike_id": "e4fa8bdd836bc37f30ff439c23fdfb2d", "fusion_lat": 0.0, "lon": -77.04476533333333, "type": "electric_scooter", "fusion_lon": 0.0, "lat": 38.90284033333333}, {"rental_uris": {"android": "https://dc.lft.to/lastmile_qr_scan", "ios": "https://dc.lft.to/lastmile_qr_scan"}, "is_reserved": 0, "is_disabled": 0, "name": "af9d6f786113d1bc5c88a53e512cfa68", "bike_id": "af9d6f786113d1bc5c88a53e512cfa68", "fusion_lat": 0.0, "lon": -77.007624, "type": "electric_bike", "fusion_lon": 0.0, "lat": 38.99786916666667}, {"rental_uris": {"android": "https://dc.lft.to/lastmile_qr_scan", "ios": "https://dc.lft.to/lastmile_qr_scan"}, "is_reserved": 0, "is_disabled": 0, "name": "fc07f6b9d742da33979994cf18a8fca4", "bike_id": "fc07f6b9d742da33979994cf18a8fca4", "fusion_lat": 0.0, "lon": -76.95244416666667, "type": "electric_bike", "fusion_lon": 0.0, "lat": 38.884671166666664}, {"rental_uris": {"android": "https://dc.lft.to/lastmile_qr_scan", "ios": "https://dc.lft.to/lastmile_qr_scan"}, "is_reserved": 0, "is_disabled": 0, "name": "93de14605bd341276ffd8ad8f7f70265", "bike_id": "93de14605bd341276ffd8ad8f7f70265", "fusion_lat": 0.0, "lon": -77.0088545, "type": "electric_scooter", "fusion_lon": 0.0, "lat": 38.900412}, {"rental_uris": {"android": "https://dc.lft.to/lastmile_qr_scan", "ios": "https://dc.lft.to/lastmile_qr_scan"}, "is_reserved": 0, "is_disabled": 0, "name": "4c97b7c9c558d26ca9f32f2aa04df85e", "bike_id": "4c97b7c9c558d26ca9f32f2aa04df85e", "fusion_lat": 0.0, "lon": -76.93754683333333, "type": "electric_scooter", "fusion_lon": 0.0, "lat": 38.87862916666667}, {"rental_uris": {"android": "https://dc.lft.to/lastmile_qr_scan", "ios": "https://dc.lft.to/lastmile_qr_scan"}, "is_reserved": 0, "is_disabled": 0, "name": "11d5bbb2114ccb386e7d96521ddbc5e8", "bike_id": "11d5bbb2114ccb386e7d96521ddbc5e8", "fusion_lat": 0.0, "lon": -76.94550716666667, "type": "electric_bike", "fusion_lon": 0.0, "lat": 38.9826915}, {"rental_uris": {"android": "https://dc.lft.to/lastmile_qr_scan", "ios": "https://dc.lft.to/lastmile_qr_scan"}, "is_reserved": 0, "is_disabled": 0, "name": "9c8078cebe741410e9a836c1a1aa2423", "bike_id": "9c8078cebe741410e9a836c1a1aa2423", "fusion_lat": 0.0, "lon": -77.02901, "type": "electric_scooter", "fusion_lon": 0.0, "lat": 38.9140235}, {"rental_uris": {"android": "https://dc.lft.to/lastmile_qr_scan", "ios": "https://dc.lft.to/lastmile_qr_scan"}, "is_reserved": 0, "is_disabled": 0, "name": "9fbca990d69f0ff4f170b213b6bf8319", "bike_id": "9fbca990d69f0ff4f170b213b6bf8319", "fusion_lat": 0.0, "lon": -77.02590916666666, "type": "electric_scooter", "fusion_lon": 0.0, "lat": 38.915570333333335}, {"rental_uris": {"android": "https://dc.lft.to/lastmile_qr_scan", "ios": "https://dc.lft.to/lastmile_qr_scan"}, "is_reserved": 0, "is_disabled": 0, "name": "d6785af530537a3b25c78b47f62278c4", "bike_id": "d6785af530537a3b25c78b47f62278c4", "fusion_lat": 0.0, "lon": -77.02176783333333, "type": "electric_scooter", "fusion_lon": 0.0, "lat": 38.892295}, {"rental_uris": {"android": "https://dc.lft.to/lastmile_qr_scan", "ios": "https://dc.lft.to/lastmile_qr_scan"}, "is_reserved": 0, "is_disabled": 0, "name": "292dd5844a12417bb883efda7fa7f374", "bike_id": "292dd5844a12417bb883efda7fa7f374", "fusion_lat": 0.0, "lon": -76.95561416666666, "type": "electric_bike", "fusion_lon": 0.0, "lat": 38.985007833333334}, {"rental_uris": {"android": "https://dc.lft.to/lastmile_qr_scan", "ios": "https://dc.lft.to/lastmile_qr_scan"}, "is_reserved": 0, "is_disabled": 0, "name": "e32c90116b764329c6ed2ffd66b6435d", "bike_id": "e32c90116b764329c6ed2ffd66b6435d", "fusion_lat": 0.0, "lon": -77.0180005, "type": "electric_scooter", "fusion_lon": 0.0, "lat": 38.91954116666667}, {"rental_uris": {"android": "https://dc.lft.to/lastmile_qr_scan", "ios": "https://dc.lft.to/lastmile_qr_scan"}, "is_reserved": 0, "is_disabled": 0, "name": "b69282abf0282959c30afa7ceac95f85", "bike_id": "b69282abf0282959c30afa7ceac95f85", "fusion_lat": 0.0, "lon": -77.0629525, "type": "electric_scooter", "fusion_lon": 0.0, "lat": 38.9039995}, {"rental_uris": {"android": "https://dc.lft.to/lastmile_qr_scan", "ios": "https://dc.lft.to/lastmile_qr_scan"}, "is_reserved": 0, "is_disabled": 0, "name": "982ac8ce1c5b553888aaf38c0ededd17", "bike_id": "982ac8ce1c5b553888aaf38c0ededd17", "fusion_lat": 0.0, "lon": -77.04692266666666, "type": "electric_scooter", "fusion_lon": 0.0, "lat": 38.92170566666667}, {"rental_uris": {"android": "https://dc.lft.to/lastmile_qr_scan", "ios": "https://dc.lft.to/lastmile_qr_scan"}, "is_reserved": 0, "is_disabled": 0, "name": "d918e1b57c599f216da3bf3f5008cb9a", "bike_id": "d918e1b57c599f216da3bf3f5008cb9a", "fusion_lat": 0.0, "lon": -77.04537666666667, "type": "electric_scooter", "fusion_lon": 0.0, "lat": 38.902695333333334}, {"rental_uris": {"android": "https://dc.lft.to/lastmile_qr_scan", "ios": "https://dc.lft.to/lastmile_qr_scan"}, "is_reserved": 0, "is_disabled": 0, "name": "825504c5756c6e750bca7bcf1b825144", "bike_id": "825504c5756c6e750bca7bcf1b825144", "fusion_lat": 0.0, "lon": -77.04157866666667, "type": "electric_scooter", "fusion_lon": 0.0, "lat": 38.895649}, {"rental_uris": {"android": "https://dc.lft.to/lastmile_qr_scan", "ios": "https://dc.lft.to/lastmile_qr_scan"}, "is_reserved": 0, "is_disabled": 0, "name": "f798cccd890c01934513c421e4ceb58f", "bike_id": "f798cccd890c01934513c421e4ceb58f", "fusion_lat": 0.0, "lon": -77.02163016666667, "type": "electric_scooter", "fusion_lon": 0.0, "lat": 38.89936066666667}, {"rental_uris": {"android": "https://dc.lft.to/lastmile_qr_scan", "ios": "https://dc.lft.to/lastmile_qr_scan"}, "is_reserved": 0, "is_disabled": 0, "name": "ba3d205d24b9a25c6e883704e989db86", "bike_id": "ba3d205d24b9a25c6e883704e989db86", "fusion_lat": 0.0, "lon": -77.023085, "type": "electric_scooter", "fusion_lon": 0.0, "lat": 38.9096245}, {"rental_uris": {"android": "https://dc.lft.to/lastmile_qr_scan", "ios": "https://dc.lft.to/lastmile_qr_scan"}, "is_reserved": 0, "is_disabled": 0, "name": "e70ab385cfa280a13391acd3d90027af", "bike_id": "e70ab385cfa280a13391acd3d90027af", "fusion_lat": 0.0, "lon": -77.02973016666667, "type": "electric_scooter", "fusion_lon": 0.0, "lat": 38.9429355}, {"rental_uris": {"android": "https://dc.lft.to/lastmile_qr_scan", "ios": "https://dc.lft.to/lastmile_qr_scan"}, "is_reserved": 0, "is_disabled": 0, "name": "38836c4a8056d5b452973a1ad50b99b0", "bike_id": "38836c4a8056d5b452973a1ad50b99b0", "fusion_lat": 0.0, "lon": -77.04265083333334, "type": "electric_scooter", "fusion_lon": 0.0, "lat": 38.922305333333334}, {"rental_uris": {"android": "https://dc.lft.to/lastmile_qr_scan", "ios": "https://dc.lft.to/lastmile_qr_scan"}, "is_reserved": 0, "is_disabled": 0, "name": "f84e4ecdc510fa8353ac0556fccf3eac", "bike_id": "f84e4ecdc510fa8353ac0556fccf3eac", "fusion_lat": 0.0, "lon": -77.0447495, "type": "electric_scooter", "fusion_lon": 0.0, "lat": 38.92515866666667}, {"rental_uris": {"android": "https://dc.lft.to/lastmile_qr_scan", "ios": "https://dc.lft.to/lastmile_qr_scan"}, "is_reserved": 0, "is_disabled": 0, "name": "a7c28cceb2bd985bad7de51c08c8cbde", "bike_id": "a7c28cceb2bd985bad7de51c08c8cbde", "fusion_lat": 0.0, "lon": -77.01192916666666, "type": "electric_bike", "fusion_lon": 0.0, "lat": 38.9507485}, {"rental_uris": {"android": "https://dc.lft.to/lastmile_qr_scan", "ios": "https://dc.lft.to/lastmile_qr_scan"}, "is_reserved": 0, "is_disabled": 0, "name": "3abfb17bc2b397c4d6e9b643c59d7405", "bike_id": "3abfb17bc2b397c4d6e9b643c59d7405", "fusion_lat": 0.0, "lon": -77.01979883333334, "type": "electric_scooter", "fusion_lon": 0.0, "lat": 38.88717833333333}, {"rental_uris": {"android": "https://dc.lft.to/lastmile_qr_scan", "ios": "https://dc.lft.to/lastmile_qr_scan"}, "is_reserved": 0, "is_disabled": 0, "name": "0f642cad8356682e6dc7063ab928bef5", "bike_id": "0f642cad8356682e6dc7063ab928bef5", "fusion_lat": 0.0, "lon": -77.01479016666667, "type": "electric_scooter", "fusion_lon": 0.0, "lat": 38.89323733333333}, {"rental_uris": {"android": "https://dc.lft.to/lastmile_qr_scan", "ios": "https://dc.lft.to/lastmile_qr_scan"}, "is_reserved": 0, "is_disabled": 0, "name": "24375db8e98e897d2d73f6fd09131ec6", "bike_id": "24375db8e98e897d2d73f6fd09131ec6", "fusion_lat": 0.0, "lon": -77.0468245, "type": "electric_scooter", "fusion_lon": 0.0, "lat": 38.89506983333333}, {"rental_uris": {"android": "https://dc.lft.to/lastmile_qr_scan", "ios": "https://dc.lft.to/lastmile_qr_scan"}, "is_reserved": 0, "is_disabled": 0, "name": "f019d222178fbcd72c60866ad6fedff4", "bike_id": "f019d222178fbcd72c60866ad6fedff4", "fusion_lat": 0.0, "lon": -77.03209883333334, "type": "electric_scooter", "fusion_lon": 0.0, "lat": 38.90727866666667}, {"rental_uris": {"android": "https://dc.lft.to/lastmile_qr_scan", "ios": "https://dc.lft.to/lastmile_qr_scan"}, "is_reserved": 0, "is_disabled": 0, "name": "fc8d0cff2899eece4eb796ac13e0f8d8", "bike_id": "fc8d0cff2899eece4eb796ac13e0f8d8", "fusion_lat": 0.0, "lon": -76.9609315, "type": "electric_scooter", "fusion_lon": 0.0, "lat": 38.918643833333334}, {"rental_uris": {"android": "https://dc.lft.to/lastmile_qr_scan", "ios": "https://dc.lft.to/lastmile_qr_scan"}, "is_reserved": 0, "is_disabled": 0, "name": "664560c53e1c80fc9d0e0327c2cb5bfd", "bike_id": "664560c53e1c80fc9d0e0327c2cb5bfd", "fusion_lat": 0.0, "lon": -77.09451216666666, "type": "electric_bike", "fusion_lon": 0.0, "lat": 38.807589}, {"rental_uris": {"android": "https://dc.lft.to/lastmile_qr_scan", "ios": "https://dc.lft.to/lastmile_qr_scan"}, "is_reserved": 0, "is_disabled": 0, "name": "c897bab0906042b765f33b64b6eda639", "bike_id": "c897bab0906042b765f33b64b6eda639", "fusion_lat": 0.0, "lon": -77.044093, "type": "electric_scooter", "fusion_lon": 0.0, "lat": 38.895982333333336}, {"rental_uris": {"android": "https://dc.lft.to/lastmile_qr_scan", "ios": "https://dc.lft.to/lastmile_qr_scan"}, "is_reserved": 0, "is_disabled": 0, "name": "d115c672f1515df5c4e11c762eff2629", "bike_id": "d115c672f1515df5c4e11c762eff2629", "fusion_lat": 0.0, "lon": -77.02229316666667, "type": "electric_scooter", "fusion_lon": 0.0, "lat": 38.914207}, {"rental_uris": {"android": "https://dc.lft.to/lastmile_qr_scan", "ios": "https://dc.lft.to/lastmile_qr_scan"},