{"data": {"bikes": [{"lon": -76.998624, "name": "040cb2681330ee42e81881c8342bc88c", "is_disabled": 0, "type": "electric_scooter", "is_reserved": 0, "fusion_lon": 0.0, "lat": 38.902559833333335, "rental_uris": {"ios": "https://dc.lft.to/lastmile_qr_scan", "android": "https://dc.lft.to/lastmile_qr_scan"}, "bike_id": "040cb2681330ee42e81881c8342bc88c", "fusion_lat": 0.0}, {"lon": -77.03214166666666, "name": "9fc36ce7e2200a979ba8a8aba6c93d62", "is_disabled": 0, "type": "electric_scooter", "is_reserved": 0, "fusion_lon": 0.0, "lat": 38.89849616666667, "rental_uris": {"ios": "https://dc.lft.to/lastmile_qr_scan", "android": "https://dc.lft.to/lastmile_qr_scan"}, "bike_id": "9fc36ce7e2200a979ba8a8aba6c93d62", "fusion_lat": 0.0}, {"lon": -77.02077, "name": "868b399030331306a9df2c739df91bf4", "is_disabled": 0, "type": "electric_scooter", "is_reserved": 0, "fusion_lon": 0.0, "lat": 38.900866666666666, "rental_uris": {"ios": "https://dc.lft.to/lastmile_qr_scan", "android": "https://dc.lft.to/lastmile_qr_scan"}, "bike_id": "868b399030331306a9df2c739df91bf4", "fusion_lat": 0.0}, {"lon": -77.03976883333333, "name": "d8460dbb33825889da4741dd73463c86", "is_disabled": 0, "type": "electric_scooter", "is_reserved": 0, "fusion_lon": 0.0, "lat": 38.902351833333334, "rental_uris": {"ios": "https://dc.lft.to/lastmile_qr_scan", "android": "https://dc.lft.to/lastmile_qr_scan"}, "bike_id": "d8460dbb33825889da4741dd73463c86", "fusion_lat": 0.0}, {"lon": -77.02263416666666, "name": "9d21432b419c109f8447ba9f98e49b59", "is_disabled": 0, "type": "electric_scooter", "is_reserved": 0, "fusion_lon": 0.0, "lat": 38.9164455, "rental_uris": {"ios": "https://dc.lft.to/lastmile_qr_scan", "android": "https://dc.lft.to/lastmile_qr_scan"}, "bike_id": "9d21432b419c109f8447ba9f98e49b59", "fusion_lat": 0.0}, {"lon": -77.00754716666667, "name": "3c623e3f404515c63e7b54b491c5a1b9", "is_disabled": 0, "type": "electric_scooter", "is_reserved": 0, "fusion_lon": 0.0, "lat": 38.89829616666667, "rental_uris": {"ios": "https://dc.lft.to/lastmile_qr_scan", "android": "https://dc.lft.to/lastmile_qr_scan"}, "bike_id": "3c623e3f404515c63e7b54b491c5a1b9", "fusion_lat": 0.0}, {"lon": -76.98203616666666, "name": "5b1b8415e8c26e55651fbfed21a33677", "is_disabled": 0, "type": "electric_bike", "is_reserved": 0, "fusion_lon": 0.0, "lat": 38.98503, "rental_uris": {"ios": "https://dc.lft.to/lastmile_qr_scan", "android": "https://dc.lft.to/lastmile_qr_scan"}, "bike_id": "5b1b8415e8c26e55651fbfed21a33677", "fusion_lat": 0.0}, {"lon": -77.00071833333334, "name": "cdd985bf0e28af2d804fea9fe3bf7687", "is_disabled": 0, "type": "electric_scooter", "is_reserved": 0, "fusion_lon": 0.0, "lat": 38.88778416666667, "rental_uris": {"ios": "https://dc.lft.to/lastmile_qr_scan", "android": "https://dc.lft.to/lastmile_qr_scan"}, "bike_id": "cdd985bf0e28af2d804fea9fe3bf7687", "fusion_lat": 0.0}, {"lon": -77.0206565, "name": "425a5baefb4910bed904943a7b918982", "is_disabled": 0, "type": "electric_scooter", "is_reserved": 0, "fusion_lon": 0.0, "lat": 38.9235775, "rental_uris": {"ios": "https://dc.lft.to/lastmile_qr_scan", "android": "https://dc.lft.to/lastmile_qr_scan"}, "bike_id": "425a5baefb4910bed904943a7b918982", "fusion_lat": 0.0}, {"lon": -77.02127916666667, "name": "83fdaf4c2a1133c6e4bfac5208c3c431", "is_disabled": 0, "type": "electric_scooter", "is_reserved": 0, "fusion_lon": 0.0, "lat": 38.92398033333333, "rental_uris": {"ios": "https://dc.lft.to/lastmile_qr_scan", "android": "https://dc.lft.to/lastmile_qr_scan"}, "bike_id": "83fdaf4c2a1133c6e4bfac5208c3c431", "fusion_lat": 0.0}, {"lon": -77.0204065, "name": "06fc7567d0298658dd0b2e845ed541f4", "is_disabled": 0, "type": "electric_scooter", "is_reserved": 0, "fusion_lon": 0.0, "lat": 38.9243465, "rental_uris": {"ios": "https://dc.lft.to/lastmile_qr_scan", "android": "https://dc.lft.to/lastmile_qr_scan"}, "bike_id": "06fc7567d0298658dd0b2e845ed541f4", "fusion_lat": 0.0}, {"lon": -77.001784, "name": "020601efa1749fa9d154693465948ca8", "is_disabled": 0, "type": "electric_scooter", "is_reserved": 0, "fusion_lon": 0.0, "lat": 38.94063883333333, "rental_uris": {"ios": "https://dc.lft.to/lastmile_qr_scan", "android": "https://dc.lft.to/lastmile_qr_scan"}, "bike_id": "020601efa1749fa9d154693465948ca8", "fusion_lat": 0.0}, {"lon": -76.98420616666667, "name": "4e62e1a1bd4f3a16da2520cf42dd23b0", "is_disabled": 0, "type": "electric_bike", "is_reserved": 0, "fusion_lon": 0.0, "lat": 38.910027166666666, "rental_uris": {"ios": "https://dc.lft.to/lastmile_qr_scan", "android": "https://dc.lft.to/lastmile_qr_scan"}, "bike_id": "4e62e1a1bd4f3a16da2520cf42dd23b0", "fusion_lat": 0.0}, {"lon": -77.04084, "name": "a544ee027dfd3b02202765715bd84866", "is_disabled": 0, "type": "electric_scooter", "is_reserved": 0, "fusion_lon": 0.0, "lat": 38.92046233333333, "rental_uris": {"ios": "https://dc.lft.to/lastmile_qr_scan", "android": "https://dc.lft.to/lastmile_qr_scan"}, "bike_id": "a544ee027dfd3b02202765715bd84866", "fusion_lat": 0.0}, {"lon": -77.00718933333333, "name": "ce270229b4753e6f7174704da88aaeda", "is_disabled": 0, "type": "electric_scooter", "is_reserved": 0, "fusion_lon": 0.0, "lat": 38.91703866666667, "rental_uris": {"ios": "https://dc.lft.to/lastmile_qr_scan", "android": "https://dc.lft.to/lastmile_qr_scan"}, "bike_id": "ce270229b4753e6f7174704da88aaeda", "fusion_lat": 0.0}, {"lon": -77.006822, "name": "59ca36c77c31c3d7375201b47d17fd81", "is_disabled": 0, "type": "electric_scooter", "is_reserved": 0, "fusion_lon": 0.0, "lat": 38.87169933333333, "rental_uris": {"ios": "https://dc.lft.to/lastmile_qr_scan", "android": "https://dc.lft.to/lastmile_qr_scan"}, "bike_id": "59ca36c77c31c3d7375201b47d17fd81", "fusion_lat": 0.0}, {"lon": -77.02156283333333, "name": "3669ad29c2fcc00b8dbd17712281fa28", "is_disabled": 0, "type": "electric_scooter", "is_reserved": 0, "fusion_lon": 0.0, "lat": 38.92452566666667, "rental_uris": {"ios": "https://dc.lft.to/lastmile_qr_scan", "android": "https://dc.lft.to/lastmile_qr_scan"}, "bike_id": "3669ad29c2fcc00b8dbd17712281fa28", "fusion_lat": 0.0}, {"lon": -77.0279115, "name": "cf47f2b7a43e5783fb814e7735821279", "is_disabled": 0, "type": "electric_scooter", "is_reserved": 0, "fusion_lon": 0.0, "lat": 38.929703833333335, "rental_uris": {"ios": "https://dc.lft.to/lastmile_qr_scan", "android": "https://dc.lft.to/lastmile_qr_scan"}, "bike_id": "cf47f2b7a43e5783fb814e7735821279", "fusion_lat": 0.0}, {"lon": -77.04690416666666, "name": "e796e0570efec6cee0274c7484af07ea", "is_disabled": 0, "type": "electric_scooter", "is_reserved": 0, "fusion_lon": 0.0, "lat": 38.89222, "rental_uris": {"ios": "https://dc.lft.to/lastmile_qr_scan", "android": "https://dc.lft.to/lastmile_qr_scan"}, "bike_id": "e796e0570efec6cee0274c7484af07ea", "fusion_lat": 0.0}, {"lon": -77.01170216666667, "name": "1069ea1e35be1824e4822edd305b235d", "is_disabled": 0, "type": "electric_scooter", "is_reserved": 0, "fusion_lon": 0.0, "lat": 38.917005, "rental_uris": {"ios": "https://dc.lft.to/lastmile_qr_scan", "android": "https://dc.lft.to/lastmile_qr_scan"}, "bike_id": "1069ea1e35be1824e4822edd305b235d", "fusion_lat": 0.0}, {"lon": -77.032083, "name": "f184fb0fff5ee4072c1171e703e2ac00", "is_disabled": 0, "type": "electric_scooter", "is_reserved": 0, "fusion_lon": 0.0, "lat": 38.9119315, "rental_uris": {"ios": "https://dc.lft.to/lastmile_qr_scan", "android": "https://dc.lft.to/lastmile_qr_scan"}, "bike_id": "f184fb0fff5ee4072c1171e703e2ac00", "fusion_lat": 0.0}, {"lon": -77.024523, "name": "9278aebfbbb94d8952c324fe824a5eef", "is_disabled": 0, "type": "electric_scooter", "is_reserved": 0, "fusion_lon": 0.0, "lat": 38.9238175, "rental_uris": {"ios": "https://dc.lft.to/lastmile_qr_scan", "android": "https://dc.lft.to/lastmile_qr_scan"}, "bike_id": "9278aebfbbb94d8952c324fe824a5eef", "fusion_lat": 0.0}, {"lon": -77.0110885, "name": "170cd06ad95c546562075459688725c0", "is_disabled": 0, "type": "electric_scooter", "is_reserved": 0, "fusion_lon": 0.0, "lat": 38.894761, "rental_uris": {"ios": "https://dc.lft.to/lastmile_qr_scan", "android": "https://dc.lft.to/lastmile_qr_scan"}, "bike_id": "170cd06ad95c546562075459688725c0", "fusion_lat": 0.0}, {"lon": -77.04878916666667, "name": "6a8b2b0fbc79e5b53e5e00745dd9389d", "is_disabled": 0, "type": "electric_scooter", "is_reserved": 0, "fusion_lon": 0.0, "lat": 38.899623, "rental_uris": {"ios": "https://dc.lft.to/lastmile_qr_scan", "android": "https://dc.lft.to/lastmile_qr_scan"}, "bike_id": "6a8b2b0fbc79e5b53e5e00745dd9389d", "fusion_lat": 0.0}, {"lon": -76.92952783333334, "name": "eadbd3d3627041e289756b2405438d93", "is_disabled": 0, "type": "electric_scooter", "is_reserved": 0, "fusion_lon": 0.0, "lat": 38.9017925, "rental_uris": {"ios": "https://dc.lft.to/lastmile_qr_scan", "android": "https://dc.lft.to/lastmile_qr_scan"}, "bike_id": "eadbd3d3627041e289756b2405438d93", "fusion_lat": 0.0}, {"lon": -77.0037445, "name": "6fe29916d8819109510243217a6edd14", "is_disabled": 0, "type": "electric_scooter", "is_reserved": 0, "fusion_lon": 0.0, "lat": 38.87634216666667, "rental_uris": {"ios": "https://dc.lft.to/lastmile_qr_scan", "android": "https://dc.lft.to/lastmile_qr_scan"}, "bike_id": "6fe29916d8819109510243217a6edd14", "fusion_lat": 0.0}, {"lon": -77.01639283333333, "name": "1be16ed038551071bbcefb098a38327a", "is_disabled": 0, "type": "electric_bike", "is_reserved": 0, "fusion_lon": 0.0, "lat": 38.903254, "rental_uris": {"ios": "https://dc.lft.to/lastmile_qr_scan", "android": "https://dc.lft.to/lastmile_qr_scan"}, "bike_id": "1be16ed038551071bbcefb098a38327a", "fusion_lat": 0.0}, {"lon": -77.00137883333333, "name": "2c72c1c6d1805cccd60da86f8c754348", "is_disabled": 0, "type": "electric_bike", "is_reserved": 0, "fusion_lon": 0.0, "lat": 38.99498783333333, "rental_uris": {"ios": "https://dc.lft.to/lastmile_qr_scan", "android": "https://dc.lft.to/lastmile_qr_scan"}, "bike_id": "2c72c1c6d1805cccd60da86f8c754348", "fusion_lat": 0.0}, {"lon": -76.94856366666667, "name": "4bfbafa92fb2beb142ed48699d9d910c", "is_disabled": 0, "type": "electric_scooter", "is_reserved": 0, "fusion_lon": 0.0, "lat": 38.896095333333335, "rental_uris": {"ios": "https://dc.lft.to/lastmile_qr_scan", "android": "https://dc.lft.to/lastmile_qr_scan"}, "bike_id": "4bfbafa92fb2beb142ed48699d9d910c", "fusion_lat": 0.0}, {"lon": -76.97310016666667, "name": "6c81ccc74836b576c50b26a7a8200720", "is_disabled": 0, "type": "electric_scooter", "is_reserved": 0, "fusion_lon": 0.0, "lat": 38.9198395, "rental_uris": {"ios": "https://dc.lft.to/lastmile_qr_scan", "android": "https://dc.lft.to/lastmile_qr_scan"}, "bike_id": "6c81ccc74836b576c50b26a7a8200720", "fusion_lat": 0.0}, {"lon": -77.00536033333333, "name": "72373922b328c53ba5afe18012600510", "is_disabled": 0, "type": "electric_scooter", "is_reserved": 0, "fusion_lon": 0.0, "lat": 38.8754525, "rental_uris": {"ios": "https://dc.lft.to/lastmile_qr_scan", "android": "https://dc.lft.to/lastmile_qr_scan"}, "bike_id": "72373922b328c53ba5afe18012600510", "fusion_lat": 0.0}, {"lon": -77.01732683333333, "name": "216da82243bfd38f72b3c2259dc22b18", "is_disabled": 0, "type": "electric_scooter", "is_reserved": 0, "fusion_lon": 0.0, "lat": 38.8770425, "rental_uris": {"ios": "https://dc.lft.to/lastmile_qr_scan", "android": "https://dc.lft.to/lastmile_qr_scan"}, "bike_id": "216da82243bfd38f72b3c2259dc22b18", "fusion_lat": 0.0}, {"lon": -77.039595, "name": "180a2ea56cacac7ff68dd26df94913b2", "is_disabled": 0, "type": "electric_scooter", "is_reserved": 0, "fusion_lon": 0.0, "lat": 38.902184166666665, "rental_uris": {"ios": "https://dc.lft.to/lastmile_qr_scan", "android": "https://dc.lft.to/lastmile_qr_scan"}, "bike_id": "180a2ea56cacac7ff68dd26df94913b2", "fusion_lat": 0.0}, {"lon": -77.0314265, "name": "ea1f289a18f98d681635b05c872a7315", "is_disabled": 0, "type": "electric_scooter", "is_reserved": 0, "fusion_lon": 0.0, "lat": 38.941949, "rental_uris": {"ios": "https://dc.lft.to/lastmile_qr_scan", "android": "https://dc.lft.to/lastmile_qr_scan"}, "bike_id": "ea1f289a18f98d681635b05c872a7315", "fusion_lat": 0.0}, {"lon": -77.0075215, "name": "cb1313eded4b22228543e1b1a9d53fc0", "is_disabled": 0, "type": "electric_bike", "is_reserved": 0, "fusion_lon": 0.0, "lat": 38.8709725, "rental_uris": {"ios": "https://dc.lft.to/lastmile_qr_scan", "android": "https://dc.lft.to/lastmile_qr_scan"}, "bike_id": "cb1313eded4b22228543e1b1a9d53fc0", "fusion_lat": 0.0}, {"lon": -77.018787, "name": "33708b1962c3e48e0261679d78d104f7", "is_disabled": 0, "type": "electric_scooter", "is_reserved": 0, "fusion_lon": 0.0, "lat": 38.9201875, "rental_uris": {"ios": "https://dc.lft.to/lastmile_qr_scan", "android": "https://dc.lft.to/lastmile_qr_scan"}, "bike_id": "33708b1962c3e48e0261679d78d104f7", "fusion_lat": 0.0}, {"lon": -76.93716716666667, "name": "28d21d98c0c6656457cfea8e2688b24d", "is_disabled": 0, "type": "electric_scooter", "is_reserved": 0, "fusion_lon": 0.0, "lat": 38.88856083333334, "rental_uris": {"ios": "https://dc.lft.to/lastmile_qr_scan", "android": "https://dc.lft.to/lastmile_qr_scan"}, "bike_id": "28d21d98c0c6656457cfea8e2688b24d", "fusion_lat": 0.0}, {"lon": -77.0038965, "name": "f09601af80df4fb4b4ff1ab29775640d", "is_disabled": 0, "type": "electric_scooter", "is_reserved": 0, "fusion_lon": 0.0, "lat": 38.87636066666666, "rental_uris": {"ios": "https://dc.lft.to/lastmile_qr_scan", "android": "https://dc.lft.to/lastmile_qr_scan"}, "bike_id": "f09601af80df4fb4b4ff1ab29775640d", "fusion_lat": 0.0}, {"lon": -77.03472783333333, "name": "f24a3b4f63e77df55d3bd9ea241062f9", "is_disabled": 0, "type": "electric_scooter", "is_reserved": 0, "fusion_lon": 0.0, "lat": 38.908585, "rental_uris": {"ios": "https://dc.lft.to/lastmile_qr_scan", "android": "https://dc.lft.to/lastmile_qr_scan"}, "bike_id": "f24a3b4f63e77df55d3bd9ea241062f9", "fusion_lat": 0.0}, {"lon": -77.02396016666667, "name": "72cefd573b1f927d185e4cff8ae322f6", "is_disabled": 0, "type": "electric_scooter", "is_reserved": 0, "fusion_lon": 0.0, "lat": 38.894245, "rental_uris": {"ios": "https://dc.lft.to/lastmile_qr_scan", "android": "https://dc.lft.to/lastmile_qr_scan"}, "bike_id": "72cefd573b1f927d185e4cff8ae322f6", "fusion_lat": 0.0}, {"lon": -76.99565316666667, "name": "ac287c1ccd497a8d98ab27710898077d", "is_disabled": 0, "type": "electric_bike", "is_reserved": 0, "fusion_lon": 0.0, "lat": 38.93980833333333, "rental_uris": {"ios": "https://dc.lft.to/lastmile_qr_scan", "android": "https://dc.lft.to/lastmile_qr_scan"}, "bike_id": "ac287c1ccd497a8d98ab27710898077d", "fusion_lat": 0.0}, {"lon": -77.005189, "name": "9f55affc6410d8659fdca2d606927d33", "is_disabled": 0, "type": "electric_scooter", "is_reserved": 0, "fusion_lon": 0.0, "lat": 38.874683166666664, "rental_uris": {"ios": "https://dc.lft.to/lastmile_qr_scan", "android": "https://dc.lft.to/lastmile_qr_scan"}, "bike_id": "9f55affc6410d8659fdca2d606927d33", "fusion_lat": 0.0}, {"lon": -77.0473135, "name": "e2c62c303ae6a3a503f7c08c1c77a2a6", "is_disabled": 0, "type": "electric_scooter", "is_reserved": 0, "fusion_lon": 0.0, "lat": 38.89971383333334, "rental_uris": {"ios": "https://dc.lft.to/lastmile_qr_scan", "android": "https://dc.lft.to/lastmile_qr_scan"}, "bike_id": "e2c62c303ae6a3a503f7c08c1c77a2a6", "fusion_lat": 0.0}, {"lon": -77.02178266666667, "name": "8e604e1fe8c377c3f71be92bd7687333", "is_disabled": 0, "type": "electric_scooter", "is_reserved": 0, "fusion_lon": 0.0, "lat": 38.9263665, "rental_uris": {"ios": "https://dc.lft.to/lastmile_qr_scan", "android": "https://dc.lft.to/lastmile_qr_scan"}, "bike_id": "8e604e1fe8c377c3f71be92bd7687333", "fusion_lat": 0.0}, {"lon": -76.90303216666666, "name": "dbde26b1217d1f48936ebea08007b7f2", "is_disabled": 0, "type": "electric_bike", "is_reserved": 0, "fusion_lon": 0.0, "lat": 39.002955666666665, "rental_uris": {"ios": "https://dc.lft.to/lastmile_qr_scan", "android": "https://dc.lft.to/lastmile_qr_scan"}, "bike_id": "dbde26b1217d1f48936ebea08007b7f2", "fusion_lat": 0.0}, {"lon": -77.04661866666666, "name": "77a2bb1cefda4464091e426f8e0e72dc", "is_disabled": 0, "type": "electric_scooter", "is_reserved": 0, "fusion_lon": 0.0, "lat": 38.8925245, "rental_uris": {"ios": "https://dc.lft.to/lastmile_qr_scan", "android": "https://dc.lft.to/lastmile_qr_scan"}, "bike_id": "77a2bb1cefda4464091e426f8e0e72dc", "fusion_lat": 0.0}, {"lon": -77.02698116666667, "name": "bd34526645e392e737bf63ee17ffd609", "is_disabled": 0, "type": "electric_scooter", "is_reserved": 0, "fusion_lon": 0.0, "lat": 38.897740666666664, "rental_uris": {"ios": "https://dc.lft.to/lastmile_qr_scan", "android": "https://dc.lft.to/lastmile_qr_scan"}, "bike_id": "bd34526645e392e737bf63ee17ffd609", "fusion_lat": 0.0}, {"lon": -77.0698615, "name": "461b290aa87a08c2fe6a3c661c352566", "is_disabled": 0, "type": "electric_scooter", "is_reserved": 0, "fusion_lon": 0.0, "lat": 38.907863, "rental_uris": {"ios": "https://dc.lft.to/lastmile_qr_scan", "android": "https://dc.lft.to/lastmile_qr_scan"}, "bike_id": "461b290aa87a08c2fe6a3c661c352566", "fusion_lat": 0.0}, {"lon": -77.02203933333334, "name": "56af53ab3a00ad03f9f6948543637250", "is_disabled": 0, "type": "electric_scooter", "is_reserved": 0, "fusion_lon": 0.0, "lat": 38.910492, "rental_uris": {"ios": "https://dc.lft.to/lastmile_qr_scan", "android": "https://dc.lft.to/lastmile_qr_scan"}, "bike_id": "56af53ab3a00ad03f9f6948543637250", "fusion_lat": 0.0}, {"lon": -76.988761, "name": "ada6373ce509812e5c3381572c206f33", "is_disabled": 0, "type": "electric_scooter", "is_reserved": 0, "fusion_lon": 0.0, "lat": 38.91339983333334, "rental_uris": {"ios": "https://dc.lft.to/lastmile_qr_scan", "android": "https://dc.lft.to/lastmile_qr_scan"}, "bike_id": "ada6373ce509812e5c3381572c206f33", "fusion_lat": 0.0}, {"lon": -77.00586883333334, "name": "ba5ff50df9a18a2f0adc89298d157d68", "is_disabled": 0, "type": "electric_scooter", "is_reserved": 0, "fusion_lon": 0.0, "lat": 38.872162, "rental_uris": {"ios": "https://dc.lft.to/lastmile_qr_scan", "android": "https://dc.lft.to/lastmile_qr_scan"}, "bike_id": "ba5ff50df9a18a2f0adc89298d157d68", "fusion_lat": 0.0}, {"lon": -77.04519583333334, "name": "c2b5ca4b91ebfb2877935e4778d717d6", "is_disabled": 0, "type": "electric_scooter", "is_reserved": 0, "fusion_lon": 0.0, "lat": 38.91007333333334, "rental_uris": {"ios": "https://dc.lft.to/lastmile_qr_scan", "android": "https://dc.lft.to/lastmile_qr_scan"}, "bike_id": "c2b5ca4b91ebfb2877935e4778d717d6", "fusion_lat": 0.0}, {"lon": -77.03353883333334, "name": "0a8c019d38dbc34c0530a7668023d2ee", "is_disabled": 0, "type": "electric_scooter", "is_reserved": 0, "fusion_lon": 0.0, "lat": 38.892407166666665, "rental_uris": {"ios": "https://dc.lft.to/lastmile_qr_scan", "android": "https://dc.lft.to/lastmile_qr_scan"}, "bike_id": "0a8c019d38dbc34c0530a7668023d2ee", "fusion_lat": 0.0}, {"lon": -77.02691616666667, "name": "b0ab640ba4807d24fb159bfb0a6bdc93", "is_disabled": 0, "type": "electric_scooter", "is_reserved": 0, "fusion_lon": 0.0, "lat": 38.98457766666667, "rental_uris": {"ios": "https://dc.lft.to/lastmile_qr_scan", "android": "https://dc.lft.to/lastmile_qr_scan"}, "bike_id": "b0ab640ba4807d24fb159bfb0a6bdc93", "fusion_lat": 0.0}, {"lon": -77.03288633333334, "name": "5b27ff3bd9d47dce2caa0e89eb262350", "is_disabled": 0, "type": "electric_scooter", "is_reserved": 0, "fusion_lon": 0.0, "lat": 38.909607333333334, "rental_uris": {"ios": "https://dc.lft.to/lastmile_qr_scan", "android": "https://dc.lft.to/lastmile_qr_scan"}, "bike_id": "5b27ff3bd9d47dce2caa0e89eb262350", "fusion_lat": 0.0}, {"lon": -77.04790816666667, "name": "8102c12746ebe8ceb8def20fa73e7aa7", "is_disabled": 0, "type": "electric_scooter", "is_reserved": 0, "fusion_lon": 0.0, "lat": 38.90220733333334, "rental_uris": {"ios": "https://dc.lft.to/lastmile_qr_scan", "android": "https://dc.lft.to/lastmile_qr_scan"}, "bike_id": "8102c12746ebe8ceb8def20fa73e7aa7", "fusion_lat": 0.0}, {"lon": -77.0066545, "name": "e027a6c10a9884e9a8db16cd693b8541", "is_disabled": 0, "type": "electric_scooter", "is_reserved": 0, "fusion_lon": 0.0, "lat": 38.88312833333333, "rental_uris": {"ios": "https://dc.lft.to/lastmile_qr_scan", "android": "https://dc.lft.to/lastmile_qr_scan"}, "bike_id": "e027a6c10a9884e9a8db16cd693b8541", "fusion_lat": 0.0}, {"lon": -77.02940966666667, "name": "d3d1ef59d84436514e74a5bea35eec39", "is_disabled": 0, "type": "electric_scooter", "is_reserved": 0, "fusion_lon": 0.0, "lat": 38.942789166666664, "rental_uris": {"ios": "https://dc.lft.to/lastmile_qr_scan", "android": "https://dc.lft.to/lastmile_qr_scan"}, "bike_id": "d3d1ef59d84436514e74a5bea35eec39", "fusion_lat": 0.0}, {"lon": -77.0200895, "name": "3b21c9993f0edb27f8db08c42bcd061b", "is_disabled": 0, "type": "electric_scooter", "is_reserved": 0, "fusion_lon": 0.0, "lat": 38.894989, "rental_uris": {"ios": "https://dc.lft.to/lastmile_qr_scan", "android": "https://dc.lft.to/lastmile_qr_scan"}, "bike_id": "3b21c9993f0edb27f8db08c42bcd061b", "fusion_lat": 0.0}, {"lon": -76.98249533333333, "name": "cc63000384776c00a2ed1127a27912af", "is_disabled": 0, "type": "electric_scooter", "is_reserved": 0, "fusion_lon": 0.0, "lat": 38.864569833333334, "rental_uris": {"ios": "https://dc.lft.to/lastmile_qr_scan", "android": "https://dc.lft.to/lastmile_qr_scan"}, "bike_id": "cc63000384776c00a2ed1127a27912af", "fusion_lat": 0.0}, {"lon": -76.95063666666667, "name": "b33ffa5878262e18f6e33abc11bcace8", "is_disabled": 0, "type": "electric_bike", "is_reserved": 0, "fusion_lon": 0.0, "lat": 39.085078, "rental_uris": {"ios": "https://dc.lft.to/lastmile_qr_scan", "android": "https://dc.lft.to/lastmile_qr_scan"}, "bike_id": "b33ffa5878262e18f6e33abc11bcace8", "fusion_lat": 0.0}, {"lon": -77.0346065, "name": "c2ad5570e2f6774059452e35be8afa48", "is_disabled": 0, "type": "electric_scooter", "is_reserved": 0, "fusion_lon": 0.0, "lat": 38.904660166666666, "rental_uris": {"ios": "https://dc.lft.to/lastmile_qr_scan", "android": "https://dc.lft.to/lastmile_qr_scan"}, "bike_id": "c2ad5570e2f6774059452e35be8afa48", "fusion_lat": 0.0}, {"lon": -77.00151216666667, "name": "2436365754f35eec6dd49b9b1de8f7a3", "is_disabled": 0, "type": "electric_scooter", "is_reserved": 0, "fusion_lon": 0.0, "lat": 38.867513833333334, "rental_uris": {"ios": "https://dc.lft.to/lastmile_qr_scan", "android": "https://dc.lft.to/lastmile_qr_scan"}, "bike_id": "2436365754f35eec6dd49b9b1de8f7a3", "fusion_lat": 0.0}, {"lon": -77.03376383333334, "name": "3dfd06d88e75b148440bd562947768d9", "is_disabled": 0, "type": "electric_scooter", "is_reserved": 0, "fusion_lon": 0.0, "lat": 38.922267166666664, "rental_uris": {"ios": "https://dc.lft.to/lastmile_qr_scan", "android": "https://dc.lft.to/lastmile_qr_scan"}, "bike_id": "3dfd06d88e75b148440bd562947768d9", "fusion_lat": 0.0}, {"lon": -77.01995683333334, "name": "f6021044c21686b4bcbde83c8c2f5bd6", "is_disabled": 0, "type": "electric_scooter", "is_reserved": 0, "fusion_lon": 0.0, "lat": 38.93182933333333, "rental_uris": {"ios": "https://dc.lft.to/lastmile_qr_scan", "android": "https://dc.lft.to/lastmile_qr_scan"}, "bike_id": "f6021044c21686b4bcbde83c8c2f5bd6", "fusion_lat": 0.0}, {"lon": -76.99560883333334, "name": "3c4b3af6da71a0a1ac1c4fd041417297", "is_disabled": 0, "type": "electric_scooter", "is_reserved": 0, "fusion_lon": 0.0, "lat": 38.92662466666667, "rental_uris": {"ios": "https://dc.lft.to/lastmile_qr_scan", "android": "https://dc.lft.to/lastmile_qr_scan"}, "bike_id": "3c4b3af6da71a0a1ac1c4fd041417297", "fusion_lat": 0.0}, {"lon": -76.99018866666667, "name": "c4f7210a5b6db3dd9692a900a1b426b2", "is_disabled": 0, "type": "electric_scooter", "is_reserved": 0, "fusion_lon": 0.0, "lat": 38.86514316666667, "rental_uris": {"ios": "https://dc.lft.to/lastmile_qr_scan", "android": "https://dc.lft.to/lastmile_qr_scan"}, "bike_id": "c4f7210a5b6db3dd9692a900a1b426b2", "fusion_lat": 0.0}, {"lon": -77.0195455, "name": "6232d9b0c470055a328c56e3fd63f304", "is_disabled": 0, "type": "electric_scooter", "is_reserved": 0, "fusion_lon": 0.0, "lat": 38.9232085, "rental_uris": {"ios": "https://dc.lft.to/lastmile_qr_scan", "android": "https://dc.lft.to/lastmile_qr_scan"}, "bike_id": "6232d9b0c470055a328c56e3fd63f304", "fusion_lat": 0.0}, {"lon": -77.00962633333333, "name": "bc713b22d3db66d353dee61fcc7cfa17", "is_disabled": 0, "type": "electric_scooter", "is_reserved": 0, "fusion_lon": 0.0, "lat": 38.87629866666666, "rental_uris": {"ios": "https://dc.lft.to/lastmile_qr_scan", "android": "https://dc.lft.to/lastmile_qr_scan"}, "bike_id": "bc713b22d3db66d353dee61fcc7cfa17", "fusion_lat": 0.0}, {"lon": -77.01723683333333, "name": "f759056f9457d967ee44258ddb4fe559", "is_disabled": 0, "type": "electric_scooter", "is_reserved": 0, "fusion_lon": 0.0, "lat": 38.90725316666666, "rental_uris": {"ios": "https://dc.lft.to/lastmile_qr_scan", "android": "https://dc.lft.to/lastmile_qr_scan"}, "bike_id": "f759056f9457d967ee44258ddb4fe559", "fusion_lat": 0.0}, {"lon": -76.98925683333333, "name": "08214ccca6e4dd8171ef4e869a5945be", "is_disabled": 0, "type": "electric_scooter", "is_reserved": 0, "fusion_lon": 0.0, "lat": 38.882890333333336, "rental_uris": {"ios": "https://dc.lft.to/lastmile_qr_scan", "android": "https://dc.lft.to/lastmile_qr_scan"}, "bike_id": "08214ccca6e4dd8171ef4e869a5945be", "fusion_lat": 0.0}, {"lon": -77.0037455, "name": "0c77f9e40ac8e2ee80e58974201e5277", "is_disabled": 0, "type": "electric_scooter", "is_reserved": 0, "fusion_lon": 0.0, "lat": 38.8926455, "rental_uris": {"ios": "https://dc.lft.to/lastmile_qr_scan", "android": "https://dc.lft.to/lastmile_qr_scan"}, "bike_id": "0c77f9e40ac8e2ee80e58974201e5277", "fusion_lat": 0.0}, {"lon": -77.05697466666666, "name": "eb860834c492f87aa3cb1f92f6bd50ed", "is_disabled": 0, "type": "electric_scooter", "is_reserved": 0, "fusion_lon": 0.0, "lat": 38.905151000000004, "rental_uris": {"ios": "https://dc.lft.to/lastmile_qr_scan", "android": "https://dc.lft.to/lastmile_qr_scan"}, "bike_id": "eb860834c492f87aa3cb1f92f6bd50ed", "fusion_lat": 0.0}, {"lon": -76.99534816666667, "name": "4dbfa92369e8528c3d46d64ff0793497", "is_disabled": 0, "type": "electric_scooter", "is_reserved": 0, "fusion_lon": 0.0, "lat": 38.8876755, "rental_uris": {"ios": "https://dc.lft.to/lastmile_qr_scan", "android": "https://dc.lft.to/lastmile_qr_scan"}, "bike_id": "4dbfa92369e8528c3d46d64ff0793497", "fusion_lat": 0.0}, {"lon": -77.03527583333333, "name": "60c0965b4272c8db7c693fdd291c4479", "is_disabled": 0, "type": "electric_scooter", "is_reserved": 0, "fusion_lon": 0.0, "lat": 38.90695866666667, "rental_uris": {"ios": "https://dc.lft.to/lastmile_qr_scan", "android": "https://dc.lft.to/lastmile_qr_scan"}, "bike_id": "60c0965b4272c8db7c693fdd291c4479", "fusion_lat": 0.0}, {"lon": -77.00728216666667, "name": "925a3fef8c5d6a65739c7a8949c9dfee", "is_disabled": 0, "type": "electric_scooter", "is_reserved": 0, "fusion_lon": 0.0, "lat": 38.911909, "rental_uris": {"ios": "https://dc.lft.to/lastmile_qr_scan", "android": "https://dc.lft.to/lastmile_qr_scan"}, "bike_id": "925a3fef8c5d6a65739c7a8949c9dfee", "fusion_lat": 0.0}, {"lon": -77.07155233333333, "name": "a8a1e4fa74e2d589c9b41068db70a6c4", "is_disabled": 0, "type": "electric_scooter", "is_reserved": 0, "fusion_lon": 0.0, "lat": 38.907777, "rental_uris": {"ios": "https://dc.lft.to/lastmile_qr_scan", "android": "https://dc.lft.to/lastmile_qr_scan"}, "bike_id": "a8a1e4fa74e2d589c9b41068db70a6c4", "fusion_lat": 0.0}, {"lon": -77.013789, "name": "93568d3f5a607aa24111f803eef317d8", "is_disabled": 0, "type": "electric_scooter", "is_reserved": 0, "fusion_lon": 0.0, "lat": 38.89846516666667, "rental_uris": {"ios": "https://dc.lft.to/lastmile_qr_scan", "android": "https://dc.lft.to/lastmile_qr_scan"}, "bike_id": "93568d3f5a607aa24111f803eef317d8", "fusion_lat": 0.0}, {"lon": -77.05922616666666, "name": "b254face1c88c515bd17254e4a497803", "is_disabled": 0, "type": "electric_scooter", "is_reserved": 0, "fusion_lon": 0.0, "lat": 38.90145366666667, "rental_uris": {"ios": "https://dc.lft.to/lastmile_qr_scan", "android": "https://dc.lft.to/lastmile_qr_scan"}, "bike_id": "b254face1c88c515bd17254e4a497803", "fusion_lat": 0.0}, {"lon": -77.02702833333333, "name": "a627afe69d5a75c0851621582e8eaa29", "is_disabled": 0, "type": "electric_scooter", "is_reserved": 0, "fusion_lon": 0.0, "lat": 38.905719166666664, "rental_uris": {"ios": "https://dc.lft.to/lastmile_qr_scan", "android": "https://dc.lft.to/lastmile_qr_scan"}, "bike_id": "a627afe69d5a75c0851621582e8eaa29", "fusion_lat": 0.0}, {"lon": -77.03200466666667, "name": "f3c31fedbeb7463299b8bc2880b6c678", "is_disabled": 0, "type": "electric_scooter", "is_reserved": 0, "fusion_lon": 0.0, "lat": 38.91633183333333, "rental_uris": {"ios": "https://dc.lft.to/lastmile_qr_scan", "android": "https://dc.lft.to/lastmile_qr_scan"}, "bike_id": "f3c31fedbeb7463299b8bc2880b6c678", "fusion_lat": 0.0}, {"lon": -77.02452366666667, "name": "af782c7714d2e45d258b6ef5a04c0883", "is_disabled": 0, "type": "electric_scooter", "is_reserved": 0, "fusion_lon": 0.0, "lat": 38.907213, "rental_uris": {"ios": "https://dc.lft.to/lastmile_qr_scan", "android": "https://dc.lft.to/lastmile_qr_scan"}, "bike_id": "af782c7714d2e45d258b6ef5a04c0883", "fusion_lat": 0.0}, {"lon": -77.0316945, "name": "a07be20b7f37304599c5edf6542f421b", "is_disabled": 0, "type": "electric_scooter", "is_reserved": 0, "fusion_lon": 0.0, "lat": 38.89218566666667, "rental_uris": {"ios": "https://dc.lft.to/lastmile_qr_scan", "android": "https://dc.lft.to/lastmile_qr_scan"}, "bike_id": "a07be20b7f37304599c5edf6542f421b", "fusion_lat": 0.0}, {"lon": -77.04154616666666, "name": "30f5e60b2872b5df0e62c564c70a550e", "is_disabled": 0, "type": "electric_scooter", "is_reserved": 0, "fusion_lon": 0.0, "lat": 38.91805883333333, "rental_uris": {"ios": "https://dc.lft.to/lastmile_qr_scan", "android": "https://dc.lft.to/lastmile_qr_scan"}, "bike_id": "30f5e60b2872b5df0e62c564c70a550e", "fusion_lat": 0.0}, {"lon": -76.98793083333334, "name": "34168001e82c8f6aca7703bc0a004bb9", "is_disabled": 0, "type": "electric_bike", "is_reserved": 0, "fusion_lon": 0.0, "lat": 38.84463683333333, "rental_uris": {"ios": "https://dc.lft.to/lastmile_qr_scan", "android": "https://dc.lft.to/lastmile_qr_scan"}, "bike_id": "34168001e82c8f6aca7703bc0a004bb9", "fusion_lat": 0.0}, {"lon": -77.048697, "name": "ccbfebf8a383e8bcf982e9aa0b00b9f2", "is_disabled": 0, "type": "electric_scooter", "is_reserved": 0, "fusion_lon": 0.0, "lat": 38.900134666666666, "rental_uris": {"ios": "https://dc.lft.to/lastmile_qr_scan", "android": "https://dc.lft.to/lastmile_qr_scan"}, "bike_id": "ccbfebf8a383e8bcf982e9aa0b00b9f2", "fusion_lat": 0.0}, {"lon": -77.00920066666667, "name": "e0d51e58d7a94659817b1bd9ae846555", "is_disabled": 0, "type": "electric_scooter", "is_reserved": 0, "fusion_lon": 0.0, "lat": 38.923398666666664, "rental_uris": {"ios": "https://dc.lft.to/lastmile_qr_scan", "android": "https://dc.lft.to/lastmile_qr_scan"}, "bike_id": "e0d51e58d7a94659817b1bd9ae846555", "fusion_lat": 0.0}, {"lon": -77.02433983333333, "name": "49f389e1a2d8de9e7efc1b3e5626cdc0", "is_disabled": 0, "type": "electric_scooter", "is_reserved": 0, "fusion_lon": 0.0, "lat": 38.9336195, "rental_uris": {"ios": "https://dc.lft.to/lastmile_qr_scan", "android": "https://dc.lft.to/lastmile_qr_scan"}, "bike_id": "49f389e1a2d8de9e7efc1b3e5626cdc0", "fusion_lat": 0.0}, {"lon": -77.064045, "name": "5f85930f674fd337bf92d8ccc3150343", "is_disabled": 0, "type": "electric_scooter", "is_reserved": 0, "fusion_lon": 0.0, "lat": 38.944356, "rental_uris": {"ios": "https://dc.lft.to/lastmile_qr_scan", "android": "https://dc.lft.to/lastmile_qr_scan"}, "bike_id": "5f85930f674fd337bf92d8ccc3150343", "fusion_lat": 0.0}, {"lon": -77.0347385, "name": "f2c151fae713fd47331f80bfb47b3edf", "is_disabled": 0, "type": "electric_scooter", "is_reserved": 0, "fusion_lon": 0.0, "lat": 38.916632166666666, "rental_uris": {"ios": "https://dc.lft.to/lastmile_qr_scan", "android": "https://dc.lft.to/lastmile_qr_scan"}, "bike_id": "f2c151fae713fd47331f80bfb47b3edf", "fusion_lat": 0.0}, {"lon": -77.02976983333333, "name": "083c635f8a7e666c8776fbfaed4d5236", "is_disabled": 0, "type": "electric_scooter", "is_reserved": 0, "fusion_lon": 0.0, "lat": 38.91681666666667, "rental_uris": {"ios": "https://dc.lft.to/lastmile_qr_scan", "android": "https://dc.lft.to/lastmile_qr_scan"}, "bike_id": "083c635f8a7e666c8776fbfaed4d5236", "fusion_lat": 0.0}, {"lon": -77.040043, "name": "cfd410f707556e56ca2af38ffc277510", "is_disabled": 0, "type": "electric_scooter", "is_reserved": 0, "fusion_lon": 0.0, "lat": 38.90256866666667, "rental_uris": {"ios": "https://dc.lft.to/lastmile_qr_scan", "android": "https://dc.lft.to/lastmile_qr_scan"}, "bike_id": "cfd410f707556e56ca2af38ffc277510", "fusion_lat": 0.0}, {"lon": -77.05699416666667, "name": "57a81cc7ccd27ffae9748495bfc351ab", "is_disabled": 0, "type": "electric_scooter", "is_reserved": 0, "fusion_lon": 0.0, "lat": 38.906020833333336, "rental_uris": {"ios": "https://dc.lft.to/lastmile_qr_scan", "android": "https://dc.lft.to/lastmile_qr_scan"}, "bike_id": "57a81cc7ccd27ffae9748495bfc351ab", "fusion_lat": 0.0}, {"lon": -77.01905833333333, "name": "e67430cc16f4c9568b5b310b68e8580c", "is_disabled": 0, "type": "electric_scooter", "is_reserved": 0, "fusion_lon": 0.0, "lat": 38.923361, "rental_uris": {"ios": "https://dc.lft.to/lastmile_qr_scan", "android": "https://dc.lft.to/lastmile_qr_scan"}, "bike_id": "e67430cc16f4c9568b5b310b68e8580c", "fusion_lat": 0.0}, {"lon": -77.016709, "name": "a4c54304c7be8c9515ff8f211c200b19", "is_disabled": 0, "type": "electric_scooter", "is_reserved": 0, "fusion_lon": 0.0, "lat": 38.92050483333333, "rental_uris": {"ios": "https://dc.lft.to/lastmile_qr_scan", "android": "https://dc.lft.to/lastmile_qr_scan"}, "bike_id": "a4c54304c7be8c9515ff8f211c200b19", "fusion_lat": 0.0}, {"lon": -77.05035383333333, "name": "36b5967f83ae5c6febea9bb9c1b01ffc", "is_disabled": 0, "type": "electric_scooter", "is_reserved": 0, "fusion_lon": 0.0, "lat": 38.89279066666667, "rental_uris": {"ios": "https://dc.lft.to/lastmile_qr_scan", "android": "https://dc.lft.to/lastmile_qr_scan"}, "bike_id": "36b5967f83ae5c6febea9bb9c1b01ffc", "fusion_lat": 0.0}, {"lon": -76.9726855, "name": "37ea21d438c8c1ffaa3e1ed08ffbbffe", "is_disabled": 0, "type": "electric_bike", "is_reserved": 0, "fusion_lon": 0.0, "lat": 38.855958666666666, "rental_uris": {"ios": "https://dc.lft.to/lastmile_qr_scan", "android": "https://dc.lft.to/lastmile_qr_scan"}, "bike_id": "37ea21d438c8c1ffaa3e1ed08ffbbffe", "fusion_lat": 0.0}, {"lon": -77.02282466666666, "name": "2eb3e0a1d4127dd87877bcf541a523b9", "is_disabled": 0, "type": "electric_scooter", "is_reserved": 0, "fusion_lon": 0.0, "lat": 38.87830483333333, "rental_uris": {"ios": "https://dc.lft.to/lastmile_qr_scan", "android": "https://dc.lft.to/lastmile_qr_scan"}, "bike_id": "2eb3e0a1d4127dd87877bcf541a523b9", "fusion_lat": 0.0}, {"lon": -77.01575, "name": "fbcbe77b19ed387aa763be53cfd4c521", "is_disabled": 0, "type": "electric_scooter", "is_reserved": 0, "fusion_lon": 0.0, "lat": 38.926812166666664, "rental_uris": {"ios": "https://dc.lft.to/lastmile_qr_scan", "android": "https://dc.lft.to/lastmile_qr_scan"}, "bike_id": "fbcbe77b19ed387aa763be53cfd4c521", "fusion_lat": 0.0}, {"lon": -77.1333655, "name": "db7767f069a53a985ef40d2c624d03dc", "is_disabled": 0, "type": "electric_bike", "is_reserved": 0, "fusion_lon": 0.0, "lat": 39.06031683333333, "rental_uris": {"ios": "https://dc.lft.to/lastmile_qr_scan", "android": "https://dc.lft.to/lastmile_qr_scan"}, "bike_id": "db7767f069a53a985ef40d2c624d03dc", "fusion_lat": 0.0}, {"lon": -77.00538116666667, "name": "66c5ddee8cb5b5a02193a2200feba262", "is_disabled": 0, "type": "electric_scooter", "is_reserved": 0, "fusion_lon": 0.0, "lat": 38.9055385, "rental_uris": {"ios": "https://dc.lft.to/lastmile_qr_scan", "android": "https://dc.lft.to/lastmile_qr_scan"}, "bike_id": "66c5ddee8cb5b5a02193a2200feba262", "fusion_lat": 0.0}, {"lon": -77.04477266666666, "name": "257da6bec921956ac1565feccd63383b", "is_disabled": 0, "type": "electric_scooter", "is_reserved": 0, "fusion_lon": 0.0, "lat": 38.8936125, "rental_uris": {"ios": "https://dc.lft.to/lastmile_qr_scan", "android": "https://dc.lft.to/lastmile_qr_scan"}, "bike_id": "257da6bec921956ac1565feccd63383b", "fusion_lat": 0.0}, {"lon": -77.003944, "name": "48a6a96ba3ee6cffca14f514281fc2f9", "is_disabled": 0, "type": "electric_bike", "is_reserved": 0, "fusion_lon": 0.0, "lat": 38.98554766666667, "rental_uris": {"ios": "https://dc.lft.to/lastmile_qr_scan", "android": "https://dc.lft.to/lastmile_qr_scan"}, "bike_id": "48a6a96ba3ee6cffca14f514281fc2f9", "fusion_lat": 0.0}, {"lon": -77.229951, "name": "dbbb13e55012f2e99222147926d2e46d", "is_disabled": 0, "type": "electric_bike", "is_reserved": 0, "fusion_lon": 0.0, "lat": 38.871442333333334, "rental_uris": {"ios": "https://dc.lft.to/lastmile_qr_scan", "android": "https://dc.lft.to/lastmile_qr_scan"}, "bike_id": "dbbb13e55012f2e99222147926d2e46d", "fusion_lat": 0.0}, {"lon": -77.01912783333333, "name": "0fb7ae0541fc76ddfdf9cc289f977998", "is_disabled": 0, "type": "electric_scooter", "is_reserved": 0, "fusion_lon": 0.0, "lat": 38.90144516666667, "rental_uris": {"ios": "https://dc.lft.to/lastmile_qr_scan", "android": "https://dc.lft.to/lastmile_qr_scan"}, "bike_id": "0fb7ae0541fc76ddfdf9cc289f977998", "fusion_lat": 0.0}, {"lon": -76.998657, "name": "e831d932407fff7bd14bba7b4e1970c4", "is_disabled": 0, "type": "electric_scooter", "is_reserved": 0, "fusion_lon": 0.0, "lat": 38.899977666666665, "rental_uris": {"ios": "https://dc.lft.to/lastmile_qr_scan", "android": "https://dc.lft.to/lastmile_qr_scan"}, "bike_id": "e831d932407fff7bd14bba7b4e1970c4", "fusion_lat": 0.0}, {"lon": -77.02188083333333, "name": "2732cb784fad3aec3930cee08b4daa8d", "is_disabled": 0, "type": "electric_scooter", "is_reserved": 0, "fusion_lon": 0.0, "lat": 38.887141166666666, "rental_uris": {"ios": "https://dc.lft.to/lastmile_qr_scan", "android": "https://dc.lft.to/lastmile_qr_scan"}, "bike_id": "2732cb784fad3aec3930cee08b4daa8d", "fusion_lat": 0.0}, {"lon": -77.02954366666667, "name": "28e51b8c53a3de20e05758125de85def", "is_disabled": 0, "type": "electric_scooter", "is_reserved": 0, "fusion_lon": 0.0, "lat": 38.927708, "rental_uris": {"ios": "https://dc.lft.to/lastmile_qr_scan", "android": "https://dc.lft.to/lastmile_qr_scan"}, "bike_id": "28e51b8c53a3de20e05758125de85def", "fusion_lat": 0.0}, {"lon": -77.05882933333334, "name": "ac9c641aff199e7ff15948d23b7e4638", "is_disabled": 0, "type": "electric_scooter", "is_reserved": 0, "fusion_lon": 0.0, "lat": 38.9356165, "rental_uris": {"ios": "https://dc.lft.to/lastmile_qr_scan", "android": "https://dc.lft.to/lastmile_qr_scan"}, "bike_id": "ac9c641aff199e7ff15948d23b7e4638", "fusion_lat": 0.0}, {"lon": -76.985519, "name": "90ca1153ccbbd5d289ae0c1d81624dac", "is_disabled": 0, "type": "electric_scooter", "is_reserved": 0, "fusion_lon": 0.0, "lat": 38.914810333333335, "rental_uris": {"ios": "https://dc.lft.to/lastmile_qr_scan", "android": "https://dc.lft.to/lastmile_qr_scan"}, "bike_id": "90ca1153ccbbd5d289ae0c1d81624dac", "fusion_lat": 0.0}, {"lon": -77.0347245, "name": "cdfacf32341a8ded86110a3e81514c7d", "is_disabled": 0, "type": "electric_scooter", "is_reserved": 0, "fusion_lon": 0.0, "lat": 38.90953716666667, "rental_uris": {"ios": "https://dc.lft.to/lastmile_qr_scan", "android": "https://dc.lft.to/lastmile_qr_scan"}, "bike_id": "cdfacf32341a8ded86110a3e81514c7d", "fusion_lat": 0.0}, {"lon": -77.02953, "name": "0eefc7b7fb84ee73f5bf58ababeb7237", "is_disabled": 0, "type": "electric_scooter", "is_reserved": 0, "fusion_lon": 0.0, "lat": 38.916849, "rental_uris": {"ios": "https://dc.lft.to/lastmile_qr_scan", "android": "https://dc.lft.to/lastmile_qr_scan"}, "bike_id": "0eefc7b7fb84ee73f5bf58ababeb7237", "fusion_lat": 0.0}, {"lon": -77.02642533333334, "name": "f8e1c1f93ffb8806ad10f10c8f526850", "is_disabled": 0, "type": "electric_scooter", "is_reserved": 0, "fusion_lon": 0.0, "lat": 38.911014333333334, "rental_uris": {"ios": "https://dc.lft.to/lastmile_qr_scan", "android": "https://dc.lft.to/lastmile_qr_scan"}, "bike_id": "f8e1c1f93ffb8806ad10f10c8f526850", "fusion_lat": 0.0}, {"lon": -77.02233183333334, "name": "a81c8653df792c62550768c3f41fb5d2", "is_disabled": 0, "type": "electric_scooter", "is_reserved": 0, "fusion_lon": 0.0, "lat": 38.92478416666667, "rental_uris": {"ios": "https://dc.lft.to/lastmile_qr_scan", "android": "https://dc.lft.to/lastmile_qr_scan"}, "bike_id": "a81c8653df792c62550768c3f41fb5d2", "fusion_lat": 0.0}, {"lon": -77.0057755, "name": "438b15c8be4b548e258ff93c50c5bef8", "is_disabled": 0, "type": "electric_scooter", "is_reserved": 0, "fusion_lon": 0.0, "lat": 38.872086833333334, "rental_uris": {"ios": "https://dc.lft.to/lastmile_qr_scan", "android": "https://dc.lft.to/lastmile_qr_scan"}, "bike_id": "438b15c8be4b548e258ff93c50c5bef8", "fusion_lat": 0.0}, {"lon": -77.002821, "name": "5cbc59761b7842a1d9afc7cb0cc86199", "is_disabled": 0, "type": "electric_scooter", "is_reserved": 0, "fusion_lon": 0.0, "lat": 38.89196966666667, "rental_uris": {"ios": "https://dc.lft.to/lastmile_qr_scan", "android": "https://dc.lft.to/lastmile_qr_scan"}, "bike_id": "5cbc59761b7842a1d9afc7cb0cc86199", "fusion_lat": 0.0}, {"lon": -77.04999283333333, "name": "9ce47efdfc2921565d310cd8e02620c2", "is_disabled": 0, "type": "electric_scooter", "is_reserved": 0, "fusion_lon": 0.0, "lat": 38.89231133333333, "rental_uris": {"ios": "https://dc.lft.to/lastmile_qr_scan", "android": "https://dc.lft.to/lastmile_qr_scan"}, "bike_id": "9ce47efdfc2921565d310cd8e02620c2", "fusion_lat": 0.0}, {"lon": -77.04706083333333, "name": "b3f8e982fbc72742434bb32e6d6aa4b8", "is_disabled": 0, "type": "electric_scooter", "is_reserved": 0, "fusion_lon": 0.0, "lat": 38.921644666666666, "rental_uris": {"ios": "https://dc.lft.to/lastmile_qr_scan", "android": "https://dc.lft.to/lastmile_qr_scan"}, "bike_id": "b3f8e982fbc72742434bb32e6d6aa4b8", "fusion_lat": 0.0}, {"lon": -77.0238005, "name": "2526995f9727dfbd5978842abc92bb15", "is_disabled": 0, "type": "electric_scooter", "is_reserved": 0, "fusion_lon": 0.0, "lat": 38.920453333333334, "rental_uris": {"ios": "https://dc.lft.to/lastmile_qr_scan", "android": "https://dc.lft.to/lastmile_qr_scan"}, "bike_id": "2526995f9727dfbd5978842abc92bb15", "fusion_lat": 0.0}, {"lon": -77.00182466666666, "name": "f30821635363b8ade5e953b60ffac403", "is_disabled": 0, "type": "electric_scooter", "is_reserved": 0, "fusion_lon": 0.0, "lat": 38.888635666666666, "rental_uris": {"ios": "https://dc.lft.to/lastmile_qr_scan", "android": "https://dc.lft.to/lastmile_qr_scan"}, "bike_id": "f30821635363b8ade5e953b60ffac403", "fusion_lat": 0.0}, {"lon": -77.00067333333334, "name": "cd7757f107220b3362919d3afe426ef9", "is_disabled": 0, "type": "electric_scooter", "is_reserved": 0, "fusion_lon": 0.0, "lat": 38.9205885, "rental_uris": {"ios": "https://dc.lft.to/lastmile_qr_scan", "android": "https://dc.lft.to/lastmile_qr_scan"}, "bike_id": "cd7757f107220b3362919d3afe426ef9", "fusion_lat": 0.0}, {"lon": -77.02596883333334, "name": "b5ca149c83f74828e612e28287a51dab", "is_disabled": 0, "type": "electric_scooter", "is_reserved": 0, "fusion_lon": 0.0, "lat": 38.96390366666667, "rental_uris": {"ios": "https://dc.lft.to/lastmile_qr_scan", "android": "https://dc.lft.to/lastmile_qr_scan"}, "bike_id": "b5ca149c83f74828e612e28287a51dab", "fusion_lat": 0.0}, {"lon": -77.03788016666667, "name": "7adf7664022100ecdf6be89f27df1eac", "is_disabled": 0, "type": "electric_scooter", "is_reserved": 0, "fusion_lon": 0.0, "lat": 38.90864533333333, "rental_uris": {"ios": "https://dc.lft.to/lastmile_qr_scan", "android": "https://dc.lft.to/lastmile_qr_scan"}, "bike_id": "7adf7664022100ecdf6be89f27df1eac", "fusion_lat": 0.0}, {"lon": -77.03238916666666, "name": "b13d7c755d12fd95edfd9eb1701ec99e", "is_disabled": 0, "type": "electric_scooter", "is_reserved": 0, "fusion_lon": 0.0, "lat": 38.91259316666667, "rental_uris": {"ios": "https://dc.lft.to/lastmile_qr_scan", "android": "https://dc.lft.to/lastmile_qr_scan"}, "bike_id": "b13d7c755d12fd95edfd9eb1701ec99e", "fusion_lat": 0.0}, {"lon": -77.00570966666666, "name": "dc09507ddf2fbd24fbb1410047f382a8", "is_disabled": 0, "type": "electric_scooter", "is_reserved": 0, "fusion_lon": 0.0, "lat": 38.87766583333333, "rental_uris": {"ios": "https://dc.lft.to/lastmile_qr_scan", "android": "https://dc.lft.to/lastmile_qr_scan"}, "bike_id": "dc09507ddf2fbd24fbb1410047f382a8", "fusion_lat": 0.0}, {"lon": -77.015198, "name": "288358ca230f8ce210be68cf76164eab", "is_disabled": 0, "type": "electric_scooter", "is_reserved": 0, "fusion_lon": 0.0, "lat": 38.87281333333333, "rental_uris": {"ios": "https://dc.lft.to/lastmile_qr_scan", "android": "https://dc.lft.to/lastmile_qr_scan"}, "bike_id": "288358ca230f8ce210be68cf76164eab", "fusion_lat": 0.0}, {"lon": -77.23390816666667, "name": "35684a99447f7a84c7d830a5ce88de4f", "is_disabled": 0, "type": "electric_bike", "is_reserved": 0, "fusion_lon": 0.0, "lat": 38.87171716666667, "rental_uris": {"ios": "https://dc.lft.to/lastmile_qr_scan", "android": "https://dc.lft.to/lastmile_qr_scan"}, "bike_id": "35684a99447f7a84c7d830a5ce88de4f", "fusion_lat": 0.0}, {"lon": -77.03138266666667, "name": "23267da2b54ed8386ea1a27702941d1b", "is_disabled": 0, "type": "electric_scooter", "is_reserved": 0, "fusion_lon": 0.0, "lat": 38.91270033333333, "rental_uris": {"ios": "https://dc.lft.to/lastmile_qr_scan", "android": "https://dc.lft.to/lastmile_qr_scan"}, "bike_id": "23267da2b54ed8386ea1a27702941d1b", "fusion_lat": 0.0}, {"lon": -76.99282366666667, "name": "744e65090703df9088b2b6707e131efb", "is_disabled": 0, "type": "electric_scooter", "is_reserved": 0, "fusion_lon": 0.0, "lat": 38.90309, "rental_uris": {"ios": "https://dc.lft.to/lastmile_qr_scan", "android": "https://dc.lft.to/lastmile_qr_scan"}, "bike_id": "744e65090703df9088b2b6707e131efb", "fusion_lat": 0.0}, {"lon": -77.02023783333334, "name": "a2821916abd23d7f35159c1b835ca9ca", "is_disabled": 0, "type": "electric_scooter", "is_reserved": 0, "fusion_lon": 0.0, "lat": 38.901482333333334, "rental_uris": {"ios": "https://dc.lft.to/lastmile_qr_scan", "android": "https://dc.lft.to/lastmile_qr_scan"}, "bike_id": "a2821916abd23d7f35159c1b835ca9ca", "fusion_lat": 0.0}, {"lon": -77.09687683333334, "name": "ccbf730ecc4edda45e63239833836529", "is_disabled": 0, "type": "electric_bike", "is_reserved": 0, "fusion_lon": 0.0, "lat": 38.80740383333333, "rental_uris": {"ios": "https://dc.lft.to/lastmile_qr_scan", "android": "https://dc.lft.to/lastmile_qr_scan"}, "bike_id": "ccbf730ecc4edda45e63239833836529", "fusion_lat": 0.0}, {"lon": -76.99235966666667, "name": "c75496edba372fa15ff9111a47bb5934", "is_disabled": 0, "type": "electric_scooter", "is_reserved": 0, "fusion_lon": 0.0, "lat": 38.90203916666667, "rental_uris": {"ios": "https://dc.lft.to/lastmile_qr_scan", "android": "https://dc.lft.to/lastmile_qr_scan"}, "bike_id": "c75496edba372fa15ff9111a47bb5934", "fusion_lat": 0.0}, {"lon": -77.0214385, "name": "cba8cce26c11998a8eab37885e5933d2", "is_disabled": 0, "type": "electric_scooter", "is_reserved": 0, "fusion_lon": 0.0, "lat": 38.92115733333333, "rental_uris": {"ios": "https://dc.lft.to/lastmile_qr_scan", "android": "https://dc.lft.to/lastmile_qr_scan"}, "bike_id": "cba8cce26c11998a8eab37885e5933d2", "fusion_lat": 0.0}, {"lon": -77.02135383333334, "name": "067978ef704e691f94c0960ea6ba84ae", "is_disabled": 0, "type": "electric_scooter", "is_reserved": 0, "fusion_lon": 0.0, "lat": 38.92484233333333, "rental_uris": {"ios": "https://dc.lft.to/lastmile_qr_scan", "android": "https://dc.lft.to/lastmile_qr_scan"}, "bike_id": "067978ef704e691f94c0960ea6ba84ae", "fusion_lat": 0.0}, {"lon": -77.00870266666666, "name": "b51a545a3b4ffe1287f1093956b68088", "is_disabled": 0, "type": "electric_scooter", "is_reserved": 0, "fusion_lon": 0.0, "lat": 38.8974145, "rental_uris": {"ios": "https://dc.lft.to/lastmile_qr_scan", "android": "https://dc.lft.to/lastmile_qr_scan"}, "bike_id": "b51a545a3b4ffe1287f1093956b68088", "fusion_lat": 0.0}, {"lon": -77.0715745, "name": "ca763d24e8e28c64f9967882a5eb7318", "is_disabled": 0, "type": "electric_scooter", "is_reserved": 0, "fusion_lon": 0.0, "lat": 38.90868, "rental_uris": {"ios": "https://dc.lft.to/lastmile_qr_scan", "android": "https://dc.lft.to/lastmile_qr_scan"}, "bike_id": "ca763d24e8e28c64f9967882a5eb7318", "fusion_lat": 0.0}, {"lon": -76.94886033333333, "name": "a3928f793374446c2d09716cde8b5611", "is_disabled": 0, "type": "electric_scooter", "is_reserved": 0, "fusion_lon": 0.0, "lat": 38.89509733333333, "rental_uris": {"ios": "https://dc.lft.to/lastmile_qr_scan", "android": "https://dc.lft.to/lastmile_qr_scan"}, "bike_id": "a3928f793374446c2d09716cde8b5611", "fusion_lat": 0.0}, {"lon": -77.0114005, "name": "e831fcfd9cc9b79eb669d40510b6d2c4", "is_disabled": 0, "type": "electric_scooter", "is_reserved": 0, "fusion_lon": 0.0, "lat": 38.90724616666667, "rental_uris": {"ios": "https://dc.lft.to/lastmile_qr_scan", "android": "https://dc.lft.to/lastmile_qr_scan"}, "bike_id": "e831fcfd9cc9b79eb669d40510b6d2c4", "fusion_lat": 0.0}, {"lon": -77.01995733333334, "name": "6149155e197a0d859133e5ae5ceca494", "is_disabled": 0, "type": "electric_scooter", "is_reserved": 0, "fusion_lon": 0.0, "lat": 38.89975183333333, "rental_uris": {"ios": "https://dc.lft.to/lastmile_qr_scan", "android": "https://dc.lft.to/lastmile_qr_scan"}, "bike_id": "6149155e197a0d859133e5ae5ceca494", "fusion_lat": 0.0}, {"lon": -77.01936183333333, "name": "0b3e9704d89710285dc7febf87b2836e", "is_disabled": 0, "type": "electric_scooter", "is_reserved": 0, "fusion_lon": 0.0, "lat": 38.9225055, "rental_uris": {"ios": "https://dc.lft.to/lastmile_qr_scan", "android": "https://dc.lft.to/lastmile_qr_scan"}, "bike_id": "0b3e9704d89710285dc7febf87b2836e", "fusion_lat": 0.0}, {"lon": -77.02713366666667, "name": "8fc595c69069efe59d20963f78b48a88", "is_disabled": 0, "type": "electric_scooter", "is_reserved": 0, "fusion_lon": 0.0, "lat": 38.8976385, "rental_uris": {"ios": "https://dc.lft.to/lastmile_qr_scan", "android": "https://dc.lft.to/lastmile_qr_scan"}, "bike_id": "8fc595c69069efe59d20963f78b48a88", "fusion_lat": 0.0}, {"lon": -77.02222733333333, "name": "bef86bea20ecb187ac4b42d3d65631e8", "is_disabled": 0, "type": "electric_scooter", "is_reserved": 0, "fusion_lon": 0.0, "lat": 38.912669, "rental_uris": {"ios": "https://dc.lft.to/lastmile_qr_scan", "android": "https://dc.lft.to/lastmile_qr_scan"}, "bike_id": "bef86bea20ecb187ac4b42d3d65631e8", "fusion_lat": 0.0}, {"lon": -77.03450083333334, "name": "e7af10a393558d83d5a4b5a169879c81", "is_disabled": 0, "type": "electric_scooter", "is_reserved": 0, "fusion_lon": 0.0, "lat": 38.928581333333334, "rental_uris": {"ios": "https://dc.lft.to/lastmile_qr_scan", "android": "https://dc.lft.to/lastmile_qr_scan"}, "bike_id": "e7af10a393558d83d5a4b5a169879c81", "fusion_lat": 0.0}, {"lon": -77.03634283333334, "name": "1fae8179a86ce8466af6c579a0b802b2", "is_disabled": 0, "type": "electric_scooter", "is_reserved": 0, "fusion_lon": 0.0, "lat": 38.9294175, "rental_uris": {"ios": "https://dc.lft.to/lastmile_qr_scan", "android": "https://dc.lft.to/lastmile_qr_scan"}, "bike_id": "1fae8179a86ce8466af6c579a0b802b2", "fusion_lat": 0.0}, {"lon": -77.0418285, "name": "f5c9bdc98b57507225e8fe579a3c8d46", "is_disabled": 0, "type": "electric_scooter", "is_reserved": 0, "fusion_lon": 0.0, "lat": 38.901517, "rental_uris": {"ios": "https://dc.lft.to/lastmile_qr_scan", "android": "https://dc.lft.to/lastmile_qr_scan"}, "bike_id": "f5c9bdc98b57507225e8fe579a3c8d46", "fusion_lat": 0.0}, {"lon": -77.00540233333334, "name": "01dd8a0df91d3ac4c2e0556826737241", "is_disabled": 0, "type": "electric_scooter", "is_reserved": 0, "fusion_lon": 0.0, "lat": 38.87541, "rental_uris": {"ios": "https://dc.lft.to/lastmile_qr_scan", "android": "https://dc.lft.to/lastmile_qr_scan"}, "bike_id": "01dd8a0df91d3ac4c2e0556826737241", "fusion_lat": 0.0}, {"lon": -76.90754366666667, "name": "523ed135861daaa246c18e8f02fe37e1", "is_disabled": 0, "type": "electric_bike", "is_reserved": 0, "fusion_lon": 0.0, "lat": 38.896154833333334, "rental_uris": {"ios": "https://dc.lft.to/lastmile_qr_scan", "android": "https://dc.lft.to/lastmile_qr_scan"}, "bike_id": "523ed135861daaa246c18e8f02fe37e1", "fusion_lat": 0.0}, {"lon": -76.97140583333334, "name": "eece5401b3494bd09f738c4ebb565b00", "is_disabled": 0, "type": "electric_scooter", "is_reserved": 0, "fusion_lon": 0.0, "lat": 38.9135175, "rental_uris": {"ios": "https://dc.lft.to/lastmile_qr_scan", "android": "https://dc.lft.to/lastmile_qr_scan"}, "bike_id": "eece5401b3494bd09f738c4ebb565b00", "fusion_lat": 0.0}, {"lon": -77.02760433333333, "name": "ccd4874ebfea6394d125358947ca5516", "is_disabled": 0, "type": "electric_scooter", "is_reserved": 0, "fusion_lon": 0.0, "lat": 38.95414916666667, "rental_uris": {"ios": "https://dc.lft.to/lastmile_qr_scan", "android": "https://dc.lft.to/lastmile_qr_scan"}, "bike_id": "ccd4874ebfea6394d125358947ca5516", "fusion_lat": 0.0}, {"lon": -77.053229, "name": "f1b13696259e4828b7408a2210685197", "is_disabled": 0, "type": "electric_scooter", "is_reserved": 0, "fusion_lon": 0.0, "lat": 38.90155383333333, "rental_uris": {"ios": "https://dc.lft.to/lastmile_qr_scan", "android": "https://dc.lft.to/lastmile_qr_scan"}, "bike_id": "f1b13696259e4828b7408a2210685197", "fusion_lat": 0.0}, {"lon": -77.02315133333333, "name": "5a5e6815d20dfc6193f75584447f62c3", "is_disabled": 0, "type": "electric_scooter", "is_reserved": 0, "fusion_lon": 0.0, "lat": 38.9278585, "rental_uris": {"ios": "https://dc.lft.to/lastmile_qr_scan", "android": "https://dc.lft.to/lastmile_qr_scan"}, "bike_id": "5a5e6815d20dfc6193f75584447f62c3", "fusion_lat": 0.0}, {"lon": -77.03978016666667, "name": "0cb6d8830887467efed43097705bf781", "is_disabled": 0, "type": "electric_scooter", "is_reserved": 0, "fusion_lon": 0.0, "lat": 38.92022983333333, "rental_uris": {"ios": "https://dc.lft.to/lastmile_qr_scan", "android": "https://dc.lft.to/lastmile_qr_scan"}, "bike_id": "0cb6d8830887467efed43097705bf781", "fusion_lat": 0.0}, {"lon": -77.0295125, "name": "f9e0e0c3d813946afd5d176a062b12b3", "is_disabled": 0, "type": "electric_scooter", "is_reserved": 0, "fusion_lon": 0.0, "lat": 38.899412833333336, "rental_uris": {"ios": "https://dc.lft.to/lastmile_qr_scan", "android": "https://dc.lft.to/lastmile_qr_scan"}, "bike_id": "f9e0e0c3d813946afd5d176a062b12b3", "fusion_lat": 0.0}, {"lon": -76.93939483333334, "name": "da402f88482c0b4219b2bb849f6bd6dc", "is_disabled": 0, "type": "electric_scooter", "is_reserved": 0, "fusion_lon": 0.0, "lat": 38.90862816666667, "rental_uris": {"ios": "https://dc.lft.to/lastmile_qr_scan", "android": "https://dc.lft.to/lastmile_qr_scan"}, "bike_id": "da402f88482c0b4219b2bb849f6bd6dc", "fusion_lat": 0.0}, {"lon": -77.019065, "name": "3a706def20a9b0af0884859569fc317f", "is_disabled": 0, "type": "electric_scooter", "is_reserved": 0, "fusion_lon": 0.0, "lat": 38.91949066666667, "rental_uris": {"ios": "https://dc.lft.to/lastmile_qr_scan", "android": "https://dc.lft.to/lastmile_qr_scan"}, "bike_id": "3a706def20a9b0af0884859569fc317f", "fusion_lat": 0.0}, {"lon": -77.02306916666667, "name": "a126ab0d49b15350b73224b4fe1b35bf", "is_disabled": 0, "type": "electric_scooter", "is_reserved": 0, "fusion_lon": 0.0, "lat": 38.926485, "rental_uris": {"ios": "https://dc.lft.to/lastmile_qr_scan", "android": "https://dc.lft.to/lastmile_qr_scan"}, "bike_id": "a126ab0d49b15350b73224b4fe1b35bf", "fusion_lat": 0.0}, {"lon": -76.9815265, "name": "1d6cd7f405460e3e6e607a988d41df29", "is_disabled": 0, "type": "electric_scooter", "is_reserved": 0, "fusion_lon": 0.0, "lat": 38.925538, "rental_uris": {"ios": "https://dc.lft.to/lastmile_qr_scan", "android": "https://dc.lft.to/lastmile_qr_scan"}, "bike_id": "1d6cd7f405460e3e6e607a988d41df29", "fusion_lat": 0.0}, {"lon": -77.02415083333334, "name": "dc914c15175f2ddabf6938c612caf174", "is_disabled": 0, "type": "electric_scooter", "is_reserved": 0, "fusion_lon": 0.0, "lat": 38.8923025, "rental_uris": {"ios": "https://dc.lft.to/lastmile_qr_scan", "android": "https://dc.lft.to/lastmile_qr_scan"}, "bike_id": "dc914c15175f2ddabf6938c612caf174", "fusion_lat": 0.0}, {"lon": -77.006157, "name": "f9b3a48cc063f97cfeff6bc804ab6a04", "is_disabled": 0, "type": "electric_scooter", "is_reserved": 0, "fusion_lon": 0.0, "lat": 38.87469883333333, "rental_uris": {"ios": "https://dc.lft.to/lastmile_qr_scan", "android": "https://dc.lft.to/lastmile_qr_scan"}, "bike_id": "f9b3a48cc063f97cfeff6bc804ab6a04", "fusion_lat": 0.0}, {"lon": -76.99659016666666, "name": "e06cf16916f49b090883a39fc2a98459", "is_disabled": 0, "type": "electric_bike", "is_reserved": 0, "fusion_lon": 0.0, "lat": 38.967750833333334, "rental_uris": {"ios": "https://dc.lft.to/lastmile_qr_scan", "android": "https://dc.lft.to/lastmile_qr_scan"}, "bike_id": "e06cf16916f49b090883a39fc2a98459", "fusion_lat": 0.0}, {"lon": -76.98423516666666, "name": "56fef2606b3a8682ec7f7bf43226db4d", "is_disabled": 0, "type": "electric_scooter", "is_reserved": 0, "fusion_lon": 0.0, "lat": 38.8997205, "rental_uris": {"ios": "https://dc.lft.to/lastmile_qr_scan", "android": "https://dc.lft.to/lastmile_qr_scan"}, "bike_id": "56fef2606b3a8682ec7f7bf43226db4d", "fusion_lat": 0.0}, {"lon": -77.0091375, "name": "95ed5f2a6a17733125cc854c174db974", "is_disabled": 0, "type": "electric_scooter", "is_reserved": 0, "fusion_lon": 0.0, "lat": 38.897146666666664, "rental_uris": {"ios": "https://dc.lft.to/lastmile_qr_scan", "android": "https://dc.lft.to/lastmile_qr_scan"}, "bike_id": "95ed5f2a6a17733125cc854c174db974", "fusion_lat": 0.0}, {"lon": -77.0192075, "name": "b5df08578057c54dcfc35f9ad4b9b8ec", "is_disabled": 0, "type": "electric_scooter", "is_reserved": 0, "fusion_lon": 0.0, "lat": 38.89724016666667, "rental_uris": {"ios": "https://dc.lft.to/lastmile_qr_scan", "android": "https://dc.lft.to/lastmile_qr_scan"}, "bike_id": "b5df08578057c54dcfc35f9ad4b9b8ec", "fusion_lat": 0.0}, {"lon": -77.03000666666667, "name": "81fdf5f6ad192b2841b6262080a4a2e4", "is_disabled": 0, "type": "electric_scooter", "is_reserved": 0, "fusion_lon": 0.0, "lat": 38.895555333333334, "rental_uris": {"ios": "https://dc.lft.to/lastmile_qr_scan", "android": "https://dc.lft.to/lastmile_qr_scan"}, "bike_id": "81fdf5f6ad192b2841b6262080a4a2e4", "fusion_lat": 0.0}, {"lon": -77.01501433333334, "name": "3361c0adda1f730183a84fffcb5454ef", "is_disabled": 0, "type": "electric_scooter", "is_reserved": 0, "fusion_lon": 0.0, "lat": 38.896815833333335, "rental_uris": {"ios": "https://dc.lft.to/lastmile_qr_scan", "android": "https://dc.lft.to/lastmile_qr_scan"}, "bike_id": "3361c0adda1f730183a84fffcb5454ef", "fusion_lat": 0.0}, {"lon": -76.97681483333334, "name": "b879ff2fd8c16aec821a07ab4a190fe0", "is_disabled": 0, "type": "electric_scooter", "is_reserved": 0, "fusion_lon": 0.0, "lat": 38.89192933333333, "rental_uris": {"ios": "https://dc.lft.to/lastmile_qr_scan", "android": "https://dc.lft.to/lastmile_qr_scan"}, "bike_id": "b879ff2fd8c16aec821a07ab4a190fe0", "fusion_lat": 0.0}, {"lon": -76.93183083333334, "name": "a1d057acef0fe17a0465742cd5c5d034", "is_disabled": 0, "type": "electric_scooter", "is_reserved": 0, "fusion_lon": 0.0, "lat": 38.89871933333333, "rental_uris": {"ios": "https://dc.lft.to/lastmile_qr_scan", "android": "https://dc.lft.to/lastmile_qr_scan"}, "bike_id": "a1d057acef0fe17a0465742cd5c5d034", "fusion_lat": 0.0}, {"lon": -77.022912, "name": "2d2608608cb7efd6356b27f645b2e918", "is_disabled": 0, "type": "electric_scooter", "is_reserved": 0, "fusion_lon": 0.0, "lat": 38.91444333333333, "rental_uris": {"ios": "https://dc.lft.to/lastmile_qr_scan", "android": "https://dc.lft.to/lastmile_qr_scan"}, "bike_id": "2d2608608cb7efd6356b27f645b2e918", "fusion_lat": 0.0}, {"lon": -76.98029066666666, "name": "01860e15ecf4aa88b630c0a9977c81a8", "is_disabled": 0, "type": "electric_bike", "is_reserved": 0, "fusion_lon": 0.0, "lat": 38.8681245, "rental_uris": {"ios": "https://dc.lft.to/lastmile_qr_scan", "android": "https://dc.lft.to/lastmile_qr_scan"}, "bike_id": "01860e15ecf4aa88b630c0a9977c81a8", "fusion_lat": 0.0}, {"lon": -77.0480515, "name": "aac3700d550a20c65ad1210e203bf4dc", "is_disabled": 0, "type": "electric_scooter", "is_reserved": 0, "fusion_lon": 0.0, "lat": 38.9020415, "rental_uris": {"ios": "https://dc.lft.to/lastmile_qr_scan", "android": "https://dc.lft.to/lastmile_qr_scan"}, "bike_id": "aac3700d550a20c65ad1210e203bf4dc", "fusion_lat": 0.0}, {"lon": -77.00759433333333, "name": "bb39ea52dc2077ff5fc61f8c8d50cc8b", "is_disabled": 0, "type": "electric_scooter", "is_reserved": 0, "fusion_lon": 0.0, "lat": 38.8768595, "rental_uris": {"ios": "https://dc.lft.to/lastmile_qr_scan", "android": "https://dc.lft.to/lastmile_qr_scan"}, "bike_id": "bb39ea52dc2077ff5fc61f8c8d50cc8b", "fusion_lat": 0.0}, {"lon": -77.02007033333334, "name": "3a7d1a6aba547bbea511a043e55876d6", "is_disabled": 0, "type": "electric_scooter", "is_reserved": 0, "fusion_lon": 0.0, "lat": 38.8858985, "rental_uris": {"ios": "https://dc.lft.to/lastmile_qr_scan", "android": "https://dc.lft.to/lastmile_qr_scan"}, "bike_id": "3a7d1a6aba547bbea511a043e55876d6", "fusion_lat": 0.0}, {"lon": -76.99513316666666, "name": "4168ff058aa68a2ebfb33cc2b7f4ba1e", "is_disabled": 0, "type": "electric_scooter", "is_reserved": 0, "fusion_lon": 0.0, "lat": 38.881906666666666, "rental_uris": {"ios": "https://dc.lft.to/lastmile_qr_scan", "android": "https://dc.lft.to/lastmile_qr_scan"}, "bike_id": "4168ff058aa68a2ebfb33cc2b7f4ba1e", "fusion_lat": 0.0}, {"lon": -77.029494, "name": "6a72cba4a84c635b4ac8f3e313986fd7", "is_disabled": 0, "type": "electric_scooter", "is_reserved": 0, "fusion_lon": 0.0, "lat": 38.89876566666667, "rental_uris": {"ios": "https://dc.lft.to/lastmile_qr_scan", "android": "https://dc.lft.to/lastmile_qr_scan"}, "bike_id": "6a72cba4a84c635b4ac8f3e313986fd7", "fusion_lat": 0.0}, {"lon": -76.98037133333334, "name": "42cd35b0758a3aba1028786a46b15e3e", "is_disabled": 0, "type": "electric_scooter", "is_reserved": 0, "fusion_lon": 0.0, "lat": 38.889677, "rental_uris": {"ios": "https://dc.lft.to/lastmile_qr_scan", "android": "https://dc.lft.to/lastmile_qr_scan"}, "bike_id": "42cd35b0758a3aba1028786a46b15e3e", "fusion_lat": 0.0}, {"lon": -76.94465283333334, "name": "47a8c32b5ffb1cccd6f16500f753ee24", "is_disabled": 0, "type": "electric_scooter", "is_reserved": 0, "fusion_lon": 0.0, "lat": 38.8903, "rental_uris": {"ios": "https://dc.lft.to/lastmile_qr_scan", "android": "https://dc.lft.to/lastmile_qr_scan"}, "bike_id": "47a8c32b5ffb1cccd6f16500f753ee24", "fusion_lat": 0.0}, {"lon": -77.026168, "name": "09e71edcbc544922b0b4391471d67bac", "is_disabled": 0, "type": "electric_scooter", "is_reserved": 0, "fusion_lon": 0.0, "lat": 38.897341, "rental_uris": {"ios": "https://dc.lft.to/lastmile_qr_scan", "android": "https://dc.lft.to/lastmile_qr_scan"}, "bike_id": "09e71edcbc544922b0b4391471d67bac", "fusion_lat": 0.0}, {"lon": -77.0034065, "name": "1e7ea6d957a04432b47d5ab37e526275", "is_disabled": 0, "type": "electric_scooter", "is_reserved": 0, "fusion_lon": 0.0, "lat": 38.92263416666667, "rental_uris": {"ios": "https://dc.lft.to/lastmile_qr_scan", "android": "https://dc.lft.to/lastmile_qr_scan"}, "bike_id": "1e7ea6d957a04432b47d5ab37e526275", "fusion_lat": 0.0}, {"lon": -77.02534183333333, "name": "453150938642e50ac752f334c007f60c", "is_disabled": 0, "type": "electric_scooter", "is_reserved": 0, "fusion_lon": 0.0, "lat": 38.920722166666664, "rental_uris": {"ios": "https://dc.lft.to/lastmile_qr_scan", "android": "https://dc.lft.to/lastmile_qr_scan"}, "bike_id": "453150938642e50ac752f334c007f60c", "fusion_lat": 0.0}, {"lon": -77.0187425, "name": "b565f108806b80b5667443f9ac5c3388", "is_disabled": 0, "type": "electric_scooter", "is_reserved": 0, "fusion_lon": 0.0, "lat": 38.931970166666666, "rental_uris": {"ios": "https://dc.lft.to/lastmile_qr_scan", "android": "https://dc.lft.to/lastmile_qr_scan"}, "bike_id": "b565f108806b80b5667443f9ac5c3388", "fusion_lat": 0.0}, {"lon": -77.013786, "name": "f008e0dc32bf5967300de94f73dc1c14", "is_disabled": 0, "type": "electric_scooter", "is_reserved": 0, "fusion_lon": 0.0, "lat": 38.91035816666667, "rental_uris": {"ios": "https://dc.lft.to/lastmile_qr_scan", "android": "https://dc.lft.to/lastmile_qr_scan"}, "bike_id": "f008e0dc32bf5967300de94f73dc1c14", "fusion_lat": 0.0}, {"lon": -77.03589066666666, "name": "9af84f8843239a3dc3c0f591def3c053", "is_disabled": 0, "type": "electric_bike", "is_reserved": 0, "fusion_lon": 0.0, "lat": 38.99224566666667, "rental_uris": {"ios": "https://dc.lft.to/lastmile_qr_scan", "android": "https://dc.lft.to/lastmile_qr_scan"}, "bike_id": "9af84f8843239a3dc3c0f591def3c053", "fusion_lat": 0.0}, {"lon": -76.990195, "name": "3367826ef016f537602c10e28ea53d0f", "is_disabled": 0, "type": "electric_scooter", "is_reserved": 0, "fusion_lon": 0.0, "lat": 38.8651665, "rental_uris": {"ios": "https://dc.lft.to/lastmile_qr_scan", "android": "https://dc.lft.to/lastmile_qr_scan"}, "bike_id": "3367826ef016f537602c10e28ea53d0f", "fusion_lat": 0.0}, {"lon": -77.0038025, "name": "74248f1e46f3b40b6dd3cc947ee792ab", "is_disabled": 0, "type": "electric_bike", "is_reserved": 0, "fusion_lon": 0.0, "lat": 38.836057833333335, "rental_uris": {"ios": "https://dc.lft.to/lastmile_qr_scan", "android": "https://dc.lft.to/lastmile_qr_scan"}, "bike_id": "74248f1e46f3b40b6dd3cc947ee792ab", "fusion_lat": 0.0}, {"lon": -77.01847833333333, "name": "62e06acaaed311f45cc300a79cd5aeb9", "is_disabled": 0, "type": "electric_scooter", "is_reserved": 0, "fusion_lon": 0.0, "lat": 38.90265766666667, "rental_uris": {"ios": "https://dc.lft.to/lastmile_qr_scan", "android": "https://dc.lft.to/lastmile_qr_scan"}, "bike_id": "62e06acaaed311f45cc300a79cd5aeb9", "fusion_lat": 0.0}, {"lon": -77.02466483333333, "name": "61a7eb51fc76aa30e1fb9531ada2dd9c", "is_disabled": 0, "type": "electric_scooter", "is_reserved": 0, "fusion_lon": 0.0, "lat": 38.917122166666665, "rental_uris": {"ios": "https://dc.lft.to/lastmile_qr_scan", "android": "https://dc.lft.to/lastmile_qr_scan"}, "bike_id": "61a7eb51fc76aa30e1fb9531ada2dd9c", "fusion_lat": 0.0}, {"lon": -77.04726466666666, "name": "90d6b11aee06d9db5328c2f2ccd48742", "is_disabled": 0, "type": "electric_scooter", "is_reserved": 0, "fusion_lon": 0.0, "lat": 38.89966966666667, "rental_uris": {"ios": "https://dc.lft.to/lastmile_qr_scan", "android": "https://dc.lft.to/lastmile_qr_scan"}, "bike_id": "90d6b11aee06d9db5328c2f2ccd48742", "fusion_lat": 0.0}, {"lon": -77.02376483333333, "name": "ca954d897a14cf970c9b5c7ae352b0aa", "is_disabled": 0, "type": "electric_scooter", "is_reserved": 0, "fusion_lon": 0.0, "lat": 38.94731, "rental_uris": {"ios": "https://dc.lft.to/lastmile_qr_scan", "android": "https://dc.lft.to/lastmile_qr_scan"}, "bike_id": "ca954d897a14cf970c9b5c7ae352b0aa", "fusion_lat": 0.0}, {"lon": -77.038302, "name": "692d45536819f7cc77ca08ec70f77515", "is_disabled": 0, "type": "electric_scooter", "is_reserved": 0, "fusion_lon": 0.0, "lat": 38.91680133333333, "rental_uris": {"ios": "https://dc.lft.to/lastmile_qr_scan", "android": "https://dc.lft.to/lastmile_qr_scan"}, "bike_id": "692d45536819f7cc77ca08ec70f77515", "fusion_lat": 0.0}, {"lon": -77.02394983333333, "name": "8081e5d2b9b645ce7279f4f79f8a96ac", "is_disabled": 0, "type": "electric_scooter", "is_reserved": 0, "fusion_lon": 0.0, "lat": 38.9085065, "rental_uris": {"ios": "https://dc.lft.to/lastmile_qr_scan", "android": "https://dc.lft.to/lastmile_qr_scan"}, "bike_id": "8081e5d2b9b645ce7279f4f79f8a96ac", "fusion_lat": 0.0}, {"lon": -77.00898316666667, "name": "1a42324f251cda2bc4ffef0112f3705d", "is_disabled": 0, "type": "electric_scooter", "is_reserved": 0, "fusion_lon": 0.0, "lat": 38.909487666666664, "rental_uris": {"ios": "https://dc.lft.to/lastmile_qr_scan", "android": "https://dc.lft.to/lastmile_qr_scan"}, "bike_id": "1a42324f251cda2bc4ffef0112f3705d", "fusion_lat": 0.0}, {"lon": -76.99895083333334, "name": "bb20b57a7d663dde35d82e33f64c451a", "is_disabled": 0, "type": "electric_scooter", "is_reserved": 0, "fusion_lon": 0.0, "lat": 38.90899233333333, "rental_uris": {"ios": "https://dc.lft.to/lastmile_qr_scan", "android": "https://dc.lft.to/lastmile_qr_scan"}, "bike_id": "bb20b57a7d663dde35d82e33f64c451a", "fusion_lat": 0.0}, {"lon": -77.02753033333333, "name": "9f784020ccdd79cb25edccb18e6a9dfb", "is_disabled": 0, "type": "electric_scooter", "is_reserved": 0, "fusion_lon": 0.0, "lat": 38.96649216666667, "rental_uris": {"ios": "https://dc.lft.to/lastmile_qr_scan", "android": "https://dc.lft.to/lastmile_qr_scan"}, "bike_id": "9f784020ccdd79cb25edccb18e6a9dfb", "fusion_lat": 0.0}, {"lon": -77.04183433333333, "name": "8039153d4cd362098f99db1806d77e74", "is_disabled": 0, "type": "electric_scooter", "is_reserved": 0, "fusion_lon": 0.0, "lat": 38.90057133333333, "rental_uris": {"ios": "https://dc.lft.to/lastmile_qr_scan", "android": "https://dc.lft.to/lastmile_qr_scan"}, "bike_id": "8039153d4cd362098f99db1806d77e74", "fusion_lat": 0.0}, {"lon": -77.04734083333334, "name": "063e3dff4c75c05aaefa21c4f032b6b4", "is_disabled": 0, "type": "electric_scooter", "is_reserved": 0, "fusion_lon": 0.0, "lat": 38.90062566666667, "rental_uris": {"ios": "https://dc.lft.to/lastmile_qr_scan", "android": "https://dc.lft.to/lastmile_qr_scan"}, "bike_id": "063e3dff4c75c05aaefa21c4f032b6b4", "fusion_lat": 0.0}, {"lon": -77.028645, "name": "7f787a3ed6736cbdc06d52053dfcea3b", "is_disabled": 0, "type": "electric_scooter", "is_reserved": 0, "fusion_lon": 0.0, "lat": 38.88875216666667, "rental_uris": {"ios": "https://dc.lft.to/lastmile_qr_scan", "android": "https://dc.lft.to/lastmile_qr_scan"}, "bike_id": "7f787a3ed6736cbdc06d52053dfcea3b", "fusion_lat": 0.0}, {"lon": -77.03922983333334, "name": "86457d6ee8da80ec12996933d632852c", "is_disabled": 0, "type": "electric_scooter", "is_reserved": 0, "fusion_lon": 0.0, "lat": 38.899126333333335, "rental_uris": {"ios": "https://dc.lft.to/lastmile_qr_scan", "android": "https://dc.lft.to/lastmile_qr_scan"}, "bike_id": "86457d6ee8da80ec12996933d632852c", "fusion_lat": 0.0}, {"lon": -77.02969983333334, "name": "00c64f64e7c710e4024fa33dad58d4c6", "is_disabled": 0, "type": "electric_scooter", "is_reserved": 0, "fusion_lon": 0.0, "lat": 38.9168005, "rental_uris": {"ios": "https://dc.lft.to/lastmile_qr_scan", "android": "https://dc.lft.to/lastmile_qr_scan"}, "bike_id": "00c64f64e7c710e4024fa33dad58d4c6", "fusion_lat": 0.0}, {"lon": -77.06520633333334, "name": "d13f25773e93e216b5d758b0839b0dc7", "is_disabled": 0, "type": "electric_scooter", "is_reserved": 0, "fusion_lon": 0.0, "lat": 38.903898833333336, "rental_uris": {"ios": "https://dc.lft.to/lastmile_qr_scan", "android": "https://dc.lft.to/lastmile_qr_scan"}, "bike_id": "d13f25773e93e216b5d758b0839b0dc7", "fusion_lat": 0.0}, {"lon": -77.01859333333333, "name": "fbe696da46e4eb16c6b3f2c8fba16be5", "is_disabled": 0, "type": "electric_scooter", "is_reserved": 0, "fusion_lon": 0.0, "lat": 38.94185616666667, "rental_uris": {"ios": "https://dc.lft.to/lastmile_qr_scan", "android": "https://dc.lft.to/lastmile_qr_scan"}, "bike_id": "fbe696da46e4eb16c6b3f2c8fba16be5", "fusion_lat": 0.0}, {"lon": -77.0219815, "name": "99a9c96fa6e4f8b15d962697d3eaab07", "is_disabled": 0, "type": "electric_scooter", "is_reserved": 0, "fusion_lon": 0.0, "lat": 38.90691833333333, "rental_uris": {"ios": "https://dc.lft.to/lastmile_qr_scan", "android": "https://dc.lft.to/lastmile_qr_scan"}, "bike_id": "99a9c96fa6e4f8b15d962697d3eaab07", "fusion_lat": 0.0}, {"lon": -77.00872083333333, "name": "0b4cb2f8ed9c56b05c59991a3f01ff8a", "is_disabled": 0, "type": "electric_scooter", "is_reserved": 0, "fusion_lon": 0.0, "lat": 38.9071675, "rental_uris": {"ios": "https://dc.lft.to/lastmile_qr_scan", "android": "https://dc.lft.to/lastmile_qr_scan"}, "bike_id": "0b4cb2f8ed9c56b05c59991a3f01ff8a", "fusion_lat": 0.0}, {"lon": -77.033717, "name": "7d51bca5c7863f86a9a2527857a813cf", "is_disabled": 0, "type": "electric_scooter", "is_reserved": 0, "fusion_lon": 0.0, "lat": 38.937690833333335, "rental_uris": {"ios": "https://dc.lft.to/lastmile_qr_scan", "android": "https://dc.lft.to/lastmile_qr_scan"}, "bike_id": "7d51bca5c7863f86a9a2527857a813cf", "fusion_lat": 0.0}, {"lon": -77.02110616666667, "name": "e0e153d5e7a0a6508d4648b272d865b6", "is_disabled": 0, "type": "electric_scooter", "is_reserved": 0, "fusion_lon": 0.0, "lat": 38.90601316666667, "rental_uris": {"ios": "https://dc.lft.to/lastmile_qr_scan", "android": "https://dc.lft.to/lastmile_qr_scan"}, "bike_id": "e0e153d5e7a0a6508d4648b272d865b6", "fusion_lat": 0.0}, {"lon": -77.03189516666667, "name": "3db7df52777cc2dd61175cb044625315", "is_disabled": 0, "type": "electric_scooter", "is_reserved": 0, "fusion_lon": 0.0, "lat": 38.913395333333334, "rental_uris": {"ios": "https://dc.lft.to/lastmile_qr_scan", "android": "https://dc.lft.to/lastmile_qr_scan"}, "bike_id": "3db7df52777cc2dd61175cb044625315", "fusion_lat": 0.0}, {"lon": -77.03342333333333, "name": "39f641e7991271afa2912c4414fcaf96", "is_disabled": 0, "type": "electric_scooter", "is_reserved": 0, "fusion_lon": 0.0, "lat": 38.88479016666667, "rental_uris": {"ios": "https://dc.lft.to/lastmile_qr_scan", "android": "https://dc.lft.to/lastmile_qr_scan"}, "bike_id": "39f641e7991271afa2912c4414fcaf96", "fusion_lat": 0.0}, {"lon": -77.03408116666667, "name": "f5030771d272b341fd91f5bb25f8569e", "is_disabled": 0, "type": "electric_scooter", "is_reserved": 0, "fusion_lon": 0.0, "lat": 38.919214833333335, "rental_uris": {"ios": "https://dc.lft.to/lastmile_qr_scan", "android": "https://dc.lft.to/lastmile_qr_scan"}, "bike_id": "f5030771d272b341fd91f5bb25f8569e", "fusion_lat": 0.0}, {"lon": -77.00947083333334, "name": "4fa2d3b9a488593612e4ca02094fa9aa", "is_disabled": 0, "type": "electric_scooter", "is_reserved": 0, "fusion_lon": 0.0, "lat": 38.91559683333333, "rental_uris": {"ios": "https://dc.lft.to/lastmile_qr_scan", "android": "https://dc.lft.to/lastmile_qr_scan"}, "bike_id": "4fa2d3b9a488593612e4ca02094fa9aa", "fusion_lat": 0.0}, {"lon": -77.031696, "name": "acfec19b10d46601f6853e425f6dacff", "is_disabled": 0, "type": "electric_scooter", "is_reserved": 0, "fusion_lon": 0.0, "lat": 38.91402816666667, "rental_uris": {"ios": "https://dc.lft.to/lastmile_qr_scan", "android": "https://dc.lft.to/lastmile_qr_scan"}, "bike_id": "acfec19b10d46601f6853e425f6dacff", "fusion_lat": 0.0}, {"lon": -77.002238, "name": "2f49b9fd0fd2c44cfb861def8bb3c00e", "is_disabled": 0, "type": "electric_scooter", "is_reserved": 0, "fusion_lon": 0.0, "lat": 38.901844, "rental_uris": {"ios": "https://dc.lft.to/lastmile_qr_scan", "android": "https://dc.lft.to/lastmile_qr_scan"}, "bike_id": "2f49b9fd0fd2c44cfb861def8bb3c00e", "fusion_lat": 0.0}, {"lon": -77.05236133333334, "name": "c33f09c482cb7a8e175de5a2c12da6df", "is_disabled": 0, "type": "electric_scooter", "is_reserved": 0, "fusion_lon": 0.0, "lat": 38.92473483333333, "rental_uris": {"ios": "https://dc.lft.to/lastmile_qr_scan", "android": "https://dc.lft.to/lastmile_qr_scan"}, "bike_id": "c33f09c482cb7a8e175de5a2c12da6df", "fusion_lat": 0.0}, {"lon": -77.00217416666666, "name": "f7aef61f48c02008fc50673f59040b45", "is_disabled": 0, "type": "electric_scooter", "is_reserved": 0, "fusion_lon": 0.0, "lat": 38.924527499999996, "rental_uris": {"ios": "https://dc.lft.to/lastmile_qr_scan", "android": "https://dc.lft.to/lastmile_qr_scan"}, "bike_id": "f7aef61f48c02008fc50673f59040b45", "fusion_lat": 0.0}, {"lon": -77.01043166666666, "name": "58ced446f55fc8bf426456271e60a1a1", "is_disabled": 0, "type": "electric_scooter", "is_reserved": 0, "fusion_lon": 0.0, "lat": 38.89472416666667, "rental_uris": {"ios": "https://dc.lft.to/lastmile_qr_scan", "android": "https://dc.lft.to/lastmile_qr_scan"}, "bike_id": "58ced446f55fc8bf426456271e60a1a1", "fusion_lat": 0.0}, {"lon": -76.94728616666667, "name": "283c59794cf88174f21beceb39d0b559", "is_disabled": 0, "type": "electric_bike", "is_reserved": 0, "fusion_lon": 0.0, "lat": 38.98387966666667, "rental_uris": {"ios": "https://dc.lft.to/lastmile_qr_scan", "android": "https://dc.lft.to/lastmile_qr_scan"}, "bike_id": "283c59794cf88174f21beceb39d0b559", "fusion_lat": 0.0}, {"lon": -77.01252733333334, "name": "fecb8adc4de4a159987159ae32f6415d", "is_disabled": 0, "type": "electric_scooter", "is_reserved": 0, "fusion_lon": 0.0, "lat": 38.91575, "rental_uris": {"ios": "https://dc.lft.to/lastmile_qr_scan", "android": "https://dc.lft.to/lastmile_qr_scan"}, "bike_id": "fecb8adc4de4a159987159ae32f6415d", "fusion_lat": 0.0}, {"lon": -77.0074775, "name": "983bdf82e6ea105e3ab3420d1a5a6adc", "is_disabled": 0, "type": "electric_scooter", "is_reserved": 0, "fusion_lon": 0.0, "lat": 38.909493499999996, "rental_uris": {"ios": "https://dc.lft.to/lastmile_qr_scan", "android": "https://dc.lft.to/lastmile_qr_scan"}, "bike_id": "983bdf82e6ea105e3ab3420d1a5a6adc", "fusion_lat": 0.0}, {"lon": -77.0013295, "name": "92aeab462e79273abd0a811ee464d350", "is_disabled": 0, "type": "electric_scooter", "is_reserved": 0, "fusion_lon": 0.0, "lat": 38.87372583333333, "rental_uris": {"ios": "https://dc.lft.to/lastmile_qr_scan", "android": "https://dc.lft.to/lastmile_qr_scan"}, "bike_id": "92aeab462e79273abd0a811ee464d350", "fusion_lat": 0.0}, {"lon": -77.002179, "name": "3428ee85baeb9821f30f80c8333862bd", "is_disabled": 0, "type": "electric_scooter", "is_reserved": 0, "fusion_lon": 0.0, "lat": 38.90513766666667, "rental_uris": {"ios": "https://dc.lft.to/lastmile_qr_scan", "android": "https://dc.lft.to/lastmile_qr_scan"}, "bike_id": "3428ee85baeb9821f30f80c8333862bd", "fusion_lat": 0.0}, {"lon": -77.04479433333333, "name": "f6a0b00b89b5f02663fe2d3b8a5d87f9", "is_disabled": 0, "type": "electric_scooter", "is_reserved": 0, "fusion_lon": 0.0, "lat": 38.909651833333335, "rental_uris": {"ios": "https://dc.lft.to/lastmile_qr_scan", "android": "https://dc.lft.to/lastmile_qr_scan"}, "bike_id": "f6a0b00b89b5f02663fe2d3b8a5d87f9", "fusion_lat": 0.0}, {"lon": -77.04684116666667, "name": "41b9aa7f961c21de89446845115168eb", "is_disabled": 0, "type": "electric_scooter", "is_reserved": 0, "fusion_lon": 0.0, "lat": 38.89223716666667, "rental_uris": {"ios": "https://dc.lft.to/lastmile_qr_scan", "android": "https://dc.lft.to/lastmile_qr_scan"}, "bike_id": "41b9aa7f961c21de89446845115168eb", "fusion_lat": 0.0}, {"lon": -77.02342483333334, "name": "64e1235b87bfd1f753e312c8717588a7", "is_disabled": 0, "type": "electric_scooter", "is_reserved": 0, "fusion_lon": 0.0, "lat": 38.92968166666667, "rental_uris": {"ios": "https://dc.lft.to/lastmile_qr_scan", "android": "https://dc.lft.to/lastmile_qr_scan"}, "bike_id": "64e1235b87bfd1f753e312c8717588a7", "fusion_lat": 0.0}, {"lon": -77.02795783333333, "name": "45c14b770286c323fb92f109fa52b0b2", "is_disabled": 0, "type": "electric_scooter", "is_reserved": 0, "fusion_lon": 0.0, "lat": 38.931864833333336, "rental_uris": {"ios": "https://dc.lft.to/lastmile_qr_scan", "android": "https://dc.lft.to/lastmile_qr_scan"}, "bike_id": "45c14b770286c323fb92f109fa52b0b2", "fusion_lat": 0.0}, {"lon": -77.02299116666667, "name": "ec552b2035e9453eedc8b8b92468e89a", "is_disabled": 0, "type": "electric_scooter", "is_reserved": 0, "fusion_lon": 0.0, "lat": 38.9320745, "rental_uris": {"ios": "https://dc.lft.to/lastmile_qr_scan", "android": "https://dc.lft.to/lastmile_qr_scan"}, "bike_id": "ec552b2035e9453eedc8b8b92468e89a", "fusion_lat": 0.0}, {"lon": -77.02193933333334, "name": "5d636ca01c8a08e78a19b48a10c8245a", "is_disabled": 0, "type": "electric_scooter", "is_reserved": 0, "fusion_lon": 0.0, "lat": 38.924649, "rental_uris": {"ios": "https://dc.lft.to/lastmile_qr_scan", "android": "https://dc.lft.to/lastmile_qr_scan"}, "bike_id": "5d636ca01c8a08e78a19b48a10c8245a", "fusion_lat": 0.0}, {"lon": -76.9857155, "name": "269699824167eabe5c82fccbe0f7c44a", "is_disabled": 0, "type": "electric_scooter", "is_reserved": 0, "fusion_lon": 0.0, "lat": 38.9126445, "rental_uris": {"ios": "https://dc.lft.to/lastmile_qr_scan", "android": "https://dc.lft.to/lastmile_qr_scan"}, "bike_id": "269699824167eabe5c82fccbe0f7c44a", "fusion_lat": 0.0}, {"lon": -77.0324845, "name": "43b569a9f02707a7ba66af81980b112d", "is_disabled": 0, "type": "electric_scooter", "is_reserved": 0, "fusion_lon": 0.0, "lat": 38.914098, "rental_uris": {"ios": "https://dc.lft.to/lastmile_qr_scan", "android": "https://dc.lft.to/lastmile_qr_scan"}, "bike_id": "43b569a9f02707a7ba66af81980b112d", "fusion_lat": 0.0}, {"lon": -76.985577, "name": "40074188d03806878fc17714c4c01ed0", "is_disabled": 0, "type": "electric_scooter", "is_reserved": 0, "fusion_lon": 0.0, "lat": 38.897680333333334, "rental_uris": {"ios": "https://dc.lft.to/lastmile_qr_scan", "android": "https://dc.lft.to/lastmile_qr_scan"}, "bike_id": "40074188d03806878fc17714c4c01ed0", "fusion_lat": 0.0}, {"lon": -76.99912016666667, "name": "e6f9f582b2eea47840f8e250e9eb95b7", "is_disabled": 0, "type": "electric_scooter", "is_reserved": 0, "fusion_lon": 0.0, "lat": 38.89607133333333, "rental_uris": {"ios": "https://dc.lft.to/lastmile_qr_scan", "android": "https://dc.lft.to/lastmile_qr_scan"}, "bike_id": "e6f9f582b2eea47840f8e250e9eb95b7", "fusion_lat": 0.0}, {"lon": -77.03311866666667, "name": "cf1052cb097070e194f70dd939cbb84c", "is_disabled": 0, "type": "electric_scooter", "is_reserved": 0, "fusion_lon": 0.0, "lat": 38.900215, "rental_uris": {"ios": "https://dc.lft.to/lastmile_qr_scan", "android": "https://dc.lft.to/lastmile_qr_scan"}, "bike_id": "cf1052cb097070e194f70dd939cbb84c", "fusion_lat": 0.0}, {"lon": -77.084102, "name": "6e543fbb6dfee9ac40474126c8671ced", "is_disabled": 0, "type": "electric_bike", "is_reserved": 0, "fusion_lon": 0.0, "lat": 38.83293283333333, "rental_uris": {"ios": "https://dc.lft.to/lastmile_qr_scan", "android": "https://dc.lft.to/lastmile_qr_scan"}, "bike_id": "6e543fbb6dfee9ac40474126c8671ced", "fusion_lat": 0.0}, {"lon": -76.96824066666667, "name": "e00ecaad1a97cdc72d3e30a8aa22a382", "is_disabled": 0, "type": "electric_bike", "is_reserved": 0, "fusion_lon": 0.0, "lat": 38.9552875, "rental_uris": {"ios": "https://dc.lft.to/lastmile_qr_scan", "android": "https://dc.lft.to/lastmile_qr_scan"}, "bike_id": "e00ecaad1a97cdc72d3e30a8aa22a382", "fusion_lat": 0.0}, {"lon": -77.05239633333333, "name": "74c3be86f1159cee103600c928909c1e", "is_disabled": 0, "type": "electric_scooter", "is_reserved": 0, "fusion_lon": 0.0, "lat": 38.9246785, "rental_uris": {"ios": "https://dc.lft.to/lastmile_qr_scan", "android": "https://dc.lft.to/lastmile_qr_scan"}, "bike_id": "74c3be86f1159cee103600c928909c1e", "fusion_lat": 0.0}, {"lon": -77.02772083333333, "name": "b7f91ff9d9bde7a8dba82e22d04f7a71", "is_disabled": 0, "type": "electric_scooter", "is_reserved": 0, "fusion_lon": 0.0, "lat": 38.95297566666667, "rental_uris": {"ios": "https://dc.lft.to/lastmile_qr_scan", "android": "https://dc.lft.to/lastmile_qr_scan"}, "bike_id": "b7f91ff9d9bde7a8dba82e22d04f7a71", "fusion_lat": 0.0}, {"lon": -77.0701075, "name": "cb61a5330793bcb7ae3642127b8d9ffa", "is_disabled": 0, "type": "electric_scooter", "is_reserved": 0, "fusion_lon": 0.0, "lat": 38.90597866666667, "rental_uris": {"ios": "https://dc.lft.to/lastmile_qr_scan", "android": "https://dc.lft.to/lastmile_qr_scan"}, "bike_id": "cb61a5330793bcb7ae3642127b8d9ffa", "fusion_lat": 0.0}, {"lon": -76.937726, "name": "c9f577dbc6d362b9425117d885bb9cf2", "is_disabled": 0, "type": "electric_scooter", "is_reserved": 0, "fusion_lon": 0.0, "lat": 38.8996605, "rental_uris": {"ios": "https://dc.lft.to/lastmile_qr_scan", "android": "https://dc.lft.to/lastmile_qr_scan"}, "bike_id": "c9f577dbc6d362b9425117d885bb9cf2", "fusion_lat": 0.0}, {"lon": -77.029817, "name": "86f4aac246c06e8784171683edfdf97e", "is_disabled": 0, "type": "electric_scooter", "is_reserved": 0, "fusion_lon": 0.0, "lat": 38.93227433333333, "rental_uris": {"ios": "https://dc.lft.to/lastmile_qr_scan", "android": "https://dc.lft.to/lastmile_qr_scan"}, "bike_id": "86f4aac246c06e8784171683edfdf97e", "fusion_lat": 0.0}, {"lon": -77.03196983333333, "name": "1a5ff4efd06c760ff6938ca727e2aa0e", "is_disabled": 0, "type": "electric_scooter", "is_reserved": 0, "fusion_lon": 0.0, "lat": 38.9119385, "rental_uris": {"ios": "https://dc.lft.to/lastmile_qr_scan", "android": "https://dc.lft.to/lastmile_qr_scan"}, "bike_id": "1a5ff4efd06c760ff6938ca727e2aa0e", "fusion_lat": 0.0}, {"lon": -76.95770583333334, "name": "f21a3fa31dec79686f481319f28531a1", "is_disabled": 0, "type": "electric_scooter", "is_reserved": 0, "fusion_lon": 0.0, "lat": 38.88358683333333, "rental_uris": {"ios": "https://dc.lft.to/lastmile_qr_scan", "android": "https://dc.lft.to/lastmile_qr_scan"}, "bike_id": "f21a3fa31dec79686f481319f28531a1", "fusion_lat": 0.0}, {"lon": -77.02460916666666, "name": "801d9dc66885c04a588b72ba63056e59", "is_disabled": 0, "type": "electric_scooter", "is_reserved": 0, "fusion_lon": 0.0, "lat": 38.8971895, "rental_uris": {"ios": "https://dc.lft.to/lastmile_qr_scan", "android": "https://dc.lft.to/lastmile_qr_scan"}, "bike_id": "801d9dc66885c04a588b72ba63056e59", "fusion_lat": 0.0}, {"lon": -77.02135933333334, "name": "34992166a5bce6f167412f9700eafb68", "is_disabled": 0, "type": "electric_scooter", "is_reserved": 0, "fusion_lon": 0.0, "lat": 38.924104, "rental_uris": {"ios": "https://dc.lft.to/lastmile_qr_scan", "android": "https://dc.lft.to/lastmile_qr_scan"}, "bike_id": "34992166a5bce6f167412f9700eafb68", "fusion_lat": 0.0}, {"lon": -77.00597133333333, "name": "f1b2069f9071c21e68c67f8272411b4e", "is_disabled": 0, "type": "electric_scooter", "is_reserved": 0, "fusion_lon": 0.0, "lat": 38.876491, "rental_uris": {"ios": "https://dc.lft.to/lastmile_qr_scan", "android": "https://dc.lft.to/lastmile_qr_scan"}, "bike_id": "f1b2069f9071c21e68c67f8272411b4e", "fusion_lat": 0.0}, {"lon": -77.02059016666666, "name": "5fbb103dc550e18141f9cfa74dcaeefb", "is_disabled": 0, "type": "electric_scooter", "is_reserved": 0, "fusion_lon": 0.0, "lat": 38.92358083333333, "rental_uris": {"ios": "https://dc.lft.to/lastmile_qr_scan", "android": "https://dc.lft.to/lastmile_qr_scan"}, "bike_id": "5fbb103dc550e18141f9cfa74dcaeefb", "fusion_lat": 0.0}, {"lon": -77.02504666666667, "name": "2f5a7f61758b635c66c865cf7205e39b", "is_disabled": 0, "type": "electric_scooter", "is_reserved": 0, "fusion_lon": 0.0, "lat": 38.88025916666667, "rental_uris": {"ios": "https://dc.lft.to/lastmile_qr_scan", "android": "https://dc.lft.to/lastmile_qr_scan"}, "bike_id": "2f5a7f61758b635c66c865cf7205e39b", "fusion_lat": 0.0}, {"lon": -77.03664466666666, "name": "3e3847e9a31ac347a87d1d3eb980f9aa", "is_disabled": 0, "type": "electric_scooter", "is_reserved": 0, "fusion_lon": 0.0, "lat": 38.922375, "rental_uris": {"ios": "https://dc.lft.to/lastmile_qr_scan", "android": "https://dc.lft.to/lastmile_qr_scan"}, "bike_id": "3e3847e9a31ac347a87d1d3eb980f9aa", "fusion_lat": 0.0}, {"lon": -77.03205616666666, "name": "6ae65d584ce02ecb4d892481343fbabf", "is_disabled": 0, "type": "electric_scooter", "is_reserved": 0, "fusion_lon": 0.0, "lat": 38.916414833333334, "rental_uris": {"ios": "https://dc.lft.to/lastmile_qr_scan", "android": "https://dc.lft.to/lastmile_qr_scan"}, "bike_id": "6ae65d584ce02ecb4d892481343fbabf", "fusion_lat": 0.0}, {"lon": -76.9967575, "name": "76b67e8c82673730c0cc21750fef0ddb", "is_disabled": 0, "type": "electric_scooter", "is_reserved": 0, "fusion_lon": 0.0, "lat": 38.92193983333333, "rental_uris": {"ios": "https://dc.lft.to/lastmile_qr_scan", "android": "https://dc.lft.to/lastmile_qr_scan"}, "bike_id": "76b67e8c82673730c0cc21750fef0ddb", "fusion_lat": 0.0}, {"lon": -77.00909516666667, "name": "67612c7389770a5176f390c2f4541ff8", "is_disabled": 0, "type": "electric_scooter", "is_reserved": 0, "fusion_lon": 0.0, "lat": 38.90985716666667, "rental_uris": {"ios": "https://dc.lft.to/lastmile_qr_scan", "android": "https://dc.lft.to/lastmile_qr_scan"}, "bike_id": "67612c7389770a5176f390c2f4541ff8", "fusion_lat": 0.0}, {"lon": -77.02392516666667, "name": "d6f6e6fa632f742591b72445456a278d", "is_disabled": 0, "type": "electric_scooter", "is_reserved": 0, "fusion_lon": 0.0, "lat": 38.9269515, "rental_uris": {"ios": "https://dc.lft.to/lastmile_qr_scan", "android": "https://dc.lft.to/lastmile_qr_scan"}, "bike_id": "d6f6e6fa632f742591b72445456a278d", "fusion_lat": 0.0}, {"lon": -77.08167966666667, "name": "fddaa985024a6786ad545c78f2224b31", "is_disabled": 0, "type": "electric_bike", "is_reserved": 0, "fusion_lon": 0.0, "lat": 38.907817333333334, "rental_uris": {"ios": "https://dc.lft.to/lastmile_qr_scan", "android": "https://dc.lft.to/lastmile_qr_scan"}, "bike_id": "fddaa985024a6786ad545c78f2224b31", "fusion_lat": 0.0}, {"lon": -77.02786983333333, "name": "d9c6a6c40f462739dcc305b0723a8b47", "is_disabled": 0, "type": "electric_scooter", "is_reserved": 0, "fusion_lon": 0.0, "lat": 38.89884716666667, "rental_uris": {"ios": "https://dc.lft.to/lastmile_qr_scan", "android": "https://dc.lft.to/lastmile_qr_scan"}, "bike_id": "d9c6a6c40f462739dcc305b0723a8b47", "fusion_lat": 0.0}, {"lon": -77.01203516666666, "name": "3ee436de7db3b38b3ba770c8be02978b", "is_disabled": 0, "type": "electric_scooter", "is_reserved": 0, "fusion_lon": 0.0, "lat": 38.89790216666667, "rental_uris": {"ios": "https://dc.lft.to/lastmile_qr_scan", "android": "https://dc.lft.to/lastmile_qr_scan"}, "bike_id": "3ee436de7db3b38b3ba770c8be02978b", "fusion_lat": 0.0}, {"lon": -77.00803233333333, "name": "c1abbf9d2eaa4b349fdc77d49611a140", "is_disabled": 0, "type": "electric_scooter", "is_reserved": 0, "fusion_lon": 0.0, "lat": 38.89719066666667, "rental_uris": {"ios": "https://dc.lft.to/lastmile_qr_scan", "android": "https://dc.lft.to/lastmile_qr_scan"}, "bike_id": "c1abbf9d2eaa4b349fdc77d49611a140", "fusion_lat": 0.0}, {"lon": -77.000552, "name": "fe1e974894f9f0f65bff2a089017ac55", "is_disabled": 0, "type": "electric_scooter", "is_reserved": 0, "fusion_lon": 0.0, "lat": 38.87535966666667, "rental_uris": {"ios": "https://dc.lft.to/lastmile_qr_scan", "android": "https://dc.lft.to/lastmile_qr_scan"}, "bike_id": "fe1e974894f9f0f65bff2a089017ac55", "fusion_lat": 0.0}, {"lon": -77.0412565, "name": "0bf9043aecaf3d6b242679344faec107", "is_disabled": 0, "type": "electric_scooter", "is_reserved": 0, "fusion_lon": 0.0, "lat": 38.92117433333333, "rental_uris": {"ios": "https://dc.lft.to/lastmile_qr_scan", "android": "https://dc.lft.to/lastmile_qr_scan"}, "bike_id": "0bf9043aecaf3d6b242679344faec107", "fusion_lat": 0.0}, {"lon": -77.02196166666667, "name": "294353f4a4017e68b51bd8a726a8c66c", "is_disabled": 0, "type": "electric_scooter", "is_reserved": 0, "fusion_lon": 0.0, "lat": 38.9147905, "rental_uris": {"ios": "https://dc.lft.to/lastmile_qr_scan", "android": "https://dc.lft.to/lastmile_qr_scan"}, "bike_id": "294353f4a4017e68b51bd8a726a8c66c", "fusion_lat": 0.0}, {"lon": -77.0191725, "name": "9a169784814fcab56646a5a8dbf0d772", "is_disabled": 0, "type": "electric_scooter", "is_reserved": 0, "fusion_lon": 0.0, "lat": 38.92938783333334, "rental_uris": {"ios": "https://dc.lft.to/lastmile_qr_scan", "android": "https://dc.lft.to/lastmile_qr_scan"}, "bike_id": "9a169784814fcab56646a5a8dbf0d772", "fusion_lat": 0.0}, {"lon": -77.0469295, "name": "9302a0b7ded59e2d954f372c2b0570ee", "is_disabled": 0, "type": "electric_scooter", "is_reserved": 0, "fusion_lon": 0.0, "lat": 38.92163933333333, "rental_uris": {"ios": "https://dc.lft.to/lastmile_qr_scan", "android": "https://dc.lft.to/lastmile_qr_scan"}, "bike_id": "9302a0b7ded59e2d954f372c2b0570ee", "fusion_lat": 0.0}, {"lon": -77.02194383333334, "name": "2bb224ab2b4c1c72cdb6b19e70a74313", "is_disabled": 0, "type": "electric_scooter", "is_reserved": 0, "fusion_lon": 0.0, "lat": 38.9165885, "rental_uris": {"ios": "https://dc.lft.to/lastmile_qr_scan", "android": "https://dc.lft.to/lastmile_qr_scan"}, "bike_id": "2bb224ab2b4c1c72cdb6b19e70a74313", "fusion_lat": 0.0}, {"lon": -77.05424966666666, "name": "2d80b746aba501ef5ab26e641933a78c", "is_disabled": 0, "type": "electric_scooter", "is_reserved": 0, "fusion_lon": 0.0, "lat": 38.9235515, "rental_uris": {"ios": "https://dc.lft.to/lastmile_qr_scan", "android": "https://dc.lft.to/lastmile_qr_scan"}, "bike_id": "2d80b746aba501ef5ab26e641933a78c", "fusion_lat": 0.0}, {"lon": -77.0220975, "name": "bbea0110f1e2652e9b35dd2225897094", "is_disabled": 0, "type": "electric_scooter", "is_reserved": 0, "fusion_lon": 0.0, "lat": 38.93000266666667, "rental_uris": {"ios": "https://dc.lft.to/lastmile_qr_scan", "android": "https://dc.lft.to/lastmile_qr_scan"}, "bike_id": "bbea0110f1e2652e9b35dd2225897094", "fusion_lat": 0.0}, {"lon": -77.03355033333334, "name": "fc82f0aadea9e174774473d9c0f3b0b0", "is_disabled": 0, "type": "electric_scooter", "is_reserved": 0, "fusion_lon": 0.0, "lat": 38.90324533333333, "rental_uris": {"ios": "https://dc.lft.to/lastmile_qr_scan", "android": "https://dc.lft.to/lastmile_qr_scan"}, "bike_id": "fc82f0aadea9e174774473d9c0f3b0b0", "fusion_lat": 0.0}, {"lon": -77.05235633333334, "name": "b5bed642ce75d8572d0d14b2ef121416", "is_disabled": 0, "type": "electric_scooter", "is_reserved": 0, "fusion_lon": 0.0, "lat": 38.92466433333333, "rental_uris": {"ios": "https://dc.lft.to/lastmile_qr_scan", "android": "https://dc.lft.to/lastmile_qr_scan"}, "bike_id": "b5bed642ce75d8572d0d14b2ef121416", "fusion_lat": 0.0}, {"lon": -77.01858633333333, "name": "6486308ba110d6f8d938104016f145bd", "is_disabled": 0, "type": "electric_scooter", "is_reserved": 0, "fusion_lon": 0.0, "lat": 38.900977166666664, "rental_uris": {"ios": "https://dc.lft.to/lastmile_qr_scan", "android": "https://dc.lft.to/lastmile_qr_scan"}, "bike_id": "6486308ba110d6f8d938104016f145bd", "fusion_lat": 0.0}, {"lon": -76.99806816666667, "name": "00ecf61caa9cbe2061db6f9b37294646", "is_disabled": 0, "type": "electric_scooter", "is_reserved": 0, "fusion_lon": 0.0, "lat": 38.896051, "rental_uris": {"ios": "https://dc.lft.to/lastmile_qr_scan", "android": "https://dc.lft.to/lastmile_qr_scan"}, "bike_id": "00ecf61caa9cbe2061db6f9b37294646", "fusion_lat": 0.0}, {"lon": -77.00354433333334, "name": "f0ded40c09581953ef11bcceb1074741", "is_disabled": 0, "type": "electric_scooter", "is_reserved": 0, "fusion_lon": 0.0, "lat": 38.89085166666667, "rental_uris": {"ios": "https://dc.lft.to/lastmile_qr_scan", "android": "https://dc.lft.to/lastmile_qr_scan"}, "bike_id": "f0ded40c09581953ef11bcceb1074741", "fusion_lat": 0.0}, {"lon": -76.98571633333333, "name": "ba839c0a07d0b62da3eac68243b44f96", "is_disabled": 0, "type": "electric_scooter", "is_reserved": 0, "fusion_lon": 0.0, "lat": 38.896166666666666, "rental_uris": {"ios": "https://dc.lft.to/lastmile_qr_scan", "android": "https://dc.lft.to/lastmile_qr_scan"}, "bike_id": "ba839c0a07d0b62da3eac68243b44f96", "fusion_lat": 0.0}, {"lon": -77.02714033333334, "name": "f489bf484ae8467fd368bc8c3c0c0cac", "is_disabled": 0, "type": "electric_scooter", "is_reserved": 0, "fusion_lon": 0.0, "lat": 38.92768266666667, "rental_uris": {"ios": "https://dc.lft.to/lastmile_qr_scan", "android": "https://dc.lft.to/lastmile_qr_scan"}, "bike_id": "f489bf484ae8467fd368bc8c3c0c0cac", "fusion_lat": 0.0}, {"lon": -76.92957, "name": "ef8d6d46ac550ee4257c884046c85656", "is_disabled": 0, "type": "electric_scooter", "is_reserved": 0, "fusion_lon": 0.0, "lat": 38.884501, "rental_uris": {"ios": "https://dc.lft.to/lastmile_qr_scan", "android": "https://dc.lft.to/lastmile_qr_scan"}, "bike_id": "ef8d6d46ac550ee4257c884046c85656", "fusion_lat": 0.0}, {"lon": -77.00586216666666, "name": "cf91637f92a1d27094fa9c8cbe3638fd", "is_disabled": 0, "type": "electric_scooter", "is_reserved": 0, "fusion_lon": 0.0, "lat": 38.8717165, "rental_uris": {"ios": "https://dc.lft.to/lastmile_qr_scan", "android": "https://dc.lft.to/lastmile_qr_scan"}, "bike_id": "cf91637f92a1d27094fa9c8cbe3638fd", "fusion_lat": 0.0}, {"lon": -77.04089233333333, "name": "ece70bd11f5998485c854910bf01b9a2", "is_disabled": 0, "type": "electric_scooter", "is_reserved": 0, "fusion_lon": 0.0, "lat": 38.90519916666667, "rental_uris": {"ios": "https://dc.lft.to/lastmile_qr_scan", "android": "https://dc.lft.to/lastmile_qr_scan"}, "bike_id": "ece70bd11f5998485c854910bf01b9a2", "fusion_lat": 0.0}, {"lon": -77.0433375, "name": "b303860a62c0c2068c54b64a1bc6f529", "is_disabled": 0, "type": "electric_scooter", "is_reserved": 0, "fusion_lon": 0.0, "lat": 38.926177333333335, "rental_uris": {"ios": "https://dc.lft.to/lastmile_qr_scan", "android": "https://dc.lft.to/lastmile_qr_scan"}, "bike_id": "b303860a62c0c2068c54b64a1bc6f529", "fusion_lat": 0.0}, {"lon": -77.02301816666666, "name": "3d56d72c2b2cfb400ec15ec39be437b2", "is_disabled": 0, "type": "electric_scooter", "is_reserved": 0, "fusion_lon": 0.0, "lat": 38.89059233333333, "rental_uris": {"ios": "https://dc.lft.to/lastmile_qr_scan", "android": "https://dc.lft.to/lastmile_qr_scan"}, "bike_id": "3d56d72c2b2cfb400ec15ec39be437b2", "fusion_lat": 0.0}, {"lon": -77.0185875, "name": "eb23d024742e425a4fd720135c4674d8", "is_disabled": 0, "type": "electric_scooter", "is_reserved": 0, "fusion_lon": 0.0, "lat": 38.949190333333334, "rental_uris": {"ios": "https://dc.lft.to/lastmile_qr_scan", "android": "https://dc.lft.to/lastmile_qr_scan"}, "bike_id": "eb23d024742e425a4fd720135c4674d8", "fusion_lat": 0.0}, {"lon": -77.03295816666666, "name": "610a4a942ae5387e1b9a79fbf32e32ed", "is_disabled": 0, "type": "electric_scooter", "is_reserved": 0, "fusion_lon": 0.0, "lat": 38.89887733333333, "rental_uris": {"ios": "https://dc.lft.to/lastmile_qr_scan", "android": "https://dc.lft.to/lastmile_qr_scan"}, "bike_id": "610a4a942ae5387e1b9a79fbf32e32ed", "fusion_lat": 0.0}, {"lon": -77.02207966666667, "name": "8a6530a142dec0e354b77580fdaae684", "is_disabled": 0, "type": "electric_scooter", "is_reserved": 0, "fusion_lon": 0.0, "lat": 38.92470183333333, "rental_uris": {"ios": "https://dc.lft.to/lastmile_qr_scan", "android": "https://dc.lft.to/lastmile_qr_scan"}, "bike_id": "8a6530a142dec0e354b77580fdaae684", "fusion_lat": 0.0}, {"lon": -76.99784266666667, "name": "1238976c680c2375f83572cc084c182a", "is_disabled": 0, "type": "electric_bike", "is_reserved": 0, "fusion_lon": 0.0, "lat": 38.99812383333333, "rental_uris": {"ios": "https://dc.lft.to/lastmile_qr_scan", "android": "https://dc.lft.to/lastmile_qr_scan"}, "bike_id": "1238976c680c2375f83572cc084c182a", "fusion_lat": 0.0}, {"lon": -77.04281483333334, "name": "fcdfb17b05bf9d257d06dd994bba37ec", "is_disabled": 0, "type": "electric_scooter", "is_reserved": 0, "fusion_lon": 0.0, "lat": 38.908398166666665, "rental_uris": {"ios": "https://dc.lft.to/lastmile_qr_scan", "android": "https://dc.lft.to/lastmile_qr_scan"}, "bike_id": "fcdfb17b05bf9d257d06dd994bba37ec", "fusion_lat": 0.0}, {"lon": -77.0211435, "name": "ba26b0ac18ad78883aa8ad55f4d380a7", "is_disabled": 0, "type": "electric_scooter", "is_reserved": 0, "fusion_lon": 0.0, "lat": 38.927826833333334, "rental_uris": {"ios": "https://dc.lft.to/lastmile_qr_scan", "android": "https://dc.lft.to/lastmile_qr_scan"}, "bike_id": "ba26b0ac18ad78883aa8ad55f4d380a7", "fusion_lat": 0.0}, {"lon": -76.96101716666666, "name": "1b59e79380d44c312397d6b6e64340fe", "is_disabled": 0, "type": "electric_scooter", "is_reserved": 0, "fusion_lon": 0.0, "lat": 38.8920695, "rental_uris": {"ios": "https://dc.lft.to/lastmile_qr_scan", "android": "https://dc.lft.to/lastmile_qr_scan"}, "bike_id": "1b59e79380d44c312397d6b6e64340fe", "fusion_lat": 0.0}, {"lon": -76.98380466666667, "name": "5c149869028c1e2ff533f3c4de8f37af", "is_disabled": 0, "type": "electric_scooter", "is_reserved": 0, "fusion_lon": 0.0, "lat": 38.906481666666664, "rental_uris": {"ios": "https://dc.lft.to/lastmile_qr_scan", "android": "https://dc.lft.to/lastmile_qr_scan"}, "bike_id": "5c149869028c1e2ff533f3c4de8f37af", "fusion_lat": 0.0}, {"lon": -77.021615, "name": "319813df696a8f1f213a55e7dc2d577e", "is_disabled": 0, "type": "electric_scooter", "is_reserved": 0, "fusion_lon": 0.0, "lat": 38.924567, "rental_uris": {"ios": "https://dc.lft.to/lastmile_qr_scan", "android": "https://dc.lft.to/lastmile_qr_scan"}, "bike_id": "319813df696a8f1f213a55e7dc2d577e", "fusion_lat": 0.0}, {"lon": -76.98968716666667, "name": "3880dcc4579fd0c517a7d1673acdb3db", "is_disabled": 0, "type": "electric_scooter", "is_reserved": 0, "fusion_lon": 0.0, "lat": 38.8569155, "rental_uris": {"ios": "https://dc.lft.to/lastmile_qr_scan", "android": "https://dc.lft.to/lastmile_qr_scan"}, "bike_id": "3880dcc4579fd0c517a7d1673acdb3db", "fusion_lat": 0.0},