{"data": {"bikes": [{"lat": 38.910680166666666, "is_disabled": 0, "type": "electric_scooter", "lon": -77.04572616666667, "bike_id": "da268080786526777cba369ed5967a19", "fusion_lat": 0.0, "name": "da268080786526777cba369ed5967a19", "is_reserved": 0, "rental_uris": {"android": "https://dc.lft.to/lastmile_qr_scan", "ios": "https://dc.lft.to/lastmile_qr_scan"}, "fusion_lon": 0.0}, {"lat": 38.93888783333333, "is_disabled": 0, "type": "electric_scooter", "lon": -77.03231266666667, "bike_id": "871393946d1a09a2fc19991d629d1578", "fusion_lat": 0.0, "name": "871393946d1a09a2fc19991d629d1578", "is_reserved": 0, "rental_uris": {"android": "https://dc.lft.to/lastmile_qr_scan", "ios": "https://dc.lft.to/lastmile_qr_scan"}, "fusion_lon": 0.0}, {"lat": 38.90257016666666, "is_disabled": 0, "type": "electric_scooter", "lon": -77.01772416666667, "bike_id": "91d0b554dbddd729c7eb5380cc3abcb8", "fusion_lat": 0.0, "name": "91d0b554dbddd729c7eb5380cc3abcb8", "is_reserved": 0, "rental_uris": {"android": "https://dc.lft.to/lastmile_qr_scan", "ios": "https://dc.lft.to/lastmile_qr_scan"}, "fusion_lon": 0.0}, {"lat": 38.900267666666664, "is_disabled": 0, "type": "electric_scooter", "lon": -76.99879183333333, "bike_id": "61cf3f8d32c0fb080c48e15432ac8660", "fusion_lat": 0.0, "name": "61cf3f8d32c0fb080c48e15432ac8660", "is_reserved": 0, "rental_uris": {"android": "https://dc.lft.to/lastmile_qr_scan", "ios": "https://dc.lft.to/lastmile_qr_scan"}, "fusion_lon": 0.0}, {"lat": 38.901528666666664, "is_disabled": 0, "type": "electric_scooter", "lon": -77.04170416666666, "bike_id": "fff562307bd9f10b3a27469bd039a358", "fusion_lat": 0.0, "name": "fff562307bd9f10b3a27469bd039a358", "is_reserved": 0, "rental_uris": {"android": "https://dc.lft.to/lastmile_qr_scan", "ios": "https://dc.lft.to/lastmile_qr_scan"}, "fusion_lon": 0.0}, {"lat": 38.905137833333335, "is_disabled": 0, "type": "electric_scooter", "lon": -77.06479516666667, "bike_id": "445b5a1c2025e4fc0695ed2ba0c35d55", "fusion_lat": 0.0, "name": "445b5a1c2025e4fc0695ed2ba0c35d55", "is_reserved": 0, "rental_uris": {"android": "https://dc.lft.to/lastmile_qr_scan", "ios": "https://dc.lft.to/lastmile_qr_scan"}, "fusion_lon": 0.0}, {"lat": 38.89615883333333, "is_disabled": 0, "type": "electric_scooter", "lon": -76.95598966666667, "bike_id": "5804f893f6ff6d5936a62a6db522604c", "fusion_lat": 0.0, "name": "5804f893f6ff6d5936a62a6db522604c", "is_reserved": 0, "rental_uris": {"android": "https://dc.lft.to/lastmile_qr_scan", "ios": "https://dc.lft.to/lastmile_qr_scan"}, "fusion_lon": 0.0}, {"lat": 38.91893833333334, "is_disabled": 0, "type": "electric_scooter", "lon": -77.03915183333334, "bike_id": "da84a4bc0785f03b3f09292fffce4049", "fusion_lat": 0.0, "name": "da84a4bc0785f03b3f09292fffce4049", "is_reserved": 0, "rental_uris": {"android": "https://dc.lft.to/lastmile_qr_scan", "ios": "https://dc.lft.to/lastmile_qr_scan"}, "fusion_lon": 0.0}, {"lat": 38.933468166666664, "is_disabled": 0, "type": "electric_scooter", "lon": -77.0570365, "bike_id": "38295655b710c32234b48f5e11dddcb4", "fusion_lat": 0.0, "name": "38295655b710c32234b48f5e11dddcb4", "is_reserved": 0, "rental_uris": {"android": "https://dc.lft.to/lastmile_qr_scan", "ios": "https://dc.lft.to/lastmile_qr_scan"}, "fusion_lon": 0.0}, {"lat": 38.91850733333333, "is_disabled": 0, "type": "electric_scooter", "lon": -77.03873, "bike_id": "7e52a39228dec9abde78548c498742cd", "fusion_lat": 0.0, "name": "7e52a39228dec9abde78548c498742cd", "is_reserved": 0, "rental_uris": {"android": "https://dc.lft.to/lastmile_qr_scan", "ios": "https://dc.lft.to/lastmile_qr_scan"}, "fusion_lon": 0.0}, {"lat": 38.88663716666667, "is_disabled": 0, "type": "electric_bike", "lon": -77.162299, "bike_id": "c962dd994bf51f010881903b7fd0f284", "fusion_lat": 0.0, "name": "c962dd994bf51f010881903b7fd0f284", "is_reserved": 0, "rental_uris": {"android": "https://dc.lft.to/lastmile_qr_scan", "ios": "https://dc.lft.to/lastmile_qr_scan"}, "fusion_lon": 0.0}, {"lat": 38.92146916666667, "is_disabled": 0, "type": "electric_scooter", "lon": -77.03507716666667, "bike_id": "c6cdf3bcece06c91907cb20ce88d1c11", "fusion_lat": 0.0, "name": "c6cdf3bcece06c91907cb20ce88d1c11", "is_reserved": 0, "rental_uris": {"android": "https://dc.lft.to/lastmile_qr_scan", "ios": "https://dc.lft.to/lastmile_qr_scan"}, "fusion_lon": 0.0}, {"lat": 38.917098333333335, "is_disabled": 0, "type": "electric_scooter", "lon": -77.0386605, "bike_id": "e394c7f720fca16763db4a84519eeef9", "fusion_lat": 0.0, "name": "e394c7f720fca16763db4a84519eeef9", "is_reserved": 0, "rental_uris": {"android": "https://dc.lft.to/lastmile_qr_scan", "ios": "https://dc.lft.to/lastmile_qr_scan"}, "fusion_lon": 0.0}, {"lat": 38.89253033333333, "is_disabled": 0, "type": "electric_scooter", "lon": -77.02007016666667, "bike_id": "6d73096b4d7cc717c77df80aaca9a8f4", "fusion_lat": 0.0, "name": "6d73096b4d7cc717c77df80aaca9a8f4", "is_reserved": 0, "rental_uris": {"android": "https://dc.lft.to/lastmile_qr_scan", "ios": "https://dc.lft.to/lastmile_qr_scan"}, "fusion_lon": 0.0}, {"lat": 38.904726833333335, "is_disabled": 0, "type": "electric_scooter", "lon": -77.00770133333333, "bike_id": "fd5a5842b9ef1ef0d2895eccb7917bdd", "fusion_lat": 0.0, "name": "fd5a5842b9ef1ef0d2895eccb7917bdd", "is_reserved": 0, "rental_uris": {"android": "https://dc.lft.to/lastmile_qr_scan", "ios": "https://dc.lft.to/lastmile_qr_scan"}, "fusion_lon": 0.0}, {"lat": 38.9026015, "is_disabled": 0, "type": "electric_scooter", "lon": -77.0179195, "bike_id": "c9b52adcfff1acf571ffdcc040a15b6c", "fusion_lat": 0.0, "name": "c9b52adcfff1acf571ffdcc040a15b6c", "is_reserved": 0, "rental_uris": {"android": "https://dc.lft.to/lastmile_qr_scan", "ios": "https://dc.lft.to/lastmile_qr_scan"}, "fusion_lon": 0.0}, {"lat": 38.9354095, "is_disabled": 0, "type": "electric_scooter", "lon": -77.02353566666666, "bike_id": "1b7a85dc07d6d4bd388515c5bdfa090f", "fusion_lat": 0.0, "name": "1b7a85dc07d6d4bd388515c5bdfa090f", "is_reserved": 0, "rental_uris": {"android": "https://dc.lft.to/lastmile_qr_scan", "ios": "https://dc.lft.to/lastmile_qr_scan"}, "fusion_lon": 0.0}, {"lat": 38.91570016666667, "is_disabled": 0, "type": "electric_scooter", "lon": -77.04868683333333, "bike_id": "f53ae8160d35dc0d8bd397a6a31b3637", "fusion_lat": 0.0, "name": "f53ae8160d35dc0d8bd397a6a31b3637", "is_reserved": 0, "rental_uris": {"android": "https://dc.lft.to/lastmile_qr_scan", "ios": "https://dc.lft.to/lastmile_qr_scan"}, "fusion_lon": 0.0}, {"lat": 38.9178975, "is_disabled": 0, "type": "electric_scooter", "lon": -77.040711, "bike_id": "bc3d2b3e2ff914fa997b2644e4fd088e", "fusion_lat": 0.0, "name": "bc3d2b3e2ff914fa997b2644e4fd088e", "is_reserved": 0, "rental_uris": {"android": "https://dc.lft.to/lastmile_qr_scan", "ios": "https://dc.lft.to/lastmile_qr_scan"}, "fusion_lon": 0.0}, {"lat": 38.97094633333333, "is_disabled": 0, "type": "electric_bike", "lon": -77.06963066666667, "bike_id": "337e880df3d91fe864dc71812613df15", "fusion_lat": 0.0, "name": "337e880df3d91fe864dc71812613df15", "is_reserved": 0, "rental_uris": {"android": "https://dc.lft.to/lastmile_qr_scan", "ios": "https://dc.lft.to/lastmile_qr_scan"}, "fusion_lon": 0.0}, {"lat": 38.90974416666667, "is_disabled": 0, "type": "electric_scooter", "lon": -77.03411483333333, "bike_id": "b87b15a619313c94238c03452bcbbb5a", "fusion_lat": 0.0, "name": "b87b15a619313c94238c03452bcbbb5a", "is_reserved": 0, "rental_uris": {"android": "https://dc.lft.to/lastmile_qr_scan", "ios": "https://dc.lft.to/lastmile_qr_scan"}, "fusion_lon": 0.0}, {"lat": 38.9084365, "is_disabled": 0, "type": "electric_scooter", "lon": -77.02713683333333, "bike_id": "8aa2d76494677d7b5ed6678e1ef14ee5", "fusion_lat": 0.0, "name": "8aa2d76494677d7b5ed6678e1ef14ee5", "is_reserved": 0, "rental_uris": {"android": "https://dc.lft.to/lastmile_qr_scan", "ios": "https://dc.lft.to/lastmile_qr_scan"}, "fusion_lon": 0.0}, {"lat": 38.91334766666667, "is_disabled": 0, "type": "electric_scooter", "lon": -77.03119783333334, "bike_id": "47f90b25659404a239abe3f06c4bd8cc", "fusion_lat": 0.0, "name": "47f90b25659404a239abe3f06c4bd8cc", "is_reserved": 0, "rental_uris": {"android": "https://dc.lft.to/lastmile_qr_scan", "ios": "https://dc.lft.to/lastmile_qr_scan"}, "fusion_lon": 0.0}, {"lat": 38.90136316666667, "is_disabled": 0, "type": "electric_scooter", "lon": -76.99744316666667, "bike_id": "3ee06131ee2bf5ebde19fa5626d27bd9", "fusion_lat": 0.0, "name": "3ee06131ee2bf5ebde19fa5626d27bd9", "is_reserved": 0, "rental_uris": {"android": "https://dc.lft.to/lastmile_qr_scan", "ios": "https://dc.lft.to/lastmile_qr_scan"}, "fusion_lon": 0.0}, {"lat": 38.90732583333333, "is_disabled": 0, "type": "electric_scooter", "lon": -77.04753016666666, "bike_id": "bcd1ee0be6ce5d305a42edc93d856f6b", "fusion_lat": 0.0, "name": "bcd1ee0be6ce5d305a42edc93d856f6b", "is_reserved": 0, "rental_uris": {"android": "https://dc.lft.to/lastmile_qr_scan", "ios": "https://dc.lft.to/lastmile_qr_scan"}, "fusion_lon": 0.0}, {"lat": 38.88507083333333, "is_disabled": 0, "type": "electric_scooter", "lon": -77.01545633333333, "bike_id": "2d2d9863018dd550176544efd7610cb0", "fusion_lat": 0.0, "name": "2d2d9863018dd550176544efd7610cb0", "is_reserved": 0, "rental_uris": {"android": "https://dc.lft.to/lastmile_qr_scan", "ios": "https://dc.lft.to/lastmile_qr_scan"}, "fusion_lon": 0.0}, {"lat": 38.87320233333333, "is_disabled": 0, "type": "electric_bike", "lon": -76.99155283333333, "bike_id": "64d46057d1b5fac49b91eedf1176617c", "fusion_lat": 0.0, "name": "64d46057d1b5fac49b91eedf1176617c", "is_reserved": 0, "rental_uris": {"android": "https://dc.lft.to/lastmile_qr_scan", "ios": "https://dc.lft.to/lastmile_qr_scan"}, "fusion_lon": 0.0}, {"lat": 38.8996505, "is_disabled": 0, "type": "electric_scooter", "lon": -77.05207516666667, "bike_id": "4521c8bdcbf9aa303d76fd31433c0486", "fusion_lat": 0.0, "name": "4521c8bdcbf9aa303d76fd31433c0486", "is_reserved": 0, "rental_uris": {"android": "https://dc.lft.to/lastmile_qr_scan", "ios": "https://dc.lft.to/lastmile_qr_scan"}, "fusion_lon": 0.0}, {"lat": 38.9097475, "is_disabled": 0, "type": "electric_scooter", "lon": -77.02389533333333, "bike_id": "b47eb4d14e5eb7d571b2dc415e777d4a", "fusion_lat": 0.0, "name": "b47eb4d14e5eb7d571b2dc415e777d4a", "is_reserved": 0, "rental_uris": {"android": "https://dc.lft.to/lastmile_qr_scan", "ios": "https://dc.lft.to/lastmile_qr_scan"}, "fusion_lon": 0.0}, {"lat": 38.80232616666667, "is_disabled": 0, "type": "electric_bike", "lon": -77.07915633333333, "bike_id": "f558a4c4c520c69255a9f0c7589184a9", "fusion_lat": 0.0, "name": "f558a4c4c520c69255a9f0c7589184a9", "is_reserved": 0, "rental_uris": {"android": "https://dc.lft.to/lastmile_qr_scan", "ios": "https://dc.lft.to/lastmile_qr_scan"}, "fusion_lon": 0.0}, {"lat": 38.85793366666667, "is_disabled": 0, "type": "electric_bike", "lon": -76.98746366666667, "bike_id": "0d5973d1e9059e393483678cef8dfcce", "fusion_lat": 0.0, "name": "0d5973d1e9059e393483678cef8dfcce", "is_reserved": 0, "rental_uris": {"android": "https://dc.lft.to/lastmile_qr_scan", "ios": "https://dc.lft.to/lastmile_qr_scan"}, "fusion_lon": 0.0}, {"lat": 38.90036583333333, "is_disabled": 0, "type": "electric_scooter", "lon": -77.02180266666667, "bike_id": "b93f982a2b4b6b449839e55ed0679781", "fusion_lat": 0.0, "name": "b93f982a2b4b6b449839e55ed0679781", "is_reserved": 0, "rental_uris": {"android": "https://dc.lft.to/lastmile_qr_scan", "ios": "https://dc.lft.to/lastmile_qr_scan"}, "fusion_lon": 0.0}, {"lat": 38.89301016666667, "is_disabled": 0, "type": "electric_scooter", "lon": -77.00214583333333, "bike_id": "9adf0509d4728050758786076b3a6755", "fusion_lat": 0.0, "name": "9adf0509d4728050758786076b3a6755", "is_reserved": 0, "rental_uris": {"android": "https://dc.lft.to/lastmile_qr_scan", "ios": "https://dc.lft.to/lastmile_qr_scan"}, "fusion_lon": 0.0}, {"lat": 38.903928666666665, "is_disabled": 0, "type": "electric_scooter", "lon": -77.02801616666666, "bike_id": "bdecb23df323d1283466938c54dddbce", "fusion_lat": 0.0, "name": "bdecb23df323d1283466938c54dddbce", "is_reserved": 0, "rental_uris": {"android": "https://dc.lft.to/lastmile_qr_scan", "ios": "https://dc.lft.to/lastmile_qr_scan"}, "fusion_lon": 0.0}, {"lat": 38.91751883333333, "is_disabled": 0, "type": "electric_scooter", "lon": -77.03993383333334, "bike_id": "100fcb2808f1c677165c099a5629eaf3", "fusion_lat": 0.0, "name": "100fcb2808f1c677165c099a5629eaf3", "is_reserved": 0, "rental_uris": {"android": "https://dc.lft.to/lastmile_qr_scan", "ios": "https://dc.lft.to/lastmile_qr_scan"}, "fusion_lon": 0.0}, {"lat": 38.933237, "is_disabled": 0, "type": "electric_scooter", "lon": -77.04396666666666, "bike_id": "4c661f2122ff0e3441fd665e0b7b5a0f", "fusion_lat": 0.0, "name": "4c661f2122ff0e3441fd665e0b7b5a0f", "is_reserved": 0, "rental_uris": {"android": "https://dc.lft.to/lastmile_qr_scan", "ios": "https://dc.lft.to/lastmile_qr_scan"}, "fusion_lon": 0.0}, {"lat": 38.90561133333333, "is_disabled": 0, "type": "electric_scooter", "lon": -77.034018, "bike_id": "d648544a5e3d027ead84af520e059c3e", "fusion_lat": 0.0, "name": "d648544a5e3d027ead84af520e059c3e", "is_reserved": 0, "rental_uris": {"android": "https://dc.lft.to/lastmile_qr_scan", "ios": "https://dc.lft.to/lastmile_qr_scan"}, "fusion_lon": 0.0}, {"lat": 38.93281916666667, "is_disabled": 0, "type": "electric_scooter", "lon": -77.03634633333333, "bike_id": "943b237d995dc0921696d4e190c25e2b", "fusion_lat": 0.0, "name": "943b237d995dc0921696d4e190c25e2b", "is_reserved": 0, "rental_uris": {"android": "https://dc.lft.to/lastmile_qr_scan", "ios": "https://dc.lft.to/lastmile_qr_scan"}, "fusion_lon": 0.0}, {"lat": 38.93173133333333, "is_disabled": 0, "type": "electric_scooter", "lon": -77.02818616666667, "bike_id": "04d3d919c98dfd983eb9ed2582a14654", "fusion_lat": 0.0, "name": "04d3d919c98dfd983eb9ed2582a14654", "is_reserved": 0, "rental_uris": {"android": "https://dc.lft.to/lastmile_qr_scan", "ios": "https://dc.lft.to/lastmile_qr_scan"}, "fusion_lon": 0.0}, {"lat": 38.91709266666667, "is_disabled": 0, "type": "electric_scooter", "lon": -77.03862566666666, "bike_id": "ac29a7512c67e2d846e93d02f814bb4f", "fusion_lat": 0.0, "name": "ac29a7512c67e2d846e93d02f814bb4f", "is_reserved": 0, "rental_uris": {"android": "https://dc.lft.to/lastmile_qr_scan", "ios": "https://dc.lft.to/lastmile_qr_scan"}, "fusion_lon": 0.0}, {"lat": 38.9117285, "is_disabled": 0, "type": "electric_scooter", "lon": -77.04145233333334, "bike_id": "7cc702c285d1ba7f9623f7254421ec29", "fusion_lat": 0.0, "name": "7cc702c285d1ba7f9623f7254421ec29", "is_reserved": 0, "rental_uris": {"android": "https://dc.lft.to/lastmile_qr_scan", "ios": "https://dc.lft.to/lastmile_qr_scan"}, "fusion_lon": 0.0}, {"lat": 38.90244716666667, "is_disabled": 0, "type": "electric_scooter", "lon": -77.01841366666666, "bike_id": "67a7fb3a271242586e43d749857ea3ac", "fusion_lat": 0.0, "name": "67a7fb3a271242586e43d749857ea3ac", "is_reserved": 0, "rental_uris": {"android": "https://dc.lft.to/lastmile_qr_scan", "ios": "https://dc.lft.to/lastmile_qr_scan"}, "fusion_lon": 0.0}, {"lat": 38.904924, "is_disabled": 0, "type": "electric_scooter", "lon": -77.05800233333333, "bike_id": "dfdc960e4323bf56ec607cb03f41ce58", "fusion_lat": 0.0, "name": "dfdc960e4323bf56ec607cb03f41ce58", "is_reserved": 0, "rental_uris": {"android": "https://dc.lft.to/lastmile_qr_scan", "ios": "https://dc.lft.to/lastmile_qr_scan"}, "fusion_lon": 0.0}, {"lat": 38.900156, "is_disabled": 0, "type": "electric_scooter", "lon": -76.9869545, "bike_id": "39e29a17164ebbad1ba14aa4a3b84c30", "fusion_lat": 0.0, "name": "39e29a17164ebbad1ba14aa4a3b84c30", "is_reserved": 0, "rental_uris": {"android": "https://dc.lft.to/lastmile_qr_scan", "ios": "https://dc.lft.to/lastmile_qr_scan"}, "fusion_lon": 0.0}, {"lat": 38.93456666666667, "is_disabled": 0, "type": "electric_scooter", "lon": -77.07235983333334, "bike_id": "a199198a3f7f5353b17b617d6df6af5a", "fusion_lat": 0.0, "name": "a199198a3f7f5353b17b617d6df6af5a", "is_reserved": 0, "rental_uris": {"android": "https://dc.lft.to/lastmile_qr_scan", "ios": "https://dc.lft.to/lastmile_qr_scan"}, "fusion_lon": 0.0}, {"lat": 38.91257866666667, "is_disabled": 0, "type": "electric_scooter", "lon": -77.04470233333333, "bike_id": "7025401a036e10fb1c182dff94a81ae0", "fusion_lat": 0.0, "name": "7025401a036e10fb1c182dff94a81ae0", "is_reserved": 0, "rental_uris": {"android": "https://dc.lft.to/lastmile_qr_scan", "ios": "https://dc.lft.to/lastmile_qr_scan"}, "fusion_lon": 0.0}, {"lat": 38.84662466666666, "is_disabled": 0, "type": "electric_bike", "lon": -76.9793405, "bike_id": "75100a662046525f38f086566418d147", "fusion_lat": 0.0, "name": "75100a662046525f38f086566418d147", "is_reserved": 0, "rental_uris": {"android": "https://dc.lft.to/lastmile_qr_scan", "ios": "https://dc.lft.to/lastmile_qr_scan"}, "fusion_lon": 0.0}, {"lat": 38.89045216666667, "is_disabled": 0, "type": "electric_scooter", "lon": -76.95140666666667, "bike_id": "379b60faa1098974773a2e9fac722575", "fusion_lat": 0.0, "name": "379b60faa1098974773a2e9fac722575", "is_reserved": 0, "rental_uris": {"android": "https://dc.lft.to/lastmile_qr_scan", "ios": "https://dc.lft.to/lastmile_qr_scan"}, "fusion_lon": 0.0}, {"lat": 38.932937, "is_disabled": 0, "type": "electric_scooter", "lon": -77.03974883333333, "bike_id": "6d6d2f4b0b4eb52069d5bc5b454a3c96", "fusion_lat": 0.0, "name": "6d6d2f4b0b4eb52069d5bc5b454a3c96", "is_reserved": 0, "rental_uris": {"android": "https://dc.lft.to/lastmile_qr_scan", "ios": "https://dc.lft.to/lastmile_qr_scan"}, "fusion_lon": 0.0}, {"lat": 38.905651166666665, "is_disabled": 0, "type": "electric_scooter", "lon": -77.020139, "bike_id": "2373b10b8627acad38e95f35f1013f17", "fusion_lat": 0.0, "name": "2373b10b8627acad38e95f35f1013f17", "is_reserved": 0, "rental_uris": {"android": "https://dc.lft.to/lastmile_qr_scan", "ios": "https://dc.lft.to/lastmile_qr_scan"}, "fusion_lon": 0.0}, {"lat": 38.910452166666666, "is_disabled": 0, "type": "electric_scooter", "lon": -77.01513066666666, "bike_id": "a069b2c16234419bcb76d63c0343a87b", "fusion_lat": 0.0, "name": "a069b2c16234419bcb76d63c0343a87b", "is_reserved": 0, "rental_uris": {"android": "https://dc.lft.to/lastmile_qr_scan", "ios": "https://dc.lft.to/lastmile_qr_scan"}, "fusion_lon": 0.0}, {"lat": 38.86913333333333, "is_disabled": 0, "type": "electric_bike", "lon": -77.13177233333333, "bike_id": "eb051deffd0f92dde448ccbcddac7c22", "fusion_lat": 0.0, "name": "eb051deffd0f92dde448ccbcddac7c22", "is_reserved": 0, "rental_uris": {"android": "https://dc.lft.to/lastmile_qr_scan", "ios": "https://dc.lft.to/lastmile_qr_scan"}, "fusion_lon": 0.0}, {"lat": 38.89508416666666, "is_disabled": 0, "type": "electric_scooter", "lon": -77.022992, "bike_id": "3247cf1c81f464bb5ac4050f56e8c4ec", "fusion_lat": 0.0, "name": "3247cf1c81f464bb5ac4050f56e8c4ec", "is_reserved": 0, "rental_uris": {"android": "https://dc.lft.to/lastmile_qr_scan", "ios": "https://dc.lft.to/lastmile_qr_scan"}, "fusion_lon": 0.0}, {"lat": 38.920016, "is_disabled": 0, "type": "electric_scooter", "lon": -77.032193, "bike_id": "2e2404315fe0908ad658e08f7e083614", "fusion_lat": 0.0, "name": "2e2404315fe0908ad658e08f7e083614", "is_reserved": 0, "rental_uris": {"android": "https://dc.lft.to/lastmile_qr_scan", "ios": "https://dc.lft.to/lastmile_qr_scan"}, "fusion_lon": 0.0}, {"lat": 38.90554516666667, "is_disabled": 0, "type": "electric_scooter", "lon": -77.0340135, "bike_id": "35e7655e4f63a0c23bd410d3daef3fe9", "fusion_lat": 0.0, "name": "35e7655e4f63a0c23bd410d3daef3fe9", "is_reserved": 0, "rental_uris": {"android": "https://dc.lft.to/lastmile_qr_scan", "ios": "https://dc.lft.to/lastmile_qr_scan"}, "fusion_lon": 0.0}, {"lat": 38.911172, "is_disabled": 0, "type": "electric_scooter", "lon": -77.04499783333333, "bike_id": "a9d4aa3f3179e256d4da7c1a2028aa90", "fusion_lat": 0.0, "name": "a9d4aa3f3179e256d4da7c1a2028aa90", "is_reserved": 0, "rental_uris": {"android": "https://dc.lft.to/lastmile_qr_scan", "ios": "https://dc.lft.to/lastmile_qr_scan"}, "fusion_lon": 0.0}, {"lat": 38.903885, "is_disabled": 0, "type": "electric_scooter", "lon": -77.0216215, "bike_id": "6d2cbcf12f7c084c77e5a63f51f92e82", "fusion_lat": 0.0, "name": "6d2cbcf12f7c084c77e5a63f51f92e82", "is_reserved": 0, "rental_uris": {"android": "https://dc.lft.to/lastmile_qr_scan", "ios": "https://dc.lft.to/lastmile_qr_scan"}, "fusion_lon": 0.0}, {"lat": 38.90992816666667, "is_disabled": 0, "type": "electric_scooter", "lon": -76.99738433333333, "bike_id": "003c818f0eb9a7425a250535ae23255f", "fusion_lat": 0.0, "name": "003c818f0eb9a7425a250535ae23255f", "is_reserved": 0, "rental_uris": {"android": "https://dc.lft.to/lastmile_qr_scan", "ios": "https://dc.lft.to/lastmile_qr_scan"}, "fusion_lon": 0.0}, {"lat": 38.92969166666666, "is_disabled": 0, "type": "electric_scooter", "lon": -77.03176733333333, "bike_id": "1f8f89afc2d07e749a18fc7994a046ee", "fusion_lat": 0.0, "name": "1f8f89afc2d07e749a18fc7994a046ee", "is_reserved": 0, "rental_uris": {"android": "https://dc.lft.to/lastmile_qr_scan", "ios": "https://dc.lft.to/lastmile_qr_scan"}, "fusion_lon": 0.0}, {"lat": 38.89718383333334, "is_disabled": 0, "type": "electric_scooter", "lon": -77.00797716666666, "bike_id": "219f71b35545a9c49becab39310b4797", "fusion_lat": 0.0, "name": "219f71b35545a9c49becab39310b4797", "is_reserved": 0, "rental_uris": {"android": "https://dc.lft.to/lastmile_qr_scan", "ios": "https://dc.lft.to/lastmile_qr_scan"}, "fusion_lon": 0.0}, {"lat": 38.82879466666667, "is_disabled": 0, "type": "electric_bike", "lon": -77.11219033333333, "bike_id": "db8eb72413a7abd5f4778bc7bbb50271", "fusion_lat": 0.0, "name": "db8eb72413a7abd5f4778bc7bbb50271", "is_reserved": 0, "rental_uris": {"android": "https://dc.lft.to/lastmile_qr_scan", "ios": "https://dc.lft.to/lastmile_qr_scan"}, "fusion_lon": 0.0}, {"lat": 38.931988833333335, "is_disabled": 0, "type": "electric_scooter", "lon": -77.02966533333333, "bike_id": "e39cac9ef52fd9eeab51617a50521216", "fusion_lat": 0.0, "name": "e39cac9ef52fd9eeab51617a50521216", "is_reserved": 0, "rental_uris": {"android": "https://dc.lft.to/lastmile_qr_scan", "ios": "https://dc.lft.to/lastmile_qr_scan"}, "fusion_lon": 0.0}, {"lat": 38.95623466666667, "is_disabled": 0, "type": "electric_scooter", "lon": -77.02784983333333, "bike_id": "88df7b9829017772b8bed925296d6e4f", "fusion_lat": 0.0, "name": "88df7b9829017772b8bed925296d6e4f", "is_reserved": 0, "rental_uris": {"android": "https://dc.lft.to/lastmile_qr_scan", "ios": "https://dc.lft.to/lastmile_qr_scan"}, "fusion_lon": 0.0}, {"lat": 39.000127166666665, "is_disabled": 0, "type": "electric_bike", "lon": -76.91078416666667, "bike_id": "19e0d1ebf5367c610a7ef14d47a0168e", "fusion_lat": 0.0, "name": "19e0d1ebf5367c610a7ef14d47a0168e", "is_reserved": 0, "rental_uris": {"android": "https://dc.lft.to/lastmile_qr_scan", "ios": "https://dc.lft.to/lastmile_qr_scan"}, "fusion_lon": 0.0}, {"lat": 38.866540666666666, "is_disabled": 0, "type": "electric_scooter", "lon": -76.98883266666667, "bike_id": "1b409c035a992320ffe40c29c5321bb4", "fusion_lat": 0.0, "name": "1b409c035a992320ffe40c29c5321bb4", "is_reserved": 0, "rental_uris": {"android": "https://dc.lft.to/lastmile_qr_scan", "ios": "https://dc.lft.to/lastmile_qr_scan"}, "fusion_lon": 0.0}, {"lat": 38.905698666666666, "is_disabled": 0, "type": "electric_scooter", "lon": -77.03406733333334, "bike_id": "78098515d5e407ed952b48020ca8d518", "fusion_lat": 0.0, "name": "78098515d5e407ed952b48020ca8d518", "is_reserved": 0, "rental_uris": {"android": "https://dc.lft.to/lastmile_qr_scan", "ios": "https://dc.lft.to/lastmile_qr_scan"}, "fusion_lon": 0.0}, {"lat": 38.893481333333334, "is_disabled": 0, "type": "electric_scooter", "lon": -76.94935366666667, "bike_id": "caa3e388074d8a9ba6d0c5b469ab2efa", "fusion_lat": 0.0, "name": "caa3e388074d8a9ba6d0c5b469ab2efa", "is_reserved": 0, "rental_uris": {"android": "https://dc.lft.to/lastmile_qr_scan", "ios": "https://dc.lft.to/lastmile_qr_scan"}, "fusion_lon": 0.0}, {"lat": 38.94440933333333, "is_disabled": 0, "type": "electric_scooter", "lon": -76.99211333333334, "bike_id": "efb04b366c08283b48f95928be62b9ec", "fusion_lat": 0.0, "name": "efb04b366c08283b48f95928be62b9ec", "is_reserved": 0, "rental_uris": {"android": "https://dc.lft.to/lastmile_qr_scan", "ios": "https://dc.lft.to/lastmile_qr_scan"}, "fusion_lon": 0.0}, {"lat": 38.89273383333333, "is_disabled": 0, "type": "electric_scooter", "lon": -77.0259335, "bike_id": "cc8ce83b207b3f400ecd5db11d0999db", "fusion_lat": 0.0, "name": "cc8ce83b207b3f400ecd5db11d0999db", "is_reserved": 0, "rental_uris": {"android": "https://dc.lft.to/lastmile_qr_scan", "ios": "https://dc.lft.to/lastmile_qr_scan"}, "fusion_lon": 0.0}, {"lat": 38.916954833333335, "is_disabled": 0, "type": "electric_scooter", "lon": -77.0312975, "bike_id": "050f0dc109cc1feb121c5f3ec57ee0a2", "fusion_lat": 0.0, "name": "050f0dc109cc1feb121c5f3ec57ee0a2", "is_reserved": 0, "rental_uris": {"android": "https://dc.lft.to/lastmile_qr_scan", "ios": "https://dc.lft.to/lastmile_qr_scan"}, "fusion_lon": 0.0}, {"lat": 38.898569, "is_disabled": 0, "type": "electric_bike", "lon": -76.93190683333333, "bike_id": "d748611ef0e316f84d1c9097cd995825", "fusion_lat": 0.0, "name": "d748611ef0e316f84d1c9097cd995825", "is_reserved": 0, "rental_uris": {"android": "https://dc.lft.to/lastmile_qr_scan", "ios": "https://dc.lft.to/lastmile_qr_scan"}, "fusion_lon": 0.0}, {"lat": 38.895329833333335, "is_disabled": 0, "type": "electric_bike", "lon": -77.07366833333333, "bike_id": "1399b83e4b5fc28b8989b7c993f2fb45", "fusion_lat": 0.0, "name": "1399b83e4b5fc28b8989b7c993f2fb45", "is_reserved": 0, "rental_uris": {"android": "https://dc.lft.to/lastmile_qr_scan", "ios": "https://dc.lft.to/lastmile_qr_scan"}, "fusion_lon": 0.0}, {"lat": 38.88616616666667, "is_disabled": 0, "type": "electric_scooter", "lon": -77.02170383333333, "bike_id": "ab87825f90f46e1b8258950f8831e346", "fusion_lat": 0.0, "name": "ab87825f90f46e1b8258950f8831e346", "is_reserved": 0, "rental_uris": {"android": "https://dc.lft.to/lastmile_qr_scan", "ios": "https://dc.lft.to/lastmile_qr_scan"}, "fusion_lon": 0.0}, {"lat": 38.92431, "is_disabled": 0, "type": "electric_scooter", "lon": -77.0517705, "bike_id": "5a53718f837a811ba49f7575340329a7", "fusion_lat": 0.0, "name": "5a53718f837a811ba49f7575340329a7", "is_reserved": 0, "rental_uris": {"android": "https://dc.lft.to/lastmile_qr_scan", "ios": "https://dc.lft.to/lastmile_qr_scan"}, "fusion_lon": 0.0}, {"lat": 38.909742666666666, "is_disabled": 0, "type": "electric_scooter", "lon": -77.00920616666667, "bike_id": "b90cec1841c46a4e75f3e8a7443906db", "fusion_lat": 0.0, "name": "b90cec1841c46a4e75f3e8a7443906db", "is_reserved": 0, "rental_uris": {"android": "https://dc.lft.to/lastmile_qr_scan", "ios": "https://dc.lft.to/lastmile_qr_scan"}, "fusion_lon": 0.0}, {"lat": 38.912704, "is_disabled": 0, "type": "electric_scooter", "lon": -77.03935883333334, "bike_id": "c6e0f8930a485aea166a5976ba1e546f", "fusion_lat": 0.0, "name": "c6e0f8930a485aea166a5976ba1e546f", "is_reserved": 0, "rental_uris": {"android": "https://dc.lft.to/lastmile_qr_scan", "ios": "https://dc.lft.to/lastmile_qr_scan"}, "fusion_lon": 0.0}, {"lat": 38.86284583333333, "is_disabled": 0, "type": "electric_scooter", "lon": -76.99238283333334, "bike_id": "0d68cf655f4bae0e67429f0d585b955f", "fusion_lat": 0.0, "name": "0d68cf655f4bae0e67429f0d585b955f", "is_reserved": 0, "rental_uris": {"android": "https://dc.lft.to/lastmile_qr_scan", "ios": "https://dc.lft.to/lastmile_qr_scan"}, "fusion_lon": 0.0}, {"lat": 38.89846566666667, "is_disabled": 0, "type": "electric_scooter", "lon": -76.94462683333333, "bike_id": "ee7c29718ce2d8a25f2d8e8edd74bf8a", "fusion_lat": 0.0, "name": "ee7c29718ce2d8a25f2d8e8edd74bf8a", "is_reserved": 0, "rental_uris": {"android": "https://dc.lft.to/lastmile_qr_scan", "ios": "https://dc.lft.to/lastmile_qr_scan"}, "fusion_lon": 0.0}, {"lat": 38.8934475, "is_disabled": 0, "type": "electric_scooter", "lon": -77.04158083333333, "bike_id": "e9155571937d6f77d35007b6bf6ba239", "fusion_lat": 0.0, "name": "e9155571937d6f77d35007b6bf6ba239", "is_reserved": 0, "rental_uris": {"android": "https://dc.lft.to/lastmile_qr_scan", "ios": "https://dc.lft.to/lastmile_qr_scan"}, "fusion_lon": 0.0}, {"lat": 38.909551666666665, "is_disabled": 0, "type": "electric_scooter", "lon": -77.0467045, "bike_id": "da178293d0219c4e91b7e8946626e3a4", "fusion_lat": 0.0, "name": "da178293d0219c4e91b7e8946626e3a4", "is_reserved": 0, "rental_uris": {"android": "https://dc.lft.to/lastmile_qr_scan", "ios": "https://dc.lft.to/lastmile_qr_scan"}, "fusion_lon": 0.0}, {"lat": 38.904334, "is_disabled": 0, "type": "electric_scooter", "lon": -77.0347325, "bike_id": "8781db7ba2efba7788081dabf0228ee0", "fusion_lat": 0.0, "name": "8781db7ba2efba7788081dabf0228ee0", "is_reserved": 0, "rental_uris": {"android": "https://dc.lft.to/lastmile_qr_scan", "ios": "https://dc.lft.to/lastmile_qr_scan"}, "fusion_lon": 0.0}, {"lat": 38.93348866666667, "is_disabled": 0, "type": "electric_bike", "lon": -76.99438816666667, "bike_id": "698f8ffa1264b96375147cdf190c4f02", "fusion_lat": 0.0, "name": "698f8ffa1264b96375147cdf190c4f02", "is_reserved": 0, "rental_uris": {"android": "https://dc.lft.to/lastmile_qr_scan", "ios": "https://dc.lft.to/lastmile_qr_scan"}, "fusion_lon": 0.0}, {"lat": 38.9320235, "is_disabled": 0, "type": "electric_scooter", "lon": -77.0385255, "bike_id": "9580c0a149823935117e75c0bacf1925", "fusion_lat": 0.0, "name": "9580c0a149823935117e75c0bacf1925", "is_reserved": 0, "rental_uris": {"android": "https://dc.lft.to/lastmile_qr_scan", "ios": "https://dc.lft.to/lastmile_qr_scan"}, "fusion_lon": 0.0}, {"lat": 38.937048833333336, "is_disabled": 0, "type": "electric_scooter", "lon": -77.02397566666667, "bike_id": "da13ab3fdc3167000ab833cef76d3cb1", "fusion_lat": 0.0, "name": "da13ab3fdc3167000ab833cef76d3cb1", "is_reserved": 0, "rental_uris": {"android": "https://dc.lft.to/lastmile_qr_scan", "ios": "https://dc.lft.to/lastmile_qr_scan"}, "fusion_lon": 0.0}, {"lat": 39.0943785, "is_disabled": 0, "type": "electric_bike", "lon": -77.134623, "bike_id": "ea0714a4ecce5fd6735c621e337490f1", "fusion_lat": 0.0, "name": "ea0714a4ecce5fd6735c621e337490f1", "is_reserved": 0, "rental_uris": {"android": "https://dc.lft.to/lastmile_qr_scan", "ios": "https://dc.lft.to/lastmile_qr_scan"}, "fusion_lon": 0.0}, {"lat": 38.884814166666665, "is_disabled": 0, "type": "electric_scooter", "lon": -76.94524183333333, "bike_id": "a035ca9b011fd528fbab3c142d53139a", "fusion_lat": 0.0, "name": "a035ca9b011fd528fbab3c142d53139a", "is_reserved": 0, "rental_uris": {"android": "https://dc.lft.to/lastmile_qr_scan", "ios": "https://dc.lft.to/lastmile_qr_scan"}, "fusion_lon": 0.0}, {"lat": 38.907728666666664, "is_disabled": 0, "type": "electric_scooter", "lon": -77.04347033333333, "bike_id": "5778430d1df95e770ed99ad1dbd27e63", "fusion_lat": 0.0, "name": "5778430d1df95e770ed99ad1dbd27e63", "is_reserved": 0, "rental_uris": {"android": "https://dc.lft.to/lastmile_qr_scan", "ios": "https://dc.lft.to/lastmile_qr_scan"}, "fusion_lon": 0.0}, {"lat": 38.91730416666667, "is_disabled": 0, "type": "electric_scooter", "lon": -77.04149866666667, "bike_id": "eb2b1b7bb61d5f10a12a142d73c74a6c", "fusion_lat": 0.0, "name": "eb2b1b7bb61d5f10a12a142d73c74a6c", "is_reserved": 0, "rental_uris": {"android": "https://dc.lft.to/lastmile_qr_scan", "ios": "https://dc.lft.to/lastmile_qr_scan"}, "fusion_lon": 0.0}, {"lat": 38.90556616666667, "is_disabled": 0, "type": "electric_scooter", "lon": -77.0028815, "bike_id": "c7977edc6a75ffdf101a2cac45b037a9", "fusion_lat": 0.0, "name": "c7977edc6a75ffdf101a2cac45b037a9", "is_reserved": 0, "rental_uris": {"android": "https://dc.lft.to/lastmile_qr_scan", "ios": "https://dc.lft.to/lastmile_qr_scan"}, "fusion_lon": 0.0}, {"lat": 38.91926183333333, "is_disabled": 0, "type": "electric_scooter", "lon": -77.03392666666667, "bike_id": "eb16b971cf111bc96790950a3f7d03ba", "fusion_lat": 0.0, "name": "eb16b971cf111bc96790950a3f7d03ba", "is_reserved": 0, "rental_uris": {"android": "https://dc.lft.to/lastmile_qr_scan", "ios": "https://dc.lft.to/lastmile_qr_scan"}, "fusion_lon": 0.0}, {"lat": 38.92485833333333, "is_disabled": 0, "type": "electric_scooter", "lon": -77.03387416666666, "bike_id": "f048e8f677596ec201c2d4f83dae6481", "fusion_lat": 0.0, "name": "f048e8f677596ec201c2d4f83dae6481", "is_reserved": 0, "rental_uris": {"android": "https://dc.lft.to/lastmile_qr_scan", "ios": "https://dc.lft.to/lastmile_qr_scan"}, "fusion_lon": 0.0}, {"lat": 38.91744816666667, "is_disabled": 0, "type": "electric_scooter", "lon": -77.02306233333333, "bike_id": "8a2bd997a532cb082f69f708a906efa4", "fusion_lat": 0.0, "name": "8a2bd997a532cb082f69f708a906efa4", "is_reserved": 0, "rental_uris": {"android": "https://dc.lft.to/lastmile_qr_scan", "ios": "https://dc.lft.to/lastmile_qr_scan"}, "fusion_lon": 0.0}, {"lat": 38.917347166666666, "is_disabled": 0, "type": "electric_scooter", "lon": -77.02400433333334, "bike_id": "8a20a150ab4f964908890f7f43b785de", "fusion_lat": 0.0, "name": "8a20a150ab4f964908890f7f43b785de", "is_reserved": 0, "rental_uris": {"android": "https://dc.lft.to/lastmile_qr_scan", "ios": "https://dc.lft.to/lastmile_qr_scan"}, "fusion_lon": 0.0}, {"lat": 38.90539233333333, "is_disabled": 0, "type": "electric_scooter", "lon": -77.00595616666666, "bike_id": "a665020515bfa36cfe97b123a55a9f70", "fusion_lat": 0.0, "name": "a665020515bfa36cfe97b123a55a9f70", "is_reserved": 0, "rental_uris": {"android": "https://dc.lft.to/lastmile_qr_scan", "ios": "https://dc.lft.to/lastmile_qr_scan"}, "fusion_lon": 0.0}, {"lat": 38.89622816666667, "is_disabled": 0, "type": "electric_scooter", "lon": -76.9552065, "bike_id": "b8e91b6bb835a5e9a47bda0e471627d7", "fusion_lat": 0.0, "name": "b8e91b6bb835a5e9a47bda0e471627d7", "is_reserved": 0, "rental_uris": {"android": "https://dc.lft.to/lastmile_qr_scan", "ios": "https://dc.lft.to/lastmile_qr_scan"}, "fusion_lon": 0.0}, {"lat": 38.90944266666666, "is_disabled": 0, "type": "electric_scooter", "lon": -77.042923, "bike_id": "dff4f2c916145a7f8c4b2a9fdf01d5f5", "fusion_lat": 0.0, "name": "dff4f2c916145a7f8c4b2a9fdf01d5f5", "is_reserved": 0, "rental_uris": {"android": "https://dc.lft.to/lastmile_qr_scan", "ios": "https://dc.lft.to/lastmile_qr_scan"}, "fusion_lon": 0.0}, {"lat": 38.9231015, "is_disabled": 0, "type": "electric_scooter", "lon": -77.02262883333333, "bike_id": "5baaea4589d3c969e30b483204f68307", "fusion_lat": 0.0, "name": "5baaea4589d3c969e30b483204f68307", "is_reserved": 0, "rental_uris": {"android": "https://dc.lft.to/lastmile_qr_scan", "ios": "https://dc.lft.to/lastmile_qr_scan"}, "fusion_lon": 0.0}, {"lat": 38.89230416666667, "is_disabled": 0, "type": "electric_scooter", "lon": -77.02787033333334, "bike_id": "899cfd0a3bc0a609f13401550f8d7a2c", "fusion_lat": 0.0, "name": "899cfd0a3bc0a609f13401550f8d7a2c", "is_reserved": 0, "rental_uris": {"android": "https://dc.lft.to/lastmile_qr_scan", "ios": "https://dc.lft.to/lastmile_qr_scan"}, "fusion_lon": 0.0}, {"lat": 38.869638, "is_disabled": 0, "type": "electric_bike", "lon": -77.01078366666667, "bike_id": "06468deb1cd31a04837de2d0765eabcc", "fusion_lat": 0.0, "name": "06468deb1cd31a04837de2d0765eabcc", "is_reserved": 0, "rental_uris": {"android": "https://dc.lft.to/lastmile_qr_scan", "ios": "https://dc.lft.to/lastmile_qr_scan"}, "fusion_lon": 0.0}, {"lat": 38.91560033333333, "is_disabled": 0, "type": "electric_scooter", "lon": -77.0316325, "bike_id": "af4af29f4bb7d7490f2adc7148523187", "fusion_lat": 0.0, "name": "af4af29f4bb7d7490f2adc7148523187", "is_reserved": 0, "rental_uris": {"android": "https://dc.lft.to/lastmile_qr_scan", "ios": "https://dc.lft.to/lastmile_qr_scan"}, "fusion_lon": 0.0}, {"lat": 38.90407733333333, "is_disabled": 0, "type": "electric_scooter", "lon": -76.99282666666667, "bike_id": "4ecf137936f017d71a7fba5098b68e6c", "fusion_lat": 0.0, "name": "4ecf137936f017d71a7fba5098b68e6c", "is_reserved": 0, "rental_uris": {"android": "https://dc.lft.to/lastmile_qr_scan", "ios": "https://dc.lft.to/lastmile_qr_scan"}, "fusion_lon": 0.0}, {"lat": 38.90376533333333, "is_disabled": 0, "type": "electric_scooter", "lon": -77.05794966666667, "bike_id": "ae0f0ef5c3e01c1248236500d28c7a03", "fusion_lat": 0.0, "name": "ae0f0ef5c3e01c1248236500d28c7a03", "is_reserved": 0, "rental_uris": {"android": "https://dc.lft.to/lastmile_qr_scan", "ios": "https://dc.lft.to/lastmile_qr_scan"}, "fusion_lon": 0.0}, {"lat": 38.89901233333333, "is_disabled": 0, "type": "electric_scooter", "lon": -76.9842475, "bike_id": "a612a596e65ca92c16b83ab9dae3baaf", "fusion_lat": 0.0, "name": "a612a596e65ca92c16b83ab9dae3baaf", "is_reserved": 0, "rental_uris": {"android": "https://dc.lft.to/lastmile_qr_scan", "ios": "https://dc.lft.to/lastmile_qr_scan"}, "fusion_lon": 0.0}, {"lat": 38.920649166666664, "is_disabled": 0, "type": "electric_scooter", "lon": -77.03398666666666, "bike_id": "9c5a3708a99f3b3f1cec8b53cb2a202e", "fusion_lat": 0.0, "name": "9c5a3708a99f3b3f1cec8b53cb2a202e", "is_reserved": 0, "rental_uris": {"android": "https://dc.lft.to/lastmile_qr_scan", "ios": "https://dc.lft.to/lastmile_qr_scan"}, "fusion_lon": 0.0}, {"lat": 38.897398, "is_disabled": 0, "type": "electric_scooter", "lon": -76.94720716666667, "bike_id": "080a4a2a5625488052953cfd5f48ac89", "fusion_lat": 0.0, "name": "080a4a2a5625488052953cfd5f48ac89", "is_reserved": 0, "rental_uris": {"android": "https://dc.lft.to/lastmile_qr_scan", "ios": "https://dc.lft.to/lastmile_qr_scan"}, "fusion_lon": 0.0}, {"lat": 38.905241, "is_disabled": 0, "type": "electric_scooter", "lon": -77.06100466666666, "bike_id": "a3399bc957d0a331db86dd58e5224289", "fusion_lat": 0.0, "name": "a3399bc957d0a331db86dd58e5224289", "is_reserved": 0, "rental_uris": {"android": "https://dc.lft.to/lastmile_qr_scan", "ios": "https://dc.lft.to/lastmile_qr_scan"}, "fusion_lon": 0.0}, {"lat": 38.90215116666667, "is_disabled": 0, "type": "electric_scooter", "lon": -77.02319466666667, "bike_id": "a332de5b5ab4a1fd56450352bb3872ac", "fusion_lat": 0.0, "name": "a332de5b5ab4a1fd56450352bb3872ac", "is_reserved": 0, "rental_uris": {"android": "https://dc.lft.to/lastmile_qr_scan", "ios": "https://dc.lft.to/lastmile_qr_scan"}, "fusion_lon": 0.0}, {"lat": 38.914187, "is_disabled": 0, "type": "electric_scooter", "lon": -77.035345, "bike_id": "1a8b0c6c5dd02e832d18dfce8534259d", "fusion_lat": 0.0, "name": "1a8b0c6c5dd02e832d18dfce8534259d", "is_reserved": 0, "rental_uris": {"android": "https://dc.lft.to/lastmile_qr_scan", "ios": "https://dc.lft.to/lastmile_qr_scan"}, "fusion_lon": 0.0}, {"lat": 38.88216366666666, "is_disabled": 0, "type": "electric_scooter", "lon": -76.99039716666667, "bike_id": "acf6e9e033bcba6553f9c924afedacf4", "fusion_lat": 0.0, "name": "acf6e9e033bcba6553f9c924afedacf4", "is_reserved": 0, "rental_uris": {"android": "https://dc.lft.to/lastmile_qr_scan", "ios": "https://dc.lft.to/lastmile_qr_scan"}, "fusion_lon": 0.0}, {"lat": 38.89676516666667, "is_disabled": 0, "type": "electric_scooter", "lon": -77.00516633333334, "bike_id": "33283cce96135d6437f2c2f1d8a990b8", "fusion_lat": 0.0, "name": "33283cce96135d6437f2c2f1d8a990b8", "is_reserved": 0, "rental_uris": {"android": "https://dc.lft.to/lastmile_qr_scan", "ios": "https://dc.lft.to/lastmile_qr_scan"}, "fusion_lon": 0.0}, {"lat": 38.9190955, "is_disabled": 0, "type": "electric_scooter", "lon": -77.04630683333333, "bike_id": "dfbfc7be098860d69ef86c2c1353a169", "fusion_lat": 0.0, "name": "dfbfc7be098860d69ef86c2c1353a169", "is_reserved": 0, "rental_uris": {"android": "https://dc.lft.to/lastmile_qr_scan", "ios": "https://dc.lft.to/lastmile_qr_scan"}, "fusion_lon": 0.0}, {"lat": 38.909630666666665, "is_disabled": 0, "type": "electric_scooter", "lon": -77.03725633333333, "bike_id": "81cbc0aea81d1e5f0c2dd9097499ac6c", "fusion_lat": 0.0, "name": "81cbc0aea81d1e5f0c2dd9097499ac6c", "is_reserved": 0, "rental_uris": {"android": "https://dc.lft.to/lastmile_qr_scan", "ios": "https://dc.lft.to/lastmile_qr_scan"}, "fusion_lon": 0.0}, {"lat": 38.865216833333335, "is_disabled": 0, "type": "electric_scooter", "lon": -76.9903035, "bike_id": "4e2d2202e859e2f36fb4fee862f933e8", "fusion_lat": 0.0, "name": "4e2d2202e859e2f36fb4fee862f933e8", "is_reserved": 0, "rental_uris": {"android": "https://dc.lft.to/lastmile_qr_scan", "ios": "https://dc.lft.to/lastmile_qr_scan"}, "fusion_lon": 0.0}, {"lat": 38.87685583333333, "is_disabled": 0, "type": "electric_scooter", "lon": -77.01791766666666, "bike_id": "c3114e305774c517a0ecd60c4efa2678", "fusion_lat": 0.0, "name": "c3114e305774c517a0ecd60c4efa2678", "is_reserved": 0, "rental_uris": {"android": "https://dc.lft.to/lastmile_qr_scan", "ios": "https://dc.lft.to/lastmile_qr_scan"}, "fusion_lon": 0.0}, {"lat": 38.90346783333333, "is_disabled": 0, "type": "electric_scooter", "lon": -77.025317, "bike_id": "6bf57b3387cdac37e1e56cc0dceaeaa9", "fusion_lat": 0.0, "name": "6bf57b3387cdac37e1e56cc0dceaeaa9", "is_reserved": 0, "rental_uris": {"android": "https://dc.lft.to/lastmile_qr_scan", "ios": "https://dc.lft.to/lastmile_qr_scan"}, "fusion_lon": 0.0}, {"lat": 38.90478366666667, "is_disabled": 0, "type": "electric_scooter", "lon": -77.03220283333333, "bike_id": "56ff497e5a3e4ac36fa2915b5d3370ee", "fusion_lat": 0.0, "name": "56ff497e5a3e4ac36fa2915b5d3370ee", "is_reserved": 0, "rental_uris": {"android": "https://dc.lft.to/lastmile_qr_scan", "ios": "https://dc.lft.to/lastmile_qr_scan"}, "fusion_lon": 0.0}, {"lat": 38.82571516666667, "is_disabled": 0, "type": "electric_scooter", "lon": -76.999785, "bike_id": "9efce2be3812f44ace585dc3075352bc", "fusion_lat": 0.0, "name": "9efce2be3812f44ace585dc3075352bc", "is_reserved": 0, "rental_uris": {"android": "https://dc.lft.to/lastmile_qr_scan", "ios": "https://dc.lft.to/lastmile_qr_scan"}, "fusion_lon": 0.0}, {"lat": 38.91925616666666, "is_disabled": 0, "type": "electric_scooter", "lon": -77.03128616666666, "bike_id": "be2b0c00f04705c5a688bfd1d556da85", "fusion_lat": 0.0, "name": "be2b0c00f04705c5a688bfd1d556da85", "is_reserved": 0, "rental_uris": {"android": "https://dc.lft.to/lastmile_qr_scan", "ios": "https://dc.lft.to/lastmile_qr_scan"}, "fusion_lon": 0.0}, {"lat": 38.9050715, "is_disabled": 0, "type": "electric_scooter", "lon": -77.05816716666666, "bike_id": "85aa30e911e0c94031bf80ab915f1da6", "fusion_lat": 0.0, "name": "85aa30e911e0c94031bf80ab915f1da6", "is_reserved": 0, "rental_uris": {"android": "https://dc.lft.to/lastmile_qr_scan", "ios": "https://dc.lft.to/lastmile_qr_scan"}, "fusion_lon": 0.0}, {"lat": 38.90966066666667, "is_disabled": 0, "type": "electric_scooter", "lon": -77.04799316666667, "bike_id": "6c7df8bf663629acabc1a848b43893b2", "fusion_lat": 0.0, "name": "6c7df8bf663629acabc1a848b43893b2", "is_reserved": 0, "rental_uris": {"android": "https://dc.lft.to/lastmile_qr_scan", "ios": "https://dc.lft.to/lastmile_qr_scan"}, "fusion_lon": 0.0}, {"lat": 38.90775983333333, "is_disabled": 0, "type": "electric_scooter", "lon": -77.069304, "bike_id": "539888421398b6a0a60c756ed9111bed", "fusion_lat": 0.0, "name": "539888421398b6a0a60c756ed9111bed", "is_reserved": 0, "rental_uris": {"android": "https://dc.lft.to/lastmile_qr_scan", "ios": "https://dc.lft.to/lastmile_qr_scan"}, "fusion_lon": 0.0}, {"lat": 38.925299833333334, "is_disabled": 0, "type": "electric_scooter", "lon": -77.00757783333333, "bike_id": "3f4f16fd53c505ef7a71972e6e56131d", "fusion_lat": 0.0, "name": "3f4f16fd53c505ef7a71972e6e56131d", "is_reserved": 0, "rental_uris": {"android": "https://dc.lft.to/lastmile_qr_scan", "ios": "https://dc.lft.to/lastmile_qr_scan"}, "fusion_lon": 0.0}, {"lat": 38.8849125, "is_disabled": 0, "type": "electric_scooter", "lon": -77.00708583333333, "bike_id": "91d8a6cf5e7411c09c2ea69936036dc7", "fusion_lat": 0.0, "name": "91d8a6cf5e7411c09c2ea69936036dc7", "is_reserved": 0, "rental_uris": {"android": "https://dc.lft.to/lastmile_qr_scan", "ios": "https://dc.lft.to/lastmile_qr_scan"}, "fusion_lon": 0.0}, {"lat": 38.917843500000004, "is_disabled": 0, "type": "electric_scooter", "lon": -77.02314433333333, "bike_id": "474fb5b08da4429a817d6f390ac5ae5c", "fusion_lat": 0.0, "name": "474fb5b08da4429a817d6f390ac5ae5c", "is_reserved": 0, "rental_uris": {"android": "https://dc.lft.to/lastmile_qr_scan", "ios": "https://dc.lft.to/lastmile_qr_scan"}, "fusion_lon": 0.0}, {"lat": 38.901749833333334, "is_disabled": 0, "type": "electric_scooter", "lon": -76.98037383333333, "bike_id": "7778562fa2dae1e31339d9e62c58a796", "fusion_lat": 0.0, "name": "7778562fa2dae1e31339d9e62c58a796", "is_reserved": 0, "rental_uris": {"android": "https://dc.lft.to/lastmile_qr_scan", "ios": "https://dc.lft.to/lastmile_qr_scan"}, "fusion_lon": 0.0}, {"lat": 38.906456, "is_disabled": 0, "type": "electric_scooter", "lon": -77.04665616666666, "bike_id": "7201375c982bcb901c22fb98b8eba61c", "fusion_lat": 0.0, "name": "7201375c982bcb901c22fb98b8eba61c", "is_reserved": 0, "rental_uris": {"android": "https://dc.lft.to/lastmile_qr_scan", "ios": "https://dc.lft.to/lastmile_qr_scan"}, "fusion_lon": 0.0}, {"lat": 38.902271666666664, "is_disabled": 0, "type": "electric_scooter", "lon": -77.01812, "bike_id": "1bd2dbdfb35cdae0cdf52f06e4952957", "fusion_lat": 0.0, "name": "1bd2dbdfb35cdae0cdf52f06e4952957", "is_reserved": 0, "rental_uris": {"android": "https://dc.lft.to/lastmile_qr_scan", "ios": "https://dc.lft.to/lastmile_qr_scan"}, "fusion_lon": 0.0}, {"lat": 38.916695833333335, "is_disabled": 0, "type": "electric_scooter", "lon": -77.00663833333333, "bike_id": "02fb9183715a0d9aa68f13ce9be149b4", "fusion_lat": 0.0, "name": "02fb9183715a0d9aa68f13ce9be149b4", "is_reserved": 0, "rental_uris": {"android": "https://dc.lft.to/lastmile_qr_scan", "ios": "https://dc.lft.to/lastmile_qr_scan"}, "fusion_lon": 0.0}, {"lat": 38.92092916666667, "is_disabled": 0, "type": "electric_scooter", "lon": -77.02183433333333, "bike_id": "fa3e84b40f1f007e2e2ac505ad115a5f", "fusion_lat": 0.0, "name": "fa3e84b40f1f007e2e2ac505ad115a5f", "is_reserved": 0, "rental_uris": {"android": "https://dc.lft.to/lastmile_qr_scan", "ios": "https://dc.lft.to/lastmile_qr_scan"}, "fusion_lon": 0.0}, {"lat": 38.92153916666667, "is_disabled": 0, "type": "electric_scooter", "lon": -77.03509466666667, "bike_id": "77be1b746a6a8f12280a23d9ce352b78", "fusion_lat": 0.0, "name": "77be1b746a6a8f12280a23d9ce352b78", "is_reserved": 0, "rental_uris": {"android": "https://dc.lft.to/lastmile_qr_scan", "ios": "https://dc.lft.to/lastmile_qr_scan"}, "fusion_lon": 0.0}, {"lat": 38.8429145, "is_disabled": 0, "type": "electric_scooter", "lon": -76.99948183333333, "bike_id": "da94b652dadf5272b0b5f6b1f45cb06e", "fusion_lat": 0.0, "name": "da94b652dadf5272b0b5f6b1f45cb06e", "is_reserved": 0, "rental_uris": {"android": "https://dc.lft.to/lastmile_qr_scan", "ios": "https://dc.lft.to/lastmile_qr_scan"}, "fusion_lon": 0.0}, {"lat": 38.92195616666667, "is_disabled": 0, "type": "electric_scooter", "lon": -76.99622616666667, "bike_id": "24c6eb5b9a85e7720c42be37954c96e1", "fusion_lat": 0.0, "name": "24c6eb5b9a85e7720c42be37954c96e1", "is_reserved": 0, "rental_uris": {"android": "https://dc.lft.to/lastmile_qr_scan", "ios": "https://dc.lft.to/lastmile_qr_scan"}, "fusion_lon": 0.0}, {"lat": 38.9940675, "is_disabled": 0, "type": "electric_bike", "lon": -77.032511, "bike_id": "3b5baad687fa810a5d8cc526a51b419e", "fusion_lat": 0.0, "name": "3b5baad687fa810a5d8cc526a51b419e", "is_reserved": 0, "rental_uris": {"android": "https://dc.lft.to/lastmile_qr_scan", "ios": "https://dc.lft.to/lastmile_qr_scan"}, "fusion_lon": 0.0}, {"lat": 38.8715265, "is_disabled": 0, "type": "electric_bike", "lon": -76.9366825, "bike_id": "e80125029b70a4b4b47ccc2720f005db", "fusion_lat": 0.0, "name": "e80125029b70a4b4b47ccc2720f005db", "is_reserved": 0, "rental_uris": {"android": "https://dc.lft.to/lastmile_qr_scan", "ios": "https://dc.lft.to/lastmile_qr_scan"}, "fusion_lon": 0.0}, {"lat": 38.90817466666667, "is_disabled": 0, "type": "electric_scooter", "lon": -76.99710066666667, "bike_id": "bf0b00c279bec60cd079a88e595c478d", "fusion_lat": 0.0, "name": "bf0b00c279bec60cd079a88e595c478d", "is_reserved": 0, "rental_uris": {"android": "https://dc.lft.to/lastmile_qr_scan", "ios": "https://dc.lft.to/lastmile_qr_scan"}, "fusion_lon": 0.0}, {"lat": 38.9227925, "is_disabled": 0, "type": "electric_scooter", "lon": -77.042432, "bike_id": "858f0df0029480a270033d318d410781", "fusion_lat": 0.0, "name": "858f0df0029480a270033d318d410781", "is_reserved": 0, "rental_uris": {"android": "https://dc.lft.to/lastmile_qr_scan", "ios": "https://dc.lft.to/lastmile_qr_scan"}, "fusion_lon": 0.0}, {"lat": 38.94501833333333, "is_disabled": 0, "type": "electric_bike", "lon": -77.00679166666667, "bike_id": "f41dd65bac835a7bb97835fb4e3dd15d", "fusion_lat": 0.0, "name": "f41dd65bac835a7bb97835fb4e3dd15d", "is_reserved": 0, "rental_uris": {"android": "https://dc.lft.to/lastmile_qr_scan", "ios": "https://dc.lft.to/lastmile_qr_scan"}, "fusion_lon": 0.0}, {"lat": 38.93417783333334, "is_disabled": 0, "type": "electric_scooter", "lon": -77.02042483333334, "bike_id": "201e566e9d52088b664213baf6a13a00", "fusion_lat": 0.0, "name": "201e566e9d52088b664213baf6a13a00", "is_reserved": 0, "rental_uris": {"android": "https://dc.lft.to/lastmile_qr_scan", "ios": "https://dc.lft.to/lastmile_qr_scan"}, "fusion_lon": 0.0}, {"lat": 38.88890633333333, "is_disabled": 0, "type": "electric_scooter", "lon": -76.93154966666667, "bike_id": "22c4720b7066fa5ec71559792b73f862", "fusion_lat": 0.0, "name": "22c4720b7066fa5ec71559792b73f862", "is_reserved": 0, "rental_uris": {"android": "https://dc.lft.to/lastmile_qr_scan", "ios": "https://dc.lft.to/lastmile_qr_scan"}, "fusion_lon": 0.0}, {"lat": 38.9198335, "is_disabled": 0, "type": "electric_scooter", "lon": -77.01209566666667, "bike_id": "b795702bd1a180b2929ef1dc3f74bbd6", "fusion_lat": 0.0, "name": "b795702bd1a180b2929ef1dc3f74bbd6", "is_reserved": 0, "rental_uris": {"android": "https://dc.lft.to/lastmile_qr_scan", "ios": "https://dc.lft.to/lastmile_qr_scan"}, "fusion_lon": 0.0}, {"lat": 38.94430166666667, "is_disabled": 0, "type": "electric_scooter", "lon": -77.06304416666667, "bike_id": "85881dadfd952da58ed808270ba29c61", "fusion_lat": 0.0, "name": "85881dadfd952da58ed808270ba29c61", "is_reserved": 0, "rental_uris": {"android": "https://dc.lft.to/lastmile_qr_scan", "ios": "https://dc.lft.to/lastmile_qr_scan"}, "fusion_lon": 0.0}, {"lat": 38.96627733333333, "is_disabled": 0, "type": "electric_bike", "lon": -76.97670916666667, "bike_id": "e28343d3a93b1ffb6a07c65a08766147", "fusion_lat": 0.0, "name": "e28343d3a93b1ffb6a07c65a08766147", "is_reserved": 0, "rental_uris": {"android": "https://dc.lft.to/lastmile_qr_scan", "ios": "https://dc.lft.to/lastmile_qr_scan"}, "fusion_lon": 0.0}, {"lat": 38.9094825, "is_disabled": 0, "type": "electric_scooter", "lon": -77.04662683333333, "bike_id": "6975713863df052a04ca9e4dae212e37", "fusion_lat": 0.0, "name": "6975713863df052a04ca9e4dae212e37", "is_reserved": 0, "rental_uris": {"android": "https://dc.lft.to/lastmile_qr_scan", "ios": "https://dc.lft.to/lastmile_qr_scan"}, "fusion_lon": 0.0}, {"lat": 38.966336166666665, "is_disabled": 0, "type": "electric_scooter", "lon": -77.01998533333334, "bike_id": "d93612ea86eb01e5a4a5747adb72a2f3", "fusion_lat": 0.0, "name": "d93612ea86eb01e5a4a5747adb72a2f3", "is_reserved": 0, "rental_uris": {"android": "https://dc.lft.to/lastmile_qr_scan", "ios": "https://dc.lft.to/lastmile_qr_scan"}, "fusion_lon": 0.0}, {"lat": 38.941356, "is_disabled": 0, "type": "electric_scooter", "lon": -77.07613266666667, "bike_id": "4ac0aaae8b0559243c012817c796ebab", "fusion_lat": 0.0, "name": "4ac0aaae8b0559243c012817c796ebab", "is_reserved": 0, "rental_uris": {"android": "https://dc.lft.to/lastmile_qr_scan", "ios": "https://dc.lft.to/lastmile_qr_scan"}, "fusion_lon": 0.0}, {"lat": 38.893977666666665, "is_disabled": 0, "type": "electric_scooter", "lon": -77.05587733333333, "bike_id": "5c8310ddcedaed15cd4192e4b99cbc2e", "fusion_lat": 0.0, "name": "5c8310ddcedaed15cd4192e4b99cbc2e", "is_reserved": 0, "rental_uris": {"android": "https://dc.lft.to/lastmile_qr_scan", "ios": "https://dc.lft.to/lastmile_qr_scan"}, "fusion_lon": 0.0}, {"lat": 38.915042166666666, "is_disabled": 0, "type": "electric_scooter", "lon": -76.98376333333333, "bike_id": "e1ccaaf9d3a9f2b7d2740d3235fa974f", "fusion_lat": 0.0, "name": "e1ccaaf9d3a9f2b7d2740d3235fa974f", "is_reserved": 0, "rental_uris": {"android": "https://dc.lft.to/lastmile_qr_scan", "ios": "https://dc.lft.to/lastmile_qr_scan"}, "fusion_lon": 0.0}, {"lat": 38.91999, "is_disabled": 0, "type": "electric_scooter", "lon": -77.03226383333333, "bike_id": "eca96a12a8fad588269967d7330995a4", "fusion_lat": 0.0, "name": "eca96a12a8fad588269967d7330995a4", "is_reserved": 0, "rental_uris": {"android": "https://dc.lft.to/lastmile_qr_scan", "ios": "https://dc.lft.to/lastmile_qr_scan"}, "fusion_lon": 0.0}, {"lat": 38.90710633333333, "is_disabled": 0, "type": "electric_scooter", "lon": -77.04360166666666, "bike_id": "08cae8d100040d666111ff6a326dd00b", "fusion_lat": 0.0, "name": "08cae8d100040d666111ff6a326dd00b", "is_reserved": 0, "rental_uris": {"android": "https://dc.lft.to/lastmile_qr_scan", "ios": "https://dc.lft.to/lastmile_qr_scan"}, "fusion_lon": 0.0}, {"lat": 38.92751766666667, "is_disabled": 0, "type": "electric_scooter", "lon": -77.02310433333334, "bike_id": "23c6c2dac9570d8f940aee1f3d4b5555", "fusion_lat": 0.0, "name": "23c6c2dac9570d8f940aee1f3d4b5555", "is_reserved": 0, "rental_uris": {"android": "https://dc.lft.to/lastmile_qr_scan", "ios": "https://dc.lft.to/lastmile_qr_scan"}, "fusion_lon": 0.0}, {"lat": 38.9358465, "is_disabled": 0, "type": "electric_bike", "lon": -77.106805, "bike_id": "4fdc770e796a716fc3fd8362be0f7732", "fusion_lat": 0.0, "name": "4fdc770e796a716fc3fd8362be0f7732", "is_reserved": 0, "rental_uris": {"android": "https://dc.lft.to/lastmile_qr_scan", "ios": "https://dc.lft.to/lastmile_qr_scan"}, "fusion_lon": 0.0}, {"lat": 38.90259233333333, "is_disabled": 0, "type": "electric_scooter", "lon": -77.02062516666666, "bike_id": "42c8ff7becd13f587f749cbd560f16f0", "fusion_lat": 0.0, "name": "42c8ff7becd13f587f749cbd560f16f0", "is_reserved": 0, "rental_uris": {"android": "https://dc.lft.to/lastmile_qr_scan", "ios": "https://dc.lft.to/lastmile_qr_scan"}, "fusion_lon": 0.0}, {"lat": 38.91800883333333, "is_disabled": 0, "type": "electric_scooter", "lon": -77.03192866666667, "bike_id": "42a6e90256441a64953b2a1edee076ec", "fusion_lat": 0.0, "name": "42a6e90256441a64953b2a1edee076ec", "is_reserved": 0, "rental_uris": {"android": "https://dc.lft.to/lastmile_qr_scan", "ios": "https://dc.lft.to/lastmile_qr_scan"}, "fusion_lon": 0.0}, {"lat": 38.88777966666667, "is_disabled": 0, "type": "electric_scooter", "lon": -76.976444, "bike_id": "a208ba4f1e324fcaef371c937eda1328", "fusion_lat": 0.0, "name": "a208ba4f1e324fcaef371c937eda1328", "is_reserved": 0, "rental_uris": {"android": "https://dc.lft.to/lastmile_qr_scan", "ios": "https://dc.lft.to/lastmile_qr_scan"}, "fusion_lon": 0.0}, {"lat": 38.996150166666666, "is_disabled": 0, "type": "electric_scooter", "lon": -77.03228683333333, "bike_id": "e61522cde6957d2304bdfc49116e3be4", "fusion_lat": 0.0, "name": "e61522cde6957d2304bdfc49116e3be4", "is_reserved": 0, "rental_uris": {"android": "https://dc.lft.to/lastmile_qr_scan", "ios": "https://dc.lft.to/lastmile_qr_scan"}, "fusion_lon": 0.0}, {"lat": 38.86407666666667, "is_disabled": 0, "type": "electric_bike", "lon": -76.974315, "bike_id": "4b8959a0b48bbcf913cfc28e1177840f", "fusion_lat": 0.0, "name": "4b8959a0b48bbcf913cfc28e1177840f", "is_reserved": 0, "rental_uris": {"android": "https://dc.lft.to/lastmile_qr_scan", "ios": "https://dc.lft.to/lastmile_qr_scan"}, "fusion_lon": 0.0}, {"lat": 38.907023333333335, "is_disabled": 0, "type": "electric_scooter", "lon": -76.99815166666667, "bike_id": "0579a14afef69c93ca541fff7d0a1290", "fusion_lat": 0.0, "name": "0579a14afef69c93ca541fff7d0a1290", "is_reserved": 0, "rental_uris": {"android": "https://dc.lft.to/lastmile_qr_scan", "ios": "https://dc.lft.to/lastmile_qr_scan"}, "fusion_lon": 0.0}, {"lat": 38.90970733333333, "is_disabled": 0, "type": "electric_scooter", "lon": -77.04519633333334, "bike_id": "dfa61726664401202cb6e1bf5778c7f4", "fusion_lat": 0.0, "name": "dfa61726664401202cb6e1bf5778c7f4", "is_reserved": 0, "rental_uris": {"android": "https://dc.lft.to/lastmile_qr_scan", "ios": "https://dc.lft.to/lastmile_qr_scan"}, "fusion_lon": 0.0}, {"lat": 38.95412483333333, "is_disabled": 0, "type": "electric_scooter", "lon": -77.02798083333333, "bike_id": "8e99d3db0e62b36cb346ac6f5b9f4831", "fusion_lat": 0.0, "name": "8e99d3db0e62b36cb346ac6f5b9f4831", "is_reserved": 0, "rental_uris": {"android": "https://dc.lft.to/lastmile_qr_scan", "ios": "https://dc.lft.to/lastmile_qr_scan"}, "fusion_lon": 0.0}, {"lat": 38.90136566666666, "is_disabled": 0, "type": "electric_scooter", "lon": -77.01620266666667, "bike_id": "e26901996ae42fbda1fbd73980444608", "fusion_lat": 0.0, "name": "e26901996ae42fbda1fbd73980444608", "is_reserved": 0, "rental_uris": {"android": "https://dc.lft.to/lastmile_qr_scan", "ios": "https://dc.lft.to/lastmile_qr_scan"}, "fusion_lon": 0.0}, {"lat": 38.902708, "is_disabled": 0, "type": "electric_scooter", "lon": -77.0459835, "bike_id": "0fae2eec9dd3e5993a6679dbc465b0cd", "fusion_lat": 0.0, "name": "0fae2eec9dd3e5993a6679dbc465b0cd", "is_reserved": 0, "rental_uris": {"android": "https://dc.lft.to/lastmile_qr_scan", "ios": "https://dc.lft.to/lastmile_qr_scan"}, "fusion_lon": 0.0}, {"lat": 38.91332633333333, "is_disabled": 0, "type": "electric_scooter", "lon": -77.04815633333334, "bike_id": "7e0f11e1da5e28f1eff393d6ae7fd3cf", "fusion_lat": 0.0, "name": "7e0f11e1da5e28f1eff393d6ae7fd3cf", "is_reserved": 0, "rental_uris": {"android": "https://dc.lft.to/lastmile_qr_scan", "ios": "https://dc.lft.to/lastmile_qr_scan"}, "fusion_lon": 0.0}, {"lat": 38.91716016666667, "is_disabled": 0, "type": "electric_scooter", "lon": -77.032316, "bike_id": "77e530c3f21f461830c847799b1dd6c1", "fusion_lat": 0.0, "name": "77e530c3f21f461830c847799b1dd6c1", "is_reserved": 0, "rental_uris": {"android": "https://dc.lft.to/lastmile_qr_scan", "ios": "https://dc.lft.to/lastmile_qr_scan"}, "fusion_lon": 0.0}, {"lat": 38.93245666666667, "is_disabled": 0, "type": "electric_scooter", "lon": -77.032737, "bike_id": "e732ed3f791a0f106f3f0506daf32fdf", "fusion_lat": 0.0, "name": "e732ed3f791a0f106f3f0506daf32fdf", "is_reserved": 0, "rental_uris": {"android": "https://dc.lft.to/lastmile_qr_scan", "ios": "https://dc.lft.to/lastmile_qr_scan"}, "fusion_lon": 0.0}, {"lat": 38.90047066666666, "is_disabled": 0, "type": "electric_scooter", "lon": -77.0019475, "bike_id": "40a45a56875fe28447127a40c1fd4869", "fusion_lat": 0.0, "name": "40a45a56875fe28447127a40c1fd4869", "is_reserved": 0, "rental_uris": {"android": "https://dc.lft.to/lastmile_qr_scan", "ios": "https://dc.lft.to/lastmile_qr_scan"}, "fusion_lon": 0.0}, {"lat": 38.93269216666667, "is_disabled": 0, "type": "electric_scooter", "lon": -77.03279166666667, "bike_id": "4080e70aa43412341228855bd315d371", "fusion_lat": 0.0, "name": "4080e70aa43412341228855bd315d371", "is_reserved": 0, "rental_uris": {"android": "https://dc.lft.to/lastmile_qr_scan", "ios": "https://dc.lft.to/lastmile_qr_scan"}, "fusion_lon": 0.0}, {"lat": 38.912640333333336, "is_disabled": 0, "type": "electric_scooter", "lon": -77.03086833333333, "bike_id": "4bf7ba8a866bcdd8a0ae59bb7c9038d4", "fusion_lat": 0.0, "name": "4bf7ba8a866bcdd8a0ae59bb7c9038d4", "is_reserved": 0, "rental_uris": {"android": "https://dc.lft.to/lastmile_qr_scan", "ios": "https://dc.lft.to/lastmile_qr_scan"}, "fusion_lon": 0.0}, {"lat": 38.8975905, "is_disabled": 0, "type": "electric_scooter", "lon": -77.0185685, "bike_id": "51135734bc2c8a0916dd792b60f4c703", "fusion_lat": 0.0, "name": "51135734bc2c8a0916dd792b60f4c703", "is_reserved": 0, "rental_uris": {"android": "https://dc.lft.to/lastmile_qr_scan", "ios": "https://dc.lft.to/lastmile_qr_scan"}, "fusion_lon": 0.0}, {"lat": 38.91582, "is_disabled": 0, "type": "electric_scooter", "lon": -77.03203266666667, "bike_id": "6130a150abeb5d3f3a2e33438116acce", "fusion_lat": 0.0, "name": "6130a150abeb5d3f3a2e33438116acce", "is_reserved": 0, "rental_uris": {"android": "https://dc.lft.to/lastmile_qr_scan", "ios": "https://dc.lft.to/lastmile_qr_scan"}, "fusion_lon": 0.0}, {"lat": 38.92277766666667, "is_disabled": 0, "type": "electric_scooter", "lon": -77.0367285, "bike_id": "535281294596df81c4b9cff1f2e5e90a", "fusion_lat": 0.0, "name": "535281294596df81c4b9cff1f2e5e90a", "is_reserved": 0, "rental_uris": {"android": "https://dc.lft.to/lastmile_qr_scan", "ios": "https://dc.lft.to/lastmile_qr_scan"}, "fusion_lon": 0.0}, {"lat": 38.92226316666667, "is_disabled": 0, "type": "electric_scooter", "lon": -77.04236033333333, "bike_id": "a4de198c4fc6ae3de6df9634c306c4a1", "fusion_lat": 0.0, "name": "a4de198c4fc6ae3de6df9634c306c4a1", "is_reserved": 0, "rental_uris": {"android": "https://dc.lft.to/lastmile_qr_scan", "ios": "https://dc.lft.to/lastmile_qr_scan"}, "fusion_lon": 0.0}, {"lat": 38.90528166666667, "is_disabled": 0, "type": "electric_scooter", "lon": -76.9862445, "bike_id": "7ec906d713bd51490b0352f16f6a6f0c", "fusion_lat": 0.0, "name": "7ec906d713bd51490b0352f16f6a6f0c", "is_reserved": 0, "rental_uris": {"android": "https://dc.lft.to/lastmile_qr_scan", "ios": "https://dc.lft.to/lastmile_qr_scan"}, "fusion_lon": 0.0}, {"lat": 38.92034566666667, "is_disabled": 0, "type": "electric_scooter", "lon": -77.038495, "bike_id": "bd19de8216983ed278ec974182152c79", "fusion_lat": 0.0, "name": "bd19de8216983ed278ec974182152c79", "is_reserved": 0, "rental_uris": {"android": "https://dc.lft.to/lastmile_qr_scan", "ios": "https://dc.lft.to/lastmile_qr_scan"}, "fusion_lon": 0.0}, {"lat": 38.86651166666667, "is_disabled": 0, "type": "electric_scooter", "lon": -76.9888635, "bike_id": "462400a1cfa24211c0307d10d8b9e83b", "fusion_lat": 0.0, "name": "462400a1cfa24211c0307d10d8b9e83b", "is_reserved": 0, "rental_uris": {"android": "https://dc.lft.to/lastmile_qr_scan", "ios": "https://dc.lft.to/lastmile_qr_scan"}, "fusion_lon": 0.0}, {"lat": 38.921906666666665, "is_disabled": 0, "type": "electric_scooter", "lon": -77.04706533333334, "bike_id": "d20d10326971d4dba25b0d41a942e6e9", "fusion_lat": 0.0, "name": "d20d10326971d4dba25b0d41a942e6e9", "is_reserved": 0, "rental_uris": {"android": "https://dc.lft.to/lastmile_qr_scan", "ios": "https://dc.lft.to/lastmile_qr_scan"}, "fusion_lon": 0.0}, {"lat": 38.954073666666666, "is_disabled": 0, "type": "electric_scooter", "lon": -77.02747633333334, "bike_id": "180faea178099b593674d1886f2eb419", "fusion_lat": 0.0, "name": "180faea178099b593674d1886f2eb419", "is_reserved": 0, "rental_uris": {"android": "https://dc.lft.to/lastmile_qr_scan", "ios": "https://dc.lft.to/lastmile_qr_scan"}, "fusion_lon": 0.0}, {"lat": 38.90527183333333, "is_disabled": 0, "type": "electric_scooter", "lon": -77.066117, "bike_id": "0aee24a1f38fca03fbfc70743622446d", "fusion_lat": 0.0, "name": "0aee24a1f38fca03fbfc70743622446d", "is_reserved": 0, "rental_uris": {"android": "https://dc.lft.to/lastmile_qr_scan", "ios": "https://dc.lft.to/lastmile_qr_scan"}, "fusion_lon": 0.0}, {"lat": 38.903846333333334, "is_disabled": 0, "type": "electric_scooter", "lon": -77.00266933333333, "bike_id": "70defc3cb3dea14a1d5b16717b27eb68", "fusion_lat": 0.0, "name": "70defc3cb3dea14a1d5b16717b27eb68", "is_reserved": 0, "rental_uris": {"android": "https://dc.lft.to/lastmile_qr_scan", "ios": "https://dc.lft.to/lastmile_qr_scan"}, "fusion_lon": 0.0}, {"lat": 38.92762316666666, "is_disabled": 0, "type": "electric_scooter", "lon": -77.032126, "bike_id": "18a6f9561dbb3c21e76a5cd17b92fa2a", "fusion_lat": 0.0, "name": "18a6f9561dbb3c21e76a5cd17b92fa2a", "is_reserved": 0, "rental_uris": {"android": "https://dc.lft.to/lastmile_qr_scan", "ios": "https://dc.lft.to/lastmile_qr_scan"}, "fusion_lon": 0.0}, {"lat": 38.95292166666667, "is_disabled": 0, "type": "electric_bike", "lon": -76.94591366666667, "bike_id": "d883b3096a5e5b868ac6694a61e39efb", "fusion_lat": 0.0, "name": "d883b3096a5e5b868ac6694a61e39efb", "is_reserved": 0, "rental_uris": {"android": "https://dc.lft.to/lastmile_qr_scan", "ios": "https://dc.lft.to/lastmile_qr_scan"}, "fusion_lon": 0.0}, {"lat": 38.939550833333335, "is_disabled": 0, "type": "electric_bike", "lon": -77.360981, "bike_id": "95c5f0384d288ad9d981697c24598d75", "fusion_lat": 0.0, "name": "95c5f0384d288ad9d981697c24598d75", "is_reserved": 0, "rental_uris": {"android": "https://dc.lft.to/lastmile_qr_scan", "ios": "https://dc.lft.to/lastmile_qr_scan"}, "fusion_lon": 0.0}, {"lat": 38.917329, "is_disabled": 0, "type": "electric_scooter", "lon": -77.02402466666666, "bike_id": "e7eecd72a049b55ce420e6e4784bf740", "fusion_lat": 0.0, "name": "e7eecd72a049b55ce420e6e4784bf740", "is_reserved": 0, "rental_uris": {"android": "https://dc.lft.to/lastmile_qr_scan", "ios": "https://dc.lft.to/lastmile_qr_scan"}, "fusion_lon": 0.0}, {"lat": 38.91704583333333, "is_disabled": 0, "type": "electric_scooter", "lon": -77.00116683333333, "bike_id": "7ced476f818dd0e5909b20fe2254bdc2", "fusion_lat": 0.0, "name": "7ced476f818dd0e5909b20fe2254bdc2", "is_reserved": 0, "rental_uris": {"android": "https://dc.lft.to/lastmile_qr_scan", "ios": "https://dc.lft.to/lastmile_qr_scan"}, "fusion_lon": 0.0}, {"lat": 38.895584666666664, "is_disabled": 0, "type": "electric_scooter", "lon": -76.93077633333333, "bike_id": "ce0ab840f6738d63cee1e46866b3df11", "fusion_lat": 0.0, "name": "ce0ab840f6738d63cee1e46866b3df11", "is_reserved": 0, "rental_uris": {"android": "https://dc.lft.to/lastmile_qr_scan", "ios": "https://dc.lft.to/lastmile_qr_scan"}, "fusion_lon": 0.0}, {"lat": 38.9202045, "is_disabled": 0, "type": "electric_scooter", "lon": -77.0388895, "bike_id": "c74712311914f78ee7699495f283b224", "fusion_lat": 0.0, "name": "c74712311914f78ee7699495f283b224", "is_reserved": 0, "rental_uris": {"android": "https://dc.lft.to/lastmile_qr_scan", "ios": "https://dc.lft.to/lastmile_qr_scan"}, "fusion_lon": 0.0}, {"lat": 38.93153783333333, "is_disabled": 0, "type": "electric_scooter", "lon": -77.02920833333333, "bike_id": "28377947df700fb8904aef6d1f385baa", "fusion_lat": 0.0, "name": "28377947df700fb8904aef6d1f385baa", "is_reserved": 0, "rental_uris": {"android": "https://dc.lft.to/lastmile_qr_scan", "ios": "https://dc.lft.to/lastmile_qr_scan"}, "fusion_lon": 0.0}, {"lat": 38.906040833333336, "is_disabled": 0, "type": "electric_scooter", "lon": -77.0468785, "bike_id": "dee174339917809cab0e56aa6224de4f", "fusion_lat": 0.0, "name": "dee174339917809cab0e56aa6224de4f", "is_reserved": 0, "rental_uris": {"android": "https://dc.lft.to/lastmile_qr_scan", "ios": "https://dc.lft.to/lastmile_qr_scan"}, "fusion_lon": 0.0}, {"lat": 38.899517833333334, "is_disabled": 0, "type": "electric_scooter", "lon": -77.04143033333334, "bike_id": "1337ed78557981e0d2b99ba0932b545d", "fusion_lat": 0.0, "name": "1337ed78557981e0d2b99ba0932b545d", "is_reserved": 0, "rental_uris": {"android": "https://dc.lft.to/lastmile_qr_scan", "ios": "https://dc.lft.to/lastmile_qr_scan"}, "fusion_lon": 0.0}, {"lat": 38.924316166666664, "is_disabled": 0, "type": "electric_scooter", "lon": -77.051788, "bike_id": "4ed596596adcd043215f2bfcd9668f4f", "fusion_lat": 0.0, "name": "4ed596596adcd043215f2bfcd9668f4f", "is_reserved": 0, "rental_uris": {"android": "https://dc.lft.to/lastmile_qr_scan", "ios": "https://dc.lft.to/lastmile_qr_scan"}, "fusion_lon": 0.0}, {"lat": 38.99412266666667, "is_disabled": 0, "type": "electric_bike", "lon": -77.0309985, "bike_id": "f9f8d76554634b490b5aa4eda6db5661", "fusion_lat": 0.0, "name": "f9f8d76554634b490b5aa4eda6db5661", "is_reserved": 0, "rental_uris": {"android": "https://dc.lft.to/lastmile_qr_scan", "ios": "https://dc.lft.to/lastmile_qr_scan"}, "fusion_lon": 0.0}, {"lat": 38.919872, "is_disabled": 0, "type": "electric_scooter", "lon": -76.97306983333333, "bike_id": "fbbc0c2d14c8b2c4575818ae12305958", "fusion_lat": 0.0, "name": "fbbc0c2d14c8b2c4575818ae12305958", "is_reserved": 0, "rental_uris": {"android": "https://dc.lft.to/lastmile_qr_scan", "ios": "https://dc.lft.to/lastmile_qr_scan"}, "fusion_lon": 0.0}, {"lat": 38.9160245, "is_disabled": 0, "type": "electric_scooter", "lon": -77.02406616666667, "bike_id": "2fd7657660047d4a9f018dd2a67af1a6", "fusion_lat": 0.0, "name": "2fd7657660047d4a9f018dd2a67af1a6", "is_reserved": 0, "rental_uris": {"android": "https://dc.lft.to/lastmile_qr_scan", "ios": "https://dc.lft.to/lastmile_qr_scan"}, "fusion_lon": 0.0}, {"lat": 38.90867766666667, "is_disabled": 0, "type": "electric_scooter", "lon": -77.04657183333333, "bike_id": "18b96544be93c4e43a555758f799c9c1", "fusion_lat": 0.0, "name": "18b96544be93c4e43a555758f799c9c1", "is_reserved": 0, "rental_uris": {"android": "https://dc.lft.to/lastmile_qr_scan", "ios": "https://dc.lft.to/lastmile_qr_scan"}, "fusion_lon": 0.0}, {"lat": 38.950064833333336, "is_disabled": 0, "type": "electric_scooter", "lon": -77.015679, "bike_id": "9185848a26f4000e1a2f9f5d9495c950", "fusion_lat": 0.0, "name": "9185848a26f4000e1a2f9f5d9495c950", "is_reserved": 0, "rental_uris": {"android": "https://dc.lft.to/lastmile_qr_scan", "ios": "https://dc.lft.to/lastmile_qr_scan"}, "fusion_lon": 0.0}, {"lat": 38.930868833333335, "is_disabled": 0, "type": "electric_scooter", "lon": -77.02796416666666, "bike_id": "f44fdaf12a2bc3a9d26afc646703cf82", "fusion_lat": 0.0, "name": "f44fdaf12a2bc3a9d26afc646703cf82", "is_reserved": 0, "rental_uris": {"android": "https://dc.lft.to/lastmile_qr_scan", "ios": "https://dc.lft.to/lastmile_qr_scan"}, "fusion_lon": 0.0}, {"lat": 38.900232833333334, "is_disabled": 0, "type": "electric_scooter", "lon": -76.998715, "bike_id": "72f7417d308cf0f2c87b6b005b636c41", "fusion_lat": 0.0, "name": "72f7417d308cf0f2c87b6b005b636c41", "is_reserved": 0, "rental_uris": {"android": "https://dc.lft.to/lastmile_qr_scan", "ios": "https://dc.lft.to/lastmile_qr_scan"}, "fusion_lon": 0.0}, {"lat": 38.92672533333333, "is_disabled": 0, "type": "electric_scooter", "lon": -77.0278225, "bike_id": "a97d0badf2bd4c5d5294c3e9f62d9353", "fusion_lat": 0.0, "name": "a97d0badf2bd4c5d5294c3e9f62d9353", "is_reserved": 0, "rental_uris": {"android": "https://dc.lft.to/lastmile_qr_scan", "ios": "https://dc.lft.to/lastmile_qr_scan"}, "fusion_lon": 0.0}, {"lat": 38.9347725, "is_disabled": 0, "type": "electric_scooter", "lon": -77.05791266666667, "bike_id": "d79ae50ad232a8fb694b4010c453c387", "fusion_lat": 0.0, "name": "d79ae50ad232a8fb694b4010c453c387", "is_reserved": 0, "rental_uris": {"android": "https://dc.lft.to/lastmile_qr_scan", "ios": "https://dc.lft.to/lastmile_qr_scan"}, "fusion_lon": 0.0}, {"lat": 38.90040783333333, "is_disabled": 0, "type": "electric_scooter", "lon": -77.001852, "bike_id": "c505cbe3023fac36518c9f059fb956a0", "fusion_lat": 0.0, "name": "c505cbe3023fac36518c9f059fb956a0", "is_reserved": 0, "rental_uris": {"android": "https://dc.lft.to/lastmile_qr_scan", "ios": "https://dc.lft.to/lastmile_qr_scan"}, "fusion_lon": 0.0}, {"lat": 38.858119, "is_disabled": 0, "type": "electric_scooter", "lon": -76.98651483333333, "bike_id": "40f94f6158aefc9b64748358492190ee", "fusion_lat": 0.0, "name": "40f94f6158aefc9b64748358492190ee", "is_reserved": 0, "rental_uris": {"android": "https://dc.lft.to/lastmile_qr_scan", "ios": "https://dc.lft.to/lastmile_qr_scan"}, "fusion_lon": 0.0}, {"lat": 38.9254745, "is_disabled": 0, "type": "electric_scooter", "lon": -77.0345065, "bike_id": "408113f11651b18f7a0799053d0ad84c", "fusion_lat": 0.0, "name": "408113f11651b18f7a0799053d0ad84c", "is_reserved": 0, "rental_uris": {"android": "https://dc.lft.to/lastmile_qr_scan", "ios": "https://dc.lft.to/lastmile_qr_scan"}, "fusion_lon": 0.0}, {"lat": 38.966171, "is_disabled": 0, "type": "electric_scooter", "lon": -77.0205575, "bike_id": "f2c531faec5e23c8b4c28a7f5522b06b", "fusion_lat": 0.0, "name": "f2c531faec5e23c8b4c28a7f5522b06b", "is_reserved": 0, "rental_uris": {"android": "https://dc.lft.to/lastmile_qr_scan", "ios": "https://dc.lft.to/lastmile_qr_scan"}, "fusion_lon": 0.0}, {"lat": 38.908266, "is_disabled": 0, "type": "electric_scooter", "lon": -76.94146216666667, "bike_id": "f36d84cc98550f6f71aa2f3714ad4565", "fusion_lat": 0.0, "name": "f36d84cc98550f6f71aa2f3714ad4565", "is_reserved": 0, "rental_uris": {"android": "https://dc.lft.to/lastmile_qr_scan", "ios": "https://dc.lft.to/lastmile_qr_scan"}, "fusion_lon": 0.0}, {"lat": 38.9158615, "is_disabled": 0, "type": "electric_scooter", "lon": -77.0318645, "bike_id": "7cfb518431b57fd376f573968a299cfa", "fusion_lat": 0.0, "name": "7cfb518431b57fd376f573968a299cfa", "is_reserved": 0, "rental_uris": {"android": "https://dc.lft.to/lastmile_qr_scan", "ios": "https://dc.lft.to/lastmile_qr_scan"}, "fusion_lon": 0.0}, {"lat": 38.884038333333336, "is_disabled": 0, "type": "electric_bike", "lon": -76.96056483333334, "bike_id": "46c0994d99ff6234c47c9d95235e25eb", "fusion_lat": 0.0, "name": "46c0994d99ff6234c47c9d95235e25eb", "is_reserved": 0, "rental_uris": {"android": "https://dc.lft.to/lastmile_qr_scan", "ios": "https://dc.lft.to/lastmile_qr_scan"}, "fusion_lon": 0.0}, {"lat": 38.924829833333334, "is_disabled": 0, "type": "electric_scooter", "lon": -77.02723116666667, "bike_id": "1c23adafb3c2450cee9c77c8c0bbedbf", "fusion_lat": 0.0, "name": "1c23adafb3c2450cee9c77c8c0bbedbf", "is_reserved": 0, "rental_uris": {"android": "https://dc.lft.to/lastmile_qr_scan", "ios": "https://dc.lft.to/lastmile_qr_scan"}, "fusion_lon": 0.0}, {"lat": 38.839846, "is_disabled": 0, "type": "electric_bike", "lon": -77.0056605, "bike_id": "6eafcd387e92a5a9c3db2fc8b78a823e", "fusion_lat": 0.0, "name": "6eafcd387e92a5a9c3db2fc8b78a823e", "is_reserved": 0, "rental_uris": {"android": "https://dc.lft.to/lastmile_qr_scan", "ios": "https://dc.lft.to/lastmile_qr_scan"}, "fusion_lon": 0.0}, {"lat": 38.917252833333336, "is_disabled": 0, "type": "electric_scooter", "lon": -77.04095116666667, "bike_id": "e4ae9c88c961e3caa0c2ed74aee36366", "fusion_lat": 0.0, "name": "e4ae9c88c961e3caa0c2ed74aee36366", "is_reserved": 0, "rental_uris": {"android": "https://dc.lft.to/lastmile_qr_scan", "ios": "https://dc.lft.to/lastmile_qr_scan"}, "fusion_lon": 0.0}, {"lat": 38.86667, "is_disabled": 0, "type": "electric_scooter", "lon": -76.990137, "bike_id": "5a0a96f5011689abf12cc7fdcca510de", "fusion_lat": 0.0, "name": "5a0a96f5011689abf12cc7fdcca510de", "is_reserved": 0, "rental_uris": {"android": "https://dc.lft.to/lastmile_qr_scan", "ios": "https://dc.lft.to/lastmile_qr_scan"}, "fusion_lon": 0.0}, {"lat": 38.900468833333335, "is_disabled": 0, "type": "electric_scooter", "lon": -76.9950535, "bike_id": "6c53f23b31bdac6c84c87b7ac5152dda", "fusion_lat": 0.0, "name": "6c53f23b31bdac6c84c87b7ac5152dda", "is_reserved": 0, "rental_uris": {"android": "https://dc.lft.to/lastmile_qr_scan", "ios": "https://dc.lft.to/lastmile_qr_scan"}, "fusion_lon": 0.0}, {"lat": 38.91794433333333, "is_disabled": 0, "type": "electric_scooter", "lon": -77.02262933333333, "bike_id": "92354d3b2ee25ac5ab959833fc2c02bd", "fusion_lat": 0.0, "name": "92354d3b2ee25ac5ab959833fc2c02bd", "is_reserved": 0, "rental_uris": {"android": "https://dc.lft.to/lastmile_qr_scan", "ios": "https://dc.lft.to/lastmile_qr_scan"}, "fusion_lon": 0.0}, {"lat": 38.967067166666666, "is_disabled": 0, "type": "electric_bike", "lon": -77.102209, "bike_id": "800c7d4e4957e2452d912a22c1e03cb7", "fusion_lat": 0.0, "name": "800c7d4e4957e2452d912a22c1e03cb7", "is_reserved": 0, "rental_uris": {"android": "https://dc.lft.to/lastmile_qr_scan", "ios": "https://dc.lft.to/lastmile_qr_scan"}, "fusion_lon": 0.0}, {"lat": 38.86160133333333, "is_disabled": 0, "type": "electric_bike", "lon": -77.13095683333333, "bike_id": "5113ac55e84ec2cb9aa9a263fe511331", "fusion_lat": 0.0, "name": "5113ac55e84ec2cb9aa9a263fe511331", "is_reserved": 0, "rental_uris": {"android": "https://dc.lft.to/lastmile_qr_scan", "ios": "https://dc.lft.to/lastmile_qr_scan"}, "fusion_lon": 0.0}, {"lat": 38.9087805, "is_disabled": 0, "type": "electric_scooter", "lon": -77.0434235, "bike_id": "44426905fe62d2740e103a47e4150a2d", "fusion_lat": 0.0, "name": "44426905fe62d2740e103a47e4150a2d", "is_reserved": 0, "rental_uris": {"android": "https://dc.lft.to/lastmile_qr_scan", "ios": "https://dc.lft.to/lastmile_qr_scan"}, "fusion_lon": 0.0}, {"lat": 38.91348266666667, "is_disabled": 0, "type": "electric_scooter", "lon": -77.0318465, "bike_id": "24540ba14ea5bf92456127d5b914d447", "fusion_lat": 0.0, "name": "24540ba14ea5bf92456127d5b914d447", "is_reserved": 0, "rental_uris": {"android": "https://dc.lft.to/lastmile_qr_scan", "ios": "https://dc.lft.to/lastmile_qr_scan"}, "fusion_lon": 0.0}, {"lat": 38.942015166666664, "is_disabled": 0, "type": "electric_scooter", "lon": -77.01828816666666, "bike_id": "33ccdf7a8d99a01f56cc2060404be18c", "fusion_lat": 0.0, "name": "33ccdf7a8d99a01f56cc2060404be18c", "is_reserved": 0, "rental_uris": {"android": "https://dc.lft.to/lastmile_qr_scan", "ios": "https://dc.lft.to/lastmile_qr_scan"}, "fusion_lon": 0.0}, {"lat": 38.92058866666667, "is_disabled": 0, "type": "electric_scooter", "lon": -77.03292616666667, "bike_id": "f023b0266d94e50241e7f8cb6843ef5f", "fusion_lat": 0.0, "name": "f023b0266d94e50241e7f8cb6843ef5f", "is_reserved": 0, "rental_uris": {"android": "https://dc.lft.to/lastmile_qr_scan", "ios": "https://dc.lft.to/lastmile_qr_scan"}, "fusion_lon": 0.0}, {"lat": 38.889297166666665, "is_disabled": 0, "type": "electric_scooter", "lon": -76.973768, "bike_id": "83a8ee28c06a6d6d3c75f6f8ba1dc16f", "fusion_lat": 0.0, "name": "83a8ee28c06a6d6d3c75f6f8ba1dc16f", "is_reserved": 0, "rental_uris": {"android": "https://dc.lft.to/lastmile_qr_scan", "ios": "https://dc.lft.to/lastmile_qr_scan"}, "fusion_lon": 0.0}, {"lat": 38.91058433333333, "is_disabled": 0, "type": "electric_scooter", "lon": -77.02654316666667, "bike_id": "55ac28a4024a30a46b6cd67da0a06c5c", "fusion_lat": 0.0, "name": "55ac28a4024a30a46b6cd67da0a06c5c", "is_reserved": 0, "rental_uris": {"android": "https://dc.lft.to/lastmile_qr_scan", "ios": "https://dc.lft.to/lastmile_qr_scan"}, "fusion_lon": 0.0}, {"lat": 38.905360333333334, "is_disabled": 0, "type": "electric_scooter", "lon": -77.0221565, "bike_id": "d8d54637604212536e330738dee73ee9", "fusion_lat": 0.0, "name": "d8d54637604212536e330738dee73ee9", "is_reserved": 0, "rental_uris": {"android": "https://dc.lft.to/lastmile_qr_scan", "ios": "https://dc.lft.to/lastmile_qr_scan"}, "fusion_lon": 0.0}, {"lat": 38.906361833333335, "is_disabled": 0, "type": "electric_scooter", "lon": -77.062837, "bike_id": "0451eec821b1239ad69a491fba372bad", "fusion_lat": 0.0, "name": "0451eec821b1239ad69a491fba372bad", "is_reserved": 0, "rental_uris": {"android": "https://dc.lft.to/lastmile_qr_scan", "ios": "https://dc.lft.to/lastmile_qr_scan"}, "fusion_lon": 0.0}, {"lat": 38.917079333333334, "is_disabled": 0, "type": "electric_scooter", "lon": -77.0086855, "bike_id": "37c59461dd0b6c037f497d5e1888ab22", "fusion_lat": 0.0, "name": "37c59461dd0b6c037f497d5e1888ab22", "is_reserved": 0, "rental_uris": {"android": "https://dc.lft.to/lastmile_qr_scan", "ios": "https://dc.lft.to/lastmile_qr_scan"}, "fusion_lon": 0.0}, {"lat": 38.915518166666665, "is_disabled": 0, "type": "electric_scooter", "lon": -77.0320305, "bike_id": "defa1ed01fa6b42f6f47e0d802e99c94", "fusion_lat": 0.0, "name": "defa1ed01fa6b42f6f47e0d802e99c94", "is_reserved": 0, "rental_uris": {"android": "https://dc.lft.to/lastmile_qr_scan", "ios": "https://dc.lft.to/lastmile_qr_scan"}, "fusion_lon": 0.0}, {"lat": 38.857937, "is_disabled": 0, "type": "electric_bike", "lon": -77.09958883333333, "bike_id": "f6ee8b20f8fbe75f24e0a399b35039a9", "fusion_lat": 0.0, "name": "f6ee8b20f8fbe75f24e0a399b35039a9", "is_reserved": 0, "rental_uris": {"android": "https://dc.lft.to/lastmile_qr_scan", "ios": "https://dc.lft.to/lastmile_qr_scan"}, "fusion_lon": 0.0}, {"lat": 38.92205916666666, "is_disabled": 0, "type": "electric_scooter", "lon": -77.03779083333333, "bike_id": "2b9f05514a48ed9afe75a7814e08a12d", "fusion_lat": 0.0, "name": "2b9f05514a48ed9afe75a7814e08a12d", "is_reserved": 0, "rental_uris": {"android": "https://dc.lft.to/lastmile_qr_scan", "ios": "https://dc.lft.to/lastmile_qr_scan"}, "fusion_lon": 0.0}, {"lat": 38.8769425, "is_disabled": 0, "type": "electric_scooter", "lon": -77.01761283333333, "bike_id": "d1ba76c04d1c6cff1bc9a69439dc4950", "fusion_lat": 0.0, "name": "d1ba76c04d1c6cff1bc9a69439dc4950", "is_reserved": 0, "rental_uris": {"android": "https://dc.lft.to/lastmile_qr_scan", "ios": "https://dc.lft.to/lastmile_qr_scan"}, "fusion_lon": 0.0}, {"lat": 38.9156725, "is_disabled": 0, "type": "electric_scooter", "lon": -77.0315895, "bike_id": "a80d51cacb644376ac449ceefbec9fd4", "fusion_lat": 0.0, "name": "a80d51cacb644376ac449ceefbec9fd4", "is_reserved": 0, "rental_uris": {"android": "https://dc.lft.to/lastmile_qr_scan", "ios": "https://dc.lft.to/lastmile_qr_scan"}, "fusion_lon": 0.0}, {"lat": 38.87859866666667, "is_disabled": 0, "type": "electric_scooter", "lon": -77.0177065, "bike_id": "98ed11df2eaf46ba7992853134bec470", "fusion_lat": 0.0, "name": "98ed11df2eaf46ba7992853134bec470", "is_reserved": 0, "rental_uris": {"android": "https://dc.lft.to/lastmile_qr_scan", "ios": "https://dc.lft.to/lastmile_qr_scan"}, "fusion_lon": 0.0}, {"lat": 38.922491666666666, "is_disabled": 0, "type": "electric_scooter", "lon": -77.036625, "bike_id": "8513f4f89d40551534ee7bc9a45f5148", "fusion_lat": 0.0, "name": "8513f4f89d40551534ee7bc9a45f5148", "is_reserved": 0, "rental_uris": {"android": "https://dc.lft.to/lastmile_qr_scan", "ios": "https://dc.lft.to/lastmile_qr_scan"}, "fusion_lon": 0.0}, {"lat": 38.91692966666667, "is_disabled": 0, "type": "electric_scooter", "lon": -77.04596483333333, "bike_id": "3632f920d874f93dd5a09a1d2e093579", "fusion_lat": 0.0, "name": "3632f920d874f93dd5a09a1d2e093579", "is_reserved": 0, "rental_uris": {"android": "https://dc.lft.to/lastmile_qr_scan", "ios": "https://dc.lft.to/lastmile_qr_scan"}, "fusion_lon": 0.0}, {"lat": 38.88640066666667, "is_disabled": 0, "type": "electric_scooter", "lon": -76.9549485, "bike_id": "182801944cddd40bfbc814537b84a0fc", "fusion_lat": 0.0, "name": "182801944cddd40bfbc814537b84a0fc", "is_reserved": 0, "rental_uris": {"android": "https://dc.lft.to/lastmile_qr_scan", "ios": "https://dc.lft.to/lastmile_qr_scan"}, "fusion_lon": 0.0}, {"lat": 38.90646433333333, "is_disabled": 0, "type": "electric_scooter", "lon": -77.01409483333333, "bike_id": "549529ea88fa581204c70778376e22bf", "fusion_lat": 0.0, "name": "549529ea88fa581204c70778376e22bf", "is_reserved": 0, "rental_uris": {"android": "https://dc.lft.to/lastmile_qr_scan", "ios": "https://dc.lft.to/lastmile_qr_scan"}, "fusion_lon": 0.0}, {"lat": 38.91573533333333, "is_disabled": 0, "type": "electric_scooter", "lon": -77.050207, "bike_id": "84b198b0432f082c721d6b50c81216d2", "fusion_lat": 0.0, "name": "84b198b0432f082c721d6b50c81216d2", "is_reserved": 0, "rental_uris": {"android": "https://dc.lft.to/lastmile_qr_scan", "ios": "https://dc.lft.to/lastmile_qr_scan"}, "fusion_lon": 0.0}, {"lat": 38.902606666666664, "is_disabled": 0, "type": "electric_scooter", "lon": -77.03424516666666, "bike_id": "7b2e9cc2cb0231d1e061e84e39fc0d9a", "fusion_lat": 0.0, "name": "7b2e9cc2cb0231d1e061e84e39fc0d9a", "is_reserved": 0, "rental_uris": {"android": "https://dc.lft.to/lastmile_qr_scan", "ios": "https://dc.lft.to/lastmile_qr_scan"}, "fusion_lon": 0.0}, {"lat": 38.921133, "is_disabled": 0, "type": "electric_scooter", "lon": -77.0470225, "bike_id": "581eb8bd012145cef1e9ddb4601d1a10", "fusion_lat": 0.0, "name": "581eb8bd012145cef1e9ddb4601d1a10", "is_reserved": 0, "rental_uris": {"android": "https://dc.lft.to/lastmile_qr_scan", "ios": "https://dc.lft.to/lastmile_qr_scan"}, "fusion_lon": 0.0}, {"lat": 38.897227, "is_disabled": 0, "type": "electric_scooter", "lon": -77.00800633333333, "bike_id": "eb97d60d7c13d1958a3af41a4009f8f3", "fusion_lat": 0.0, "name": "eb97d60d7c13d1958a3af41a4009f8f3", "is_reserved": 0, "rental_uris": {"android": "https://dc.lft.to/lastmile_qr_scan", "ios": "https://dc.lft.to/lastmile_qr_scan"}, "fusion_lon": 0.0}, {"lat": 38.928361, "is_disabled": 0, "type": "electric_scooter", "lon": -77.05420333333333, "bike_id": "f5ae0400458cc47c6e948e685bc1b134", "fusion_lat": 0.0, "name": "f5ae0400458cc47c6e948e685bc1b134", "is_reserved": 0, "rental_uris": {"android": "https://dc.lft.to/lastmile_qr_scan", "ios": "https://dc.lft.to/lastmile_qr_scan"}, "fusion_lon": 0.0}, {"lat": 38.870712, "is_disabled": 0, "type": "electric_scooter", "lon": -76.979854, "bike_id": "443919c6f3e4a3eeb84c2101711e1d48", "fusion_lat": 0.0, "name": "443919c6f3e4a3eeb84c2101711e1d48", "is_reserved": 0, "rental_uris": {"android": "https://dc.lft.to/lastmile_qr_scan", "ios": "https://dc.lft.to/lastmile_qr_scan"}, "fusion_lon": 0.0}, {"lat": 38.926749666666666, "is_disabled": 0, "type": "electric_scooter", "lon": -77.01475616666667, "bike_id": "6066a9baf20317811a3a1e9e5158367a", "fusion_lat": 0.0, "name": "6066a9baf20317811a3a1e9e5158367a", "is_reserved": 0, "rental_uris": {"android": "https://dc.lft.to/lastmile_qr_scan", "ios": "https://dc.lft.to/lastmile_qr_scan"}, "fusion_lon": 0.0}, {"lat": 38.911537333333335, "is_disabled": 0, "type": "electric_scooter", "lon": -77.03837683333333, "bike_id": "6601ac87757554bc52296248d129d2bd", "fusion_lat": 0.0, "name": "6601ac87757554bc52296248d129d2bd", "is_reserved": 0, "rental_uris": {"android": "https://dc.lft.to/lastmile_qr_scan", "ios": "https://dc.lft.to/lastmile_qr_scan"}, "fusion_lon": 0.0}, {"lat": 38.922609333333334, "is_disabled": 0, "type": "electric_scooter", "lon": -77.01932466666666, "bike_id": "3a5c8d6b5f04376b644369ef2df0c610", "fusion_lat": 0.0, "name": "3a5c8d6b5f04376b644369ef2df0c610", "is_reserved": 0, "rental_uris": {"android": "https://dc.lft.to/lastmile_qr_scan", "ios": "https://dc.lft.to/lastmile_qr_scan"}, "fusion_lon": 0.0}, {"lat": 38.887675, "is_disabled": 0, "type": "electric_scooter", "lon": -76.99605933333333, "bike_id": "3af757de6f75a32ae4bfbbef79248bf3", "fusion_lat": 0.0, "name": "3af757de6f75a32ae4bfbbef79248bf3", "is_reserved": 0, "rental_uris": {"android": "https://dc.lft.to/lastmile_qr_scan", "ios": "https://dc.lft.to/lastmile_qr_scan"}, "fusion_lon": 0.0}, {"lat": 38.91711883333333, "is_disabled": 0, "type": "electric_scooter", "lon": -77.03475633333333, "bike_id": "59d1f15cb86322ecef81bc202168d11b", "fusion_lat": 0.0, "name": "59d1f15cb86322ecef81bc202168d11b", "is_reserved": 0, "rental_uris": {"android": "https://dc.lft.to/lastmile_qr_scan", "ios": "https://dc.lft.to/lastmile_qr_scan"}, "fusion_lon": 0.0}, {"lat": 38.9129605, "is_disabled": 0, "type": "electric_scooter", "lon": -77.0451265, "bike_id": "bdac930441e353f3a223c60ea332c1be", "fusion_lat": 0.0, "name": "bdac930441e353f3a223c60ea332c1be", "is_reserved": 0, "rental_uris": {"android": "https://dc.lft.to/lastmile_qr_scan", "ios": "https://dc.lft.to/lastmile_qr_scan"}, "fusion_lon": 0.0}, {"lat": 38.9431895, "is_disabled": 0, "type": "electric_scooter", "lon": -77.061359, "bike_id": "5e00b46745129c81878a288e909adeba", "fusion_lat": 0.0, "name": "5e00b46745129c81878a288e909adeba", "is_reserved": 0, "rental_uris": {"android": "https://dc.lft.to/lastmile_qr_scan", "ios": "https://dc.lft.to/lastmile_qr_scan"}, "fusion_lon": 0.0}, {"lat": 38.88600366666667, "is_disabled": 0, "type": "electric_scooter", "lon": -77.04515283333333, "bike_id": "a77a5f1c1c2d93e720d9d81421d7c4e4", "fusion_lat": 0.0, "name": "a77a5f1c1c2d93e720d9d81421d7c4e4", "is_reserved": 0, "rental_uris": {"android": "https://dc.lft.to/lastmile_qr_scan", "ios": "https://dc.lft.to/lastmile_qr_scan"}, "fusion_lon": 0.0}, {"lat": 38.90983533333333, "is_disabled": 0, "type": "electric_scooter", "lon": -77.03358966666667, "bike_id": "66179ab071bf30a9af173eec1cf5a115", "fusion_lat": 0.0, "name": "66179ab071bf30a9af173eec1cf5a115", "is_reserved": 0, "rental_uris": {"android": "https://dc.lft.to/lastmile_qr_scan", "ios": "https://dc.lft.to/lastmile_qr_scan"}, "fusion_lon": 0.0}, {"lat": 38.901279, "is_disabled": 0, "type": "electric_scooter", "lon": -77.04994, "bike_id": "8555914102730765dba1dde63b6ff782", "fusion_lat": 0.0, "name": "8555914102730765dba1dde63b6ff782", "is_reserved": 0, "rental_uris": {"android": "https://dc.lft.to/lastmile_qr_scan", "ios": "https://dc.lft.to/lastmile_qr_scan"}, "fusion_lon": 0.0}, {"lat": 38.930899, "is_disabled": 0, "type": "electric_scooter", "lon": -77.02795733333333, "bike_id": "5c88c93b3d5532dd961841769bf6450d", "fusion_lat": 0.0, "name": "5c88c93b3d5532dd961841769bf6450d", "is_reserved": 0, "rental_uris": {"android": "https://dc.lft.to/lastmile_qr_scan", "ios": "https://dc.lft.to/lastmile_qr_scan"}, "fusion_lon": 0.0}, {"lat": 38.93115783333333, "is_disabled": 0, "type": "electric_scooter", "lon": -77.03809333333334, "bike_id": "c23fb90da52d89297d7c0bbf128656dc", "fusion_lat": 0.0, "name": "c23fb90da52d89297d7c0bbf128656dc", "is_reserved": 0, "rental_uris": {"android": "https://dc.lft.to/lastmile_qr_scan", "ios": "https://dc.lft.to/lastmile_qr_scan"}, "fusion_lon": 0.0}, {"lat": 38.90054833333333, "is_disabled": 0, "type": "electric_scooter", "lon": -77.01400083333333, "bike_id": "e77fe8f97a887f6c9dedab6f4e15c223", "fusion_lat": 0.0, "name": "e77fe8f97a887f6c9dedab6f4e15c223", "is_reserved": 0, "rental_uris": {"android": "https://dc.lft.to/lastmile_qr_scan", "ios": "https://dc.lft.to/lastmile_qr_scan"}, "fusion_lon": 0.0}, {"lat": 38.84297866666667, "is_disabled": 0, "type": "electric_scooter", "lon": -76.99946666666666, "bike_id": "f5c8c686218a5483f9ec751be3d12154", "fusion_lat": 0.0, "name": "f5c8c686218a5483f9ec751be3d12154", "is_reserved": 0, "rental_uris": {"android": "https://dc.lft.to/lastmile_qr_scan", "ios": "https://dc.lft.to/lastmile_qr_scan"}, "fusion_lon": 0.0}, {"lat": 38.88496266666667, "is_disabled": 0, "type": "electric_scooter", "lon": -77.00706933333333, "bike_id": "a306ffe25c5e08a8029d14335b45569f", "fusion_lat": 0.0, "name": "a306ffe25c5e08a8029d14335b45569f", "is_reserved": 0, "rental_uris": {"android": "https://dc.lft.to/lastmile_qr_scan", "ios": "https://dc.lft.to/lastmile_qr_scan"}, "fusion_lon": 0.0}, {"lat": 38.89377266666666, "is_disabled": 0, "type": "electric_scooter", "lon": -76.94993116666667, "bike_id": "2679edc8ff07b1d0b3b866ee988e51f3", "fusion_lat": 0.0, "name": "2679edc8ff07b1d0b3b866ee988e51f3", "is_reserved": 0, "rental_uris": {"android": "https://dc.lft.to/lastmile_qr_scan", "ios": "https://dc.lft.to/lastmile_qr_scan"}, "fusion_lon": 0.0}, {"lat": 38.8493915, "is_disabled": 0, "type": "electric_bike", "lon": -77.10015316666667, "bike_id": "8243100a63f334bcc4c2ffc49c2674d0", "fusion_lat": 0.0, "name": "8243100a63f334bcc4c2ffc49c2674d0", "is_reserved": 0, "rental_uris": {"android": "https://dc.lft.to/lastmile_qr_scan", "ios": "https://dc.lft.to/lastmile_qr_scan"}, "fusion_lon": 0.0}, {"lat": 38.92368, "is_disabled": 0, "type": "electric_scooter", "lon": -77.04029516666667, "bike_id": "175c07beb128e5fe012a182d5e4ecbef", "fusion_lat": 0.0, "name": "175c07beb128e5fe012a182d5e4ecbef", "is_reserved": 0, "rental_uris": {"android": "https://dc.lft.to/lastmile_qr_scan", "ios": "https://dc.lft.to/lastmile_qr_scan"}, "fusion_lon": 0.0}, {"lat": 38.9178465, "is_disabled": 0, "type": "electric_scooter", "lon": -77.023111, "bike_id": "7dcce44a5bb6c4990a387ff583ed06e0", "fusion_lat": 0.0, "name": "7dcce44a5bb6c4990a387ff583ed06e0", "is_reserved": 0, "rental_uris": {"android": "https://dc.lft.to/lastmile_qr_scan", "ios": "https://dc.lft.to/lastmile_qr_scan"}, "fusion_lon": 0.0}, {"lat": 38.842883, "is_disabled": 0, "type": "electric_bike", "lon": -76.98836966666667, "bike_id": "744cc5b2bf72083960c00986925339c7", "fusion_lat": 0.0, "name": "744cc5b2bf72083960c00986925339c7", "is_reserved": 0, "rental_uris": {"android": "https://dc.lft.to/lastmile_qr_scan", "ios": "https://dc.lft.to/lastmile_qr_scan"}, "fusion_lon": 0.0}, {"lat": 38.9213925, "is_disabled": 0, "type": "electric_scooter", "lon": -77.01035983333334, "bike_id": "919aa814c6b45ef2e74d4939322d2a69", "fusion_lat": 0.0, "name": "919aa814c6b45ef2e74d4939322d2a69", "is_reserved": 0, "rental_uris": {"android": "https://dc.lft.to/lastmile_qr_scan", "ios": "https://dc.lft.to/lastmile_qr_scan"}, "fusion_lon": 0.0}, {"lat": 38.866335166666666, "is_disabled": 0, "type": "electric_scooter", "lon": -76.98699083333334, "bike_id": "a63eec2e3290375166976670d4f6207c", "fusion_lat": 0.0, "name": "a63eec2e3290375166976670d4f6207c", "is_reserved": 0, "rental_uris": {"android": "https://dc.lft.to/lastmile_qr_scan", "ios": "https://dc.lft.to/lastmile_qr_scan"}, "fusion_lon": 0.0}, {"lat": 38.90683716666667, "is_disabled": 0, "type": "electric_scooter", "lon": -77.0626695, "bike_id": "58b3b69eeaa7388b34b95a72811038cc", "fusion_lat": 0.0, "name": "58b3b69eeaa7388b34b95a72811038cc", "is_reserved": 0, "rental_uris": {"android": "https://dc.lft.to/lastmile_qr_scan", "ios": "https://dc.lft.to/lastmile_qr_scan"}, "fusion_lon": 0.0}, {"lat": 38.918448, "is_disabled": 0, "type": "electric_scooter", "lon": -77.03901866666666, "bike_id": "7e95013abdb4082803fecd5018702b00", "fusion_lat": 0.0, "name": "7e95013abdb4082803fecd5018702b00", "is_reserved": 0, "rental_uris": {"android": "https://dc.lft.to/lastmile_qr_scan", "ios": "https://dc.lft.to/lastmile_qr_scan"}, "fusion_lon": 0.0}, {"lat": 38.90662433333333, "is_disabled": 0, "type": "electric_scooter", "lon": -77.02971933333333, "bike_id": "e0c54da5a29326c862140d7b32974cdf", "fusion_lat": 0.0, "name": "e0c54da5a29326c862140d7b32974cdf", "is_reserved": 0, "rental_uris": {"android": "https://dc.lft.to/lastmile_qr_scan", "ios": "https://dc.lft.to/lastmile_qr_scan"}, "fusion_lon": 0.0}, {"lat": 38.9186215, "is_disabled": 0, "type": "electric_scooter", "lon": -77.03224, "bike_id": "5756e58e8d0ec04bf01c27e02ef60242", "fusion_lat": 0.0, "name": "5756e58e8d0ec04bf01c27e02ef60242", "is_reserved": 0, "rental_uris": {"android": "https://dc.lft.to/lastmile_qr_scan", "ios": "https://dc.lft.to/lastmile_qr_scan"}, "fusion_lon": 0.0}, {"lat": 38.8738435, "is_disabled": 0, "type": "electric_bike", "lon": -76.93655166666667, "bike_id": "13f5bab021dc8c8d7523568422417b1d", "fusion_lat": 0.0, "name": "13f5bab021dc8c8d7523568422417b1d", "is_reserved": 0, "rental_uris": {"android": "https://dc.lft.to/lastmile_qr_scan", "ios": "https://dc.lft.to/lastmile_qr_scan"}, "fusion_lon": 0.0}, {"lat": 38.869247333333334, "is_disabled": 0, "type": "electric_scooter", "lon": -76.98304116666667, "bike_id": "3db3237194f799426709e177c7d0f534", "fusion_lat": 0.0, "name": "3db3237194f799426709e177c7d0f534", "is_reserved": 0, "rental_uris": {"android": "https://dc.lft.to/lastmile_qr_scan", "ios": "https://dc.lft.to/lastmile_qr_scan"}, "fusion_lon": 0.0}, {"lat": 38.908451166666666, "is_disabled": 0, "type": "electric_scooter", "lon": -77.0271445, "bike_id": "628e414f62db86b7faa4df750d601899", "fusion_lat": 0.0, "name": "628e414f62db86b7faa4df750d601899", "is_reserved": 0, "rental_uris": {"android": "https://dc.lft.to/lastmile_qr_scan", "ios": "https://dc.lft.to/lastmile_qr_scan"}, "fusion_lon": 0.0}, {"lat": 38.91335616666667, "is_disabled": 0, "type": "electric_scooter", "lon": -77.03124983333333, "bike_id": "7eee7183169097f6cf086157066b1d4a", "fusion_lat": 0.0, "name": "7eee7183169097f6cf086157066b1d4a", "is_reserved": 0, "rental_uris": {"android": "https://dc.lft.to/lastmile_qr_scan", "ios": "https://dc.lft.to/lastmile_qr_scan"}, "fusion_lon": 0.0}, {"lat": 38.8442875, "is_disabled": 0, "type": "electric_scooter", "lon": -76.9977965, "bike_id": "51d4258da3d835fde04b02fb1236256b", "fusion_lat": 0.0, "name": "51d4258da3d835fde04b02fb1236256b", "is_reserved": 0, "rental_uris": {"android": "https://dc.lft.to/lastmile_qr_scan", "ios": "https://dc.lft.to/lastmile_qr_scan"}, "fusion_lon": 0.0}, {"lat": 38.92796333333333, "is_disabled": 0, "type": "electric_scooter", "lon": -77.04361333333334, "bike_id": "4f6cd98224b1ff0b0ca0cb3075007c1f", "fusion_lat": 0.0, "name": "4f6cd98224b1ff0b0ca0cb3075007c1f", "is_reserved": 0, "rental_uris": {"android": "https://dc.lft.to/lastmile_qr_scan", "ios": "https://dc.lft.to/lastmile_qr_scan"}, "fusion_lon": 0.0}, {"lat": 38.9865645, "is_disabled": 0, "type": "electric_bike", "lon": -77.05648166666667, "bike_id": "caf7eb1b2d8ca714667ca220ca52ae3b", "fusion_lat": 0.0, "name": "caf7eb1b2d8ca714667ca220ca52ae3b", "is_reserved": 0, "rental_uris": {"android": "https://dc.lft.to/lastmile_qr_scan", "ios": "https://dc.lft.to/lastmile_qr_scan"}, "fusion_lon": 0.0}, {"lat": 38.89621116666667, "is_disabled": 0, "type": "electric_scooter", "lon": -76.99294866666666, "bike_id": "7e32565ec610ef1c5b7b4cf21063cd20", "fusion_lat": 0.0, "name": "7e32565ec610ef1c5b7b4cf21063cd20", "is_reserved": 0, "rental_uris": {"android": "https://dc.lft.to/lastmile_qr_scan", "ios": "https://dc.lft.to/lastmile_qr_scan"}, "fusion_lon": 0.0}, {"lat": 38.86118883333333, "is_disabled": 0, "type": "electric_scooter", "lon": -76.98381566666667, "bike_id": "5a137c2e8fd0034d6df33ef71bdae31e", "fusion_lat": 0.0, "name": "5a137c2e8fd0034d6df33ef71bdae31e", "is_reserved": 0, "rental_uris": {"android": "https://dc.lft.to/lastmile_qr_scan", "ios": "https://dc.lft.to/lastmile_qr_scan"}, "fusion_lon": 0.0}, {"lat": 38.935323833333335, "is_disabled": 0, "type": "electric_scooter", "lon": -77.03395816666666, "bike_id": "b0edc502486db2bb54b4c85aa85c88cb", "fusion_lat": 0.0, "name": "b0edc502486db2bb54b4c85aa85c88cb", "is_reserved": 0, "rental_uris": {"android": "https://dc.lft.to/lastmile_qr_scan", "ios": "https://dc.lft.to/lastmile_qr_scan"}, "fusion_lon": 0.0}, {"lat": 38.90723666666667, "is_disabled": 0, "type": "electric_scooter", "lon": -76.98926666666667, "bike_id": "b24c7cde1736d4f00c3d41c222a31dc0", "fusion_lat": 0.0, "name": "b24c7cde1736d4f00c3d41c222a31dc0", "is_reserved": 0, "rental_uris": {"android": "https://dc.lft.to/lastmile_qr_scan", "ios": "https://dc.lft.to/lastmile_qr_scan"}, "fusion_lon": 0.0}, {"lat": 38.898211833333335, "is_disabled": 0, "type": "electric_scooter", "lon": -77.03002, "bike_id": "17cfb4bff433158e281f46d23db9ed67", "fusion_lat": 0.0, "name": "17cfb4bff433158e281f46d23db9ed67", "is_reserved": 0, "rental_uris": {"android": "https://dc.lft.to/lastmile_qr_scan", "ios": "https://dc.lft.to/lastmile_qr_scan"}, "fusion_lon": 0.0}, {"lat": 38.93096833333333, "is_disabled": 0, "type": "electric_scooter", "lon": -77.07747316666666, "bike_id": "2f0bb4828d3ab3217e18b09488064bb2", "fusion_lat": 0.0, "name": "2f0bb4828d3ab3217e18b09488064bb2", "is_reserved": 0, "rental_uris": {"android": "https://dc.lft.to/lastmile_qr_scan", "ios": "https://dc.lft.to/lastmile_qr_scan"}, "fusion_lon": 0.0}, {"lat": 38.92278133333333, "is_disabled": 0, "type": "electric_scooter", "lon": -77.03672733333333, "bike_id": "87fcf090da9071013f5f3d676dbd9a59", "fusion_lat": 0.0, "name": "87fcf090da9071013f5f3d676dbd9a59", "is_reserved": 0, "rental_uris": {"android": "https://dc.lft.to/lastmile_qr_scan", "ios": "https://dc.lft.to/lastmile_qr_scan"}, "fusion_lon": 0.0}, {"lat": 38.91613066666667, "is_disabled": 0, "type": "electric_scooter", "lon": -77.02188266666667, "bike_id": "263f0bcb539b05a243ef440630edfc0e", "fusion_lat": 0.0, "name": "263f0bcb539b05a243ef440630edfc0e", "is_reserved": 0, "rental_uris": {"android": "https://dc.lft.to/lastmile_qr_scan", "ios": "https://dc.lft.to/lastmile_qr_scan"}, "fusion_lon": 0.0}, {"lat": 38.89653066666666, "is_disabled": 0, "type": "electric_scooter", "lon": -77.03016683333334, "bike_id": "1fc730e0617244c83c52756cd226a9d3", "fusion_lat": 0.0, "name": "1fc730e0617244c83c52756cd226a9d3", "is_reserved": 0, "rental_uris": {"android": "https://dc.lft.to/lastmile_qr_scan", "ios": "https://dc.lft.to/lastmile_qr_scan"}, "fusion_lon": 0.0}, {"lat": 38.840329833333335, "is_disabled": 0, "type": "electric_bike", "lon": -76.9758665, "bike_id": "f0da1ac5e48699a78c193cca6b5b9f4c", "fusion_lat": 0.0, "name": "f0da1ac5e48699a78c193cca6b5b9f4c", "is_reserved": 0, "rental_uris": {"android": "https://dc.lft.to/lastmile_qr_scan", "ios": "https://dc.lft.to/lastmile_qr_scan"}, "fusion_lon": 0.0}, {"lat": 38.908430333333335, "is_disabled": 0, "type": "electric_scooter", "lon": -76.9996775, "bike_id": "15ce5ea2f8c2c47477518de75f622a3f", "fusion_lat": 0.0, "name": "15ce5ea2f8c2c47477518de75f622a3f", "is_reserved": 0, "rental_uris": {"android": "https://dc.lft.to/lastmile_qr_scan", "ios": "https://dc.lft.to/lastmile_qr_scan"}, "fusion_lon": 0.0},