{"data": {"bikes": [{"bike_id": "2e9a18dac5ec51796f7da581f2691b9f", "fusion_lon": 0.0, "lon": -77.03323483333334, "name": "2e9a18dac5ec51796f7da581f2691b9f", "is_disabled": 0, "rental_uris": {"android": "https://dc.lft.to/lastmile_qr_scan", "ios": "https://dc.lft.to/lastmile_qr_scan"}, "type": "electric_scooter", "lat": 38.90381133333333, "is_reserved": 0, "fusion_lat": 0.0}, {"bike_id": "a978cb61bb21853c64f24ca64e0ac927", "fusion_lon": 0.0, "lon": -77.03196483333333, "name": "a978cb61bb21853c64f24ca64e0ac927", "is_disabled": 0, "rental_uris": {"android": "https://dc.lft.to/lastmile_qr_scan", "ios": "https://dc.lft.to/lastmile_qr_scan"}, "type": "electric_scooter", "lat": 38.917351833333335, "is_reserved": 0, "fusion_lat": 0.0}, {"bike_id": "2af7b7a3622fd2c1f6723a214a9c87a4", "fusion_lon": 0.0, "lon": -76.99946783333333, "name": "2af7b7a3622fd2c1f6723a214a9c87a4", "is_disabled": 0, "rental_uris": {"android": "https://dc.lft.to/lastmile_qr_scan", "ios": "https://dc.lft.to/lastmile_qr_scan"}, "type": "electric_scooter", "lat": 38.842937166666665, "is_reserved": 0, "fusion_lat": 0.0}, {"bike_id": "7e7a97ad83edceeb5bffb7a8710c3dfb", "fusion_lon": 0.0, "lon": -77.00624533333334, "name": "7e7a97ad83edceeb5bffb7a8710c3dfb", "is_disabled": 0, "rental_uris": {"android": "https://dc.lft.to/lastmile_qr_scan", "ios": "https://dc.lft.to/lastmile_qr_scan"}, "type": "electric_scooter", "lat": 38.9056615, "is_reserved": 0, "fusion_lat": 0.0}, {"bike_id": "edf48e3e00a06e5c6f58526f49b1df34", "fusion_lon": 0.0, "lon": -77.07304483333333, "name": "edf48e3e00a06e5c6f58526f49b1df34", "is_disabled": 0, "rental_uris": {"android": "https://dc.lft.to/lastmile_qr_scan", "ios": "https://dc.lft.to/lastmile_qr_scan"}, "type": "electric_scooter", "lat": 38.928786333333335, "is_reserved": 0, "fusion_lat": 0.0}, {"bike_id": "3e8829a4c50ba0feadc4d25818b70d38", "fusion_lon": 0.0, "lon": -77.02484966666667, "name": "3e8829a4c50ba0feadc4d25818b70d38", "is_disabled": 0, "rental_uris": {"android": "https://dc.lft.to/lastmile_qr_scan", "ios": "https://dc.lft.to/lastmile_qr_scan"}, "type": "electric_scooter", "lat": 38.938775166666666, "is_reserved": 0, "fusion_lat": 0.0}, {"bike_id": "c1aa84489769b2617ffcf2a47ae311bb", "fusion_lon": 0.0, "lon": -77.00746333333333, "name": "c1aa84489769b2617ffcf2a47ae311bb", "is_disabled": 0, "rental_uris": {"android": "https://dc.lft.to/lastmile_qr_scan", "ios": "https://dc.lft.to/lastmile_qr_scan"}, "type": "electric_scooter", "lat": 38.87741466666667, "is_reserved": 0, "fusion_lat": 0.0}, {"bike_id": "f5d26e03037a94704a52b1a15904946a", "fusion_lon": 0.0, "lon": -77.02809283333333, "name": "f5d26e03037a94704a52b1a15904946a", "is_disabled": 0, "rental_uris": {"android": "https://dc.lft.to/lastmile_qr_scan", "ios": "https://dc.lft.to/lastmile_qr_scan"}, "type": "electric_scooter", "lat": 38.916720833333336, "is_reserved": 0, "fusion_lat": 0.0}, {"bike_id": "5cccb9e11ee5f9f7f3b73a53a4b47213", "fusion_lon": 0.0, "lon": -77.04352, "name": "5cccb9e11ee5f9f7f3b73a53a4b47213", "is_disabled": 0, "rental_uris": {"android": "https://dc.lft.to/lastmile_qr_scan", "ios": "https://dc.lft.to/lastmile_qr_scan"}, "type": "electric_scooter", "lat": 38.91299716666666, "is_reserved": 0, "fusion_lat": 0.0}, {"bike_id": "27fffce6280a318425ab9dadb24fdf68", "fusion_lon": 0.0, "lon": -77.04454433333333, "name": "27fffce6280a318425ab9dadb24fdf68", "is_disabled": 0, "rental_uris": {"android": "https://dc.lft.to/lastmile_qr_scan", "ios": "https://dc.lft.to/lastmile_qr_scan"}, "type": "electric_scooter", "lat": 38.91185466666667, "is_reserved": 0, "fusion_lat": 0.0}, {"bike_id": "6cca2315cb20422fbd2976e92663c3fc", "fusion_lon": 0.0, "lon": -77.0433035, "name": "6cca2315cb20422fbd2976e92663c3fc", "is_disabled": 0, "rental_uris": {"android": "https://dc.lft.to/lastmile_qr_scan", "ios": "https://dc.lft.to/lastmile_qr_scan"}, "type": "electric_scooter", "lat": 38.895348166666665, "is_reserved": 0, "fusion_lat": 0.0}, {"bike_id": "5675c2a12ae0409587b52cb3106878c8", "fusion_lon": 0.0, "lon": -77.03762933333333, "name": "5675c2a12ae0409587b52cb3106878c8", "is_disabled": 0, "rental_uris": {"android": "https://dc.lft.to/lastmile_qr_scan", "ios": "https://dc.lft.to/lastmile_qr_scan"}, "type": "electric_scooter", "lat": 38.93585433333333, "is_reserved": 0, "fusion_lat": 0.0}, {"bike_id": "a2abfc0096f800826770963ff7be1a15", "fusion_lon": 0.0, "lon": -77.0221105, "name": "a2abfc0096f800826770963ff7be1a15", "is_disabled": 0, "rental_uris": {"android": "https://dc.lft.to/lastmile_qr_scan", "ios": "https://dc.lft.to/lastmile_qr_scan"}, "type": "electric_scooter", "lat": 38.915640333333336, "is_reserved": 0, "fusion_lat": 0.0}, {"bike_id": "8496b651a13f1077f1b756baefc167b5", "fusion_lon": 0.0, "lon": -77.02352333333333, "name": "8496b651a13f1077f1b756baefc167b5", "is_disabled": 0, "rental_uris": {"android": "https://dc.lft.to/lastmile_qr_scan", "ios": "https://dc.lft.to/lastmile_qr_scan"}, "type": "electric_scooter", "lat": 38.9318265, "is_reserved": 0, "fusion_lat": 0.0}, {"bike_id": "7a847bf409bf204360ed51499964f736", "fusion_lon": 0.0, "lon": -77.03868283333334, "name": "7a847bf409bf204360ed51499964f736", "is_disabled": 0, "rental_uris": {"android": "https://dc.lft.to/lastmile_qr_scan", "ios": "https://dc.lft.to/lastmile_qr_scan"}, "type": "electric_scooter", "lat": 38.9155135, "is_reserved": 0, "fusion_lat": 0.0}, {"bike_id": "dfa4917718c6c2ec6bc585cbca8d4eb0", "fusion_lon": 0.0, "lon": -77.02311483333334, "name": "dfa4917718c6c2ec6bc585cbca8d4eb0", "is_disabled": 0, "rental_uris": {"android": "https://dc.lft.to/lastmile_qr_scan", "ios": "https://dc.lft.to/lastmile_qr_scan"}, "type": "electric_scooter", "lat": 38.90959433333333, "is_reserved": 0, "fusion_lat": 0.0}, {"bike_id": "86d156cd2e61c47cd42c1021a3039c88", "fusion_lon": 0.0, "lon": -77.02721883333334, "name": "86d156cd2e61c47cd42c1021a3039c88", "is_disabled": 0, "rental_uris": {"android": "https://dc.lft.to/lastmile_qr_scan", "ios": "https://dc.lft.to/lastmile_qr_scan"}, "type": "electric_scooter", "lat": 38.94957216666667, "is_reserved": 0, "fusion_lat": 0.0}, {"bike_id": "c8da88e5894c58aefca634c2192d9f49", "fusion_lon": 0.0, "lon": -77.02165, "name": "c8da88e5894c58aefca634c2192d9f49", "is_disabled": 0, "rental_uris": {"android": "https://dc.lft.to/lastmile_qr_scan", "ios": "https://dc.lft.to/lastmile_qr_scan"}, "type": "electric_scooter", "lat": 38.89964716666667, "is_reserved": 0, "fusion_lat": 0.0}, {"bike_id": "f5e9a0ba8a43744e0a664c873de56bd5", "fusion_lon": 0.0, "lon": -77.0351705, "name": "f5e9a0ba8a43744e0a664c873de56bd5", "is_disabled": 0, "rental_uris": {"android": "https://dc.lft.to/lastmile_qr_scan", "ios": "https://dc.lft.to/lastmile_qr_scan"}, "type": "electric_scooter", "lat": 38.93593516666667, "is_reserved": 0, "fusion_lat": 0.0}, {"bike_id": "ef7a4cce7831e4484f19e02a46aaa492", "fusion_lon": 0.0, "lon": -76.98547083333334, "name": "ef7a4cce7831e4484f19e02a46aaa492", "is_disabled": 0, "rental_uris": {"android": "https://dc.lft.to/lastmile_qr_scan", "ios": "https://dc.lft.to/lastmile_qr_scan"}, "type": "electric_scooter", "lat": 38.86689783333333, "is_reserved": 0, "fusion_lat": 0.0}, {"bike_id": "daf91a75d23e45bc095b2a7585b439d2", "fusion_lon": 0.0, "lon": -77.02470833333334, "name": "daf91a75d23e45bc095b2a7585b439d2", "is_disabled": 0, "rental_uris": {"android": "https://dc.lft.to/lastmile_qr_scan", "ios": "https://dc.lft.to/lastmile_qr_scan"}, "type": "electric_scooter", "lat": 38.9190045, "is_reserved": 0, "fusion_lat": 0.0}, {"bike_id": "3daf61ade704fbac8848140e715ca3da", "fusion_lon": 0.0, "lon": -77.025767, "name": "3daf61ade704fbac8848140e715ca3da", "is_disabled": 0, "rental_uris": {"android": "https://dc.lft.to/lastmile_qr_scan", "ios": "https://dc.lft.to/lastmile_qr_scan"}, "type": "electric_scooter", "lat": 38.89230466666667, "is_reserved": 0, "fusion_lat": 0.0}, {"bike_id": "9e65eb1db30a206d7f24c39b05538b08", "fusion_lon": 0.0, "lon": -76.98926516666667, "name": "9e65eb1db30a206d7f24c39b05538b08", "is_disabled": 0, "rental_uris": {"android": "https://dc.lft.to/lastmile_qr_scan", "ios": "https://dc.lft.to/lastmile_qr_scan"}, "type": "electric_scooter", "lat": 38.84076983333333, "is_reserved": 0, "fusion_lat": 0.0}, {"bike_id": "36974f180da9bdd31f230eb809aacc85", "fusion_lon": 0.0, "lon": -77.1004685, "name": "36974f180da9bdd31f230eb809aacc85", "is_disabled": 0, "rental_uris": {"android": "https://dc.lft.to/lastmile_qr_scan", "ios": "https://dc.lft.to/lastmile_qr_scan"}, "type": "electric_bike", "lat": 38.991670166666665, "is_reserved": 0, "fusion_lat": 0.0}, {"bike_id": "a1b9ef6969f25a54ba1b09fc97b72ebf", "fusion_lon": 0.0, "lon": -77.01372933333333, "name": "a1b9ef6969f25a54ba1b09fc97b72ebf", "is_disabled": 0, "rental_uris": {"android": "https://dc.lft.to/lastmile_qr_scan", "ios": "https://dc.lft.to/lastmile_qr_scan"}, "type": "electric_scooter", "lat": 38.8922315, "is_reserved": 0, "fusion_lat": 0.0}, {"bike_id": "202d69a14de75e803cc28a135c5fa811", "fusion_lon": 0.0, "lon": -77.02996416666667, "name": "202d69a14de75e803cc28a135c5fa811", "is_disabled": 0, "rental_uris": {"android": "https://dc.lft.to/lastmile_qr_scan", "ios": "https://dc.lft.to/lastmile_qr_scan"}, "type": "electric_scooter", "lat": 38.895656, "is_reserved": 0, "fusion_lat": 0.0}, {"bike_id": "e56579c04cf1b009b53902f52829585d", "fusion_lon": 0.0, "lon": -77.02413883333334, "name": "e56579c04cf1b009b53902f52829585d", "is_disabled": 0, "rental_uris": {"android": "https://dc.lft.to/lastmile_qr_scan", "ios": "https://dc.lft.to/lastmile_qr_scan"}, "type": "electric_bike", "lat": 38.93304466666667, "is_reserved": 0, "fusion_lat": 0.0}, {"bike_id": "46f8b0200168501ec96f58a36d5467b1", "fusion_lon": 0.0, "lon": -77.03392983333333, "name": "46f8b0200168501ec96f58a36d5467b1", "is_disabled": 0, "rental_uris": {"android": "https://dc.lft.to/lastmile_qr_scan", "ios": "https://dc.lft.to/lastmile_qr_scan"}, "type": "electric_scooter", "lat": 38.9010315, "is_reserved": 0, "fusion_lat": 0.0}, {"bike_id": "853626abf2c40cacc85694a0c289cc21", "fusion_lon": 0.0, "lon": -77.0221445, "name": "853626abf2c40cacc85694a0c289cc21", "is_disabled": 0, "rental_uris": {"android": "https://dc.lft.to/lastmile_qr_scan", "ios": "https://dc.lft.to/lastmile_qr_scan"}, "type": "electric_scooter", "lat": 38.91265, "is_reserved": 0, "fusion_lat": 0.0}, {"bike_id": "d66141cf7fcd9e22edf97f73f1d834c0", "fusion_lon": 0.0, "lon": -77.025852, "name": "d66141cf7fcd9e22edf97f73f1d834c0", "is_disabled": 0, "rental_uris": {"android": "https://dc.lft.to/lastmile_qr_scan", "ios": "https://dc.lft.to/lastmile_qr_scan"}, "type": "electric_scooter", "lat": 38.92698816666667, "is_reserved": 0, "fusion_lat": 0.0}, {"bike_id": "d6a1e69d54e1a58e3568bf7b43ee60ee", "fusion_lon": 0.0, "lon": -77.02712866666667, "name": "d6a1e69d54e1a58e3568bf7b43ee60ee", "is_disabled": 0, "rental_uris": {"android": "https://dc.lft.to/lastmile_qr_scan", "ios": "https://dc.lft.to/lastmile_qr_scan"}, "type": "electric_scooter", "lat": 38.90733016666667, "is_reserved": 0, "fusion_lat": 0.0}, {"bike_id": "6d2ed3dcd324ea434c1d0df846a05075", "fusion_lon": 0.0, "lon": -77.04329516666667, "name": "6d2ed3dcd324ea434c1d0df846a05075", "is_disabled": 0, "rental_uris": {"android": "https://dc.lft.to/lastmile_qr_scan", "ios": "https://dc.lft.to/lastmile_qr_scan"}, "type": "electric_scooter", "lat": 38.89220783333333, "is_reserved": 0, "fusion_lat": 0.0}, {"bike_id": "1221959980ed76a762ce7fdc8133832c", "fusion_lon": 0.0, "lon": -77.028001, "name": "1221959980ed76a762ce7fdc8133832c", "is_disabled": 0, "rental_uris": {"android": "https://dc.lft.to/lastmile_qr_scan", "ios": "https://dc.lft.to/lastmile_qr_scan"}, "type": "electric_scooter", "lat": 38.8923435, "is_reserved": 0, "fusion_lat": 0.0}, {"bike_id": "5526372d69822428dcbe81d03e0152fe", "fusion_lon": 0.0, "lon": -77.05932966666667, "name": "5526372d69822428dcbe81d03e0152fe", "is_disabled": 0, "rental_uris": {"android": "https://dc.lft.to/lastmile_qr_scan", "ios": "https://dc.lft.to/lastmile_qr_scan"}, "type": "electric_scooter", "lat": 38.909356333333335, "is_reserved": 0, "fusion_lat": 0.0}, {"bike_id": "0dbf1981cf492bc6fb8a69af8f478b80", "fusion_lon": 0.0, "lon": -77.0388895, "name": "0dbf1981cf492bc6fb8a69af8f478b80", "is_disabled": 0, "rental_uris": {"android": "https://dc.lft.to/lastmile_qr_scan", "ios": "https://dc.lft.to/lastmile_qr_scan"}, "type": "electric_scooter", "lat": 38.917084333333335, "is_reserved": 0, "fusion_lat": 0.0}, {"bike_id": "7b4db67434d8a5e91d20e18430fdd92e", "fusion_lon": 0.0, "lon": -77.03133933333334, "name": "7b4db67434d8a5e91d20e18430fdd92e", "is_disabled": 0, "rental_uris": {"android": "https://dc.lft.to/lastmile_qr_scan", "ios": "https://dc.lft.to/lastmile_qr_scan"}, "type": "electric_scooter", "lat": 38.918164833333336, "is_reserved": 0, "fusion_lat": 0.0}, {"bike_id": "9090d8c51a3dd59e069c139d63eb7180", "fusion_lon": 0.0, "lon": -77.03860466666667, "name": "9090d8c51a3dd59e069c139d63eb7180", "is_disabled": 0, "rental_uris": {"android": "https://dc.lft.to/lastmile_qr_scan", "ios": "https://dc.lft.to/lastmile_qr_scan"}, "type": "electric_scooter", "lat": 38.93202183333333, "is_reserved": 0, "fusion_lat": 0.0}, {"bike_id": "bac8e3ea1df28182c58bbbdc10f33041", "fusion_lon": 0.0, "lon": -77.05392933333333, "name": "bac8e3ea1df28182c58bbbdc10f33041", "is_disabled": 0, "rental_uris": {"android": "https://dc.lft.to/lastmile_qr_scan", "ios": "https://dc.lft.to/lastmile_qr_scan"}, "type": "electric_scooter", "lat": 38.9280555, "is_reserved": 0, "fusion_lat": 0.0}, {"bike_id": "8005c3a6982414c12d1746cf603a1583", "fusion_lon": 0.0, "lon": -77.00156633333333, "name": "8005c3a6982414c12d1746cf603a1583", "is_disabled": 0, "rental_uris": {"android": "https://dc.lft.to/lastmile_qr_scan", "ios": "https://dc.lft.to/lastmile_qr_scan"}, "type": "electric_scooter", "lat": 38.9110805, "is_reserved": 0, "fusion_lat": 0.0}, {"bike_id": "e74bdc7e3e1b1108a9083582b757dea6", "fusion_lon": 0.0, "lon": -77.02573333333333, "name": "e74bdc7e3e1b1108a9083582b757dea6", "is_disabled": 0, "rental_uris": {"android": "https://dc.lft.to/lastmile_qr_scan", "ios": "https://dc.lft.to/lastmile_qr_scan"}, "type": "electric_scooter", "lat": 38.91404516666667, "is_reserved": 0, "fusion_lat": 0.0}, {"bike_id": "180e366cf08d22cedf4308fb25289d0d", "fusion_lon": 0.0, "lon": -77.03394083333333, "name": "180e366cf08d22cedf4308fb25289d0d", "is_disabled": 0, "rental_uris": {"android": "https://dc.lft.to/lastmile_qr_scan", "ios": "https://dc.lft.to/lastmile_qr_scan"}, "type": "electric_scooter", "lat": 38.89952733333333, "is_reserved": 0, "fusion_lat": 0.0}, {"bike_id": "770b607f0f0cb16ad1e8dd23e8b09f22", "fusion_lon": 0.0, "lon": -77.04314933333333, "name": "770b607f0f0cb16ad1e8dd23e8b09f22", "is_disabled": 0, "rental_uris": {"android": "https://dc.lft.to/lastmile_qr_scan", "ios": "https://dc.lft.to/lastmile_qr_scan"}, "type": "electric_scooter", "lat": 38.918752, "is_reserved": 0, "fusion_lat": 0.0}, {"bike_id": "a11448586815217d443034d82970f4e4", "fusion_lon": 0.0, "lon": -77.03914833333333, "name": "a11448586815217d443034d82970f4e4", "is_disabled": 0, "rental_uris": {"android": "https://dc.lft.to/lastmile_qr_scan", "ios": "https://dc.lft.to/lastmile_qr_scan"}, "type": "electric_scooter", "lat": 38.918174666666665, "is_reserved": 0, "fusion_lat": 0.0}, {"bike_id": "9f5a9cabf366a6d4c897c939c2db16f6", "fusion_lon": 0.0, "lon": -77.04501816666667, "name": "9f5a9cabf366a6d4c897c939c2db16f6", "is_disabled": 0, "rental_uris": {"android": "https://dc.lft.to/lastmile_qr_scan", "ios": "https://dc.lft.to/lastmile_qr_scan"}, "type": "electric_scooter", "lat": 38.91362783333334, "is_reserved": 0, "fusion_lat": 0.0}, {"bike_id": "3c6e1264f149ed6b6817b5eaa21b76e4", "fusion_lon": 0.0, "lon": -76.99091783333333, "name": "3c6e1264f149ed6b6817b5eaa21b76e4", "is_disabled": 0, "rental_uris": {"android": "https://dc.lft.to/lastmile_qr_scan", "ios": "https://dc.lft.to/lastmile_qr_scan"}, "type": "electric_scooter", "lat": 38.88231483333333, "is_reserved": 0, "fusion_lat": 0.0}, {"bike_id": "f3303713807756d6702d53200e303ff0", "fusion_lon": 0.0, "lon": -77.04889533333333, "name": "f3303713807756d6702d53200e303ff0", "is_disabled": 0, "rental_uris": {"android": "https://dc.lft.to/lastmile_qr_scan", "ios": "https://dc.lft.to/lastmile_qr_scan"}, "type": "electric_scooter", "lat": 38.906401, "is_reserved": 0, "fusion_lat": 0.0}, {"bike_id": "265ba6771d1d7b387ea2164c130f150b", "fusion_lon": 0.0, "lon": -77.02580783333333, "name": "265ba6771d1d7b387ea2164c130f150b", "is_disabled": 0, "rental_uris": {"android": "https://dc.lft.to/lastmile_qr_scan", "ios": "https://dc.lft.to/lastmile_qr_scan"}, "type": "electric_scooter", "lat": 38.92538233333333, "is_reserved": 0, "fusion_lat": 0.0}, {"bike_id": "7c4d453886e175cf30826524af073d94", "fusion_lon": 0.0, "lon": -77.03179216666666, "name": "7c4d453886e175cf30826524af073d94", "is_disabled": 0, "rental_uris": {"android": "https://dc.lft.to/lastmile_qr_scan", "ios": "https://dc.lft.to/lastmile_qr_scan"}, "type": "electric_scooter", "lat": 38.89230933333333, "is_reserved": 0, "fusion_lat": 0.0}, {"bike_id": "155de43989a6852b0af1da81dea50621", "fusion_lon": 0.0, "lon": -77.02227216666667, "name": "155de43989a6852b0af1da81dea50621", "is_disabled": 0, "rental_uris": {"android": "https://dc.lft.to/lastmile_qr_scan", "ios": "https://dc.lft.to/lastmile_qr_scan"}, "type": "electric_scooter", "lat": 38.892220333333334, "is_reserved": 0, "fusion_lat": 0.0}, {"bike_id": "8b60cc3f1d2e307709d9284f2176a645", "fusion_lon": 0.0, "lon": -77.028059, "name": "8b60cc3f1d2e307709d9284f2176a645", "is_disabled": 0, "rental_uris": {"android": "https://dc.lft.to/lastmile_qr_scan", "ios": "https://dc.lft.to/lastmile_qr_scan"}, "type": "electric_scooter", "lat": 38.930826833333334, "is_reserved": 0, "fusion_lat": 0.0}, {"bike_id": "e22e7499d7f7173421ab1f57741c09a7", "fusion_lon": 0.0, "lon": -77.00972983333334, "name": "e22e7499d7f7173421ab1f57741c09a7", "is_disabled": 0, "rental_uris": {"android": "https://dc.lft.to/lastmile_qr_scan", "ios": "https://dc.lft.to/lastmile_qr_scan"}, "type": "electric_bike", "lat": 38.961378333333336, "is_reserved": 0, "fusion_lat": 0.0}, {"bike_id": "741ac5bdd202975ee6a7c14b10c666d9", "fusion_lon": 0.0, "lon": -76.93610283333334, "name": "741ac5bdd202975ee6a7c14b10c666d9", "is_disabled": 0, "rental_uris": {"android": "https://dc.lft.to/lastmile_qr_scan", "ios": "https://dc.lft.to/lastmile_qr_scan"}, "type": "electric_scooter", "lat": 38.89684116666667, "is_reserved": 0, "fusion_lat": 0.0}, {"bike_id": "8d9411988b550410342851dd35fb8ba0", "fusion_lon": 0.0, "lon": -77.01617433333334, "name": "8d9411988b550410342851dd35fb8ba0", "is_disabled": 0, "rental_uris": {"android": "https://dc.lft.to/lastmile_qr_scan", "ios": "https://dc.lft.to/lastmile_qr_scan"}, "type": "electric_scooter", "lat": 38.9068465, "is_reserved": 0, "fusion_lat": 0.0}, {"bike_id": "b7aa37dc235c950c828ffb4470fb016f", "fusion_lon": 0.0, "lon": -77.02409216666666, "name": "b7aa37dc235c950c828ffb4470fb016f", "is_disabled": 0, "rental_uris": {"android": "https://dc.lft.to/lastmile_qr_scan", "ios": "https://dc.lft.to/lastmile_qr_scan"}, "type": "electric_scooter", "lat": 38.899789166666665, "is_reserved": 0, "fusion_lat": 0.0}, {"bike_id": "98103ad1c9e4ba89add541e1b22363b8", "fusion_lon": 0.0, "lon": -76.9869045, "name": "98103ad1c9e4ba89add541e1b22363b8", "is_disabled": 0, "rental_uris": {"android": "https://dc.lft.to/lastmile_qr_scan", "ios": "https://dc.lft.to/lastmile_qr_scan"}, "type": "electric_bike", "lat": 38.944718333333334, "is_reserved": 0, "fusion_lat": 0.0}, {"bike_id": "39ca5517e4a177eae9f79245e8abdc32", "fusion_lon": 0.0, "lon": -77.06386616666667, "name": "39ca5517e4a177eae9f79245e8abdc32", "is_disabled": 0, "rental_uris": {"android": "https://dc.lft.to/lastmile_qr_scan", "ios": "https://dc.lft.to/lastmile_qr_scan"}, "type": "electric_scooter", "lat": 38.902579, "is_reserved": 0, "fusion_lat": 0.0}, {"bike_id": "2d7d979f265ae971cf5fc26116d410d4", "fusion_lon": 0.0, "lon": -77.02418016666667, "name": "2d7d979f265ae971cf5fc26116d410d4", "is_disabled": 0, "rental_uris": {"android": "https://dc.lft.to/lastmile_qr_scan", "ios": "https://dc.lft.to/lastmile_qr_scan"}, "type": "electric_scooter", "lat": 38.935053333333336, "is_reserved": 0, "fusion_lat": 0.0}, {"bike_id": "b705964fab47a45b531f1b76d859c194", "fusion_lon": 0.0, "lon": -77.0316335, "name": "b705964fab47a45b531f1b76d859c194", "is_disabled": 0, "rental_uris": {"android": "https://dc.lft.to/lastmile_qr_scan", "ios": "https://dc.lft.to/lastmile_qr_scan"}, "type": "electric_scooter", "lat": 38.909606, "is_reserved": 0, "fusion_lat": 0.0}, {"bike_id": "f05136a607fade5ea23d3fafa2f6188f", "fusion_lon": 0.0, "lon": -76.99903033333334, "name": "f05136a607fade5ea23d3fafa2f6188f", "is_disabled": 0, "rental_uris": {"android": "https://dc.lft.to/lastmile_qr_scan", "ios": "https://dc.lft.to/lastmile_qr_scan"}, "type": "electric_scooter", "lat": 38.94823233333334, "is_reserved": 0, "fusion_lat": 0.0}, {"bike_id": "fb8a3d2474d5e296d87c8a9097783776", "fusion_lon": 0.0, "lon": -77.01409716666667, "name": "fb8a3d2474d5e296d87c8a9097783776", "is_disabled": 0, "rental_uris": {"android": "https://dc.lft.to/lastmile_qr_scan", "ios": "https://dc.lft.to/lastmile_qr_scan"}, "type": "electric_scooter", "lat": 38.9285625, "is_reserved": 0, "fusion_lat": 0.0}, {"bike_id": "cab056d9473213cc0d49a1baffedb90d", "fusion_lon": 0.0, "lon": -77.0554175, "name": "cab056d9473213cc0d49a1baffedb90d", "is_disabled": 0, "rental_uris": {"android": "https://dc.lft.to/lastmile_qr_scan", "ios": "https://dc.lft.to/lastmile_qr_scan"}, "type": "electric_scooter", "lat": 38.9301115, "is_reserved": 0, "fusion_lat": 0.0}, {"bike_id": "c1fd0ab846a70962288714e7fe6cc793", "fusion_lon": 0.0, "lon": -77.03232866666667, "name": "c1fd0ab846a70962288714e7fe6cc793", "is_disabled": 0, "rental_uris": {"android": "https://dc.lft.to/lastmile_qr_scan", "ios": "https://dc.lft.to/lastmile_qr_scan"}, "type": "electric_scooter", "lat": 38.90877016666666, "is_reserved": 0, "fusion_lat": 0.0}, {"bike_id": "e42c0feffb43e7dedad70134c19f766b", "fusion_lon": 0.0, "lon": -77.03598016666666, "name": "e42c0feffb43e7dedad70134c19f766b", "is_disabled": 0, "rental_uris": {"android": "https://dc.lft.to/lastmile_qr_scan", "ios": "https://dc.lft.to/lastmile_qr_scan"}, "type": "electric_scooter", "lat": 38.916990166666665, "is_reserved": 0, "fusion_lat": 0.0}, {"bike_id": "abc0f6d58f089cb28e09d8f6257799ce", "fusion_lon": 0.0, "lon": -76.99512683333333, "name": "abc0f6d58f089cb28e09d8f6257799ce", "is_disabled": 0, "rental_uris": {"android": "https://dc.lft.to/lastmile_qr_scan", "ios": "https://dc.lft.to/lastmile_qr_scan"}, "type": "electric_scooter", "lat": 38.883747666666665, "is_reserved": 0, "fusion_lat": 0.0}, {"bike_id": "3a970d0c1b6c7a2eb4fce526a2d26869", "fusion_lon": 0.0, "lon": -77.031949, "name": "3a970d0c1b6c7a2eb4fce526a2d26869", "is_disabled": 0, "rental_uris": {"android": "https://dc.lft.to/lastmile_qr_scan", "ios": "https://dc.lft.to/lastmile_qr_scan"}, "type": "electric_scooter", "lat": 38.89619416666667, "is_reserved": 0, "fusion_lat": 0.0}, {"bike_id": "da2303f8ad0eb7cd9604d2554133ad29", "fusion_lon": 0.0, "lon": -77.026935, "name": "da2303f8ad0eb7cd9604d2554133ad29", "is_disabled": 0, "rental_uris": {"android": "https://dc.lft.to/lastmile_qr_scan", "ios": "https://dc.lft.to/lastmile_qr_scan"}, "type": "electric_scooter", "lat": 38.906615333333335, "is_reserved": 0, "fusion_lat": 0.0}, {"bike_id": "1888fbcd82a2d2ae1200181fcaf8ab5a", "fusion_lon": 0.0, "lon": -76.9949185, "name": "1888fbcd82a2d2ae1200181fcaf8ab5a", "is_disabled": 0, "rental_uris": {"android": "https://dc.lft.to/lastmile_qr_scan", "ios": "https://dc.lft.to/lastmile_qr_scan"}, "type": "electric_bike", "lat": 38.88188316666667, "is_reserved": 0, "fusion_lat": 0.0}, {"bike_id": "d329521e66b8ea6f9a69ebc561439559", "fusion_lon": 0.0, "lon": -77.04961483333334, "name": "d329521e66b8ea6f9a69ebc561439559", "is_disabled": 0, "rental_uris": {"android": "https://dc.lft.to/lastmile_qr_scan", "ios": "https://dc.lft.to/lastmile_qr_scan"}, "type": "electric_scooter", "lat": 38.905109333333336, "is_reserved": 0, "fusion_lat": 0.0}, {"bike_id": "8b1e7994193f8103ee2f0bd62a4e651f", "fusion_lon": 0.0, "lon": -77.042037, "name": "8b1e7994193f8103ee2f0bd62a4e651f", "is_disabled": 0, "rental_uris": {"android": "https://dc.lft.to/lastmile_qr_scan", "ios": "https://dc.lft.to/lastmile_qr_scan"}, "type": "electric_scooter", "lat": 38.92042633333333, "is_reserved": 0, "fusion_lat": 0.0}, {"bike_id": "ad3da44f4fb10e297f3503deb3437d87", "fusion_lon": 0.0, "lon": -77.02793316666667, "name": "ad3da44f4fb10e297f3503deb3437d87", "is_disabled": 0, "rental_uris": {"android": "https://dc.lft.to/lastmile_qr_scan", "ios": "https://dc.lft.to/lastmile_qr_scan"}, "type": "electric_scooter", "lat": 38.93083416666666, "is_reserved": 0, "fusion_lat": 0.0}, {"bike_id": "245f391ae39eb0256f6cc0c0e6f302d2", "fusion_lon": 0.0, "lon": -76.97530033333334, "name": "245f391ae39eb0256f6cc0c0e6f302d2", "is_disabled": 0, "rental_uris": {"android": "https://dc.lft.to/lastmile_qr_scan", "ios": "https://dc.lft.to/lastmile_qr_scan"}, "type": "electric_bike", "lat": 38.84011683333333, "is_reserved": 0, "fusion_lat": 0.0}, {"bike_id": "1ddd917566e769ac296f9819687c9c3a", "fusion_lon": 0.0, "lon": -76.99499783333333, "name": "1ddd917566e769ac296f9819687c9c3a", "is_disabled": 0, "rental_uris": {"android": "https://dc.lft.to/lastmile_qr_scan", "ios": "https://dc.lft.to/lastmile_qr_scan"}, "type": "electric_scooter", "lat": 38.86243, "is_reserved": 0, "fusion_lat": 0.0}, {"bike_id": "10c9321323146a5cd3a937af9a5ec874", "fusion_lon": 0.0, "lon": -77.07167216666667, "name": "10c9321323146a5cd3a937af9a5ec874", "is_disabled": 0, "rental_uris": {"android": "https://dc.lft.to/lastmile_qr_scan", "ios": "https://dc.lft.to/lastmile_qr_scan"}, "type": "electric_bike", "lat": 38.9066975, "is_reserved": 0, "fusion_lat": 0.0}, {"bike_id": "7172541950b8d2335d60887be7d0a4f4", "fusion_lon": 0.0, "lon": -77.02343266666666, "name": "7172541950b8d2335d60887be7d0a4f4", "is_disabled": 0, "rental_uris": {"android": "https://dc.lft.to/lastmile_qr_scan", "ios": "https://dc.lft.to/lastmile_qr_scan"}, "type": "electric_scooter", "lat": 38.94465833333334, "is_reserved": 0, "fusion_lat": 0.0}, {"bike_id": "08c16970fbeacecfdeaca91f2cec9446", "fusion_lon": 0.0, "lon": -77.12483233333333, "name": "08c16970fbeacecfdeaca91f2cec9446", "is_disabled": 0, "rental_uris": {"android": "https://dc.lft.to/lastmile_qr_scan", "ios": "https://dc.lft.to/lastmile_qr_scan"}, "type": "electric_bike", "lat": 38.853951333333335, "is_reserved": 0, "fusion_lat": 0.0}, {"bike_id": "1710dfab7259c61aff970d04b01688d7", "fusion_lon": 0.0, "lon": -76.99047766666666, "name": "1710dfab7259c61aff970d04b01688d7", "is_disabled": 0, "rental_uris": {"android": "https://dc.lft.to/lastmile_qr_scan", "ios": "https://dc.lft.to/lastmile_qr_scan"}, "type": "electric_scooter", "lat": 38.863580666666664, "is_reserved": 0, "fusion_lat": 0.0}, {"bike_id": "f826f914f9b8b41fbebd9cd610ac6f5a", "fusion_lon": 0.0, "lon": -76.99494933333334, "name": "f826f914f9b8b41fbebd9cd610ac6f5a", "is_disabled": 0, "rental_uris": {"android": "https://dc.lft.to/lastmile_qr_scan", "ios": "https://dc.lft.to/lastmile_qr_scan"}, "type": "electric_scooter", "lat": 38.862383333333334, "is_reserved": 0, "fusion_lat": 0.0}, {"bike_id": "027f4a8d353e1cc84557f2d03c24773a", "fusion_lon": 0.0, "lon": -77.046162, "name": "027f4a8d353e1cc84557f2d03c24773a", "is_disabled": 0, "rental_uris": {"android": "https://dc.lft.to/lastmile_qr_scan", "ios": "https://dc.lft.to/lastmile_qr_scan"}, "type": "electric_scooter", "lat": 38.90868716666667, "is_reserved": 0, "fusion_lat": 0.0}, {"bike_id": "53d505d42b3d9e9be9e82a671b5a9fb5", "fusion_lon": 0.0, "lon": -77.02970933333333, "name": "53d505d42b3d9e9be9e82a671b5a9fb5", "is_disabled": 0, "rental_uris": {"android": "https://dc.lft.to/lastmile_qr_scan", "ios": "https://dc.lft.to/lastmile_qr_scan"}, "type": "electric_scooter", "lat": 38.916795666666665, "is_reserved": 0, "fusion_lat": 0.0}, {"bike_id": "8786b241575c58920bc5f04eb56df021", "fusion_lon": 0.0, "lon": -77.0281255, "name": "8786b241575c58920bc5f04eb56df021", "is_disabled": 0, "rental_uris": {"android": "https://dc.lft.to/lastmile_qr_scan", "ios": "https://dc.lft.to/lastmile_qr_scan"}, "type": "electric_scooter", "lat": 38.91430783333333, "is_reserved": 0, "fusion_lat": 0.0}, {"bike_id": "2291c7598bfad90fcd4b47ea0b5e3a5c", "fusion_lon": 0.0, "lon": -77.02597716666666, "name": "2291c7598bfad90fcd4b47ea0b5e3a5c", "is_disabled": 0, "rental_uris": {"android": "https://dc.lft.to/lastmile_qr_scan", "ios": "https://dc.lft.to/lastmile_qr_scan"}, "type": "electric_scooter", "lat": 38.916919166666666, "is_reserved": 0, "fusion_lat": 0.0}, {"bike_id": "03e04274f63a65e3ba859a8d17cfdccc", "fusion_lon": 0.0, "lon": -76.9808585, "name": "03e04274f63a65e3ba859a8d17cfdccc", "is_disabled": 0, "rental_uris": {"android": "https://dc.lft.to/lastmile_qr_scan", "ios": "https://dc.lft.to/lastmile_qr_scan"}, "type": "electric_scooter", "lat": 38.86695133333333, "is_reserved": 0, "fusion_lat": 0.0}, {"bike_id": "0b197ceb11040a83690f862b58a0f8c3", "fusion_lon": 0.0, "lon": -77.0165685, "name": "0b197ceb11040a83690f862b58a0f8c3", "is_disabled": 0, "rental_uris": {"android": "https://dc.lft.to/lastmile_qr_scan", "ios": "https://dc.lft.to/lastmile_qr_scan"}, "type": "electric_scooter", "lat": 38.881358166666665, "is_reserved": 0, "fusion_lat": 0.0}, {"bike_id": "bc1399c4c68a503846d020cef0d238c0", "fusion_lon": 0.0, "lon": -77.00148533333333, "name": "bc1399c4c68a503846d020cef0d238c0", "is_disabled": 0, "rental_uris": {"android": "https://dc.lft.to/lastmile_qr_scan", "ios": "https://dc.lft.to/lastmile_qr_scan"}, "type": "electric_scooter", "lat": 38.84282483333333, "is_reserved": 0, "fusion_lat": 0.0}, {"bike_id": "a480c52fe9b2c1a2fa584a19b8b3f764", "fusion_lon": 0.0, "lon": -77.05232583333333, "name": "a480c52fe9b2c1a2fa584a19b8b3f764", "is_disabled": 0, "rental_uris": {"android": "https://dc.lft.to/lastmile_qr_scan", "ios": "https://dc.lft.to/lastmile_qr_scan"}, "type": "electric_scooter", "lat": 38.92697116666667, "is_reserved": 0, "fusion_lat": 0.0}, {"bike_id": "e132c1aefd5b6057e2b762d2318414c1", "fusion_lon": 0.0, "lon": -77.02566466666667, "name": "e132c1aefd5b6057e2b762d2318414c1", "is_disabled": 0, "rental_uris": {"android": "https://dc.lft.to/lastmile_qr_scan", "ios": "https://dc.lft.to/lastmile_qr_scan"}, "type": "electric_scooter", "lat": 38.9258065, "is_reserved": 0, "fusion_lat": 0.0}, {"bike_id": "20bf9e1a797cabcf015b6ef7f2ba59df", "fusion_lon": 0.0, "lon": -77.02142066666667, "name": "20bf9e1a797cabcf015b6ef7f2ba59df", "is_disabled": 0, "rental_uris": {"android": "https://dc.lft.to/lastmile_qr_scan", "ios": "https://dc.lft.to/lastmile_qr_scan"}, "type": "electric_scooter", "lat": 38.925929, "is_reserved": 0, "fusion_lat": 0.0}, {"bike_id": "2eb63a89f8118157f420d077a7cc2316", "fusion_lon": 0.0, "lon": -77.0343735, "name": "2eb63a89f8118157f420d077a7cc2316", "is_disabled": 0, "rental_uris": {"android": "https://dc.lft.to/lastmile_qr_scan", "ios": "https://dc.lft.to/lastmile_qr_scan"}, "type": "electric_scooter", "lat": 38.905859166666666, "is_reserved": 0, "fusion_lat": 0.0}, {"bike_id": "2234bade04edb29d18744e37113d6358", "fusion_lon": 0.0, "lon": -77.02468383333333, "name": "2234bade04edb29d18744e37113d6358", "is_disabled": 0, "rental_uris": {"android": "https://dc.lft.to/lastmile_qr_scan", "ios": "https://dc.lft.to/lastmile_qr_scan"}, "type": "electric_scooter", "lat": 38.93297733333333, "is_reserved": 0, "fusion_lat": 0.0}, {"bike_id": "bb88f1e278dbc809e600f88c30d2fc2b", "fusion_lon": 0.0, "lon": -77.07279633333333, "name": "bb88f1e278dbc809e600f88c30d2fc2b", "is_disabled": 0, "rental_uris": {"android": "https://dc.lft.to/lastmile_qr_scan", "ios": "https://dc.lft.to/lastmile_qr_scan"}, "type": "electric_scooter", "lat": 38.934842833333335, "is_reserved": 0, "fusion_lat": 0.0}, {"bike_id": "6a29659acb7aad7f2c99f038f912cefb", "fusion_lon": 0.0, "lon": -76.96920783333333, "name": "6a29659acb7aad7f2c99f038f912cefb", "is_disabled": 0, "rental_uris": {"android": "https://dc.lft.to/lastmile_qr_scan", "ios": "https://dc.lft.to/lastmile_qr_scan"}, "type": "electric_bike", "lat": 38.845956666666666, "is_reserved": 0, "fusion_lat": 0.0}, {"bike_id": "0ae7be88ba5075ad63fae31793078911", "fusion_lon": 0.0, "lon": -77.03952233333334, "name": "0ae7be88ba5075ad63fae31793078911", "is_disabled": 0, "rental_uris": {"android": "https://dc.lft.to/lastmile_qr_scan", "ios": "https://dc.lft.to/lastmile_qr_scan"}, "type": "electric_scooter", "lat": 38.898989, "is_reserved": 0, "fusion_lat": 0.0}, {"bike_id": "49507e2d7a5e6ce20920069a430ff4d4", "fusion_lon": 0.0, "lon": -77.04853633333333, "name": "49507e2d7a5e6ce20920069a430ff4d4", "is_disabled": 0, "rental_uris": {"android": "https://dc.lft.to/lastmile_qr_scan", "ios": "https://dc.lft.to/lastmile_qr_scan"}, "type": "electric_scooter", "lat": 38.904712333333336, "is_reserved": 0, "fusion_lat": 0.0}, {"bike_id": "b997139c82d145acee02e4029ea96ed4", "fusion_lon": 0.0, "lon": -77.04124616666667, "name": "b997139c82d145acee02e4029ea96ed4", "is_disabled": 0, "rental_uris": {"android": "https://dc.lft.to/lastmile_qr_scan", "ios": "https://dc.lft.to/lastmile_qr_scan"}, "type": "electric_scooter", "lat": 38.91708033333333, "is_reserved": 0, "fusion_lat": 0.0}, {"bike_id": "5b0d184c333ac296bf126908743df0d2", "fusion_lon": 0.0, "lon": -76.94936833333334, "name": "5b0d184c333ac296bf126908743df0d2", "is_disabled": 0, "rental_uris": {"android": "https://dc.lft.to/lastmile_qr_scan", "ios": "https://dc.lft.to/lastmile_qr_scan"}, "type": "electric_scooter", "lat": 38.8934715, "is_reserved": 0, "fusion_lat": 0.0}, {"bike_id": "7c9dc557f2674b8fac07c3962b38d299", "fusion_lon": 0.0, "lon": -77.0549975, "name": "7c9dc557f2674b8fac07c3962b38d299", "is_disabled": 0, "rental_uris": {"android": "https://dc.lft.to/lastmile_qr_scan", "ios": "https://dc.lft.to/lastmile_qr_scan"}, "type": "electric_scooter", "lat": 38.929782333333335, "is_reserved": 0, "fusion_lat": 0.0}, {"bike_id": "d4942978dd39e212dc44af6624c7b53b", "fusion_lon": 0.0, "lon": -77.04033416666667, "name": "d4942978dd39e212dc44af6624c7b53b", "is_disabled": 0, "rental_uris": {"android": "https://dc.lft.to/lastmile_qr_scan", "ios": "https://dc.lft.to/lastmile_qr_scan"}, "type": "electric_scooter", "lat": 38.903756333333334, "is_reserved": 0, "fusion_lat": 0.0}, {"bike_id": "dd2201aea703d852bedd5419390666d7", "fusion_lon": 0.0, "lon": -77.039509, "name": "dd2201aea703d852bedd5419390666d7", "is_disabled": 0, "rental_uris": {"android": "https://dc.lft.to/lastmile_qr_scan", "ios": "https://dc.lft.to/lastmile_qr_scan"}, "type": "electric_scooter", "lat": 38.92619716666667, "is_reserved": 0, "fusion_lat": 0.0}, {"bike_id": "e034363383fb88e9b10e2937a840621c", "fusion_lon": 0.0, "lon": -77.0309805, "name": "e034363383fb88e9b10e2937a840621c", "is_disabled": 0, "rental_uris": {"android": "https://dc.lft.to/lastmile_qr_scan", "ios": "https://dc.lft.to/lastmile_qr_scan"}, "type": "electric_scooter", "lat": 38.95064583333333, "is_reserved": 0, "fusion_lat": 0.0}, {"bike_id": "0f53ec8a19f94da5248438c38dedcb5c", "fusion_lon": 0.0, "lon": -77.044937, "name": "0f53ec8a19f94da5248438c38dedcb5c", "is_disabled": 0, "rental_uris": {"android": "https://dc.lft.to/lastmile_qr_scan", "ios": "https://dc.lft.to/lastmile_qr_scan"}, "type": "electric_bike", "lat": 38.8428735, "is_reserved": 0, "fusion_lat": 0.0}, {"bike_id": "f7209a6f23b1bc39d1c8eb790733a2d6", "fusion_lon": 0.0, "lon": -76.9574035, "name": "f7209a6f23b1bc39d1c8eb790733a2d6", "is_disabled": 0, "rental_uris": {"android": "https://dc.lft.to/lastmile_qr_scan", "ios": "https://dc.lft.to/lastmile_qr_scan"}, "type": "electric_scooter", "lat": 38.8963015, "is_reserved": 0, "fusion_lat": 0.0}, {"bike_id": "996bdb7a2648f8b38ab3bbd5290d12d9", "fusion_lon": 0.0, "lon": -77.05130383333334, "name": "996bdb7a2648f8b38ab3bbd5290d12d9", "is_disabled": 0, "rental_uris": {"android": "https://dc.lft.to/lastmile_qr_scan", "ios": "https://dc.lft.to/lastmile_qr_scan"}, "type": "electric_scooter", "lat": 38.923594, "is_reserved": 0, "fusion_lat": 0.0}, {"bike_id": "94dfca9538e8f95d0650d3466a35a229", "fusion_lon": 0.0, "lon": -77.0185435, "name": "94dfca9538e8f95d0650d3466a35a229", "is_disabled": 0, "rental_uris": {"android": "https://dc.lft.to/lastmile_qr_scan", "ios": "https://dc.lft.to/lastmile_qr_scan"}, "type": "electric_scooter", "lat": 38.90254933333333, "is_reserved": 0, "fusion_lat": 0.0}, {"bike_id": "fea18db3a23b45e1906ac389df211734", "fusion_lon": 0.0, "lon": -77.03157933333334, "name": "fea18db3a23b45e1906ac389df211734", "is_disabled": 0, "rental_uris": {"android": "https://dc.lft.to/lastmile_qr_scan", "ios": "https://dc.lft.to/lastmile_qr_scan"}, "type": "electric_scooter", "lat": 38.8922685, "is_reserved": 0, "fusion_lat": 0.0}, {"bike_id": "a8eb044cfc3c44e94c0d741070618380", "fusion_lon": 0.0, "lon": -76.99007883333333, "name": "a8eb044cfc3c44e94c0d741070618380", "is_disabled": 0, "rental_uris": {"android": "https://dc.lft.to/lastmile_qr_scan", "ios": "https://dc.lft.to/lastmile_qr_scan"}, "type": "electric_scooter", "lat": 38.85885066666667, "is_reserved": 0, "fusion_lat": 0.0}, {"bike_id": "2974f14c4a8cb41b021ef07781663c11", "fusion_lon": 0.0, "lon": -76.99518366666666, "name": "2974f14c4a8cb41b021ef07781663c11", "is_disabled": 0, "rental_uris": {"android": "https://dc.lft.to/lastmile_qr_scan", "ios": "https://dc.lft.to/lastmile_qr_scan"}, "type": "electric_scooter", "lat": 38.862564, "is_reserved": 0, "fusion_lat": 0.0}, {"bike_id": "4d4121f43881e42e83ca12a9b144684e", "fusion_lon": 0.0, "lon": -77.03658833333333, "name": "4d4121f43881e42e83ca12a9b144684e", "is_disabled": 0, "rental_uris": {"android": "https://dc.lft.to/lastmile_qr_scan", "ios": "https://dc.lft.to/lastmile_qr_scan"}, "type": "electric_scooter", "lat": 38.921322833333335, "is_reserved": 0, "fusion_lat": 0.0}, {"bike_id": "3b4db3c4cf11fe4c6ac508ef4703f1f0", "fusion_lon": 0.0, "lon": -77.023751, "name": "3b4db3c4cf11fe4c6ac508ef4703f1f0", "is_disabled": 0, "rental_uris": {"android": "https://dc.lft.to/lastmile_qr_scan", "ios": "https://dc.lft.to/lastmile_qr_scan"}, "type": "electric_scooter", "lat": 38.91684933333333, "is_reserved": 0, "fusion_lat": 0.0}, {"bike_id": "79d5d2fd746c55d7ab6d7f835259e3d1", "fusion_lon": 0.0, "lon": -77.0317945, "name": "79d5d2fd746c55d7ab6d7f835259e3d1", "is_disabled": 0, "rental_uris": {"android": "https://dc.lft.to/lastmile_qr_scan", "ios": "https://dc.lft.to/lastmile_qr_scan"}, "type": "electric_scooter", "lat": 38.9126295, "is_reserved": 0, "fusion_lat": 0.0}, {"bike_id": "fd45dcdf9edec8b144747a70ca3e3f41", "fusion_lon": 0.0, "lon": -77.04124466666667, "name": "fd45dcdf9edec8b144747a70ca3e3f41", "is_disabled": 0, "rental_uris": {"android": "https://dc.lft.to/lastmile_qr_scan", "ios": "https://dc.lft.to/lastmile_qr_scan"}, "type": "electric_scooter", "lat": 38.91707, "is_reserved": 0, "fusion_lat": 0.0}, {"bike_id": "e2486d9a49e80a558a466f7ddaf9b5b7", "fusion_lon": 0.0, "lon": -77.03175333333333, "name": "e2486d9a49e80a558a466f7ddaf9b5b7", "is_disabled": 0, "rental_uris": {"android": "https://dc.lft.to/lastmile_qr_scan", "ios": "https://dc.lft.to/lastmile_qr_scan"}, "type": "electric_scooter", "lat": 38.89969266666667, "is_reserved": 0, "fusion_lat": 0.0}, {"bike_id": "b1430c4758631a0cf1058940e848251f", "fusion_lon": 0.0, "lon": -76.9866045, "name": "b1430c4758631a0cf1058940e848251f", "is_disabled": 0, "rental_uris": {"android": "https://dc.lft.to/lastmile_qr_scan", "ios": "https://dc.lft.to/lastmile_qr_scan"}, "type": "electric_scooter", "lat": 38.86732633333333, "is_reserved": 0, "fusion_lat": 0.0}, {"bike_id": "161d428ae21b4831a287a17cae905661", "fusion_lon": 0.0, "lon": -77.00795633333334, "name": "161d428ae21b4831a287a17cae905661", "is_disabled": 0, "rental_uris": {"android": "https://dc.lft.to/lastmile_qr_scan", "ios": "https://dc.lft.to/lastmile_qr_scan"}, "type": "electric_scooter", "lat": 38.89717916666667, "is_reserved": 0, "fusion_lat": 0.0}, {"bike_id": "42fc20fc776e1c18b5c4dd707d6b8945", "fusion_lon": 0.0, "lon": -76.98991916666667, "name": "42fc20fc776e1c18b5c4dd707d6b8945", "is_disabled": 0, "rental_uris": {"android": "https://dc.lft.to/lastmile_qr_scan", "ios": "https://dc.lft.to/lastmile_qr_scan"}, "type": "electric_scooter", "lat": 38.86496066666667, "is_reserved": 0, "fusion_lat": 0.0}, {"bike_id": "2ae29400771dfd4e38c216b8d2e208d7", "fusion_lon": 0.0, "lon": -76.93993466666667, "name": "2ae29400771dfd4e38c216b8d2e208d7", "is_disabled": 0, "rental_uris": {"android": "https://dc.lft.to/lastmile_qr_scan", "ios": "https://dc.lft.to/lastmile_qr_scan"}, "type": "electric_scooter", "lat": 38.89977833333333, "is_reserved": 0, "fusion_lat": 0.0}, {"bike_id": "db281a6e9203b9328a1862852c911d51", "fusion_lon": 0.0, "lon": -77.0351355, "name": "db281a6e9203b9328a1862852c911d51", "is_disabled": 0, "rental_uris": {"android": "https://dc.lft.to/lastmile_qr_scan", "ios": "https://dc.lft.to/lastmile_qr_scan"}, "type": "electric_scooter", "lat": 38.921531, "is_reserved": 0, "fusion_lat": 0.0}, {"bike_id": "f9c3c401265261f11a065f57b9c481da", "fusion_lon": 0.0, "lon": -77.03163, "name": "f9c3c401265261f11a065f57b9c481da", "is_disabled": 0, "rental_uris": {"android": "https://dc.lft.to/lastmile_qr_scan", "ios": "https://dc.lft.to/lastmile_qr_scan"}, "type": "electric_scooter", "lat": 38.892199166666664, "is_reserved": 0, "fusion_lat": 0.0}, {"bike_id": "6822fe0a93792e2781c1dca5051691d2", "fusion_lon": 0.0, "lon": -77.044514, "name": "6822fe0a93792e2781c1dca5051691d2", "is_disabled": 0, "rental_uris": {"android": "https://dc.lft.to/lastmile_qr_scan", "ios": "https://dc.lft.to/lastmile_qr_scan"}, "type": "electric_scooter", "lat": 38.9302125, "is_reserved": 0, "fusion_lat": 0.0}, {"bike_id": "8a670054f80feafa42512404cff257dd", "fusion_lon": 0.0, "lon": -76.97731383333333, "name": "8a670054f80feafa42512404cff257dd", "is_disabled": 0, "rental_uris": {"android": "https://dc.lft.to/lastmile_qr_scan", "ios": "https://dc.lft.to/lastmile_qr_scan"}, "type": "electric_scooter", "lat": 38.8951625, "is_reserved": 0, "fusion_lat": 0.0}, {"bike_id": "8915f941ef499775190d192bb15b8821", "fusion_lon": 0.0, "lon": -77.0160495, "name": "8915f941ef499775190d192bb15b8821", "is_disabled": 0, "rental_uris": {"android": "https://dc.lft.to/lastmile_qr_scan", "ios": "https://dc.lft.to/lastmile_qr_scan"}, "type": "electric_scooter", "lat": 38.89544033333333, "is_reserved": 0, "fusion_lat": 0.0}, {"bike_id": "384b43310949b70dde9e2345fe316a6a", "fusion_lon": 0.0, "lon": -77.02762383333334, "name": "384b43310949b70dde9e2345fe316a6a", "is_disabled": 0, "rental_uris": {"android": "https://dc.lft.to/lastmile_qr_scan", "ios": "https://dc.lft.to/lastmile_qr_scan"}, "type": "electric_scooter", "lat": 38.954261, "is_reserved": 0, "fusion_lat": 0.0}, {"bike_id": "922440ff55f053639a858aecc419b91e", "fusion_lon": 0.0, "lon": -77.0425235, "name": "922440ff55f053639a858aecc419b91e", "is_disabled": 0, "rental_uris": {"android": "https://dc.lft.to/lastmile_qr_scan", "ios": "https://dc.lft.to/lastmile_qr_scan"}, "type": "electric_scooter", "lat": 38.910269666666665, "is_reserved": 0, "fusion_lat": 0.0}, {"bike_id": "deadc39ee9d73c5bc345f9e5c9915349", "fusion_lon": 0.0, "lon": -77.06355666666667, "name": "deadc39ee9d73c5bc345f9e5c9915349", "is_disabled": 0, "rental_uris": {"android": "https://dc.lft.to/lastmile_qr_scan", "ios": "https://dc.lft.to/lastmile_qr_scan"}, "type": "electric_scooter", "lat": 38.944521, "is_reserved": 0, "fusion_lat": 0.0}, {"bike_id": "be8535d987113baa97d289df4c6ae48c", "fusion_lon": 0.0, "lon": -77.03516, "name": "be8535d987113baa97d289df4c6ae48c", "is_disabled": 0, "rental_uris": {"android": "https://dc.lft.to/lastmile_qr_scan", "ios": "https://dc.lft.to/lastmile_qr_scan"}, "type": "electric_scooter", "lat": 38.92153016666666, "is_reserved": 0, "fusion_lat": 0.0}, {"bike_id": "248031b5904164ac310416a92fac968f", "fusion_lon": 0.0, "lon": -76.988685, "name": "248031b5904164ac310416a92fac968f", "is_disabled": 0, "rental_uris": {"android": "https://dc.lft.to/lastmile_qr_scan", "ios": "https://dc.lft.to/lastmile_qr_scan"}, "type": "electric_bike", "lat": 38.9548415, "is_reserved": 0, "fusion_lat": 0.0}, {"bike_id": "ee58f80a44bb5cbaab8b1e602864d99d", "fusion_lon": 0.0, "lon": -76.97829383333334, "name": "ee58f80a44bb5cbaab8b1e602864d99d", "is_disabled": 0, "rental_uris": {"android": "https://dc.lft.to/lastmile_qr_scan", "ios": "https://dc.lft.to/lastmile_qr_scan"}, "type": "electric_bike", "lat": 38.87070683333334, "is_reserved": 0, "fusion_lat": 0.0}, {"bike_id": "5426611269b93c7522f74d2ba7177152", "fusion_lon": 0.0, "lon": -77.04537833333333, "name": "5426611269b93c7522f74d2ba7177152", "is_disabled": 0, "rental_uris": {"android": "https://dc.lft.to/lastmile_qr_scan", "ios": "https://dc.lft.to/lastmile_qr_scan"}, "type": "electric_scooter", "lat": 38.90285766666667, "is_reserved": 0, "fusion_lat": 0.0}, {"bike_id": "60c8dc1750f4a002aa38142bbd0be76d", "fusion_lon": 0.0, "lon": -77.00611866666667, "name": "60c8dc1750f4a002aa38142bbd0be76d", "is_disabled": 0, "rental_uris": {"android": "https://dc.lft.to/lastmile_qr_scan", "ios": "https://dc.lft.to/lastmile_qr_scan"}, "type": "electric_scooter", "lat": 38.871821, "is_reserved": 0, "fusion_lat": 0.0}, {"bike_id": "0500c40968ee830429a64e64b1f30b25", "fusion_lon": 0.0, "lon": -76.94797316666667, "name": "0500c40968ee830429a64e64b1f30b25", "is_disabled": 0, "rental_uris": {"android": "https://dc.lft.to/lastmile_qr_scan", "ios": "https://dc.lft.to/lastmile_qr_scan"}, "type": "electric_bike", "lat": 38.89402883333333, "is_reserved": 0, "fusion_lat": 0.0}, {"bike_id": "10eebad7ef6aa92a3a8e7358239ca8d6", "fusion_lon": 0.0, "lon": -77.06917766666666, "name": "10eebad7ef6aa92a3a8e7358239ca8d6", "is_disabled": 0, "rental_uris": {"android": "https://dc.lft.to/lastmile_qr_scan", "ios": "https://dc.lft.to/lastmile_qr_scan"}, "type": "electric_scooter", "lat": 38.910073833333335, "is_reserved": 0, "fusion_lat": 0.0}, {"bike_id": "a0e6eef303bed427a06aac372523736b", "fusion_lon": 0.0, "lon": -76.98677766666667, "name": "a0e6eef303bed427a06aac372523736b", "is_disabled": 0, "rental_uris": {"android": "https://dc.lft.to/lastmile_qr_scan", "ios": "https://dc.lft.to/lastmile_qr_scan"}, "type": "electric_bike", "lat": 38.899590833333335, "is_reserved": 0, "fusion_lat": 0.0}, {"bike_id": "75e773274d733474f780645a65f0774c", "fusion_lon": 0.0, "lon": -77.04384166666667, "name": "75e773274d733474f780645a65f0774c", "is_disabled": 0, "rental_uris": {"android": "https://dc.lft.to/lastmile_qr_scan", "ios": "https://dc.lft.to/lastmile_qr_scan"}, "type": "electric_scooter", "lat": 38.91073933333333, "is_reserved": 0, "fusion_lat": 0.0}, {"bike_id": "d10a67a05731556399a218cc53874834", "fusion_lon": 0.0, "lon": -77.03217816666667, "name": "d10a67a05731556399a218cc53874834", "is_disabled": 0, "rental_uris": {"android": "https://dc.lft.to/lastmile_qr_scan", "ios": "https://dc.lft.to/lastmile_qr_scan"}, "type": "electric_scooter", "lat": 38.91683066666667, "is_reserved": 0, "fusion_lat": 0.0}, {"bike_id": "d99ea9df5f66f9edff54470dd578be62", "fusion_lon": 0.0, "lon": -77.04873, "name": "d99ea9df5f66f9edff54470dd578be62", "is_disabled": 0, "rental_uris": {"android": "https://dc.lft.to/lastmile_qr_scan", "ios": "https://dc.lft.to/lastmile_qr_scan"}, "type": "electric_scooter", "lat": 38.904634333333334, "is_reserved": 0, "fusion_lat": 0.0}, {"bike_id": "87794b217118ae881ad419d3b60c96fa", "fusion_lon": 0.0, "lon": -77.03418466666666, "name": "87794b217118ae881ad419d3b60c96fa", "is_disabled": 0, "rental_uris": {"android": "https://dc.lft.to/lastmile_qr_scan", "ios": "https://dc.lft.to/lastmile_qr_scan"}, "type": "electric_scooter", "lat": 38.9232015, "is_reserved": 0, "fusion_lat": 0.0}, {"bike_id": "2257c57bc526b79db4b1dbee99c90f95", "fusion_lon": 0.0, "lon": -77.03856716666667, "name": "2257c57bc526b79db4b1dbee99c90f95", "is_disabled": 0, "rental_uris": {"android": "https://dc.lft.to/lastmile_qr_scan", "ios": "https://dc.lft.to/lastmile_qr_scan"}, "type": "electric_scooter", "lat": 38.867486, "is_reserved": 0, "fusion_lat": 0.0}, {"bike_id": "18fcc6b19e8f7917b4252544ab136c1a", "fusion_lon": 0.0, "lon": -76.98334716666666, "name": "18fcc6b19e8f7917b4252544ab136c1a", "is_disabled": 0, "rental_uris": {"android": "https://dc.lft.to/lastmile_qr_scan", "ios": "https://dc.lft.to/lastmile_qr_scan"}, "type": "electric_scooter", "lat": 38.90750766666667, "is_reserved": 0, "fusion_lat": 0.0}, {"bike_id": "ccaafdd69b932224a065c3d06da8f262", "fusion_lon": 0.0, "lon": -77.039708, "name": "ccaafdd69b932224a065c3d06da8f262", "is_disabled": 0, "rental_uris": {"android": "https://dc.lft.to/lastmile_qr_scan", "ios": "https://dc.lft.to/lastmile_qr_scan"}, "type": "electric_scooter", "lat": 38.9030595, "is_reserved": 0, "fusion_lat": 0.0}, {"bike_id": "a34bdbb02579e844e2157822bc04f8d4", "fusion_lon": 0.0, "lon": -76.97813583333334, "name": "a34bdbb02579e844e2157822bc04f8d4", "is_disabled": 0, "rental_uris": {"android": "https://dc.lft.to/lastmile_qr_scan", "ios": "https://dc.lft.to/lastmile_qr_scan"}, "type": "electric_scooter", "lat": 38.89451616666667, "is_reserved": 0, "fusion_lat": 0.0}, {"bike_id": "2850cfedf09ec24eb63196f67346456e", "fusion_lon": 0.0, "lon": -77.0410225, "name": "2850cfedf09ec24eb63196f67346456e", "is_disabled": 0, "rental_uris": {"android": "https://dc.lft.to/lastmile_qr_scan", "ios": "https://dc.lft.to/lastmile_qr_scan"}, "type": "electric_scooter", "lat": 38.91775066666667, "is_reserved": 0, "fusion_lat": 0.0}, {"bike_id": "48e1ef4f4132d04adda47f09b169070b", "fusion_lon": 0.0, "lon": -77.0218115, "name": "48e1ef4f4132d04adda47f09b169070b", "is_disabled": 0, "rental_uris": {"android": "https://dc.lft.to/lastmile_qr_scan", "ios": "https://dc.lft.to/lastmile_qr_scan"}, "type": "electric_scooter", "lat": 38.8929905, "is_reserved": 0, "fusion_lat": 0.0}, {"bike_id": "70d4630471496ffb4db80a5002286136", "fusion_lon": 0.0, "lon": -77.02483133333334, "name": "70d4630471496ffb4db80a5002286136", "is_disabled": 0, "rental_uris": {"android": "https://dc.lft.to/lastmile_qr_scan", "ios": "https://dc.lft.to/lastmile_qr_scan"}, "type": "electric_scooter", "lat": 38.927505333333336, "is_reserved": 0, "fusion_lat": 0.0}, {"bike_id": "a63868db5f2b95f03187335890ac3514", "fusion_lon": 0.0, "lon": -77.032548, "name": "a63868db5f2b95f03187335890ac3514", "is_disabled": 0, "rental_uris": {"android": "https://dc.lft.to/lastmile_qr_scan", "ios": "https://dc.lft.to/lastmile_qr_scan"}, "type": "electric_bike", "lat": 38.9628235, "is_reserved": 0, "fusion_lat": 0.0}, {"bike_id": "df158e657a68dd3f2ffcecaec9a369be", "fusion_lon": 0.0, "lon": -77.01773, "name": "df158e657a68dd3f2ffcecaec9a369be", "is_disabled": 0, "rental_uris": {"android": "https://dc.lft.to/lastmile_qr_scan", "ios": "https://dc.lft.to/lastmile_qr_scan"}, "type": "electric_bike", "lat": 38.9827115, "is_reserved": 0, "fusion_lat": 0.0}, {"bike_id": "ee32fb6bacdf634daf837f748629abe4", "fusion_lon": 0.0, "lon": -77.06860333333333, "name": "ee32fb6bacdf634daf837f748629abe4", "is_disabled": 0, "rental_uris": {"android": "https://dc.lft.to/lastmile_qr_scan", "ios": "https://dc.lft.to/lastmile_qr_scan"}, "type": "electric_bike", "lat": 38.805740666666665, "is_reserved": 0, "fusion_lat": 0.0}, {"bike_id": "4243542d787bc6f22e016e54b37b23b5", "fusion_lon": 0.0, "lon": -76.98204383333334, "name": "4243542d787bc6f22e016e54b37b23b5", "is_disabled": 0, "rental_uris": {"android": "https://dc.lft.to/lastmile_qr_scan", "ios": "https://dc.lft.to/lastmile_qr_scan"}, "type": "electric_bike", "lat": 38.984959833333335, "is_reserved": 0, "fusion_lat": 0.0}, {"bike_id": "1660cea54d2f5e0dd68a08e06cf18a12", "fusion_lon": 0.0, "lon": -77.0216805, "name": "1660cea54d2f5e0dd68a08e06cf18a12", "is_disabled": 0, "rental_uris": {"android": "https://dc.lft.to/lastmile_qr_scan", "ios": "https://dc.lft.to/lastmile_qr_scan"}, "type": "electric_scooter", "lat": 38.9469695, "is_reserved": 0, "fusion_lat": 0.0}, {"bike_id": "0fc342e6d068e2d4e0b853d5df808884", "fusion_lon": 0.0, "lon": -77.03127383333333, "name": "0fc342e6d068e2d4e0b853d5df808884", "is_disabled": 0, "rental_uris": {"android": "https://dc.lft.to/lastmile_qr_scan", "ios": "https://dc.lft.to/lastmile_qr_scan"}, "type": "electric_scooter", "lat": 38.959324333333335, "is_reserved": 0, "fusion_lat": 0.0}, {"bike_id": "4f7d07f591600aee8d0dc76f63f0f043", "fusion_lon": 0.0, "lon": -77.05001083333333, "name": "4f7d07f591600aee8d0dc76f63f0f043", "is_disabled": 0, "rental_uris": {"android": "https://dc.lft.to/lastmile_qr_scan", "ios": "https://dc.lft.to/lastmile_qr_scan"}, "type": "electric_scooter", "lat": 38.89230333333333, "is_reserved": 0, "fusion_lat": 0.0}, {"bike_id": "4f6adcbfe849546808f2c15b3b9a06e7", "fusion_lon": 0.0, "lon": -77.02578333333334, "name": "4f6adcbfe849546808f2c15b3b9a06e7", "is_disabled": 0, "rental_uris": {"android": "https://dc.lft.to/lastmile_qr_scan", "ios": "https://dc.lft.to/lastmile_qr_scan"}, "type": "electric_scooter", "lat": 38.91711933333333, "is_reserved": 0, "fusion_lat": 0.0}, {"bike_id": "883b9e810bb909a10d7e2a1d92f0d110", "fusion_lon": 0.0, "lon": -77.02669483333334, "name": "883b9e810bb909a10d7e2a1d92f0d110", "is_disabled": 0, "rental_uris": {"android": "https://dc.lft.to/lastmile_qr_scan", "ios": "https://dc.lft.to/lastmile_qr_scan"}, "type": "electric_scooter", "lat": 38.8968, "is_reserved": 0, "fusion_lat": 0.0}, {"bike_id": "1b3346ec68a93a5349cde7f71a31dda6", "fusion_lon": 0.0, "lon": -76.99794166666666, "name": "1b3346ec68a93a5349cde7f71a31dda6", "is_disabled": 0, "rental_uris": {"android": "https://dc.lft.to/lastmile_qr_scan", "ios": "https://dc.lft.to/lastmile_qr_scan"}, "type": "electric_bike", "lat": 38.905666, "is_reserved": 0, "fusion_lat": 0.0}, {"bike_id": "a705a6ad8ad8f233a133b6f007587f9f", "fusion_lon": 0.0, "lon": -76.9854665, "name": "a705a6ad8ad8f233a133b6f007587f9f", "is_disabled": 0, "rental_uris": {"android": "https://dc.lft.to/lastmile_qr_scan", "ios": "https://dc.lft.to/lastmile_qr_scan"}, "type": "electric_scooter", "lat": 38.866850666666664, "is_reserved": 0, "fusion_lat": 0.0}, {"bike_id": "b6f2a1654b82bd5a7595dc916a0e6400", "fusion_lon": 0.0, "lon": -77.01946033333333, "name": "b6f2a1654b82bd5a7595dc916a0e6400", "is_disabled": 0, "rental_uris": {"android": "https://dc.lft.to/lastmile_qr_scan", "ios": "https://dc.lft.to/lastmile_qr_scan"}, "type": "electric_scooter", "lat": 38.924209, "is_reserved": 0, "fusion_lat": 0.0}, {"bike_id": "bdbe2751ec9c25741c1b69d0581ed51c", "fusion_lon": 0.0, "lon": -77.01142483333334, "name": "bdbe2751ec9c25741c1b69d0581ed51c", "is_disabled": 0, "rental_uris": {"android": "https://dc.lft.to/lastmile_qr_scan", "ios": "https://dc.lft.to/lastmile_qr_scan"}, "type": "electric_scooter", "lat": 38.9072905, "is_reserved": 0, "fusion_lat": 0.0}, {"bike_id": "87be5cb6efb61dab3c68261ee62649bf", "fusion_lon": 0.0, "lon": -77.02327466666667, "name": "87be5cb6efb61dab3c68261ee62649bf", "is_disabled": 0, "rental_uris": {"android": "https://dc.lft.to/lastmile_qr_scan", "ios": "https://dc.lft.to/lastmile_qr_scan"}, "type": "electric_scooter", "lat": 38.8922465, "is_reserved": 0, "fusion_lat": 0.0}, {"bike_id": "713272ea123cb396baef41aace626654", "fusion_lon": 0.0, "lon": -77.03182566666666, "name": "713272ea123cb396baef41aace626654", "is_disabled": 0, "rental_uris": {"android": "https://dc.lft.to/lastmile_qr_scan", "ios": "https://dc.lft.to/lastmile_qr_scan"}, "type": "electric_scooter", "lat": 38.915909166666665, "is_reserved": 0, "fusion_lat": 0.0}, {"bike_id": "cbd62259142efabd37c18ee285dfe4cb", "fusion_lon": 0.0, "lon": -77.04871916666667, "name": "cbd62259142efabd37c18ee285dfe4cb", "is_disabled": 0, "rental_uris": {"android": "https://dc.lft.to/lastmile_qr_scan", "ios": "https://dc.lft.to/lastmile_qr_scan"}, "type": "electric_scooter", "lat": 38.892245, "is_reserved": 0, "fusion_lat": 0.0}, {"bike_id": "5b4b1310b795867bec42c138c2838aae", "fusion_lon": 0.0, "lon": -76.99696433333334, "name": "5b4b1310b795867bec42c138c2838aae", "is_disabled": 0, "rental_uris": {"android": "https://dc.lft.to/lastmile_qr_scan", "ios": "https://dc.lft.to/lastmile_qr_scan"}, "type": "electric_scooter", "lat": 38.90830033333334, "is_reserved": 0, "fusion_lat": 0.0}, {"bike_id": "d2b72ec6fe5d6476f35c63235c1b3791", "fusion_lon": 0.0, "lon": -77.06159416666667, "name": "d2b72ec6fe5d6476f35c63235c1b3791", "is_disabled": 0, "rental_uris": {"android": "https://dc.lft.to/lastmile_qr_scan", "ios": "https://dc.lft.to/lastmile_qr_scan"}, "type": "electric_scooter", "lat": 38.9051055, "is_reserved": 0, "fusion_lat": 0.0}, {"bike_id": "230984658e2de8da4395c61773de6e39", "fusion_lon": 0.0, "lon": -77.0318765, "name": "230984658e2de8da4395c61773de6e39", "is_disabled": 0, "rental_uris": {"android": "https://dc.lft.to/lastmile_qr_scan", "ios": "https://dc.lft.to/lastmile_qr_scan"}, "type": "electric_scooter", "lat": 38.914765833333334, "is_reserved": 0, "fusion_lat": 0.0}, {"bike_id": "54cff3bd62bf2239c7443f6ea2ec6f3f", "fusion_lon": 0.0, "lon": -77.11331216666666, "name": "54cff3bd62bf2239c7443f6ea2ec6f3f", "is_disabled": 0, "rental_uris": {"android": "https://dc.lft.to/lastmile_qr_scan", "ios": "https://dc.lft.to/lastmile_qr_scan"}, "type": "electric_bike", "lat": 38.83150233333333, "is_reserved": 0, "fusion_lat": 0.0}, {"bike_id": "ebc82782048c2a4cf1960163528d240e", "fusion_lon": 0.0, "lon": -77.02165116666667, "name": "ebc82782048c2a4cf1960163528d240e", "is_disabled": 0, "rental_uris": {"android": "https://dc.lft.to/lastmile_qr_scan", "ios": "https://dc.lft.to/lastmile_qr_scan"}, "type": "electric_scooter", "lat": 38.89721133333333, "is_reserved": 0, "fusion_lat": 0.0}, {"bike_id": "f8cba86b3cca838ea9a09bc32ecbd013", "fusion_lon": 0.0, "lon": -77.04019583333333, "name": "f8cba86b3cca838ea9a09bc32ecbd013", "is_disabled": 0, "rental_uris": {"android": "https://dc.lft.to/lastmile_qr_scan", "ios": "https://dc.lft.to/lastmile_qr_scan"}, "type": "electric_scooter", "lat": 38.89936516666667, "is_reserved": 0, "fusion_lat": 0.0}, {"bike_id": "dc09bbd262168795803e7056e1e4c8b3", "fusion_lon": 0.0, "lon": -77.04700983333333, "name": "dc09bbd262168795803e7056e1e4c8b3", "is_disabled": 0, "rental_uris": {"android": "https://dc.lft.to/lastmile_qr_scan", "ios": "https://dc.lft.to/lastmile_qr_scan"}, "type": "electric_scooter", "lat": 38.92095183333333, "is_reserved": 0, "fusion_lat": 0.0}, {"bike_id": "8a813337da5e83ca5dd209c2bcdee8b3", "fusion_lon": 0.0, "lon": -77.00168283333333, "name": "8a813337da5e83ca5dd209c2bcdee8b3", "is_disabled": 0, "rental_uris": {"android": "https://dc.lft.to/lastmile_qr_scan", "ios": "https://dc.lft.to/lastmile_qr_scan"}, "type": "electric_scooter", "lat": 38.901342166666666, "is_reserved": 0, "fusion_lat": 0.0}, {"bike_id": "10814dc1524dbdba754a45dca50e33b1", "fusion_lon": 0.0, "lon": -77.041435, "name": "10814dc1524dbdba754a45dca50e33b1", "is_disabled": 0, "rental_uris": {"android": "https://dc.lft.to/lastmile_qr_scan", "ios": "https://dc.lft.to/lastmile_qr_scan"}, "type": "electric_scooter", "lat": 38.89362633333333, "is_reserved": 0, "fusion_lat": 0.0}, {"bike_id": "5d762f4dc281c5fe01f710af78522cbe", "fusion_lon": 0.0, "lon": -77.00520816666666, "name": "5d762f4dc281c5fe01f710af78522cbe", "is_disabled": 0, "rental_uris": {"android": "https://dc.lft.to/lastmile_qr_scan", "ios": "https://dc.lft.to/lastmile_qr_scan"}, "type": "electric_scooter", "lat": 38.880126, "is_reserved": 0, "fusion_lat": 0.0}, {"bike_id": "326a42aa3c8138a5a4841a9c17817de3", "fusion_lon": 0.0, "lon": -77.03645783333333, "name": "326a42aa3c8138a5a4841a9c17817de3", "is_disabled": 0, "rental_uris": {"android": "https://dc.lft.to/lastmile_qr_scan", "ios": "https://dc.lft.to/lastmile_qr_scan"}, "type": "electric_scooter", "lat": 38.91588016666667, "is_reserved": 0, "fusion_lat": 0.0}, {"bike_id": "f1ee7877138457f7c547069bad49a0d8", "fusion_lon": 0.0, "lon": -77.0352555, "name": "f1ee7877138457f7c547069bad49a0d8", "is_disabled": 0, "rental_uris": {"android": "https://dc.lft.to/lastmile_qr_scan", "ios": "https://dc.lft.to/lastmile_qr_scan"}, "type": "electric_scooter", "lat": 38.92492, "is_reserved": 0, "fusion_lat": 0.0}, {"bike_id": "d00bd4ca83dd7ce6a62ca91d88312335", "fusion_lon": 0.0, "lon": -77.03162066666667, "name": "d00bd4ca83dd7ce6a62ca91d88312335", "is_disabled": 0, "rental_uris": {"android": "https://dc.lft.to/lastmile_qr_scan", "ios": "https://dc.lft.to/lastmile_qr_scan"}, "type": "electric_bike", "lat": 38.99943433333333, "is_reserved": 0, "fusion_lat": 0.0}, {"bike_id": "18757fe4f4c9ed316ae66b8303bfc2ce", "fusion_lon": 0.0, "lon": -77.03453516666667, "name": "18757fe4f4c9ed316ae66b8303bfc2ce", "is_disabled": 0, "rental_uris": {"android": "https://dc.lft.to/lastmile_qr_scan", "ios": "https://dc.lft.to/lastmile_qr_scan"}, "type": "electric_scooter", "lat": 38.928796166666665, "is_reserved": 0, "fusion_lat": 0.0}, {"bike_id": "a8d84f94de05b066fd5f8bf9e6b8b110", "fusion_lon": 0.0, "lon": -77.04140283333334, "name": "a8d84f94de05b066fd5f8bf9e6b8b110", "is_disabled": 0, "rental_uris": {"android": "https://dc.lft.to/lastmile_qr_scan", "ios": "https://dc.lft.to/lastmile_qr_scan"}, "type": "electric_scooter", "lat": 38.926444833333335, "is_reserved": 0, "fusion_lat": 0.0}, {"bike_id": "867e830bc6b64865a9f230015b39be78", "fusion_lon": 0.0, "lon": -77.0578825, "name": "867e830bc6b64865a9f230015b39be78", "is_disabled": 0, "rental_uris": {"android": "https://dc.lft.to/lastmile_qr_scan", "ios": "https://dc.lft.to/lastmile_qr_scan"}, "type": "electric_scooter", "lat": 38.900991, "is_reserved": 0, "fusion_lat": 0.0}, {"bike_id": "ffd3405836fecbf9dbf8f722981e4b7a", "fusion_lon": 0.0, "lon": -77.04256266666667, "name": "ffd3405836fecbf9dbf8f722981e4b7a", "is_disabled": 0, "rental_uris": {"android": "https://dc.lft.to/lastmile_qr_scan", "ios": "https://dc.lft.to/lastmile_qr_scan"}, "type": "electric_scooter", "lat": 38.92199733333333, "is_reserved": 0, "fusion_lat": 0.0}, {"bike_id": "d646953b60f3b4820847584ca77aa17f", "fusion_lon": 0.0, "lon": -76.998448, "name": "d646953b60f3b4820847584ca77aa17f", "is_disabled": 0, "rental_uris": {"android": "https://dc.lft.to/lastmile_qr_scan", "ios": "https://dc.lft.to/lastmile_qr_scan"}, "type": "electric_scooter", "lat": 38.900117, "is_reserved": 0, "fusion_lat": 0.0}, {"bike_id": "02c80ada789b14b07fbae5ef5e387178", "fusion_lon": 0.0, "lon": -77.03160933333334, "name": "02c80ada789b14b07fbae5ef5e387178", "is_disabled": 0, "rental_uris": {"android": "https://dc.lft.to/lastmile_qr_scan", "ios": "https://dc.lft.to/lastmile_qr_scan"}, "type": "electric_scooter", "lat": 38.89222683333333, "is_reserved": 0, "fusion_lat": 0.0}, {"bike_id": "146ca4ef0a438ec0d4c4cd9d8b550db1", "fusion_lon": 0.0, "lon": -76.92331866666666, "name": "146ca4ef0a438ec0d4c4cd9d8b550db1", "is_disabled": 0, "rental_uris": {"android": "https://dc.lft.to/lastmile_qr_scan", "ios": "https://dc.lft.to/lastmile_qr_scan"}, "type": "electric_bike", "lat": 38.87109016666667, "is_reserved": 0, "fusion_lat": 0.0}, {"bike_id": "4a242e159188804fb9a60c27139e079e", "fusion_lon": 0.0, "lon": -77.09957833333333, "name": "4a242e159188804fb9a60c27139e079e", "is_disabled": 0, "rental_uris": {"android": "https://dc.lft.to/lastmile_qr_scan", "ios": "https://dc.lft.to/lastmile_qr_scan"}, "type": "electric_bike", "lat": 38.9335125, "is_reserved": 0, "fusion_lat": 0.0}, {"bike_id": "d9f75af9ebf26535ce14c91383b1b874", "fusion_lon": 0.0, "lon": -77.0158285, "name": "d9f75af9ebf26535ce14c91383b1b874", "is_disabled": 0, "rental_uris": {"android": "https://dc.lft.to/lastmile_qr_scan", "ios": "https://dc.lft.to/lastmile_qr_scan"}, "type": "electric_scooter", "lat": 38.89178233333333, "is_reserved": 0, "fusion_lat": 0.0}, {"bike_id": "b9f40c41424808a0d9abba3d8281389c", "fusion_lon": 0.0, "lon": -77.0323515, "name": "b9f40c41424808a0d9abba3d8281389c", "is_disabled": 0, "rental_uris": {"android": "https://dc.lft.to/lastmile_qr_scan", "ios": "https://dc.lft.to/lastmile_qr_scan"}, "type": "electric_scooter", "lat": 38.90260683333333, "is_reserved": 0, "fusion_lat": 0.0}, {"bike_id": "424de6acdc41dad63da0cb813f1d3997", "fusion_lon": 0.0, "lon": -77.05132383333333, "name": "424de6acdc41dad63da0cb813f1d3997", "is_disabled": 0, "rental_uris": {"android": "https://dc.lft.to/lastmile_qr_scan", "ios": "https://dc.lft.to/lastmile_qr_scan"}, "type": "electric_scooter", "lat": 38.9236265, "is_reserved": 0, "fusion_lat": 0.0}, {"bike_id": "e8fd36ed864f772705720dece44ef986", "fusion_lon": 0.0, "lon": -77.03187666666666, "name": "e8fd36ed864f772705720dece44ef986", "is_disabled": 0, "rental_uris": {"android": "https://dc.lft.to/lastmile_qr_scan", "ios": "https://dc.lft.to/lastmile_qr_scan"}, "type": "electric_scooter", "lat": 38.899576, "is_reserved": 0, "fusion_lat": 0.0}, {"bike_id": "c9b56eecac2342bd5aff3dd569cfd03c", "fusion_lon": 0.0, "lon": -77.02768783333333, "name": "c9b56eecac2342bd5aff3dd569cfd03c", "is_disabled": 0, "rental_uris": {"android": "https://dc.lft.to/lastmile_qr_scan", "ios": "https://dc.lft.to/lastmile_qr_scan"}, "type": "electric_scooter", "lat": 38.904317166666665, "is_reserved": 0, "fusion_lat": 0.0}, {"bike_id": "a6ed505301cfc5e1b273ffd0d6bc7d79", "fusion_lon": 0.0, "lon": -77.02726366666667, "name": "a6ed505301cfc5e1b273ffd0d6bc7d79", "is_disabled": 0, "rental_uris": {"android": "https://dc.lft.to/lastmile_qr_scan", "ios": "https://dc.lft.to/lastmile_qr_scan"}, "type": "electric_bike", "lat": 38.94548916666667, "is_reserved": 0, "fusion_lat": 0.0}, {"bike_id": "e564ae732a69a2d459384e3a18feb8a3", "fusion_lon": 0.0, "lon": -77.02400766666666, "name": "e564ae732a69a2d459384e3a18feb8a3", "is_disabled": 0, "rental_uris": {"android": "https://dc.lft.to/lastmile_qr_scan", "ios": "https://dc.lft.to/lastmile_qr_scan"}, "type": "electric_scooter", "lat": 38.9174075, "is_reserved": 0, "fusion_lat": 0.0}, {"bike_id": "4ed978f6ec214024a10c2c58c3f27b6b", "fusion_lon": 0.0, "lon": -77.01348183333333, "name": "4ed978f6ec214024a10c2c58c3f27b6b", "is_disabled": 0, "rental_uris": {"android": "https://dc.lft.to/lastmile_qr_scan", "ios": "https://dc.lft.to/lastmile_qr_scan"}, "type": "electric_scooter", "lat": 38.919501833333335, "is_reserved": 0, "fusion_lat": 0.0}, {"bike_id": "b493697beca89748b4c747e9d4338a97", "fusion_lon": 0.0, "lon": -77.032073, "name": "b493697beca89748b4c747e9d4338a97", "is_disabled": 0, "rental_uris": {"android": "https://dc.lft.to/lastmile_qr_scan", "ios": "https://dc.lft.to/lastmile_qr_scan"}, "type": "electric_scooter", "lat": 38.91701033333333, "is_reserved": 0, "fusion_lat": 0.0}, {"bike_id": "6dd3ff12e9c039e053360f9688b90102", "fusion_lon": 0.0, "lon": -77.02990566666666, "name": "6dd3ff12e9c039e053360f9688b90102", "is_disabled": 0, "rental_uris": {"android": "https://dc.lft.to/lastmile_qr_scan", "ios": "https://dc.lft.to/lastmile_qr_scan"}, "type": "electric_scooter", "lat": 38.9204215, "is_reserved": 0, "fusion_lat": 0.0}, {"bike_id": "89fbb19e3d4dbbaa62ed62d5bd5ba233", "fusion_lon": 0.0, "lon": -77.02155283333333, "name": "89fbb19e3d4dbbaa62ed62d5bd5ba233", "is_disabled": 0, "rental_uris": {"android": "https://dc.lft.to/lastmile_qr_scan", "ios": "https://dc.lft.to/lastmile_qr_scan"}, "type": "electric_scooter", "lat": 38.9243735, "is_reserved": 0, "fusion_lat": 0.0}, {"bike_id": "697f2b4823f699cb51389767cfd5b98b", "fusion_lon": 0.0, "lon": -77.00914133333333, "name": "697f2b4823f699cb51389767cfd5b98b", "is_disabled": 0, "rental_uris": {"android": "https://dc.lft.to/lastmile_qr_scan", "ios": "https://dc.lft.to/lastmile_qr_scan"}, "type": "electric_bike", "lat": 38.8278515, "is_reserved": 0, "fusion_lat": 0.0}, {"bike_id": "5cb5536f3e7a781a9226cbe96d0da697", "fusion_lon": 0.0, "lon": -77.02764166666667, "name": "5cb5536f3e7a781a9226cbe96d0da697", "is_disabled": 0, "rental_uris": {"android": "https://dc.lft.to/lastmile_qr_scan", "ios": "https://dc.lft.to/lastmile_qr_scan"}, "type": "electric_scooter", "lat": 38.95614283333333, "is_reserved": 0, "fusion_lat": 0.0}, {"bike_id": "bcf00035c1347d58787791c8b005533f", "fusion_lon": 0.0, "lon": -77.05132666666667, "name": "bcf00035c1347d58787791c8b005533f", "is_disabled": 0, "rental_uris": {"android": "https://dc.lft.to/lastmile_qr_scan", "ios": "https://dc.lft.to/lastmile_qr_scan"}, "type": "electric_scooter", "lat": 38.92362883333333, "is_reserved": 0, "fusion_lat": 0.0}, {"bike_id": "294685e439cf69ad76e27970dd2200d1", "fusion_lon": 0.0, "lon": -76.98518816666666, "name": "294685e439cf69ad76e27970dd2200d1", "is_disabled": 0, "rental_uris": {"android": "https://dc.lft.to/lastmile_qr_scan", "ios": "https://dc.lft.to/lastmile_qr_scan"}, "type": "electric_scooter", "lat": 38.8666855, "is_reserved": 0, "fusion_lat": 0.0}, {"bike_id": "64191f7e8743bfc12a3ae9363eaf580a", "fusion_lon": 0.0, "lon": -77.0282775, "name": "64191f7e8743bfc12a3ae9363eaf580a", "is_disabled": 0, "rental_uris": {"android": "https://dc.lft.to/lastmile_qr_scan", "ios": "https://dc.lft.to/lastmile_qr_scan"}, "type": "electric_scooter", "lat": 38.887325833333335, "is_reserved": 0, "fusion_lat": 0.0}, {"bike_id": "3b5d6b50f0b90f8a724bf9ad0614937a", "fusion_lon": 0.0, "lon": -77.0434575, "name": "3b5d6b50f0b90f8a724bf9ad0614937a", "is_disabled": 0, "rental_uris": {"android": "https://dc.lft.to/lastmile_qr_scan", "ios": "https://dc.lft.to/lastmile_qr_scan"}, "type": "electric_scooter", "lat": 38.9216095, "is_reserved": 0, "fusion_lat": 0.0}, {"bike_id": "de38c80a449c2cbc25086793037e806c", "fusion_lon": 0.0, "lon": -76.98271233333334, "name": "de38c80a449c2cbc25086793037e806c", "is_disabled": 0, "rental_uris": {"android": "https://dc.lft.to/lastmile_qr_scan", "ios": "https://dc.lft.to/lastmile_qr_scan"}, "type": "electric_scooter", "lat": 38.904395, "is_reserved": 0, "fusion_lat": 0.0}, {"bike_id": "a98d9274f99ecbf196d397d917ecd5a1", "fusion_lon": 0.0, "lon": -76.931772, "name": "a98d9274f99ecbf196d397d917ecd5a1", "is_disabled": 0, "rental_uris": {"android": "https://dc.lft.to/lastmile_qr_scan", "ios": "https://dc.lft.to/lastmile_qr_scan"}, "type": "electric_scooter", "lat": 38.89883533333333, "is_reserved": 0, "fusion_lat": 0.0}, {"bike_id": "a0f169abdbce1bc931bf3403db48fd84", "fusion_lon": 0.0, "lon": -77.01554616666667, "name": "a0f169abdbce1bc931bf3403db48fd84", "is_disabled": 0, "rental_uris": {"android": "https://dc.lft.to/lastmile_qr_scan", "ios": "https://dc.lft.to/lastmile_qr_scan"}, "type": "electric_scooter", "lat": 38.88331383333333, "is_reserved": 0, "fusion_lat": 0.0}, {"bike_id": "99f1e77c5051169f5e05ae96f5ddde4a", "fusion_lon": 0.0, "lon": -76.9977645, "name": "99f1e77c5051169f5e05ae96f5ddde4a", "is_disabled": 0, "rental_uris": {"android": "https://dc.lft.to/lastmile_qr_scan", "ios": "https://dc.lft.to/lastmile_qr_scan"}, "type": "electric_scooter", "lat": 38.844331833333335, "is_reserved": 0, "fusion_lat": 0.0}, {"bike_id": "5744e0012c448efc98958d66d420d9f8", "fusion_lon": 0.0, "lon": -76.98312633333333, "name": "5744e0012c448efc98958d66d420d9f8", "is_disabled": 0, "rental_uris": {"android": "https://dc.lft.to/lastmile_qr_scan", "ios": "https://dc.lft.to/lastmile_qr_scan"}, "type": "electric_scooter", "lat": 38.86891766666667, "is_reserved": 0, "fusion_lat": 0.0}, {"bike_id": "3bb10d6bdacdf8887a708a18ac94c2f5", "fusion_lon": 0.0, "lon": -77.00604166666666, "name": "3bb10d6bdacdf8887a708a18ac94c2f5", "is_disabled": 0, "rental_uris": {"android": "https://dc.lft.to/lastmile_qr_scan", "ios": "https://dc.lft.to/lastmile_qr_scan"}, "type": "electric_scooter", "lat": 38.905614166666666, "is_reserved": 0, "fusion_lat": 0.0}, {"bike_id": "35bc43af4f827ad2c830022428709b15", "fusion_lon": 0.0, "lon": -76.97595216666667, "name": "35bc43af4f827ad2c830022428709b15", "is_disabled": 0, "rental_uris": {"android": "https://dc.lft.to/lastmile_qr_scan", "ios": "https://dc.lft.to/lastmile_qr_scan"}, "type": "electric_scooter", "lat": 38.9033155, "is_reserved": 0, "fusion_lat": 0.0}, {"bike_id": "8573ef1d19079a7032cadbe718fe2cd9", "fusion_lon": 0.0, "lon": -77.03463166666667, "name": "8573ef1d19079a7032cadbe718fe2cd9", "is_disabled": 0, "rental_uris": {"android": "https://dc.lft.to/lastmile_qr_scan", "ios": "https://dc.lft.to/lastmile_qr_scan"}, "type": "electric_scooter", "lat": 38.90677383333333, "is_reserved": 0, "fusion_lat": 0.0}, {"bike_id": "b3559dde17c67192c882d53caf827875", "fusion_lon": 0.0, "lon": -77.03182816666667, "name": "b3559dde17c67192c882d53caf827875", "is_disabled": 0, "rental_uris": {"android": "https://dc.lft.to/lastmile_qr_scan", "ios": "https://dc.lft.to/lastmile_qr_scan"}, "type": "electric_scooter", "lat": 38.91746533333333, "is_reserved": 0, "fusion_lat": 0.0}, {"bike_id": "ef4f21ad1cdfbb33fb7fa22fbd499b74", "fusion_lon": 0.0, "lon": -77.01308316666666, "name": "ef4f21ad1cdfbb33fb7fa22fbd499b74", "is_disabled": 0, "rental_uris": {"android": "https://dc.lft.to/lastmile_qr_scan", "ios": "https://dc.lft.to/lastmile_qr_scan"}, "type": "electric_scooter", "lat": 38.914101333333335, "is_reserved": 0, "fusion_lat": 0.0}, {"bike_id": "cda1dfe4ea2035a800832781fec347ec", "fusion_lon": 0.0, "lon": -77.0347235, "name": "cda1dfe4ea2035a800832781fec347ec", "is_disabled": 0, "rental_uris": {"android": "https://dc.lft.to/lastmile_qr_scan", "ios": "https://dc.lft.to/lastmile_qr_scan"}, "type": "electric_scooter", "lat": 38.91705733333333, "is_reserved": 0, "fusion_lat": 0.0}, {"bike_id": "8e17cf13b632922dcdf67349d4f0de0a", "fusion_lon": 0.0, "lon": -77.05061516666666, "name": "8e17cf13b632922dcdf67349d4f0de0a", "is_disabled": 0, "rental_uris": {"android": "https://dc.lft.to/lastmile_qr_scan", "ios": "https://dc.lft.to/lastmile_qr_scan"}, "type": "electric_scooter", "lat": 38.9233685, "is_reserved": 0, "fusion_lat": 0.0}, {"bike_id": "4be330fb1ee7b89f3f15e5e351f8484a", "fusion_lon": 0.0, "lon": -77.07823266666666, "name": "4be330fb1ee7b89f3f15e5e351f8484a", "is_disabled": 0, "rental_uris": {"android": "https://dc.lft.to/lastmile_qr_scan", "ios": "https://dc.lft.to/lastmile_qr_scan"}, "type": "electric_scooter", "lat": 38.912754166666666, "is_reserved": 0, "fusion_lat": 0.0}, {"bike_id": "314a9ef07600c80f31f99d8e465a3d5b", "fusion_lon": 0.0, "lon": -77.046599, "name": "314a9ef07600c80f31f99d8e465a3d5b", "is_disabled": 0, "rental_uris": {"android": "https://dc.lft.to/lastmile_qr_scan", "ios": "https://dc.lft.to/lastmile_qr_scan"}, "type": "electric_scooter", "lat": 38.90840216666667, "is_reserved": 0, "fusion_lat": 0.0}, {"bike_id": "c8cedb900982416362f46835ce3a83eb", "fusion_lon": 0.0, "lon": -77.0350775, "name": "c8cedb900982416362f46835ce3a83eb", "is_disabled": 0, "rental_uris": {"android": "https://dc.lft.to/lastmile_qr_scan", "ios": "https://dc.lft.to/lastmile_qr_scan"}, "type": "electric_bike", "lat": 38.921574, "is_reserved": 0, "fusion_lat": 0.0}, {"bike_id": "5334284975f892a0d7b455619c5b2e5f", "fusion_lon": 0.0, "lon": -77.04593166666666, "name": "5334284975f892a0d7b455619c5b2e5f", "is_disabled": 0, "rental_uris": {"android": "https://dc.lft.to/lastmile_qr_scan", "ios": "https://dc.lft.to/lastmile_qr_scan"}, "type": "electric_scooter", "lat": 38.9086535, "is_reserved": 0, "fusion_lat": 0.0}, {"bike_id": "db42ce7264f9bc6c8f862292ff06c55e", "fusion_lon": 0.0, "lon": -77.02580383333333, "name": "db42ce7264f9bc6c8f862292ff06c55e", "is_disabled": 0, "rental_uris": {"android": "https://dc.lft.to/lastmile_qr_scan", "ios": "https://dc.lft.to/lastmile_qr_scan"}, "type": "electric_scooter", "lat": 38.92049933333333, "is_reserved": 0, "fusion_lat": 0.0}, {"bike_id": "3794dba168875f6cf5bc196dfded5e8d", "fusion_lon": 0.0, "lon": -77.04104783333334, "name": "3794dba168875f6cf5bc196dfded5e8d", "is_disabled": 0, "rental_uris": {"android": "https://dc.lft.to/lastmile_qr_scan", "ios": "https://dc.lft.to/lastmile_qr_scan"}, "type": "electric_scooter", "lat": 38.905637166666665, "is_reserved": 0, "fusion_lat": 0.0}, {"bike_id": "88cf434aa6430f80e4f85de2677c9873", "fusion_lon": 0.0, "lon": -77.00843566666667, "name": "88cf434aa6430f80e4f85de2677c9873", "is_disabled": 0, "rental_uris": {"android": "https://dc.lft.to/lastmile_qr_scan", "ios": "https://dc.lft.to/lastmile_qr_scan"}, "type": "electric_bike", "lat": 38.82906583333333, "is_reserved": 0, "fusion_lat": 0.0}, {"bike_id": "927dd04bcb3adcee75da3702be741f38", "fusion_lon": 0.0, "lon": -77.03901983333333, "name": "927dd04bcb3adcee75da3702be741f38", "is_disabled": 0, "rental_uris": {"android": "https://dc.lft.to/lastmile_qr_scan", "ios": "https://dc.lft.to/lastmile_qr_scan"}, "type": "electric_scooter", "lat": 38.9219995, "is_reserved": 0, "fusion_lat": 0.0}, {"bike_id": "2092e4f0cab1fba4eed25b3f17fd649e", "fusion_lon": 0.0, "lon": -77.00209116666667, "name": "2092e4f0cab1fba4eed25b3f17fd649e", "is_disabled": 0, "rental_uris": {"android": "https://dc.lft.to/lastmile_qr_scan", "ios": "https://dc.lft.to/lastmile_qr_scan"}, "type": "electric_scooter", "lat": 38.900674333333335, "is_reserved": 0, "fusion_lat": 0.0}, {"bike_id": "5f7288a0dc5db837ee77ddd14a6f48c4", "fusion_lon": 0.0, "lon": -77.02572983333333, "name": "5f7288a0dc5db837ee77ddd14a6f48c4", "is_disabled": 0, "rental_uris": {"android": "https://dc.lft.to/lastmile_qr_scan", "ios": "https://dc.lft.to/lastmile_qr_scan"}, "type": "electric_scooter", "lat": 38.88747866666667, "is_reserved": 0, "fusion_lat": 0.0}, {"bike_id": "616022138a30bd599b74181545355b65", "fusion_lon": 0.0, "lon": -77.04362733333333, "name": "616022138a30bd599b74181545355b65", "is_disabled": 0, "rental_uris": {"android": "https://dc.lft.to/lastmile_qr_scan", "ios": "https://dc.lft.to/lastmile_qr_scan"}, "type": "electric_scooter", "lat": 38.9025355, "is_reserved": 0, "fusion_lat": 0.0}, {"bike_id": "474977860ff94cd80ea6d93bcbec55e6", "fusion_lon": 0.0, "lon": -76.96672, "name": "474977860ff94cd80ea6d93bcbec55e6", "is_disabled": 0, "rental_uris": {"android": "https://dc.lft.to/lastmile_qr_scan", "ios": "https://dc.lft.to/lastmile_qr_scan"}, "type": "electric_scooter", "lat": 38.85076683333333, "is_reserved": 0, "fusion_lat": 0.0}, {"bike_id": "73a797e48e62c667e2e084902840089f", "fusion_lon": 0.0, "lon": -77.04826266666667, "name": "73a797e48e62c667e2e084902840089f", "is_disabled": 0, "rental_uris": {"android": "https://dc.lft.to/lastmile_qr_scan", "ios": "https://dc.lft.to/lastmile_qr_scan"}, "type": "electric_scooter", "lat": 38.90947633333333, "is_reserved": 0, "fusion_lat": 0.0}, {"bike_id": "f2093f18f91783bbbd7e54040e3a2d4d", "fusion_lon": 0.0, "lon": -76.937575, "name": "f2093f18f91783bbbd7e54040e3a2d4d", "is_disabled": 0, "rental_uris": {"android": "https://dc.lft.to/lastmile_qr_scan", "ios": "https://dc.lft.to/lastmile_qr_scan"}, "type": "electric_scooter", "lat": 38.9037965, "is_reserved": 0, "fusion_lat": 0.0}, {"bike_id": "c5f3b811d88332adda97a87f930d9310", "fusion_lon": 0.0, "lon": -77.0337085, "name": "c5f3b811d88332adda97a87f930d9310", "is_disabled": 0, "rental_uris": {"android": "https://dc.lft.to/lastmile_qr_scan", "ios": "https://dc.lft.to/lastmile_qr_scan"}, "type": "electric_scooter", "lat": 38.92870666666666, "is_reserved": 0, "fusion_lat": 0.0}, {"bike_id": "0fe19b5bf0c1f8d0f066c5dd1bfba6eb", "fusion_lon": 0.0, "lon": -77.0326685, "name": "0fe19b5bf0c1f8d0f066c5dd1bfba6eb", "is_disabled": 0, "rental_uris": {"android": "https://dc.lft.to/lastmile_qr_scan", "ios": "https://dc.lft.to/lastmile_qr_scan"}, "type": "electric_scooter", "lat": 38.933131, "is_reserved": 0, "fusion_lat": 0.0}, {"bike_id": "9d40cde2209a20177553c8acefd4d4f3", "fusion_lon": 0.0, "lon": -76.99486866666666, "name": "9d40cde2209a20177553c8acefd4d4f3", "is_disabled": 0, "rental_uris": {"android": "https://dc.lft.to/lastmile_qr_scan", "ios": "https://dc.lft.to/lastmile_qr_scan"}, "type": "electric_scooter", "lat": 38.9098355, "is_reserved": 0, "fusion_lat": 0.0}, {"bike_id": "14ed8bd9882f073a97915a0d90b17c20", "fusion_lon": 0.0, "lon": -76.97330516666666, "name": "14ed8bd9882f073a97915a0d90b17c20", "is_disabled": 0, "rental_uris": {"android": "https://dc.lft.to/lastmile_qr_scan", "ios": "https://dc.lft.to/lastmile_qr_scan"}, "type": "electric_bike", "lat": 38.86514783333333, "is_reserved": 0, "fusion_lat": 0.0}, {"bike_id": "5e454b40c6ff39329c1ce533dbb4f32e", "fusion_lon": 0.0, "lon": -76.97724483333333, "name": "5e454b40c6ff39329c1ce533dbb4f32e", "is_disabled": 0, "rental_uris": {"android": "https://dc.lft.to/lastmile_qr_scan", "ios": "https://dc.lft.to/lastmile_qr_scan"}, "type": "electric_scooter", "lat": 38.87241083333333, "is_reserved": 0, "fusion_lat": 0.0}, {"bike_id": "94eb530e2de217a6511959fd469439f7", "fusion_lon": 0.0, "lon": -77.027587, "name": "94eb530e2de217a6511959fd469439f7", "is_disabled": 0, "rental_uris": {"android": "https://dc.lft.to/lastmile_qr_scan", "ios": "https://dc.lft.to/lastmile_qr_scan"}, "type": "electric_scooter", "lat": 38.907249166666666, "is_reserved": 0, "fusion_lat": 0.0}, {"bike_id": "7c99218160cd6a32d71d38034e697c7d", "fusion_lon": 0.0, "lon": -77.04165266666666, "name": "7c99218160cd6a32d71d38034e697c7d", "is_disabled": 0, "rental_uris": {"android": "https://dc.lft.to/lastmile_qr_scan", "ios": "https://dc.lft.to/lastmile_qr_scan"}, "type": "electric_scooter", "lat": 38.91830366666667, "is_reserved": 0, "fusion_lat": 0.0}, {"bike_id": "cbde2e300cb956b1c477d1b1753a18bc", "fusion_lon": 0.0, "lon": -77.02766366666667, "name": "cbde2e300cb956b1c477d1b1753a18bc", "is_disabled": 0, "rental_uris": {"android": "https://dc.lft.to/lastmile_qr_scan", "ios": "https://dc.lft.to/lastmile_qr_scan"}, "type": "electric_scooter", "lat": 38.90732116666667, "is_reserved": 0, "fusion_lat": 0.0}, {"bike_id": "e8e47747388dfa864e217568f87df4d3", "fusion_lon": 0.0, "lon": -76.98718383333333, "name": "e8e47747388dfa864e217568f87df4d3", "is_disabled": 0, "rental_uris": {"android": "https://dc.lft.to/lastmile_qr_scan", "ios": "https://dc.lft.to/lastmile_qr_scan"}, "type": "electric_scooter", "lat": 38.866945333333334, "is_reserved": 0, "fusion_lat": 0.0}, {"bike_id": "64ff1917ad41cbb2c2387539035903f7", "fusion_lon": 0.0, "lon": -77.00200383333333, "name": "64ff1917ad41cbb2c2387539035903f7", "is_disabled": 0, "rental_uris": {"android": "https://dc.lft.to/lastmile_qr_scan", "ios": "https://dc.lft.to/lastmile_qr_scan"}, "type": "electric_scooter", "lat": 38.90241566666667, "is_reserved": 0, "fusion_lat": 0.0}, {"bike_id": "cdbd5b983c5a6fe1472cafa3b6dbf1c2", "fusion_lon": 0.0, "lon": -77.01845966666667, "name": "cdbd5b983c5a6fe1472cafa3b6dbf1c2", "is_disabled": 0, "rental_uris": {"android": "https://dc.lft.to/lastmile_qr_scan", "ios": "https://dc.lft.to/lastmile_qr_scan"}, "type": "electric_scooter", "lat": 38.94631116666667, "is_reserved": 0, "fusion_lat": 0.0}, {"bike_id": "ce6b2432a6960c94ea358ccdb197b5d7", "fusion_lon": 0.0, "lon": -76.935459, "name": "ce6b2432a6960c94ea358ccdb197b5d7", "is_disabled": 0, "rental_uris": {"android": "https://dc.lft.to/lastmile_qr_scan", "ios": "https://dc.lft.to/lastmile_qr_scan"}, "type": "electric_bike", "lat": 38.951862166666665, "is_reserved": 0, "fusion_lat": 0.0}, {"bike_id": "6cb02bddf6b447f1e84f6a4c74b2af6d", "fusion_lon": 0.0, "lon": -77.021802, "name": "6cb02bddf6b447f1e84f6a4c74b2af6d", "is_disabled": 0, "rental_uris": {"android": "https://dc.lft.to/lastmile_qr_scan", "ios": "https://dc.lft.to/lastmile_qr_scan"}, "type": "electric_scooter", "lat": 38.898912, "is_reserved": 0, "fusion_lat": 0.0}, {"bike_id": "dee855af113e68f8fcc4130c3c1dace6", "fusion_lon": 0.0, "lon": -76.98111683333333, "name": "dee855af113e68f8fcc4130c3c1dace6", "is_disabled": 0, "rental_uris": {"android": "https://dc.lft.to/lastmile_qr_scan", "ios": "https://dc.lft.to/lastmile_qr_scan"}, "type": "electric_bike", "lat": 38.9147265, "is_reserved": 0, "fusion_lat": 0.0}, {"bike_id": "952de3079a401c9de24a3896c888f139", "fusion_lon": 0.0, "lon": -77.04423216666666, "name": "952de3079a401c9de24a3896c888f139", "is_disabled": 0, "rental_uris": {"android": "https://dc.lft.to/lastmile_qr_scan", "ios": "https://dc.lft.to/lastmile_qr_scan"}, "type": "electric_scooter", "lat": 38.9100805, "is_reserved": 0, "fusion_lat": 0.0}, {"bike_id": "9debeec05b106c8be949ff23fb3b51cf", "fusion_lon": 0.0, "lon": -77.02970883333333, "name": "9debeec05b106c8be949ff23fb3b51cf", "is_disabled": 0, "rental_uris": {"android": "https://dc.lft.to/lastmile_qr_scan", "ios": "https://dc.lft.to/lastmile_qr_scan"}, "type": "electric_scooter", "lat": 38.91593, "is_reserved": 0, "fusion_lat": 0.0}, {"bike_id": "013299aa1e690a09b0a92f46ef765c42", "fusion_lon": 0.0, "lon": -77.02971816666667, "name": "013299aa1e690a09b0a92f46ef765c42", "is_disabled": 0, "rental_uris": {"android": "https://dc.lft.to/lastmile_qr_scan", "ios": "https://dc.lft.to/lastmile_qr_scan"}, "type": "electric_scooter", "lat": 38.916778666666666, "is_reserved": 0, "fusion_lat": 0.0}, {"bike_id": "6464a7015eebd329e1ab0668f451e941", "fusion_lon": 0.0, "lon": -77.0365825, "name": "6464a7015eebd329e1ab0668f451e941", "is_disabled": 0, "rental_uris": {"android": "https://dc.lft.to/lastmile_qr_scan", "ios": "https://dc.lft.to/lastmile_qr_scan"}, "type": "electric_scooter", "lat": 38.915517666666666, "is_reserved": 0, "fusion_lat": 0.0}, {"bike_id": "a428f31a7eb338f82a871104fb83bb37", "fusion_lon": 0.0, "lon": -77.02174033333333, "name": "a428f31a7eb338f82a871104fb83bb37", "is_disabled": 0, "rental_uris": {"android": "https://dc.lft.to/lastmile_qr_scan", "ios": "https://dc.lft.to/lastmile_qr_scan"}, "type": "electric_scooter", "lat": 38.906240333333336, "is_reserved": 0, "fusion_lat": 0.0}, {"bike_id": "998d58d095435b0f6764e70508cc1f80", "fusion_lon": 0.0, "lon": -77.03161566666667, "name": "998d58d095435b0f6764e70508cc1f80", "is_disabled": 0, "rental_uris": {"android": "https://dc.lft.to/lastmile_qr_scan", "ios": "https://dc.lft.to/lastmile_qr_scan"}, "type": "electric_scooter", "lat": 38.892215, "is_reserved": 0, "fusion_lat": 0.0}, {"bike_id": "cdd3f97646bb5f77764f99f6c2222619", "fusion_lon": 0.0, "lon": -77.04258333333334, "name": "cdd3f97646bb5f77764f99f6c2222619", "is_disabled": 0, "rental_uris": {"android": "https://dc.lft.to/lastmile_qr_scan", "ios": "https://dc.lft.to/lastmile_qr_scan"}, "type": "electric_scooter", "lat": 38.92199166666666, "is_reserved": 0, "fusion_lat": 0.0}, {"bike_id": "03cc7757910d12274c0f336bce495eb7", "fusion_lon": 0.0, "lon": -76.99944783333333, "name": "03cc7757910d12274c0f336bce495eb7", "is_disabled": 0, "rental_uris": {"android": "https://dc.lft.to/lastmile_qr_scan", "ios": "https://dc.lft.to/lastmile_qr_scan"}, "type": "electric_scooter", "lat": 38.842937166666665, "is_reserved": 0, "fusion_lat": 0.0}, {"bike_id": "0225de069a971906f075c5665a078f4a", "fusion_lon": 0.0, "lon": -77.0332825, "name": "0225de069a971906f075c5665a078f4a", "is_disabled": 0, "rental_uris": {"android": "https://dc.lft.to/lastmile_qr_scan", "ios": "https://dc.lft.to/lastmile_qr_scan"}, "type": "electric_scooter", "lat": 38.90299266666667, "is_reserved": 0, "fusion_lat": 0.0}, {"bike_id": "6e081680de48887b81d75f6363fcdbc4", "fusion_lon": 0.0, "lon": -77.033336, "name": "6e081680de48887b81d75f6363fcdbc4", "is_disabled": 0, "rental_uris": {"android": "https://dc.lft.to/lastmile_qr_scan", "ios": "https://dc.lft.to/lastmile_qr_scan"}, "type": "electric_scooter", "lat": 38.902639, "is_reserved": 0, "fusion_lat": 0.0}, {"bike_id": "254d966bfef8fdd4b4a3d7051c9d25af", "fusion_lon": 0.0, "lon": -77.02007966666666, "name": "254d966bfef8fdd4b4a3d7051c9d25af", "is_disabled": 0, "rental_uris": {"android": "https://dc.lft.to/lastmile_qr_scan", "ios": "https://dc.lft.to/lastmile_qr_scan"}, "type": "electric_scooter", "lat": 38.915654333333336, "is_reserved": 0, "fusion_lat": 0.0}, {"bike_id": "2750041066e17949310cd20a6554abbc", "fusion_lon": 0.0, "lon": -77.063557, "name": "2750041066e17949310cd20a6554abbc", "is_disabled": 0, "rental_uris": {"android": "https://dc.lft.to/lastmile_qr_scan", "ios": "https://dc.lft.to/lastmile_qr_scan"}, "type": "electric_scooter", "lat": 38.94439666666667, "is_reserved": 0, "fusion_lat": 0.0}, {"bike_id": "910272c84fd1d75b6e507a8fab30d3d8", "fusion_lon": 0.0, "lon": -77.04475483333333, "name": "910272c84fd1d75b6e507a8fab30d3d8", "is_disabled": 0, "rental_uris": {"android": "https://dc.lft.to/lastmile_qr_scan", "ios": "https://dc.lft.to/lastmile_qr_scan"}, "type": "electric_scooter", "lat": 38.911103833333335, "is_reserved": 0, "fusion_lat": 0.0}, {"bike_id": "139f5253e4201c3e95953bc2c97eeefe", "fusion_lon": 0.0, "lon": -77.03651783333333, "name": "139f5253e4201c3e95953bc2c97eeefe", "is_disabled": 0, "rental_uris": {"android": "https://dc.lft.to/lastmile_qr_scan", "ios": "https://dc.lft.to/lastmile_qr_scan"}, "type": "electric_scooter", "lat": 38.91794766666667, "is_reserved": 0, "fusion_lat": 0.0}, {"bike_id": "6262017b5812c9033afa28fd17f6191c", "fusion_lon": 0.0, "lon": -77.034827, "name": "6262017b5812c9033afa28fd17f6191c", "is_disabled": 0, "rental_uris": {"android": "https://dc.lft.to/lastmile_qr_scan", "ios": "https://dc.lft.to/lastmile_qr_scan"}, "type": "electric_scooter", "lat": 38.905562833333335, "is_reserved": 0, "fusion_lat": 0.0}, {"bike_id": "f21f34069b94a059b669cc12285eb47b", "fusion_lon": 0.0, "lon": -77.0038645, "name": "f21f34069b94a059b669cc12285eb47b", "is_disabled": 0, "rental_uris": {"android": "https://dc.lft.to/lastmile_qr_scan", "ios": "https://dc.lft.to/lastmile_qr_scan"}, "type": "electric_scooter", "lat": 38.92207883333333, "is_reserved": 0, "fusion_lat": 0.0}, {"bike_id": "2bd94e23c60435b826209ad615f21942", "fusion_lon": 0.0, "lon": -77.01942783333334, "name": "2bd94e23c60435b826209ad615f21942", "is_disabled": 0, "rental_uris": {"android": "https://dc.lft.to/lastmile_qr_scan", "ios": "https://dc.lft.to/lastmile_qr_scan"}, "type": "electric_scooter", "lat": 38.948526333333334, "is_reserved": 0, "fusion_lat": 0.0}, {"bike_id": "e35cfa9dc0fcdabff272e33b200fddc0", "fusion_lon": 0.0, "lon": -77.01291333333333, "name": "e35cfa9dc0fcdabff272e33b200fddc0", "is_disabled": 0, "rental_uris": {"android": "https://dc.lft.to/lastmile_qr_scan", "ios": "https://dc.lft.to/lastmile_qr_scan"}, "type": "electric_bike", "lat": 39.00378, "is_reserved": 0, "fusion_lat": 0.0}, {"bike_id": "b5fc2d0bfe93675e0c89af9a20554e54", "fusion_lon": 0.0, "lon": -77.03184716666667, "name": "b5fc2d0bfe93675e0c89af9a20554e54", "is_disabled": 0, "rental_uris": {"android": "https://dc.lft.to/lastmile_qr_scan", "ios": "https://dc.lft.to/lastmile_qr_scan"}, "type": "electric_scooter", "lat": 38.91583816666667, "is_reserved": 0, "fusion_lat": 0.0}, {"bike_id": "c5993da05bb1f8e81bcd1b182a0ae167", "fusion_lon": 0.0, "lon": -76.97271883333333, "name": "c5993da05bb1f8e81bcd1b182a0ae167", "is_disabled": 0, "rental_uris": {"android": "https://dc.lft.to/lastmile_qr_scan", "ios": "https://dc.lft.to/lastmile_qr_scan"}, "type": "electric_bike", "lat": 38.91955266666667, "is_reserved": 0, "fusion_lat": 0.0}, {"bike_id": "38dc700a81757c95b6bffb04ee41ab3e", "fusion_lon": 0.0, "lon": -77.04653233333333, "name": "38dc700a81757c95b6bffb04ee41ab3e", "is_disabled": 0, "rental_uris": {"android": "https://dc.lft.to/lastmile_qr_scan", "ios": "https://dc.lft.to/lastmile_qr_scan"}, "type": "electric_bike", "lat": 39.054936833333336, "is_reserved": 0, "fusion_lat": 0.0}, {"bike_id": "5346d4e9eda6687eb77d9e8812b75cdd", "fusion_lon": 0.0, "lon": -77.21650016666666, "name": "5346d4e9eda6687eb77d9e8812b75cdd", "is_disabled": 0, "rental_uris": {"android": "https://dc.lft.to/lastmile_qr_scan", "ios": "https://dc.lft.to/lastmile_qr_scan"}, "type": "electric_bike", "lat": 38.930109333333334, "is_reserved": 0, "fusion_lat": 0.0}, {"bike_id": "2fa86024adef892b691e791cb7c4daa2", "fusion_lon": 0.0, "lon": -77.021544, "name": "2fa86024adef892b691e791cb7c4daa2", "is_disabled": 0, "rental_uris": {"android": "https://dc.lft.to/lastmile_qr_scan", "ios": "https://dc.lft.to/lastmile_qr_scan"}, "type": "electric_scooter", "lat": 38.926054666666666, "is_reserved": 0, "fusion_lat": 0.0}, {"bike_id": "32d757fbd40bc317045b625f3fd44e63", "fusion_lon": 0.0, "lon": -76.960599, "name": "32d757fbd40bc317045b625f3fd44e63", "is_disabled": 0, "rental_uris": {"android": "https://dc.lft.to/lastmile_qr_scan", "ios": "https://dc.lft.to/lastmile_qr_scan"}, "type": "electric_bike", "lat": 38.884024833333335, "is_reserved": 0, "fusion_lat": 0.0}, {"bike_id": "cc499a520e59b10a6e07781e19b34189", "fusion_lon": 0.0, "lon": -77.058805, "name": "cc499a520e59b10a6e07781e19b34189", "is_disabled": 0, "rental_uris": {"android": "https://dc.lft.to/lastmile_qr_scan", "ios": "https://dc.lft.to/lastmile_qr_scan"}, "type": "electric_bike", "lat": 38.95889733333333, "is_reserved": 0, "fusion_lat": 0.0}, {"bike_id": "537b124040b3e36e0b306e04dd54ed6e", "fusion_lon": 0.0, "lon": -77.029799, "name": "537b124040b3e36e0b306e04dd54ed6e", "is_disabled": 0, "rental_uris": {"android": "https://dc.lft.to/lastmile_qr_scan", "ios": "https://dc.lft.to/lastmile_qr_scan"}, "type": "electric_scooter", "lat": 38.9624365, "is_reserved": 0, "fusion_lat": 0.0}, {"bike_id": "f5a266806c985d96a6c84f53e9cc731c", "fusion_lon": 0.0, "lon": -77.0477205, "name": "f5a266806c985d96a6c84f53e9cc731c", "is_disabled": 0, "rental_uris": {"android": "https://dc.lft.to/lastmile_qr_scan", "ios": "https://dc.lft.to/lastmile_qr_scan"}, "type": "electric_scooter", "lat": 38.907179166666666, "is_reserved": 0, "fusion_lat": 0.0}, {"bike_id": "793bb9325b5a4179742944070144d217", "fusion_lon": 0.0, "lon": -77.04171716666667, "name": "793bb9325b5a4179742944070144d217", "is_disabled": 0, "rental_uris": {"android": "https://dc.lft.to/lastmile_qr_scan", "ios": "https://dc.lft.to/lastmile_qr_scan"}, "type": "electric_scooter", "lat": 38.90729683333333, "is_reserved": 0, "fusion_lat": 0.0}, {"bike_id": "9433ab93fbe236847e9c3f00d09769eb", "fusion_lon": 0.0, "lon": -77.0216125, "name": "9433ab93fbe236847e9c3f00d09769eb", "is_disabled": 0, "rental_uris": {"android": "https://dc.lft.to/lastmile_qr_scan", "ios": "https://dc.lft.to/lastmile_qr_scan"}, "type": "electric_scooter", "lat": 38.92496216666667, "is_reserved": 0, "fusion_lat": 0.0}, {"bike_id": "8afc06a629344e961e9f70c44b69fc12", "fusion_lon": 0.0, "lon": -77.03646466666666, "name": "8afc06a629344e961e9f70c44b69fc12", "is_disabled": 0, "rental_uris": {"android": "https://dc.lft.to/lastmile_qr_scan", "ios": "https://dc.lft.to/lastmile_qr_scan"}, "type": "electric_scooter", "lat": 38.9031385, "is_reserved": 0, "fusion_lat": 0.0}, {"bike_id": "dceea8631f0a6a828c8b03c4a823f6d3", "fusion_lon": 0.0, "lon": -77.035375, "name": "dceea8631f0a6a828c8b03c4a823f6d3", "is_disabled": 0, "rental_uris": {"android": "https://dc.lft.to/lastmile_qr_scan", "ios": "https://dc.lft.to/lastmile_qr_scan"}, "type": "electric_scooter", "lat": 38.92305733333333, "is_reserved": 0, "fusion_lat": 0.0}, {"bike_id": "a5fc26c48dfeb5acc52c232ecc272bfb", "fusion_lon": 0.0, "lon": -77.06489916666666, "name": "a5fc26c48dfeb5acc52c232ecc272bfb", "is_disabled": 0, "rental_uris": {"android": "https://dc.lft.to/lastmile_qr_scan", "ios": "https://dc.lft.to/lastmile_qr_scan"}, "type": "electric_scooter", "lat": 38.903323, "is_reserved": 0, "fusion_lat": 0.0}, {"bike_id": "70102be7605c782cbd88c633a40c8077", "fusion_lon": 0.0, "lon": -77.024923, "name": "70102be7605c782cbd88c633a40c8077", "is_disabled": 0, "rental_uris": {"android": "https://dc.lft.to/lastmile_qr_scan", "ios": "https://dc.lft.to/lastmile_qr_scan"}, "type": "electric_scooter", "lat": 38.941834, "is_reserved": 0, "fusion_lat": 0.0}, {"bike_id": "e185e70ff77d2a7bbca8a8883033896f", "fusion_lon": 0.0, "lon": -77.00576966666667, "name": "e185e70ff77d2a7bbca8a8883033896f", "is_disabled": 0, "rental_uris": {"android": "https://dc.lft.to/lastmile_qr_scan", "ios": "https://dc.lft.to/lastmile_qr_scan"}, "type": "electric_scooter", "lat": 38.8724865, "is_reserved": 0, "fusion_lat": 0.0}, {"bike_id": "7a34d93c6976c8778cf08984c926e716", "fusion_lon": 0.0, "lon": -77.00691083333334, "name": "7a34d93c6976c8778cf08984c926e716", "is_disabled": 0, "rental_uris": {"android": "https://dc.lft.to/lastmile_qr_scan", "ios": "https://dc.lft.to/lastmile_qr_scan"}, "type": "electric_scooter", "lat": 38.87921583333333, "is_reserved": 0, "fusion_lat": 0.0}, {"bike_id": "5bcba88086a3f73d5c3356175b7bdb0d", "fusion_lon": 0.0, "lon": -77.03294833333334, "name": "5bcba88086a3f73d5c3356175b7bdb0d", "is_disabled": 0, "rental_uris": {"android": "https://dc.lft.to/lastmile_qr_scan", "ios": "https://dc.lft.to/lastmile_qr_scan"}, "type": "electric_scooter", "lat": 38.94714483333333, "is_reserved": 0, "fusion_lat": 0.0}, {"bike_id": "b576344c9e64d7df8e32f1e8f68c4b1f", "fusion_lon": 0.0, "lon": -77.03327383333334, "name": "b576344c9e64d7df8e32f1e8f68c4b1f", "is_disabled": 0, "rental_uris": {"android": "https://dc.lft.to/lastmile_qr_scan", "ios": "https://dc.lft.to/lastmile_qr_scan"}, "type": "electric_scooter", "lat": 38.91360533333334, "is_reserved": 0, "fusion_lat": 0.0}, {"bike_id": "8bb1b38528a42cbb3e1c2586a7438fea", "fusion_lon": 0.0, "lon": -77.0200495, "name": "8bb1b38528a42cbb3e1c2586a7438fea", "is_disabled": 0, "rental_uris": {"android": "https://dc.lft.to/lastmile_qr_scan", "ios": "https://dc.lft.to/lastmile_qr_scan"}, "type": "electric_scooter", "lat": 38.903690166666664, "is_reserved": 0, "fusion_lat": 0.0}, {"bike_id": "9bf8885f559357d1ad389dee4a8c727e", "fusion_lon": 0.0, "lon": -77.041861, "name": "9bf8885f559357d1ad389dee4a8c727e", "is_disabled": 0, "rental_uris": {"android": "https://dc.lft.to/lastmile_qr_scan", "ios": "https://dc.lft.to/lastmile_qr_scan"}, "type": "electric_scooter", "lat": 38.892864833333334, "is_reserved": 0, "fusion_lat": 0.0}, {"bike_id": "d7b9b8198041dce408f575e545897144", "fusion_lon": 0.0, "lon": -77.013702, "name": "d7b9b8198041dce408f575e545897144", "is_disabled": 0, "rental_uris": {"android": "https://dc.lft.to/lastmile_qr_scan", "ios": "https://dc.lft.to/lastmile_qr_scan"}, "type": "electric_scooter", "lat": 38.89218133333333, "is_reserved": 0, "fusion_lat": 0.0}, {"bike_id": "175aa646ab6d1eff989b0cca748a5d9c", "fusion_lon": 0.0, "lon": -77.04285833333333, "name": "175aa646ab6d1eff989b0cca748a5d9c", "is_disabled": 0, "rental_uris": {"android": "https://dc.lft.to/lastmile_qr_scan", "ios": "https://dc.lft.to/lastmile_qr_scan"}, "type": "electric_scooter", "lat": 38.92059183333333, "is_reserved": 0, "fusion_lat": 0.0}, {"bike_id": "6cc7bafbb08293dd21fa6005a3db9a22", "fusion_lon": 0.0, "lon": -77.0244695, "name": "6cc7bafbb08293dd21fa6005a3db9a22", "is_disabled": 0, "rental_uris": {"android": "https://dc.lft.to/lastmile_qr_scan", "ios": "https://dc.lft.to/lastmile_qr_scan"}, "type": "electric_scooter", "lat": 38.92045366666667, "is_reserved": 0, "fusion_lat": 0.0}, {"bike_id": "c374be80e8dcf89ca5aa141bfef300c3", "fusion_lon": 0.0, "lon": -77.00045216666666, "name": "c374be80e8dcf89ca5aa141bfef300c3", "is_disabled": 0, "rental_uris": {"android": "https://dc.lft.to/lastmile_qr_scan", "ios": "https://dc.lft.to/lastmile_qr_scan"}, "type": "electric_scooter", "lat": 38.873983333333335, "is_reserved": 0, "fusion_lat": 0.0}, {"bike_id": "4da496fbad96a7d91e001e24170135cd", "fusion_lon": 0.0, "lon": -77.03209883333334, "name": "4da496fbad96a7d91e001e24170135cd", "is_disabled": 0, "rental_uris": {"android": "https://dc.lft.to/lastmile_qr_scan", "ios": "https://dc.lft.to/lastmile_qr_scan"}, "type": "electric_scooter", "lat": 38.90711366666667, "is_reserved": 0, "fusion_lat": 0.0}, {"bike_id": "34957aa2ee14d2997e751271a7fdc5d6", "fusion_lon": 0.0, "lon": -77.00852566666667, "name": "34957aa2ee14d2997e751271a7fdc5d6", "is_disabled": 0, "rental_uris": {"android": "https://dc.lft.to/lastmile_qr_scan", "ios": "https://dc.lft.to/lastmile_qr_scan"}, "type": "electric_scooter", "lat": 38.878046166666664, "is_reserved": 0, "fusion_lat": 0.0}, {"bike_id": "0e63dc8ad553d915b3bfe0da18fa6bad", "fusion_lon": 0.0, "lon": -77.01557683333333, "name": "0e63dc8ad553d915b3bfe0da18fa6bad", "is_disabled": 0, "rental_uris": {"android": "https://dc.lft.to/lastmile_qr_scan", "ios": "https://dc.lft.to/lastmile_qr_scan"}, "type": "electric_scooter", "lat": 38.913494166666666, "is_reserved": 0, "fusion_lat": 0.0},