{"data": {"bikes": [{"fusion_lat": 0.0, "type": "electric_scooter", "name": "c98d9b9e894c0fd1bf7b75cc6316c1ea", "is_disabled": 0, "lon": -77.0015035, "fusion_lon": 0.0, "rental_uris": {"ios": "https://dc.lft.to/lastmile_qr_scan", "android": "https://dc.lft.to/lastmile_qr_scan"}, "lat": 38.907574833333335, "bike_id": "c98d9b9e894c0fd1bf7b75cc6316c1ea", "is_reserved": 0}, {"fusion_lat": 0.0, "type": "electric_scooter", "name": "0a4e3d35d2192c429e723e5129792b74", "is_disabled": 0, "lon": -77.01840683333333, "fusion_lon": 0.0, "rental_uris": {"ios": "https://dc.lft.to/lastmile_qr_scan", "android": "https://dc.lft.to/lastmile_qr_scan"}, "lat": 38.909606833333335, "bike_id": "0a4e3d35d2192c429e723e5129792b74", "is_reserved": 0}, {"fusion_lat": 0.0, "type": "electric_scooter", "name": "712d65998e41e1556995310362627048", "is_disabled": 0, "lon": -77.03541333333334, "fusion_lon": 0.0, "rental_uris": {"ios": "https://dc.lft.to/lastmile_qr_scan", "android": "https://dc.lft.to/lastmile_qr_scan"}, "lat": 38.923556166666664, "bike_id": "712d65998e41e1556995310362627048", "is_reserved": 0}, {"fusion_lat": 0.0, "type": "electric_scooter", "name": "2cd775c5ea0170df9fbec688d8d6d3d7", "is_disabled": 0, "lon": -77.028111, "fusion_lon": 0.0, "rental_uris": {"ios": "https://dc.lft.to/lastmile_qr_scan", "android": "https://dc.lft.to/lastmile_qr_scan"}, "lat": 38.88177133333333, "bike_id": "2cd775c5ea0170df9fbec688d8d6d3d7", "is_reserved": 0}, {"fusion_lat": 0.0, "type": "electric_bike", "name": "8f5897f0d7075fdb9ed5d50d656c130c", "is_disabled": 0, "lon": -77.03454033333334, "fusion_lon": 0.0, "rental_uris": {"ios": "https://dc.lft.to/lastmile_qr_scan", "android": "https://dc.lft.to/lastmile_qr_scan"}, "lat": 38.91900166666667, "bike_id": "8f5897f0d7075fdb9ed5d50d656c130c", "is_reserved": 0}, {"fusion_lat": 0.0, "type": "electric_scooter", "name": "b5a852f1b1b59e0ca6cdb7337e69223d", "is_disabled": 0, "lon": -77.0344495, "fusion_lon": 0.0, "rental_uris": {"ios": "https://dc.lft.to/lastmile_qr_scan", "android": "https://dc.lft.to/lastmile_qr_scan"}, "lat": 38.922261666666664, "bike_id": "b5a852f1b1b59e0ca6cdb7337e69223d", "is_reserved": 0}, {"fusion_lat": 0.0, "type": "electric_scooter", "name": "abe6ef16fe6ead1dab856d9ae35fb3dc", "is_disabled": 0, "lon": -77.009874, "fusion_lon": 0.0, "rental_uris": {"ios": "https://dc.lft.to/lastmile_qr_scan", "android": "https://dc.lft.to/lastmile_qr_scan"}, "lat": 38.872889, "bike_id": "abe6ef16fe6ead1dab856d9ae35fb3dc", "is_reserved": 0}, {"fusion_lat": 0.0, "type": "electric_scooter", "name": "0b26865399784e3e8cf61e12349ac2a6", "is_disabled": 0, "lon": -77.00457283333333, "fusion_lon": 0.0, "rental_uris": {"ios": "https://dc.lft.to/lastmile_qr_scan", "android": "https://dc.lft.to/lastmile_qr_scan"}, "lat": 38.91146716666667, "bike_id": "0b26865399784e3e8cf61e12349ac2a6", "is_reserved": 0}, {"fusion_lat": 0.0, "type": "electric_scooter", "name": "ef632f8eb90fcd8d6f7239810fb79b7f", "is_disabled": 0, "lon": -77.03617883333334, "fusion_lon": 0.0, "rental_uris": {"ios": "https://dc.lft.to/lastmile_qr_scan", "android": "https://dc.lft.to/lastmile_qr_scan"}, "lat": 38.93740316666667, "bike_id": "ef632f8eb90fcd8d6f7239810fb79b7f", "is_reserved": 0}, {"fusion_lat": 0.0, "type": "electric_bike", "name": "6d7aef046c423c5305d91b6649b98fb1", "is_disabled": 0, "lon": -77.10616016666667, "fusion_lon": 0.0, "rental_uris": {"ios": "https://dc.lft.to/lastmile_qr_scan", "android": "https://dc.lft.to/lastmile_qr_scan"}, "lat": 38.837272666666664, "bike_id": "6d7aef046c423c5305d91b6649b98fb1", "is_reserved": 0}, {"fusion_lat": 0.0, "type": "electric_scooter", "name": "27a41dec2b42e405075c9529ebfb569f", "is_disabled": 0, "lon": -77.014987, "fusion_lon": 0.0, "rental_uris": {"ios": "https://dc.lft.to/lastmile_qr_scan", "android": "https://dc.lft.to/lastmile_qr_scan"}, "lat": 38.917733, "bike_id": "27a41dec2b42e405075c9529ebfb569f", "is_reserved": 0}, {"fusion_lat": 0.0, "type": "electric_scooter", "name": "0431ab2fbc4675e93802ea848a9ada72", "is_disabled": 0, "lon": -77.02723733333333, "fusion_lon": 0.0, "rental_uris": {"ios": "https://dc.lft.to/lastmile_qr_scan", "android": "https://dc.lft.to/lastmile_qr_scan"}, "lat": 38.9518075, "bike_id": "0431ab2fbc4675e93802ea848a9ada72", "is_reserved": 0}, {"fusion_lat": 0.0, "type": "electric_scooter", "name": "902ab216bf3b8f43d8ec3c9366ca5a8f", "is_disabled": 0, "lon": -77.04034383333334, "fusion_lon": 0.0, "rental_uris": {"ios": "https://dc.lft.to/lastmile_qr_scan", "android": "https://dc.lft.to/lastmile_qr_scan"}, "lat": 38.90138, "bike_id": "902ab216bf3b8f43d8ec3c9366ca5a8f", "is_reserved": 0}, {"fusion_lat": 0.0, "type": "electric_scooter", "name": "e97a97270f1f99dca26312fa0c247b97", "is_disabled": 0, "lon": -77.0020025, "fusion_lon": 0.0, "rental_uris": {"ios": "https://dc.lft.to/lastmile_qr_scan", "android": "https://dc.lft.to/lastmile_qr_scan"}, "lat": 38.9023905, "bike_id": "e97a97270f1f99dca26312fa0c247b97", "is_reserved": 0}, {"fusion_lat": 0.0, "type": "electric_scooter", "name": "7050e5153b47b1d36ac6635aeeca6e35", "is_disabled": 0, "lon": -77.024803, "fusion_lon": 0.0, "rental_uris": {"ios": "https://dc.lft.to/lastmile_qr_scan", "android": "https://dc.lft.to/lastmile_qr_scan"}, "lat": 38.93636566666667, "bike_id": "7050e5153b47b1d36ac6635aeeca6e35", "is_reserved": 0}, {"fusion_lat": 0.0, "type": "electric_bike", "name": "46399ff390ea0363d94108c1fa89408d", "is_disabled": 0, "lon": -77.08312616666667, "fusion_lon": 0.0, "rental_uris": {"ios": "https://dc.lft.to/lastmile_qr_scan", "android": "https://dc.lft.to/lastmile_qr_scan"}, "lat": 38.85436883333333, "bike_id": "46399ff390ea0363d94108c1fa89408d", "is_reserved": 0}, {"fusion_lat": 0.0, "type": "electric_scooter", "name": "91117eba7957a9e69b95d4a1209608eb", "is_disabled": 0, "lon": -77.02695666666666, "fusion_lon": 0.0, "rental_uris": {"ios": "https://dc.lft.to/lastmile_qr_scan", "android": "https://dc.lft.to/lastmile_qr_scan"}, "lat": 38.92776633333333, "bike_id": "91117eba7957a9e69b95d4a1209608eb", "is_reserved": 0}, {"fusion_lat": 0.0, "type": "electric_scooter", "name": "90c684889770a26799da5c5acdf9a129", "is_disabled": 0, "lon": -77.0401765, "fusion_lon": 0.0, "rental_uris": {"ios": "https://dc.lft.to/lastmile_qr_scan", "android": "https://dc.lft.to/lastmile_qr_scan"}, "lat": 38.907295833333336, "bike_id": "90c684889770a26799da5c5acdf9a129", "is_reserved": 0}, {"fusion_lat": 0.0, "type": "electric_scooter", "name": "3e780ea2f09481b446d893950bdbd997", "is_disabled": 0, "lon": -77.03576966666667, "fusion_lon": 0.0, "rental_uris": {"ios": "https://dc.lft.to/lastmile_qr_scan", "android": "https://dc.lft.to/lastmile_qr_scan"}, "lat": 38.90812483333333, "bike_id": "3e780ea2f09481b446d893950bdbd997", "is_reserved": 0}, {"fusion_lat": 0.0, "type": "electric_scooter", "name": "f49e61858c79ad388e0e9b08ae76f1bf", "is_disabled": 0, "lon": -76.9352765, "fusion_lon": 0.0, "rental_uris": {"ios": "https://dc.lft.to/lastmile_qr_scan", "android": "https://dc.lft.to/lastmile_qr_scan"}, "lat": 38.8789895, "bike_id": "f49e61858c79ad388e0e9b08ae76f1bf", "is_reserved": 0}, {"fusion_lat": 0.0, "type": "electric_scooter", "name": "d1e69449ceca3802f4e578171ecee924", "is_disabled": 0, "lon": -77.02379383333333, "fusion_lon": 0.0, "rental_uris": {"ios": "https://dc.lft.to/lastmile_qr_scan", "android": "https://dc.lft.to/lastmile_qr_scan"}, "lat": 38.919639333333336, "bike_id": "d1e69449ceca3802f4e578171ecee924", "is_reserved": 0}, {"fusion_lat": 0.0, "type": "electric_scooter", "name": "6f8d568f551dded2249d9dfb638932e2", "is_disabled": 0, "lon": -77.04127466666667, "fusion_lon": 0.0, "rental_uris": {"ios": "https://dc.lft.to/lastmile_qr_scan", "android": "https://dc.lft.to/lastmile_qr_scan"}, "lat": 38.922686666666664, "bike_id": "6f8d568f551dded2249d9dfb638932e2", "is_reserved": 0}, {"fusion_lat": 0.0, "type": "electric_scooter", "name": "e1f56198fab8ba4551b1729645f2e42f", "is_disabled": 0, "lon": -77.02840816666667, "fusion_lon": 0.0, "rental_uris": {"ios": "https://dc.lft.to/lastmile_qr_scan", "android": "https://dc.lft.to/lastmile_qr_scan"}, "lat": 38.93064616666667, "bike_id": "e1f56198fab8ba4551b1729645f2e42f", "is_reserved": 0}, {"fusion_lat": 0.0, "type": "electric_scooter", "name": "46271c693a176bcd7d759b4a81625971", "is_disabled": 0, "lon": -77.02403766666667, "fusion_lon": 0.0, "rental_uris": {"ios": "https://dc.lft.to/lastmile_qr_scan", "android": "https://dc.lft.to/lastmile_qr_scan"}, "lat": 38.917101833333334, "bike_id": "46271c693a176bcd7d759b4a81625971", "is_reserved": 0}, {"fusion_lat": 0.0, "type": "electric_bike", "name": "c811479c088ce5a4dcb47c5de2f264f1", "is_disabled": 0, "lon": -76.97704516666667, "fusion_lon": 0.0, "rental_uris": {"ios": "https://dc.lft.to/lastmile_qr_scan", "android": "https://dc.lft.to/lastmile_qr_scan"}, "lat": 38.82209566666667, "bike_id": "c811479c088ce5a4dcb47c5de2f264f1", "is_reserved": 0}, {"fusion_lat": 0.0, "type": "electric_scooter", "name": "b1892f935f192f8a36d86ff627387d1d", "is_disabled": 0, "lon": -77.01228983333333, "fusion_lon": 0.0, "rental_uris": {"ios": "https://dc.lft.to/lastmile_qr_scan", "android": "https://dc.lft.to/lastmile_qr_scan"}, "lat": 38.89774766666667, "bike_id": "b1892f935f192f8a36d86ff627387d1d", "is_reserved": 0}, {"fusion_lat": 0.0, "type": "electric_scooter", "name": "f2f836ea030d52bd1c95e6ed619edb31", "is_disabled": 0, "lon": -77.0119035, "fusion_lon": 0.0, "rental_uris": {"ios": "https://dc.lft.to/lastmile_qr_scan", "android": "https://dc.lft.to/lastmile_qr_scan"}, "lat": 38.90032166666667, "bike_id": "f2f836ea030d52bd1c95e6ed619edb31", "is_reserved": 0}, {"fusion_lat": 0.0, "type": "electric_bike", "name": "d29e69bd636c2669645acecf6d0760c1", "is_disabled": 0, "lon": -76.96261416666667, "fusion_lon": 0.0, "rental_uris": {"ios": "https://dc.lft.to/lastmile_qr_scan", "android": "https://dc.lft.to/lastmile_qr_scan"}, "lat": 38.9678815, "bike_id": "d29e69bd636c2669645acecf6d0760c1", "is_reserved": 0}, {"fusion_lat": 0.0, "type": "electric_bike", "name": "a566ce986ed0e19fd890a7e28785d8dc", "is_disabled": 0, "lon": -77.02261516666667, "fusion_lon": 0.0, "rental_uris": {"ios": "https://dc.lft.to/lastmile_qr_scan", "android": "https://dc.lft.to/lastmile_qr_scan"}, "lat": 38.966853, "bike_id": "a566ce986ed0e19fd890a7e28785d8dc", "is_reserved": 0}, {"fusion_lat": 0.0, "type": "electric_scooter", "name": "8b9de5e67657bcb6d5705522c7a01316", "is_disabled": 0, "lon": -77.045909, "fusion_lon": 0.0, "rental_uris": {"ios": "https://dc.lft.to/lastmile_qr_scan", "android": "https://dc.lft.to/lastmile_qr_scan"}, "lat": 38.90858466666667, "bike_id": "8b9de5e67657bcb6d5705522c7a01316", "is_reserved": 0}, {"fusion_lat": 0.0, "type": "electric_bike", "name": "fe13883964f50423400f1ba3be7adadb", "is_disabled": 0, "lon": -77.0840825, "fusion_lon": 0.0, "rental_uris": {"ios": "https://dc.lft.to/lastmile_qr_scan", "android": "https://dc.lft.to/lastmile_qr_scan"}, "lat": 38.9130625, "bike_id": "fe13883964f50423400f1ba3be7adadb", "is_reserved": 0}, {"fusion_lat": 0.0, "type": "electric_scooter", "name": "ff7ba7e087e00c88abdaf6878332991b", "is_disabled": 0, "lon": -77.00195983333333, "fusion_lon": 0.0, "rental_uris": {"ios": "https://dc.lft.to/lastmile_qr_scan", "android": "https://dc.lft.to/lastmile_qr_scan"}, "lat": 38.90039483333334, "bike_id": "ff7ba7e087e00c88abdaf6878332991b", "is_reserved": 0}, {"fusion_lat": 0.0, "type": "electric_scooter", "name": "7703f4929a545ccd3c894c894a452ab0", "is_disabled": 0, "lon": -77.02699766666667, "fusion_lon": 0.0, "rental_uris": {"ios": "https://dc.lft.to/lastmile_qr_scan", "android": "https://dc.lft.to/lastmile_qr_scan"}, "lat": 38.911799, "bike_id": "7703f4929a545ccd3c894c894a452ab0", "is_reserved": 0}, {"fusion_lat": 0.0, "type": "electric_scooter", "name": "d0021feaaae9ada43d2cb15f57100b77", "is_disabled": 0, "lon": -77.026394, "fusion_lon": 0.0, "rental_uris": {"ios": "https://dc.lft.to/lastmile_qr_scan", "android": "https://dc.lft.to/lastmile_qr_scan"}, "lat": 38.95185016666667, "bike_id": "d0021feaaae9ada43d2cb15f57100b77", "is_reserved": 0}, {"fusion_lat": 0.0, "type": "electric_bike", "name": "7ec4fa82a96133f9c1b7fb86b792e229", "is_disabled": 0, "lon": -77.08616316666667, "fusion_lon": 0.0, "rental_uris": {"ios": "https://dc.lft.to/lastmile_qr_scan", "android": "https://dc.lft.to/lastmile_qr_scan"}, "lat": 38.931293333333336, "bike_id": "7ec4fa82a96133f9c1b7fb86b792e229", "is_reserved": 0}, {"fusion_lat": 0.0, "type": "electric_scooter", "name": "8a175839b97bc5e4240ff90023ada74c", "is_disabled": 0, "lon": -77.04688583333333, "fusion_lon": 0.0, "rental_uris": {"ios": "https://dc.lft.to/lastmile_qr_scan", "android": "https://dc.lft.to/lastmile_qr_scan"}, "lat": 38.89607816666667, "bike_id": "8a175839b97bc5e4240ff90023ada74c", "is_reserved": 0}, {"fusion_lat": 0.0, "type": "electric_bike", "name": "590e28fdc71ebec1c4eb326deb829ad3", "is_disabled": 0, "lon": -77.10212, "fusion_lon": 0.0, "rental_uris": {"ios": "https://dc.lft.to/lastmile_qr_scan", "android": "https://dc.lft.to/lastmile_qr_scan"}, "lat": 38.919974833333335, "bike_id": "590e28fdc71ebec1c4eb326deb829ad3", "is_reserved": 0}, {"fusion_lat": 0.0, "type": "electric_scooter", "name": "a46a47b4232ccbb6d942be33d04eb4ae", "is_disabled": 0, "lon": -77.00210583333333, "fusion_lon": 0.0, "rental_uris": {"ios": "https://dc.lft.to/lastmile_qr_scan", "android": "https://dc.lft.to/lastmile_qr_scan"}, "lat": 38.897981333333334, "bike_id": "a46a47b4232ccbb6d942be33d04eb4ae", "is_reserved": 0}, {"fusion_lat": 0.0, "type": "electric_scooter", "name": "37a4e5048b3d379f1ccf0e72b3e867c3", "is_disabled": 0, "lon": -77.006642, "fusion_lon": 0.0, "rental_uris": {"ios": "https://dc.lft.to/lastmile_qr_scan", "android": "https://dc.lft.to/lastmile_qr_scan"}, "lat": 38.900011166666665, "bike_id": "37a4e5048b3d379f1ccf0e72b3e867c3", "is_reserved": 0}, {"fusion_lat": 0.0, "type": "electric_bike", "name": "d981ed623e52fcc72e7a7473d36b8479", "is_disabled": 0, "lon": -76.96088866666666, "fusion_lon": 0.0, "rental_uris": {"ios": "https://dc.lft.to/lastmile_qr_scan", "android": "https://dc.lft.to/lastmile_qr_scan"}, "lat": 38.9185785, "bike_id": "d981ed623e52fcc72e7a7473d36b8479", "is_reserved": 0}, {"fusion_lat": 0.0, "type": "electric_scooter", "name": "341fcc5714628540a9032010347db7c9", "is_disabled": 0, "lon": -77.03867516666666, "fusion_lon": 0.0, "rental_uris": {"ios": "https://dc.lft.to/lastmile_qr_scan", "android": "https://dc.lft.to/lastmile_qr_scan"}, "lat": 38.912558833333335, "bike_id": "341fcc5714628540a9032010347db7c9", "is_reserved": 0}, {"fusion_lat": 0.0, "type": "electric_bike", "name": "ccf2c38a76215aa04da48368033919ad", "is_disabled": 0, "lon": -76.98692083333333, "fusion_lon": 0.0, "rental_uris": {"ios": "https://dc.lft.to/lastmile_qr_scan", "android": "https://dc.lft.to/lastmile_qr_scan"}, "lat": 38.94474066666667, "bike_id": "ccf2c38a76215aa04da48368033919ad", "is_reserved": 0}, {"fusion_lat": 0.0, "type": "electric_scooter", "name": "c06ee882fac3119e9d039ab3fb099157", "is_disabled": 0, "lon": -77.03546983333334, "fusion_lon": 0.0, "rental_uris": {"ios": "https://dc.lft.to/lastmile_qr_scan", "android": "https://dc.lft.to/lastmile_qr_scan"}, "lat": 38.91828616666667, "bike_id": "c06ee882fac3119e9d039ab3fb099157", "is_reserved": 0}, {"fusion_lat": 0.0, "type": "electric_scooter", "name": "2ab879ee9e97de648ceb732e1d2647bb", "is_disabled": 0, "lon": -77.02817283333333, "fusion_lon": 0.0, "rental_uris": {"ios": "https://dc.lft.to/lastmile_qr_scan", "android": "https://dc.lft.to/lastmile_qr_scan"}, "lat": 38.904669, "bike_id": "2ab879ee9e97de648ceb732e1d2647bb", "is_reserved": 0}, {"fusion_lat": 0.0, "type": "electric_scooter", "name": "a5f91cd68b882d07ae422a40a1a15532", "is_disabled": 0, "lon": -77.0352085, "fusion_lon": 0.0, "rental_uris": {"ios": "https://dc.lft.to/lastmile_qr_scan", "android": "https://dc.lft.to/lastmile_qr_scan"}, "lat": 38.9225255, "bike_id": "a5f91cd68b882d07ae422a40a1a15532", "is_reserved": 0}, {"fusion_lat": 0.0, "type": "electric_scooter", "name": "962a9aaeca5ffa9af84da658c409ca85", "is_disabled": 0, "lon": -77.03483266666667, "fusion_lon": 0.0, "rental_uris": {"ios": "https://dc.lft.to/lastmile_qr_scan", "android": "https://dc.lft.to/lastmile_qr_scan"}, "lat": 38.935703833333335, "bike_id": "962a9aaeca5ffa9af84da658c409ca85", "is_reserved": 0}, {"fusion_lat": 0.0, "type": "electric_scooter", "name": "5dc06cc841767900972bbb837eff114a", "is_disabled": 0, "lon": -77.03864833333333, "fusion_lon": 0.0, "rental_uris": {"ios": "https://dc.lft.to/lastmile_qr_scan", "android": "https://dc.lft.to/lastmile_qr_scan"}, "lat": 38.90966216666666, "bike_id": "5dc06cc841767900972bbb837eff114a", "is_reserved": 0}, {"fusion_lat": 0.0, "type": "electric_scooter", "name": "4fc4bb85bd0ee678890ec08212961712", "is_disabled": 0, "lon": -77.034625, "fusion_lon": 0.0, "rental_uris": {"ios": "https://dc.lft.to/lastmile_qr_scan", "android": "https://dc.lft.to/lastmile_qr_scan"}, "lat": 38.91578616666666, "bike_id": "4fc4bb85bd0ee678890ec08212961712", "is_reserved": 0}, {"fusion_lat": 0.0, "type": "electric_scooter", "name": "15def09a9b054a82a70e674067b75ced", "is_disabled": 0, "lon": -77.05022416666667, "fusion_lon": 0.0, "rental_uris": {"ios": "https://dc.lft.to/lastmile_qr_scan", "android": "https://dc.lft.to/lastmile_qr_scan"}, "lat": 38.905170166666664, "bike_id": "15def09a9b054a82a70e674067b75ced", "is_reserved": 0}, {"fusion_lat": 0.0, "type": "electric_scooter", "name": "f8e24600ab7d5c64e3c6797a97e7a933", "is_disabled": 0, "lon": -77.01985333333333, "fusion_lon": 0.0, "rental_uris": {"ios": "https://dc.lft.to/lastmile_qr_scan", "android": "https://dc.lft.to/lastmile_qr_scan"}, "lat": 38.885881, "bike_id": "f8e24600ab7d5c64e3c6797a97e7a933", "is_reserved": 0}, {"fusion_lat": 0.0, "type": "electric_scooter", "name": "64ed9d3d4429d3e94cd2ecb23d087340", "is_disabled": 0, "lon": -77.04133616666667, "fusion_lon": 0.0, "rental_uris": {"ios": "https://dc.lft.to/lastmile_qr_scan", "android": "https://dc.lft.to/lastmile_qr_scan"}, "lat": 38.9027575, "bike_id": "64ed9d3d4429d3e94cd2ecb23d087340", "is_reserved": 0}, {"fusion_lat": 0.0, "type": "electric_scooter", "name": "6270771d069617b286484d8d7ff42ab8", "is_disabled": 0, "lon": -77.025076, "fusion_lon": 0.0, "rental_uris": {"ios": "https://dc.lft.to/lastmile_qr_scan", "android": "https://dc.lft.to/lastmile_qr_scan"}, "lat": 38.9198455, "bike_id": "6270771d069617b286484d8d7ff42ab8", "is_reserved": 0}, {"fusion_lat": 0.0, "type": "electric_scooter", "name": "c15efce7966bd1180d1f3eecac5154f7", "is_disabled": 0, "lon": -77.04276166666666, "fusion_lon": 0.0, "rental_uris": {"ios": "https://dc.lft.to/lastmile_qr_scan", "android": "https://dc.lft.to/lastmile_qr_scan"}, "lat": 38.932302666666665, "bike_id": "c15efce7966bd1180d1f3eecac5154f7", "is_reserved": 0}, {"fusion_lat": 0.0, "type": "electric_scooter", "name": "000a47b909d30a81bab90d63e556a14d", "is_disabled": 0, "lon": -77.04606916666667, "fusion_lon": 0.0, "rental_uris": {"ios": "https://dc.lft.to/lastmile_qr_scan", "android": "https://dc.lft.to/lastmile_qr_scan"}, "lat": 38.93285916666667, "bike_id": "000a47b909d30a81bab90d63e556a14d", "is_reserved": 0}, {"fusion_lat": 0.0, "type": "electric_scooter", "name": "8621b5218228c334418ce5bf16af8434", "is_disabled": 0, "lon": -77.026092, "fusion_lon": 0.0, "rental_uris": {"ios": "https://dc.lft.to/lastmile_qr_scan", "android": "https://dc.lft.to/lastmile_qr_scan"}, "lat": 38.91839083333333, "bike_id": "8621b5218228c334418ce5bf16af8434", "is_reserved": 0}, {"fusion_lat": 0.0, "type": "electric_scooter", "name": "50cb1beb0aff496932b039ab1d6f5e63", "is_disabled": 0, "lon": -77.07862083333333, "fusion_lon": 0.0, "rental_uris": {"ios": "https://dc.lft.to/lastmile_qr_scan", "android": "https://dc.lft.to/lastmile_qr_scan"}, "lat": 38.924628166666665, "bike_id": "50cb1beb0aff496932b039ab1d6f5e63", "is_reserved": 0}, {"fusion_lat": 0.0, "type": "electric_scooter", "name": "1d8e1db47b886137dc13801d03b92999", "is_disabled": 0, "lon": -76.9446535, "fusion_lon": 0.0, "rental_uris": {"ios": "https://dc.lft.to/lastmile_qr_scan", "android": "https://dc.lft.to/lastmile_qr_scan"}, "lat": 38.890316, "bike_id": "1d8e1db47b886137dc13801d03b92999", "is_reserved": 0}, {"fusion_lat": 0.0, "type": "electric_scooter", "name": "89d8da9c5b3c68cb27f32adf5f8c03f5", "is_disabled": 0, "lon": -77.00115316666667, "fusion_lon": 0.0, "rental_uris": {"ios": "https://dc.lft.to/lastmile_qr_scan", "android": "https://dc.lft.to/lastmile_qr_scan"}, "lat": 38.8788815, "bike_id": "89d8da9c5b3c68cb27f32adf5f8c03f5", "is_reserved": 0}, {"fusion_lat": 0.0, "type": "electric_scooter", "name": "0be1f32f427ea4c136dfa3d5fa1d6297", "is_disabled": 0, "lon": -77.01206866666666, "fusion_lon": 0.0, "rental_uris": {"ios": "https://dc.lft.to/lastmile_qr_scan", "android": "https://dc.lft.to/lastmile_qr_scan"}, "lat": 38.9211905, "bike_id": "0be1f32f427ea4c136dfa3d5fa1d6297", "is_reserved": 0}, {"fusion_lat": 0.0, "type": "electric_scooter", "name": "8d2e996d128c6708629e593f6305b1b8", "is_disabled": 0, "lon": -77.011877, "fusion_lon": 0.0, "rental_uris": {"ios": "https://dc.lft.to/lastmile_qr_scan", "android": "https://dc.lft.to/lastmile_qr_scan"}, "lat": 38.90033283333333, "bike_id": "8d2e996d128c6708629e593f6305b1b8", "is_reserved": 0}, {"fusion_lat": 0.0, "type": "electric_scooter", "name": "da7665c9cad5e67c7bb0d9259eafab51", "is_disabled": 0, "lon": -76.95292366666666, "fusion_lon": 0.0, "rental_uris": {"ios": "https://dc.lft.to/lastmile_qr_scan", "android": "https://dc.lft.to/lastmile_qr_scan"}, "lat": 38.890356833333335, "bike_id": "da7665c9cad5e67c7bb0d9259eafab51", "is_reserved": 0}, {"fusion_lat": 0.0, "type": "electric_scooter", "name": "8694404a2b18a7a486069192c895d5e5", "is_disabled": 0, "lon": -76.9621125, "fusion_lon": 0.0, "rental_uris": {"ios": "https://dc.lft.to/lastmile_qr_scan", "android": "https://dc.lft.to/lastmile_qr_scan"}, "lat": 38.932331, "bike_id": "8694404a2b18a7a486069192c895d5e5", "is_reserved": 0}, {"fusion_lat": 0.0, "type": "electric_scooter", "name": "62a31a563d3a78e5e415c8bd6164f111", "is_disabled": 0, "lon": -77.046559, "fusion_lon": 0.0, "rental_uris": {"ios": "https://dc.lft.to/lastmile_qr_scan", "android": "https://dc.lft.to/lastmile_qr_scan"}, "lat": 38.893398166666664, "bike_id": "62a31a563d3a78e5e415c8bd6164f111", "is_reserved": 0}, {"fusion_lat": 0.0, "type": "electric_scooter", "name": "2583a8d35d6bdf7499f7a4c6b7495006", "is_disabled": 0, "lon": -77.02157266666667, "fusion_lon": 0.0, "rental_uris": {"ios": "https://dc.lft.to/lastmile_qr_scan", "android": "https://dc.lft.to/lastmile_qr_scan"}, "lat": 38.92462183333333, "bike_id": "2583a8d35d6bdf7499f7a4c6b7495006", "is_reserved": 0}, {"fusion_lat": 0.0, "type": "electric_scooter", "name": "a7038aaa19ebb6291243781a06a062ff", "is_disabled": 0, "lon": -77.032933, "fusion_lon": 0.0, "rental_uris": {"ios": "https://dc.lft.to/lastmile_qr_scan", "android": "https://dc.lft.to/lastmile_qr_scan"}, "lat": 38.8989065, "bike_id": "a7038aaa19ebb6291243781a06a062ff", "is_reserved": 0}, {"fusion_lat": 0.0, "type": "electric_bike", "name": "0933a6a1da978d87ee46c6cbc06e413c", "is_disabled": 0, "lon": -76.9809535, "fusion_lon": 0.0, "rental_uris": {"ios": "https://dc.lft.to/lastmile_qr_scan", "android": "https://dc.lft.to/lastmile_qr_scan"}, "lat": 38.95352716666667, "bike_id": "0933a6a1da978d87ee46c6cbc06e413c", "is_reserved": 0}, {"fusion_lat": 0.0, "type": "electric_scooter", "name": "4c0300c058c2b8f0bde914f235800ee4", "is_disabled": 0, "lon": -77.02608116666667, "fusion_lon": 0.0, "rental_uris": {"ios": "https://dc.lft.to/lastmile_qr_scan", "android": "https://dc.lft.to/lastmile_qr_scan"}, "lat": 38.904124333333336, "bike_id": "4c0300c058c2b8f0bde914f235800ee4", "is_reserved": 0}, {"fusion_lat": 0.0, "type": "electric_scooter", "name": "b7d225feb198a1a6184ca42a66ab496d", "is_disabled": 0, "lon": -77.03891, "fusion_lon": 0.0, "rental_uris": {"ios": "https://dc.lft.to/lastmile_qr_scan", "android": "https://dc.lft.to/lastmile_qr_scan"}, "lat": 38.91849766666667, "bike_id": "b7d225feb198a1a6184ca42a66ab496d", "is_reserved": 0}, {"fusion_lat": 0.0, "type": "electric_scooter", "name": "0002f437d51954126a86b44f0bc5f929", "is_disabled": 0, "lon": -77.03042116666667, "fusion_lon": 0.0, "rental_uris": {"ios": "https://dc.lft.to/lastmile_qr_scan", "android": "https://dc.lft.to/lastmile_qr_scan"}, "lat": 38.93103966666666, "bike_id": "0002f437d51954126a86b44f0bc5f929", "is_reserved": 0}, {"fusion_lat": 0.0, "type": "electric_scooter", "name": "c392348a8638979a6aff98cb7b49b814", "is_disabled": 0, "lon": -77.04873683333334, "fusion_lon": 0.0, "rental_uris": {"ios": "https://dc.lft.to/lastmile_qr_scan", "android": "https://dc.lft.to/lastmile_qr_scan"}, "lat": 38.900409, "bike_id": "c392348a8638979a6aff98cb7b49b814", "is_reserved": 0}, {"fusion_lat": 0.0, "type": "electric_scooter", "name": "43c7edf462f04150a26ec1c33dde514a", "is_disabled": 0, "lon": -77.002021, "fusion_lon": 0.0, "rental_uris": {"ios": "https://dc.lft.to/lastmile_qr_scan", "android": "https://dc.lft.to/lastmile_qr_scan"}, "lat": 38.90238083333333, "bike_id": "43c7edf462f04150a26ec1c33dde514a", "is_reserved": 0}, {"fusion_lat": 0.0, "type": "electric_bike", "name": "da857f88af50f9534ae2eba00b642d44", "is_disabled": 0, "lon": -76.99573866666667, "fusion_lon": 0.0, "rental_uris": {"ios": "https://dc.lft.to/lastmile_qr_scan", "android": "https://dc.lft.to/lastmile_qr_scan"}, "lat": 38.831570166666666, "bike_id": "da857f88af50f9534ae2eba00b642d44", "is_reserved": 0}, {"fusion_lat": 0.0, "type": "electric_scooter", "name": "721722ab8f576a286f7e0baeb7d51f76", "is_disabled": 0, "lon": -77.01514066666667, "fusion_lon": 0.0, "rental_uris": {"ios": "https://dc.lft.to/lastmile_qr_scan", "android": "https://dc.lft.to/lastmile_qr_scan"}, "lat": 38.88734183333333, "bike_id": "721722ab8f576a286f7e0baeb7d51f76", "is_reserved": 0}, {"fusion_lat": 0.0, "type": "electric_scooter", "name": "619c4f4adf4f95fe300c8cd97e53097a", "is_disabled": 0, "lon": -77.01330566666667, "fusion_lon": 0.0, "rental_uris": {"ios": "https://dc.lft.to/lastmile_qr_scan", "android": "https://dc.lft.to/lastmile_qr_scan"}, "lat": 38.881336166666664, "bike_id": "619c4f4adf4f95fe300c8cd97e53097a", "is_reserved": 0}, {"fusion_lat": 0.0, "type": "electric_scooter", "name": "3cb884b8278217358fbf7800dc64ae05", "is_disabled": 0, "lon": -77.053502, "fusion_lon": 0.0, "rental_uris": {"ios": "https://dc.lft.to/lastmile_qr_scan", "android": "https://dc.lft.to/lastmile_qr_scan"}, "lat": 38.9233195, "bike_id": "3cb884b8278217358fbf7800dc64ae05", "is_reserved": 0}, {"fusion_lat": 0.0, "type": "electric_scooter", "name": "ca7e4c0a094d6007f87299681e68d120", "is_disabled": 0, "lon": -77.016836, "fusion_lon": 0.0, "rental_uris": {"ios": "https://dc.lft.to/lastmile_qr_scan", "android": "https://dc.lft.to/lastmile_qr_scan"}, "lat": 38.901371, "bike_id": "ca7e4c0a094d6007f87299681e68d120", "is_reserved": 0}, {"fusion_lat": 0.0, "type": "electric_scooter", "name": "06c5e5d3d96b1bb1b724aa4453bf37ba", "is_disabled": 0, "lon": -77.01627616666667, "fusion_lon": 0.0, "rental_uris": {"ios": "https://dc.lft.to/lastmile_qr_scan", "android": "https://dc.lft.to/lastmile_qr_scan"}, "lat": 38.91696433333333, "bike_id": "06c5e5d3d96b1bb1b724aa4453bf37ba", "is_reserved": 0}, {"fusion_lat": 0.0, "type": "electric_scooter", "name": "1dcd666d53bf5d93d211514fd8edbda2", "is_disabled": 0, "lon": -77.01034016666667, "fusion_lon": 0.0, "rental_uris": {"ios": "https://dc.lft.to/lastmile_qr_scan", "android": "https://dc.lft.to/lastmile_qr_scan"}, "lat": 38.911416, "bike_id": "1dcd666d53bf5d93d211514fd8edbda2", "is_reserved": 0}, {"fusion_lat": 0.0, "type": "electric_scooter", "name": "5072478877f1e6d567407d30058744cb", "is_disabled": 0, "lon": -77.02091516666667, "fusion_lon": 0.0, "rental_uris": {"ios": "https://dc.lft.to/lastmile_qr_scan", "android": "https://dc.lft.to/lastmile_qr_scan"}, "lat": 38.9073065, "bike_id": "5072478877f1e6d567407d30058744cb", "is_reserved": 0}, {"fusion_lat": 0.0, "type": "electric_bike", "name": "ec5d7e26801b8233abc3b7af3479eb12", "is_disabled": 0, "lon": -76.97897416666666, "fusion_lon": 0.0, "rental_uris": {"ios": "https://dc.lft.to/lastmile_qr_scan", "android": "https://dc.lft.to/lastmile_qr_scan"}, "lat": 38.92696566666667, "bike_id": "ec5d7e26801b8233abc3b7af3479eb12", "is_reserved": 0}, {"fusion_lat": 0.0, "type": "electric_scooter", "name": "d6bcbb6bfb374ac8a0f165e3b8613710", "is_disabled": 0, "lon": -77.032401, "fusion_lon": 0.0, "rental_uris": {"ios": "https://dc.lft.to/lastmile_qr_scan", "android": "https://dc.lft.to/lastmile_qr_scan"}, "lat": 38.89704733333333, "bike_id": "d6bcbb6bfb374ac8a0f165e3b8613710", "is_reserved": 0}, {"fusion_lat": 0.0, "type": "electric_scooter", "name": "3584e97e890eaa06cc93b595c39223bb", "is_disabled": 0, "lon": -77.0240995, "fusion_lon": 0.0, "rental_uris": {"ios": "https://dc.lft.to/lastmile_qr_scan", "android": "https://dc.lft.to/lastmile_qr_scan"}, "lat": 38.900863333333334, "bike_id": "3584e97e890eaa06cc93b595c39223bb", "is_reserved": 0}, {"fusion_lat": 0.0, "type": "electric_bike", "name": "3239b60982a02537210455e4bc7eaac1", "is_disabled": 0, "lon": -77.0832335, "fusion_lon": 0.0, "rental_uris": {"ios": "https://dc.lft.to/lastmile_qr_scan", "android": "https://dc.lft.to/lastmile_qr_scan"}, "lat": 38.9334725, "bike_id": "3239b60982a02537210455e4bc7eaac1", "is_reserved": 0}, {"fusion_lat": 0.0, "type": "electric_scooter", "name": "a4abec290a55f189b569b01a64d9d771", "is_disabled": 0, "lon": -76.98579383333333, "fusion_lon": 0.0, "rental_uris": {"ios": "https://dc.lft.to/lastmile_qr_scan", "android": "https://dc.lft.to/lastmile_qr_scan"}, "lat": 38.90035966666667, "bike_id": "a4abec290a55f189b569b01a64d9d771", "is_reserved": 0}, {"fusion_lat": 0.0, "type": "electric_scooter", "name": "5ca76f119e86d36618bc846f6267ba33", "is_disabled": 0, "lon": -77.0328805, "fusion_lon": 0.0, "rental_uris": {"ios": "https://dc.lft.to/lastmile_qr_scan", "android": "https://dc.lft.to/lastmile_qr_scan"}, "lat": 38.92449933333333, "bike_id": "5ca76f119e86d36618bc846f6267ba33", "is_reserved": 0}, {"fusion_lat": 0.0, "type": "electric_scooter", "name": "dec790c6c68acd36cebe12976d1d63dc", "is_disabled": 0, "lon": -77.03445516666666, "fusion_lon": 0.0, "rental_uris": {"ios": "https://dc.lft.to/lastmile_qr_scan", "android": "https://dc.lft.to/lastmile_qr_scan"}, "lat": 38.90946783333333, "bike_id": "dec790c6c68acd36cebe12976d1d63dc", "is_reserved": 0}, {"fusion_lat": 0.0, "type": "electric_scooter", "name": "1e60758398abffc960db30b3eae1d742", "is_disabled": 0, "lon": -77.05600733333333, "fusion_lon": 0.0, "rental_uris": {"ios": "https://dc.lft.to/lastmile_qr_scan", "android": "https://dc.lft.to/lastmile_qr_scan"}, "lat": 38.894232333333335, "bike_id": "1e60758398abffc960db30b3eae1d742", "is_reserved": 0}, {"fusion_lat": 0.0, "type": "electric_scooter", "name": "8a7240f4e7421bfc1991322891f6f8db", "is_disabled": 0, "lon": -77.0291275, "fusion_lon": 0.0, "rental_uris": {"ios": "https://dc.lft.to/lastmile_qr_scan", "android": "https://dc.lft.to/lastmile_qr_scan"}, "lat": 38.93299916666667, "bike_id": "8a7240f4e7421bfc1991322891f6f8db", "is_reserved": 0}, {"fusion_lat": 0.0, "type": "electric_scooter", "name": "06f78eb23fe119135de208e8a7ef47b5", "is_disabled": 0, "lon": -77.021459, "fusion_lon": 0.0, "rental_uris": {"ios": "https://dc.lft.to/lastmile_qr_scan", "android": "https://dc.lft.to/lastmile_qr_scan"}, "lat": 38.89416533333333, "bike_id": "06f78eb23fe119135de208e8a7ef47b5", "is_reserved": 0}, {"fusion_lat": 0.0, "type": "electric_scooter", "name": "1435ad0f1e01a5b7b89a799422df865f", "is_disabled": 0, "lon": -77.04356383333334, "fusion_lon": 0.0, "rental_uris": {"ios": "https://dc.lft.to/lastmile_qr_scan", "android": "https://dc.lft.to/lastmile_qr_scan"}, "lat": 38.908544166666665, "bike_id": "1435ad0f1e01a5b7b89a799422df865f", "is_reserved": 0}, {"fusion_lat": 0.0, "type": "electric_scooter", "name": "c6b1abc1fd31ff76d445174fd2f50c7d", "is_disabled": 0, "lon": -77.0210755, "fusion_lon": 0.0, "rental_uris": {"ios": "https://dc.lft.to/lastmile_qr_scan", "android": "https://dc.lft.to/lastmile_qr_scan"}, "lat": 38.905615833333336, "bike_id": "c6b1abc1fd31ff76d445174fd2f50c7d", "is_reserved": 0}, {"fusion_lat": 0.0, "type": "electric_scooter", "name": "34077ab727469324610a79a0a76f6221", "is_disabled": 0, "lon": -77.02999816666667, "fusion_lon": 0.0, "rental_uris": {"ios": "https://dc.lft.to/lastmile_qr_scan", "android": "https://dc.lft.to/lastmile_qr_scan"}, "lat": 38.89539416666667, "bike_id": "34077ab727469324610a79a0a76f6221", "is_reserved": 0}, {"fusion_lat": 0.0, "type": "electric_scooter", "name": "d01f95593620cecbc3d300ea46bb546c", "is_disabled": 0, "lon": -77.0240605, "fusion_lon": 0.0, "rental_uris": {"ios": "https://dc.lft.to/lastmile_qr_scan", "android": "https://dc.lft.to/lastmile_qr_scan"}, "lat": 38.909729166666665, "bike_id": "d01f95593620cecbc3d300ea46bb546c", "is_reserved": 0}, {"fusion_lat": 0.0, "type": "electric_scooter", "name": "d064ffad3540d1cc055c2d492cc2c4c6", "is_disabled": 0, "lon": -77.0399545, "fusion_lon": 0.0, "rental_uris": {"ios": "https://dc.lft.to/lastmile_qr_scan", "android": "https://dc.lft.to/lastmile_qr_scan"}, "lat": 38.917609166666665, "bike_id": "d064ffad3540d1cc055c2d492cc2c4c6", "is_reserved": 0}, {"fusion_lat": 0.0, "type": "electric_scooter", "name": "58b3cb1e6866db024f34d97c15c61159", "is_disabled": 0, "lon": -77.02181583333333, "fusion_lon": 0.0, "rental_uris": {"ios": "https://dc.lft.to/lastmile_qr_scan", "android": "https://dc.lft.to/lastmile_qr_scan"}, "lat": 38.91483383333333, "bike_id": "58b3cb1e6866db024f34d97c15c61159", "is_reserved": 0}, {"fusion_lat": 0.0, "type": "electric_scooter", "name": "717d23d63337fc20a1e01d7cc16019ae", "is_disabled": 0, "lon": -77.02262883333333, "fusion_lon": 0.0, "rental_uris": {"ios": "https://dc.lft.to/lastmile_qr_scan", "android": "https://dc.lft.to/lastmile_qr_scan"}, "lat": 38.893652, "bike_id": "717d23d63337fc20a1e01d7cc16019ae", "is_reserved": 0}, {"fusion_lat": 0.0, "type": "electric_scooter", "name": "26695784f38d6994ccfb8137367a7168", "is_disabled": 0, "lon": -77.03040266666666, "fusion_lon": 0.0, "rental_uris": {"ios": "https://dc.lft.to/lastmile_qr_scan", "android": "https://dc.lft.to/lastmile_qr_scan"}, "lat": 38.91715283333333, "bike_id": "26695784f38d6994ccfb8137367a7168", "is_reserved": 0}, {"fusion_lat": 0.0, "type": "electric_scooter", "name": "c24d13e890cab891356c8f1dee2c16b7", "is_disabled": 0, "lon": -77.01341566666666, "fusion_lon": 0.0, "rental_uris": {"ios": "https://dc.lft.to/lastmile_qr_scan", "android": "https://dc.lft.to/lastmile_qr_scan"}, "lat": 38.8811965, "bike_id": "c24d13e890cab891356c8f1dee2c16b7", "is_reserved": 0}, {"fusion_lat": 0.0, "type": "electric_scooter", "name": "3812b720a7ecfba6ce88332ce9916cb0", "is_disabled": 0, "lon": -77.01408816666667, "fusion_lon": 0.0, "rental_uris": {"ios": "https://dc.lft.to/lastmile_qr_scan", "android": "https://dc.lft.to/lastmile_qr_scan"}, "lat": 38.928533333333334, "bike_id": "3812b720a7ecfba6ce88332ce9916cb0", "is_reserved": 0}, {"fusion_lat": 0.0, "type": "electric_scooter", "name": "f08798b91edd491c97941761da696ee3", "is_disabled": 0, "lon": -77.02214283333333, "fusion_lon": 0.0, "rental_uris": {"ios": "https://dc.lft.to/lastmile_qr_scan", "android": "https://dc.lft.to/lastmile_qr_scan"}, "lat": 38.90540983333333, "bike_id": "f08798b91edd491c97941761da696ee3", "is_reserved": 0}, {"fusion_lat": 0.0, "type": "electric_scooter", "name": "712b398003c1d0bb235d9a65748a882d", "is_disabled": 0, "lon": -77.022155, "fusion_lon": 0.0, "rental_uris": {"ios": "https://dc.lft.to/lastmile_qr_scan", "android": "https://dc.lft.to/lastmile_qr_scan"}, "lat": 38.89519816666667, "bike_id": "712b398003c1d0bb235d9a65748a882d", "is_reserved": 0}, {"fusion_lat": 0.0, "type": "electric_scooter", "name": "740a67971ef18a9c6362b47c6022c4d6", "is_disabled": 0, "lon": -76.954496, "fusion_lon": 0.0, "rental_uris": {"ios": "https://dc.lft.to/lastmile_qr_scan", "android": "https://dc.lft.to/lastmile_qr_scan"}, "lat": 38.88390166666667, "bike_id": "740a67971ef18a9c6362b47c6022c4d6", "is_reserved": 0}, {"fusion_lat": 0.0, "type": "electric_scooter", "name": "7056763fdff94d971008d46c5155438b", "is_disabled": 0, "lon": -77.02422366666667, "fusion_lon": 0.0, "rental_uris": {"ios": "https://dc.lft.to/lastmile_qr_scan", "android": "https://dc.lft.to/lastmile_qr_scan"}, "lat": 38.896371, "bike_id": "7056763fdff94d971008d46c5155438b", "is_reserved": 0}, {"fusion_lat": 0.0, "type": "electric_scooter", "name": "36e676bd3c4e1c02fb6564ebe6378522", "is_disabled": 0, "lon": -77.02191316666666, "fusion_lon": 0.0, "rental_uris": {"ios": "https://dc.lft.to/lastmile_qr_scan", "android": "https://dc.lft.to/lastmile_qr_scan"}, "lat": 38.91484233333333, "bike_id": "36e676bd3c4e1c02fb6564ebe6378522", "is_reserved": 0}, {"fusion_lat": 0.0, "type": "electric_scooter", "name": "94e411da9dda43da864157a8405c8322", "is_disabled": 0, "lon": -77.034602, "fusion_lon": 0.0, "rental_uris": {"ios": "https://dc.lft.to/lastmile_qr_scan", "android": "https://dc.lft.to/lastmile_qr_scan"}, "lat": 38.9084175, "bike_id": "94e411da9dda43da864157a8405c8322", "is_reserved": 0}, {"fusion_lat": 0.0, "type": "electric_scooter", "name": "93d92bfd3db32dcd3c383f80a438c81e", "is_disabled": 0, "lon": -77.02989116666667, "fusion_lon": 0.0, "rental_uris": {"ios": "https://dc.lft.to/lastmile_qr_scan", "android": "https://dc.lft.to/lastmile_qr_scan"}, "lat": 38.901277666666665, "bike_id": "93d92bfd3db32dcd3c383f80a438c81e", "is_reserved": 0}, {"fusion_lat": 0.0, "type": "electric_scooter", "name": "db57b891d70816b5b69beab9dfe0a1c0", "is_disabled": 0, "lon": -77.04481666666666, "fusion_lon": 0.0, "rental_uris": {"ios": "https://dc.lft.to/lastmile_qr_scan", "android": "https://dc.lft.to/lastmile_qr_scan"}, "lat": 38.916073833333336, "bike_id": "db57b891d70816b5b69beab9dfe0a1c0", "is_reserved": 0}, {"fusion_lat": 0.0, "type": "electric_scooter", "name": "6e449483d8db8678bdeac3817b76b02e", "is_disabled": 0, "lon": -76.995968, "fusion_lon": 0.0, "rental_uris": {"ios": "https://dc.lft.to/lastmile_qr_scan", "android": "https://dc.lft.to/lastmile_qr_scan"}, "lat": 38.88427466666667, "bike_id": "6e449483d8db8678bdeac3817b76b02e", "is_reserved": 0}, {"fusion_lat": 0.0, "type": "electric_scooter", "name": "9392bb6a781765ce185ebaba08e01f44", "is_disabled": 0, "lon": -77.02982966666667, "fusion_lon": 0.0, "rental_uris": {"ios": "https://dc.lft.to/lastmile_qr_scan", "android": "https://dc.lft.to/lastmile_qr_scan"}, "lat": 38.915569166666664, "bike_id": "9392bb6a781765ce185ebaba08e01f44", "is_reserved": 0}, {"fusion_lat": 0.0, "type": "electric_scooter", "name": "b1c86e072f95082aa349754a7a6df5e0", "is_disabled": 0, "lon": -77.04623033333333, "fusion_lon": 0.0, "rental_uris": {"ios": "https://dc.lft.to/lastmile_qr_scan", "android": "https://dc.lft.to/lastmile_qr_scan"}, "lat": 38.909752833333336, "bike_id": "b1c86e072f95082aa349754a7a6df5e0", "is_reserved": 0}, {"fusion_lat": 0.0, "type": "electric_scooter", "name": "d4c4b6ffa276c25a153629ced745755f", "is_disabled": 0, "lon": -77.0325855, "fusion_lon": 0.0, "rental_uris": {"ios": "https://dc.lft.to/lastmile_qr_scan", "android": "https://dc.lft.to/lastmile_qr_scan"}, "lat": 38.920585333333335, "bike_id": "d4c4b6ffa276c25a153629ced745755f", "is_reserved": 0}, {"fusion_lat": 0.0, "type": "electric_scooter", "name": "d382a5d44c56ddd1714a5d02ac7941ee", "is_disabled": 0, "lon": -76.987058, "fusion_lon": 0.0, "rental_uris": {"ios": "https://dc.lft.to/lastmile_qr_scan", "android": "https://dc.lft.to/lastmile_qr_scan"}, "lat": 38.85964383333334, "bike_id": "d382a5d44c56ddd1714a5d02ac7941ee", "is_reserved": 0}, {"fusion_lat": 0.0, "type": "electric_scooter", "name": "bf6dd990575c60070cbfd6fc9d966ab3", "is_disabled": 0, "lon": -76.97383033333334, "fusion_lon": 0.0, "rental_uris": {"ios": "https://dc.lft.to/lastmile_qr_scan", "android": "https://dc.lft.to/lastmile_qr_scan"}, "lat": 38.850052833333336, "bike_id": "bf6dd990575c60070cbfd6fc9d966ab3", "is_reserved": 0}, {"fusion_lat": 0.0, "type": "electric_scooter", "name": "1026b0b794da28753d0b4e01cdedf43e", "is_disabled": 0, "lon": -77.00880883333333, "fusion_lon": 0.0, "rental_uris": {"ios": "https://dc.lft.to/lastmile_qr_scan", "android": "https://dc.lft.to/lastmile_qr_scan"}, "lat": 38.876571, "bike_id": "1026b0b794da28753d0b4e01cdedf43e", "is_reserved": 0}, {"fusion_lat": 0.0, "type": "electric_scooter", "name": "f56fe135b7d2f4b8ce6ec13eaa4847e3", "is_disabled": 0, "lon": -77.021289, "fusion_lon": 0.0, "rental_uris": {"ios": "https://dc.lft.to/lastmile_qr_scan", "android": "https://dc.lft.to/lastmile_qr_scan"}, "lat": 38.928009333333335, "bike_id": "f56fe135b7d2f4b8ce6ec13eaa4847e3", "is_reserved": 0}, {"fusion_lat": 0.0, "type": "electric_scooter", "name": "f1258e85136b982aa75e1a46de07742e", "is_disabled": 0, "lon": -77.022023, "fusion_lon": 0.0, "rental_uris": {"ios": "https://dc.lft.to/lastmile_qr_scan", "android": "https://dc.lft.to/lastmile_qr_scan"}, "lat": 38.91645833333333, "bike_id": "f1258e85136b982aa75e1a46de07742e", "is_reserved": 0}, {"fusion_lat": 0.0, "type": "electric_scooter", "name": "8380a06c43c68340be54b6e5b7c3e4da", "is_disabled": 0, "lon": -76.98363883333333, "fusion_lon": 0.0, "rental_uris": {"ios": "https://dc.lft.to/lastmile_qr_scan", "android": "https://dc.lft.to/lastmile_qr_scan"}, "lat": 38.9220025, "bike_id": "8380a06c43c68340be54b6e5b7c3e4da", "is_reserved": 0}, {"fusion_lat": 0.0, "type": "electric_scooter", "name": "0d62074a5e56a745e401bcc9b3050704", "is_disabled": 0, "lon": -76.92370366666667, "fusion_lon": 0.0, "rental_uris": {"ios": "https://dc.lft.to/lastmile_qr_scan", "android": "https://dc.lft.to/lastmile_qr_scan"}, "lat": 38.892484333333336, "bike_id": "0d62074a5e56a745e401bcc9b3050704", "is_reserved": 0}, {"fusion_lat": 0.0, "type": "electric_scooter", "name": "e72c0f944cd812a2e71c8099fd849e9a", "is_disabled": 0, "lon": -76.9885755, "fusion_lon": 0.0, "rental_uris": {"ios": "https://dc.lft.to/lastmile_qr_scan", "android": "https://dc.lft.to/lastmile_qr_scan"}, "lat": 38.90699733333334, "bike_id": "e72c0f944cd812a2e71c8099fd849e9a", "is_reserved": 0}, {"fusion_lat": 0.0, "type": "electric_scooter", "name": "02a31bd68794ca6b4be860e31952df63", "is_disabled": 0, "lon": -77.026113, "fusion_lon": 0.0, "rental_uris": {"ios": "https://dc.lft.to/lastmile_qr_scan", "android": "https://dc.lft.to/lastmile_qr_scan"}, "lat": 38.920375166666666, "bike_id": "02a31bd68794ca6b4be860e31952df63", "is_reserved": 0}, {"fusion_lat": 0.0, "type": "electric_scooter", "name": "3c37af3e43f69b531d89eaf8f2423de0", "is_disabled": 0, "lon": -77.04175766666667, "fusion_lon": 0.0, "rental_uris": {"ios": "https://dc.lft.to/lastmile_qr_scan", "android": "https://dc.lft.to/lastmile_qr_scan"}, "lat": 38.9176985, "bike_id": "3c37af3e43f69b531d89eaf8f2423de0", "is_reserved": 0}, {"fusion_lat": 0.0, "type": "electric_bike", "name": "45a5e79cdef410aaf654177df9202af2", "is_disabled": 0, "lon": -77.02838466666667, "fusion_lon": 0.0, "rental_uris": {"ios": "https://dc.lft.to/lastmile_qr_scan", "android": "https://dc.lft.to/lastmile_qr_scan"}, "lat": 38.926427833333335, "bike_id": "45a5e79cdef410aaf654177df9202af2", "is_reserved": 0}, {"fusion_lat": 0.0, "type": "electric_scooter", "name": "bda11f24a8e6d0478ddd2a8a8afc2cea", "is_disabled": 0, "lon": -77.01956783333333, "fusion_lon": 0.0, "rental_uris": {"ios": "https://dc.lft.to/lastmile_qr_scan", "android": "https://dc.lft.to/lastmile_qr_scan"}, "lat": 38.923279, "bike_id": "bda11f24a8e6d0478ddd2a8a8afc2cea", "is_reserved": 0}, {"fusion_lat": 0.0, "type": "electric_scooter", "name": "7c027c115d7a195c0b85538973b30d3a", "is_disabled": 0, "lon": -77.026983, "fusion_lon": 0.0, "rental_uris": {"ios": "https://dc.lft.to/lastmile_qr_scan", "android": "https://dc.lft.to/lastmile_qr_scan"}, "lat": 38.94979466666667, "bike_id": "7c027c115d7a195c0b85538973b30d3a", "is_reserved": 0}, {"fusion_lat": 0.0, "type": "electric_bike", "name": "633dd86d289272827563d76cd878ae7c", "is_disabled": 0, "lon": -76.980622, "fusion_lon": 0.0, "rental_uris": {"ios": "https://dc.lft.to/lastmile_qr_scan", "android": "https://dc.lft.to/lastmile_qr_scan"}, "lat": 38.97251033333333, "bike_id": "633dd86d289272827563d76cd878ae7c", "is_reserved": 0}, {"fusion_lat": 0.0, "type": "electric_scooter", "name": "7983457e3a8fee7ad850c7e7aafa6587", "is_disabled": 0, "lon": -77.02103216666667, "fusion_lon": 0.0, "rental_uris": {"ios": "https://dc.lft.to/lastmile_qr_scan", "android": "https://dc.lft.to/lastmile_qr_scan"}, "lat": 38.885074, "bike_id": "7983457e3a8fee7ad850c7e7aafa6587", "is_reserved": 0}, {"fusion_lat": 0.0, "type": "electric_scooter", "name": "bf0c3df2fcf2655661aaaa108279ea3d", "is_disabled": 0, "lon": -77.04558133333333, "fusion_lon": 0.0, "rental_uris": {"ios": "https://dc.lft.to/lastmile_qr_scan", "android": "https://dc.lft.to/lastmile_qr_scan"}, "lat": 38.91359516666667, "bike_id": "bf0c3df2fcf2655661aaaa108279ea3d", "is_reserved": 0}, {"fusion_lat": 0.0, "type": "electric_scooter", "name": "37f8c302c189409e71c82029d6598a98", "is_disabled": 0, "lon": -77.03988633333333, "fusion_lon": 0.0, "rental_uris": {"ios": "https://dc.lft.to/lastmile_qr_scan", "android": "https://dc.lft.to/lastmile_qr_scan"}, "lat": 38.93394033333333, "bike_id": "37f8c302c189409e71c82029d6598a98", "is_reserved": 0}, {"fusion_lat": 0.0, "type": "electric_scooter", "name": "b00424fbc325f11ca05bbe9e684c5363", "is_disabled": 0, "lon": -77.02782733333333, "fusion_lon": 0.0, "rental_uris": {"ios": "https://dc.lft.to/lastmile_qr_scan", "android": "https://dc.lft.to/lastmile_qr_scan"}, "lat": 38.9277945, "bike_id": "b00424fbc325f11ca05bbe9e684c5363", "is_reserved": 0}, {"fusion_lat": 0.0, "type": "electric_scooter", "name": "2d01477e5caceeb0b43860e92e7415df", "is_disabled": 0, "lon": -77.02876483333333, "fusion_lon": 0.0, "rental_uris": {"ios": "https://dc.lft.to/lastmile_qr_scan", "android": "https://dc.lft.to/lastmile_qr_scan"}, "lat": 38.93154783333333, "bike_id": "2d01477e5caceeb0b43860e92e7415df", "is_reserved": 0}, {"fusion_lat": 0.0, "type": "electric_scooter", "name": "acc739fac4a1bc961a43fcab6409203a", "is_disabled": 0, "lon": -77.0484415, "fusion_lon": 0.0, "rental_uris": {"ios": "https://dc.lft.to/lastmile_qr_scan", "android": "https://dc.lft.to/lastmile_qr_scan"}, "lat": 38.90051, "bike_id": "acc739fac4a1bc961a43fcab6409203a", "is_reserved": 0}, {"fusion_lat": 0.0, "type": "electric_scooter", "name": "addd427f6580f8128827a1df6e7f3c41", "is_disabled": 0, "lon": -77.02600283333334, "fusion_lon": 0.0, "rental_uris": {"ios": "https://dc.lft.to/lastmile_qr_scan", "android": "https://dc.lft.to/lastmile_qr_scan"}, "lat": 38.916911999999996, "bike_id": "addd427f6580f8128827a1df6e7f3c41", "is_reserved": 0}, {"fusion_lat": 0.0, "type": "electric_bike", "name": "91875db4beefdab431d93888fe0144c7", "is_disabled": 0, "lon": -76.97969, "fusion_lon": 0.0, "rental_uris": {"ios": "https://dc.lft.to/lastmile_qr_scan", "android": "https://dc.lft.to/lastmile_qr_scan"}, "lat": 38.92047683333333, "bike_id": "91875db4beefdab431d93888fe0144c7", "is_reserved": 0}, {"fusion_lat": 0.0, "type": "electric_bike", "name": "37f379fa0dd57c3155cef1963553e98d", "is_disabled": 0, "lon": -77.08999216666666, "fusion_lon": 0.0, "rental_uris": {"ios": "https://dc.lft.to/lastmile_qr_scan", "android": "https://dc.lft.to/lastmile_qr_scan"}, "lat": 38.90906366666667, "bike_id": "37f379fa0dd57c3155cef1963553e98d", "is_reserved": 0}, {"fusion_lat": 0.0, "type": "electric_scooter", "name": "0312806746699dd4f22806a7f5eb8d2b", "is_disabled": 0, "lon": -77.03858066666666, "fusion_lon": 0.0, "rental_uris": {"ios": "https://dc.lft.to/lastmile_qr_scan", "android": "https://dc.lft.to/lastmile_qr_scan"}, "lat": 38.91964083333333, "bike_id": "0312806746699dd4f22806a7f5eb8d2b", "is_reserved": 0}, {"fusion_lat": 0.0, "type": "electric_scooter", "name": "fd588f6325eba5aca08926d5fc08b8ad", "is_disabled": 0, "lon": -76.9481845, "fusion_lon": 0.0, "rental_uris": {"ios": "https://dc.lft.to/lastmile_qr_scan", "android": "https://dc.lft.to/lastmile_qr_scan"}, "lat": 38.893453, "bike_id": "fd588f6325eba5aca08926d5fc08b8ad", "is_reserved": 0}, {"fusion_lat": 0.0, "type": "electric_scooter", "name": "1b75defc4aab7ac8a678e3a5d0a9458c", "is_disabled": 0, "lon": -77.03181416666666, "fusion_lon": 0.0, "rental_uris": {"ios": "https://dc.lft.to/lastmile_qr_scan", "android": "https://dc.lft.to/lastmile_qr_scan"}, "lat": 38.91841216666667, "bike_id": "1b75defc4aab7ac8a678e3a5d0a9458c", "is_reserved": 0}, {"fusion_lat": 0.0, "type": "electric_scooter", "name": "e5b41bb27c5da7d827287d90991a1b53", "is_disabled": 0, "lon": -77.031972, "fusion_lon": 0.0, "rental_uris": {"ios": "https://dc.lft.to/lastmile_qr_scan", "android": "https://dc.lft.to/lastmile_qr_scan"}, "lat": 38.92255933333333, "bike_id": "e5b41bb27c5da7d827287d90991a1b53", "is_reserved": 0}, {"fusion_lat": 0.0, "type": "electric_scooter", "name": "0d816f69ca78fbf827db68cbe5c467a9", "is_disabled": 0, "lon": -76.99795033333334, "fusion_lon": 0.0, "rental_uris": {"ios": "https://dc.lft.to/lastmile_qr_scan", "android": "https://dc.lft.to/lastmile_qr_scan"}, "lat": 38.9218225, "bike_id": "0d816f69ca78fbf827db68cbe5c467a9", "is_reserved": 0}, {"fusion_lat": 0.0, "type": "electric_scooter", "name": "498d862f3f1c86b395b42304ad08b393", "is_disabled": 0, "lon": -77.038045, "fusion_lon": 0.0, "rental_uris": {"ios": "https://dc.lft.to/lastmile_qr_scan", "android": "https://dc.lft.to/lastmile_qr_scan"}, "lat": 38.910394833333335, "bike_id": "498d862f3f1c86b395b42304ad08b393", "is_reserved": 0}, {"fusion_lat": 0.0, "type": "electric_scooter", "name": "6b82951e4fc481c59a7497b387b2b508", "is_disabled": 0, "lon": -77.04626166666667, "fusion_lon": 0.0, "rental_uris": {"ios": "https://dc.lft.to/lastmile_qr_scan", "android": "https://dc.lft.to/lastmile_qr_scan"}, "lat": 38.90967883333333, "bike_id": "6b82951e4fc481c59a7497b387b2b508", "is_reserved": 0}, {"fusion_lat": 0.0, "type": "electric_scooter", "name": "fc6cd08cb4fb8120446f0941c7777fa1", "is_disabled": 0, "lon": -77.04507033333333, "fusion_lon": 0.0, "rental_uris": {"ios": "https://dc.lft.to/lastmile_qr_scan", "android": "https://dc.lft.to/lastmile_qr_scan"}, "lat": 38.89223366666667, "bike_id": "fc6cd08cb4fb8120446f0941c7777fa1", "is_reserved": 0}, {"fusion_lat": 0.0, "type": "electric_bike", "name": "607949829030ca4760239c61e351836b", "is_disabled": 0, "lon": -76.989753, "fusion_lon": 0.0, "rental_uris": {"ios": "https://dc.lft.to/lastmile_qr_scan", "android": "https://dc.lft.to/lastmile_qr_scan"}, "lat": 38.93719016666667, "bike_id": "607949829030ca4760239c61e351836b", "is_reserved": 0}, {"fusion_lat": 0.0, "type": "electric_bike", "name": "a8099b7a5b44a319ea729915e2fe29a8", "is_disabled": 0, "lon": -77.0653335, "fusion_lon": 0.0, "rental_uris": {"ios": "https://dc.lft.to/lastmile_qr_scan", "android": "https://dc.lft.to/lastmile_qr_scan"}, "lat": 38.99229233333333, "bike_id": "a8099b7a5b44a319ea729915e2fe29a8", "is_reserved": 0}, {"fusion_lat": 0.0, "type": "electric_bike", "name": "75b05534c3d3aa15718c7af6166d4ca8", "is_disabled": 0, "lon": -77.02953966666666, "fusion_lon": 0.0, "rental_uris": {"ios": "https://dc.lft.to/lastmile_qr_scan", "android": "https://dc.lft.to/lastmile_qr_scan"}, "lat": 38.92669883333333, "bike_id": "75b05534c3d3aa15718c7af6166d4ca8", "is_reserved": 0}, {"fusion_lat": 0.0, "type": "electric_scooter", "name": "16b456937040080988bb84b433be08cb", "is_disabled": 0, "lon": -77.01569, "fusion_lon": 0.0, "rental_uris": {"ios": "https://dc.lft.to/lastmile_qr_scan", "android": "https://dc.lft.to/lastmile_qr_scan"}, "lat": 38.876623333333335, "bike_id": "16b456937040080988bb84b433be08cb", "is_reserved": 0}, {"fusion_lat": 0.0, "type": "electric_scooter", "name": "f4a0efc03dcaa8f9877736c7170556ee", "is_disabled": 0, "lon": -77.04660116666666, "fusion_lon": 0.0, "rental_uris": {"ios": "https://dc.lft.to/lastmile_qr_scan", "android": "https://dc.lft.to/lastmile_qr_scan"}, "lat": 38.90949233333333, "bike_id": "f4a0efc03dcaa8f9877736c7170556ee", "is_reserved": 0}, {"fusion_lat": 0.0, "type": "electric_scooter", "name": "4d8f495e2286b0792d231bccadcbe7ad", "is_disabled": 0, "lon": -77.02653133333334, "fusion_lon": 0.0, "rental_uris": {"ios": "https://dc.lft.to/lastmile_qr_scan", "android": "https://dc.lft.to/lastmile_qr_scan"}, "lat": 38.923831, "bike_id": "4d8f495e2286b0792d231bccadcbe7ad", "is_reserved": 0}, {"fusion_lat": 0.0, "type": "electric_scooter", "name": "be3413d2d89c9c7522859a284442429a", "is_disabled": 0, "lon": -76.9465255, "fusion_lon": 0.0, "rental_uris": {"ios": "https://dc.lft.to/lastmile_qr_scan", "android": "https://dc.lft.to/lastmile_qr_scan"}, "lat": 38.898266, "bike_id": "be3413d2d89c9c7522859a284442429a", "is_reserved": 0}, {"fusion_lat": 0.0, "type": "electric_scooter", "name": "5cd14da4f1ac58eb169181cd47b9a47c", "is_disabled": 0, "lon": -77.02408266666667, "fusion_lon": 0.0, "rental_uris": {"ios": "https://dc.lft.to/lastmile_qr_scan", "android": "https://dc.lft.to/lastmile_qr_scan"}, "lat": 38.9156975, "bike_id": "5cd14da4f1ac58eb169181cd47b9a47c", "is_reserved": 0}, {"fusion_lat": 0.0, "type": "electric_scooter", "name": "c3266f191a8ad5c6b50b9b7a0ef9344d", "is_disabled": 0, "lon": -77.02152933333333, "fusion_lon": 0.0, "rental_uris": {"ios": "https://dc.lft.to/lastmile_qr_scan", "android": "https://dc.lft.to/lastmile_qr_scan"}, "lat": 38.94132883333333, "bike_id": "c3266f191a8ad5c6b50b9b7a0ef9344d", "is_reserved": 0}, {"fusion_lat": 0.0, "type": "electric_scooter", "name": "a2ec3f85e835914688219c24b1a11008", "is_disabled": 0, "lon": -77.04681116666667, "fusion_lon": 0.0, "rental_uris": {"ios": "https://dc.lft.to/lastmile_qr_scan", "android": "https://dc.lft.to/lastmile_qr_scan"}, "lat": 38.8922245, "bike_id": "a2ec3f85e835914688219c24b1a11008", "is_reserved": 0}, {"fusion_lat": 0.0, "type": "electric_scooter", "name": "e71a43f415aa42aff5f2ea19843adb58", "is_disabled": 0, "lon": -77.04694366666666, "fusion_lon": 0.0, "rental_uris": {"ios": "https://dc.lft.to/lastmile_qr_scan", "android": "https://dc.lft.to/lastmile_qr_scan"}, "lat": 38.89605866666667, "bike_id": "e71a43f415aa42aff5f2ea19843adb58", "is_reserved": 0}, {"fusion_lat": 0.0, "type": "electric_scooter", "name": "f0b8038ac9efd451ab3de432d5118adc", "is_disabled": 0, "lon": -77.02194666666666, "fusion_lon": 0.0, "rental_uris": {"ios": "https://dc.lft.to/lastmile_qr_scan", "android": "https://dc.lft.to/lastmile_qr_scan"}, "lat": 38.924889, "bike_id": "f0b8038ac9efd451ab3de432d5118adc", "is_reserved": 0}, {"fusion_lat": 0.0, "type": "electric_scooter", "name": "ecb4c373dcbad41ecba707e781f89316", "is_disabled": 0, "lon": -77.05345566666666, "fusion_lon": 0.0, "rental_uris": {"ios": "https://dc.lft.to/lastmile_qr_scan", "android": "https://dc.lft.to/lastmile_qr_scan"}, "lat": 38.90641183333334, "bike_id": "ecb4c373dcbad41ecba707e781f89316", "is_reserved": 0}, {"fusion_lat": 0.0, "type": "electric_scooter", "name": "f50f2b0bdd250d8bf0868e437e031a91", "is_disabled": 0, "lon": -77.09103716666667, "fusion_lon": 0.0, "rental_uris": {"ios": "https://dc.lft.to/lastmile_qr_scan", "android": "https://dc.lft.to/lastmile_qr_scan"}, "lat": 38.931002666666664, "bike_id": "f50f2b0bdd250d8bf0868e437e031a91", "is_reserved": 0}, {"fusion_lat": 0.0, "type": "electric_scooter", "name": "7e988024c1c3471eb6644b014a3d2b5f", "is_disabled": 0, "lon": -76.93007966666667, "fusion_lon": 0.0, "rental_uris": {"ios": "https://dc.lft.to/lastmile_qr_scan", "android": "https://dc.lft.to/lastmile_qr_scan"}, "lat": 38.907216166666664, "bike_id": "7e988024c1c3471eb6644b014a3d2b5f", "is_reserved": 0}, {"fusion_lat": 0.0, "type": "electric_bike", "name": "8bce82e6baf14752fa31ad96fa37fdb0", "is_disabled": 0, "lon": -76.99941383333334, "fusion_lon": 0.0, "rental_uris": {"ios": "https://dc.lft.to/lastmile_qr_scan", "android": "https://dc.lft.to/lastmile_qr_scan"}, "lat": 38.87803266666667, "bike_id": "8bce82e6baf14752fa31ad96fa37fdb0", "is_reserved": 0}, {"fusion_lat": 0.0, "type": "electric_scooter", "name": "078a345aa865da520a0168f5619a0e6f", "is_disabled": 0, "lon": -77.028169, "fusion_lon": 0.0, "rental_uris": {"ios": "https://dc.lft.to/lastmile_qr_scan", "android": "https://dc.lft.to/lastmile_qr_scan"}, "lat": 38.895352833333334, "bike_id": "078a345aa865da520a0168f5619a0e6f", "is_reserved": 0}, {"fusion_lat": 0.0, "type": "electric_scooter", "name": "545aec37f9ef34295cf1e36ff7407323", "is_disabled": 0, "lon": -77.0285015, "fusion_lon": 0.0, "rental_uris": {"ios": "https://dc.lft.to/lastmile_qr_scan", "android": "https://dc.lft.to/lastmile_qr_scan"}, "lat": 38.90225133333333, "bike_id": "545aec37f9ef34295cf1e36ff7407323", "is_reserved": 0}, {"fusion_lat": 0.0, "type": "electric_bike", "name": "94fb2dbd7e64ec9d73c6b096052171f7", "is_disabled": 0, "lon": -77.095198, "fusion_lon": 0.0, "rental_uris": {"ios": "https://dc.lft.to/lastmile_qr_scan", "android": "https://dc.lft.to/lastmile_qr_scan"}, "lat": 38.838085666666665, "bike_id": "94fb2dbd7e64ec9d73c6b096052171f7", "is_reserved": 0}, {"fusion_lat": 0.0, "type": "electric_scooter", "name": "57b5d71aad9beb09ef9807450c349d41", "is_disabled": 0, "lon": -77.06104716666667, "fusion_lon": 0.0, "rental_uris": {"ios": "https://dc.lft.to/lastmile_qr_scan", "android": "https://dc.lft.to/lastmile_qr_scan"}, "lat": 38.9053015, "bike_id": "57b5d71aad9beb09ef9807450c349d41", "is_reserved": 0}, {"fusion_lat": 0.0, "type": "electric_scooter", "name": "3206adca30c49f0047ac2f8a6c48eb74", "is_disabled": 0, "lon": -77.02962916666667, "fusion_lon": 0.0, "rental_uris": {"ios": "https://dc.lft.to/lastmile_qr_scan", "android": "https://dc.lft.to/lastmile_qr_scan"}, "lat": 38.90738183333333, "bike_id": "3206adca30c49f0047ac2f8a6c48eb74", "is_reserved": 0}, {"fusion_lat": 0.0, "type": "electric_scooter", "name": "d4229d2bf954fc46fab6d2457a3f3200", "is_disabled": 0, "lon": -77.042498, "fusion_lon": 0.0, "rental_uris": {"ios": "https://dc.lft.to/lastmile_qr_scan", "android": "https://dc.lft.to/lastmile_qr_scan"}, "lat": 38.92245316666666, "bike_id": "d4229d2bf954fc46fab6d2457a3f3200", "is_reserved": 0}, {"fusion_lat": 0.0, "type": "electric_scooter", "name": "9148b6ba0082fbf23c3403fbb6e7bcc0", "is_disabled": 0, "lon": -76.9438045, "fusion_lon": 0.0, "rental_uris": {"ios": "https://dc.lft.to/lastmile_qr_scan", "android": "https://dc.lft.to/lastmile_qr_scan"}, "lat": 38.89114, "bike_id": "9148b6ba0082fbf23c3403fbb6e7bcc0", "is_reserved": 0}, {"fusion_lat": 0.0, "type": "electric_scooter", "name": "4918d6c14a44a3c2491b1165de12573d", "is_disabled": 0, "lon": -77.04342883333334, "fusion_lon": 0.0, "rental_uris": {"ios": "https://dc.lft.to/lastmile_qr_scan", "android": "https://dc.lft.to/lastmile_qr_scan"}, "lat": 38.89751866666667, "bike_id": "4918d6c14a44a3c2491b1165de12573d", "is_reserved": 0}, {"fusion_lat": 0.0, "type": "electric_scooter", "name": "fd0396b0ac7735233ebaac77fded5985", "is_disabled": 0, "lon": -77.02853383333333, "fusion_lon": 0.0, "rental_uris": {"ios": "https://dc.lft.to/lastmile_qr_scan", "android": "https://dc.lft.to/lastmile_qr_scan"}, "lat": 38.933126666666666, "bike_id": "fd0396b0ac7735233ebaac77fded5985", "is_reserved": 0}, {"fusion_lat": 0.0, "type": "electric_bike", "name": "e18f9912f7de8da3c8b274efa8742068", "is_disabled": 0, "lon": -76.94546983333333, "fusion_lon": 0.0, "rental_uris": {"ios": "https://dc.lft.to/lastmile_qr_scan", "android": "https://dc.lft.to/lastmile_qr_scan"}, "lat": 38.98285333333333, "bike_id": "e18f9912f7de8da3c8b274efa8742068", "is_reserved": 0}, {"fusion_lat": 0.0, "type": "electric_scooter", "name": "58481f458c9fd6f9726a7bdbc75719b5", "is_disabled": 0, "lon": -77.0030995, "fusion_lon": 0.0, "rental_uris": {"ios": "https://dc.lft.to/lastmile_qr_scan", "android": "https://dc.lft.to/lastmile_qr_scan"}, "lat": 38.89533516666667, "bike_id": "58481f458c9fd6f9726a7bdbc75719b5", "is_reserved": 0}, {"fusion_lat": 0.0, "type": "electric_scooter", "name": "f33acb9d3940f30edcd3261a06141c76", "is_disabled": 0, "lon": -77.030468, "fusion_lon": 0.0, "rental_uris": {"ios": "https://dc.lft.to/lastmile_qr_scan", "android": "https://dc.lft.to/lastmile_qr_scan"}, "lat": 38.9001735, "bike_id": "f33acb9d3940f30edcd3261a06141c76", "is_reserved": 0}, {"fusion_lat": 0.0, "type": "electric_scooter", "name": "988490534aec1e42ceaf991756ad0030", "is_disabled": 0, "lon": -77.04494833333334, "fusion_lon": 0.0, "rental_uris": {"ios": "https://dc.lft.to/lastmile_qr_scan", "android": "https://dc.lft.to/lastmile_qr_scan"}, "lat": 38.902628166666666, "bike_id": "988490534aec1e42ceaf991756ad0030", "is_reserved": 0}, {"fusion_lat": 0.0, "type": "electric_bike", "name": "021f668eca2f2b8db314dfd73803d7a3", "is_disabled": 0, "lon": -76.99848566666667, "fusion_lon": 0.0, "rental_uris": {"ios": "https://dc.lft.to/lastmile_qr_scan", "android": "https://dc.lft.to/lastmile_qr_scan"}, "lat": 38.88390733333333, "bike_id": "021f668eca2f2b8db314dfd73803d7a3", "is_reserved": 0}, {"fusion_lat": 0.0, "type": "electric_bike", "name": "a47ec40cd49c051180ba0cfeb98f45a9", "is_disabled": 0, "lon": -76.95247383333333, "fusion_lon": 0.0, "rental_uris": {"ios": "https://dc.lft.to/lastmile_qr_scan", "android": "https://dc.lft.to/lastmile_qr_scan"}, "lat": 38.884691333333336, "bike_id": "a47ec40cd49c051180ba0cfeb98f45a9", "is_reserved": 0}, {"fusion_lat": 0.0, "type": "electric_scooter", "name": "9720a9b631360f98bc01bf775cc1928f", "is_disabled": 0, "lon": -77.00901533333334, "fusion_lon": 0.0, "rental_uris": {"ios": "https://dc.lft.to/lastmile_qr_scan", "android": "https://dc.lft.to/lastmile_qr_scan"}, "lat": 38.90045683333334, "bike_id": "9720a9b631360f98bc01bf775cc1928f", "is_reserved": 0}, {"fusion_lat": 0.0, "type": "electric_scooter", "name": "8a41b504827961cac3af2f1b9647126f", "is_disabled": 0, "lon": -77.033481, "fusion_lon": 0.0, "rental_uris": {"ios": "https://dc.lft.to/lastmile_qr_scan", "android": "https://dc.lft.to/lastmile_qr_scan"}, "lat": 38.91705233333333, "bike_id": "8a41b504827961cac3af2f1b9647126f", "is_reserved": 0}, {"fusion_lat": 0.0, "type": "electric_bike", "name": "855dd170333abe56bf4bb3c828ce3307", "is_disabled": 0, "lon": -77.02874633333333, "fusion_lon": 0.0, "rental_uris": {"ios": "https://dc.lft.to/lastmile_qr_scan", "android": "https://dc.lft.to/lastmile_qr_scan"}, "lat": 38.92140166666667, "bike_id": "855dd170333abe56bf4bb3c828ce3307", "is_reserved": 0}, {"fusion_lat": 0.0, "type": "electric_scooter", "name": "3224321ce1c706ff3fc226b7c7e9ac1f", "is_disabled": 0, "lon": -76.93758033333333, "fusion_lon": 0.0, "rental_uris": {"ios": "https://dc.lft.to/lastmile_qr_scan", "android": "https://dc.lft.to/lastmile_qr_scan"}, "lat": 38.87860666666667, "bike_id": "3224321ce1c706ff3fc226b7c7e9ac1f", "is_reserved": 0}, {"fusion_lat": 0.0, "type": "electric_scooter", "name": "e76ebd38e26fea77650a1a7fcb45ff3f", "is_disabled": 0, "lon": -76.99342933333334, "fusion_lon": 0.0, "rental_uris": {"ios": "https://dc.lft.to/lastmile_qr_scan", "android": "https://dc.lft.to/lastmile_qr_scan"}, "lat": 38.881272333333335, "bike_id": "e76ebd38e26fea77650a1a7fcb45ff3f", "is_reserved": 0}, {"fusion_lat": 0.0, "type": "electric_scooter", "name": "3aee99c38f90f9845bed8f52a56bd5a8", "is_disabled": 0, "lon": -77.02892733333333, "fusion_lon": 0.0, "rental_uris": {"ios": "https://dc.lft.to/lastmile_qr_scan", "android": "https://dc.lft.to/lastmile_qr_scan"}, "lat": 38.91406083333333, "bike_id": "3aee99c38f90f9845bed8f52a56bd5a8", "is_reserved": 0}, {"fusion_lat": 0.0, "type": "electric_scooter", "name": "b97f9fa7d30979c61edb71d4d9c1a74d", "is_disabled": 0, "lon": -77.096607, "fusion_lon": 0.0, "rental_uris": {"ios": "https://dc.lft.to/lastmile_qr_scan", "android": "https://dc.lft.to/lastmile_qr_scan"}, "lat": 38.9176105, "bike_id": "b97f9fa7d30979c61edb71d4d9c1a74d", "is_reserved": 0}, {"fusion_lat": 0.0, "type": "electric_scooter", "name": "6c1c3111d49332ce2097cf433ec4ff5f", "is_disabled": 0, "lon": -77.031265, "fusion_lon": 0.0, "rental_uris": {"ios": "https://dc.lft.to/lastmile_qr_scan", "android": "https://dc.lft.to/lastmile_qr_scan"}, "lat": 38.9202765, "bike_id": "6c1c3111d49332ce2097cf433ec4ff5f", "is_reserved": 0}, {"fusion_lat": 0.0, "type": "electric_scooter", "name": "39569c58f9ee21fdc2cc5811c21036e9", "is_disabled": 0, "lon": -77.0199185, "fusion_lon": 0.0, "rental_uris": {"ios": "https://dc.lft.to/lastmile_qr_scan", "android": "https://dc.lft.to/lastmile_qr_scan"}, "lat": 38.91493883333333, "bike_id": "39569c58f9ee21fdc2cc5811c21036e9", "is_reserved": 0}, {"fusion_lat": 0.0, "type": "electric_scooter", "name": "56ac4aa3af1ddae5101aaac020db33c1", "is_disabled": 0, "lon": -77.00725783333333, "fusion_lon": 0.0, "rental_uris": {"ios": "https://dc.lft.to/lastmile_qr_scan", "android": "https://dc.lft.to/lastmile_qr_scan"}, "lat": 38.911902, "bike_id": "56ac4aa3af1ddae5101aaac020db33c1", "is_reserved": 0}, {"fusion_lat": 0.0, "type": "electric_scooter", "name": "e6d6cee638c101f4cc8c875855acbaae", "is_disabled": 0, "lon": -77.02253583333334, "fusion_lon": 0.0, "rental_uris": {"ios": "https://dc.lft.to/lastmile_qr_scan", "android": "https://dc.lft.to/lastmile_qr_scan"}, "lat": 38.92824, "bike_id": "e6d6cee638c101f4cc8c875855acbaae", "is_reserved": 0}, {"fusion_lat": 0.0, "type": "electric_scooter", "name": "a4e40d025ecb0a3afb029fdce6bc7546", "is_disabled": 0, "lon": -77.03863966666667, "fusion_lon": 0.0, "rental_uris": {"ios": "https://dc.lft.to/lastmile_qr_scan", "android": "https://dc.lft.to/lastmile_qr_scan"}, "lat": 38.91134066666667, "bike_id": "a4e40d025ecb0a3afb029fdce6bc7546", "is_reserved": 0}, {"fusion_lat": 0.0, "type": "electric_scooter", "name": "6e7fcde69528caf6104e271e4a0865ed", "is_disabled": 0, "lon": -77.0035395, "fusion_lon": 0.0, "rental_uris": {"ios": "https://dc.lft.to/lastmile_qr_scan", "android": "https://dc.lft.to/lastmile_qr_scan"}, "lat": 38.89271383333333, "bike_id": "6e7fcde69528caf6104e271e4a0865ed", "is_reserved": 0}, {"fusion_lat": 0.0, "type": "electric_scooter", "name": "baec691583fa0831a50cd6a6edb3ed4c", "is_disabled": 0, "lon": -77.04480733333334, "fusion_lon": 0.0, "rental_uris": {"ios": "https://dc.lft.to/lastmile_qr_scan", "android": "https://dc.lft.to/lastmile_qr_scan"}, "lat": 38.90109783333333, "bike_id": "baec691583fa0831a50cd6a6edb3ed4c", "is_reserved": 0}, {"fusion_lat": 0.0, "type": "electric_scooter", "name": "9e54f3f9073b8125de846916b216333b", "is_disabled": 0, "lon": -77.050206, "fusion_lon": 0.0, "rental_uris": {"ios": "https://dc.lft.to/lastmile_qr_scan", "android": "https://dc.lft.to/lastmile_qr_scan"}, "lat": 38.903246, "bike_id": "9e54f3f9073b8125de846916b216333b", "is_reserved": 0}, {"fusion_lat": 0.0, "type": "electric_scooter", "name": "120c1a979ebddefb60c53bd6724b352f", "is_disabled": 0, "lon": -77.03202983333334, "fusion_lon": 0.0, "rental_uris": {"ios": "https://dc.lft.to/lastmile_qr_scan", "android": "https://dc.lft.to/lastmile_qr_scan"}, "lat": 38.91465933333333, "bike_id": "120c1a979ebddefb60c53bd6724b352f", "is_reserved": 0}, {"fusion_lat": 0.0, "type": "electric_scooter", "name": "f12456fcdd79bd210a721ce01e640516", "is_disabled": 0, "lon": -77.02801416666667, "fusion_lon": 0.0, "rental_uris": {"ios": "https://dc.lft.to/lastmile_qr_scan", "android": "https://dc.lft.to/lastmile_qr_scan"}, "lat": 38.9030275, "bike_id": "f12456fcdd79bd210a721ce01e640516", "is_reserved": 0}, {"fusion_lat": 0.0, "type": "electric_bike", "name": "1eb4acbc206d99592a52e174d26cc513", "is_disabled": 0, "lon": -77.0061125, "fusion_lon": 0.0, "rental_uris": {"ios": "https://dc.lft.to/lastmile_qr_scan", "android": "https://dc.lft.to/lastmile_qr_scan"}, "lat": 38.823964833333335, "bike_id": "1eb4acbc206d99592a52e174d26cc513", "is_reserved": 0}, {"fusion_lat": 0.0, "type": "electric_scooter", "name": "ed26a82023f20b78d79c387351c3d3f7", "is_disabled": 0, "lon": -77.02953583333333, "fusion_lon": 0.0, "rental_uris": {"ios": "https://dc.lft.to/lastmile_qr_scan", "android": "https://dc.lft.to/lastmile_qr_scan"}, "lat": 38.9168205, "bike_id": "ed26a82023f20b78d79c387351c3d3f7", "is_reserved": 0}, {"fusion_lat": 0.0, "type": "electric_scooter", "name": "d2fefc4b48da479ac658eecb8404bbf4", "is_disabled": 0, "lon": -77.02309116666666, "fusion_lon": 0.0, "rental_uris": {"ios": "https://dc.lft.to/lastmile_qr_scan", "android": "https://dc.lft.to/lastmile_qr_scan"}, "lat": 38.896665666666664, "bike_id": "d2fefc4b48da479ac658eecb8404bbf4", "is_reserved": 0}, {"fusion_lat": 0.0, "type": "electric_scooter", "name": "af95ae0f9a17e29585be6a69fd043cd0", "is_disabled": 0, "lon": -76.99965833333333, "fusion_lon": 0.0, "rental_uris": {"ios": "https://dc.lft.to/lastmile_qr_scan", "android": "https://dc.lft.to/lastmile_qr_scan"}, "lat": 38.899038833333336, "bike_id": "af95ae0f9a17e29585be6a69fd043cd0", "is_reserved": 0}, {"fusion_lat": 0.0, "type": "electric_scooter", "name": "f3388cc3a07c3a9532695a5659bed6ee", "is_disabled": 0, "lon": -77.01507233333334, "fusion_lon": 0.0, "rental_uris": {"ios": "https://dc.lft.to/lastmile_qr_scan", "android": "https://dc.lft.to/lastmile_qr_scan"}, "lat": 38.89117866666667, "bike_id": "f3388cc3a07c3a9532695a5659bed6ee", "is_reserved": 0}, {"fusion_lat": 0.0, "type": "electric_scooter", "name": "428e56ce3643efc8da5a8a1728054f2d", "is_disabled": 0, "lon": -77.02934633333334, "fusion_lon": 0.0, "rental_uris": {"ios": "https://dc.lft.to/lastmile_qr_scan", "android": "https://dc.lft.to/lastmile_qr_scan"}, "lat": 38.907144833333334, "bike_id": "428e56ce3643efc8da5a8a1728054f2d", "is_reserved": 0}, {"fusion_lat": 0.0, "type": "electric_bike", "name": "c971e663662581c9e6bc8d446bf86a89", "is_disabled": 0, "lon": -76.907457, "fusion_lon": 0.0, "rental_uris": {"ios": "https://dc.lft.to/lastmile_qr_scan", "android": "https://dc.lft.to/lastmile_qr_scan"}, "lat": 38.89615833333333, "bike_id": "c971e663662581c9e6bc8d446bf86a89", "is_reserved": 0}, {"fusion_lat": 0.0, "type": "electric_scooter", "name": "645124ce761fd0abf2a201a1db336915", "is_disabled": 0, "lon": -77.0183765, "fusion_lon": 0.0, "rental_uris": {"ios": "https://dc.lft.to/lastmile_qr_scan", "android": "https://dc.lft.to/lastmile_qr_scan"}, "lat": 38.90961716666666, "bike_id": "645124ce761fd0abf2a201a1db336915", "is_reserved": 0}, {"fusion_lat": 0.0, "type": "electric_scooter", "name": "e3be2cf1cdc516fb9f947fd3a238747a", "is_disabled": 0, "lon": -77.0019555, "fusion_lon": 0.0, "rental_uris": {"ios": "https://dc.lft.to/lastmile_qr_scan", "android": "https://dc.lft.to/lastmile_qr_scan"}, "lat": 38.90037, "bike_id": "e3be2cf1cdc516fb9f947fd3a238747a", "is_reserved": 0}, {"fusion_lat": 0.0, "type": "electric_scooter", "name": "01dd9d6d3f66735dd5e66894835549ec", "is_disabled": 0, "lon": -77.01657833333333, "fusion_lon": 0.0, "rental_uris": {"ios": "https://dc.lft.to/lastmile_qr_scan", "android": "https://dc.lft.to/lastmile_qr_scan"}, "lat": 38.942082666666664, "bike_id": "01dd9d6d3f66735dd5e66894835549ec", "is_reserved": 0}, {"fusion_lat": 0.0, "type": "electric_scooter", "name": "891ba2d53627ea80dbb5306ff3c748c6", "is_disabled": 0, "lon": -77.04080066666667, "fusion_lon": 0.0, "rental_uris": {"ios": "https://dc.lft.to/lastmile_qr_scan", "android": "https://dc.lft.to/lastmile_qr_scan"}, "lat": 38.89838483333333, "bike_id": "891ba2d53627ea80dbb5306ff3c748c6", "is_reserved": 0}, {"fusion_lat": 0.0, "type": "electric_scooter", "name": "bdd1c8064d9e67e700851846e28f9872", "is_disabled": 0, "lon": -77.0327535, "fusion_lon": 0.0, "rental_uris": {"ios": "https://dc.lft.to/lastmile_qr_scan", "android": "https://dc.lft.to/lastmile_qr_scan"}, "lat": 38.930002333333334, "bike_id": "bdd1c8064d9e67e700851846e28f9872", "is_reserved": 0}, {"fusion_lat": 0.0, "type": "electric_scooter", "name": "8907882f654527a8b60ff3126b075899", "is_disabled": 0, "lon": -77.02570516666667, "fusion_lon": 0.0, "rental_uris": {"ios": "https://dc.lft.to/lastmile_qr_scan", "android": "https://dc.lft.to/lastmile_qr_scan"}, "lat": 38.94194616666667, "bike_id": "8907882f654527a8b60ff3126b075899", "is_reserved": 0}, {"fusion_lat": 0.0, "type": "electric_scooter", "name": "f6c69ac7ff8a778e06f108742faba0cb", "is_disabled": 0, "lon": -77.04332516666666, "fusion_lon": 0.0, "rental_uris": {"ios": "https://dc.lft.to/lastmile_qr_scan", "android": "https://dc.lft.to/lastmile_qr_scan"}, "lat": 38.917055166666664, "bike_id": "f6c69ac7ff8a778e06f108742faba0cb", "is_reserved": 0}, {"fusion_lat": 0.0, "type": "electric_scooter", "name": "16c59f3efd073b294fc10c782af58bd1", "is_disabled": 0, "lon": -77.0370555, "fusion_lon": 0.0, "rental_uris": {"ios": "https://dc.lft.to/lastmile_qr_scan", "android": "https://dc.lft.to/lastmile_qr_scan"}, "lat": 38.926373, "bike_id": "16c59f3efd073b294fc10c782af58bd1", "is_reserved": 0}, {"fusion_lat": 0.0, "type": "electric_scooter", "name": "c1b6ce8733b943af9b512bee3408bf9e", "is_disabled": 0, "lon": -77.03962966666667, "fusion_lon": 0.0, "rental_uris": {"ios": "https://dc.lft.to/lastmile_qr_scan", "android": "https://dc.lft.to/lastmile_qr_scan"}, "lat": 38.8924945, "bike_id": "c1b6ce8733b943af9b512bee3408bf9e", "is_reserved": 0}, {"fusion_lat": 0.0, "type": "electric_scooter", "name": "dd8bfe163fe816c432a7237127b5bec3", "is_disabled": 0, "lon": -77.01556633333334, "fusion_lon": 0.0, "rental_uris": {"ios": "https://dc.lft.to/lastmile_qr_scan", "android": "https://dc.lft.to/lastmile_qr_scan"}, "lat": 38.91855016666667, "bike_id": "dd8bfe163fe816c432a7237127b5bec3", "is_reserved": 0}, {"fusion_lat": 0.0, "type": "electric_scooter", "name": "d24078eb90287e5bb8f8eec14ec18356", "is_disabled": 0, "lon": -77.0363365, "fusion_lon": 0.0, "rental_uris": {"ios": "https://dc.lft.to/lastmile_qr_scan", "android": "https://dc.lft.to/lastmile_qr_scan"}, "lat": 38.925963333333335, "bike_id": "d24078eb90287e5bb8f8eec14ec18356", "is_reserved": 0}, {"fusion_lat": 0.0, "type": "electric_scooter", "name": "d4548716fa8aa78b3fc277fa2b9307df", "is_disabled": 0, "lon": -77.051639, "fusion_lon": 0.0, "rental_uris": {"ios": "https://dc.lft.to/lastmile_qr_scan", "android": "https://dc.lft.to/lastmile_qr_scan"}, "lat": 38.9011145, "bike_id": "d4548716fa8aa78b3fc277fa2b9307df", "is_reserved": 0}, {"fusion_lat": 0.0, "type": "electric_scooter", "name": "38d41cede7ad154402cba3fd1545d095", "is_disabled": 0, "lon": -77.03210316666667, "fusion_lon": 0.0, "rental_uris": {"ios": "https://dc.lft.to/lastmile_qr_scan", "android": "https://dc.lft.to/lastmile_qr_scan"}, "lat": 38.88471833333333, "bike_id": "38d41cede7ad154402cba3fd1545d095", "is_reserved": 0}, {"fusion_lat": 0.0, "type": "electric_scooter", "name": "52c8a954d20c3b0305ffda82cf69ec89", "is_disabled": 0, "lon": -77.028243, "fusion_lon": 0.0, "rental_uris": {"ios": "https://dc.lft.to/lastmile_qr_scan", "android": "https://dc.lft.to/lastmile_qr_scan"}, "lat": 38.914350166666665, "bike_id": "52c8a954d20c3b0305ffda82cf69ec89", "is_reserved": 0}, {"fusion_lat": 0.0, "type": "electric_scooter", "name": "214b74829011a91d3f39e5d2d67b5ac5", "is_disabled": 0, "lon": -77.04357683333333, "fusion_lon": 0.0, "rental_uris": {"ios": "https://dc.lft.to/lastmile_qr_scan", "android": "https://dc.lft.to/lastmile_qr_scan"}, "lat": 38.92141316666667, "bike_id": "214b74829011a91d3f39e5d2d67b5ac5", "is_reserved": 0}, {"fusion_lat": 0.0, "type": "electric_scooter", "name": "efb1db30690dcbb9f10962ed05bfd50b", "is_disabled": 0, "lon": -77.051595, "fusion_lon": 0.0, "rental_uris": {"ios": "https://dc.lft.to/lastmile_qr_scan", "android": "https://dc.lft.to/lastmile_qr_scan"}, "lat": 38.9024225, "bike_id": "efb1db30690dcbb9f10962ed05bfd50b", "is_reserved": 0}, {"fusion_lat": 0.0, "type": "electric_scooter", "name": "3ebcca2deca7e0cd1a4a1620e479d1a7", "is_disabled": 0, "lon": -77.02807166666666, "fusion_lon": 0.0, "rental_uris": {"ios": "https://dc.lft.to/lastmile_qr_scan", "android": "https://dc.lft.to/lastmile_qr_scan"}, "lat": 38.930819666666665, "bike_id": "3ebcca2deca7e0cd1a4a1620e479d1a7", "is_reserved": 0}, {"fusion_lat": 0.0, "type": "electric_bike", "name": "baea5739bf26beda638df3cf3d0d7234", "is_disabled": 0, "lon": -76.90753483333333, "fusion_lon": 0.0, "rental_uris": {"ios": "https://dc.lft.to/lastmile_qr_scan", "android": "https://dc.lft.to/lastmile_qr_scan"}, "lat": 38.896232833333336, "bike_id": "baea5739bf26beda638df3cf3d0d7234", "is_reserved": 0}, {"fusion_lat": 0.0, "type": "electric_scooter", "name": "33c4bb9c1f09a6540f92c6f9484b7638", "is_disabled": 0, "lon": -77.02737333333333, "fusion_lon": 0.0, "rental_uris": {"ios": "https://dc.lft.to/lastmile_qr_scan", "android": "https://dc.lft.to/lastmile_qr_scan"}, "lat": 38.92389566666667, "bike_id": "33c4bb9c1f09a6540f92c6f9484b7638", "is_reserved": 0}, {"fusion_lat": 0.0, "type": "electric_scooter", "name": "ead2a74373d535d14b850b6642cb2f4c", "is_disabled": 0, "lon": -77.00841966666667, "fusion_lon": 0.0, "rental_uris": {"ios": "https://dc.lft.to/lastmile_qr_scan", "android": "https://dc.lft.to/lastmile_qr_scan"}, "lat": 38.913741333333334, "bike_id": "ead2a74373d535d14b850b6642cb2f4c", "is_reserved": 0}, {"fusion_lat": 0.0, "type": "electric_scooter", "name": "b4e72666dd81ae742cf514161d327167", "is_disabled": 0, "lon": -77.010744, "fusion_lon": 0.0, "rental_uris": {"ios": "https://dc.lft.to/lastmile_qr_scan", "android": "https://dc.lft.to/lastmile_qr_scan"}, "lat": 38.92123633333333, "bike_id": "b4e72666dd81ae742cf514161d327167", "is_reserved": 0}, {"fusion_lat": 0.0, "type": "electric_scooter", "name": "6f4f793cbd29d8af37f91d5f8530da0b", "is_disabled": 0, "lon": -77.02409166666666, "fusion_lon": 0.0, "rental_uris": {"ios": "https://dc.lft.to/lastmile_qr_scan", "android": "https://dc.lft.to/lastmile_qr_scan"}, "lat": 38.91717216666667, "bike_id": "6f4f793cbd29d8af37f91d5f8530da0b", "is_reserved": 0}, {"fusion_lat": 0.0, "type": "electric_scooter", "name": "3c12d9a09d9741155e1d3c9040b8c880", "is_disabled": 0, "lon": -77.00526816666667, "fusion_lon": 0.0, "rental_uris": {"ios": "https://dc.lft.to/lastmile_qr_scan", "android": "https://dc.lft.to/lastmile_qr_scan"}, "lat": 38.8747265, "bike_id": "3c12d9a09d9741155e1d3c9040b8c880", "is_reserved": 0}, {"fusion_lat": 0.0, "type": "electric_scooter", "name": "aa00c332fb07845f767e349544b9a690", "is_disabled": 0, "lon": -77.02291183333334, "fusion_lon": 0.0, "rental_uris": {"ios": "https://dc.lft.to/lastmile_qr_scan", "android": "https://dc.lft.to/lastmile_qr_scan"}, "lat": 38.91791116666667, "bike_id": "aa00c332fb07845f767e349544b9a690", "is_reserved": 0}, {"fusion_lat": 0.0, "type": "electric_scooter", "name": "7da97a844b3bb6238e861682e26e3cd8", "is_disabled": 0, "lon": -77.0354005, "fusion_lon": 0.0, "rental_uris": {"ios": "https://dc.lft.to/lastmile_qr_scan", "android": "https://dc.lft.to/lastmile_qr_scan"}, "lat": 38.92419016666667, "bike_id": "7da97a844b3bb6238e861682e26e3cd8", "is_reserved": 0}, {"fusion_lat": 0.0, "type": "electric_scooter", "name": "e0d1dabb5befa2831e642696455ef004", "is_disabled": 0, "lon": -77.02375666666667, "fusion_lon": 0.0, "rental_uris": {"ios": "https://dc.lft.to/lastmile_qr_scan", "android": "https://dc.lft.to/lastmile_qr_scan"}, "lat": 38.89219116666666, "bike_id": "e0d1dabb5befa2831e642696455ef004", "is_reserved": 0}, {"fusion_lat": 0.0, "type": "electric_scooter", "name": "8bff1ef0f85411f87c2c0a6b394ce801", "is_disabled": 0, "lon": -77.01777666666666, "fusion_lon": 0.0, "rental_uris": {"ios": "https://dc.lft.to/lastmile_qr_scan", "android": "https://dc.lft.to/lastmile_qr_scan"}, "lat": 38.91993383333333, "bike_id": "8bff1ef0f85411f87c2c0a6b394ce801", "is_reserved": 0}, {"fusion_lat": 0.0, "type": "electric_scooter", "name": "119e0848b6425639bc59fc041c412edd", "is_disabled": 0, "lon": -77.0319835, "fusion_lon": 0.0, "rental_uris": {"ios": "https://dc.lft.to/lastmile_qr_scan", "android": "https://dc.lft.to/lastmile_qr_scan"}, "lat": 38.902163, "bike_id": "119e0848b6425639bc59fc041c412edd", "is_reserved": 0}, {"fusion_lat": 0.0, "type": "electric_scooter", "name": "f8aaa0ddedb39b0f9077e7cbf4299ce0", "is_disabled": 0, "lon": -77.01110766666666, "fusion_lon": 0.0, "rental_uris": {"ios": "https://dc.lft.to/lastmile_qr_scan", "android": "https://dc.lft.to/lastmile_qr_scan"}, "lat": 38.8955305, "bike_id": "f8aaa0ddedb39b0f9077e7cbf4299ce0", "is_reserved": 0}, {"fusion_lat": 0.0, "type": "electric_scooter", "name": "2e3db36df454ff2429a41c6cf1baedc9", "is_disabled": 0, "lon": -77.01978916666667, "fusion_lon": 0.0, "rental_uris": {"ios": "https://dc.lft.to/lastmile_qr_scan", "android": "https://dc.lft.to/lastmile_qr_scan"}, "lat": 38.887208333333334, "bike_id": "2e3db36df454ff2429a41c6cf1baedc9", "is_reserved": 0}, {"fusion_lat": 0.0, "type": "electric_scooter", "name": "aeff03cd656f66a72a7fcc3f68ee6bec", "is_disabled": 0, "lon": -77.02821416666667, "fusion_lon": 0.0, "rental_uris": {"ios": "https://dc.lft.to/lastmile_qr_scan", "android": "https://dc.lft.to/lastmile_qr_scan"}, "lat": 38.917531333333336, "bike_id": "aeff03cd656f66a72a7fcc3f68ee6bec", "is_reserved": 0}, {"fusion_lat": 0.0, "type": "electric_scooter", "name": "1f7734385c36a688c6a1fda38a9d7f36", "is_disabled": 0, "lon": -77.014808, "fusion_lon": 0.0, "rental_uris": {"ios": "https://dc.lft.to/lastmile_qr_scan", "android": "https://dc.lft.to/lastmile_qr_scan"}, "lat": 38.914076666666666, "bike_id": "1f7734385c36a688c6a1fda38a9d7f36", "is_reserved": 0}, {"fusion_lat": 0.0, "type": "electric_scooter", "name": "4547e52fe0c320e3585aefb64accfd27", "is_disabled": 0, "lon": -77.04474083333334, "fusion_lon": 0.0, "rental_uris": {"ios": "https://dc.lft.to/lastmile_qr_scan", "android": "https://dc.lft.to/lastmile_qr_scan"}, "lat": 38.91118383333333, "bike_id": "4547e52fe0c320e3585aefb64accfd27", "is_reserved": 0}, {"fusion_lat": 0.0, "type": "electric_bike", "name": "7f7e57963f645afa4e12581d09693298", "is_disabled": 0, "lon": -76.95566583333333, "fusion_lon": 0.0, "rental_uris": {"ios": "https://dc.lft.to/lastmile_qr_scan", "android": "https://dc.lft.to/lastmile_qr_scan"}, "lat": 38.98502533333333, "bike_id": "7f7e57963f645afa4e12581d09693298", "is_reserved": 0}, {"fusion_lat": 0.0, "type": "electric_scooter", "name": "e51c933a7bfdca783f47b9021b0e3a6d", "is_disabled": 0, "lon": -77.062964, "fusion_lon": 0.0, "rental_uris": {"ios": "https://dc.lft.to/lastmile_qr_scan", "android": "https://dc.lft.to/lastmile_qr_scan"}, "lat": 38.90396483333333, "bike_id": "e51c933a7bfdca783f47b9021b0e3a6d", "is_reserved": 0}, {"fusion_lat": 0.0, "type": "electric_scooter", "name": "b8927c11aef0ddafaa7c030e9ba67942", "is_disabled": 0, "lon": -77.03944033333333, "fusion_lon": 0.0, "rental_uris": {"ios": "https://dc.lft.to/lastmile_qr_scan", "android": "https://dc.lft.to/lastmile_qr_scan"}, "lat": 38.902833666666666, "bike_id": "b8927c11aef0ddafaa7c030e9ba67942", "is_reserved": 0}, {"fusion_lat": 0.0, "type": "electric_scooter", "name": "24fa81d559f434c595bffcadd236338d", "is_disabled": 0, "lon": -77.041248, "fusion_lon": 0.0, "rental_uris": {"ios": "https://dc.lft.to/lastmile_qr_scan", "android": "https://dc.lft.to/lastmile_qr_scan"}, "lat": 38.917079333333334, "bike_id": "24fa81d559f434c595bffcadd236338d", "is_reserved": 0}, {"fusion_lat": 0.0, "type": "electric_scooter", "name": "0b1acb3655c915a96aba0fb0959a26a2", "is_disabled": 0, "lon": -77.02982516666667, "fusion_lon": 0.0, "rental_uris": {"ios": "https://dc.lft.to/lastmile_qr_scan", "android": "https://dc.lft.to/lastmile_qr_scan"}, "lat": 38.943005, "bike_id": "0b1acb3655c915a96aba0fb0959a26a2", "is_reserved": 0}, {"fusion_lat": 0.0, "type": "electric_scooter", "name": "38f3416a4b77bb51d88dcb0e921903bd", "is_disabled": 0, "lon": -77.04460366666666, "fusion_lon": 0.0, "rental_uris": {"ios": "https://dc.lft.to/lastmile_qr_scan", "android": "https://dc.lft.to/lastmile_qr_scan"}, "lat": 38.924704, "bike_id": "38f3416a4b77bb51d88dcb0e921903bd", "is_reserved": 0}, {"fusion_lat": 0.0, "type": "electric_scooter", "name": "773ac8f22919b01370605415f7c3a790", "is_disabled": 0, "lon": -77.0127965, "fusion_lon": 0.0, "rental_uris": {"ios": "https://dc.lft.to/lastmile_qr_scan", "android": "https://dc.lft.to/lastmile_qr_scan"}, "lat": 38.95649683333333, "bike_id": "773ac8f22919b01370605415f7c3a790", "is_reserved": 0}, {"fusion_lat": 0.0, "type": "electric_scooter", "name": "6eeafd2271f9716c2228d3913706b383", "is_disabled": 0, "lon": -77.0154475, "fusion_lon": 0.0, "rental_uris": {"ios": "https://dc.lft.to/lastmile_qr_scan", "android": "https://dc.lft.to/lastmile_qr_scan"}, "lat": 38.89168133333333, "bike_id": "6eeafd2271f9716c2228d3913706b383", "is_reserved": 0}, {"fusion_lat": 0.0, "type": "electric_scooter", "name": "b92dbda52ffa743118bdcc05610f2e18", "is_disabled": 0, "lon": -77.02097283333333, "fusion_lon": 0.0, "rental_uris": {"ios": "https://dc.lft.to/lastmile_qr_scan", "android": "https://dc.lft.to/lastmile_qr_scan"}, "lat": 38.9236525, "bike_id": "b92dbda52ffa743118bdcc05610f2e18", "is_reserved": 0}, {"fusion_lat": 0.0, "type": "electric_bike", "name": "5a26d2e166b4d5cb7fbdf2ee1055f653", "is_disabled": 0, "lon": -77.012015, "fusion_lon": 0.0, "rental_uris": {"ios": "https://dc.lft.to/lastmile_qr_scan", "android": "https://dc.lft.to/lastmile_qr_scan"}, "lat": 38.95071983333333, "bike_id": "5a26d2e166b4d5cb7fbdf2ee1055f653", "is_reserved": 0}, {"fusion_lat": 0.0, "type": "electric_bike", "name": "c7e6a52bd0bf45f9973d18338d1a0c85", "is_disabled": 0, "lon": -77.12885016666667, "fusion_lon": 0.0, "rental_uris": {"ios": "https://dc.lft.to/lastmile_qr_scan", "android": "https://dc.lft.to/lastmile_qr_scan"}, "lat": 38.90611333333333, "bike_id": "c7e6a52bd0bf45f9973d18338d1a0c85", "is_reserved": 0}, {"fusion_lat": 0.0, "type": "electric_scooter", "name": "5c3ed1ab6aecd775f190d575f6ba2556", "is_disabled": 0, "lon": -77.02288166666666, "fusion_lon": 0.0, "rental_uris": {"ios": "https://dc.lft.to/lastmile_qr_scan", "android": "https://dc.lft.to/lastmile_qr_scan"}, "lat": 38.91613616666667, "bike_id": "5c3ed1ab6aecd775f190d575f6ba2556", "is_reserved": 0}, {"fusion_lat": 0.0, "type": "electric_scooter", "name": "b5f031a7076e659ba8a0a9f2b3399759", "is_disabled": 0, "lon": -77.02000916666667, "fusion_lon": 0.0, "rental_uris": {"ios": "https://dc.lft.to/lastmile_qr_scan", "android": "https://dc.lft.to/lastmile_qr_scan"}, "lat": 38.901723, "bike_id": "b5f031a7076e659ba8a0a9f2b3399759", "is_reserved": 0}, {"fusion_lat": 0.0, "type": "electric_scooter", "name": "c88ddfc36ed09dd55363d6b35d872f64", "is_disabled": 0, "lon": -77.04001566666666, "fusion_lon": 0.0, "rental_uris": {"ios": "https://dc.lft.to/lastmile_qr_scan", "android": "https://dc.lft.to/lastmile_qr_scan"}, "lat": 38.934269666666665, "bike_id": "c88ddfc36ed09dd55363d6b35d872f64", "is_reserved": 0}, {"fusion_lat": 0.0, "type": "electric_scooter", "name": "b18324ef0f03785299664a7b1cdf5039", "is_disabled": 0, "lon": -77.016211, "fusion_lon": 0.0, "rental_uris": {"ios": "https://dc.lft.to/lastmile_qr_scan", "android": "https://dc.lft.to/lastmile_qr_scan"}, "lat": 38.90603083333333, "bike_id": "b18324ef0f03785299664a7b1cdf5039", "is_reserved": 0}, {"fusion_lat": 0.0, "type": "electric_scooter", "name": "e49c3dfabf9bf5ad369226eb97c8b99a", "is_disabled": 0, "lon": -77.04248183333333, "fusion_lon": 0.0, "rental_uris": {"ios": "https://dc.lft.to/lastmile_qr_scan", "android": "https://dc.lft.to/lastmile_qr_scan"}, "lat": 38.917781833333336, "bike_id": "e49c3dfabf9bf5ad369226eb97c8b99a", "is_reserved": 0}, {"fusion_lat": 0.0, "type": "electric_scooter", "name": "6a2cd3059d442bcbaf1dfb28168faee4", "is_disabled": 0, "lon": -77.01956766666666, "fusion_lon": 0.0, "rental_uris": {"ios": "https://dc.lft.to/lastmile_qr_scan", "android": "https://dc.lft.to/lastmile_qr_scan"}, "lat": 38.923305, "bike_id": "6a2cd3059d442bcbaf1dfb28168faee4", "is_reserved": 0}, {"fusion_lat": 0.0, "type": "electric_scooter", "name": "c938cc8b6c9cfd5f556031afa99589e7", "is_disabled": 0, "lon": -77.04695683333334, "fusion_lon": 0.0, "rental_uris": {"ios": "https://dc.lft.to/lastmile_qr_scan", "android": "https://dc.lft.to/lastmile_qr_scan"}, "lat": 38.902885, "bike_id": "c938cc8b6c9cfd5f556031afa99589e7", "is_reserved": 0}, {"fusion_lat": 0.0, "type": "electric_scooter", "name": "6bd8959ef044b5413442cb3a67e03201", "is_disabled": 0, "lon": -77.04455366666667, "fusion_lon": 0.0, "rental_uris": {"ios": "https://dc.lft.to/lastmile_qr_scan", "android": "https://dc.lft.to/lastmile_qr_scan"}, "lat": 38.918793, "bike_id": "6bd8959ef044b5413442cb3a67e03201", "is_reserved": 0}, {"fusion_lat": 0.0, "type": "electric_bike", "name": "595694d467bb528db234b7a27532b0d4", "is_disabled": 0, "lon": -76.96887416666667, "fusion_lon": 0.0, "rental_uris": {"ios": "https://dc.lft.to/lastmile_qr_scan", "android": "https://dc.lft.to/lastmile_qr_scan"}, "lat": 38.869853666666664, "bike_id": "595694d467bb528db234b7a27532b0d4", "is_reserved": 0}, {"fusion_lat": 0.0, "type": "electric_scooter", "name": "00a3b366130749d7b0ccf07cea2a06c4", "is_disabled": 0, "lon": -77.02717116666666, "fusion_lon": 0.0, "rental_uris": {"ios": "https://dc.lft.to/lastmile_qr_scan", "android": "https://dc.lft.to/lastmile_qr_scan"}, "lat": 38.91656433333333, "bike_id": "00a3b366130749d7b0ccf07cea2a06c4", "is_reserved": 0}, {"fusion_lat": 0.0, "type": "electric_scooter", "name": "9d13e713720ce9c36a0364973ae7648e", "is_disabled": 0, "lon": -76.9914355, "fusion_lon": 0.0, "rental_uris": {"ios": "https://dc.lft.to/lastmile_qr_scan", "android": "https://dc.lft.to/lastmile_qr_scan"}, "lat": 38.873380166666664, "bike_id": "9d13e713720ce9c36a0364973ae7648e", "is_reserved": 0}, {"fusion_lat": 0.0, "type": "electric_scooter", "name": "c9e938c85dafe09e01065468585016d9", "is_disabled": 0, "lon": -77.03189983333333, "fusion_lon": 0.0, "rental_uris": {"ios": "https://dc.lft.to/lastmile_qr_scan", "android": "https://dc.lft.to/lastmile_qr_scan"}, "lat": 38.93050933333333, "bike_id": "c9e938c85dafe09e01065468585016d9", "is_reserved": 0}, {"fusion_lat": 0.0, "type": "electric_scooter", "name": "ebe93698b4331922b4a3ce492cbfb5fe", "is_disabled": 0, "lon": -77.009296, "fusion_lon": 0.0, "rental_uris": {"ios": "https://dc.lft.to/lastmile_qr_scan", "android": "https://dc.lft.to/lastmile_qr_scan"}, "lat": 38.87448116666667, "bike_id": "ebe93698b4331922b4a3ce492cbfb5fe", "is_reserved": 0}, {"fusion_lat": 0.0, "type": "electric_scooter", "name": "185f0ea56e45458e938ed6e1bd8b7d30", "is_disabled": 0, "lon": -76.996309, "fusion_lon": 0.0, "rental_uris": {"ios": "https://dc.lft.to/lastmile_qr_scan", "android": "https://dc.lft.to/lastmile_qr_scan"}, "lat": 38.87736666666667, "bike_id": "185f0ea56e45458e938ed6e1bd8b7d30", "is_reserved": 0}, {"fusion_lat": 0.0, "type": "electric_scooter", "name": "26ece29e81da2a9344fe2674bf8aee09", "is_disabled": 0, "lon": -77.01613766666667, "fusion_lon": 0.0, "rental_uris": {"ios": "https://dc.lft.to/lastmile_qr_scan", "android": "https://dc.lft.to/lastmile_qr_scan"}, "lat": 38.9131235, "bike_id": "26ece29e81da2a9344fe2674bf8aee09", "is_reserved": 0}, {"fusion_lat": 0.0, "type": "electric_scooter", "name": "a818c17f625e659902d18b52ddd18077", "is_disabled": 0, "lon": -77.0171145, "fusion_lon": 0.0, "rental_uris": {"ios": "https://dc.lft.to/lastmile_qr_scan", "android": "https://dc.lft.to/lastmile_qr_scan"}, "lat": 38.8729735, "bike_id": "a818c17f625e659902d18b52ddd18077", "is_reserved": 0}, {"fusion_lat": 0.0, "type": "electric_scooter", "name": "62b8527959def2bf1e7fa01c96eecb7b", "is_disabled": 0, "lon": -77.01758216666667, "fusion_lon": 0.0, "rental_uris": {"ios": "https://dc.lft.to/lastmile_qr_scan", "android": "https://dc.lft.to/lastmile_qr_scan"}, "lat": 38.87680433333333, "bike_id": "62b8527959def2bf1e7fa01c96eecb7b", "is_reserved": 0}, {"fusion_lat": 0.0, "type": "electric_scooter", "name": "67bf0e48212724e1ded90cc0a0456850", "is_disabled": 0, "lon": -77.03625383333333, "fusion_lon": 0.0, "rental_uris": {"ios": "https://dc.lft.to/lastmile_qr_scan", "android": "https://dc.lft.to/lastmile_qr_scan"}, "lat": 38.90366816666667, "bike_id": "67bf0e48212724e1ded90cc0a0456850", "is_reserved": 0}, {"fusion_lat": 0.0, "type": "electric_scooter", "name": "1243bfebd8d09fdf63db56b85ca865c3", "is_disabled": 0, "lon": -77.0418525, "fusion_lon": 0.0, "rental_uris": {"ios": "https://dc.lft.to/lastmile_qr_scan", "android": "https://dc.lft.to/lastmile_qr_scan"}, "lat": 38.911319166666665, "bike_id": "1243bfebd8d09fdf63db56b85ca865c3", "is_reserved": 0}, {"fusion_lat": 0.0, "type": "electric_scooter", "name": "abb74a23e1f5a4b876ae08a8d5f2d96e", "is_disabled": 0, "lon": -76.92504233333334, "fusion_lon": 0.0, "rental_uris": {"ios": "https://dc.lft.to/lastmile_qr_scan", "android": "https://dc.lft.to/lastmile_qr_scan"}, "lat": 38.886016833333336, "bike_id": "abb74a23e1f5a4b876ae08a8d5f2d96e", "is_reserved": 0}, {"fusion_lat": 0.0, "type": "electric_scooter", "name": "fa1ba877dd851cbff2afccee77de7dac", "is_disabled": 0, "lon": -76.92619316666666, "fusion_lon": 0.0, "rental_uris": {"ios": "https://dc.lft.to/lastmile_qr_scan", "android": "https://dc.lft.to/lastmile_qr_scan"}, "lat": 38.883760333333335, "bike_id": "fa1ba877dd851cbff2afccee77de7dac", "is_reserved": 0}, {"fusion_lat": 0.0, "type": "electric_scooter", "name": "1468e4ae095de5053203d2a48358aa76", "is_disabled": 0, "lon": -77.0467745, "fusion_lon": 0.0, "rental_uris": {"ios": "https://dc.lft.to/lastmile_qr_scan", "android": "https://dc.lft.to/lastmile_qr_scan"}, "lat": 38.898370666666665, "bike_id": "1468e4ae095de5053203d2a48358aa76", "is_reserved": 0}, {"fusion_lat": 0.0, "type": "electric_scooter", "name": "1c53d26ed482dc53403d6e3577844f5a", "is_disabled": 0, "lon": -76.9962315, "fusion_lon": 0.0, "rental_uris": {"ios": "https://dc.lft.to/lastmile_qr_scan", "android": "https://dc.lft.to/lastmile_qr_scan"}, "lat": 38.931658166666665, "bike_id": "1c53d26ed482dc53403d6e3577844f5a", "is_reserved": 0}, {"fusion_lat": 0.0, "type": "electric_scooter", "name": "ffef60797468c3a5210fcd128fb16a21", "is_disabled": 0, "lon": -77.03072366666666, "fusion_lon": 0.0, "rental_uris": {"ios": "https://dc.lft.to/lastmile_qr_scan", "android": "https://dc.lft.to/lastmile_qr_scan"}, "lat": 38.899721166666666, "bike_id": "ffef60797468c3a5210fcd128fb16a21", "is_reserved": 0}, {"fusion_lat": 0.0, "type": "electric_scooter", "name": "385adad8b588d9dabd07afa5fdb9eb13", "is_disabled": 0, "lon": -76.99109116666666, "fusion_lon": 0.0, "rental_uris": {"ios": "https://dc.lft.to/lastmile_qr_scan", "android": "https://dc.lft.to/lastmile_qr_scan"}, "lat": 38.85732, "bike_id": "385adad8b588d9dabd07afa5fdb9eb13", "is_reserved": 0}, {"fusion_lat": 0.0, "type": "electric_scooter", "name": "802785d57d1fb8691613ad0049dc3db8", "is_disabled": 0, "lon": -76.99487533333334, "fusion_lon": 0.0, "rental_uris": {"ios": "https://dc.lft.to/lastmile_qr_scan", "android": "https://dc.lft.to/lastmile_qr_scan"}, "lat": 38.890064833333334, "bike_id": "802785d57d1fb8691613ad0049dc3db8", "is_reserved": 0}, {"fusion_lat": 0.0, "type": "electric_bike", "name": "9124b2dbe99adac030a0df91b8c4936c", "is_disabled": 0, "lon": -77.057099, "fusion_lon": 0.0, "rental_uris": {"ios": "https://dc.lft.to/lastmile_qr_scan", "android": "https://dc.lft.to/lastmile_qr_scan"}, "lat": 38.9056615, "bike_id": "9124b2dbe99adac030a0df91b8c4936c", "is_reserved": 0}, {"fusion_lat": 0.0, "type": "electric_scooter", "name": "61d75ec83361a45f6437d0bdcc6a344a", "is_disabled": 0, "lon": -77.041408, "fusion_lon": 0.0, "rental_uris": {"ios": "https://dc.lft.to/lastmile_qr_scan", "android": "https://dc.lft.to/lastmile_qr_scan"}, "lat": 38.90888366666667, "bike_id": "61d75ec83361a45f6437d0bdcc6a344a", "is_reserved": 0}, {"fusion_lat": 0.0, "type": "electric_scooter", "name": "64f518b08a8f77643ee83ba1d1b70a26", "is_disabled": 0, "lon": -77.03929216666667, "fusion_lon": 0.0, "rental_uris": {"ios": "https://dc.lft.to/lastmile_qr_scan", "android": "https://dc.lft.to/lastmile_qr_scan"}, "lat": 38.902814166666666, "bike_id": "64f518b08a8f77643ee83ba1d1b70a26", "is_reserved": 0}, {"fusion_lat": 0.0, "type": "electric_scooter", "name": "28176fd9fcda5ceb09f894466f54158f", "is_disabled": 0, "lon": -77.038694, "fusion_lon": 0.0, "rental_uris": {"ios": "https://dc.lft.to/lastmile_qr_scan", "android": "https://dc.lft.to/lastmile_qr_scan"}, "lat": 38.9321555, "bike_id": "28176fd9fcda5ceb09f894466f54158f", "is_reserved": 0}, {"fusion_lat": 0.0, "type": "electric_scooter", "name": "c1c2f339be4511b08761dec872e99cb8", "is_disabled": 0, "lon": -77.042525, "fusion_lon": 0.0, "rental_uris": {"ios": "https://dc.lft.to/lastmile_qr_scan", "android": "https://dc.lft.to/lastmile_qr_scan"}, "lat": 38.91968716666667, "bike_id": "c1c2f339be4511b08761dec872e99cb8", "is_reserved": 0}, {"fusion_lat": 0.0, "type": "electric_scooter", "name": "17ecd0873334a28efef7557d7aa68b21", "is_disabled": 0, "lon": -77.0433035, "fusion_lon": 0.0, "rental_uris": {"ios": "https://dc.lft.to/lastmile_qr_scan", "android": "https://dc.lft.to/lastmile_qr_scan"}, "lat": 38.922210666666665, "bike_id": "17ecd0873334a28efef7557d7aa68b21", "is_reserved": 0}, {"fusion_lat": 0.0, "type": "electric_scooter", "name": "c63dc81ba5498e35d8a9f036d5a6461f", "is_disabled": 0, "lon": -77.03418233333333, "fusion_lon": 0.0, "rental_uris": {"ios": "https://dc.lft.to/lastmile_qr_scan", "android": "https://dc.lft.to/lastmile_qr_scan"}, "lat": 38.90261733333333, "bike_id": "c63dc81ba5498e35d8a9f036d5a6461f", "is_reserved": 0}, {"fusion_lat": 0.0, "type": "electric_scooter", "name": "4f802f4ae11d1561bd05c8a1d852516a", "is_disabled": 0, "lon": -77.03372866666666, "fusion_lon": 0.0, "rental_uris": {"ios": "https://dc.lft.to/lastmile_qr_scan", "android": "https://dc.lft.to/lastmile_qr_scan"}, "lat": 38.925420333333335, "bike_id": "4f802f4ae11d1561bd05c8a1d852516a", "is_reserved": 0}, {"fusion_lat": 0.0, "type": "electric_scooter", "name": "f4d3052b4d845308ab0fb2d3281ec590", "is_disabled": 0, "lon": -76.99022533333333, "fusion_lon": 0.0, "rental_uris": {"ios": "https://dc.lft.to/lastmile_qr_scan", "android": "https://dc.lft.to/lastmile_qr_scan"}, "lat": 38.8643115, "bike_id": "f4d3052b4d845308ab0fb2d3281ec590", "is_reserved": 0}, {"fusion_lat": 0.0, "type": "electric_scooter", "name": "34f5d55cf1a369b4f9d04e49f602a7e1", "is_disabled": 0, "lon": -77.02802466666667, "fusion_lon": 0.0, "rental_uris": {"ios": "https://dc.lft.to/lastmile_qr_scan", "android": "https://dc.lft.to/lastmile_qr_scan"}, "lat": 38.916784666666665, "bike_id": "34f5d55cf1a369b4f9d04e49f602a7e1", "is_reserved": 0}, {"fusion_lat": 0.0, "type": "electric_bike", "name": "b056295776cade16b89de8db8fb91601", "is_disabled": 0, "lon": -77.0071555, "fusion_lon": 0.0, "rental_uris": {"ios": "https://dc.lft.to/lastmile_qr_scan", "android": "https://dc.lft.to/lastmile_qr_scan"}, "lat": 38.995041, "bike_id": "b056295776cade16b89de8db8fb91601", "is_reserved": 0}, {"fusion_lat": 0.0, "type": "electric_scooter", "name": "3a542e0155d7c51cb4cd43d2f473b504", "is_disabled": 0, "lon": -76.99631783333334, "fusion_lon": 0.0, "rental_uris": {"ios": "https://dc.lft.to/lastmile_qr_scan", "android": "https://dc.lft.to/lastmile_qr_scan"}, "lat": 38.877393166666664, "bike_id": "3a542e0155d7c51cb4cd43d2f473b504", "is_reserved": 0}, {"fusion_lat": 0.0, "type": "electric_scooter", "name": "284d19951b82a500da779d6f96a29c49", "is_disabled": 0, "lon": -77.0318155, "fusion_lon": 0.0, "rental_uris": {"ios": "https://dc.lft.to/lastmile_qr_scan", "android": "https://dc.lft.to/lastmile_qr_scan"}, "lat": 38.9160955, "bike_id": "284d19951b82a500da779d6f96a29c49", "is_reserved": 0}, {"fusion_lat": 0.0, "type": "electric_scooter", "name": "3422e54fb323486f5238235d7cc53b1b", "is_disabled": 0, "lon": -77.043591, "fusion_lon": 0.0, "rental_uris": {"ios": "https://dc.lft.to/lastmile_qr_scan", "android": "https://dc.lft.to/lastmile_qr_scan"}, "lat": 38.92165133333334, "bike_id": "3422e54fb323486f5238235d7cc53b1b", "is_reserved": 0}, {"fusion_lat": 0.0, "type": "electric_scooter", "name": "13d1db8228a0efcf06ec99aef8de68e7", "is_disabled": 0, "lon": -76.99854933333333, "fusion_lon": 0.0, "rental_uris": {"ios": "https://dc.lft.to/lastmile_qr_scan", "android": "https://dc.lft.to/lastmile_qr_scan"}, "lat": 38.891883166666666, "bike_id": "13d1db8228a0efcf06ec99aef8de68e7", "is_reserved": 0},