{"data": {"bikes": [{"rental_uris": {"android": "https://dc.lft.to/lastmile_qr_scan", "ios": "https://dc.lft.to/lastmile_qr_scan"}, "fusion_lat": 0.0, "is_reserved": 0, "lat": 38.927415333333336, "name": "c84af318b28f1c532198aca3a707d8cd", "bike_id": "c84af318b28f1c532198aca3a707d8cd", "is_disabled": 0, "fusion_lon": 0.0, "type": "electric_scooter", "lon": -77.02249366666666}, {"rental_uris": {"android": "https://dc.lft.to/lastmile_qr_scan", "ios": "https://dc.lft.to/lastmile_qr_scan"}, "fusion_lat": 0.0, "is_reserved": 0, "lat": 38.912567, "name": "3dfc8fa726993b1d6356f04e20d22c4d", "bike_id": "3dfc8fa726993b1d6356f04e20d22c4d", "is_disabled": 0, "fusion_lon": 0.0, "type": "electric_scooter", "lon": -77.0386795}, {"rental_uris": {"android": "https://dc.lft.to/lastmile_qr_scan", "ios": "https://dc.lft.to/lastmile_qr_scan"}, "fusion_lat": 0.0, "is_reserved": 0, "lat": 38.91551966666667, "name": "de77ae25abdbc66f72c3c07e58725fdb", "bike_id": "de77ae25abdbc66f72c3c07e58725fdb", "is_disabled": 0, "fusion_lon": 0.0, "type": "electric_scooter", "lon": -77.03661616666666}, {"rental_uris": {"android": "https://dc.lft.to/lastmile_qr_scan", "ios": "https://dc.lft.to/lastmile_qr_scan"}, "fusion_lat": 0.0, "is_reserved": 0, "lat": 38.920700333333336, "name": "8a150e4951c45ba23b8321db4a8cec7a", "bike_id": "8a150e4951c45ba23b8321db4a8cec7a", "is_disabled": 0, "fusion_lon": 0.0, "type": "electric_scooter", "lon": -77.0256275}, {"rental_uris": {"android": "https://dc.lft.to/lastmile_qr_scan", "ios": "https://dc.lft.to/lastmile_qr_scan"}, "fusion_lat": 0.0, "is_reserved": 0, "lat": 38.91536966666666, "name": "736c5b17a314a77faa918275c31c8970", "bike_id": "736c5b17a314a77faa918275c31c8970", "is_disabled": 0, "fusion_lon": 0.0, "type": "electric_scooter", "lon": -77.0122575}, {"rental_uris": {"android": "https://dc.lft.to/lastmile_qr_scan", "ios": "https://dc.lft.to/lastmile_qr_scan"}, "fusion_lat": 0.0, "is_reserved": 0, "lat": 38.88723266666667, "name": "598c21c9f08a0ac50854acac38997660", "bike_id": "598c21c9f08a0ac50854acac38997660", "is_disabled": 0, "fusion_lon": 0.0, "type": "electric_scooter", "lon": -76.99681}, {"rental_uris": {"android": "https://dc.lft.to/lastmile_qr_scan", "ios": "https://dc.lft.to/lastmile_qr_scan"}, "fusion_lat": 0.0, "is_reserved": 0, "lat": 38.87947316666666, "name": "f04322350d1214fa9f31d0d55e4ae3ad", "bike_id": "f04322350d1214fa9f31d0d55e4ae3ad", "is_disabled": 0, "fusion_lon": 0.0, "type": "electric_scooter", "lon": -77.00752366666667}, {"rental_uris": {"android": "https://dc.lft.to/lastmile_qr_scan", "ios": "https://dc.lft.to/lastmile_qr_scan"}, "fusion_lat": 0.0, "is_reserved": 0, "lat": 38.901864, "name": "3e2da8bcfec5f923c22931207ea3694c", "bike_id": "3e2da8bcfec5f923c22931207ea3694c", "is_disabled": 0, "fusion_lon": 0.0, "type": "electric_scooter", "lon": -77.03376883333334}, {"rental_uris": {"android": "https://dc.lft.to/lastmile_qr_scan", "ios": "https://dc.lft.to/lastmile_qr_scan"}, "fusion_lat": 0.0, "is_reserved": 0, "lat": 38.8962655, "name": "358744862a052c2e8ac827e6c6bac90d", "bike_id": "358744862a052c2e8ac827e6c6bac90d", "is_disabled": 0, "fusion_lon": 0.0, "type": "electric_scooter", "lon": -77.03040666666666}, {"rental_uris": {"android": "https://dc.lft.to/lastmile_qr_scan", "ios": "https://dc.lft.to/lastmile_qr_scan"}, "fusion_lat": 0.0, "is_reserved": 0, "lat": 38.8887805, "name": "f9c3451020a3d040c00429b0032c2838", "bike_id": "f9c3451020a3d040c00429b0032c2838", "is_disabled": 0, "fusion_lon": 0.0, "type": "electric_scooter", "lon": -76.99032816666667}, {"rental_uris": {"android": "https://dc.lft.to/lastmile_qr_scan", "ios": "https://dc.lft.to/lastmile_qr_scan"}, "fusion_lat": 0.0, "is_reserved": 0, "lat": 38.902986166666665, "name": "0bca18bb3d0cfdf193015111d2400916", "bike_id": "0bca18bb3d0cfdf193015111d2400916", "is_disabled": 0, "fusion_lon": 0.0, "type": "electric_scooter", "lon": -77.03236766666667}, {"rental_uris": {"android": "https://dc.lft.to/lastmile_qr_scan", "ios": "https://dc.lft.to/lastmile_qr_scan"}, "fusion_lat": 0.0, "is_reserved": 0, "lat": 38.93246516666667, "name": "25e59b4b5d69a53a607ad522e5e545cc", "bike_id": "25e59b4b5d69a53a607ad522e5e545cc", "is_disabled": 0, "fusion_lon": 0.0, "type": "electric_scooter", "lon": -77.0320045}, {"rental_uris": {"android": "https://dc.lft.to/lastmile_qr_scan", "ios": "https://dc.lft.to/lastmile_qr_scan"}, "fusion_lat": 0.0, "is_reserved": 0, "lat": 38.91050833333333, "name": "4ede452b95de8d9eb5c5b03812285374", "bike_id": "4ede452b95de8d9eb5c5b03812285374", "is_disabled": 0, "fusion_lon": 0.0, "type": "electric_scooter", "lon": -77.03841466666667}, {"rental_uris": {"android": "https://dc.lft.to/lastmile_qr_scan", "ios": "https://dc.lft.to/lastmile_qr_scan"}, "fusion_lat": 0.0, "is_reserved": 0, "lat": 38.9441225, "name": "8c676a33a441dddbb5806029d8c0ae36", "bike_id": "8c676a33a441dddbb5806029d8c0ae36", "is_disabled": 0, "fusion_lon": 0.0, "type": "electric_scooter", "lon": -77.0632355}, {"rental_uris": {"android": "https://dc.lft.to/lastmile_qr_scan", "ios": "https://dc.lft.to/lastmile_qr_scan"}, "fusion_lat": 0.0, "is_reserved": 0, "lat": 38.90558816666667, "name": "0275546d5ddb24e18acdd8a75b8d2254", "bike_id": "0275546d5ddb24e18acdd8a75b8d2254", "is_disabled": 0, "fusion_lon": 0.0, "type": "electric_scooter", "lon": -77.04094466666666}, {"rental_uris": {"android": "https://dc.lft.to/lastmile_qr_scan", "ios": "https://dc.lft.to/lastmile_qr_scan"}, "fusion_lat": 0.0, "is_reserved": 0, "lat": 38.887684666666665, "name": "02488c1608c1d9ea0db21875962ecccc", "bike_id": "02488c1608c1d9ea0db21875962ecccc", "is_disabled": 0, "fusion_lon": 0.0, "type": "electric_scooter", "lon": -76.93261766666667}, {"rental_uris": {"android": "https://dc.lft.to/lastmile_qr_scan", "ios": "https://dc.lft.to/lastmile_qr_scan"}, "fusion_lat": 0.0, "is_reserved": 0, "lat": 38.893536, "name": "985f4277c0c7cba26f97c682d724f6c5", "bike_id": "985f4277c0c7cba26f97c682d724f6c5", "is_disabled": 0, "fusion_lon": 0.0, "type": "electric_scooter", "lon": -77.0174505}, {"rental_uris": {"android": "https://dc.lft.to/lastmile_qr_scan", "ios": "https://dc.lft.to/lastmile_qr_scan"}, "fusion_lat": 0.0, "is_reserved": 0, "lat": 38.93596183333333, "name": "1493f364b37e7ff08d3b3c10c808089b", "bike_id": "1493f364b37e7ff08d3b3c10c808089b", "is_disabled": 0, "fusion_lon": 0.0, "type": "electric_scooter", "lon": -77.0337055}, {"rental_uris": {"android": "https://dc.lft.to/lastmile_qr_scan", "ios": "https://dc.lft.to/lastmile_qr_scan"}, "fusion_lat": 0.0, "is_reserved": 0, "lat": 38.90036933333333, "name": "eddc1746101768c2ed752e714d7f1815", "bike_id": "eddc1746101768c2ed752e714d7f1815", "is_disabled": 0, "fusion_lon": 0.0, "type": "electric_scooter", "lon": -76.988187}, {"rental_uris": {"android": "https://dc.lft.to/lastmile_qr_scan", "ios": "https://dc.lft.to/lastmile_qr_scan"}, "fusion_lat": 0.0, "is_reserved": 0, "lat": 38.917646500000004, "name": "3a20dccd84da9eac1b3cc33ea3ca3eca", "bike_id": "3a20dccd84da9eac1b3cc33ea3ca3eca", "is_disabled": 0, "fusion_lon": 0.0, "type": "electric_scooter", "lon": -77.02805533333333}, {"rental_uris": {"android": "https://dc.lft.to/lastmile_qr_scan", "ios": "https://dc.lft.to/lastmile_qr_scan"}, "fusion_lat": 0.0, "is_reserved": 0, "lat": 38.9261175, "name": "8aeab3ba1d4eea791bef8066d78dacc0", "bike_id": "8aeab3ba1d4eea791bef8066d78dacc0", "is_disabled": 0, "fusion_lon": 0.0, "type": "electric_scooter", "lon": -77.0216105}, {"rental_uris": {"android": "https://dc.lft.to/lastmile_qr_scan", "ios": "https://dc.lft.to/lastmile_qr_scan"}, "fusion_lat": 0.0, "is_reserved": 0, "lat": 38.92173666666667, "name": "9ae0c31fbea63f7735483230b22b7b5f", "bike_id": "9ae0c31fbea63f7735483230b22b7b5f", "is_disabled": 0, "fusion_lon": 0.0, "type": "electric_scooter", "lon": -77.02663033333333}, {"rental_uris": {"android": "https://dc.lft.to/lastmile_qr_scan", "ios": "https://dc.lft.to/lastmile_qr_scan"}, "fusion_lat": 0.0, "is_reserved": 0, "lat": 38.8948345, "name": "38d3f9214135af0f7a3f99a445c0ff5c", "bike_id": "38d3f9214135af0f7a3f99a445c0ff5c", "is_disabled": 0, "fusion_lon": 0.0, "type": "electric_scooter", "lon": -76.99579633333333}, {"rental_uris": {"android": "https://dc.lft.to/lastmile_qr_scan", "ios": "https://dc.lft.to/lastmile_qr_scan"}, "fusion_lat": 0.0, "is_reserved": 0, "lat": 38.94500333333333, "name": "fc2674c15853af8a257643ddb3a1f0b5", "bike_id": "fc2674c15853af8a257643ddb3a1f0b5", "is_disabled": 0, "fusion_lon": 0.0, "type": "electric_bike", "lon": -77.00510533333333}, {"rental_uris": {"android": "https://dc.lft.to/lastmile_qr_scan", "ios": "https://dc.lft.to/lastmile_qr_scan"}, "fusion_lat": 0.0, "is_reserved": 0, "lat": 38.891261, "name": "a760534cbca7a57babd463703a41f7a9", "bike_id": "a760534cbca7a57babd463703a41f7a9", "is_disabled": 0, "fusion_lon": 0.0, "type": "electric_scooter", "lon": -76.99945016666666}, {"rental_uris": {"android": "https://dc.lft.to/lastmile_qr_scan", "ios": "https://dc.lft.to/lastmile_qr_scan"}, "fusion_lat": 0.0, "is_reserved": 0, "lat": 38.919359166666666, "name": "4c17104e61001cdba6fcc63c2f06d937", "bike_id": "4c17104e61001cdba6fcc63c2f06d937", "is_disabled": 0, "fusion_lon": 0.0, "type": "electric_scooter", "lon": -77.02429833333333}, {"rental_uris": {"android": "https://dc.lft.to/lastmile_qr_scan", "ios": "https://dc.lft.to/lastmile_qr_scan"}, "fusion_lat": 0.0, "is_reserved": 0, "lat": 38.86494666666667, "name": "f9c4e0366da48195d55a39234c458c12", "bike_id": "f9c4e0366da48195d55a39234c458c12", "is_disabled": 0, "fusion_lon": 0.0, "type": "electric_scooter", "lon": -76.97749833333333}, {"rental_uris": {"android": "https://dc.lft.to/lastmile_qr_scan", "ios": "https://dc.lft.to/lastmile_qr_scan"}, "fusion_lat": 0.0, "is_reserved": 0, "lat": 38.90589716666667, "name": "46513c7d1935b4a8f6ef38b045f051d2", "bike_id": "46513c7d1935b4a8f6ef38b045f051d2", "is_disabled": 0, "fusion_lon": 0.0, "type": "electric_scooter", "lon": -77.03993583333333}, {"rental_uris": {"android": "https://dc.lft.to/lastmile_qr_scan", "ios": "https://dc.lft.to/lastmile_qr_scan"}, "fusion_lat": 0.0, "is_reserved": 0, "lat": 38.90050433333333, "name": "be06c8595b21b3b83b8e301d0794241f", "bike_id": "be06c8595b21b3b83b8e301d0794241f", "is_disabled": 0, "fusion_lon": 0.0, "type": "electric_scooter", "lon": -77.01294016666667}, {"rental_uris": {"android": "https://dc.lft.to/lastmile_qr_scan", "ios": "https://dc.lft.to/lastmile_qr_scan"}, "fusion_lat": 0.0, "is_reserved": 0, "lat": 38.90035916666667, "name": "ba616b5eeb51355eda0ef695ce1a3b4b", "bike_id": "ba616b5eeb51355eda0ef695ce1a3b4b", "is_disabled": 0, "fusion_lon": 0.0, "type": "electric_scooter", "lon": -77.0020745}, {"rental_uris": {"android": "https://dc.lft.to/lastmile_qr_scan", "ios": "https://dc.lft.to/lastmile_qr_scan"}, "fusion_lat": 0.0, "is_reserved": 0, "lat": 38.91334783333333, "name": "8f62d7d6f477c132a1d5185b92b038b6", "bike_id": "8f62d7d6f477c132a1d5185b92b038b6", "is_disabled": 0, "fusion_lon": 0.0, "type": "electric_scooter", "lon": -77.01674333333334}, {"rental_uris": {"android": "https://dc.lft.to/lastmile_qr_scan", "ios": "https://dc.lft.to/lastmile_qr_scan"}, "fusion_lat": 0.0, "is_reserved": 0, "lat": 38.883249166666666, "name": "1827978885cb9a9286274ae0b95c9ff3", "bike_id": "1827978885cb9a9286274ae0b95c9ff3", "is_disabled": 0, "fusion_lon": 0.0, "type": "electric_scooter", "lon": -77.00955066666667}, {"rental_uris": {"android": "https://dc.lft.to/lastmile_qr_scan", "ios": "https://dc.lft.to/lastmile_qr_scan"}, "fusion_lat": 0.0, "is_reserved": 0, "lat": 38.784023833333336, "name": "81a5f99879d5ae9fe5369a75a6fe4c89", "bike_id": "81a5f99879d5ae9fe5369a75a6fe4c89", "is_disabled": 0, "fusion_lon": 0.0, "type": "electric_bike", "lon": -77.1205515}, {"rental_uris": {"android": "https://dc.lft.to/lastmile_qr_scan", "ios": "https://dc.lft.to/lastmile_qr_scan"}, "fusion_lat": 0.0, "is_reserved": 0, "lat": 38.9089895, "name": "e741be4a400872c0cae79f691daeba76", "bike_id": "e741be4a400872c0cae79f691daeba76", "is_disabled": 0, "fusion_lon": 0.0, "type": "electric_scooter", "lon": -76.98390583333334}, {"rental_uris": {"android": "https://dc.lft.to/lastmile_qr_scan", "ios": "https://dc.lft.to/lastmile_qr_scan"}, "fusion_lat": 0.0, "is_reserved": 0, "lat": 38.901711166666665, "name": "0dce7d1a736ae42c80d581d6124776cd", "bike_id": "0dce7d1a736ae42c80d581d6124776cd", "is_disabled": 0, "fusion_lon": 0.0, "type": "electric_scooter", "lon": -77.00114083333334}, {"rental_uris": {"android": "https://dc.lft.to/lastmile_qr_scan", "ios": "https://dc.lft.to/lastmile_qr_scan"}, "fusion_lat": 0.0, "is_reserved": 0, "lat": 38.92802116666667, "name": "3aaaa9fec497491aa25b4d1e7683ddbb", "bike_id": "3aaaa9fec497491aa25b4d1e7683ddbb", "is_disabled": 0, "fusion_lon": 0.0, "type": "electric_scooter", "lon": -77.02601733333333}, {"rental_uris": {"android": "https://dc.lft.to/lastmile_qr_scan", "ios": "https://dc.lft.to/lastmile_qr_scan"}, "fusion_lat": 0.0, "is_reserved": 0, "lat": 38.9192295, "name": "5d6102b6ffcb1a1edf0e7650575ff6c0", "bike_id": "5d6102b6ffcb1a1edf0e7650575ff6c0", "is_disabled": 0, "fusion_lon": 0.0, "type": "electric_scooter", "lon": -77.034154}, {"rental_uris": {"android": "https://dc.lft.to/lastmile_qr_scan", "ios": "https://dc.lft.to/lastmile_qr_scan"}, "fusion_lat": 0.0, "is_reserved": 0, "lat": 38.93536116666667, "name": "a56573e328c45a0bbfd0259b30926593", "bike_id": "a56573e328c45a0bbfd0259b30926593", "is_disabled": 0, "fusion_lon": 0.0, "type": "electric_scooter", "lon": -77.02346816666666}, {"rental_uris": {"android": "https://dc.lft.to/lastmile_qr_scan", "ios": "https://dc.lft.to/lastmile_qr_scan"}, "fusion_lat": 0.0, "is_reserved": 0, "lat": 38.927939333333335, "name": "9ff8b5f68f8cd2ac255067c07d409be1", "bike_id": "9ff8b5f68f8cd2ac255067c07d409be1", "is_disabled": 0, "fusion_lon": 0.0, "type": "electric_scooter", "lon": -77.03150666666667}, {"rental_uris": {"android": "https://dc.lft.to/lastmile_qr_scan", "ios": "https://dc.lft.to/lastmile_qr_scan"}, "fusion_lat": 0.0, "is_reserved": 0, "lat": 38.883247, "name": "2edb24777b442bd15396ce72cc419ddf", "bike_id": "2edb24777b442bd15396ce72cc419ddf", "is_disabled": 0, "fusion_lon": 0.0, "type": "electric_bike", "lon": -76.9605315}, {"rental_uris": {"android": "https://dc.lft.to/lastmile_qr_scan", "ios": "https://dc.lft.to/lastmile_qr_scan"}, "fusion_lat": 0.0, "is_reserved": 0, "lat": 38.909389833333336, "name": "6ccd692e45e544666128be4b3537bab1", "bike_id": "6ccd692e45e544666128be4b3537bab1", "is_disabled": 0, "fusion_lon": 0.0, "type": "electric_scooter", "lon": -77.01879666666666}, {"rental_uris": {"android": "https://dc.lft.to/lastmile_qr_scan", "ios": "https://dc.lft.to/lastmile_qr_scan"}, "fusion_lat": 0.0, "is_reserved": 0, "lat": 38.895146833333335, "name": "64aeee0df99f4a1a657d535f8152689c", "bike_id": "64aeee0df99f4a1a657d535f8152689c", "is_disabled": 0, "fusion_lon": 0.0, "type": "electric_scooter", "lon": -77.02279416666667}, {"rental_uris": {"android": "https://dc.lft.to/lastmile_qr_scan", "ios": "https://dc.lft.to/lastmile_qr_scan"}, "fusion_lat": 0.0, "is_reserved": 0, "lat": 38.94420933333333, "name": "041ffddda2c5af0b1019bfbb7a0b90ce", "bike_id": "041ffddda2c5af0b1019bfbb7a0b90ce", "is_disabled": 0, "fusion_lon": 0.0, "type": "electric_scooter", "lon": -77.07746633333333}, {"rental_uris": {"android": "https://dc.lft.to/lastmile_qr_scan", "ios": "https://dc.lft.to/lastmile_qr_scan"}, "fusion_lat": 0.0, "is_reserved": 0, "lat": 38.93624333333333, "name": "62a5569b1c742ad20e9f98ca74d8dfe1", "bike_id": "62a5569b1c742ad20e9f98ca74d8dfe1", "is_disabled": 0, "fusion_lon": 0.0, "type": "electric_scooter", "lon": -77.05910233333333}, {"rental_uris": {"android": "https://dc.lft.to/lastmile_qr_scan", "ios": "https://dc.lft.to/lastmile_qr_scan"}, "fusion_lat": 0.0, "is_reserved": 0, "lat": 38.9008345, "name": "6bf3d8acb7bb14b5f082da1a2166c609", "bike_id": "6bf3d8acb7bb14b5f082da1a2166c609", "is_disabled": 0, "fusion_lon": 0.0, "type": "electric_scooter", "lon": -77.01866233333334}, {"rental_uris": {"android": "https://dc.lft.to/lastmile_qr_scan", "ios": "https://dc.lft.to/lastmile_qr_scan"}, "fusion_lat": 0.0, "is_reserved": 0, "lat": 38.886223, "name": "65e697b5ed3f7aee4ee3ce10b657ec12", "bike_id": "65e697b5ed3f7aee4ee3ce10b657ec12", "is_disabled": 0, "fusion_lon": 0.0, "type": "electric_scooter", "lon": -77.03170516666667}, {"rental_uris": {"android": "https://dc.lft.to/lastmile_qr_scan", "ios": "https://dc.lft.to/lastmile_qr_scan"}, "fusion_lat": 0.0, "is_reserved": 0, "lat": 38.93171266666667, "name": "a9300d2a3f92b02f1dfd0fe9894b2a18", "bike_id": "a9300d2a3f92b02f1dfd0fe9894b2a18", "is_disabled": 0, "fusion_lon": 0.0, "type": "electric_scooter", "lon": -76.99626116666667}, {"rental_uris": {"android": "https://dc.lft.to/lastmile_qr_scan", "ios": "https://dc.lft.to/lastmile_qr_scan"}, "fusion_lat": 0.0, "is_reserved": 0, "lat": 38.89328033333334, "name": "4be671eb771ea3b7130b744729164efa", "bike_id": "4be671eb771ea3b7130b744729164efa", "is_disabled": 0, "fusion_lon": 0.0, "type": "electric_scooter", "lon": -77.04673016666666}, {"rental_uris": {"android": "https://dc.lft.to/lastmile_qr_scan", "ios": "https://dc.lft.to/lastmile_qr_scan"}, "fusion_lat": 0.0, "is_reserved": 0, "lat": 38.907948166666664, "name": "56ef8c0d8350d8573239ce8993ba4f79", "bike_id": "56ef8c0d8350d8573239ce8993ba4f79", "is_disabled": 0, "fusion_lon": 0.0, "type": "electric_scooter", "lon": -77.03183483333333}, {"rental_uris": {"android": "https://dc.lft.to/lastmile_qr_scan", "ios": "https://dc.lft.to/lastmile_qr_scan"}, "fusion_lat": 0.0, "is_reserved": 0, "lat": 38.9059225, "name": "c928e8620b48dabdcf725af4ab1ec538", "bike_id": "c928e8620b48dabdcf725af4ab1ec538", "is_disabled": 0, "fusion_lon": 0.0, "type": "electric_scooter", "lon": -77.016088}, {"rental_uris": {"android": "https://dc.lft.to/lastmile_qr_scan", "ios": "https://dc.lft.to/lastmile_qr_scan"}, "fusion_lat": 0.0, "is_reserved": 0, "lat": 38.9068485, "name": "46711230231822f777c2ce2cc2d8ae19", "bike_id": "46711230231822f777c2ce2cc2d8ae19", "is_disabled": 0, "fusion_lon": 0.0, "type": "electric_scooter", "lon": -77.02956633333334}, {"rental_uris": {"android": "https://dc.lft.to/lastmile_qr_scan", "ios": "https://dc.lft.to/lastmile_qr_scan"}, "fusion_lat": 0.0, "is_reserved": 0, "lat": 38.926857166666665, "name": "71937c130ce4d8b3ee86109897eadde5", "bike_id": "71937c130ce4d8b3ee86109897eadde5", "is_disabled": 0, "fusion_lon": 0.0, "type": "electric_scooter", "lon": -77.02963316666667}, {"rental_uris": {"android": "https://dc.lft.to/lastmile_qr_scan", "ios": "https://dc.lft.to/lastmile_qr_scan"}, "fusion_lat": 0.0, "is_reserved": 0, "lat": 38.89729716666667, "name": "8fa97464eb71337eb8c36a85f737d6c5", "bike_id": "8fa97464eb71337eb8c36a85f737d6c5", "is_disabled": 0, "fusion_lon": 0.0, "type": "electric_scooter", "lon": -77.0552385}, {"rental_uris": {"android": "https://dc.lft.to/lastmile_qr_scan", "ios": "https://dc.lft.to/lastmile_qr_scan"}, "fusion_lat": 0.0, "is_reserved": 0, "lat": 38.920587, "name": "effea7eaf28c48bb2bfd9813c33a3b9a", "bike_id": "effea7eaf28c48bb2bfd9813c33a3b9a", "is_disabled": 0, "fusion_lon": 0.0, "type": "electric_scooter", "lon": -77.03466933333333}, {"rental_uris": {"android": "https://dc.lft.to/lastmile_qr_scan", "ios": "https://dc.lft.to/lastmile_qr_scan"}, "fusion_lat": 0.0, "is_reserved": 0, "lat": 38.904715833333334, "name": "0a80983e5c1f20aa56ba8cc073721827", "bike_id": "0a80983e5c1f20aa56ba8cc073721827", "is_disabled": 0, "fusion_lon": 0.0, "type": "electric_scooter", "lon": -77.04170116666667}, {"rental_uris": {"android": "https://dc.lft.to/lastmile_qr_scan", "ios": "https://dc.lft.to/lastmile_qr_scan"}, "fusion_lat": 0.0, "is_reserved": 0, "lat": 38.92394783333334, "name": "b670184210de160efc4f42718f78ccb0", "bike_id": "b670184210de160efc4f42718f78ccb0", "is_disabled": 0, "fusion_lon": 0.0, "type": "electric_scooter", "lon": -77.03408683333333}, {"rental_uris": {"android": "https://dc.lft.to/lastmile_qr_scan", "ios": "https://dc.lft.to/lastmile_qr_scan"}, "fusion_lat": 0.0, "is_reserved": 0, "lat": 38.88795916666667, "name": "18f6bfee63be4e43a9794753ea134269", "bike_id": "18f6bfee63be4e43a9794753ea134269", "is_disabled": 0, "fusion_lon": 0.0, "type": "electric_scooter", "lon": -76.97711483333333}, {"rental_uris": {"android": "https://dc.lft.to/lastmile_qr_scan", "ios": "https://dc.lft.to/lastmile_qr_scan"}, "fusion_lat": 0.0, "is_reserved": 0, "lat": 38.87298883333333, "name": "96a33eac52cd6a275fbc8d0379bb994d", "bike_id": "96a33eac52cd6a275fbc8d0379bb994d", "is_disabled": 0, "fusion_lon": 0.0, "type": "electric_scooter", "lon": -77.01557616666666}, {"rental_uris": {"android": "https://dc.lft.to/lastmile_qr_scan", "ios": "https://dc.lft.to/lastmile_qr_scan"}, "fusion_lat": 0.0, "is_reserved": 0, "lat": 38.8827395, "name": "88c8eb4d9b1a02399196f26601a90ef3", "bike_id": "88c8eb4d9b1a02399196f26601a90ef3", "is_disabled": 0, "fusion_lon": 0.0, "type": "electric_bike", "lon": -77.1117155}, {"rental_uris": {"android": "https://dc.lft.to/lastmile_qr_scan", "ios": "https://dc.lft.to/lastmile_qr_scan"}, "fusion_lat": 0.0, "is_reserved": 0, "lat": 38.93456783333333, "name": "7e3d3ea63375ea9bc2259c986e5d85c6", "bike_id": "7e3d3ea63375ea9bc2259c986e5d85c6", "is_disabled": 0, "fusion_lon": 0.0, "type": "electric_scooter", "lon": -77.07237566666667}, {"rental_uris": {"android": "https://dc.lft.to/lastmile_qr_scan", "ios": "https://dc.lft.to/lastmile_qr_scan"}, "fusion_lat": 0.0, "is_reserved": 0, "lat": 38.924244, "name": "f3413c4a20d83df91b3148383daf8df8", "bike_id": "f3413c4a20d83df91b3148383daf8df8", "is_disabled": 0, "fusion_lon": 0.0, "type": "electric_scooter", "lon": -77.019502}, {"rental_uris": {"android": "https://dc.lft.to/lastmile_qr_scan", "ios": "https://dc.lft.to/lastmile_qr_scan"}, "fusion_lat": 0.0, "is_reserved": 0, "lat": 38.87500633333333, "name": "0bfe0e2e0811cff31a463781483a8265", "bike_id": "0bfe0e2e0811cff31a463781483a8265", "is_disabled": 0, "fusion_lon": 0.0, "type": "electric_scooter", "lon": -76.997954}, {"rental_uris": {"android": "https://dc.lft.to/lastmile_qr_scan", "ios": "https://dc.lft.to/lastmile_qr_scan"}, "fusion_lat": 0.0, "is_reserved": 0, "lat": 38.95209933333334, "name": "f58fc9d0b368a74126850dafe693d92d", "bike_id": "f58fc9d0b368a74126850dafe693d92d", "is_disabled": 0, "fusion_lon": 0.0, "type": "electric_bike", "lon": -77.017495}, {"rental_uris": {"android": "https://dc.lft.to/lastmile_qr_scan", "ios": "https://dc.lft.to/lastmile_qr_scan"}, "fusion_lat": 0.0, "is_reserved": 0, "lat": 38.88693383333333, "name": "f54719ecb0dbd9290dafe8cde844f916", "bike_id": "f54719ecb0dbd9290dafe8cde844f916", "is_disabled": 0, "fusion_lon": 0.0, "type": "electric_scooter", "lon": -76.97635316666667}, {"rental_uris": {"android": "https://dc.lft.to/lastmile_qr_scan", "ios": "https://dc.lft.to/lastmile_qr_scan"}, "fusion_lat": 0.0, "is_reserved": 0, "lat": 38.931966, "name": "e9212658dcb8751d65c83a7db586a88e", "bike_id": "e9212658dcb8751d65c83a7db586a88e", "is_disabled": 0, "fusion_lon": 0.0, "type": "electric_scooter", "lon": -77.02021416666666}, {"rental_uris": {"android": "https://dc.lft.to/lastmile_qr_scan", "ios": "https://dc.lft.to/lastmile_qr_scan"}, "fusion_lat": 0.0, "is_reserved": 0, "lat": 38.912758, "name": "007925f5588247c7859e9f2cf9adfd0a", "bike_id": "007925f5588247c7859e9f2cf9adfd0a", "is_disabled": 0, "fusion_lon": 0.0, "type": "electric_scooter", "lon": -77.04506466666666}, {"rental_uris": {"android": "https://dc.lft.to/lastmile_qr_scan", "ios": "https://dc.lft.to/lastmile_qr_scan"}, "fusion_lat": 0.0, "is_reserved": 0, "lat": 38.895224, "name": "136de32dedf5d7459ce2597801c3452e", "bike_id": "136de32dedf5d7459ce2597801c3452e", "is_disabled": 0, "fusion_lon": 0.0, "type": "electric_scooter", "lon": -76.99199166666666}, {"rental_uris": {"android": "https://dc.lft.to/lastmile_qr_scan", "ios": "https://dc.lft.to/lastmile_qr_scan"}, "fusion_lat": 0.0, "is_reserved": 0, "lat": 38.90860383333333, "name": "76d4f3393d8b2cfc87f69a9fc9220313", "bike_id": "76d4f3393d8b2cfc87f69a9fc9220313", "is_disabled": 0, "fusion_lon": 0.0, "type": "electric_scooter", "lon": -76.99106366666666}, {"rental_uris": {"android": "https://dc.lft.to/lastmile_qr_scan", "ios": "https://dc.lft.to/lastmile_qr_scan"}, "fusion_lat": 0.0, "is_reserved": 0, "lat": 38.904568833333336, "name": "7c2525b66803f779d93f77120afb508a", "bike_id": "7c2525b66803f779d93f77120afb508a", "is_disabled": 0, "fusion_lon": 0.0, "type": "electric_scooter", "lon": -77.04807483333333}, {"rental_uris": {"android": "https://dc.lft.to/lastmile_qr_scan", "ios": "https://dc.lft.to/lastmile_qr_scan"}, "fusion_lat": 0.0, "is_reserved": 0, "lat": 38.91539316666667, "name": "86dd3c73f00b9ebbff49c2bfa804e53d", "bike_id": "86dd3c73f00b9ebbff49c2bfa804e53d", "is_disabled": 0, "fusion_lon": 0.0, "type": "electric_scooter", "lon": -77.04449866666667}, {"rental_uris": {"android": "https://dc.lft.to/lastmile_qr_scan", "ios": "https://dc.lft.to/lastmile_qr_scan"}, "fusion_lat": 0.0, "is_reserved": 0, "lat": 38.917079, "name": "33071ef898ecf19e1508e9efbcf7201e", "bike_id": "33071ef898ecf19e1508e9efbcf7201e", "is_disabled": 0, "fusion_lon": 0.0, "type": "electric_scooter", "lon": -77.029855}, {"rental_uris": {"android": "https://dc.lft.to/lastmile_qr_scan", "ios": "https://dc.lft.to/lastmile_qr_scan"}, "fusion_lat": 0.0, "is_reserved": 0, "lat": 38.89227566666667, "name": "7faffde07826421c26d5f719a1000c2d", "bike_id": "7faffde07826421c26d5f719a1000c2d", "is_disabled": 0, "fusion_lon": 0.0, "type": "electric_scooter", "lon": -77.05001583333333}, {"rental_uris": {"android": "https://dc.lft.to/lastmile_qr_scan", "ios": "https://dc.lft.to/lastmile_qr_scan"}, "fusion_lat": 0.0, "is_reserved": 0, "lat": 38.955763166666664, "name": "55c5e5ef21784e1d3a0d63fea8964c4e", "bike_id": "55c5e5ef21784e1d3a0d63fea8964c4e", "is_disabled": 0, "fusion_lon": 0.0, "type": "electric_scooter", "lon": -77.07009983333333}, {"rental_uris": {"android": "https://dc.lft.to/lastmile_qr_scan", "ios": "https://dc.lft.to/lastmile_qr_scan"}, "fusion_lat": 0.0, "is_reserved": 0, "lat": 38.9099215, "name": "a01374a01c735b96a57911879600c23c", "bike_id": "a01374a01c735b96a57911879600c23c", "is_disabled": 0, "fusion_lon": 0.0, "type": "electric_scooter", "lon": -77.02384583333334}, {"rental_uris": {"android": "https://dc.lft.to/lastmile_qr_scan", "ios": "https://dc.lft.to/lastmile_qr_scan"}, "fusion_lat": 0.0, "is_reserved": 0, "lat": 38.90393616666667, "name": "3b7a9d2dfe2d49f856f38bb001776172", "bike_id": "3b7a9d2dfe2d49f856f38bb001776172", "is_disabled": 0, "fusion_lon": 0.0, "type": "electric_scooter", "lon": -77.036775}, {"rental_uris": {"android": "https://dc.lft.to/lastmile_qr_scan", "ios": "https://dc.lft.to/lastmile_qr_scan"}, "fusion_lat": 0.0, "is_reserved": 0, "lat": 38.92791483333333, "name": "ad8a7ee571a2c00afcdd4683085231bb", "bike_id": "ad8a7ee571a2c00afcdd4683085231bb", "is_disabled": 0, "fusion_lon": 0.0, "type": "electric_scooter", "lon": -77.0532865}, {"rental_uris": {"android": "https://dc.lft.to/lastmile_qr_scan", "ios": "https://dc.lft.to/lastmile_qr_scan"}, "fusion_lat": 0.0, "is_reserved": 0, "lat": 38.91271116666667, "name": "e188e0a22dd68dd254add09748bb20f2", "bike_id": "e188e0a22dd68dd254add09748bb20f2", "is_disabled": 0, "fusion_lon": 0.0, "type": "electric_scooter", "lon": -77.0221475}, {"rental_uris": {"android": "https://dc.lft.to/lastmile_qr_scan", "ios": "https://dc.lft.to/lastmile_qr_scan"}, "fusion_lat": 0.0, "is_reserved": 0, "lat": 38.888674, "name": "05821ea4352f2757ac40378732700a3d", "bike_id": "05821ea4352f2757ac40378732700a3d", "is_disabled": 0, "fusion_lon": 0.0, "type": "electric_scooter", "lon": -77.04010216666667}, {"rental_uris": {"android": "https://dc.lft.to/lastmile_qr_scan", "ios": "https://dc.lft.to/lastmile_qr_scan"}, "fusion_lat": 0.0, "is_reserved": 0, "lat": 38.91890733333334, "name": "907e09c4015bdaedf37cd528fc3def47", "bike_id": "907e09c4015bdaedf37cd528fc3def47", "is_disabled": 0, "fusion_lon": 0.0, "type": "electric_scooter", "lon": -77.03507733333333}, {"rental_uris": {"android": "https://dc.lft.to/lastmile_qr_scan", "ios": "https://dc.lft.to/lastmile_qr_scan"}, "fusion_lat": 0.0, "is_reserved": 0, "lat": 38.899798833333335, "name": "675fcd7499cf156bffc36c73d33396d6", "bike_id": "675fcd7499cf156bffc36c73d33396d6", "is_disabled": 0, "fusion_lon": 0.0, "type": "electric_scooter", "lon": -77.0485415}, {"rental_uris": {"android": "https://dc.lft.to/lastmile_qr_scan", "ios": "https://dc.lft.to/lastmile_qr_scan"}, "fusion_lat": 0.0, "is_reserved": 0, "lat": 38.91417383333334, "name": "bd8ffa6fe3061972c1415784255f056d", "bike_id": "bd8ffa6fe3061972c1415784255f056d", "is_disabled": 0, "fusion_lon": 0.0, "type": "electric_scooter", "lon": -77.031716}, {"rental_uris": {"android": "https://dc.lft.to/lastmile_qr_scan", "ios": "https://dc.lft.to/lastmile_qr_scan"}, "fusion_lat": 0.0, "is_reserved": 0, "lat": 38.901525, "name": "b12e1c698eb69acf728c9382df654221", "bike_id": "b12e1c698eb69acf728c9382df654221", "is_disabled": 0, "fusion_lon": 0.0, "type": "electric_scooter", "lon": -76.97425983333333}, {"rental_uris": {"android": "https://dc.lft.to/lastmile_qr_scan", "ios": "https://dc.lft.to/lastmile_qr_scan"}, "fusion_lat": 0.0, "is_reserved": 0, "lat": 38.91566066666667, "name": "f73dc1666ec733b1206a20934b0aa1b5", "bike_id": "f73dc1666ec733b1206a20934b0aa1b5", "is_disabled": 0, "fusion_lon": 0.0, "type": "electric_scooter", "lon": -77.0235395}, {"rental_uris": {"android": "https://dc.lft.to/lastmile_qr_scan", "ios": "https://dc.lft.to/lastmile_qr_scan"}, "fusion_lat": 0.0, "is_reserved": 0, "lat": 38.92755183333333, "name": "19ea8a838c59e3e62a450749956d7022", "bike_id": "19ea8a838c59e3e62a450749956d7022", "is_disabled": 0, "fusion_lon": 0.0, "type": "electric_scooter", "lon": -77.02114166666667}, {"rental_uris": {"android": "https://dc.lft.to/lastmile_qr_scan", "ios": "https://dc.lft.to/lastmile_qr_scan"}, "fusion_lat": 0.0, "is_reserved": 0, "lat": 38.91477866666666, "name": "473e567d2d10547611c46b4c7f51b8ec", "bike_id": "473e567d2d10547611c46b4c7f51b8ec", "is_disabled": 0, "fusion_lon": 0.0, "type": "electric_scooter", "lon": -77.0383925}, {"rental_uris": {"android": "https://dc.lft.to/lastmile_qr_scan", "ios": "https://dc.lft.to/lastmile_qr_scan"}, "fusion_lat": 0.0, "is_reserved": 0, "lat": 38.8872535, "name": "6a486da577330f46701feda944bc7139", "bike_id": "6a486da577330f46701feda944bc7139", "is_disabled": 0, "fusion_lon": 0.0, "type": "electric_scooter", "lon": -76.98382583333333}, {"rental_uris": {"android": "https://dc.lft.to/lastmile_qr_scan", "ios": "https://dc.lft.to/lastmile_qr_scan"}, "fusion_lat": 0.0, "is_reserved": 0, "lat": 38.91505883333333, "name": "8fd433aca32e1dd8bb779101b1815439", "bike_id": "8fd433aca32e1dd8bb779101b1815439", "is_disabled": 0, "fusion_lon": 0.0, "type": "electric_scooter", "lon": -77.0321315}, {"rental_uris": {"android": "https://dc.lft.to/lastmile_qr_scan", "ios": "https://dc.lft.to/lastmile_qr_scan"}, "fusion_lat": 0.0, "is_reserved": 0, "lat": 38.894471333333335, "name": "567340101087be0643c4d64b248da751", "bike_id": "567340101087be0643c4d64b248da751", "is_disabled": 0, "fusion_lon": 0.0, "type": "electric_scooter", "lon": -77.045353}, {"rental_uris": {"android": "https://dc.lft.to/lastmile_qr_scan", "ios": "https://dc.lft.to/lastmile_qr_scan"}, "fusion_lat": 0.0, "is_reserved": 0, "lat": 38.92116383333333, "name": "b9f24ad232caeac46f5aba5f5cfa27cf", "bike_id": "b9f24ad232caeac46f5aba5f5cfa27cf", "is_disabled": 0, "fusion_lon": 0.0, "type": "electric_scooter", "lon": -77.0442875}, {"rental_uris": {"android": "https://dc.lft.to/lastmile_qr_scan", "ios": "https://dc.lft.to/lastmile_qr_scan"}, "fusion_lat": 0.0, "is_reserved": 0, "lat": 38.895797, "name": "259502a4b6231a4e26c596e2420d0873", "bike_id": "259502a4b6231a4e26c596e2420d0873", "is_disabled": 0, "fusion_lon": 0.0, "type": "electric_scooter", "lon": -77.04148483333333}, {"rental_uris": {"android": "https://dc.lft.to/lastmile_qr_scan", "ios": "https://dc.lft.to/lastmile_qr_scan"}, "fusion_lat": 0.0, "is_reserved": 0, "lat": 38.908641, "name": "acfa130b6b2f77796005339490fd4563", "bike_id": "acfa130b6b2f77796005339490fd4563", "is_disabled": 0, "fusion_lon": 0.0, "type": "electric_bike", "lon": -77.01230883333334}, {"rental_uris": {"android": "https://dc.lft.to/lastmile_qr_scan", "ios": "https://dc.lft.to/lastmile_qr_scan"}, "fusion_lat": 0.0, "is_reserved": 0, "lat": 38.9231765, "name": "77233759f5ad28d7b69f2b13ce58bb8a", "bike_id": "77233759f5ad28d7b69f2b13ce58bb8a", "is_disabled": 0, "fusion_lon": 0.0, "type": "electric_scooter", "lon": -77.02806916666667}, {"rental_uris": {"android": "https://dc.lft.to/lastmile_qr_scan", "ios": "https://dc.lft.to/lastmile_qr_scan"}, "fusion_lat": 0.0, "is_reserved": 0, "lat": 38.8492045, "name": "01f2e3de7c4969240a938d6a2b3c78b3", "bike_id": "01f2e3de7c4969240a938d6a2b3c78b3", "is_disabled": 0, "fusion_lon": 0.0, "type": "electric_bike", "lon": -77.0837275}, {"rental_uris": {"android": "https://dc.lft.to/lastmile_qr_scan", "ios": "https://dc.lft.to/lastmile_qr_scan"}, "fusion_lat": 0.0, "is_reserved": 0, "lat": 38.91442, "name": "8d499204f10a2806ecd5c01a5e6d505c", "bike_id": "8d499204f10a2806ecd5c01a5e6d505c", "is_disabled": 0, "fusion_lon": 0.0, "type": "electric_scooter", "lon": -77.0218215}, {"rental_uris": {"android": "https://dc.lft.to/lastmile_qr_scan", "ios": "https://dc.lft.to/lastmile_qr_scan"}, "fusion_lat": 0.0, "is_reserved": 0, "lat": 38.918163, "name": "6f6675cda1a80ba5e996639dfdfc2de2", "bike_id": "6f6675cda1a80ba5e996639dfdfc2de2", "is_disabled": 0, "fusion_lon": 0.0, "type": "electric_scooter", "lon": -77.02480966666667}, {"rental_uris": {"android": "https://dc.lft.to/lastmile_qr_scan", "ios": "https://dc.lft.to/lastmile_qr_scan"}, "fusion_lat": 0.0, "is_reserved": 0, "lat": 38.92354666666667, "name": "8e518ca5b3bf86393a7d8eb859e537ad", "bike_id": "8e518ca5b3bf86393a7d8eb859e537ad", "is_disabled": 0, "fusion_lon": 0.0, "type": "electric_scooter", "lon": -77.03642416666666}, {"rental_uris": {"android": "https://dc.lft.to/lastmile_qr_scan", "ios": "https://dc.lft.to/lastmile_qr_scan"}, "fusion_lat": 0.0, "is_reserved": 0, "lat": 38.89622333333333, "name": "bcb26a23edda2b360e90059071156711", "bike_id": "bcb26a23edda2b360e90059071156711", "is_disabled": 0, "fusion_lon": 0.0, "type": "electric_scooter", "lon": -77.03096166666667}, {"rental_uris": {"android": "https://dc.lft.to/lastmile_qr_scan", "ios": "https://dc.lft.to/lastmile_qr_scan"}, "fusion_lat": 0.0, "is_reserved": 0, "lat": 38.8945325, "name": "c5515d85df79052a87cfe912ca840d3a", "bike_id": "c5515d85df79052a87cfe912ca840d3a", "is_disabled": 0, "fusion_lon": 0.0, "type": "electric_scooter", "lon": -77.04540533333333}, {"rental_uris": {"android": "https://dc.lft.to/lastmile_qr_scan", "ios": "https://dc.lft.to/lastmile_qr_scan"}, "fusion_lat": 0.0, "is_reserved": 0, "lat": 38.901756666666664, "name": "6b97ea124f0299b32840a5de2a6f7d06", "bike_id": "6b97ea124f0299b32840a5de2a6f7d06", "is_disabled": 0, "fusion_lon": 0.0, "type": "electric_scooter", "lon": -77.0209375}, {"rental_uris": {"android": "https://dc.lft.to/lastmile_qr_scan", "ios": "https://dc.lft.to/lastmile_qr_scan"}, "fusion_lat": 0.0, "is_reserved": 0, "lat": 38.9069515, "name": "3adc2d90a32c1d744553267ea2d2a948", "bike_id": "3adc2d90a32c1d744553267ea2d2a948", "is_disabled": 0, "fusion_lon": 0.0, "type": "electric_scooter", "lon": -76.99766933333333}, {"rental_uris": {"android": "https://dc.lft.to/lastmile_qr_scan", "ios": "https://dc.lft.to/lastmile_qr_scan"}, "fusion_lat": 0.0, "is_reserved": 0, "lat": 38.902744, "name": "68d45e9b3e69fbbf0a7e51378bf11bd0", "bike_id": "68d45e9b3e69fbbf0a7e51378bf11bd0", "is_disabled": 0, "fusion_lon": 0.0, "type": "electric_scooter", "lon": -76.98999416666666}, {"rental_uris": {"android": "https://dc.lft.to/lastmile_qr_scan", "ios": "https://dc.lft.to/lastmile_qr_scan"}, "fusion_lat": 0.0, "is_reserved": 0, "lat": 38.899804833333334, "name": "fb7b83df3d94436aed5ab09c64a6b8c2", "bike_id": "fb7b83df3d94436aed5ab09c64a6b8c2", "is_disabled": 0, "fusion_lon": 0.0, "type": "electric_scooter", "lon": -76.98367516666667}, {"rental_uris": {"android": "https://dc.lft.to/lastmile_qr_scan", "ios": "https://dc.lft.to/lastmile_qr_scan"}, "fusion_lat": 0.0, "is_reserved": 0, "lat": 38.902536166666664, "name": "c4670645fa9784c5259cd5d07d3c615f", "bike_id": "c4670645fa9784c5259cd5d07d3c615f", "is_disabled": 0, "fusion_lon": 0.0, "type": "electric_scooter", "lon": -77.05818366666666}, {"rental_uris": {"android": "https://dc.lft.to/lastmile_qr_scan", "ios": "https://dc.lft.to/lastmile_qr_scan"}, "fusion_lat": 0.0, "is_reserved": 0, "lat": 38.907182666666664, "name": "5254eec73bcce0e74f3139a7e9e5abe0", "bike_id": "5254eec73bcce0e74f3139a7e9e5abe0", "is_disabled": 0, "fusion_lon": 0.0, "type": "electric_scooter", "lon": -77.02530166666666}, {"rental_uris": {"android": "https://dc.lft.to/lastmile_qr_scan", "ios": "https://dc.lft.to/lastmile_qr_scan"}, "fusion_lat": 0.0, "is_reserved": 0, "lat": 38.9107115, "name": "4a9dd75c543232b721e02caf183932e7", "bike_id": "4a9dd75c543232b721e02caf183932e7", "is_disabled": 0, "fusion_lon": 0.0, "type": "electric_scooter", "lon": -76.99137083333333}, {"rental_uris": {"android": "https://dc.lft.to/lastmile_qr_scan", "ios": "https://dc.lft.to/lastmile_qr_scan"}, "fusion_lat": 0.0, "is_reserved": 0, "lat": 38.925658166666665, "name": "729c92ad31cc6ed02a2cfede804b4829", "bike_id": "729c92ad31cc6ed02a2cfede804b4829", "is_disabled": 0, "fusion_lon": 0.0, "type": "electric_scooter", "lon": -77.02585083333334}, {"rental_uris": {"android": "https://dc.lft.to/lastmile_qr_scan", "ios": "https://dc.lft.to/lastmile_qr_scan"}, "fusion_lat": 0.0, "is_reserved": 0, "lat": 38.922792666666666, "name": "318280f29b528978ffbf5ca91776d90e", "bike_id": "318280f29b528978ffbf5ca91776d90e", "is_disabled": 0, "fusion_lon": 0.0, "type": "electric_scooter", "lon": -76.99757783333334}, {"rental_uris": {"android": "https://dc.lft.to/lastmile_qr_scan", "ios": "https://dc.lft.to/lastmile_qr_scan"}, "fusion_lat": 0.0, "is_reserved": 0, "lat": 38.91452816666666, "name": "f991c4c6d13ad0cf31b8e12fd81b03bc", "bike_id": "f991c4c6d13ad0cf31b8e12fd81b03bc", "is_disabled": 0, "fusion_lon": 0.0, "type": "electric_bike", "lon": -76.97283083333333}, {"rental_uris": {"android": "https://dc.lft.to/lastmile_qr_scan", "ios": "https://dc.lft.to/lastmile_qr_scan"}, "fusion_lat": 0.0, "is_reserved": 0, "lat": 38.94385966666667, "name": "e86969d4176e6c64e4b62e0c19986a49", "bike_id": "e86969d4176e6c64e4b62e0c19986a49", "is_disabled": 0, "fusion_lon": 0.0, "type": "electric_bike", "lon": -77.02358133333334}, {"rental_uris": {"android": "https://dc.lft.to/lastmile_qr_scan", "ios": "https://dc.lft.to/lastmile_qr_scan"}, "fusion_lat": 0.0, "is_reserved": 0, "lat": 38.879235, "name": "0096e0f1b174e1e6c57e1caf0df1582c", "bike_id": "0096e0f1b174e1e6c57e1caf0df1582c", "is_disabled": 0, "fusion_lon": 0.0, "type": "electric_scooter", "lon": -77.02158383333334}, {"rental_uris": {"android": "https://dc.lft.to/lastmile_qr_scan", "ios": "https://dc.lft.to/lastmile_qr_scan"}, "fusion_lat": 0.0, "is_reserved": 0, "lat": 38.89223233333333, "name": "51fb59442bb5320413115450fd4e527b", "bike_id": "51fb59442bb5320413115450fd4e527b", "is_disabled": 0, "fusion_lon": 0.0, "type": "electric_scooter", "lon": -77.04506183333334}, {"rental_uris": {"android": "https://dc.lft.to/lastmile_qr_scan", "ios": "https://dc.lft.to/lastmile_qr_scan"}, "fusion_lat": 0.0, "is_reserved": 0, "lat": 38.914290333333334, "name": "809ee01514f9749fb17075bc4e552277", "bike_id": "809ee01514f9749fb17075bc4e552277", "is_disabled": 0, "fusion_lon": 0.0, "type": "electric_scooter", "lon": -77.032067}, {"rental_uris": {"android": "https://dc.lft.to/lastmile_qr_scan", "ios": "https://dc.lft.to/lastmile_qr_scan"}, "fusion_lat": 0.0, "is_reserved": 0, "lat": 38.89896433333333, "name": "24f89cacc75016480ad9269a2a93c255", "bike_id": "24f89cacc75016480ad9269a2a93c255", "is_disabled": 0, "fusion_lon": 0.0, "type": "electric_scooter", "lon": -76.97999133333333}, {"rental_uris": {"android": "https://dc.lft.to/lastmile_qr_scan", "ios": "https://dc.lft.to/lastmile_qr_scan"}, "fusion_lat": 0.0, "is_reserved": 0, "lat": 38.91101166666667, "name": "6d793ac5d105561a4e8d4fe8096965f3", "bike_id": "6d793ac5d105561a4e8d4fe8096965f3", "is_disabled": 0, "fusion_lon": 0.0, "type": "electric_scooter", "lon": -77.021813}, {"rental_uris": {"android": "https://dc.lft.to/lastmile_qr_scan", "ios": "https://dc.lft.to/lastmile_qr_scan"}, "fusion_lat": 0.0, "is_reserved": 0, "lat": 38.91327583333333, "name": "1945b62d634df6f7fb4a230c0259a0a2", "bike_id": "1945b62d634df6f7fb4a230c0259a0a2", "is_disabled": 0, "fusion_lon": 0.0, "type": "electric_scooter", "lon": -77.01494466666666}, {"rental_uris": {"android": "https://dc.lft.to/lastmile_qr_scan", "ios": "https://dc.lft.to/lastmile_qr_scan"}, "fusion_lat": 0.0, "is_reserved": 0, "lat": 38.91923116666667, "name": "58762f3e304b44b6066278accb00dc9b", "bike_id": "58762f3e304b44b6066278accb00dc9b", "is_disabled": 0, "fusion_lon": 0.0, "type": "electric_scooter", "lon": -77.0727815}, {"rental_uris": {"android": "https://dc.lft.to/lastmile_qr_scan", "ios": "https://dc.lft.to/lastmile_qr_scan"}, "fusion_lat": 0.0, "is_reserved": 0, "lat": 38.92152766666667, "name": "a0e11602351f75adeefad218682788e2", "bike_id": "a0e11602351f75adeefad218682788e2", "is_disabled": 0, "fusion_lon": 0.0, "type": "electric_scooter", "lon": -77.02108566666666}, {"rental_uris": {"android": "https://dc.lft.to/lastmile_qr_scan", "ios": "https://dc.lft.to/lastmile_qr_scan"}, "fusion_lat": 0.0, "is_reserved": 0, "lat": 38.907284833333335, "name": "18dfc91d3ceee05657d170fcb8800b1d", "bike_id": "18dfc91d3ceee05657d170fcb8800b1d", "is_disabled": 0, "fusion_lon": 0.0, "type": "electric_scooter", "lon": -77.032607}, {"rental_uris": {"android": "https://dc.lft.to/lastmile_qr_scan", "ios": "https://dc.lft.to/lastmile_qr_scan"}, "fusion_lat": 0.0, "is_reserved": 0, "lat": 38.8860395, "name": "6500dfe650f159f61d362b67d91c5d31", "bike_id": "6500dfe650f159f61d362b67d91c5d31", "is_disabled": 0, "fusion_lon": 0.0, "type": "electric_scooter", "lon": -77.04514866666666}, {"rental_uris": {"android": "https://dc.lft.to/lastmile_qr_scan", "ios": "https://dc.lft.to/lastmile_qr_scan"}, "fusion_lat": 0.0, "is_reserved": 0, "lat": 38.92895033333333, "name": "ccb3451b9bfa92f2375099394b359865", "bike_id": "ccb3451b9bfa92f2375099394b359865", "is_disabled": 0, "fusion_lon": 0.0, "type": "electric_scooter", "lon": -77.03284233333333}, {"rental_uris": {"android": "https://dc.lft.to/lastmile_qr_scan", "ios": "https://dc.lft.to/lastmile_qr_scan"}, "fusion_lat": 0.0, "is_reserved": 0, "lat": 38.90464083333333, "name": "fff053f234e1938fb819140c18586f36", "bike_id": "fff053f234e1938fb819140c18586f36", "is_disabled": 0, "fusion_lon": 0.0, "type": "electric_scooter", "lon": -77.0169095}, {"rental_uris": {"android": "https://dc.lft.to/lastmile_qr_scan", "ios": "https://dc.lft.to/lastmile_qr_scan"}, "fusion_lat": 0.0, "is_reserved": 0, "lat": 38.915027, "name": "9f9082f0211e79fb27dba89675fe88e3", "bike_id": "9f9082f0211e79fb27dba89675fe88e3", "is_disabled": 0, "fusion_lon": 0.0, "type": "electric_scooter", "lon": -76.9837425}, {"rental_uris": {"android": "https://dc.lft.to/lastmile_qr_scan", "ios": "https://dc.lft.to/lastmile_qr_scan"}, "fusion_lat": 0.0, "is_reserved": 0, "lat": 38.93351366666667, "name": "5e0f3f9311923743a7e7794639712e39", "bike_id": "5e0f3f9311923743a7e7794639712e39", "is_disabled": 0, "fusion_lon": 0.0, "type": "electric_scooter", "lon": -77.0571335}, {"rental_uris": {"android": "https://dc.lft.to/lastmile_qr_scan", "ios": "https://dc.lft.to/lastmile_qr_scan"}, "fusion_lat": 0.0, "is_reserved": 0, "lat": 38.921091833333335, "name": "c226a88bfae3b6f3c5a2f314908f9647", "bike_id": "c226a88bfae3b6f3c5a2f314908f9647", "is_disabled": 0, "fusion_lon": 0.0, "type": "electric_scooter", "lon": -77.04220816666667}, {"rental_uris": {"android": "https://dc.lft.to/lastmile_qr_scan", "ios": "https://dc.lft.to/lastmile_qr_scan"}, "fusion_lat": 0.0, "is_reserved": 0, "lat": 38.911928, "name": "847f67f3df331752e9444089d82193ab", "bike_id": "847f67f3df331752e9444089d82193ab", "is_disabled": 0, "fusion_lon": 0.0, "type": "electric_scooter", "lon": -77.03832316666667}, {"rental_uris": {"android": "https://dc.lft.to/lastmile_qr_scan", "ios": "https://dc.lft.to/lastmile_qr_scan"}, "fusion_lat": 0.0, "is_reserved": 0, "lat": 38.989166833333336, "name": "11ff57f714b994e30fbd76749eb50acf", "bike_id": "11ff57f714b994e30fbd76749eb50acf", "is_disabled": 0, "fusion_lon": 0.0, "type": "electric_bike", "lon": -77.02539366666667}, {"rental_uris": {"android": "https://dc.lft.to/lastmile_qr_scan", "ios": "https://dc.lft.to/lastmile_qr_scan"}, "fusion_lat": 0.0, "is_reserved": 0, "lat": 38.8984675, "name": "aa8df0a4e32496d140958ba3b08d6937", "bike_id": "aa8df0a4e32496d140958ba3b08d6937", "is_disabled": 0, "fusion_lon": 0.0, "type": "electric_bike", "lon": -77.11869033333333}, {"rental_uris": {"android": "https://dc.lft.to/lastmile_qr_scan", "ios": "https://dc.lft.to/lastmile_qr_scan"}, "fusion_lat": 0.0, "is_reserved": 0, "lat": 38.90600233333333, "name": "b5d72d9e59110f388ec8ffdee4c707f5", "bike_id": "b5d72d9e59110f388ec8ffdee4c707f5", "is_disabled": 0, "fusion_lon": 0.0, "type": "electric_scooter", "lon": -77.01623483333333}, {"rental_uris": {"android": "https://dc.lft.to/lastmile_qr_scan", "ios": "https://dc.lft.to/lastmile_qr_scan"}, "fusion_lat": 0.0, "is_reserved": 0, "lat": 38.941751333333336, "name": "c6f72e74a67bc86f2ddfb77f4ad2e94b", "bike_id": "c6f72e74a67bc86f2ddfb77f4ad2e94b", "is_disabled": 0, "fusion_lon": 0.0, "type": "electric_scooter", "lon": -77.023405}, {"rental_uris": {"android": "https://dc.lft.to/lastmile_qr_scan", "ios": "https://dc.lft.to/lastmile_qr_scan"}, "fusion_lat": 0.0, "is_reserved": 0, "lat": 38.83137, "name": "b26ed2532c61215cd6874e06d11c7935", "bike_id": "b26ed2532c61215cd6874e06d11c7935", "is_disabled": 0, "fusion_lon": 0.0, "type": "electric_bike", "lon": -77.11346716666667}, {"rental_uris": {"android": "https://dc.lft.to/lastmile_qr_scan", "ios": "https://dc.lft.to/lastmile_qr_scan"}, "fusion_lat": 0.0, "is_reserved": 0, "lat": 38.9067165, "name": "49dc356c21a5735c2144103fec5642ef", "bike_id": "49dc356c21a5735c2144103fec5642ef", "is_disabled": 0, "fusion_lon": 0.0, "type": "electric_scooter", "lon": -77.0271985}, {"rental_uris": {"android": "https://dc.lft.to/lastmile_qr_scan", "ios": "https://dc.lft.to/lastmile_qr_scan"}, "fusion_lat": 0.0, "is_reserved": 0, "lat": 38.90626016666667, "name": "1f58d324bc22f34d387e9893f9b052ad", "bike_id": "1f58d324bc22f34d387e9893f9b052ad", "is_disabled": 0, "fusion_lon": 0.0, "type": "electric_scooter", "lon": -76.950044}, {"rental_uris": {"android": "https://dc.lft.to/lastmile_qr_scan", "ios": "https://dc.lft.to/lastmile_qr_scan"}, "fusion_lat": 0.0, "is_reserved": 0, "lat": 38.92660216666667, "name": "c7400593966598164f45680628a58966", "bike_id": "c7400593966598164f45680628a58966", "is_disabled": 0, "fusion_lon": 0.0, "type": "electric_scooter", "lon": -77.02285316666666}, {"rental_uris": {"android": "https://dc.lft.to/lastmile_qr_scan", "ios": "https://dc.lft.to/lastmile_qr_scan"}, "fusion_lat": 0.0, "is_reserved": 0, "lat": 38.907945833333336, "name": "0927068dc39545805e3a2bea58d65f07", "bike_id": "0927068dc39545805e3a2bea58d65f07", "is_disabled": 0, "fusion_lon": 0.0, "type": "electric_scooter", "lon": -77.06456116666666}, {"rental_uris": {"android": "https://dc.lft.to/lastmile_qr_scan", "ios": "https://dc.lft.to/lastmile_qr_scan"}, "fusion_lat": 0.0, "is_reserved": 0, "lat": 38.897203, "name": "36aea5e05fa6c8a093a879a0ee09f4b7", "bike_id": "36aea5e05fa6c8a093a879a0ee09f4b7", "is_disabled": 0, "fusion_lon": 0.0, "type": "electric_scooter", "lon": -77.0079965}, {"rental_uris": {"android": "https://dc.lft.to/lastmile_qr_scan", "ios": "https://dc.lft.to/lastmile_qr_scan"}, "fusion_lat": 0.0, "is_reserved": 0, "lat": 38.8948575, "name": "b0114dc3e632bb4d30bcab1c0da6187c", "bike_id": "b0114dc3e632bb4d30bcab1c0da6187c", "is_disabled": 0, "fusion_lon": 0.0, "type": "electric_scooter", "lon": -76.98009766666667}, {"rental_uris": {"android": "https://dc.lft.to/lastmile_qr_scan", "ios": "https://dc.lft.to/lastmile_qr_scan"}, "fusion_lat": 0.0, "is_reserved": 0, "lat": 38.88511366666667, "name": "6511440554e1c6974f34707d8c56fe17", "bike_id": "6511440554e1c6974f34707d8c56fe17", "is_disabled": 0, "fusion_lon": 0.0, "type": "electric_scooter", "lon": -77.01116166666667}, {"rental_uris": {"android": "https://dc.lft.to/lastmile_qr_scan", "ios": "https://dc.lft.to/lastmile_qr_scan"}, "fusion_lat": 0.0, "is_reserved": 0, "lat": 38.930999666666665, "name": "2e1ab689b929856a1c321c99b77d6903", "bike_id": "2e1ab689b929856a1c321c99b77d6903", "is_disabled": 0, "fusion_lon": 0.0, "type": "electric_scooter", "lon": -77.02479833333334}, {"rental_uris": {"android": "https://dc.lft.to/lastmile_qr_scan", "ios": "https://dc.lft.to/lastmile_qr_scan"}, "fusion_lat": 0.0, "is_reserved": 0, "lat": 38.938960333333334, "name": "145f2c688cafb739fe9398f2f7a2cb43", "bike_id": "145f2c688cafb739fe9398f2f7a2cb43", "is_disabled": 0, "fusion_lon": 0.0, "type": "electric_scooter", "lon": -77.03290383333334}, {"rental_uris": {"android": "https://dc.lft.to/lastmile_qr_scan", "ios": "https://dc.lft.to/lastmile_qr_scan"}, "fusion_lat": 0.0, "is_reserved": 0, "lat": 38.923751, "name": "c3e5b8b80f1cb4cd036e6a1bfa46e6e7", "bike_id": "c3e5b8b80f1cb4cd036e6a1bfa46e6e7", "is_disabled": 0, "fusion_lon": 0.0, "type": "electric_scooter", "lon": -77.051758}, {"rental_uris": {"android": "https://dc.lft.to/lastmile_qr_scan", "ios": "https://dc.lft.to/lastmile_qr_scan"}, "fusion_lat": 0.0, "is_reserved": 0, "lat": 38.90396283333333, "name": "b36fd079512a10b8de74b1c0260cc329", "bike_id": "b36fd079512a10b8de74b1c0260cc329", "is_disabled": 0, "fusion_lon": 0.0, "type": "electric_scooter", "lon": -77.06297383333333}, {"rental_uris": {"android": "https://dc.lft.to/lastmile_qr_scan", "ios": "https://dc.lft.to/lastmile_qr_scan"}, "fusion_lat": 0.0, "is_reserved": 0, "lat": 38.8921115, "name": "40a9c365e094837fe81a93559710cf90", "bike_id": "40a9c365e094837fe81a93559710cf90", "is_disabled": 0, "fusion_lon": 0.0, "type": "electric_scooter", "lon": -76.99486416666667}, {"rental_uris": {"android": "https://dc.lft.to/lastmile_qr_scan", "ios": "https://dc.lft.to/lastmile_qr_scan"}, "fusion_lat": 0.0, "is_reserved": 0, "lat": 38.800537166666665, "name": "5984cae6a5eadd03ada9c3348774c123", "bike_id": "5984cae6a5eadd03ada9c3348774c123", "is_disabled": 0, "fusion_lon": 0.0, "type": "electric_bike", "lon": -77.128372}, {"rental_uris": {"android": "https://dc.lft.to/lastmile_qr_scan", "ios": "https://dc.lft.to/lastmile_qr_scan"}, "fusion_lat": 0.0, "is_reserved": 0, "lat": 38.90027083333333, "name": "16021b72a25255c8bc771dc1033b0ede", "bike_id": "16021b72a25255c8bc771dc1033b0ede", "is_disabled": 0, "fusion_lon": 0.0, "type": "electric_scooter", "lon": -77.011997}, {"rental_uris": {"android": "https://dc.lft.to/lastmile_qr_scan", "ios": "https://dc.lft.to/lastmile_qr_scan"}, "fusion_lat": 0.0, "is_reserved": 0, "lat": 38.887486, "name": "20a85ddc485350710e22f73f6e76f709", "bike_id": "20a85ddc485350710e22f73f6e76f709", "is_disabled": 0, "fusion_lon": 0.0, "type": "electric_bike", "lon": -77.08923583333333}, {"rental_uris": {"android": "https://dc.lft.to/lastmile_qr_scan", "ios": "https://dc.lft.to/lastmile_qr_scan"}, "fusion_lat": 0.0, "is_reserved": 0, "lat": 38.908907666666664, "name": "d0f8b9b12f452e8ddef8daa4d1dbf76c", "bike_id": "d0f8b9b12f452e8ddef8daa4d1dbf76c", "is_disabled": 0, "fusion_lon": 0.0, "type": "electric_scooter", "lon": -77.0347875}, {"rental_uris": {"android": "https://dc.lft.to/lastmile_qr_scan", "ios": "https://dc.lft.to/lastmile_qr_scan"}, "fusion_lat": 0.0, "is_reserved": 0, "lat": 38.8941955, "name": "782fe0d0a021c31bdc40a09a76813f16", "bike_id": "782fe0d0a021c31bdc40a09a76813f16", "is_disabled": 0, "fusion_lon": 0.0, "type": "electric_scooter", "lon": -76.99776416666667}, {"rental_uris": {"android": "https://dc.lft.to/lastmile_qr_scan", "ios": "https://dc.lft.to/lastmile_qr_scan"}, "fusion_lat": 0.0, "is_reserved": 0, "lat": 38.91639466666667, "name": "f765651f4553a16a1324faf19d1f1d41", "bike_id": "f765651f4553a16a1324faf19d1f1d41", "is_disabled": 0, "fusion_lon": 0.0, "type": "electric_scooter", "lon": -77.02103666666666}, {"rental_uris": {"android": "https://dc.lft.to/lastmile_qr_scan", "ios": "https://dc.lft.to/lastmile_qr_scan"}, "fusion_lat": 0.0, "is_reserved": 0, "lat": 38.908986166666665, "name": "a12a9f0298ce0107cfe93df32977ae30", "bike_id": "a12a9f0298ce0107cfe93df32977ae30", "is_disabled": 0, "fusion_lon": 0.0, "type": "electric_scooter", "lon": -77.04406016666667}, {"rental_uris": {"android": "https://dc.lft.to/lastmile_qr_scan", "ios": "https://dc.lft.to/lastmile_qr_scan"}, "fusion_lat": 0.0, "is_reserved": 0, "lat": 38.93109783333333, "name": "4ad5e7fc317181a871d2f083ab4c3efb", "bike_id": "4ad5e7fc317181a871d2f083ab4c3efb", "is_disabled": 0, "fusion_lon": 0.0, "type": "electric_scooter", "lon": -77.03508633333334}, {"rental_uris": {"android": "https://dc.lft.to/lastmile_qr_scan", "ios": "https://dc.lft.to/lastmile_qr_scan"}, "fusion_lat": 0.0, "is_reserved": 0, "lat": 38.914890666666665, "name": "00d673c82bdb6aaff933f8e694e62bc1", "bike_id": "00d673c82bdb6aaff933f8e694e62bc1", "is_disabled": 0, "fusion_lon": 0.0, "type": "electric_scooter", "lon": -77.00215616666667}, {"rental_uris": {"android": "https://dc.lft.to/lastmile_qr_scan", "ios": "https://dc.lft.to/lastmile_qr_scan"}, "fusion_lat": 0.0, "is_reserved": 0, "lat": 38.926715, "name": "a27532b59f99047e79245c492fd90388", "bike_id": "a27532b59f99047e79245c492fd90388", "is_disabled": 0, "fusion_lon": 0.0, "type": "electric_scooter", "lon": -77.0287745}, {"rental_uris": {"android": "https://dc.lft.to/lastmile_qr_scan", "ios": "https://dc.lft.to/lastmile_qr_scan"}, "fusion_lat": 0.0, "is_reserved": 0, "lat": 38.923867, "name": "c544912b8f2e9ca172d564773b1abd32", "bike_id": "c544912b8f2e9ca172d564773b1abd32", "is_disabled": 0, "fusion_lon": 0.0, "type": "electric_scooter", "lon": -77.03655216666667}, {"rental_uris": {"android": "https://dc.lft.to/lastmile_qr_scan", "ios": "https://dc.lft.to/lastmile_qr_scan"}, "fusion_lat": 0.0, "is_reserved": 0, "lat": 38.9233245, "name": "214a07d72ac83b7932b1494822d65ee7", "bike_id": "214a07d72ac83b7932b1494822d65ee7", "is_disabled": 0, "fusion_lon": 0.0, "type": "electric_scooter", "lon": -77.03549633333333}, {"rental_uris": {"android": "https://dc.lft.to/lastmile_qr_scan", "ios": "https://dc.lft.to/lastmile_qr_scan"}, "fusion_lat": 0.0, "is_reserved": 0, "lat": 38.9005145, "name": "13b0e09ffa3e7678fcdc5ce6abef8be9", "bike_id": "13b0e09ffa3e7678fcdc5ce6abef8be9", "is_disabled": 0, "fusion_lon": 0.0, "type": "electric_scooter", "lon": -77.01639833333333}, {"rental_uris": {"android": "https://dc.lft.to/lastmile_qr_scan", "ios": "https://dc.lft.to/lastmile_qr_scan"}, "fusion_lat": 0.0, "is_reserved": 0, "lat": 38.92032783333333, "name": "4f7064a16924aa7018049fc926c481ef", "bike_id": "4f7064a16924aa7018049fc926c481ef", "is_disabled": 0, "fusion_lon": 0.0, "type": "electric_scooter", "lon": -77.0307955}, {"rental_uris": {"android": "https://dc.lft.to/lastmile_qr_scan", "ios": "https://dc.lft.to/lastmile_qr_scan"}, "fusion_lat": 0.0, "is_reserved": 0, "lat": 38.908396833333335, "name": "cb6d75ac575b436b6f0b68d821f58b4d", "bike_id": "cb6d75ac575b436b6f0b68d821f58b4d", "is_disabled": 0, "fusion_lon": 0.0, "type": "electric_scooter", "lon": -77.00226033333334}, {"rental_uris": {"android": "https://dc.lft.to/lastmile_qr_scan", "ios": "https://dc.lft.to/lastmile_qr_scan"}, "fusion_lat": 0.0, "is_reserved": 0, "lat": 38.9218895, "name": "05f7d2bc4afef79759b38281eac6b5fe", "bike_id": "05f7d2bc4afef79759b38281eac6b5fe", "is_disabled": 0, "fusion_lon": 0.0, "type": "electric_scooter", "lon": -76.99627433333333}, {"rental_uris": {"android": "https://dc.lft.to/lastmile_qr_scan", "ios": "https://dc.lft.to/lastmile_qr_scan"}, "fusion_lat": 0.0, "is_reserved": 0, "lat": 38.92203883333333, "name": "c62334d02630436c42c839dd77b1c163", "bike_id": "c62334d02630436c42c839dd77b1c163", "is_disabled": 0, "fusion_lon": 0.0, "type": "electric_scooter", "lon": -77.02032016666666}, {"rental_uris": {"android": "https://dc.lft.to/lastmile_qr_scan", "ios": "https://dc.lft.to/lastmile_qr_scan"}, "fusion_lat": 0.0, "is_reserved": 0, "lat": 38.901649666666664, "name": "33924ddff342a9f1ddccc4ff3bdfd2cd", "bike_id": "33924ddff342a9f1ddccc4ff3bdfd2cd", "is_disabled": 0, "fusion_lon": 0.0, "type": "electric_scooter", "lon": -77.03175083333333}, {"rental_uris": {"android": "https://dc.lft.to/lastmile_qr_scan", "ios": "https://dc.lft.to/lastmile_qr_scan"}, "fusion_lat": 0.0, "is_reserved": 0, "lat": 38.921237, "name": "89cdbfca09e4cc408bddf45b39af754d", "bike_id": "89cdbfca09e4cc408bddf45b39af754d", "is_disabled": 0, "fusion_lon": 0.0, "type": "electric_scooter", "lon": -77.03665683333334}, {"rental_uris": {"android": "https://dc.lft.to/lastmile_qr_scan", "ios": "https://dc.lft.to/lastmile_qr_scan"}, "fusion_lat": 0.0, "is_reserved": 0, "lat": 38.9163825, "name": "a0fae511533b0d7207da2b1f91537d5c", "bike_id": "a0fae511533b0d7207da2b1f91537d5c", "is_disabled": 0, "fusion_lon": 0.0, "type": "electric_scooter", "lon": -77.048167}, {"rental_uris": {"android": "https://dc.lft.to/lastmile_qr_scan", "ios": "https://dc.lft.to/lastmile_qr_scan"}, "fusion_lat": 0.0, "is_reserved": 0, "lat": 38.91808283333334, "name": "7f6fe912d7df61b417d7508f5dcf7cd1", "bike_id": "7f6fe912d7df61b417d7508f5dcf7cd1", "is_disabled": 0, "fusion_lon": 0.0, "type": "electric_scooter", "lon": -77.03308216666667}, {"rental_uris": {"android": "https://dc.lft.to/lastmile_qr_scan", "ios": "https://dc.lft.to/lastmile_qr_scan"}, "fusion_lat": 0.0, "is_reserved": 0, "lat": 38.920779833333334, "name": "4b29b850f335a45f5e2a48d1ecfee901", "bike_id": "4b29b850f335a45f5e2a48d1ecfee901", "is_disabled": 0, "fusion_lon": 0.0, "type": "electric_scooter", "lon": -77.023055}, {"rental_uris": {"android": "https://dc.lft.to/lastmile_qr_scan", "ios": "https://dc.lft.to/lastmile_qr_scan"}, "fusion_lat": 0.0, "is_reserved": 0, "lat": 38.924761833333335, "name": "a06a6714939eef60013c0e497c6ac009", "bike_id": "a06a6714939eef60013c0e497c6ac009", "is_disabled": 0, "fusion_lon": 0.0, "type": "electric_scooter", "lon": -77.03831033333333}, {"rental_uris": {"android": "https://dc.lft.to/lastmile_qr_scan", "ios": "https://dc.lft.to/lastmile_qr_scan"}, "fusion_lat": 0.0, "is_reserved": 0, "lat": 38.91332166666667, "name": "9a4a573801a42fae2290a75ba993472f", "bike_id": "9a4a573801a42fae2290a75ba993472f", "is_disabled": 0, "fusion_lon": 0.0, "type": "electric_scooter", "lon": -77.01150033333333}, {"rental_uris": {"android": "https://dc.lft.to/lastmile_qr_scan", "ios": "https://dc.lft.to/lastmile_qr_scan"}, "fusion_lat": 0.0, "is_reserved": 0, "lat": 38.94202166666667, "name": "7abf3dde782c550090286c9065d0a429", "bike_id": "7abf3dde782c550090286c9065d0a429", "is_disabled": 0, "fusion_lon": 0.0, "type": "electric_scooter", "lon": -77.02377416666667}, {"rental_uris": {"android": "https://dc.lft.to/lastmile_qr_scan", "ios": "https://dc.lft.to/lastmile_qr_scan"}, "fusion_lat": 0.0, "is_reserved": 0, "lat": 38.904643166666666, "name": "abfc390f101b697c06c338cb4a5f2190", "bike_id": "abfc390f101b697c06c338cb4a5f2190", "is_disabled": 0, "fusion_lon": 0.0, "type": "electric_scooter", "lon": -77.03548533333333}, {"rental_uris": {"android": "https://dc.lft.to/lastmile_qr_scan", "ios": "https://dc.lft.to/lastmile_qr_scan"}, "fusion_lat": 0.0, "is_reserved": 0, "lat": 38.91032383333334, "name": "d434eb59832268a0d9fdfdb6cb7a1c6f", "bike_id": "d434eb59832268a0d9fdfdb6cb7a1c6f", "is_disabled": 0, "fusion_lon": 0.0, "type": "electric_scooter", "lon": -77.02925616666667}, {"rental_uris": {"android": "https://dc.lft.to/lastmile_qr_scan", "ios": "https://dc.lft.to/lastmile_qr_scan"}, "fusion_lat": 0.0, "is_reserved": 0, "lat": 38.8972855, "name": "11c49a596dca2d4c6f9bddcceba2e40f", "bike_id": "11c49a596dca2d4c6f9bddcceba2e40f", "is_disabled": 0, "fusion_lon": 0.0, "type": "electric_scooter", "lon": -77.05525866666666}, {"rental_uris": {"android": "https://dc.lft.to/lastmile_qr_scan", "ios": "https://dc.lft.to/lastmile_qr_scan"}, "fusion_lat": 0.0, "is_reserved": 0, "lat": 38.932664833333334, "name": "938b7d5c6448c345015cd67454d38162", "bike_id": "938b7d5c6448c345015cd67454d38162", "is_disabled": 0, "fusion_lon": 0.0, "type": "electric_scooter", "lon": -77.02093683333334}, {"rental_uris": {"android": "https://dc.lft.to/lastmile_qr_scan", "ios": "https://dc.lft.to/lastmile_qr_scan"}, "fusion_lat": 0.0, "is_reserved": 0, "lat": 38.90265333333333, "name": "c182fdfc753ebd1df416df08357927de", "bike_id": "c182fdfc753ebd1df416df08357927de", "is_disabled": 0, "fusion_lon": 0.0, "type": "electric_scooter", "lon": -77.018405}, {"rental_uris": {"android": "https://dc.lft.to/lastmile_qr_scan", "ios": "https://dc.lft.to/lastmile_qr_scan"}, "fusion_lat": 0.0, "is_reserved": 0, "lat": 38.905646, "name": "bc7997ee8399ddb1465b112550c2d17e", "bike_id": "bc7997ee8399ddb1465b112550c2d17e", "is_disabled": 0, "fusion_lon": 0.0, "type": "electric_scooter", "lon": -77.04673083333333}, {"rental_uris": {"android": "https://dc.lft.to/lastmile_qr_scan", "ios": "https://dc.lft.to/lastmile_qr_scan"}, "fusion_lat": 0.0, "is_reserved": 0, "lat": 38.904056833333335, "name": "eceb7e3c2ba62ae28e0ba412f5659873", "bike_id": "eceb7e3c2ba62ae28e0ba412f5659873", "is_disabled": 0, "fusion_lon": 0.0, "type": "electric_scooter", "lon": -77.017782}, {"rental_uris": {"android": "https://dc.lft.to/lastmile_qr_scan", "ios": "https://dc.lft.to/lastmile_qr_scan"}, "fusion_lat": 0.0, "is_reserved": 0, "lat": 38.91353066666667, "name": "7974c878f36db1722ef61e0b8c3442f2", "bike_id": "7974c878f36db1722ef61e0b8c3442f2", "is_disabled": 0, "fusion_lon": 0.0, "type": "electric_scooter", "lon": -77.03352516666666}, {"rental_uris": {"android": "https://dc.lft.to/lastmile_qr_scan", "ios": "https://dc.lft.to/lastmile_qr_scan"}, "fusion_lat": 0.0, "is_reserved": 0, "lat": 38.911990333333335, "name": "340b3a3145b7d6bb43e77b6789028a3e", "bike_id": "340b3a3145b7d6bb43e77b6789028a3e", "is_disabled": 0, "fusion_lon": 0.0, "type": "electric_scooter", "lon": -77.03857533333333}, {"rental_uris": {"android": "https://dc.lft.to/lastmile_qr_scan", "ios": "https://dc.lft.to/lastmile_qr_scan"}, "fusion_lat": 0.0, "is_reserved": 0, "lat": 38.9054655, "name": "9d3d9364296384956d634416e24d8ae4", "bike_id": "9d3d9364296384956d634416e24d8ae4", "is_disabled": 0, "fusion_lon": 0.0, "type": "electric_scooter", "lon": -77.04973916666667}, {"rental_uris": {"android": "https://dc.lft.to/lastmile_qr_scan", "ios": "https://dc.lft.to/lastmile_qr_scan"}, "fusion_lat": 0.0, "is_reserved": 0, "lat": 38.890161166666665, "name": "9b5fcb265bd92ee76579cee077039eb6", "bike_id": "9b5fcb265bd92ee76579cee077039eb6", "is_disabled": 0, "fusion_lon": 0.0, "type": "electric_scooter", "lon": -76.9373305}, {"rental_uris": {"android": "https://dc.lft.to/lastmile_qr_scan", "ios": "https://dc.lft.to/lastmile_qr_scan"}, "fusion_lat": 0.0, "is_reserved": 0, "lat": 38.8922085, "name": "1182423a32bcd0c05b7e7e0fbc3827be", "bike_id": "1182423a32bcd0c05b7e7e0fbc3827be", "is_disabled": 0, "fusion_lon": 0.0, "type": "electric_scooter", "lon": -77.03180116666667}, {"rental_uris": {"android": "https://dc.lft.to/lastmile_qr_scan", "ios": "https://dc.lft.to/lastmile_qr_scan"}, "fusion_lat": 0.0, "is_reserved": 0, "lat": 38.883502, "name": "b0d589bc73843c53a69b6550c2cc84be", "bike_id": "b0d589bc73843c53a69b6550c2cc84be", "is_disabled": 0, "fusion_lon": 0.0, "type": "electric_scooter", "lon": -77.01959433333333}, {"rental_uris": {"android": "https://dc.lft.to/lastmile_qr_scan", "ios": "https://dc.lft.to/lastmile_qr_scan"}, "fusion_lat": 0.0, "is_reserved": 0, "lat": 38.915009, "name": "72533a3c8facf3318fd8694717e70613", "bike_id": "72533a3c8facf3318fd8694717e70613", "is_disabled": 0, "fusion_lon": 0.0, "type": "electric_scooter", "lon": -77.0322505}, {"rental_uris": {"android": "https://dc.lft.to/lastmile_qr_scan", "ios": "https://dc.lft.to/lastmile_qr_scan"}, "fusion_lat": 0.0, "is_reserved": 0, "lat": 38.91833833333333, "name": "5ae591e761643acac21c345b4274f932", "bike_id": "5ae591e761643acac21c345b4274f932", "is_disabled": 0, "fusion_lon": 0.0, "type": "electric_scooter", "lon": -77.024247}, {"rental_uris": {"android": "https://dc.lft.to/lastmile_qr_scan", "ios": "https://dc.lft.to/lastmile_qr_scan"}, "fusion_lat": 0.0, "is_reserved": 0, "lat": 38.948824333333334, "name": "edf603fe47e96d23c5c06263e2e5beab", "bike_id": "edf603fe47e96d23c5c06263e2e5beab", "is_disabled": 0, "fusion_lon": 0.0, "type": "electric_scooter", "lon": -77.0328275}, {"rental_uris": {"android": "https://dc.lft.to/lastmile_qr_scan", "ios": "https://dc.lft.to/lastmile_qr_scan"}, "fusion_lat": 0.0, "is_reserved": 0, "lat": 38.9075595, "name": "c0edd1c4bc017216e66b53cdd77f6da0", "bike_id": "c0edd1c4bc017216e66b53cdd77f6da0", "is_disabled": 0, "fusion_lon": 0.0, "type": "electric_scooter", "lon": -77.00382783333333}, {"rental_uris": {"android": "https://dc.lft.to/lastmile_qr_scan", "ios": "https://dc.lft.to/lastmile_qr_scan"}, "fusion_lat": 0.0, "is_reserved": 0, "lat": 38.97494316666667, "name": "d1c7f8ff695b530a1e5f2f232a33d3b0", "bike_id": "d1c7f8ff695b530a1e5f2f232a33d3b0", "is_disabled": 0, "fusion_lon": 0.0, "type": "electric_scooter", "lon": -77.01694}, {"rental_uris": {"android": "https://dc.lft.to/lastmile_qr_scan", "ios": "https://dc.lft.to/lastmile_qr_scan"}, "fusion_lat": 0.0, "is_reserved": 0, "lat": 38.928772, "name": "ca9eb3dff8ea298b1025342ccb2dce3b", "bike_id": "ca9eb3dff8ea298b1025342ccb2dce3b", "is_disabled": 0, "fusion_lon": 0.0, "type": "electric_bike", "lon": -77.03889266666667}, {"rental_uris": {"android": "https://dc.lft.to/lastmile_qr_scan", "ios": "https://dc.lft.to/lastmile_qr_scan"}, "fusion_lat": 0.0, "is_reserved": 0, "lat": 38.921380166666665, "name": "bd864cf681436e8cf04dd34e8a80942b", "bike_id": "bd864cf681436e8cf04dd34e8a80942b", "is_disabled": 0, "fusion_lon": 0.0, "type": "electric_scooter", "lon": -77.04585766666666}, {"rental_uris": {"android": "https://dc.lft.to/lastmile_qr_scan", "ios": "https://dc.lft.to/lastmile_qr_scan"}, "fusion_lat": 0.0, "is_reserved": 0, "lat": 39.08488166666667, "name": "f4dd816beb785135e6640d1ad5d5f2fb", "bike_id": "f4dd816beb785135e6640d1ad5d5f2fb", "is_disabled": 0, "fusion_lon": 0.0, "type": "electric_bike", "lon": -76.95063}, {"rental_uris": {"android": "https://dc.lft.to/lastmile_qr_scan", "ios": "https://dc.lft.to/lastmile_qr_scan"}, "fusion_lat": 0.0, "is_reserved": 0, "lat": 38.894916333333335, "name": "3e8cbe3b69ee95ba149d31628e69c25e", "bike_id": "3e8cbe3b69ee95ba149d31628e69c25e", "is_disabled": 0, "fusion_lon": 0.0, "type": "electric_scooter", "lon": -77.02683483333334}, {"rental_uris": {"android": "https://dc.lft.to/lastmile_qr_scan", "ios": "https://dc.lft.to/lastmile_qr_scan"}, "fusion_lat": 0.0, "is_reserved": 0, "lat": 38.90193683333333, "name": "67b9bf9cfe197c08ba4b51591fdc3b0e", "bike_id": "67b9bf9cfe197c08ba4b51591fdc3b0e", "is_disabled": 0, "fusion_lon": 0.0, "type": "electric_scooter", "lon": -77.05890383333333}, {"rental_uris": {"android": "https://dc.lft.to/lastmile_qr_scan", "ios": "https://dc.lft.to/lastmile_qr_scan"}, "fusion_lat": 0.0, "is_reserved": 0, "lat": 38.89528266666667, "name": "e0de950e6ec409af2b2f913ade7c604b", "bike_id": "e0de950e6ec409af2b2f913ade7c604b", "is_disabled": 0, "fusion_lon": 0.0, "type": "electric_scooter", "lon": -77.0447205}, {"rental_uris": {"android": "https://dc.lft.to/lastmile_qr_scan", "ios": "https://dc.lft.to/lastmile_qr_scan"}, "fusion_lat": 0.0, "is_reserved": 0, "lat": 38.89357066666667, "name": "d3f21604f88fc1c8e4736c55e6d5f7ba", "bike_id": "d3f21604f88fc1c8e4736c55e6d5f7ba", "is_disabled": 0, "fusion_lon": 0.0, "type": "electric_scooter", "lon": -76.994749}, {"rental_uris": {"android": "https://dc.lft.to/lastmile_qr_scan", "ios": "https://dc.lft.to/lastmile_qr_scan"}, "fusion_lat": 0.0, "is_reserved": 0, "lat": 38.89784316666667, "name": "0d61b03cefa9012aaf462e13a6853198", "bike_id": "0d61b03cefa9012aaf462e13a6853198", "is_disabled": 0, "fusion_lon": 0.0, "type": "electric_scooter", "lon": -77.054682}, {"rental_uris": {"android": "https://dc.lft.to/lastmile_qr_scan", "ios": "https://dc.lft.to/lastmile_qr_scan"}, "fusion_lat": 0.0, "is_reserved": 0, "lat": 38.88187466666667, "name": "d737f386893b6ff565887a5b34fa229d", "bike_id": "d737f386893b6ff565887a5b34fa229d", "is_disabled": 0, "fusion_lon": 0.0, "type": "electric_scooter", "lon": -76.99030766666667}, {"rental_uris": {"android": "https://dc.lft.to/lastmile_qr_scan", "ios": "https://dc.lft.to/lastmile_qr_scan"}, "fusion_lat": 0.0, "is_reserved": 0, "lat": 38.91845, "name": "76297331ad78ecc06d9cba34ffbf0cbf", "bike_id": "76297331ad78ecc06d9cba34ffbf0cbf", "is_disabled": 0, "fusion_lon": 0.0, "type": "electric_scooter", "lon": -77.0218095}, {"rental_uris": {"android": "https://dc.lft.to/lastmile_qr_scan", "ios": "https://dc.lft.to/lastmile_qr_scan"}, "fusion_lat": 0.0, "is_reserved": 0, "lat": 38.91613233333333, "name": "ec3e33e6ea3f85b3c61600c56c82d8e6", "bike_id": "ec3e33e6ea3f85b3c61600c56c82d8e6", "is_disabled": 0, "fusion_lon": 0.0, "type": "electric_scooter", "lon": -77.02287083333333}, {"rental_uris": {"android": "https://dc.lft.to/lastmile_qr_scan", "ios": "https://dc.lft.to/lastmile_qr_scan"}, "fusion_lat": 0.0, "is_reserved": 0, "lat": 38.87292866666667, "name": "3262141be109a0b04e19e625bf962c35", "bike_id": "3262141be109a0b04e19e625bf962c35", "is_disabled": 0, "fusion_lon": 0.0, "type": "electric_scooter", "lon": -77.00230766666667}, {"rental_uris": {"android": "https://dc.lft.to/lastmile_qr_scan", "ios": "https://dc.lft.to/lastmile_qr_scan"}, "fusion_lat": 0.0, "is_reserved": 0, "lat": 38.892224666666664, "name": "d8fc270aebde37664c69c1abd81d6921", "bike_id": "d8fc270aebde37664c69c1abd81d6921", "is_disabled": 0, "fusion_lon": 0.0, "type": "electric_scooter", "lon": -77.039884}, {"rental_uris": {"android": "https://dc.lft.to/lastmile_qr_scan", "ios": "https://dc.lft.to/lastmile_qr_scan"}, "fusion_lat": 0.0, "is_reserved": 0, "lat": 38.909066, "name": "657ca43fcd18756d3bfc7f59fc40a21c", "bike_id": "657ca43fcd18756d3bfc7f59fc40a21c", "is_disabled": 0, "fusion_lon": 0.0, "type": "electric_scooter", "lon": -77.04421966666666}, {"rental_uris": {"android": "https://dc.lft.to/lastmile_qr_scan", "ios": "https://dc.lft.to/lastmile_qr_scan"}, "fusion_lat": 0.0, "is_reserved": 0, "lat": 38.922373666666665, "name": "bc73badb4f9f24989b04f79a038e5017", "bike_id": "bc73badb4f9f24989b04f79a038e5017", "is_disabled": 0, "fusion_lon": 0.0, "type": "electric_scooter", "lon": -77.03463883333333}, {"rental_uris": {"android": "https://dc.lft.to/lastmile_qr_scan", "ios": "https://dc.lft.to/lastmile_qr_scan"}, "fusion_lat": 0.0, "is_reserved": 0, "lat": 38.925191166666664, "name": "ac29327114a151d32fcb4a78a1939601", "bike_id": "ac29327114a151d32fcb4a78a1939601", "is_disabled": 0, "fusion_lon": 0.0, "type": "electric_scooter", "lon": -77.021493}, {"rental_uris": {"android": "https://dc.lft.to/lastmile_qr_scan", "ios": "https://dc.lft.to/lastmile_qr_scan"}, "fusion_lat": 0.0, "is_reserved": 0, "lat": 38.92661966666667, "name": "294b5ab560b3a8e1500514ad1cfe03c2", "bike_id": "294b5ab560b3a8e1500514ad1cfe03c2", "is_disabled": 0, "fusion_lon": 0.0, "type": "electric_scooter", "lon": -76.99748366666667}, {"rental_uris": {"android": "https://dc.lft.to/lastmile_qr_scan", "ios": "https://dc.lft.to/lastmile_qr_scan"}, "fusion_lat": 0.0, "is_reserved": 0, "lat": 38.8985255, "name": "6af2508012020a8bfc88294ab80bf970", "bike_id": "6af2508012020a8bfc88294ab80bf970", "is_disabled": 0, "fusion_lon": 0.0, "type": "electric_scooter", "lon": -77.03249733333334}, {"rental_uris": {"android": "https://dc.lft.to/lastmile_qr_scan", "ios": "https://dc.lft.to/lastmile_qr_scan"}, "fusion_lat": 0.0, "is_reserved": 0, "lat": 38.900421333333334, "name": "d3e0fc3d4e65f10c83144a2797231d3e", "bike_id": "d3e0fc3d4e65f10c83144a2797231d3e", "is_disabled": 0, "fusion_lon": 0.0, "type": "electric_scooter", "lon": -76.988294}, {"rental_uris": {"android": "https://dc.lft.to/lastmile_qr_scan", "ios": "https://dc.lft.to/lastmile_qr_scan"}, "fusion_lat": 0.0, "is_reserved": 0, "lat": 38.91807816666667, "name": "e64c2bf94206623318a7f3bcfc396d5d", "bike_id": "e64c2bf94206623318a7f3bcfc396d5d", "is_disabled": 0, "fusion_lon": 0.0, "type": "electric_scooter", "lon": -77.028845}, {"rental_uris": {"android": "https://dc.lft.to/lastmile_qr_scan", "ios": "https://dc.lft.to/lastmile_qr_scan"}, "fusion_lat": 0.0, "is_reserved": 0, "lat": 38.89563166666667, "name": "2b2d2be4a3c9bd60be89d247125b81fc", "bike_id": "2b2d2be4a3c9bd60be89d247125b81fc", "is_disabled": 0, "fusion_lon": 0.0, "type": "electric_scooter", "lon": -77.01110066666666}, {"rental_uris": {"android": "https://dc.lft.to/lastmile_qr_scan", "ios": "https://dc.lft.to/lastmile_qr_scan"}, "fusion_lat": 0.0, "is_reserved": 0, "lat": 38.91989183333333, "name": "2381b71c65e29672c2ff440429db89eb", "bike_id": "2381b71c65e29672c2ff440429db89eb", "is_disabled": 0, "fusion_lon": 0.0, "type": "electric_scooter", "lon": -77.07105583333333}, {"rental_uris": {"android": "https://dc.lft.to/lastmile_qr_scan", "ios": "https://dc.lft.to/lastmile_qr_scan"}, "fusion_lat": 0.0, "is_reserved": 0, "lat": 38.908938166666665, "name": "1fc5163d3558756bb3d0bd6ccb981679", "bike_id": "1fc5163d3558756bb3d0bd6ccb981679", "is_disabled": 0, "fusion_lon": 0.0, "type": "electric_scooter", "lon": -77.04398666666667}, {"rental_uris": {"android": "https://dc.lft.to/lastmile_qr_scan", "ios": "https://dc.lft.to/lastmile_qr_scan"}, "fusion_lat": 0.0, "is_reserved": 0, "lat": 38.900493, "name": "ae97ea5e2fd7851b3fe02e27640079f1", "bike_id": "ae97ea5e2fd7851b3fe02e27640079f1", "is_disabled": 0, "fusion_lon": 0.0, "type": "electric_scooter", "lon": -77.02928}, {"rental_uris": {"android": "https://dc.lft.to/lastmile_qr_scan", "ios": "https://dc.lft.to/lastmile_qr_scan"}, "fusion_lat": 0.0, "is_reserved": 0, "lat": 38.92337666666667, "name": "00f3c97720bee72ff2a0a9ba40fdd37d", "bike_id": "00f3c97720bee72ff2a0a9ba40fdd37d", "is_disabled": 0, "fusion_lon": 0.0, "type": "electric_scooter", "lon": -77.056688}, {"rental_uris": {"android": "https://dc.lft.to/lastmile_qr_scan", "ios": "https://dc.lft.to/lastmile_qr_scan"}, "fusion_lat": 0.0, "is_reserved": 0, "lat": 38.89502983333333, "name": "59342e02cedd8a12e80aeac66832fdc9", "bike_id": "59342e02cedd8a12e80aeac66832fdc9", "is_disabled": 0, "fusion_lon": 0.0, "type": "electric_scooter", "lon": -77.04633983333333}, {"rental_uris": {"android": "https://dc.lft.to/lastmile_qr_scan", "ios": "https://dc.lft.to/lastmile_qr_scan"}, "fusion_lat": 0.0, "is_reserved": 0, "lat": 38.905823, "name": "55cb86cf6f5ab21389f4aca3e925414d", "bike_id": "55cb86cf6f5ab21389f4aca3e925414d", "is_disabled": 0, "fusion_lon": 0.0, "type": "electric_scooter", "lon": -77.00719266666667}, {"rental_uris": {"android": "https://dc.lft.to/lastmile_qr_scan", "ios": "https://dc.lft.to/lastmile_qr_scan"}, "fusion_lat": 0.0, "is_reserved": 0, "lat": 38.903935833333335, "name": "1a30b8836cd925cb8a050134bd6d2805", "bike_id": "1a30b8836cd925cb8a050134bd6d2805", "is_disabled": 0, "fusion_lon": 0.0, "type": "electric_scooter", "lon": -77.06859783333333}, {"rental_uris": {"android": "https://dc.lft.to/lastmile_qr_scan", "ios": "https://dc.lft.to/lastmile_qr_scan"}, "fusion_lat": 0.0, "is_reserved": 0, "lat": 38.8969185, "name": "12f8054d0937581baeef092d6026e65a", "bike_id": "12f8054d0937581baeef092d6026e65a", "is_disabled": 0, "fusion_lon": 0.0, "type": "electric_scooter", "lon": -77.0282125}, {"rental_uris": {"android": "https://dc.lft.to/lastmile_qr_scan", "ios": "https://dc.lft.to/lastmile_qr_scan"}, "fusion_lat": 0.0, "is_reserved": 0, "lat": 38.91990633333333, "name": "0e4a271b8a2001d03702a8c504c56d50", "bike_id": "0e4a271b8a2001d03702a8c504c56d50", "is_disabled": 0, "fusion_lon": 0.0, "type": "electric_scooter", "lon": -77.04145133333333}, {"rental_uris": {"android": "https://dc.lft.to/lastmile_qr_scan", "ios": "https://dc.lft.to/lastmile_qr_scan"}, "fusion_lat": 0.0, "is_reserved": 0, "lat": 38.923646833333336, "name": "93d723f5deeca0d48611d1d27da67a36", "bike_id": "93d723f5deeca0d48611d1d27da67a36", "is_disabled": 0, "fusion_lon": 0.0, "type": "electric_scooter", "lon": -77.05032233333333}, {"rental_uris": {"android": "https://dc.lft.to/lastmile_qr_scan", "ios": "https://dc.lft.to/lastmile_qr_scan"}, "fusion_lat": 0.0, "is_reserved": 0, "lat": 38.900485333333336, "name": "b18cd48e7e3c028f441b6f922b3c2326", "bike_id": "b18cd48e7e3c028f441b6f922b3c2326", "is_disabled": 0, "fusion_lon": 0.0, "type": "electric_scooter", "lon": -77.0178195}, {"rental_uris": {"android": "https://dc.lft.to/lastmile_qr_scan", "ios": "https://dc.lft.to/lastmile_qr_scan"}, "fusion_lat": 0.0, "is_reserved": 0, "lat": 38.9119055, "name": "2e468e6b10d4dccec3543584438d3772", "bike_id": "2e468e6b10d4dccec3543584438d3772", "is_disabled": 0, "fusion_lon": 0.0, "type": "electric_scooter", "lon": -77.0078805}, {"rental_uris": {"android": "https://dc.lft.to/lastmile_qr_scan", "ios": "https://dc.lft.to/lastmile_qr_scan"}, "fusion_lat": 0.0, "is_reserved": 0, "lat": 38.93665166666667, "name": "9abbbad25ba7737c3950e66a7579dc06", "bike_id": "9abbbad25ba7737c3950e66a7579dc06", "is_disabled": 0, "fusion_lon": 0.0, "type": "electric_scooter", "lon": -77.03634383333333}, {"rental_uris": {"android": "https://dc.lft.to/lastmile_qr_scan", "ios": "https://dc.lft.to/lastmile_qr_scan"}, "fusion_lat": 0.0, "is_reserved": 0, "lat": 38.90707066666667, "name": "a9b622c3f2e68c510292eb769ee1d3e2", "bike_id": "a9b622c3f2e68c510292eb769ee1d3e2", "is_disabled": 0, "fusion_lon": 0.0, "type": "electric_scooter", "lon": -77.03212216666667}, {"rental_uris": {"android": "https://dc.lft.to/lastmile_qr_scan", "ios": "https://dc.lft.to/lastmile_qr_scan"}, "fusion_lat": 0.0, "is_reserved": 0, "lat": 38.9081725, "name": "9b8a4f2891775e4eb44b9e40b4ed0b8d", "bike_id": "9b8a4f2891775e4eb44b9e40b4ed0b8d", "is_disabled": 0, "fusion_lon": 0.0, "type": "electric_scooter", "lon": -77.06914933333333}, {"rental_uris": {"android": "https://dc.lft.to/lastmile_qr_scan", "ios": "https://dc.lft.to/lastmile_qr_scan"}, "fusion_lat": 0.0, "is_reserved": 0, "lat": 38.95627833333333, "name": "49b1e65c24ef1dcadf50e50eae52e705", "bike_id": "49b1e65c24ef1dcadf50e50eae52e705", "is_disabled": 0, "fusion_lon": 0.0, "type": "electric_scooter", "lon": -77.02428266666666}, {"rental_uris": {"android": "https://dc.lft.to/lastmile_qr_scan", "ios": "https://dc.lft.to/lastmile_qr_scan"}, "fusion_lat": 0.0, "is_reserved": 0, "lat": 38.879419666666664, "name": "ffcbf0d64f2583aaba8959a4f3b6a64d", "bike_id": "ffcbf0d64f2583aaba8959a4f3b6a64d", "is_disabled": 0, "fusion_lon": 0.0, "type": "electric_scooter", "lon": -77.00376966666667}, {"rental_uris": {"android": "https://dc.lft.to/lastmile_qr_scan", "ios": "https://dc.lft.to/lastmile_qr_scan"}, "fusion_lat": 0.0, "is_reserved": 0, "lat": 38.88339933333334, "name": "5c239415cd44a45c05228eb7a9ab9940", "bike_id": "5c239415cd44a45c05228eb7a9ab9940", "is_disabled": 0, "fusion_lon": 0.0, "type": "electric_scooter", "lon": -76.94284883333333}, {"rental_uris": {"android": "https://dc.lft.to/lastmile_qr_scan", "ios": "https://dc.lft.to/lastmile_qr_scan"}, "fusion_lat": 0.0, "is_reserved": 0, "lat": 38.917192, "name": "d83416108eb2fb50a082394230c87d6a", "bike_id": "d83416108eb2fb50a082394230c87d6a", "is_disabled": 0, "fusion_lon": 0.0, "type": "electric_scooter", "lon": -77.03466933333333}, {"rental_uris": {"android": "https://dc.lft.to/lastmile_qr_scan", "ios": "https://dc.lft.to/lastmile_qr_scan"}, "fusion_lat": 0.0, "is_reserved": 0, "lat": 38.9119175, "name": "c3791c36f02d9d30f348ac8099075cc4", "bike_id": "c3791c36f02d9d30f348ac8099075cc4", "is_disabled": 0, "fusion_lon": 0.0, "type": "electric_scooter", "lon": -77.03832416666667}, {"rental_uris": {"android": "https://dc.lft.to/lastmile_qr_scan", "ios": "https://dc.lft.to/lastmile_qr_scan"}, "fusion_lat": 0.0, "is_reserved": 0, "lat": 38.870809333333334, "name": "df854bc5cf0202c872249d2722758576", "bike_id": "df854bc5cf0202c872249d2722758576", "is_disabled": 0, "fusion_lon": 0.0, "type": "electric_bike", "lon": -77.11059633333333}, {"rental_uris": {"android": "https://dc.lft.to/lastmile_qr_scan", "ios": "https://dc.lft.to/lastmile_qr_scan"}, "fusion_lat": 0.0, "is_reserved": 0, "lat": 38.91733116666666, "name": "63cec7b68f5a0f7f767583e4e3530d21", "bike_id": "63cec7b68f5a0f7f767583e4e3530d21", "is_disabled": 0, "fusion_lon": 0.0, "type": "electric_scooter", "lon": -77.03215783333333}, {"rental_uris": {"android": "https://dc.lft.to/lastmile_qr_scan", "ios": "https://dc.lft.to/lastmile_qr_scan"}, "fusion_lat": 0.0, "is_reserved": 0, "lat": 38.88425683333333, "name": "87a7549994b8dcf5884ca8a5b96a5881", "bike_id": "87a7549994b8dcf5884ca8a5b96a5881", "is_disabled": 0, "fusion_lon": 0.0, "type": "electric_scooter", "lon": -77.02553883333333}, {"rental_uris": {"android": "https://dc.lft.to/lastmile_qr_scan", "ios": "https://dc.lft.to/lastmile_qr_scan"}, "fusion_lat": 0.0, "is_reserved": 0, "lat": 38.91815416666667, "name": "8865e5fce3500c8d1aaf7d7ccd982b35", "bike_id": "8865e5fce3500c8d1aaf7d7ccd982b35", "is_disabled": 0, "fusion_lon": 0.0, "type": "electric_scooter", "lon": -77.02479433333333}, {"rental_uris": {"android": "https://dc.lft.to/lastmile_qr_scan", "ios": "https://dc.lft.to/lastmile_qr_scan"}, "fusion_lat": 0.0, "is_reserved": 0, "lat": 38.904134166666665, "name": "5564311325b0e33c1b52538be08e7e02", "bike_id": "5564311325b0e33c1b52538be08e7e02", "is_disabled": 0, "fusion_lon": 0.0, "type": "electric_scooter", "lon": -77.05331966666667}, {"rental_uris": {"android": "https://dc.lft.to/lastmile_qr_scan", "ios": "https://dc.lft.to/lastmile_qr_scan"}, "fusion_lat": 0.0, "is_reserved": 0, "lat": 38.93085766666667, "name": "b04b7021b8693be278c9d8d47cd1ea91", "bike_id": "b04b7021b8693be278c9d8d47cd1ea91", "is_disabled": 0, "fusion_lon": 0.0, "type": "electric_scooter", "lon": -77.03770083333333}, {"rental_uris": {"android": "https://dc.lft.to/lastmile_qr_scan", "ios": "https://dc.lft.to/lastmile_qr_scan"}, "fusion_lat": 0.0, "is_reserved": 0, "lat": 38.9386195, "name": "7efeaf89192ec6d12287b9623f68a4a5", "bike_id": "7efeaf89192ec6d12287b9623f68a4a5", "is_disabled": 0, "fusion_lon": 0.0, "type": "electric_scooter", "lon": -77.02473566666667}, {"rental_uris": {"android": "https://dc.lft.to/lastmile_qr_scan", "ios": "https://dc.lft.to/lastmile_qr_scan"}, "fusion_lat": 0.0, "is_reserved": 0, "lat": 38.9202575, "name": "3be82c9c6a42a624ac4eb8246a2a7601", "bike_id": "3be82c9c6a42a624ac4eb8246a2a7601", "is_disabled": 0, "fusion_lon": 0.0, "type": "electric_scooter", "lon": -77.02804083333334}, {"rental_uris": {"android": "https://dc.lft.to/lastmile_qr_scan", "ios": "https://dc.lft.to/lastmile_qr_scan"}, "fusion_lat": 0.0, "is_reserved": 0, "lat": 38.8961995, "name": "8fc03e25f1ce8e6a35800f56e2ee09ed", "bike_id": "8fc03e25f1ce8e6a35800f56e2ee09ed", "is_disabled": 0, "fusion_lon": 0.0, "type": "electric_scooter", "lon": -77.02594783333333}, {"rental_uris": {"android": "https://dc.lft.to/lastmile_qr_scan", "ios": "https://dc.lft.to/lastmile_qr_scan"}, "fusion_lat": 0.0, "is_reserved": 0, "lat": 38.88836533333333, "name": "60db29aa1633773fdeeb158db5b08c4e", "bike_id": "60db29aa1633773fdeeb158db5b08c4e", "is_disabled": 0, "fusion_lon": 0.0, "type": "electric_scooter", "lon": -76.98688433333334}, {"rental_uris": {"android": "https://dc.lft.to/lastmile_qr_scan", "ios": "https://dc.lft.to/lastmile_qr_scan"}, "fusion_lat": 0.0, "is_reserved": 0, "lat": 38.928705666666666, "name": "ea65c93002b6353bcfee2f285479a22b", "bike_id": "ea65c93002b6353bcfee2f285479a22b", "is_disabled": 0, "fusion_lon": 0.0, "type": "electric_scooter", "lon": -77.02710816666666}, {"rental_uris": {"android": "https://dc.lft.to/lastmile_qr_scan", "ios": "https://dc.lft.to/lastmile_qr_scan"}, "fusion_lat": 0.0, "is_reserved": 0, "lat": 38.908064333333336, "name": "49afc7fca4627bbe66734680cb11e841", "bike_id": "49afc7fca4627bbe66734680cb11e841", "is_disabled": 0, "fusion_lon": 0.0, "type": "electric_scooter", "lon": -77.042203}, {"rental_uris": {"android": "https://dc.lft.to/lastmile_qr_scan", "ios": "https://dc.lft.to/lastmile_qr_scan"}, "fusion_lat": 0.0, "is_reserved": 0, "lat": 38.91945183333333, "name": "01124f9858115258e497e65a8c13998f", "bike_id": "01124f9858115258e497e65a8c13998f", "is_disabled": 0, "fusion_lon": 0.0, "type": "electric_scooter", "lon": -76.99186216666666}, {"rental_uris": {"android": "https://dc.lft.to/lastmile_qr_scan", "ios": "https://dc.lft.to/lastmile_qr_scan"}, "fusion_lat": 0.0, "is_reserved": 0, "lat": 38.804484, "name": "ba2882a5cb4a0c7bd86dc7b7d34d0d80", "bike_id": "ba2882a5cb4a0c7bd86dc7b7d34d0d80", "is_disabled": 0, "fusion_lon": 0.0, "type": "electric_bike", "lon": -77.132307}, {"rental_uris": {"android": "https://dc.lft.to/lastmile_qr_scan", "ios": "https://dc.lft.to/lastmile_qr_scan"}, "fusion_lat": 0.0, "is_reserved": 0, "lat": 38.9952385, "name": "80f07d99b9da3dc53984db95dd9e4b94", "bike_id": "80f07d99b9da3dc53984db95dd9e4b94", "is_disabled": 0, "fusion_lon": 0.0, "type": "electric_bike", "lon": -76.99959733333333}, {"rental_uris": {"android": "https://dc.lft.to/lastmile_qr_scan", "ios": "https://dc.lft.to/lastmile_qr_scan"}, "fusion_lat": 0.0, "is_reserved": 0, "lat": 38.9341265, "name": "ec76379153186c182c4568db7e83a1de", "bike_id": "ec76379153186c182c4568db7e83a1de", "is_disabled": 0, "fusion_lon": 0.0, "type": "electric_scooter", "lon": -77.02039466666666}, {"rental_uris": {"android": "https://dc.lft.to/lastmile_qr_scan", "ios": "https://dc.lft.to/lastmile_qr_scan"}, "fusion_lat": 0.0, "is_reserved": 0, "lat": 38.9021925, "name": "4c6b2455db89d58b4367427e322bfd2d", "bike_id": "4c6b2455db89d58b4367427e322bfd2d", "is_disabled": 0, "fusion_lon": 0.0, "type": "electric_scooter", "lon": -77.02171583333333}, {"rental_uris": {"android": "https://dc.lft.to/lastmile_qr_scan", "ios": "https://dc.lft.to/lastmile_qr_scan"}, "fusion_lat": 0.0, "is_reserved": 0, "lat": 38.836094, "name": "344b176beddc2db07d318a79efad6c59", "bike_id": "344b176beddc2db07d318a79efad6c59", "is_disabled": 0, "fusion_lon": 0.0, "type": "electric_bike", "lon": -77.00381766666666}, {"rental_uris": {"android": "https://dc.lft.to/lastmile_qr_scan", "ios": "https://dc.lft.to/lastmile_qr_scan"}, "fusion_lat": 0.0, "is_reserved": 0, "lat": 38.898694666666664, "name": "b5fe1facc8ca04c12a32032d476489c7", "bike_id": "b5fe1facc8ca04c12a32032d476489c7", "is_disabled": 0, "fusion_lon": 0.0, "type": "electric_scooter", "lon": -77.05001783333333}, {"rental_uris": {"android": "https://dc.lft.to/lastmile_qr_scan", "ios": "https://dc.lft.to/lastmile_qr_scan"}, "fusion_lat": 0.0, "is_reserved": 0, "lat": 38.918281666666665, "name": "1d0826a9dfd5ca4b38f492a7cc4d3842", "bike_id": "1d0826a9dfd5ca4b38f492a7cc4d3842", "is_disabled": 0, "fusion_lon": 0.0, "type": "electric_scooter", "lon": -77.031954}, {"rental_uris": {"android": "https://dc.lft.to/lastmile_qr_scan", "ios": "https://dc.lft.to/lastmile_qr_scan"}, "fusion_lat": 0.0, "is_reserved": 0, "lat": 38.923302166666666, "name": "436351b29d262fdf082a3adac1f23635", "bike_id": "436351b29d262fdf082a3adac1f23635", "is_disabled": 0, "fusion_lon": 0.0, "type": "electric_scooter", "lon": -77.0004925}, {"rental_uris": {"android": "https://dc.lft.to/lastmile_qr_scan", "ios": "https://dc.lft.to/lastmile_qr_scan"}, "fusion_lat": 0.0, "is_reserved": 0, "lat": 38.90830483333333, "name": "5c11199f239b4a55bfaaa064ba35d9e1", "bike_id": "5c11199f239b4a55bfaaa064ba35d9e1", "is_disabled": 0, "fusion_lon": 0.0, "type": "electric_scooter", "lon": -76.996982}, {"rental_uris": {"android": "https://dc.lft.to/lastmile_qr_scan", "ios": "https://dc.lft.to/lastmile_qr_scan"}, "fusion_lat": 0.0, "is_reserved": 0, "lat": 38.93306033333333, "name": "c41a1a9375bdc8796c4a02b7b1bc229b", "bike_id": "c41a1a9375bdc8796c4a02b7b1bc229b", "is_disabled": 0, "fusion_lon": 0.0, "type": "electric_scooter", "lon": -77.0290455}, {"rental_uris": {"android": "https://dc.lft.to/lastmile_qr_scan", "ios": "https://dc.lft.to/lastmile_qr_scan"}, "fusion_lat": 0.0, "is_reserved": 0, "lat": 38.84628133333333, "name": "f23551e35190b70588a469fd41d60af4", "bike_id": "f23551e35190b70588a469fd41d60af4", "is_disabled": 0, "fusion_lon": 0.0, "type": "electric_scooter", "lon": -76.98120533333334}, {"rental_uris": {"android": "https://dc.lft.to/lastmile_qr_scan", "ios": "https://dc.lft.to/lastmile_qr_scan"}, "fusion_lat": 0.0, "is_reserved": 0, "lat": 38.919572333333335, "name": "a4492e9b64348567aa93c62703d71407", "bike_id": "a4492e9b64348567aa93c62703d71407", "is_disabled": 0, "fusion_lon": 0.0, "type": "electric_scooter", "lon": -77.02716216666667}, {"rental_uris": {"android": "https://dc.lft.to/lastmile_qr_scan", "ios": "https://dc.lft.to/lastmile_qr_scan"}, "fusion_lat": 0.0, "is_reserved": 0, "lat": 38.83300466666667, "name": "7b5c76be91abeda98c96e111711b5a9c", "bike_id": "7b5c76be91abeda98c96e111711b5a9c", "is_disabled": 0, "fusion_lon": 0.0, "type": "electric_bike", "lon": -77.0841105}, {"rental_uris": {"android": "https://dc.lft.to/lastmile_qr_scan", "ios": "https://dc.lft.to/lastmile_qr_scan"}, "fusion_lat": 0.0, "is_reserved": 0, "lat": 38.925308, "name": "7e62cecb8aef7b2513b28cdee3c68331", "bike_id": "7e62cecb8aef7b2513b28cdee3c68331", "is_disabled": 0, "fusion_lon": 0.0, "type": "electric_scooter", "lon": -77.0412}, {"rental_uris": {"android": "https://dc.lft.to/lastmile_qr_scan", "ios": "https://dc.lft.to/lastmile_qr_scan"}, "fusion_lat": 0.0, "is_reserved": 0, "lat": 38.90874483333333, "name": "d578407c7d62e6c96374f2a011a85f3b", "bike_id": "d578407c7d62e6c96374f2a011a85f3b", "is_disabled": 0, "fusion_lon": 0.0, "type": "electric_scooter", "lon": -77.07154116666666}, {"rental_uris": {"android": "https://dc.lft.to/lastmile_qr_scan", "ios": "https://dc.lft.to/lastmile_qr_scan"}, "fusion_lat": 0.0, "is_reserved": 0, "lat": 38.8879375, "name": "52d7cd3c8a30eeac134521c8c2d573e0", "bike_id": "52d7cd3c8a30eeac134521c8c2d573e0", "is_disabled": 0, "fusion_lon": 0.0, "type": "electric_scooter", "lon": -76.97710366666666}, {"rental_uris": {"android": "https://dc.lft.to/lastmile_qr_scan", "ios": "https://dc.lft.to/lastmile_qr_scan"}, "fusion_lat": 0.0, "is_reserved": 0, "lat": 38.89877766666667, "name": "de9e7f8a0fdeb7313ad39e912143712d", "bike_id": "de9e7f8a0fdeb7313ad39e912143712d", "is_disabled": 0, "fusion_lon": 0.0, "type": "electric_scooter", "lon": -77.02474083333334}, {"rental_uris": {"android": "https://dc.lft.to/lastmile_qr_scan", "ios": "https://dc.lft.to/lastmile_qr_scan"}, "fusion_lat": 0.0, "is_reserved": 0, "lat": 38.90684433333333, "name": "55dd57c74c06d9b13c2b249d0b94ac35", "bike_id": "55dd57c74c06d9b13c2b249d0b94ac35", "is_disabled": 0, "fusion_lon": 0.0, "type": "electric_scooter", "lon": -77.03817533333333}, {"rental_uris": {"android": "https://dc.lft.to/lastmile_qr_scan", "ios": "https://dc.lft.to/lastmile_qr_scan"}, "fusion_lat": 0.0, "is_reserved": 0, "lat": 38.9015375, "name": "454463c1f2aee23ab3e4ecd9cc95c134", "bike_id": "454463c1f2aee23ab3e4ecd9cc95c134", "is_disabled": 0, "fusion_lon": 0.0, "type": "electric_scooter", "lon": -77.03736566666667}, {"rental_uris": {"android": "https://dc.lft.to/lastmile_qr_scan", "ios": "https://dc.lft.to/lastmile_qr_scan"}, "fusion_lat": 0.0, "is_reserved": 0, "lat": 38.918512, "name": "b60504d1c4fd8100c8f56d13021009e4", "bike_id": "b60504d1c4fd8100c8f56d13021009e4", "is_disabled": 0, "fusion_lon": 0.0, "type": "electric_scooter", "lon": -77.02337166666666}, {"rental_uris": {"android": "https://dc.lft.to/lastmile_qr_scan", "ios": "https://dc.lft.to/lastmile_qr_scan"}, "fusion_lat": 0.0, "is_reserved": 0, "lat": 38.9006945, "name": "4538b3e01fb37c69227a20f6f48fb88d", "bike_id": "4538b3e01fb37c69227a20f6f48fb88d", "is_disabled": 0, "fusion_lon": 0.0, "type": "electric_scooter", "lon": -77.017106}, {"rental_uris": {"android": "https://dc.lft.to/lastmile_qr_scan", "ios": "https://dc.lft.to/lastmile_qr_scan"}, "fusion_lat": 0.0, "is_reserved": 0, "lat": 38.92821883333333, "name": "762e5abd71db308849382d1ccda3ca3c", "bike_id": "762e5abd71db308849382d1ccda3ca3c", "is_disabled": 0, "fusion_lon": 0.0, "type": "electric_scooter", "lon": -77.02254866666667}, {"rental_uris": {"android": "https://dc.lft.to/lastmile_qr_scan", "ios": "https://dc.lft.to/lastmile_qr_scan"}, "fusion_lat": 0.0, "is_reserved": 0, "lat": 38.88376216666666, "name": "442749035e3f72e712bfde769d60c30c", "bike_id": "442749035e3f72e712bfde769d60c30c", "is_disabled": 0, "fusion_lon": 0.0, "type": "electric_scooter", "lon": -77.008728}, {"rental_uris": {"android": "https://dc.lft.to/lastmile_qr_scan", "ios": "https://dc.lft.to/lastmile_qr_scan"}, "fusion_lat": 0.0, "is_reserved": 0, "lat": 38.90141666666667, "name": "d7cf6a8942b763918f26d9fde31f15b0", "bike_id": "d7cf6a8942b763918f26d9fde31f15b0", "is_disabled": 0, "fusion_lon": 0.0, "type": "electric_scooter", "lon": -77.04328833333334}, {"rental_uris": {"android": "https://dc.lft.to/lastmile_qr_scan", "ios": "https://dc.lft.to/lastmile_qr_scan"}, "fusion_lat": 0.0, "is_reserved": 0, "lat": 38.96622333333333, "name": "9b8261501acd4d0606dbe4847f68b683", "bike_id": "9b8261501acd4d0606dbe4847f68b683", "is_disabled": 0, "fusion_lon": 0.0, "type": "electric_bike", "lon": -77.034401}, {"rental_uris": {"android": "https://dc.lft.to/lastmile_qr_scan", "ios": "https://dc.lft.to/lastmile_qr_scan"}, "fusion_lat": 0.0, "is_reserved": 0, "lat": 38.8843965, "name": "7553475ff1702b6407ba495fa85750a9", "bike_id": "7553475ff1702b6407ba495fa85750a9", "is_disabled": 0, "fusion_lon": 0.0, "type": "electric_scooter", "lon": -76.95767283333333}, {"rental_uris": {"android": "https://dc.lft.to/lastmile_qr_scan", "ios": "https://dc.lft.to/lastmile_qr_scan"}, "fusion_lat": 0.0, "is_reserved": 0, "lat": 38.918973666666666, "name": "c96cd829bdd884df5b9f85120e437a84", "bike_id": "c96cd829bdd884df5b9f85120e437a84", "is_disabled": 0, "fusion_lon": 0.0, "type": "electric_scooter", "lon": -77.00338016666667}, {"rental_uris": {"android": "https://dc.lft.to/lastmile_qr_scan", "ios": "https://dc.lft.to/lastmile_qr_scan"}, "fusion_lat": 0.0, "is_reserved": 0, "lat": 38.868671, "name": "032e8563ed56ee4f7d8c857ad924113e", "bike_id": "032e8563ed56ee4f7d8c857ad924113e", "is_disabled": 0, "fusion_lon": 0.0, "type": "electric_scooter", "lon": -76.98663133333334}, {"rental_uris": {"android": "https://dc.lft.to/lastmile_qr_scan", "ios": "https://dc.lft.to/lastmile_qr_scan"}, "fusion_lat": 0.0, "is_reserved": 0, "lat": 38.92457, "name": "e845e73ed0d84c5798246d7099f133fc", "bike_id": "e845e73ed0d84c5798246d7099f133fc", "is_disabled": 0, "fusion_lon": 0.0, "type": "electric_scooter", "lon": -76.99914766666667}, {"rental_uris": {"android": "https://dc.lft.to/lastmile_qr_scan", "ios": "https://dc.lft.to/lastmile_qr_scan"}, "fusion_lat": 0.0, "is_reserved": 0, "lat": 38.875805666666665, "name": "2c33a8d5f58b4f2c71e18825fbfb6810", "bike_id": "2c33a8d5f58b4f2c71e18825fbfb6810", "is_disabled": 0, "fusion_lon": 0.0, "type": "electric_scooter", "lon": -77.01994416666666}, {"rental_uris": {"android": "https://dc.lft.to/lastmile_qr_scan", "ios": "https://dc.lft.to/lastmile_qr_scan"}, "fusion_lat": 0.0, "is_reserved": 0, "lat": 38.919184666666666, "name": "3d8d00d6c344c925d7dfaf3c6bef1c7b", "bike_id": "3d8d00d6c344c925d7dfaf3c6bef1c7b", "is_disabled": 0, "fusion_lon": 0.0, "type": "electric_scooter", "lon": -77.03419683333334}, {"rental_uris": {"android": "https://dc.lft.to/lastmile_qr_scan", "ios": "https://dc.lft.to/lastmile_qr_scan"}, "fusion_lat": 0.0, "is_reserved": 0, "lat": 38.923866333333336, "name": "7e2bcfe1c62d6a1caf09644871fc97d5", "bike_id": "7e2bcfe1c62d6a1caf09644871fc97d5", "is_disabled": 0, "fusion_lon": 0.0, "type": "electric_scooter", "lon": -77.02496733333334}, {"rental_uris": {"android": "https://dc.lft.to/lastmile_qr_scan", "ios": "https://dc.lft.to/lastmile_qr_scan"}, "fusion_lat": 0.0, "is_reserved": 0, "lat": 38.905875, "name": "92806fe0401e3260914d7a9108a6e6d7", "bike_id": "92806fe0401e3260914d7a9108a6e6d7", "is_disabled": 0, "fusion_lon": 0.0, "type": "electric_scooter", "lon": -77.04554583333334}, {"rental_uris": {"android": "https://dc.lft.to/lastmile_qr_scan", "ios": "https://dc.lft.to/lastmile_qr_scan"}, "fusion_lat": 0.0, "is_reserved": 0, "lat": 38.939607, "name": "79fea7d0324220978ddc6ecfc11b8f51", "bike_id": "79fea7d0324220978ddc6ecfc11b8f51", "is_disabled": 0, "fusion_lon": 0.0, "type": "electric_scooter", "lon": -77.02521566666667}, {"rental_uris": {"android": "https://dc.lft.to/lastmile_qr_scan", "ios": "https://dc.lft.to/lastmile_qr_scan"}, "fusion_lat": 0.0, "is_reserved": 0, "lat": 38.886745, "name": "ddf9a656018b0a0651e105094cbc8f09", "bike_id": "ddf9a656018b0a0651e105094cbc8f09", "is_disabled": 0, "fusion_lon": 0.0, "type": "electric_scooter", "lon": -77.00201616666666}, {"rental_uris": {"android": "https://dc.lft.to/lastmile_qr_scan", "ios": "https://dc.lft.to/lastmile_qr_scan"}, "fusion_lat": 0.0, "is_reserved": 0, "lat": 38.91715583333333, "name": "a8514ff82127c1c2ddc19b6abb513c00", "bike_id": "a8514ff82127c1c2ddc19b6abb513c00", "is_disabled": 0, "fusion_lon": 0.0, "type": "electric_scooter", "lon": -77.034635}, {"rental_uris": {"android": "https://dc.lft.to/lastmile_qr_scan", "ios": "https://dc.lft.to/lastmile_qr_scan"}, "fusion_lat": 0.0, "is_reserved": 0, "lat": 38.9247455, "name": "5202c07d73b37b424b1b891822c71d3b", "bike_id": "5202c07d73b37b424b1b891822c71d3b", "is_disabled": 0, "fusion_lon": 0.0, "type": "electric_scooter", "lon": -77.02698916666667}, {"rental_uris": {"android": "https://dc.lft.to/lastmile_qr_scan", "ios": "https://dc.lft.to/lastmile_qr_scan"}, "fusion_lat": 0.0, "is_reserved": 0, "lat": 38.90986316666667, "name": "75e49268093b5870017c0570f33d2c9c", "bike_id": "75e49268093b5870017c0570f33d2c9c", "is_disabled": 0, "fusion_lon": 0.0, "type": "electric_scooter", "lon": -77.02391516666667}, {"rental_uris": {"android": "https://dc.lft.to/lastmile_qr_scan", "ios": "https://dc.lft.to/lastmile_qr_scan"}, "fusion_lat": 0.0, "is_reserved": 0, "lat": 38.9250705, "name": "41f97aef4d050df4f3f12c5984e0d93e", "bike_id": "41f97aef4d050df4f3f12c5984e0d93e", "is_disabled": 0, "fusion_lon": 0.0, "type": "electric_scooter", "lon": -77.02280583333334}, {"rental_uris": {"android": "https://dc.lft.to/lastmile_qr_scan", "ios": "https://dc.lft.to/lastmile_qr_scan"}, "fusion_lat": 0.0, "is_reserved": 0, "lat": 38.89625766666666, "name": "42f58d228f1d748724f5c7c32caa5998", "bike_id": "42f58d228f1d748724f5c7c32caa5998", "is_disabled": 0, "fusion_lon": 0.0, "type": "electric_scooter", "lon": -76.99852833333334}, {"rental_uris": {"android": "https://dc.lft.to/lastmile_qr_scan", "ios": "https://dc.lft.to/lastmile_qr_scan"}, "fusion_lat": 0.0, "is_reserved": 0, "lat": 38.92077233333333, "name": "3f2bbced9f833f24242e0ca2db9780f1", "bike_id": "3f2bbced9f833f24242e0ca2db9780f1", "is_disabled": 0, "fusion_lon": 0.0, "type": "electric_scooter", "lon": -77.02320166666667}, {"rental_uris": {"android": "https://dc.lft.to/lastmile_qr_scan", "ios": "https://dc.lft.to/lastmile_qr_scan"}, "fusion_lat": 0.0, "is_reserved": 0, "lat": 38.89930416666667, "name": "6112f2e4a7126f2e7b9139d9e1c36165", "bike_id": "6112f2e4a7126f2e7b9139d9e1c36165", "is_disabled": 0, "fusion_lon": 0.0, "type": "electric_bike", "lon": -77.00150583333334}, {"rental_uris": {"android": "https://dc.lft.to/lastmile_qr_scan", "ios": "https://dc.lft.to/lastmile_qr_scan"}, "fusion_lat": 0.0, "is_reserved": 0, "lat": 38.903407333333334, "name": "6e2ae338cf8b7ff0db2f86ef667b19f0", "bike_id": "6e2ae338cf8b7ff0db2f86ef667b19f0", "is_disabled": 0, "fusion_lon": 0.0, "type": "electric_scooter", "lon": -77.0253415}, {"rental_uris": {"android": "https://dc.lft.to/lastmile_qr_scan", "ios": "https://dc.lft.to/lastmile_qr_scan"},