{"data": {"bikes": [{"bike_id": "a774125a0e33ed16f5db9c3eb8635778", "fusion_lon": 0.0, "lon": -77.04448633333334, "name": "a774125a0e33ed16f5db9c3eb8635778", "is_disabled": 0, "rental_uris": {"android": "https://dc.lft.to/lastmile_qr_scan", "ios": "https://dc.lft.to/lastmile_qr_scan"}, "type": "electric_scooter", "lat": 38.911857166666664, "is_reserved": 0, "fusion_lat": 0.0}, {"bike_id": "bd315ed3fbc7dca8dec98bae59308afb", "fusion_lon": 0.0, "lon": -77.03183716666666, "name": "bd315ed3fbc7dca8dec98bae59308afb", "is_disabled": 0, "rental_uris": {"android": "https://dc.lft.to/lastmile_qr_scan", "ios": "https://dc.lft.to/lastmile_qr_scan"}, "type": "electric_scooter", "lat": 38.92488566666667, "is_reserved": 0, "fusion_lat": 0.0}, {"bike_id": "1247661328bc39b257bbb34b9c564e6a", "fusion_lon": 0.0, "lon": -76.99951566666667, "name": "1247661328bc39b257bbb34b9c564e6a", "is_disabled": 0, "rental_uris": {"android": "https://dc.lft.to/lastmile_qr_scan", "ios": "https://dc.lft.to/lastmile_qr_scan"}, "type": "electric_scooter", "lat": 38.842925, "is_reserved": 0, "fusion_lat": 0.0}, {"bike_id": "e391851141e4eb390a91b242cad45094", "fusion_lon": 0.0, "lon": -77.03854883333334, "name": "e391851141e4eb390a91b242cad45094", "is_disabled": 0, "rental_uris": {"android": "https://dc.lft.to/lastmile_qr_scan", "ios": "https://dc.lft.to/lastmile_qr_scan"}, "type": "electric_scooter", "lat": 38.915486, "is_reserved": 0, "fusion_lat": 0.0}, {"bike_id": "1313c04aae56675650ce8f4c909356ff", "fusion_lon": 0.0, "lon": -77.01842616666667, "name": "1313c04aae56675650ce8f4c909356ff", "is_disabled": 0, "rental_uris": {"android": "https://dc.lft.to/lastmile_qr_scan", "ios": "https://dc.lft.to/lastmile_qr_scan"}, "type": "electric_scooter", "lat": 38.87708683333334, "is_reserved": 0, "fusion_lat": 0.0}, {"bike_id": "63ae2d05b1c445a0a68abef2f9c53e2e", "fusion_lon": 0.0, "lon": -77.02461816666667, "name": "63ae2d05b1c445a0a68abef2f9c53e2e", "is_disabled": 0, "rental_uris": {"android": "https://dc.lft.to/lastmile_qr_scan", "ios": "https://dc.lft.to/lastmile_qr_scan"}, "type": "electric_scooter", "lat": 38.90341033333333, "is_reserved": 0, "fusion_lat": 0.0}, {"bike_id": "78ef58508d14e8b1a43e29f0b527ad5d", "fusion_lon": 0.0, "lon": -77.02807333333334, "name": "78ef58508d14e8b1a43e29f0b527ad5d", "is_disabled": 0, "rental_uris": {"android": "https://dc.lft.to/lastmile_qr_scan", "ios": "https://dc.lft.to/lastmile_qr_scan"}, "type": "electric_scooter", "lat": 38.916811333333335, "is_reserved": 0, "fusion_lat": 0.0}, {"bike_id": "07dff701a538ddf8107be09b9cd6862d", "fusion_lon": 0.0, "lon": -77.04405533333333, "name": "07dff701a538ddf8107be09b9cd6862d", "is_disabled": 0, "rental_uris": {"android": "https://dc.lft.to/lastmile_qr_scan", "ios": "https://dc.lft.to/lastmile_qr_scan"}, "type": "electric_scooter", "lat": 38.910851666666666, "is_reserved": 0, "fusion_lat": 0.0}, {"bike_id": "d626f86ccc8d2779ea88dd662bbea205", "fusion_lon": 0.0, "lon": -77.05896083333333, "name": "d626f86ccc8d2779ea88dd662bbea205", "is_disabled": 0, "rental_uris": {"android": "https://dc.lft.to/lastmile_qr_scan", "ios": "https://dc.lft.to/lastmile_qr_scan"}, "type": "electric_scooter", "lat": 38.93604633333333, "is_reserved": 0, "fusion_lat": 0.0}, {"bike_id": "24e42c1fcb69a5dec28a25cbb48266e9", "fusion_lon": 0.0, "lon": -77.08598333333333, "name": "24e42c1fcb69a5dec28a25cbb48266e9", "is_disabled": 0, "rental_uris": {"android": "https://dc.lft.to/lastmile_qr_scan", "ios": "https://dc.lft.to/lastmile_qr_scan"}, "type": "electric_scooter", "lat": 38.9085965, "is_reserved": 0, "fusion_lat": 0.0}, {"bike_id": "6d94a51c61e2852680f2c3e2778173e2", "fusion_lon": 0.0, "lon": -77.02212033333333, "name": "6d94a51c61e2852680f2c3e2778173e2", "is_disabled": 0, "rental_uris": {"android": "https://dc.lft.to/lastmile_qr_scan", "ios": "https://dc.lft.to/lastmile_qr_scan"}, "type": "electric_scooter", "lat": 38.915623333333336, "is_reserved": 0, "fusion_lat": 0.0}, {"bike_id": "e3e8f117205de61f19621e076f36d95a", "fusion_lon": 0.0, "lon": -77.04338066666666, "name": "e3e8f117205de61f19621e076f36d95a", "is_disabled": 0, "rental_uris": {"android": "https://dc.lft.to/lastmile_qr_scan", "ios": "https://dc.lft.to/lastmile_qr_scan"}, "type": "electric_scooter", "lat": 38.89527183333333, "is_reserved": 0, "fusion_lat": 0.0}, {"bike_id": "8fbae8ade8c06aa6f803e55e13947dec", "fusion_lon": 0.0, "lon": -76.996006, "name": "8fbae8ade8c06aa6f803e55e13947dec", "is_disabled": 0, "rental_uris": {"android": "https://dc.lft.to/lastmile_qr_scan", "ios": "https://dc.lft.to/lastmile_qr_scan"}, "type": "electric_bike", "lat": 38.950694, "is_reserved": 0, "fusion_lat": 0.0}, {"bike_id": "ba2d5787dbe5539eab0e308a7a603399", "fusion_lon": 0.0, "lon": -76.964675, "name": "ba2d5787dbe5539eab0e308a7a603399", "is_disabled": 0, "rental_uris": {"android": "https://dc.lft.to/lastmile_qr_scan", "ios": "https://dc.lft.to/lastmile_qr_scan"}, "type": "electric_scooter", "lat": 38.934483, "is_reserved": 0, "fusion_lat": 0.0}, {"bike_id": "1c2fedd91a91fe9e5da889bd2942854f", "fusion_lon": 0.0, "lon": -76.99518966666666, "name": "1c2fedd91a91fe9e5da889bd2942854f", "is_disabled": 0, "rental_uris": {"android": "https://dc.lft.to/lastmile_qr_scan", "ios": "https://dc.lft.to/lastmile_qr_scan"}, "type": "electric_scooter", "lat": 38.909817833333335, "is_reserved": 0, "fusion_lat": 0.0}, {"bike_id": "09a9058e88c175e6894e4c967b572501", "fusion_lon": 0.0, "lon": -77.03168216666667, "name": "09a9058e88c175e6894e4c967b572501", "is_disabled": 0, "rental_uris": {"android": "https://dc.lft.to/lastmile_qr_scan", "ios": "https://dc.lft.to/lastmile_qr_scan"}, "type": "electric_scooter", "lat": 38.8922145, "is_reserved": 0, "fusion_lat": 0.0}, {"bike_id": "bc3308f024807cf5b0cf6e2b5fc58a50", "fusion_lon": 0.0, "lon": -77.03087266666667, "name": "bc3308f024807cf5b0cf6e2b5fc58a50", "is_disabled": 0, "rental_uris": {"android": "https://dc.lft.to/lastmile_qr_scan", "ios": "https://dc.lft.to/lastmile_qr_scan"}, "type": "electric_bike", "lat": 38.933205, "is_reserved": 0, "fusion_lat": 0.0}, {"bike_id": "35a3ae71e29e3b57653dd421d2d83c8b", "fusion_lon": 0.0, "lon": -77.03865966666666, "name": "35a3ae71e29e3b57653dd421d2d83c8b", "is_disabled": 0, "rental_uris": {"android": "https://dc.lft.to/lastmile_qr_scan", "ios": "https://dc.lft.to/lastmile_qr_scan"}, "type": "electric_scooter", "lat": 38.90779083333334, "is_reserved": 0, "fusion_lat": 0.0}, {"bike_id": "1d19e79b7146308751714f59f600808c", "fusion_lon": 0.0, "lon": -77.03216033333334, "name": "1d19e79b7146308751714f59f600808c", "is_disabled": 0, "rental_uris": {"android": "https://dc.lft.to/lastmile_qr_scan", "ios": "https://dc.lft.to/lastmile_qr_scan"}, "type": "electric_scooter", "lat": 38.909486333333334, "is_reserved": 0, "fusion_lat": 0.0}, {"bike_id": "4d2af8d18d8aaaba91c90b9e7c25620a", "fusion_lon": 0.0, "lon": -77.003711, "name": "4d2af8d18d8aaaba91c90b9e7c25620a", "is_disabled": 0, "rental_uris": {"android": "https://dc.lft.to/lastmile_qr_scan", "ios": "https://dc.lft.to/lastmile_qr_scan"}, "type": "electric_scooter", "lat": 38.88265916666667, "is_reserved": 0, "fusion_lat": 0.0}, {"bike_id": "ef09e988bd5a556f8738c1544c6c1c90", "fusion_lon": 0.0, "lon": -77.0066125, "name": "ef09e988bd5a556f8738c1544c6c1c90", "is_disabled": 0, "rental_uris": {"android": "https://dc.lft.to/lastmile_qr_scan", "ios": "https://dc.lft.to/lastmile_qr_scan"}, "type": "electric_scooter", "lat": 38.94464466666667, "is_reserved": 0, "fusion_lat": 0.0}, {"bike_id": "802e582f6f0a0f81550c8533a81ba09c", "fusion_lon": 0.0, "lon": -77.11708833333333, "name": "802e582f6f0a0f81550c8533a81ba09c", "is_disabled": 0, "rental_uris": {"android": "https://dc.lft.to/lastmile_qr_scan", "ios": "https://dc.lft.to/lastmile_qr_scan"}, "type": "electric_bike", "lat": 38.86746566666667, "is_reserved": 0, "fusion_lat": 0.0}, {"bike_id": "547301d57063760d10053aa98d16adc8", "fusion_lon": 0.0, "lon": -76.98844733333334, "name": "547301d57063760d10053aa98d16adc8", "is_disabled": 0, "rental_uris": {"android": "https://dc.lft.to/lastmile_qr_scan", "ios": "https://dc.lft.to/lastmile_qr_scan"}, "type": "electric_bike", "lat": 38.842747, "is_reserved": 0, "fusion_lat": 0.0}, {"bike_id": "0550d1d34b475fd3564e3ce2194bd5d3", "fusion_lon": 0.0, "lon": -77.03678816666667, "name": "0550d1d34b475fd3564e3ce2194bd5d3", "is_disabled": 0, "rental_uris": {"android": "https://dc.lft.to/lastmile_qr_scan", "ios": "https://dc.lft.to/lastmile_qr_scan"}, "type": "electric_scooter", "lat": 38.91711466666667, "is_reserved": 0, "fusion_lat": 0.0}, {"bike_id": "30e0f589b7bce46245d9d3a01214a8d4", "fusion_lon": 0.0, "lon": -77.027229, "name": "30e0f589b7bce46245d9d3a01214a8d4", "is_disabled": 0, "rental_uris": {"android": "https://dc.lft.to/lastmile_qr_scan", "ios": "https://dc.lft.to/lastmile_qr_scan"}, "type": "electric_scooter", "lat": 38.9495535, "is_reserved": 0, "fusion_lat": 0.0}, {"bike_id": "f95a444d7d8d901580781d7734c8267d", "fusion_lon": 0.0, "lon": -77.01306616666666, "name": "f95a444d7d8d901580781d7734c8267d", "is_disabled": 0, "rental_uris": {"android": "https://dc.lft.to/lastmile_qr_scan", "ios": "https://dc.lft.to/lastmile_qr_scan"}, "type": "electric_scooter", "lat": 38.900501166666665, "is_reserved": 0, "fusion_lat": 0.0}, {"bike_id": "6f8a31627e23ddb68703deeb040bb4dd", "fusion_lon": 0.0, "lon": -77.02296383333334, "name": "6f8a31627e23ddb68703deeb040bb4dd", "is_disabled": 0, "rental_uris": {"android": "https://dc.lft.to/lastmile_qr_scan", "ios": "https://dc.lft.to/lastmile_qr_scan"}, "type": "electric_scooter", "lat": 38.92754033333333, "is_reserved": 0, "fusion_lat": 0.0}, {"bike_id": "dcf16d650d00c9cc98588658ff820f27", "fusion_lon": 0.0, "lon": -77.02325316666666, "name": "dcf16d650d00c9cc98588658ff820f27", "is_disabled": 0, "rental_uris": {"android": "https://dc.lft.to/lastmile_qr_scan", "ios": "https://dc.lft.to/lastmile_qr_scan"}, "type": "electric_scooter", "lat": 38.929321333333334, "is_reserved": 0, "fusion_lat": 0.0}, {"bike_id": "e623e12880a58765653224b0701ab308", "fusion_lon": 0.0, "lon": -77.0502755, "name": "e623e12880a58765653224b0701ab308", "is_disabled": 0, "rental_uris": {"android": "https://dc.lft.to/lastmile_qr_scan", "ios": "https://dc.lft.to/lastmile_qr_scan"}, "type": "electric_scooter", "lat": 38.906389833333336, "is_reserved": 0, "fusion_lat": 0.0}, {"bike_id": "f1270cab5750fcffd921b018243179af", "fusion_lon": 0.0, "lon": -77.05145916666666, "name": "f1270cab5750fcffd921b018243179af", "is_disabled": 0, "rental_uris": {"android": "https://dc.lft.to/lastmile_qr_scan", "ios": "https://dc.lft.to/lastmile_qr_scan"}, "type": "electric_scooter", "lat": 38.905286833333335, "is_reserved": 0, "fusion_lat": 0.0}, {"bike_id": "bbb49165be6132c52dc678a3221a086d", "fusion_lon": 0.0, "lon": -77.03106266666667, "name": "bbb49165be6132c52dc678a3221a086d", "is_disabled": 0, "rental_uris": {"android": "https://dc.lft.to/lastmile_qr_scan", "ios": "https://dc.lft.to/lastmile_qr_scan"}, "type": "electric_scooter", "lat": 38.946489666666665, "is_reserved": 0, "fusion_lat": 0.0}, {"bike_id": "11a9dcbf019a998b850041fe4b316d17", "fusion_lon": 0.0, "lon": -77.02632466666667, "name": "11a9dcbf019a998b850041fe4b316d17", "is_disabled": 0, "rental_uris": {"android": "https://dc.lft.to/lastmile_qr_scan", "ios": "https://dc.lft.to/lastmile_qr_scan"}, "type": "electric_scooter", "lat": 38.92805333333333, "is_reserved": 0, "fusion_lat": 0.0}, {"bike_id": "4bc9d757faab77876851c99f8810fa50", "fusion_lon": 0.0, "lon": -76.98983216666667, "name": "4bc9d757faab77876851c99f8810fa50", "is_disabled": 0, "rental_uris": {"android": "https://dc.lft.to/lastmile_qr_scan", "ios": "https://dc.lft.to/lastmile_qr_scan"}, "type": "electric_scooter", "lat": 38.86499083333333, "is_reserved": 0, "fusion_lat": 0.0}, {"bike_id": "40e5d886347a134f64fe62d5226f685f", "fusion_lon": 0.0, "lon": -77.02209116666667, "name": "40e5d886347a134f64fe62d5226f685f", "is_disabled": 0, "rental_uris": {"android": "https://dc.lft.to/lastmile_qr_scan", "ios": "https://dc.lft.to/lastmile_qr_scan"}, "type": "electric_scooter", "lat": 38.902018, "is_reserved": 0, "fusion_lat": 0.0}, {"bike_id": "9e3d79861f03b251345debb66bef1ede", "fusion_lon": 0.0, "lon": -77.03866966666666, "name": "9e3d79861f03b251345debb66bef1ede", "is_disabled": 0, "rental_uris": {"android": "https://dc.lft.to/lastmile_qr_scan", "ios": "https://dc.lft.to/lastmile_qr_scan"}, "type": "electric_scooter", "lat": 38.93249316666667, "is_reserved": 0, "fusion_lat": 0.0}, {"bike_id": "89dfe875d9ac0b46d4e550f0619c24a2", "fusion_lon": 0.0, "lon": -77.04024766666667, "name": "89dfe875d9ac0b46d4e550f0619c24a2", "is_disabled": 0, "rental_uris": {"android": "https://dc.lft.to/lastmile_qr_scan", "ios": "https://dc.lft.to/lastmile_qr_scan"}, "type": "electric_scooter", "lat": 38.921668333333336, "is_reserved": 0, "fusion_lat": 0.0}, {"bike_id": "e1ced5b3896c690ddd5e9d27d42bbfa8", "fusion_lon": 0.0, "lon": -76.9951575, "name": "e1ced5b3896c690ddd5e9d27d42bbfa8", "is_disabled": 0, "rental_uris": {"android": "https://dc.lft.to/lastmile_qr_scan", "ios": "https://dc.lft.to/lastmile_qr_scan"}, "type": "electric_scooter", "lat": 38.862556166666664, "is_reserved": 0, "fusion_lat": 0.0}, {"bike_id": "dd657544d3cf379fb83e0f486292297a", "fusion_lon": 0.0, "lon": -77.00214833333334, "name": "dd657544d3cf379fb83e0f486292297a", "is_disabled": 0, "rental_uris": {"android": "https://dc.lft.to/lastmile_qr_scan", "ios": "https://dc.lft.to/lastmile_qr_scan"}, "type": "electric_scooter", "lat": 38.920439333333334, "is_reserved": 0, "fusion_lat": 0.0}, {"bike_id": "9893a9001ca33c139028e45995559006", "fusion_lon": 0.0, "lon": -77.04975933333333, "name": "9893a9001ca33c139028e45995559006", "is_disabled": 0, "rental_uris": {"android": "https://dc.lft.to/lastmile_qr_scan", "ios": "https://dc.lft.to/lastmile_qr_scan"}, "type": "electric_bike", "lat": 38.832206166666666, "is_reserved": 0, "fusion_lat": 0.0}, {"bike_id": "4902b9d3ee24ea751b68ca7721db0bc2", "fusion_lon": 0.0, "lon": -77.00112966666667, "name": "4902b9d3ee24ea751b68ca7721db0bc2", "is_disabled": 0, "rental_uris": {"android": "https://dc.lft.to/lastmile_qr_scan", "ios": "https://dc.lft.to/lastmile_qr_scan"}, "type": "electric_scooter", "lat": 38.8780215, "is_reserved": 0, "fusion_lat": 0.0}, {"bike_id": "23e944eaf83a8588b8e95a06762df637", "fusion_lon": 0.0, "lon": -77.0122395, "name": "23e944eaf83a8588b8e95a06762df637", "is_disabled": 0, "rental_uris": {"android": "https://dc.lft.to/lastmile_qr_scan", "ios": "https://dc.lft.to/lastmile_qr_scan"}, "type": "electric_scooter", "lat": 38.915323, "is_reserved": 0, "fusion_lat": 0.0}, {"bike_id": "56fd00c55b62734eaa39a51fa58054bd", "fusion_lon": 0.0, "lon": -77.03583316666666, "name": "56fd00c55b62734eaa39a51fa58054bd", "is_disabled": 0, "rental_uris": {"android": "https://dc.lft.to/lastmile_qr_scan", "ios": "https://dc.lft.to/lastmile_qr_scan"}, "type": "electric_scooter", "lat": 38.93475566666667, "is_reserved": 0, "fusion_lat": 0.0}, {"bike_id": "a6147a69598d6ba78244fabea78c7c25", "fusion_lon": 0.0, "lon": -77.036713, "name": "a6147a69598d6ba78244fabea78c7c25", "is_disabled": 0, "rental_uris": {"android": "https://dc.lft.to/lastmile_qr_scan", "ios": "https://dc.lft.to/lastmile_qr_scan"}, "type": "electric_scooter", "lat": 38.93087966666667, "is_reserved": 0, "fusion_lat": 0.0}, {"bike_id": "fded633c69a720f880585b9641d4e48c", "fusion_lon": 0.0, "lon": -77.02684966666666, "name": "fded633c69a720f880585b9641d4e48c", "is_disabled": 0, "rental_uris": {"android": "https://dc.lft.to/lastmile_qr_scan", "ios": "https://dc.lft.to/lastmile_qr_scan"}, "type": "electric_scooter", "lat": 38.9126935, "is_reserved": 0, "fusion_lat": 0.0}, {"bike_id": "cebf513695e9eb9ee5cb8e6e11c9b532", "fusion_lon": 0.0, "lon": -77.02166433333333, "name": "cebf513695e9eb9ee5cb8e6e11c9b532", "is_disabled": 0, "rental_uris": {"android": "https://dc.lft.to/lastmile_qr_scan", "ios": "https://dc.lft.to/lastmile_qr_scan"}, "type": "electric_scooter", "lat": 38.899046166666665, "is_reserved": 0, "fusion_lat": 0.0}, {"bike_id": "27b24c41fe2d3bd73457c7abff1a0992", "fusion_lon": 0.0, "lon": -77.023332, "name": "27b24c41fe2d3bd73457c7abff1a0992", "is_disabled": 0, "rental_uris": {"android": "https://dc.lft.to/lastmile_qr_scan", "ios": "https://dc.lft.to/lastmile_qr_scan"}, "type": "electric_scooter", "lat": 38.927074833333336, "is_reserved": 0, "fusion_lat": 0.0}, {"bike_id": "50a84b0dcada84d37ce3c422d349b839", "fusion_lon": 0.0, "lon": -76.99085433333333, "name": "50a84b0dcada84d37ce3c422d349b839", "is_disabled": 0, "rental_uris": {"android": "https://dc.lft.to/lastmile_qr_scan", "ios": "https://dc.lft.to/lastmile_qr_scan"}, "type": "electric_scooter", "lat": 38.929555666666666, "is_reserved": 0, "fusion_lat": 0.0}, {"bike_id": "26f42640c26c80d243e443a350facd89", "fusion_lon": 0.0, "lon": -77.0165635, "name": "26f42640c26c80d243e443a350facd89", "is_disabled": 0, "rental_uris": {"android": "https://dc.lft.to/lastmile_qr_scan", "ios": "https://dc.lft.to/lastmile_qr_scan"}, "type": "electric_scooter", "lat": 38.9158925, "is_reserved": 0, "fusion_lat": 0.0}, {"bike_id": "eea0a92f31cfc2be3b135164a6773881", "fusion_lon": 0.0, "lon": -77.03507466666667, "name": "eea0a92f31cfc2be3b135164a6773881", "is_disabled": 0, "rental_uris": {"android": "https://dc.lft.to/lastmile_qr_scan", "ios": "https://dc.lft.to/lastmile_qr_scan"}, "type": "electric_scooter", "lat": 38.926395, "is_reserved": 0, "fusion_lat": 0.0}, {"bike_id": "b49481ede279c208d847718d1e17e943", "fusion_lon": 0.0, "lon": -77.041896, "name": "b49481ede279c208d847718d1e17e943", "is_disabled": 0, "rental_uris": {"android": "https://dc.lft.to/lastmile_qr_scan", "ios": "https://dc.lft.to/lastmile_qr_scan"}, "type": "electric_scooter", "lat": 38.92054566666667, "is_reserved": 0, "fusion_lat": 0.0}, {"bike_id": "90c4e488a8a4be673dfda0900a360850", "fusion_lon": 0.0, "lon": -77.01799583333333, "name": "90c4e488a8a4be673dfda0900a360850", "is_disabled": 0, "rental_uris": {"android": "https://dc.lft.to/lastmile_qr_scan", "ios": "https://dc.lft.to/lastmile_qr_scan"}, "type": "electric_scooter", "lat": 38.90827916666667, "is_reserved": 0, "fusion_lat": 0.0}, {"bike_id": "88f3f41d2b65232e35b66826a210ab95", "fusion_lon": 0.0, "lon": -77.03472933333333, "name": "88f3f41d2b65232e35b66826a210ab95", "is_disabled": 0, "rental_uris": {"android": "https://dc.lft.to/lastmile_qr_scan", "ios": "https://dc.lft.to/lastmile_qr_scan"}, "type": "electric_scooter", "lat": 38.907607166666665, "is_reserved": 0, "fusion_lat": 0.0}, {"bike_id": "1f1cd32ac9b2709ca6de8beb7d24821f", "fusion_lon": 0.0, "lon": -77.00966366666667, "name": "1f1cd32ac9b2709ca6de8beb7d24821f", "is_disabled": 0, "rental_uris": {"android": "https://dc.lft.to/lastmile_qr_scan", "ios": "https://dc.lft.to/lastmile_qr_scan"}, "type": "electric_scooter", "lat": 38.912631166666664, "is_reserved": 0, "fusion_lat": 0.0}, {"bike_id": "76e9f2530a2d52333e470b7ed16624fa", "fusion_lon": 0.0, "lon": -77.03340466666667, "name": "76e9f2530a2d52333e470b7ed16624fa", "is_disabled": 0, "rental_uris": {"android": "https://dc.lft.to/lastmile_qr_scan", "ios": "https://dc.lft.to/lastmile_qr_scan"}, "type": "electric_scooter", "lat": 38.898410166666665, "is_reserved": 0, "fusion_lat": 0.0}, {"bike_id": "feb42dbe3377e0c6150a5acec8018629", "fusion_lon": 0.0, "lon": -77.03462033333334, "name": "feb42dbe3377e0c6150a5acec8018629", "is_disabled": 0, "rental_uris": {"android": "https://dc.lft.to/lastmile_qr_scan", "ios": "https://dc.lft.to/lastmile_qr_scan"}, "type": "electric_scooter", "lat": 38.935432666666664, "is_reserved": 0, "fusion_lat": 0.0}, {"bike_id": "40d67a65a03543b83317c00b2261832f", "fusion_lon": 0.0, "lon": -77.0281745, "name": "40d67a65a03543b83317c00b2261832f", "is_disabled": 0, "rental_uris": {"android": "https://dc.lft.to/lastmile_qr_scan", "ios": "https://dc.lft.to/lastmile_qr_scan"}, "type": "electric_scooter", "lat": 38.8948785, "is_reserved": 0, "fusion_lat": 0.0}, {"bike_id": "efb54e816afa04c4a38b68d6bff8ef2d", "fusion_lon": 0.0, "lon": -77.03159483333333, "name": "efb54e816afa04c4a38b68d6bff8ef2d", "is_disabled": 0, "rental_uris": {"android": "https://dc.lft.to/lastmile_qr_scan", "ios": "https://dc.lft.to/lastmile_qr_scan"}, "type": "electric_scooter", "lat": 38.89223766666667, "is_reserved": 0, "fusion_lat": 0.0}, {"bike_id": "da4a087c08bf3193222e30bad51f677a", "fusion_lon": 0.0, "lon": -77.06519466666667, "name": "da4a087c08bf3193222e30bad51f677a", "is_disabled": 0, "rental_uris": {"android": "https://dc.lft.to/lastmile_qr_scan", "ios": "https://dc.lft.to/lastmile_qr_scan"}, "type": "electric_scooter", "lat": 38.905848166666665, "is_reserved": 0, "fusion_lat": 0.0}, {"bike_id": "40ee866dc534aafe4216e927d9747961", "fusion_lon": 0.0, "lon": -76.99360966666667, "name": "40ee866dc534aafe4216e927d9747961", "is_disabled": 0, "rental_uris": {"android": "https://dc.lft.to/lastmile_qr_scan", "ios": "https://dc.lft.to/lastmile_qr_scan"}, "type": "electric_scooter", "lat": 38.9283745, "is_reserved": 0, "fusion_lat": 0.0}, {"bike_id": "71347db2bafe156cb2e8dfcfcde0cda1", "fusion_lon": 0.0, "lon": -77.04132866666667, "name": "71347db2bafe156cb2e8dfcfcde0cda1", "is_disabled": 0, "rental_uris": {"android": "https://dc.lft.to/lastmile_qr_scan", "ios": "https://dc.lft.to/lastmile_qr_scan"}, "type": "electric_scooter", "lat": 38.93367966666667, "is_reserved": 0, "fusion_lat": 0.0}, {"bike_id": "667eb8051f2f40c88a2e9ca5c4667009", "fusion_lon": 0.0, "lon": -77.0353965, "name": "667eb8051f2f40c88a2e9ca5c4667009", "is_disabled": 0, "rental_uris": {"android": "https://dc.lft.to/lastmile_qr_scan", "ios": "https://dc.lft.to/lastmile_qr_scan"}, "type": "electric_scooter", "lat": 38.92467833333333, "is_reserved": 0, "fusion_lat": 0.0}, {"bike_id": "2f81e0678ddafc2cacfba84723611fc3", "fusion_lon": 0.0, "lon": -77.05862183333333, "name": "2f81e0678ddafc2cacfba84723611fc3", "is_disabled": 0, "rental_uris": {"android": "https://dc.lft.to/lastmile_qr_scan", "ios": "https://dc.lft.to/lastmile_qr_scan"}, "type": "electric_scooter", "lat": 38.936023, "is_reserved": 0, "fusion_lat": 0.0}, {"bike_id": "075d20ed4705ea5ecaae8f303a98173b", "fusion_lon": 0.0, "lon": -77.03884366666666, "name": "075d20ed4705ea5ecaae8f303a98173b", "is_disabled": 0, "rental_uris": {"android": "https://dc.lft.to/lastmile_qr_scan", "ios": "https://dc.lft.to/lastmile_qr_scan"}, "type": "electric_scooter", "lat": 38.931202666666664, "is_reserved": 0, "fusion_lat": 0.0}, {"bike_id": "27df37e14a67c46cd071c7a323e5e435", "fusion_lon": 0.0, "lon": -77.02985533333333, "name": "27df37e14a67c46cd071c7a323e5e435", "is_disabled": 0, "rental_uris": {"android": "https://dc.lft.to/lastmile_qr_scan", "ios": "https://dc.lft.to/lastmile_qr_scan"}, "type": "electric_scooter", "lat": 38.934449666666666, "is_reserved": 0, "fusion_lat": 0.0}, {"bike_id": "349b0e684fb7e1b238c26ce7dd9461b4", "fusion_lon": 0.0, "lon": -77.027078, "name": "349b0e684fb7e1b238c26ce7dd9461b4", "is_disabled": 0, "rental_uris": {"android": "https://dc.lft.to/lastmile_qr_scan", "ios": "https://dc.lft.to/lastmile_qr_scan"}, "type": "electric_scooter", "lat": 38.90664433333333, "is_reserved": 0, "fusion_lat": 0.0}, {"bike_id": "2ad077833ab96fbc9608b11dbe5b7671", "fusion_lon": 0.0, "lon": -77.07724133333333, "name": "2ad077833ab96fbc9608b11dbe5b7671", "is_disabled": 0, "rental_uris": {"android": "https://dc.lft.to/lastmile_qr_scan", "ios": "https://dc.lft.to/lastmile_qr_scan"}, "type": "electric_scooter", "lat": 38.95767633333333, "is_reserved": 0, "fusion_lat": 0.0}, {"bike_id": "e23d51245ca35fe0fce7cb0033f928cf", "fusion_lon": 0.0, "lon": -77.023491, "name": "e23d51245ca35fe0fce7cb0033f928cf", "is_disabled": 0, "rental_uris": {"android": "https://dc.lft.to/lastmile_qr_scan", "ios": "https://dc.lft.to/lastmile_qr_scan"}, "type": "electric_scooter", "lat": 38.9461225, "is_reserved": 0, "fusion_lat": 0.0}, {"bike_id": "c796ab2eca8e72c910f23db67ef07392", "fusion_lon": 0.0, "lon": -76.98845483333334, "name": "c796ab2eca8e72c910f23db67ef07392", "is_disabled": 0, "rental_uris": {"android": "https://dc.lft.to/lastmile_qr_scan", "ios": "https://dc.lft.to/lastmile_qr_scan"}, "type": "electric_scooter", "lat": 38.892551, "is_reserved": 0, "fusion_lat": 0.0}, {"bike_id": "5d99e7f69eec8a51b4f39a43adc6dc3c", "fusion_lon": 0.0, "lon": -77.0326345, "name": "5d99e7f69eec8a51b4f39a43adc6dc3c", "is_disabled": 0, "rental_uris": {"android": "https://dc.lft.to/lastmile_qr_scan", "ios": "https://dc.lft.to/lastmile_qr_scan"}, "type": "electric_scooter", "lat": 38.91409783333334, "is_reserved": 0, "fusion_lat": 0.0}, {"bike_id": "516b32bcce93a64abaa6aa74895b70fc", "fusion_lon": 0.0, "lon": -77.02488966666667, "name": "516b32bcce93a64abaa6aa74895b70fc", "is_disabled": 0, "rental_uris": {"android": "https://dc.lft.to/lastmile_qr_scan", "ios": "https://dc.lft.to/lastmile_qr_scan"}, "type": "electric_scooter", "lat": 38.904031, "is_reserved": 0, "fusion_lat": 0.0}, {"bike_id": "bdcc7cd5b3e6edf449e4ccf32d0d4045", "fusion_lon": 0.0, "lon": -76.98717383333333, "name": "bdcc7cd5b3e6edf449e4ccf32d0d4045", "is_disabled": 0, "rental_uris": {"android": "https://dc.lft.to/lastmile_qr_scan", "ios": "https://dc.lft.to/lastmile_qr_scan"}, "type": "electric_scooter", "lat": 38.866967, "is_reserved": 0, "fusion_lat": 0.0}, {"bike_id": "599d1d2efbe198fad2edfa6f48672f34", "fusion_lon": 0.0, "lon": -77.0210235, "name": "599d1d2efbe198fad2edfa6f48672f34", "is_disabled": 0, "rental_uris": {"android": "https://dc.lft.to/lastmile_qr_scan", "ios": "https://dc.lft.to/lastmile_qr_scan"}, "type": "electric_scooter", "lat": 38.931136333333335, "is_reserved": 0, "fusion_lat": 0.0}, {"bike_id": "e081c633f40932cb77bf08f421129da3", "fusion_lon": 0.0, "lon": -77.039181, "name": "e081c633f40932cb77bf08f421129da3", "is_disabled": 0, "rental_uris": {"android": "https://dc.lft.to/lastmile_qr_scan", "ios": "https://dc.lft.to/lastmile_qr_scan"}, "type": "electric_scooter", "lat": 38.924715666666664, "is_reserved": 0, "fusion_lat": 0.0}, {"bike_id": "95f2d489cadbb7cff7133cdc3f4e3967", "fusion_lon": 0.0, "lon": -77.014595, "name": "95f2d489cadbb7cff7133cdc3f4e3967", "is_disabled": 0, "rental_uris": {"android": "https://dc.lft.to/lastmile_qr_scan", "ios": "https://dc.lft.to/lastmile_qr_scan"}, "type": "electric_scooter", "lat": 38.9182105, "is_reserved": 0, "fusion_lat": 0.0}, {"bike_id": "6101a1cfb473bc5107125cfd703d455e", "fusion_lon": 0.0, "lon": -76.98997916666667, "name": "6101a1cfb473bc5107125cfd703d455e", "is_disabled": 0, "rental_uris": {"android": "https://dc.lft.to/lastmile_qr_scan", "ios": "https://dc.lft.to/lastmile_qr_scan"}, "type": "electric_scooter", "lat": 38.92451166666667, "is_reserved": 0, "fusion_lat": 0.0}, {"bike_id": "6b3ebbc80e25a752a5b84dded7d6f28a", "fusion_lon": 0.0, "lon": -77.13095883333334, "name": "6b3ebbc80e25a752a5b84dded7d6f28a", "is_disabled": 0, "rental_uris": {"android": "https://dc.lft.to/lastmile_qr_scan", "ios": "https://dc.lft.to/lastmile_qr_scan"}, "type": "electric_bike", "lat": 39.024308166666664, "is_reserved": 0, "fusion_lat": 0.0}, {"bike_id": "b349d543afa64e79e80f95cb8cbf1030", "fusion_lon": 0.0, "lon": -77.0275435, "name": "b349d543afa64e79e80f95cb8cbf1030", "is_disabled": 0, "rental_uris": {"android": "https://dc.lft.to/lastmile_qr_scan", "ios": "https://dc.lft.to/lastmile_qr_scan"}, "type": "electric_scooter", "lat": 38.9516525, "is_reserved": 0, "fusion_lat": 0.0}, {"bike_id": "1457440502fdddd5a8e95020fa61f74a", "fusion_lon": 0.0, "lon": -76.94752116666666, "name": "1457440502fdddd5a8e95020fa61f74a", "is_disabled": 0, "rental_uris": {"android": "https://dc.lft.to/lastmile_qr_scan", "ios": "https://dc.lft.to/lastmile_qr_scan"}, "type": "electric_scooter", "lat": 38.896760666666665, "is_reserved": 0, "fusion_lat": 0.0}, {"bike_id": "8169e0223d5ddf63d53f224913eac0c7", "fusion_lon": 0.0, "lon": -77.09491166666666, "name": "8169e0223d5ddf63d53f224913eac0c7", "is_disabled": 0, "rental_uris": {"android": "https://dc.lft.to/lastmile_qr_scan", "ios": "https://dc.lft.to/lastmile_qr_scan"}, "type": "electric_bike", "lat": 39.03046666666667, "is_reserved": 0, "fusion_lat": 0.0}, {"bike_id": "2013b87bcd0306fea8ddf64dffb5ea4e", "fusion_lon": 0.0, "lon": -77.06079666666666, "name": "2013b87bcd0306fea8ddf64dffb5ea4e", "is_disabled": 0, "rental_uris": {"android": "https://dc.lft.to/lastmile_qr_scan", "ios": "https://dc.lft.to/lastmile_qr_scan"}, "type": "electric_bike", "lat": 38.885798333333334, "is_reserved": 0, "fusion_lat": 0.0}, {"bike_id": "3a5bbf2c09fffc69625a865a652de2a8", "fusion_lon": 0.0, "lon": -77.020921, "name": "3a5bbf2c09fffc69625a865a652de2a8", "is_disabled": 0, "rental_uris": {"android": "https://dc.lft.to/lastmile_qr_scan", "ios": "https://dc.lft.to/lastmile_qr_scan"}, "type": "electric_bike", "lat": 38.94109516666666, "is_reserved": 0, "fusion_lat": 0.0}, {"bike_id": "de8b5629bafd5c15f97388c48121568a", "fusion_lon": 0.0, "lon": -77.03369133333334, "name": "de8b5629bafd5c15f97388c48121568a", "is_disabled": 0, "rental_uris": {"android": "https://dc.lft.to/lastmile_qr_scan", "ios": "https://dc.lft.to/lastmile_qr_scan"}, "type": "electric_scooter", "lat": 38.932239833333334, "is_reserved": 0, "fusion_lat": 0.0}, {"bike_id": "20229041df5fde855106e76e82b23753", "fusion_lon": 0.0, "lon": -77.0318965, "name": "20229041df5fde855106e76e82b23753", "is_disabled": 0, "rental_uris": {"android": "https://dc.lft.to/lastmile_qr_scan", "ios": "https://dc.lft.to/lastmile_qr_scan"}, "type": "electric_scooter", "lat": 38.91583283333333, "is_reserved": 0, "fusion_lat": 0.0}, {"bike_id": "a2668815d98590ec0ccbd7c1ea572621", "fusion_lon": 0.0, "lon": -77.043316, "name": "a2668815d98590ec0ccbd7c1ea572621", "is_disabled": 0, "rental_uris": {"android": "https://dc.lft.to/lastmile_qr_scan", "ios": "https://dc.lft.to/lastmile_qr_scan"}, "type": "electric_scooter", "lat": 38.907371, "is_reserved": 0, "fusion_lat": 0.0}, {"bike_id": "46a9b6b6a552ae17f123d79bb658fa45", "fusion_lon": 0.0, "lon": -77.0237335, "name": "46a9b6b6a552ae17f123d79bb658fa45", "is_disabled": 0, "rental_uris": {"android": "https://dc.lft.to/lastmile_qr_scan", "ios": "https://dc.lft.to/lastmile_qr_scan"}, "type": "electric_scooter", "lat": 38.91962733333333, "is_reserved": 0, "fusion_lat": 0.0}, {"bike_id": "f27ec324941611fb9878790f2e4e4e2c", "fusion_lon": 0.0, "lon": -77.02784733333333, "name": "f27ec324941611fb9878790f2e4e4e2c", "is_disabled": 0, "rental_uris": {"android": "https://dc.lft.to/lastmile_qr_scan", "ios": "https://dc.lft.to/lastmile_qr_scan"}, "type": "electric_scooter", "lat": 38.93061866666667, "is_reserved": 0, "fusion_lat": 0.0}, {"bike_id": "1079d279d78c1074166ece8de40a2699", "fusion_lon": 0.0, "lon": -77.03215266666666, "name": "1079d279d78c1074166ece8de40a2699", "is_disabled": 0, "rental_uris": {"android": "https://dc.lft.to/lastmile_qr_scan", "ios": "https://dc.lft.to/lastmile_qr_scan"}, "type": "electric_scooter", "lat": 38.91471933333333, "is_reserved": 0, "fusion_lat": 0.0}, {"bike_id": "11be124f36aa09c16c9546ef586a52e7", "fusion_lon": 0.0, "lon": -77.0511365, "name": "11be124f36aa09c16c9546ef586a52e7", "is_disabled": 0, "rental_uris": {"android": "https://dc.lft.to/lastmile_qr_scan", "ios": "https://dc.lft.to/lastmile_qr_scan"}, "type": "electric_scooter", "lat": 38.905311, "is_reserved": 0, "fusion_lat": 0.0}, {"bike_id": "0978ad690753e31918e697ebc0335d43", "fusion_lon": 0.0, "lon": -77.01486633333333, "name": "0978ad690753e31918e697ebc0335d43", "is_disabled": 0, "rental_uris": {"android": "https://dc.lft.to/lastmile_qr_scan", "ios": "https://dc.lft.to/lastmile_qr_scan"}, "type": "electric_scooter", "lat": 38.876281, "is_reserved": 0, "fusion_lat": 0.0}, {"bike_id": "d3fdde55228b3896cf4bc437e9512cdd", "fusion_lon": 0.0, "lon": -77.02709766666666, "name": "d3fdde55228b3896cf4bc437e9512cdd", "is_disabled": 0, "rental_uris": {"android": "https://dc.lft.to/lastmile_qr_scan", "ios": "https://dc.lft.to/lastmile_qr_scan"}, "type": "electric_scooter", "lat": 38.90667233333333, "is_reserved": 0, "fusion_lat": 0.0}, {"bike_id": "6e2d0bd41efe1e758bb427d4dd8f3051", "fusion_lon": 0.0, "lon": -77.0217305, "name": "6e2d0bd41efe1e758bb427d4dd8f3051", "is_disabled": 0, "rental_uris": {"android": "https://dc.lft.to/lastmile_qr_scan", "ios": "https://dc.lft.to/lastmile_qr_scan"}, "type": "electric_scooter", "lat": 38.90962566666666, "is_reserved": 0, "fusion_lat": 0.0}, {"bike_id": "3c984cc8a96160de762d202e4dff376f", "fusion_lon": 0.0, "lon": -77.03662683333333, "name": "3c984cc8a96160de762d202e4dff376f", "is_disabled": 0, "rental_uris": {"android": "https://dc.lft.to/lastmile_qr_scan", "ios": "https://dc.lft.to/lastmile_qr_scan"}, "type": "electric_scooter", "lat": 38.92382883333333, "is_reserved": 0, "fusion_lat": 0.0}, {"bike_id": "9c82733b80b0d01f63e804013592323f", "fusion_lon": 0.0, "lon": -76.99782116666667, "name": "9c82733b80b0d01f63e804013592323f", "is_disabled": 0, "rental_uris": {"android": "https://dc.lft.to/lastmile_qr_scan", "ios": "https://dc.lft.to/lastmile_qr_scan"}, "type": "electric_scooter", "lat": 38.90905683333333, "is_reserved": 0, "fusion_lat": 0.0}, {"bike_id": "3e25730c838d61ab16143b0b0c91b5c3", "fusion_lon": 0.0, "lon": -77.1102015, "name": "3e25730c838d61ab16143b0b0c91b5c3", "is_disabled": 0, "rental_uris": {"android": "https://dc.lft.to/lastmile_qr_scan", "ios": "https://dc.lft.to/lastmile_qr_scan"}, "type": "electric_bike", "lat": 38.84744583333333, "is_reserved": 0, "fusion_lat": 0.0}, {"bike_id": "2e77b6eb6a3f6cf7f1ffa39025edcbbb", "fusion_lon": 0.0, "lon": -76.98458466666666, "name": "2e77b6eb6a3f6cf7f1ffa39025edcbbb", "is_disabled": 0, "rental_uris": {"android": "https://dc.lft.to/lastmile_qr_scan", "ios": "https://dc.lft.to/lastmile_qr_scan"}, "type": "electric_scooter", "lat": 38.88015933333333, "is_reserved": 0, "fusion_lat": 0.0}, {"bike_id": "307c6b0a5dca97ad5103807bea131bd1", "fusion_lon": 0.0, "lon": -77.0270555, "name": "307c6b0a5dca97ad5103807bea131bd1", "is_disabled": 0, "rental_uris": {"android": "https://dc.lft.to/lastmile_qr_scan", "ios": "https://dc.lft.to/lastmile_qr_scan"}, "type": "electric_scooter", "lat": 38.88144883333333, "is_reserved": 0, "fusion_lat": 0.0}, {"bike_id": "abb0e296edb6f967108b9bc00ce2fd8d", "fusion_lon": 0.0, "lon": -77.01781816666667, "name": "abb0e296edb6f967108b9bc00ce2fd8d", "is_disabled": 0, "rental_uris": {"android": "https://dc.lft.to/lastmile_qr_scan", "ios": "https://dc.lft.to/lastmile_qr_scan"}, "type": "electric_scooter", "lat": 38.8871715, "is_reserved": 0, "fusion_lat": 0.0}, {"bike_id": "a9f49c0c8129b2d7b7e3ce6d42005c56", "fusion_lon": 0.0, "lon": -77.05086633333333, "name": "a9f49c0c8129b2d7b7e3ce6d42005c56", "is_disabled": 0, "rental_uris": {"android": "https://dc.lft.to/lastmile_qr_scan", "ios": "https://dc.lft.to/lastmile_qr_scan"}, "type": "electric_bike", "lat": 38.81329866666667, "is_reserved": 0, "fusion_lat": 0.0}, {"bike_id": "e0108ac9cfa6d62b1dfd74ae86cbbcd4", "fusion_lon": 0.0, "lon": -77.0234865, "name": "e0108ac9cfa6d62b1dfd74ae86cbbcd4", "is_disabled": 0, "rental_uris": {"android": "https://dc.lft.to/lastmile_qr_scan", "ios": "https://dc.lft.to/lastmile_qr_scan"}, "type": "electric_scooter", "lat": 38.907238, "is_reserved": 0, "fusion_lat": 0.0}, {"bike_id": "d147cc26871dbd3883cf24f387ce4242", "fusion_lon": 0.0, "lon": -77.11597833333333, "name": "d147cc26871dbd3883cf24f387ce4242", "is_disabled": 0, "rental_uris": {"android": "https://dc.lft.to/lastmile_qr_scan", "ios": "https://dc.lft.to/lastmile_qr_scan"}, "type": "electric_bike", "lat": 39.0749485, "is_reserved": 0, "fusion_lat": 0.0}, {"bike_id": "cf5e18ec0ca2519fbc7efe9b9db16861", "fusion_lon": 0.0, "lon": -76.986391, "name": "cf5e18ec0ca2519fbc7efe9b9db16861", "is_disabled": 0, "rental_uris": {"android": "https://dc.lft.to/lastmile_qr_scan", "ios": "https://dc.lft.to/lastmile_qr_scan"}, "type": "electric_scooter", "lat": 38.88041833333333, "is_reserved": 0, "fusion_lat": 0.0}, {"bike_id": "005491175b7de38b940fc5ecfca8135d", "fusion_lon": 0.0, "lon": -76.9857645, "name": "005491175b7de38b940fc5ecfca8135d", "is_disabled": 0, "rental_uris": {"android": "https://dc.lft.to/lastmile_qr_scan", "ios": "https://dc.lft.to/lastmile_qr_scan"}, "type": "electric_scooter", "lat": 38.90639516666667, "is_reserved": 0, "fusion_lat": 0.0}, {"bike_id": "0b26eb5d4718ac0fdb6b5d371e9b1578", "fusion_lon": 0.0, "lon": -77.05757516666667, "name": "0b26eb5d4718ac0fdb6b5d371e9b1578", "is_disabled": 0, "rental_uris": {"android": "https://dc.lft.to/lastmile_qr_scan", "ios": "https://dc.lft.to/lastmile_qr_scan"}, "type": "electric_scooter", "lat": 38.924693166666664, "is_reserved": 0, "fusion_lat": 0.0}, {"bike_id": "fd0f79ad6f488186c524e046cb0bfe7c", "fusion_lon": 0.0, "lon": -77.0330745, "name": "fd0f79ad6f488186c524e046cb0bfe7c", "is_disabled": 0, "rental_uris": {"android": "https://dc.lft.to/lastmile_qr_scan", "ios": "https://dc.lft.to/lastmile_qr_scan"}, "type": "electric_scooter", "lat": 38.921533333333336, "is_reserved": 0, "fusion_lat": 0.0}, {"bike_id": "7ed3aa5aabf24c615237869d550eefab", "fusion_lon": 0.0, "lon": -77.01768633333333, "name": "7ed3aa5aabf24c615237869d550eefab", "is_disabled": 0, "rental_uris": {"android": "https://dc.lft.to/lastmile_qr_scan", "ios": "https://dc.lft.to/lastmile_qr_scan"}, "type": "electric_scooter", "lat": 38.88141983333333, "is_reserved": 0, "fusion_lat": 0.0}, {"bike_id": "24abdbe1a3e602791955565680c62c95", "fusion_lon": 0.0, "lon": -77.03179783333333, "name": "24abdbe1a3e602791955565680c62c95", "is_disabled": 0, "rental_uris": {"android": "https://dc.lft.to/lastmile_qr_scan", "ios": "https://dc.lft.to/lastmile_qr_scan"}, "type": "electric_scooter", "lat": 38.909489666666666, "is_reserved": 0, "fusion_lat": 0.0}, {"bike_id": "119cf6d4bff4e042793d4e3e12679f33", "fusion_lon": 0.0, "lon": -77.02181, "name": "119cf6d4bff4e042793d4e3e12679f33", "is_disabled": 0, "rental_uris": {"android": "https://dc.lft.to/lastmile_qr_scan", "ios": "https://dc.lft.to/lastmile_qr_scan"}, "type": "electric_scooter", "lat": 38.912947, "is_reserved": 0, "fusion_lat": 0.0}, {"bike_id": "667d396222f8b857bcef9039c6bafc2b", "fusion_lon": 0.0, "lon": -76.99428666666667, "name": "667d396222f8b857bcef9039c6bafc2b", "is_disabled": 0, "rental_uris": {"android": "https://dc.lft.to/lastmile_qr_scan", "ios": "https://dc.lft.to/lastmile_qr_scan"}, "type": "electric_scooter", "lat": 38.86182633333333, "is_reserved": 0, "fusion_lat": 0.0}, {"bike_id": "3c8893778328120b6a392501fed471bb", "fusion_lon": 0.0, "lon": -77.050448, "name": "3c8893778328120b6a392501fed471bb", "is_disabled": 0, "rental_uris": {"android": "https://dc.lft.to/lastmile_qr_scan", "ios": "https://dc.lft.to/lastmile_qr_scan"}, "type": "electric_scooter", "lat": 38.892821, "is_reserved": 0, "fusion_lat": 0.0}, {"bike_id": "c09bb97b9c81983826f0adde52849684", "fusion_lon": 0.0, "lon": -77.04509033333333, "name": "c09bb97b9c81983826f0adde52849684", "is_disabled": 0, "rental_uris": {"android": "https://dc.lft.to/lastmile_qr_scan", "ios": "https://dc.lft.to/lastmile_qr_scan"}, "type": "electric_scooter", "lat": 38.88605916666667, "is_reserved": 0, "fusion_lat": 0.0}, {"bike_id": "694b9b3cb2694997f4573d44936082b5", "fusion_lon": 0.0, "lon": -77.01951366666667, "name": "694b9b3cb2694997f4573d44936082b5", "is_disabled": 0, "rental_uris": {"android": "https://dc.lft.to/lastmile_qr_scan", "ios": "https://dc.lft.to/lastmile_qr_scan"}, "type": "electric_scooter", "lat": 38.924186166666665, "is_reserved": 0, "fusion_lat": 0.0}, {"bike_id": "a6df6079379d6a226affdd5bfd5358df", "fusion_lon": 0.0, "lon": -77.01965666666666, "name": "a6df6079379d6a226affdd5bfd5358df", "is_disabled": 0, "rental_uris": {"android": "https://dc.lft.to/lastmile_qr_scan", "ios": "https://dc.lft.to/lastmile_qr_scan"}, "type": "electric_scooter", "lat": 38.87847816666667, "is_reserved": 0, "fusion_lat": 0.0}, {"bike_id": "a32f8fda35506a421b6fc7b30ad7b1f3", "fusion_lon": 0.0, "lon": -77.04902933333334, "name": "a32f8fda35506a421b6fc7b30ad7b1f3", "is_disabled": 0, "rental_uris": {"android": "https://dc.lft.to/lastmile_qr_scan", "ios": "https://dc.lft.to/lastmile_qr_scan"}, "type": "electric_scooter", "lat": 38.88999883333334, "is_reserved": 0, "fusion_lat": 0.0}, {"bike_id": "18c64d35f0d5283a014ba5fc76be7d91", "fusion_lon": 0.0, "lon": -77.05991533333334, "name": "18c64d35f0d5283a014ba5fc76be7d91", "is_disabled": 0, "rental_uris": {"android": "https://dc.lft.to/lastmile_qr_scan", "ios": "https://dc.lft.to/lastmile_qr_scan"}, "type": "electric_scooter", "lat": 38.938235, "is_reserved": 0, "fusion_lat": 0.0}, {"bike_id": "20406b7f9dbff3ec657992dc6911575f", "fusion_lon": 0.0, "lon": -77.00899916666667, "name": "20406b7f9dbff3ec657992dc6911575f", "is_disabled": 0, "rental_uris": {"android": "https://dc.lft.to/lastmile_qr_scan", "ios": "https://dc.lft.to/lastmile_qr_scan"}, "type": "electric_scooter", "lat": 38.905676166666666, "is_reserved": 0, "fusion_lat": 0.0}, {"bike_id": "aa72d6a213be2116bec3fd52ee3941af", "fusion_lon": 0.0, "lon": -77.01540883333334, "name": "aa72d6a213be2116bec3fd52ee3941af", "is_disabled": 0, "rental_uris": {"android": "https://dc.lft.to/lastmile_qr_scan", "ios": "https://dc.lft.to/lastmile_qr_scan"}, "type": "electric_scooter", "lat": 38.8874025, "is_reserved": 0, "fusion_lat": 0.0}, {"bike_id": "8d08434de67b022b17374989780cff56", "fusion_lon": 0.0, "lon": -77.03700433333333, "name": "8d08434de67b022b17374989780cff56", "is_disabled": 0, "rental_uris": {"android": "https://dc.lft.to/lastmile_qr_scan", "ios": "https://dc.lft.to/lastmile_qr_scan"}, "type": "electric_scooter", "lat": 38.926136666666665, "is_reserved": 0, "fusion_lat": 0.0}, {"bike_id": "60bbbb3bf443b6e6a78697dfa8ffb2b9", "fusion_lon": 0.0, "lon": -77.04930483333334, "name": "60bbbb3bf443b6e6a78697dfa8ffb2b9", "is_disabled": 0, "rental_uris": {"android": "https://dc.lft.to/lastmile_qr_scan", "ios": "https://dc.lft.to/lastmile_qr_scan"}, "type": "electric_bike", "lat": 38.8134725, "is_reserved": 0, "fusion_lat": 0.0}, {"bike_id": "05e927cecdc137b8829b35823b0ddff6", "fusion_lon": 0.0, "lon": -77.01988766666666, "name": "05e927cecdc137b8829b35823b0ddff6", "is_disabled": 0, "rental_uris": {"android": "https://dc.lft.to/lastmile_qr_scan", "ios": "https://dc.lft.to/lastmile_qr_scan"}, "type": "electric_scooter", "lat": 38.913639833333335, "is_reserved": 0, "fusion_lat": 0.0}, {"bike_id": "1bba7ba054492376b94b0575c85f9cd3", "fusion_lon": 0.0, "lon": -77.01746433333334, "name": "1bba7ba054492376b94b0575c85f9cd3", "is_disabled": 0, "rental_uris": {"android": "https://dc.lft.to/lastmile_qr_scan", "ios": "https://dc.lft.to/lastmile_qr_scan"}, "type": "electric_scooter", "lat": 38.87275066666667, "is_reserved": 0, "fusion_lat": 0.0}, {"bike_id": "efc4a4fc72890fabacf960352b1aa913", "fusion_lon": 0.0, "lon": -77.02694233333334, "name": "efc4a4fc72890fabacf960352b1aa913", "is_disabled": 0, "rental_uris": {"android": "https://dc.lft.to/lastmile_qr_scan", "ios": "https://dc.lft.to/lastmile_qr_scan"}, "type": "electric_scooter", "lat": 38.91127916666667, "is_reserved": 0, "fusion_lat": 0.0}, {"bike_id": "f44588af5cac8ff7e5074f33cf4bcf0f", "fusion_lon": 0.0, "lon": -77.03502166666667, "name": "f44588af5cac8ff7e5074f33cf4bcf0f", "is_disabled": 0, "rental_uris": {"android": "https://dc.lft.to/lastmile_qr_scan", "ios": "https://dc.lft.to/lastmile_qr_scan"}, "type": "electric_scooter", "lat": 38.91692666666667, "is_reserved": 0, "fusion_lat": 0.0}, {"bike_id": "d5b508d57d81ee3ed640fae9bb6e415f", "fusion_lon": 0.0, "lon": -77.05721233333334, "name": "d5b508d57d81ee3ed640fae9bb6e415f", "is_disabled": 0, "rental_uris": {"android": "https://dc.lft.to/lastmile_qr_scan", "ios": "https://dc.lft.to/lastmile_qr_scan"}, "type": "electric_scooter", "lat": 38.93359016666667, "is_reserved": 0, "fusion_lat": 0.0}, {"bike_id": "e5ae59898d02f6bbf67ef393a6641215", "fusion_lon": 0.0, "lon": -77.02555966666667, "name": "e5ae59898d02f6bbf67ef393a6641215", "is_disabled": 0, "rental_uris": {"android": "https://dc.lft.to/lastmile_qr_scan", "ios": "https://dc.lft.to/lastmile_qr_scan"}, "type": "electric_scooter", "lat": 38.880612166666666, "is_reserved": 0, "fusion_lat": 0.0}, {"bike_id": "bfe18cfb6b339d5b126e247b4da5ec13", "fusion_lon": 0.0, "lon": -77.01745033333333, "name": "bfe18cfb6b339d5b126e247b4da5ec13", "is_disabled": 0, "rental_uris": {"android": "https://dc.lft.to/lastmile_qr_scan", "ios": "https://dc.lft.to/lastmile_qr_scan"}, "type": "electric_scooter", "lat": 38.87499566666666, "is_reserved": 0, "fusion_lat": 0.0}, {"bike_id": "7c4a7c559e18c918db2e10d99851d689", "fusion_lon": 0.0, "lon": -77.043997, "name": "7c4a7c559e18c918db2e10d99851d689", "is_disabled": 0, "rental_uris": {"android": "https://dc.lft.to/lastmile_qr_scan", "ios": "https://dc.lft.to/lastmile_qr_scan"}, "type": "electric_scooter", "lat": 38.91264266666667, "is_reserved": 0, "fusion_lat": 0.0}, {"bike_id": "9803bf4bd8f7552d14019e56fd7610dd", "fusion_lon": 0.0, "lon": -77.045729, "name": "9803bf4bd8f7552d14019e56fd7610dd", "is_disabled": 0, "rental_uris": {"android": "https://dc.lft.to/lastmile_qr_scan", "ios": "https://dc.lft.to/lastmile_qr_scan"}, "type": "electric_bike", "lat": 38.924173, "is_reserved": 0, "fusion_lat": 0.0}, {"bike_id": "c07c755d2d34f1c0ced0c24c70eef19e", "fusion_lon": 0.0, "lon": -77.0088605, "name": "c07c755d2d34f1c0ced0c24c70eef19e", "is_disabled": 0, "rental_uris": {"android": "https://dc.lft.to/lastmile_qr_scan", "ios": "https://dc.lft.to/lastmile_qr_scan"}, "type": "electric_scooter", "lat": 38.906517, "is_reserved": 0, "fusion_lat": 0.0}, {"bike_id": "bb42e2d82cb347350990a6679e978410", "fusion_lon": 0.0, "lon": -77.02409683333333, "name": "bb42e2d82cb347350990a6679e978410", "is_disabled": 0, "rental_uris": {"android": "https://dc.lft.to/lastmile_qr_scan", "ios": "https://dc.lft.to/lastmile_qr_scan"}, "type": "electric_scooter", "lat": 38.901993833333336, "is_reserved": 0, "fusion_lat": 0.0}, {"bike_id": "bdc00670744d724286b8faa7aa1cac1a", "fusion_lon": 0.0, "lon": -77.01584016666666, "name": "bdc00670744d724286b8faa7aa1cac1a", "is_disabled": 0, "rental_uris": {"android": "https://dc.lft.to/lastmile_qr_scan", "ios": "https://dc.lft.to/lastmile_qr_scan"}, "type": "electric_scooter", "lat": 38.8918, "is_reserved": 0, "fusion_lat": 0.0}, {"bike_id": "6be3dfbf49cd2296f7c12130e70f91c1", "fusion_lon": 0.0, "lon": -77.00206566666667, "name": "6be3dfbf49cd2296f7c12130e70f91c1", "is_disabled": 0, "rental_uris": {"android": "https://dc.lft.to/lastmile_qr_scan", "ios": "https://dc.lft.to/lastmile_qr_scan"}, "type": "electric_scooter", "lat": 38.900274833333334, "is_reserved": 0, "fusion_lat": 0.0}, {"bike_id": "1a1b31b1b2d49fd778393ffce831ce8f", "fusion_lon": 0.0, "lon": -76.93544066666666, "name": "1a1b31b1b2d49fd778393ffce831ce8f", "is_disabled": 0, "rental_uris": {"android": "https://dc.lft.to/lastmile_qr_scan", "ios": "https://dc.lft.to/lastmile_qr_scan"}, "type": "electric_bike", "lat": 38.95552833333333, "is_reserved": 0, "fusion_lat": 0.0}, {"bike_id": "1f83a93fd222e17fd6d95645e511bb72", "fusion_lon": 0.0, "lon": -77.0396765, "name": "1f83a93fd222e17fd6d95645e511bb72", "is_disabled": 0, "rental_uris": {"android": "https://dc.lft.to/lastmile_qr_scan", "ios": "https://dc.lft.to/lastmile_qr_scan"}, "type": "electric_scooter", "lat": 38.907165, "is_reserved": 0, "fusion_lat": 0.0}, {"bike_id": "af94ae7ada68161ee449a060d2e98329", "fusion_lon": 0.0, "lon": -77.051567, "name": "af94ae7ada68161ee449a060d2e98329", "is_disabled": 0, "rental_uris": {"android": "https://dc.lft.to/lastmile_qr_scan", "ios": "https://dc.lft.to/lastmile_qr_scan"}, "type": "electric_scooter", "lat": 38.905381, "is_reserved": 0, "fusion_lat": 0.0}, {"bike_id": "5b1f68728c3acac3fff13f476228ff14", "fusion_lon": 0.0, "lon": -76.9319545, "name": "5b1f68728c3acac3fff13f476228ff14", "is_disabled": 0, "rental_uris": {"android": "https://dc.lft.to/lastmile_qr_scan", "ios": "https://dc.lft.to/lastmile_qr_scan"}, "type": "electric_scooter", "lat": 38.898795, "is_reserved": 0, "fusion_lat": 0.0}, {"bike_id": "8bc2f8bb342a62addec24add37057acc", "fusion_lon": 0.0, "lon": -76.98522566666666, "name": "8bc2f8bb342a62addec24add37057acc", "is_disabled": 0, "rental_uris": {"android": "https://dc.lft.to/lastmile_qr_scan", "ios": "https://dc.lft.to/lastmile_qr_scan"}, "type": "electric_scooter", "lat": 38.86666183333333, "is_reserved": 0, "fusion_lat": 0.0}, {"bike_id": "d9b590d429fc023e61007bb847bf59a5", "fusion_lon": 0.0, "lon": -77.03545233333334, "name": "d9b590d429fc023e61007bb847bf59a5", "is_disabled": 0, "rental_uris": {"android": "https://dc.lft.to/lastmile_qr_scan", "ios": "https://dc.lft.to/lastmile_qr_scan"}, "type": "electric_scooter", "lat": 38.924164, "is_reserved": 0, "fusion_lat": 0.0}, {"bike_id": "df9b871729f9616075587b4912c0ed4b", "fusion_lon": 0.0, "lon": -77.033961, "name": "df9b871729f9616075587b4912c0ed4b", "is_disabled": 0, "rental_uris": {"android": "https://dc.lft.to/lastmile_qr_scan", "ios": "https://dc.lft.to/lastmile_qr_scan"}, "type": "electric_bike", "lat": 38.96026366666667, "is_reserved": 0, "fusion_lat": 0.0}, {"bike_id": "9f45f61d07bf14cc9d8790a78b3ffa64", "fusion_lon": 0.0, "lon": -77.029504, "name": "9f45f61d07bf14cc9d8790a78b3ffa64", "is_disabled": 0, "rental_uris": {"android": "https://dc.lft.to/lastmile_qr_scan", "ios": "https://dc.lft.to/lastmile_qr_scan"}, "type": "electric_scooter", "lat": 38.90513883333333, "is_reserved": 0, "fusion_lat": 0.0}, {"bike_id": "505257c8411de56e3eae909ec996824f", "fusion_lon": 0.0, "lon": -77.04479983333333, "name": "505257c8411de56e3eae909ec996824f", "is_disabled": 0, "rental_uris": {"android": "https://dc.lft.to/lastmile_qr_scan", "ios": "https://dc.lft.to/lastmile_qr_scan"}, "type": "electric_scooter", "lat": 38.922415, "is_reserved": 0, "fusion_lat": 0.0}, {"bike_id": "8369c38ec9214a2d6a26dfb0043e1dc1", "fusion_lon": 0.0, "lon": -77.002018, "name": "8369c38ec9214a2d6a26dfb0043e1dc1", "is_disabled": 0, "rental_uris": {"android": "https://dc.lft.to/lastmile_qr_scan", "ios": "https://dc.lft.to/lastmile_qr_scan"}, "type": "electric_scooter", "lat": 38.90034966666666, "is_reserved": 0, "fusion_lat": 0.0}, {"bike_id": "ae6c1f640d2fb9291ed1f078ff261490", "fusion_lon": 0.0, "lon": -76.9996345, "name": "ae6c1f640d2fb9291ed1f078ff261490", "is_disabled": 0, "rental_uris": {"android": "https://dc.lft.to/lastmile_qr_scan", "ios": "https://dc.lft.to/lastmile_qr_scan"}, "type": "electric_bike", "lat": 38.9214955, "is_reserved": 0, "fusion_lat": 0.0}, {"bike_id": "b631e39b880a84bd842f61980cfe9652", "fusion_lon": 0.0, "lon": -77.02610916666667, "name": "b631e39b880a84bd842f61980cfe9652", "is_disabled": 0, "rental_uris": {"android": "https://dc.lft.to/lastmile_qr_scan", "ios": "https://dc.lft.to/lastmile_qr_scan"}, "type": "electric_scooter", "lat": 38.905131, "is_reserved": 0, "fusion_lat": 0.0}, {"bike_id": "a1f7f1938f572d22a781d17a987dd15b", "fusion_lon": 0.0, "lon": -77.0526235, "name": "a1f7f1938f572d22a781d17a987dd15b", "is_disabled": 0, "rental_uris": {"android": "https://dc.lft.to/lastmile_qr_scan", "ios": "https://dc.lft.to/lastmile_qr_scan"}, "type": "electric_scooter", "lat": 38.925417833333334, "is_reserved": 0, "fusion_lat": 0.0}, {"bike_id": "2bc3222aa6f4f2745d51aa74f1c6d747", "fusion_lon": 0.0, "lon": -77.03933366666666, "name": "2bc3222aa6f4f2745d51aa74f1c6d747", "is_disabled": 0, "rental_uris": {"android": "https://dc.lft.to/lastmile_qr_scan", "ios": "https://dc.lft.to/lastmile_qr_scan"}, "type": "electric_scooter", "lat": 38.9155605, "is_reserved": 0, "fusion_lat": 0.0}, {"bike_id": "f6dc1ec7d200a24dd6a5fb4c25f6ff38", "fusion_lon": 0.0, "lon": -77.0220715, "name": "f6dc1ec7d200a24dd6a5fb4c25f6ff38", "is_disabled": 0, "rental_uris": {"android": "https://dc.lft.to/lastmile_qr_scan", "ios": "https://dc.lft.to/lastmile_qr_scan"}, "type": "electric_scooter", "lat": 38.87896666666666, "is_reserved": 0, "fusion_lat": 0.0}, {"bike_id": "aeed3d2727181b3419e50a1100f1836f", "fusion_lon": 0.0, "lon": -77.02732733333333, "name": "aeed3d2727181b3419e50a1100f1836f", "is_disabled": 0, "rental_uris": {"android": "https://dc.lft.to/lastmile_qr_scan", "ios": "https://dc.lft.to/lastmile_qr_scan"}, "type": "electric_scooter", "lat": 38.92833666666667, "is_reserved": 0, "fusion_lat": 0.0}, {"bike_id": "58b8e5f118b8627bc55c5504b2fcae34", "fusion_lon": 0.0, "lon": -77.041479, "name": "58b8e5f118b8627bc55c5504b2fcae34", "is_disabled": 0, "rental_uris": {"android": "https://dc.lft.to/lastmile_qr_scan", "ios": "https://dc.lft.to/lastmile_qr_scan"}, "type": "electric_scooter", "lat": 38.91557016666667, "is_reserved": 0, "fusion_lat": 0.0}, {"bike_id": "848309424116995758b66555aa2cb7b1", "fusion_lon": 0.0, "lon": -77.02183016666666, "name": "848309424116995758b66555aa2cb7b1", "is_disabled": 0, "rental_uris": {"android": "https://dc.lft.to/lastmile_qr_scan", "ios": "https://dc.lft.to/lastmile_qr_scan"}, "type": "electric_scooter", "lat": 38.9148695, "is_reserved": 0, "fusion_lat": 0.0}, {"bike_id": "2781f090d616c73bbc4d3898f11f213e", "fusion_lon": 0.0, "lon": -77.04186166666666, "name": "2781f090d616c73bbc4d3898f11f213e", "is_disabled": 0, "rental_uris": {"android": "https://dc.lft.to/lastmile_qr_scan", "ios": "https://dc.lft.to/lastmile_qr_scan"}, "type": "electric_scooter", "lat": 38.89300766666667, "is_reserved": 0, "fusion_lat": 0.0}, {"bike_id": "25179d2c1301d4db5b70f1f655a632a3", "fusion_lon": 0.0, "lon": -77.12732183333334, "name": "25179d2c1301d4db5b70f1f655a632a3", "is_disabled": 0, "rental_uris": {"android": "https://dc.lft.to/lastmile_qr_scan", "ios": "https://dc.lft.to/lastmile_qr_scan"}, "type": "electric_bike", "lat": 38.89562866666667, "is_reserved": 0, "fusion_lat": 0.0}, {"bike_id": "c047df27d9629fd53739226a661f0edf", "fusion_lon": 0.0, "lon": -77.024202, "name": "c047df27d9629fd53739226a661f0edf", "is_disabled": 0, "rental_uris": {"android": "https://dc.lft.to/lastmile_qr_scan", "ios": "https://dc.lft.to/lastmile_qr_scan"}, "type": "electric_scooter", "lat": 38.95734783333333, "is_reserved": 0, "fusion_lat": 0.0}, {"bike_id": "8d004648360ea9f437287e0c815758dd", "fusion_lon": 0.0, "lon": -77.011304, "name": "8d004648360ea9f437287e0c815758dd", "is_disabled": 0, "rental_uris": {"android": "https://dc.lft.to/lastmile_qr_scan", "ios": "https://dc.lft.to/lastmile_qr_scan"}, "type": "electric_scooter", "lat": 38.907356, "is_reserved": 0, "fusion_lat": 0.0}, {"bike_id": "8110ccce09b1d35c510364cf7ccc6bc8", "fusion_lon": 0.0, "lon": -77.0218265, "name": "8110ccce09b1d35c510364cf7ccc6bc8", "is_disabled": 0, "rental_uris": {"android": "https://dc.lft.to/lastmile_qr_scan", "ios": "https://dc.lft.to/lastmile_qr_scan"}, "type": "electric_scooter", "lat": 38.905881666666666, "is_reserved": 0, "fusion_lat": 0.0}, {"bike_id": "0f1aca76b07f93310b36442e6dcbe349", "fusion_lon": 0.0, "lon": -76.9888845, "name": "0f1aca76b07f93310b36442e6dcbe349", "is_disabled": 0, "rental_uris": {"android": "https://dc.lft.to/lastmile_qr_scan", "ios": "https://dc.lft.to/lastmile_qr_scan"}, "type": "electric_scooter", "lat": 38.86650683333333, "is_reserved": 0, "fusion_lat": 0.0}, {"bike_id": "745a01faa8804338220c14892e5cbeac", "fusion_lon": 0.0, "lon": -77.02381833333334, "name": "745a01faa8804338220c14892e5cbeac", "is_disabled": 0, "rental_uris": {"android": "https://dc.lft.to/lastmile_qr_scan", "ios": "https://dc.lft.to/lastmile_qr_scan"}, "type": "electric_scooter", "lat": 38.91975516666667, "is_reserved": 0, "fusion_lat": 0.0}, {"bike_id": "e695f0c0eba0b0e20f5b29e27d37c03c", "fusion_lon": 0.0, "lon": -77.026954, "name": "e695f0c0eba0b0e20f5b29e27d37c03c", "is_disabled": 0, "rental_uris": {"android": "https://dc.lft.to/lastmile_qr_scan", "ios": "https://dc.lft.to/lastmile_qr_scan"}, "type": "electric_scooter", "lat": 38.911230333333336, "is_reserved": 0, "fusion_lat": 0.0}, {"bike_id": "b39e70147a9b7a90ba08744620724ae8", "fusion_lon": 0.0, "lon": -77.04414883333334, "name": "b39e70147a9b7a90ba08744620724ae8", "is_disabled": 0, "rental_uris": {"android": "https://dc.lft.to/lastmile_qr_scan", "ios": "https://dc.lft.to/lastmile_qr_scan"}, "type": "electric_scooter", "lat": 38.921420833333336, "is_reserved": 0, "fusion_lat": 0.0}, {"bike_id": "476606e4f2e226af102a10c7ceaadc3a", "fusion_lon": 0.0, "lon": -77.0036555, "name": "476606e4f2e226af102a10c7ceaadc3a", "is_disabled": 0, "rental_uris": {"android": "https://dc.lft.to/lastmile_qr_scan", "ios": "https://dc.lft.to/lastmile_qr_scan"}, "type": "electric_scooter", "lat": 38.90722916666667, "is_reserved": 0, "fusion_lat": 0.0}, {"bike_id": "9bfc1a0b44585770f6c137951e326edd", "fusion_lon": 0.0, "lon": -77.02988883333333, "name": "9bfc1a0b44585770f6c137951e326edd", "is_disabled": 0, "rental_uris": {"android": "https://dc.lft.to/lastmile_qr_scan", "ios": "https://dc.lft.to/lastmile_qr_scan"}, "type": "electric_scooter", "lat": 38.93115933333333, "is_reserved": 0, "fusion_lat": 0.0}, {"bike_id": "1a7e4780b44d9955dd3afd49e63e0900", "fusion_lon": 0.0, "lon": -77.02938983333334, "name": "1a7e4780b44d9955dd3afd49e63e0900", "is_disabled": 0, "rental_uris": {"android": "https://dc.lft.to/lastmile_qr_scan", "ios": "https://dc.lft.to/lastmile_qr_scan"}, "type": "electric_scooter", "lat": 38.9170715, "is_reserved": 0, "fusion_lat": 0.0}, {"bike_id": "9ad4850440eb52b6f74e04af5fd91201", "fusion_lon": 0.0, "lon": -77.03909966666667, "name": "9ad4850440eb52b6f74e04af5fd91201", "is_disabled": 0, "rental_uris": {"android": "https://dc.lft.to/lastmile_qr_scan", "ios": "https://dc.lft.to/lastmile_qr_scan"}, "type": "electric_scooter", "lat": 38.91418633333333, "is_reserved": 0, "fusion_lat": 0.0}, {"bike_id": "95a54bee71ca1e639a577f7abd712b99", "fusion_lon": 0.0, "lon": -77.02984916666666, "name": "95a54bee71ca1e639a577f7abd712b99", "is_disabled": 0, "rental_uris": {"android": "https://dc.lft.to/lastmile_qr_scan", "ios": "https://dc.lft.to/lastmile_qr_scan"}, "type": "electric_scooter", "lat": 38.9070925, "is_reserved": 0, "fusion_lat": 0.0}, {"bike_id": "17a3d0b0adb3d649eb0ae5112cfdc884", "fusion_lon": 0.0, "lon": -77.041707, "name": "17a3d0b0adb3d649eb0ae5112cfdc884", "is_disabled": 0, "rental_uris": {"android": "https://dc.lft.to/lastmile_qr_scan", "ios": "https://dc.lft.to/lastmile_qr_scan"}, "type": "electric_scooter", "lat": 38.9130145, "is_reserved": 0, "fusion_lat": 0.0}, {"bike_id": "98a6be973407892827b6932a3022bd7d", "fusion_lon": 0.0, "lon": -77.02908916666667, "name": "98a6be973407892827b6932a3022bd7d", "is_disabled": 0, "rental_uris": {"android": "https://dc.lft.to/lastmile_qr_scan", "ios": "https://dc.lft.to/lastmile_qr_scan"}, "type": "electric_scooter", "lat": 38.915559333333334, "is_reserved": 0, "fusion_lat": 0.0}, {"bike_id": "e1e60cb7303a2a8cc3d9813fd46dd5d8", "fusion_lon": 0.0, "lon": -77.00046066666667, "name": "e1e60cb7303a2a8cc3d9813fd46dd5d8", "is_disabled": 0, "rental_uris": {"android": "https://dc.lft.to/lastmile_qr_scan", "ios": "https://dc.lft.to/lastmile_qr_scan"}, "type": "electric_scooter", "lat": 38.87540883333333, "is_reserved": 0, "fusion_lat": 0.0}, {"bike_id": "df6cded10f288636add7ba4a9254ee29", "fusion_lon": 0.0, "lon": -77.07714733333333, "name": "df6cded10f288636add7ba4a9254ee29", "is_disabled": 0, "rental_uris": {"android": "https://dc.lft.to/lastmile_qr_scan", "ios": "https://dc.lft.to/lastmile_qr_scan"}, "type": "electric_scooter", "lat": 38.94383466666667, "is_reserved": 0, "fusion_lat": 0.0}, {"bike_id": "fc2c3d5b0be71abe806620829e7c4a65", "fusion_lon": 0.0, "lon": -77.04927416666666, "name": "fc2c3d5b0be71abe806620829e7c4a65", "is_disabled": 0, "rental_uris": {"android": "https://dc.lft.to/lastmile_qr_scan", "ios": "https://dc.lft.to/lastmile_qr_scan"}, "type": "electric_bike", "lat": 39.02933816666667, "is_reserved": 0, "fusion_lat": 0.0}, {"bike_id": "80352193520b8fe3add94f9d4d6e0a47", "fusion_lon": 0.0, "lon": -77.02574616666666, "name": "80352193520b8fe3add94f9d4d6e0a47", "is_disabled": 0, "rental_uris": {"android": "https://dc.lft.to/lastmile_qr_scan", "ios": "https://dc.lft.to/lastmile_qr_scan"}, "type": "electric_bike", "lat": 38.92046, "is_reserved": 0, "fusion_lat": 0.0}, {"bike_id": "8fe50286c8714e91aee9d648300d4956", "fusion_lon": 0.0, "lon": -76.99485966666667, "name": "8fe50286c8714e91aee9d648300d4956", "is_disabled": 0, "rental_uris": {"android": "https://dc.lft.to/lastmile_qr_scan", "ios": "https://dc.lft.to/lastmile_qr_scan"}, "type": "electric_scooter", "lat": 38.90417466666667, "is_reserved": 0, "fusion_lat": 0.0}, {"bike_id": "a5e249924303f672465b1abfa596bf7a", "fusion_lon": 0.0, "lon": -76.98157833333333, "name": "a5e249924303f672465b1abfa596bf7a", "is_disabled": 0, "rental_uris": {"android": "https://dc.lft.to/lastmile_qr_scan", "ios": "https://dc.lft.to/lastmile_qr_scan"}, "type": "electric_bike", "lat": 38.922622, "is_reserved": 0, "fusion_lat": 0.0}, {"bike_id": "0aeece35d0628eea7b990ad737f0c061", "fusion_lon": 0.0, "lon": -77.032949, "name": "0aeece35d0628eea7b990ad737f0c061", "is_disabled": 0, "rental_uris": {"android": "https://dc.lft.to/lastmile_qr_scan", "ios": "https://dc.lft.to/lastmile_qr_scan"}, "type": "electric_scooter", "lat": 38.93437383333333, "is_reserved": 0, "fusion_lat": 0.0}, {"bike_id": "8595b2bff330c2e79c45bc0374d1e3a9", "fusion_lon": 0.0, "lon": -77.01201666666667, "name": "8595b2bff330c2e79c45bc0374d1e3a9", "is_disabled": 0, "rental_uris": {"android": "https://dc.lft.to/lastmile_qr_scan", "ios": "https://dc.lft.to/lastmile_qr_scan"}, "type": "electric_scooter", "lat": 38.9000975, "is_reserved": 0, "fusion_lat": 0.0}, {"bike_id": "40bdf4c4a7165e4570fe330d99c93a7f", "fusion_lon": 0.0, "lon": -76.99329316666666, "name": "40bdf4c4a7165e4570fe330d99c93a7f", "is_disabled": 0, "rental_uris": {"android": "https://dc.lft.to/lastmile_qr_scan", "ios": "https://dc.lft.to/lastmile_qr_scan"}, "type": "electric_bike", "lat": 38.89365516666667, "is_reserved": 0, "fusion_lat": 0.0}, {"bike_id": "2d5e5e5359c152af7c2068d2f48a013b", "fusion_lon": 0.0, "lon": -76.98396033333333, "name": "2d5e5e5359c152af7c2068d2f48a013b", "is_disabled": 0, "rental_uris": {"android": "https://dc.lft.to/lastmile_qr_scan", "ios": "https://dc.lft.to/lastmile_qr_scan"}, "type": "electric_scooter", "lat": 38.861174, "is_reserved": 0, "fusion_lat": 0.0}, {"bike_id": "1331cd3883aa6d9bef326461454a6bee", "fusion_lon": 0.0, "lon": -77.00206, "name": "1331cd3883aa6d9bef326461454a6bee", "is_disabled": 0, "rental_uris": {"android": "https://dc.lft.to/lastmile_qr_scan", "ios": "https://dc.lft.to/lastmile_qr_scan"}, "type": "electric_scooter", "lat": 38.9007445, "is_reserved": 0, "fusion_lat": 0.0}, {"bike_id": "dde63017d90bfaf5a531208d9e0a6cf4", "fusion_lon": 0.0, "lon": -77.0122505, "name": "dde63017d90bfaf5a531208d9e0a6cf4", "is_disabled": 0, "rental_uris": {"android": "https://dc.lft.to/lastmile_qr_scan", "ios": "https://dc.lft.to/lastmile_qr_scan"}, "type": "electric_scooter", "lat": 38.91441366666667, "is_reserved": 0, "fusion_lat": 0.0}, {"bike_id": "9f417f30d2bb87c31a151e5a445330fd", "fusion_lon": 0.0, "lon": -77.01798616666666, "name": "9f417f30d2bb87c31a151e5a445330fd", "is_disabled": 0, "rental_uris": {"android": "https://dc.lft.to/lastmile_qr_scan", "ios": "https://dc.lft.to/lastmile_qr_scan"}, "type": "electric_scooter", "lat": 38.876742, "is_reserved": 0, "fusion_lat": 0.0}, {"bike_id": "f46a850bd6c36dae3df1cfa8128f33c0", "fusion_lon": 0.0, "lon": -77.03198216666667, "name": "f46a850bd6c36dae3df1cfa8128f33c0", "is_disabled": 0, "rental_uris": {"android": "https://dc.lft.to/lastmile_qr_scan", "ios": "https://dc.lft.to/lastmile_qr_scan"}, "type": "electric_scooter", "lat": 38.909929166666664, "is_reserved": 0, "fusion_lat": 0.0}, {"bike_id": "a9c7d7ef0daa63a28326e5d553e9eede", "fusion_lon": 0.0, "lon": -77.02201583333333, "name": "a9c7d7ef0daa63a28326e5d553e9eede", "is_disabled": 0, "rental_uris": {"android": "https://dc.lft.to/lastmile_qr_scan", "ios": "https://dc.lft.to/lastmile_qr_scan"}, "type": "electric_scooter", "lat": 38.91100183333333, "is_reserved": 0, "fusion_lat": 0.0}, {"bike_id": "f128711a34b88c8cc4c0582f841c8df3", "fusion_lon": 0.0, "lon": -77.03179816666666, "name": "f128711a34b88c8cc4c0582f841c8df3", "is_disabled": 0, "rental_uris": {"android": "https://dc.lft.to/lastmile_qr_scan", "ios": "https://dc.lft.to/lastmile_qr_scan"}, "type": "electric_scooter", "lat": 38.923821, "is_reserved": 0, "fusion_lat": 0.0}, {"bike_id": "fa176c69c6348b5f7f77c560f8afb695", "fusion_lon": 0.0, "lon": -77.0325555, "name": "fa176c69c6348b5f7f77c560f8afb695", "is_disabled": 0, "rental_uris": {"android": "https://dc.lft.to/lastmile_qr_scan", "ios": "https://dc.lft.to/lastmile_qr_scan"}, "type": "electric_scooter", "lat": 38.942729166666666, "is_reserved": 0, "fusion_lat": 0.0}, {"bike_id": "8d13718eed7c2c89855a39a6ee0ce591", "fusion_lon": 0.0, "lon": -77.04285633333333, "name": "8d13718eed7c2c89855a39a6ee0ce591", "is_disabled": 0, "rental_uris": {"android": "https://dc.lft.to/lastmile_qr_scan", "ios": "https://dc.lft.to/lastmile_qr_scan"}, "type": "electric_scooter", "lat": 38.908577666666666, "is_reserved": 0, "fusion_lat": 0.0}, {"bike_id": "36ad34f510c573e45998e60adf167ab6", "fusion_lon": 0.0, "lon": -77.03942516666666, "name": "36ad34f510c573e45998e60adf167ab6", "is_disabled": 0, "rental_uris": {"android": "https://dc.lft.to/lastmile_qr_scan", "ios": "https://dc.lft.to/lastmile_qr_scan"}, "type": "electric_scooter", "lat": 38.92617633333333, "is_reserved": 0, "fusion_lat": 0.0}, {"bike_id": "66e36f5fd263fd790ebf8e48f4d6124b", "fusion_lon": 0.0, "lon": -77.00568866666667, "name": "66e36f5fd263fd790ebf8e48f4d6124b", "is_disabled": 0, "rental_uris": {"android": "https://dc.lft.to/lastmile_qr_scan", "ios": "https://dc.lft.to/lastmile_qr_scan"}, "type": "electric_scooter", "lat": 38.91817266666666, "is_reserved": 0, "fusion_lat": 0.0}, {"bike_id": "b60186c45afd7075c0045afcefbe9676", "fusion_lon": 0.0, "lon": -77.0387145, "name": "b60186c45afd7075c0045afcefbe9676", "is_disabled": 0, "rental_uris": {"android": "https://dc.lft.to/lastmile_qr_scan", "ios": "https://dc.lft.to/lastmile_qr_scan"}, "type": "electric_scooter", "lat": 38.91535666666667, "is_reserved": 0, "fusion_lat": 0.0}, {"bike_id": "4b9feaa50c94540d6fb5c5de709bfd01", "fusion_lon": 0.0, "lon": -77.0257725, "name": "4b9feaa50c94540d6fb5c5de709bfd01", "is_disabled": 0, "rental_uris": {"android": "https://dc.lft.to/lastmile_qr_scan", "ios": "https://dc.lft.to/lastmile_qr_scan"}, "type": "electric_scooter", "lat": 38.903537, "is_reserved": 0, "fusion_lat": 0.0}, {"bike_id": "b66a3927e12f4ae3c0e00449f87960c7", "fusion_lon": 0.0, "lon": -77.03102566666666, "name": "b66a3927e12f4ae3c0e00449f87960c7", "is_disabled": 0, "rental_uris": {"android": "https://dc.lft.to/lastmile_qr_scan", "ios": "https://dc.lft.to/lastmile_qr_scan"}, "type": "electric_scooter", "lat": 38.95076566666667, "is_reserved": 0, "fusion_lat": 0.0}, {"bike_id": "f496b4a5cbcca709d8dfdbaebe858a55", "fusion_lon": 0.0, "lon": -76.98606433333333, "name": "f496b4a5cbcca709d8dfdbaebe858a55", "is_disabled": 0, "rental_uris": {"android": "https://dc.lft.to/lastmile_qr_scan", "ios": "https://dc.lft.to/lastmile_qr_scan"}, "type": "electric_scooter", "lat": 38.878314333333336, "is_reserved": 0, "fusion_lat": 0.0}, {"bike_id": "480d3a0dc004b5c35b6f29256dbd45b1", "fusion_lon": 0.0, "lon": -77.068438, "name": "480d3a0dc004b5c35b6f29256dbd45b1", "is_disabled": 0, "rental_uris": {"android": "https://dc.lft.to/lastmile_qr_scan", "ios": "https://dc.lft.to/lastmile_qr_scan"}, "type": "electric_scooter", "lat": 38.91724383333333, "is_reserved": 0, "fusion_lat": 0.0}, {"bike_id": "82b3f5b6b7697802753ac62204594213", "fusion_lon": 0.0, "lon": -77.0175195, "name": "82b3f5b6b7697802753ac62204594213", "is_disabled": 0, "rental_uris": {"android": "https://dc.lft.to/lastmile_qr_scan", "ios": "https://dc.lft.to/lastmile_qr_scan"}, "type": "electric_scooter", "lat": 38.90256483333334, "is_reserved": 0, "fusion_lat": 0.0}, {"bike_id": "a6767128b0450975e06f6098700d5f91", "fusion_lon": 0.0, "lon": -76.94934583333334, "name": "a6767128b0450975e06f6098700d5f91", "is_disabled": 0, "rental_uris": {"android": "https://dc.lft.to/lastmile_qr_scan", "ios": "https://dc.lft.to/lastmile_qr_scan"}, "type": "electric_scooter", "lat": 38.893464, "is_reserved": 0, "fusion_lat": 0.0}, {"bike_id": "377cd0c26c505342a0931238e8aa8d4c", "fusion_lon": 0.0, "lon": -77.02304766666667, "name": "377cd0c26c505342a0931238e8aa8d4c", "is_disabled": 0, "rental_uris": {"android": "https://dc.lft.to/lastmile_qr_scan", "ios": "https://dc.lft.to/lastmile_qr_scan"}, "type": "electric_scooter", "lat": 38.918394, "is_reserved": 0, "fusion_lat": 0.0}, {"bike_id": "c8eea25692a56abaec1e21895d48d42e", "fusion_lon": 0.0, "lon": -77.0650705, "name": "c8eea25692a56abaec1e21895d48d42e", "is_disabled": 0, "rental_uris": {"android": "https://dc.lft.to/lastmile_qr_scan", "ios": "https://dc.lft.to/lastmile_qr_scan"}, "type": "electric_bike", "lat": 38.968705166666666, "is_reserved": 0, "fusion_lat": 0.0}, {"bike_id": "dc560d1324d4c89561b4dc0e9ca2dc46", "fusion_lon": 0.0, "lon": -76.9691475, "name": "dc560d1324d4c89561b4dc0e9ca2dc46", "is_disabled": 0, "rental_uris": {"android": "https://dc.lft.to/lastmile_qr_scan", "ios": "https://dc.lft.to/lastmile_qr_scan"}, "type": "electric_bike", "lat": 38.846016, "is_reserved": 0, "fusion_lat": 0.0}, {"bike_id": "e64ea7659682e5f2cb11465d4071e5cf", "fusion_lon": 0.0, "lon": -77.04170433333333, "name": "e64ea7659682e5f2cb11465d4071e5cf", "is_disabled": 0, "rental_uris": {"android": "https://dc.lft.to/lastmile_qr_scan", "ios": "https://dc.lft.to/lastmile_qr_scan"}, "type": "electric_scooter", "lat": 38.916507, "is_reserved": 0, "fusion_lat": 0.0}, {"bike_id": "5291a0a8a61b6d9da4d4fa015a1d27e9", "fusion_lon": 0.0, "lon": -77.04514616666667, "name": "5291a0a8a61b6d9da4d4fa015a1d27e9", "is_disabled": 0, "rental_uris": {"android": "https://dc.lft.to/lastmile_qr_scan", "ios": "https://dc.lft.to/lastmile_qr_scan"}, "type": "electric_bike", "lat": 38.84290333333333, "is_reserved": 0, "fusion_lat": 0.0}, {"bike_id": "3b3b74d76929dc68a379452519bb25c4", "fusion_lon": 0.0, "lon": -77.04690116666667, "name": "3b3b74d76929dc68a379452519bb25c4", "is_disabled": 0, "rental_uris": {"android": "https://dc.lft.to/lastmile_qr_scan", "ios": "https://dc.lft.to/lastmile_qr_scan"}, "type": "electric_scooter", "lat": 38.892222, "is_reserved": 0, "fusion_lat": 0.0}, {"bike_id": "103300c180683fd6192bad36af62858c", "fusion_lon": 0.0, "lon": -77.0218075, "name": "103300c180683fd6192bad36af62858c", "is_disabled": 0, "rental_uris": {"android": "https://dc.lft.to/lastmile_qr_scan", "ios": "https://dc.lft.to/lastmile_qr_scan"}, "type": "electric_scooter", "lat": 38.92493016666667, "is_reserved": 0, "fusion_lat": 0.0}, {"bike_id": "105519fc91081e33062e59a126e7da0e", "fusion_lon": 0.0, "lon": -77.03869466666667, "name": "105519fc91081e33062e59a126e7da0e", "is_disabled": 0, "rental_uris": {"android": "https://dc.lft.to/lastmile_qr_scan", "ios": "https://dc.lft.to/lastmile_qr_scan"}, "type": "electric_scooter", "lat": 38.910156666666666, "is_reserved": 0, "fusion_lat": 0.0}, {"bike_id": "68b552706fd71dc5c5bc8b65e6b6b2d1", "fusion_lon": 0.0, "lon": -77.03750833333334, "name": "68b552706fd71dc5c5bc8b65e6b6b2d1", "is_disabled": 0, "rental_uris": {"android": "https://dc.lft.to/lastmile_qr_scan", "ios": "https://dc.lft.to/lastmile_qr_scan"}, "type": "electric_scooter", "lat": 38.9127725, "is_reserved": 0, "fusion_lat": 0.0}, {"bike_id": "ee7aa52346155f0080fd63f894dfcb0c", "fusion_lon": 0.0, "lon": -77.22340733333333, "name": "ee7aa52346155f0080fd63f894dfcb0c", "is_disabled": 0, "rental_uris": {"android": "https://dc.lft.to/lastmile_qr_scan", "ios": "https://dc.lft.to/lastmile_qr_scan"}, "type": "electric_bike", "lat": 38.918046, "is_reserved": 0, "fusion_lat": 0.0}, {"bike_id": "95978200cc4d750df6416d5399d970f9", "fusion_lon": 0.0, "lon": -77.03862516666666, "name": "95978200cc4d750df6416d5399d970f9", "is_disabled": 0, "rental_uris": {"android": "https://dc.lft.to/lastmile_qr_scan", "ios": "https://dc.lft.to/lastmile_qr_scan"}, "type": "electric_scooter", "lat": 38.90780566666667, "is_reserved": 0, "fusion_lat": 0.0}, {"bike_id": "b80fd8f8be7f70bbc0f8f1e57849b432", "fusion_lon": 0.0, "lon": -77.09523566666667, "name": "b80fd8f8be7f70bbc0f8f1e57849b432", "is_disabled": 0, "rental_uris": {"android": "https://dc.lft.to/lastmile_qr_scan", "ios": "https://dc.lft.to/lastmile_qr_scan"}, "type": "electric_bike", "lat": 38.838105166666665, "is_reserved": 0, "fusion_lat": 0.0}, {"bike_id": "74c83aa33e22193c98d19a95c8822e87", "fusion_lon": 0.0, "lon": -77.03804466666666, "name": "74c83aa33e22193c98d19a95c8822e87", "is_disabled": 0, "rental_uris": {"android": "https://dc.lft.to/lastmile_qr_scan", "ios": "https://dc.lft.to/lastmile_qr_scan"}, "type": "electric_scooter", "lat": 38.91414016666667, "is_reserved": 0, "fusion_lat": 0.0}, {"bike_id": "fe9b5af1315557fe06bcd91d6062d5f2", "fusion_lon": 0.0, "lon": -77.02347916666666, "name": "fe9b5af1315557fe06bcd91d6062d5f2", "is_disabled": 0, "rental_uris": {"android": "https://dc.lft.to/lastmile_qr_scan", "ios": "https://dc.lft.to/lastmile_qr_scan"}, "type": "electric_scooter", "lat": 38.93537883333333, "is_reserved": 0, "fusion_lat": 0.0}, {"bike_id": "4b7d4b3b0000e85cc37234595f29b00b", "fusion_lon": 0.0, "lon": -77.07860116666667, "name": "4b7d4b3b0000e85cc37234595f29b00b", "is_disabled": 0, "rental_uris": {"android": "https://dc.lft.to/lastmile_qr_scan", "ios": "https://dc.lft.to/lastmile_qr_scan"}, "type": "electric_bike", "lat": 38.931467166666664, "is_reserved": 0, "fusion_lat": 0.0}, {"bike_id": "78cf2318fd8aa021d9b71682d6221985", "fusion_lon": 0.0, "lon": -77.01405566666666, "name": "78cf2318fd8aa021d9b71682d6221985", "is_disabled": 0, "rental_uris": {"android": "https://dc.lft.to/lastmile_qr_scan", "ios": "https://dc.lft.to/lastmile_qr_scan"}, "type": "electric_scooter", "lat": 38.918149, "is_reserved": 0, "fusion_lat": 0.0}, {"bike_id": "d20a3d9a0bd3fa7031300f00952c9aa9", "fusion_lon": 0.0, "lon": -77.04837183333333, "name": "d20a3d9a0bd3fa7031300f00952c9aa9", "is_disabled": 0, "rental_uris": {"android": "https://dc.lft.to/lastmile_qr_scan", "ios": "https://dc.lft.to/lastmile_qr_scan"}, "type": "electric_scooter", "lat": 38.911110666666666, "is_reserved": 0, "fusion_lat": 0.0}, {"bike_id": "49e138808a8a86bfb596c92985506330", "fusion_lon": 0.0, "lon": -76.93863183333333, "name": "49e138808a8a86bfb596c92985506330", "is_disabled": 0, "rental_uris": {"android": "https://dc.lft.to/lastmile_qr_scan", "ios": "https://dc.lft.to/lastmile_qr_scan"}, "type": "electric_scooter", "lat": 38.8989615, "is_reserved": 0, "fusion_lat": 0.0}, {"bike_id": "5979b438c79410055f7cb76ddd66d0f9", "fusion_lon": 0.0, "lon": -76.998605, "name": "5979b438c79410055f7cb76ddd66d0f9", "is_disabled": 0, "rental_uris": {"android": "https://dc.lft.to/lastmile_qr_scan", "ios": "https://dc.lft.to/lastmile_qr_scan"}, "type": "electric_scooter", "lat": 38.9036485, "is_reserved": 0, "fusion_lat": 0.0}, {"bike_id": "d48c0b7bdf347e7da4ba407348464ac6", "fusion_lon": 0.0, "lon": -77.013593, "name": "d48c0b7bdf347e7da4ba407348464ac6", "is_disabled": 0, "rental_uris": {"android": "https://dc.lft.to/lastmile_qr_scan", "ios": "https://dc.lft.to/lastmile_qr_scan"}, "type": "electric_scooter", "lat": 38.893327166666666, "is_reserved": 0, "fusion_lat": 0.0}, {"bike_id": "50bebaf6583f4a304cb49a06651bc74b", "fusion_lon": 0.0, "lon": -77.04169733333333, "name": "50bebaf6583f4a304cb49a06651bc74b", "is_disabled": 0, "rental_uris": {"android": "https://dc.lft.to/lastmile_qr_scan", "ios": "https://dc.lft.to/lastmile_qr_scan"}, "type": "electric_scooter", "lat": 38.91984716666666, "is_reserved": 0, "fusion_lat": 0.0}, {"bike_id": "e7bf29e1e4c030bec3742642835a7e0e", "fusion_lon": 0.0, "lon": -77.018187, "name": "e7bf29e1e4c030bec3742642835a7e0e", "is_disabled": 0, "rental_uris": {"android": "https://dc.lft.to/lastmile_qr_scan", "ios": "https://dc.lft.to/lastmile_qr_scan"}, "type": "electric_scooter", "lat": 38.9223655, "is_reserved": 0, "fusion_lat": 0.0}, {"bike_id": "dd8e823e8165bfab1e99eb58d9716fdf", "fusion_lon": 0.0, "lon": -77.02102266666667, "name": "dd8e823e8165bfab1e99eb58d9716fdf", "is_disabled": 0, "rental_uris": {"android": "https://dc.lft.to/lastmile_qr_scan", "ios": "https://dc.lft.to/lastmile_qr_scan"}, "type": "electric_scooter", "lat": 38.8849085, "is_reserved": 0, "fusion_lat": 0.0}, {"bike_id": "dc06850112a39180c0a6bc3fb3d9d9e3", "fusion_lon": 0.0, "lon": -76.98497533333334, "name": "dc06850112a39180c0a6bc3fb3d9d9e3", "is_disabled": 0, "rental_uris": {"android": "https://dc.lft.to/lastmile_qr_scan", "ios": "https://dc.lft.to/lastmile_qr_scan"}, "type": "electric_scooter", "lat": 38.8935495, "is_reserved": 0, "fusion_lat": 0.0}, {"bike_id": "c6d0cb8f4c16e0812753b4fd59b42fbc", "fusion_lon": 0.0, "lon": -77.01032216666667, "name": "c6d0cb8f4c16e0812753b4fd59b42fbc", "is_disabled": 0, "rental_uris": {"android": "https://dc.lft.to/lastmile_qr_scan", "ios": "https://dc.lft.to/lastmile_qr_scan"}, "type": "electric_bike", "lat": 38.9588125, "is_reserved": 0, "fusion_lat": 0.0}, {"bike_id": "7532c965d8864615bb0833a5532ad9c1", "fusion_lon": 0.0, "lon": -77.00553766666667, "name": "7532c965d8864615bb0833a5532ad9c1", "is_disabled": 0, "rental_uris": {"android": "https://dc.lft.to/lastmile_qr_scan", "ios": "https://dc.lft.to/lastmile_qr_scan"}, "type": "electric_bike", "lat": 38.90561483333333, "is_reserved": 0, "fusion_lat": 0.0}, {"bike_id": "19385c93d8ef21ad9a7388e773ad559d", "fusion_lon": 0.0, "lon": -77.03897383333333, "name": "19385c93d8ef21ad9a7388e773ad559d", "is_disabled": 0, "rental_uris": {"android": "https://dc.lft.to/lastmile_qr_scan", "ios": "https://dc.lft.to/lastmile_qr_scan"}, "type": "electric_scooter", "lat": 38.91860066666667, "is_reserved": 0, "fusion_lat": 0.0}, {"bike_id": "c054dc8f577c02f6feeb4274ea987422", "fusion_lon": 0.0, "lon": -76.977095, "name": "c054dc8f577c02f6feeb4274ea987422", "is_disabled": 0, "rental_uris": {"android": "https://dc.lft.to/lastmile_qr_scan", "ios": "https://dc.lft.to/lastmile_qr_scan"}, "type": "electric_scooter", "lat": 38.9025485, "is_reserved": 0, "fusion_lat": 0.0}, {"bike_id": "abff4e303a21cd1ed233eceffacc12ae", "fusion_lon": 0.0, "lon": -77.03056716666667, "name": "abff4e303a21cd1ed233eceffacc12ae", "is_disabled": 0, "rental_uris": {"android": "https://dc.lft.to/lastmile_qr_scan", "ios": "https://dc.lft.to/lastmile_qr_scan"}, "type": "electric_scooter", "lat": 38.934511666666666, "is_reserved": 0, "fusion_lat": 0.0}, {"bike_id": "69381f68a78e0414fa8ea69953e19d1d", "fusion_lon": 0.0, "lon": -77.04664816666667, "name": "69381f68a78e0414fa8ea69953e19d1d", "is_disabled": 0, "rental_uris": {"android": "https://dc.lft.to/lastmile_qr_scan", "ios": "https://dc.lft.to/lastmile_qr_scan"}, "type": "electric_scooter", "lat": 38.9006995, "is_reserved": 0, "fusion_lat": 0.0}, {"bike_id": "bc0123bb0a60ec3b1b06b373bb4b33fa", "fusion_lon": 0.0, "lon": -77.03659666666667, "name": "bc0123bb0a60ec3b1b06b373bb4b33fa", "is_disabled": 0, "rental_uris": {"android": "https://dc.lft.to/lastmile_qr_scan", "ios": "https://dc.lft.to/lastmile_qr_scan"}, "type": "electric_scooter", "lat": 38.922901833333334, "is_reserved": 0, "fusion_lat": 0.0}, {"bike_id": "2e88dd16b22431ab0b25de648dcacf18", "fusion_lon": 0.0, "lon": -76.99947716666667, "name": "2e88dd16b22431ab0b25de648dcacf18", "is_disabled": 0, "rental_uris": {"android": "https://dc.lft.to/lastmile_qr_scan", "ios": "https://dc.lft.to/lastmile_qr_scan"}, "type": "electric_scooter", "lat": 38.84292283333333, "is_reserved": 0, "fusion_lat": 0.0}, {"bike_id": "3cd9a6b49ed91fc99d8d15bfa312d202", "fusion_lon": 0.0, "lon": -77.03912783333334, "name": "3cd9a6b49ed91fc99d8d15bfa312d202", "is_disabled": 0, "rental_uris": {"android": "https://dc.lft.to/lastmile_qr_scan", "ios": "https://dc.lft.to/lastmile_qr_scan"}, "type": "electric_scooter", "lat": 38.915562333333334, "is_reserved": 0, "fusion_lat": 0.0}, {"bike_id": "4a35e2fa353fbbf1aa1aba66c3af843e", "fusion_lon": 0.0, "lon": -77.02203766666666, "name": "4a35e2fa353fbbf1aa1aba66c3af843e", "is_disabled": 0, "rental_uris": {"android": "https://dc.lft.to/lastmile_qr_scan", "ios": "https://dc.lft.to/lastmile_qr_scan"}, "type": "electric_scooter", "lat": 38.918986, "is_reserved": 0, "fusion_lat": 0.0}, {"bike_id": "220efef8c7b4fc8a270f953c0f977545", "fusion_lon": 0.0, "lon": -76.98406266666667, "name": "220efef8c7b4fc8a270f953c0f977545", "is_disabled": 0, "rental_uris": {"android": "https://dc.lft.to/lastmile_qr_scan", "ios": "https://dc.lft.to/lastmile_qr_scan"}, "type": "electric_scooter", "lat": 38.867002, "is_reserved": 0, "fusion_lat": 0.0}, {"bike_id": "e739029411247a6a935bea3b1413a4c3", "fusion_lon": 0.0, "lon": -77.0349305, "name": "e739029411247a6a935bea3b1413a4c3", "is_disabled": 0, "rental_uris": {"android": "https://dc.lft.to/lastmile_qr_scan", "ios": "https://dc.lft.to/lastmile_qr_scan"}, "type": "electric_scooter", "lat": 38.92479483333334, "is_reserved": 0, "fusion_lat": 0.0}, {"bike_id": "d797da2142f10eb2c8105aa5fd4d62e0", "fusion_lon": 0.0, "lon": -76.93740083333333, "name": "d797da2142f10eb2c8105aa5fd4d62e0", "is_disabled": 0, "rental_uris": {"android": "https://dc.lft.to/lastmile_qr_scan", "ios": "https://dc.lft.to/lastmile_qr_scan"}, "type": "electric_scooter", "lat": 38.890154333333335, "is_reserved": 0, "fusion_lat": 0.0}, {"bike_id": "34ff26190ce1db08f41b59ae5c44235b", "fusion_lon": 0.0, "lon": -77.01619, "name": "34ff26190ce1db08f41b59ae5c44235b", "is_disabled": 0, "rental_uris": {"android": "https://dc.lft.to/lastmile_qr_scan", "ios": "https://dc.lft.to/lastmile_qr_scan"}, "type": "electric_scooter", "lat": 38.902553833333336, "is_reserved": 0, "fusion_lat": 0.0}, {"bike_id": "936d887036c5aff7896f775791751b2c", "fusion_lon": 0.0, "lon": -77.0505125, "name": "936d887036c5aff7896f775791751b2c", "is_disabled": 0, "rental_uris": {"android": "https://dc.lft.to/lastmile_qr_scan", "ios": "https://dc.lft.to/lastmile_qr_scan"}, "type": "electric_scooter", "lat": 38.923442666666666, "is_reserved": 0, "fusion_lat": 0.0}, {"bike_id": "81f3524a6e06fc84cdcc02e1a11fcef4", "fusion_lon": 0.0, "lon": -77.06192666666666, "name": "81f3524a6e06fc84cdcc02e1a11fcef4", "is_disabled": 0, "rental_uris": {"android": "https://dc.lft.to/lastmile_qr_scan", "ios": "https://dc.lft.to/lastmile_qr_scan"}, "type": "electric_scooter", "lat": 38.9444575, "is_reserved": 0, "fusion_lat": 0.0}, {"bike_id": "914b571b270a556761d5399b83295697", "fusion_lon": 0.0, "lon": -77.03378883333333, "name": "914b571b270a556761d5399b83295697", "is_disabled": 0, "rental_uris": {"android": "https://dc.lft.to/lastmile_qr_scan", "ios": "https://dc.lft.to/lastmile_qr_scan"}, "type": "electric_scooter", "lat": 38.9222815, "is_reserved": 0, "fusion_lat": 0.0}, {"bike_id": "fe58d31ba35a9d1460f3239c7f35b26b", "fusion_lon": 0.0, "lon": -77.04554166666667, "name": "fe58d31ba35a9d1460f3239c7f35b26b", "is_disabled": 0, "rental_uris": {"android": "https://dc.lft.to/lastmile_qr_scan", "ios": "https://dc.lft.to/lastmile_qr_scan"}, "type": "electric_scooter", "lat": 38.92422833333333, "is_reserved": 0, "fusion_lat": 0.0}, {"bike_id": "c3309a5b3eea75b253fa2c43649e5d77", "fusion_lon": 0.0, "lon": -76.954158, "name": "c3309a5b3eea75b253fa2c43649e5d77", "is_disabled": 0, "rental_uris": {"android": "https://dc.lft.to/lastmile_qr_scan", "ios": "https://dc.lft.to/lastmile_qr_scan"}, "type": "electric_bike", "lat": 38.88995833333333, "is_reserved": 0, "fusion_lat": 0.0}, {"bike_id": "35c1049295fe88066a9ae8414dc8e35a", "fusion_lon": 0.0, "lon": -77.05402316666667, "name": "35c1049295fe88066a9ae8414dc8e35a", "is_disabled": 0, "rental_uris": {"android": "https://dc.lft.to/lastmile_qr_scan", "ios": "https://dc.lft.to/lastmile_qr_scan"}, "type": "electric_scooter", "lat": 38.928145666666666, "is_reserved": 0, "fusion_lat": 0.0}, {"bike_id": "44cc732eb083712e7a0546c29fe31af9", "fusion_lon": 0.0, "lon": -77.112438, "name": "44cc732eb083712e7a0546c29fe31af9", "is_disabled": 0, "rental_uris": {"android": "https://dc.lft.to/lastmile_qr_scan", "ios": "https://dc.lft.to/lastmile_qr_scan"}, "type": "electric_bike", "lat": 38.8560735, "is_reserved": 0, "fusion_lat": 0.0}, {"bike_id": "783e5ee816f9e8879c183cbdb12f03e6", "fusion_lon": 0.0, "lon": -77.00347733333334, "name": "783e5ee816f9e8879c183cbdb12f03e6", "is_disabled": 0, "rental_uris": {"android": "https://dc.lft.to/lastmile_qr_scan", "ios": "https://dc.lft.to/lastmile_qr_scan"}, "type": "electric_scooter", "lat": 38.901245833333334, "is_reserved": 0, "fusion_lat": 0.0}, {"bike_id": "c0cc3dff9a3174e8dfef99c64ac5d78c", "fusion_lon": 0.0, "lon": -77.01751516666667, "name": "c0cc3dff9a3174e8dfef99c64ac5d78c", "is_disabled": 0, "rental_uris": {"android": "https://dc.lft.to/lastmile_qr_scan", "ios": "https://dc.lft.to/lastmile_qr_scan"}, "type": "electric_scooter", "lat": 38.91114916666667, "is_reserved": 0, "fusion_lat": 0.0}, {"bike_id": "dae46f38d468476780d8eae5ed485dab", "fusion_lon": 0.0, "lon": -77.0122165, "name": "dae46f38d468476780d8eae5ed485dab", "is_disabled": 0, "rental_uris": {"android": "https://dc.lft.to/lastmile_qr_scan", "ios": "https://dc.lft.to/lastmile_qr_scan"}, "type": "electric_scooter", "lat": 38.91533583333333, "is_reserved": 0, "fusion_lat": 0.0}, {"bike_id": "8e2e7ae4052e3b935db2c93229c8bd88", "fusion_lon": 0.0, "lon": -77.03104666666667, "name": "8e2e7ae4052e3b935db2c93229c8bd88", "is_disabled": 0, "rental_uris": {"android": "https://dc.lft.to/lastmile_qr_scan", "ios": "https://dc.lft.to/lastmile_qr_scan"}, "type": "electric_scooter", "lat": 38.89837983333334, "is_reserved": 0, "fusion_lat": 0.0}, {"bike_id": "65a79017aa9c3bd1e54779e08c9336af", "fusion_lon": 0.0, "lon": -77.0299125, "name": "65a79017aa9c3bd1e54779e08c9336af", "is_disabled": 0, "rental_uris": {"android": "https://dc.lft.to/lastmile_qr_scan", "ios": "https://dc.lft.to/lastmile_qr_scan"}, "type": "electric_scooter", "lat": 38.92372866666667, "is_reserved": 0, "fusion_lat": 0.0}, {"bike_id": "26c105a426150422ba6f5013aa5c0d97", "fusion_lon": 0.0, "lon": -77.02307133333333, "name": "26c105a426150422ba6f5013aa5c0d97", "is_disabled": 0, "rental_uris": {"android": "https://dc.lft.to/lastmile_qr_scan", "ios": "https://dc.lft.to/lastmile_qr_scan"}, "type": "electric_scooter", "lat": 38.936016, "is_reserved": 0, "fusion_lat": 0.0}, {"bike_id": "aecac2540f25c49d270782c200489296", "fusion_lon": 0.0, "lon": -77.00728616666666, "name": "aecac2540f25c49d270782c200489296", "is_disabled": 0, "rental_uris": {"android": "https://dc.lft.to/lastmile_qr_scan", "ios": "https://dc.lft.to/lastmile_qr_scan"}, "type": "electric_scooter", "lat": 38.88492433333333, "is_reserved": 0, "fusion_lat": 0.0}, {"bike_id": "8f38670af44f87eaf198b6e46daacef2", "fusion_lon": 0.0, "lon": -77.03289833333334, "name": "8f38670af44f87eaf198b6e46daacef2", "is_disabled": 0, "rental_uris": {"android": "https://dc.lft.to/lastmile_qr_scan", "ios": "https://dc.lft.to/lastmile_qr_scan"}, "type": "electric_scooter", "lat": 38.919951166666664, "is_reserved": 0, "fusion_lat": 0.0}, {"bike_id": "fff7ab0f5adf639337a530e23fe2befb", "fusion_lon": 0.0, "lon": -77.033443, "name": "fff7ab0f5adf639337a530e23fe2befb", "is_disabled": 0, "rental_uris": {"android": "https://dc.lft.to/lastmile_qr_scan", "ios": "https://dc.lft.to/lastmile_qr_scan"}, "type": "electric_scooter", "lat": 38.89840366666667, "is_reserved": 0, "fusion_lat": 0.0}, {"bike_id": "76737e6366965c1c9bb79c46acb42efb", "fusion_lon": 0.0, "lon": -77.0161945, "name": "76737e6366965c1c9bb79c46acb42efb", "is_disabled": 0, "rental_uris": {"android": "https://dc.lft.to/lastmile_qr_scan", "ios": "https://dc.lft.to/lastmile_qr_scan"}, "type": "electric_scooter", "lat": 38.8997265, "is_reserved": 0, "fusion_lat": 0.0}, {"bike_id": "9c25ef6420ad7995294a249dc3218923", "fusion_lon": 0.0, "lon": -77.12081, "name": "9c25ef6420ad7995294a249dc3218923", "is_disabled": 0, "rental_uris": {"android": "https://dc.lft.to/lastmile_qr_scan", "ios": "https://dc.lft.to/lastmile_qr_scan"}, "type": "electric_bike", "lat": 38.854243333333336, "is_reserved": 0, "fusion_lat": 0.0}, {"bike_id": "67546ff521c89c20abbdfb2df9306635", "fusion_lon": 0.0, "lon": -77.0335485, "name": "67546ff521c89c20abbdfb2df9306635", "is_disabled": 0, "rental_uris": {"android": "https://dc.lft.to/lastmile_qr_scan", "ios": "https://dc.lft.to/lastmile_qr_scan"}, "type": "electric_scooter", "lat": 38.885015, "is_reserved": 0, "fusion_lat": 0.0}, {"bike_id": "32573b96a228ca101ac6a65fbb938f88", "fusion_lon": 0.0, "lon": -77.06352516666666, "name": "32573b96a228ca101ac6a65fbb938f88", "is_disabled": 0, "rental_uris": {"android": "https://dc.lft.to/lastmile_qr_scan", "ios": "https://dc.lft.to/lastmile_qr_scan"}, "type": "electric_scooter", "lat": 38.906787, "is_reserved": 0, "fusion_lat": 0.0}, {"bike_id": "2f29ba8be4fb250068b08170348c9c1c", "fusion_lon": 0.0, "lon": -77.11043816666667, "name": "2f29ba8be4fb250068b08170348c9c1c", "is_disabled": 0, "rental_uris": {"android": "https://dc.lft.to/lastmile_qr_scan", "ios": "https://dc.lft.to/lastmile_qr_scan"}, "type": "electric_bike", "lat": 38.8707515, "is_reserved": 0, "fusion_lat": 0.0}, {"bike_id": "1e959a361f6f350d26ba7aa736a66bd3", "fusion_lon": 0.0, "lon": -77.04231133333333, "name": "1e959a361f6f350d26ba7aa736a66bd3", "is_disabled": 0, "rental_uris": {"android": "https://dc.lft.to/lastmile_qr_scan", "ios": "https://dc.lft.to/lastmile_qr_scan"}, "type": "electric_scooter", "lat": 38.917943, "is_reserved": 0, "fusion_lat": 0.0}, {"bike_id": "5d7278efc317771a713191ba4f4f8be4", "fusion_lon": 0.0, "lon": -77.04513, "name": "5d7278efc317771a713191ba4f4f8be4", "is_disabled": 0, "rental_uris": {"android": "https://dc.lft.to/lastmile_qr_scan", "ios": "https://dc.lft.to/lastmile_qr_scan"}, "type": "electric_scooter", "lat": 38.88604316666667, "is_reserved": 0, "fusion_lat": 0.0}, {"bike_id": "ac6cc20b9c80d76609e9ca0213bf7276", "fusion_lon": 0.0, "lon": -77.02283333333334, "name": "ac6cc20b9c80d76609e9ca0213bf7276", "is_disabled": 0, "rental_uris": {"android": "https://dc.lft.to/lastmile_qr_scan", "ios": "https://dc.lft.to/lastmile_qr_scan"}, "type": "electric_scooter", "lat": 38.916181, "is_reserved": 0, "fusion_lat": 0.0}, {"bike_id": "a8f588bd07afd48048fde1fec5772ddb", "fusion_lon": 0.0, "lon": -76.93198233333334, "name": "a8f588bd07afd48048fde1fec5772ddb", "is_disabled": 0, "rental_uris": {"android": "https://dc.lft.to/lastmile_qr_scan", "ios": "https://dc.lft.to/lastmile_qr_scan"}, "type": "electric_scooter", "lat": 38.898806, "is_reserved": 0, "fusion_lat": 0.0}, {"bike_id": "163b717a8c78bef033c5044d3b459ce9", "fusion_lon": 0.0, "lon": -77.029375, "name": "163b717a8c78bef033c5044d3b459ce9", "is_disabled": 0, "rental_uris": {"android": "https://dc.lft.to/lastmile_qr_scan", "ios": "https://dc.lft.to/lastmile_qr_scan"}, "type": "electric_scooter", "lat": 38.8995285, "is_reserved": 0, "fusion_lat": 0.0}, {"bike_id": "1b837d8f03c9af92c450d69f0911c463", "fusion_lon": 0.0, "lon": -76.99876466666667, "name": "1b837d8f03c9af92c450d69f0911c463", "is_disabled": 0, "rental_uris": {"android": "https://dc.lft.to/lastmile_qr_scan", "ios": "https://dc.lft.to/lastmile_qr_scan"}, "type": "electric_scooter", "lat": 38.9002355, "is_reserved": 0, "fusion_lat": 0.0}, {"bike_id": "0e67f86f85082419e9ce73a0ae552387", "fusion_lon": 0.0, "lon": -77.13882466666666, "name": "0e67f86f85082419e9ce73a0ae552387", "is_disabled": 0, "rental_uris": {"android": "https://dc.lft.to/lastmile_qr_scan", "ios": "https://dc.lft.to/lastmile_qr_scan"}, "type": "electric_bike", "lat": 38.896758166666665, "is_reserved": 0, "fusion_lat": 0.0}, {"bike_id": "ad4de7050279fedffb164539b9380a89", "fusion_lon": 0.0, "lon": -76.999059, "name": "ad4de7050279fedffb164539b9380a89", "is_disabled": 0, "rental_uris": {"android": "https://dc.lft.to/lastmile_qr_scan", "ios": "https://dc.lft.to/lastmile_qr_scan"}, "type": "electric_scooter", "lat": 38.948164, "is_reserved": 0, "fusion_lat": 0.0}, {"bike_id": "b5664bc91a774064ea98f56d89bb1c00", "fusion_lon": 0.0, "lon": -77.022151, "name": "b5664bc91a774064ea98f56d89bb1c00", "is_disabled": 0, "rental_uris": {"android": "https://dc.lft.to/lastmile_qr_scan", "ios": "https://dc.lft.to/lastmile_qr_scan"}, "type": "electric_scooter", "lat": 38.9155685, "is_reserved": 0, "fusion_lat": 0.0}, {"bike_id": "973902e5a3f2e4eb90ae91f2e8c1ea8d", "fusion_lon": 0.0, "lon": -77.04694866666667, "name": "973902e5a3f2e4eb90ae91f2e8c1ea8d", "is_disabled": 0, "rental_uris": {"android": "https://dc.lft.to/lastmile_qr_scan", "ios": "https://dc.lft.to/lastmile_qr_scan"}, "type": "electric_scooter", "lat": 38.9210325, "is_reserved": 0, "fusion_lat": 0.0}, {"bike_id": "e3ef7447c88790a1058d7ee16701fe3e", "fusion_lon": 0.0, "lon": -77.03589316666667, "name": "e3ef7447c88790a1058d7ee16701fe3e", "is_disabled": 0, "rental_uris": {"android": "https://dc.lft.to/lastmile_qr_scan", "ios": "https://dc.lft.to/lastmile_qr_scan"}, "type": "electric_scooter", "lat": 38.93674166666667, "is_reserved": 0, "fusion_lat": 0.0}, {"bike_id": "6eb0571f8a123539956536c561a7c9d2", "fusion_lon": 0.0, "lon": -76.9795355, "name": "6eb0571f8a123539956536c561a7c9d2", "is_disabled": 0, "rental_uris": {"android": "https://dc.lft.to/lastmile_qr_scan", "ios": "https://dc.lft.to/lastmile_qr_scan"}, "type": "electric_scooter", "lat": 38.91687233333333, "is_reserved": 0, "fusion_lat": 0.0}, {"bike_id": "6bdebb035738788cfa7af59f7f110050", "fusion_lon": 0.0, "lon": -77.03566566666667, "name": "6bdebb035738788cfa7af59f7f110050", "is_disabled": 0, "rental_uris": {"android": "https://dc.lft.to/lastmile_qr_scan", "ios": "https://dc.lft.to/lastmile_qr_scan"}, "type": "electric_scooter", "lat": 38.92340333333333, "is_reserved": 0, "fusion_lat": 0.0}, {"bike_id": "9db42f4b83ef120d529276d608410951", "fusion_lon": 0.0, "lon": -77.0272095, "name": "9db42f4b83ef120d529276d608410951", "is_disabled": 0, "rental_uris": {"android": "https://dc.lft.to/lastmile_qr_scan", "ios": "https://dc.lft.to/lastmile_qr_scan"}, "type": "electric_scooter", "lat": 38.909545, "is_reserved": 0, "fusion_lat": 0.0}, {"bike_id": "5e8c4d3959962d0eea9eeac8346fe3f4", "fusion_lon": 0.0, "lon": -77.038675, "name": "5e8c4d3959962d0eea9eeac8346fe3f4", "is_disabled": 0, "rental_uris": {"android": "https://dc.lft.to/lastmile_qr_scan", "ios": "https://dc.lft.to/lastmile_qr_scan"}, "type": "electric_scooter", "lat": 38.907806666666666, "is_reserved": 0, "fusion_lat": 0.0}, {"bike_id": "2a4d5085f5b0cbfd20ae4b06491312bd", "fusion_lon": 0.0, "lon": -76.97737333333333, "name": "2a4d5085f5b0cbfd20ae4b06491312bd", "is_disabled": 0, "rental_uris": {"android": "https://dc.lft.to/lastmile_qr_scan", "ios": "https://dc.lft.to/lastmile_qr_scan"}, "type": "electric_scooter", "lat": 38.86829433333333, "is_reserved": 0, "fusion_lat": 0.0}, {"bike_id": "341ebe9c3a2b84357f68d98eb2f456e6", "fusion_lon": 0.0, "lon": -77.017657, "name": "341ebe9c3a2b84357f68d98eb2f456e6", "is_disabled": 0, "rental_uris": {"android": "https://dc.lft.to/lastmile_qr_scan", "ios": "https://dc.lft.to/lastmile_qr_scan"}, "type": "electric_scooter", "lat": 38.91730033333333, "is_reserved": 0, "fusion_lat": 0.0}, {"bike_id": "ce76dd1c32758d305fa5c3fe906bb4a1", "fusion_lon": 0.0, "lon": -77.02980766666667, "name": "ce76dd1c32758d305fa5c3fe906bb4a1", "is_disabled": 0, "rental_uris": {"android": "https://dc.lft.to/lastmile_qr_scan", "ios": "https://dc.lft.to/lastmile_qr_scan"}, "type": "electric_scooter", "lat": 38.951941166666664, "is_reserved": 0, "fusion_lat": 0.0}, {"bike_id": "29dbd987a8842065e6493bd9d8ab1189", "fusion_lon": 0.0, "lon": -77.04179416666666, "name": "29dbd987a8842065e6493bd9d8ab1189", "is_disabled": 0, "rental_uris": {"android": "https://dc.lft.to/lastmile_qr_scan", "ios": "https://dc.lft.to/lastmile_qr_scan"}, "type": "electric_scooter", "lat": 38.919372, "is_reserved": 0, "fusion_lat": 0.0}, {"bike_id": "d1d59e9920ca3da0606bb85eaa02032b", "fusion_lon": 0.0, "lon": -77.02201166666667, "name": "d1d59e9920ca3da0606bb85eaa02032b", "is_disabled": 0, "rental_uris": {"android": "https://dc.lft.to/lastmile_qr_scan", "ios": "https://dc.lft.to/lastmile_qr_scan"}, "type": "electric_scooter", "lat": 38.89569066666667, "is_reserved": 0, "fusion_lat": 0.0}, {"bike_id": "42de8f5cd0fafff79854017aab32933d", "fusion_lon": 0.0, "lon": -77.01760583333333, "name": "42de8f5cd0fafff79854017aab32933d", "is_disabled": 0, "rental_uris": {"android": "https://dc.lft.to/lastmile_qr_scan", "ios": "https://dc.lft.to/lastmile_qr_scan"}, "type": "electric_scooter", "lat": 38.8785345, "is_reserved": 0, "fusion_lat": 0.0}, {"bike_id": "5c68b873a3903a94fdb48bb09f9000c5", "fusion_lon": 0.0, "lon": -76.965079, "name": "5c68b873a3903a94fdb48bb09f9000c5", "is_disabled": 0, "rental_uris": {"android": "https://dc.lft.to/lastmile_qr_scan", "ios": "https://dc.lft.to/lastmile_qr_scan"}, "type": "electric_bike", "lat": 38.875544, "is_reserved": 0, "fusion_lat": 0.0}, {"bike_id": "a0f4fbe07fb86678b6b8f1468e9bd484", "fusion_lon": 0.0, "lon": -77.02692116666667, "name": "a0f4fbe07fb86678b6b8f1468e9bd484", "is_disabled": 0, "rental_uris": {"android": "https://dc.lft.to/lastmile_qr_scan", "ios": "https://dc.lft.to/lastmile_qr_scan"}, "type": "electric_scooter", "lat": 38.911364166666665, "is_reserved": 0, "fusion_lat": 0.0}, {"bike_id": "83de7b4e78f034fbad9ab5047826b2fa", "fusion_lon": 0.0, "lon": -77.05055616666667, "name": "83de7b4e78f034fbad9ab5047826b2fa", "is_disabled": 0, "rental_uris": {"android": "https://dc.lft.to/lastmile_qr_scan", "ios": "https://dc.lft.to/lastmile_qr_scan"}, "type": "electric_scooter", "lat": 38.923388, "is_reserved": 0, "fusion_lat": 0.0}, {"bike_id": "877d2be5db007592c82bd89b66a4131c", "fusion_lon": 0.0, "lon": -77.02072933333334, "name": "877d2be5db007592c82bd89b66a4131c", "is_disabled": 0, "rental_uris": {"android": "https://dc.lft.to/lastmile_qr_scan", "ios": "https://dc.lft.to/lastmile_qr_scan"}, "type": "electric_scooter", "lat": 38.927192833333336, "is_reserved": 0, "fusion_lat": 0.0}, {"bike_id": "4531171e4df1a2b3ea2a7ef74b225fb7", "fusion_lon": 0.0, "lon": -77.03286316666667, "name": "4531171e4df1a2b3ea2a7ef74b225fb7", "is_disabled": 0, "rental_uris": {"android": "https://dc.lft.to/lastmile_qr_scan", "ios": "https://dc.lft.to/lastmile_qr_scan"}, "type": "electric_scooter", "lat": 38.934448833333335, "is_reserved": 0, "fusion_lat": 0.0}, {"bike_id": "cae2eda742060921a2982d3549f8e7a3", "fusion_lon": 0.0, "lon": -76.98490416666667, "name": "cae2eda742060921a2982d3549f8e7a3", "is_disabled": 0, "rental_uris": {"android": "https://dc.lft.to/lastmile_qr_scan", "ios": "https://dc.lft.to/lastmile_qr_scan"}, "type": "electric_scooter", "lat": 38.866747333333336, "is_reserved": 0, "fusion_lat": 0.0}, {"bike_id": "1c16b9017e74d8f4f6d333b1d5c6c5ed", "fusion_lon": 0.0, "lon": -77.03483383333334, "name": "1c16b9017e74d8f4f6d333b1d5c6c5ed", "is_disabled": 0, "rental_uris": {"android": "https://dc.lft.to/lastmile_qr_scan", "ios": "https://dc.lft.to/lastmile_qr_scan"}, "type": "electric_scooter", "lat": 38.90282333333333, "is_reserved": 0, "fusion_lat": 0.0}, {"bike_id": "e5c6edf8b2ae4485ba2e187d4ec9bf85", "fusion_lon": 0.0, "lon": -77.02377833333334, "name": "e5c6edf8b2ae4485ba2e187d4ec9bf85", "is_disabled": 0, "rental_uris": {"android": "https://dc.lft.to/lastmile_qr_scan", "ios": "https://dc.lft.to/lastmile_qr_scan"}, "type": "electric_scooter", "lat": 38.90200216666667, "is_reserved": 0, "fusion_lat": 0.0}, {"bike_id": "87a9b81181ae94dcb6cbc48c495aff45", "fusion_lon": 0.0, "lon": -77.01776933333333, "name": "87a9b81181ae94dcb6cbc48c495aff45", "is_disabled": 0, "rental_uris": {"android": "https://dc.lft.to/lastmile_qr_scan", "ios": "https://dc.lft.to/lastmile_qr_scan"}, "type": "electric_scooter", "lat": 38.94415733333334, "is_reserved": 0, "fusion_lat": 0.0}, {"bike_id": "887c2c1135faca17d4d99e766bfdc2f6", "fusion_lon": 0.0, "lon": -76.99501716666667, "name": "887c2c1135faca17d4d99e766bfdc2f6", "is_disabled": 0, "rental_uris": {"android": "https://dc.lft.to/lastmile_qr_scan", "ios": "https://dc.lft.to/lastmile_qr_scan"}, "type": "electric_scooter", "lat": 38.89904216666667, "is_reserved": 0, "fusion_lat": 0.0},