{"data": {"bikes": [{"is_disabled": 0, "is_reserved": 0, "fusion_lat": 0.0, "lat": 38.876990166666666, "fusion_lon": 0.0, "rental_uris": {"ios": "https://dc.lft.to/lastmile_qr_scan", "android": "https://dc.lft.to/lastmile_qr_scan"}, "lon": -76.9962465, "bike_id": "5a506bd5c4db6edf8befabdd08bd2dd0", "type": "electric_scooter", "name": "5a506bd5c4db6edf8befabdd08bd2dd0"}, {"is_disabled": 0, "is_reserved": 0, "fusion_lat": 0.0, "lat": 38.90275966666667, "fusion_lon": 0.0, "rental_uris": {"ios": "https://dc.lft.to/lastmile_qr_scan", "android": "https://dc.lft.to/lastmile_qr_scan"}, "lon": -77.059141, "bike_id": "052f662a9c94faa624060e2d5a307c21", "type": "electric_scooter", "name": "052f662a9c94faa624060e2d5a307c21"}, {"is_disabled": 0, "is_reserved": 0, "fusion_lat": 0.0, "lat": 38.938674166666665, "fusion_lon": 0.0, "rental_uris": {"ios": "https://dc.lft.to/lastmile_qr_scan", "android": "https://dc.lft.to/lastmile_qr_scan"}, "lon": -77.03047666666667, "bike_id": "67aeba9c5b39818bd20c57df982b0906", "type": "electric_scooter", "name": "67aeba9c5b39818bd20c57df982b0906"}, {"is_disabled": 0, "is_reserved": 0, "fusion_lat": 0.0, "lat": 38.947159166666665, "fusion_lon": 0.0, "rental_uris": {"ios": "https://dc.lft.to/lastmile_qr_scan", "android": "https://dc.lft.to/lastmile_qr_scan"}, "lon": -77.02617816666667, "bike_id": "ec4a2d2544245562b2ec310a5ba3e50f", "type": "electric_scooter", "name": "ec4a2d2544245562b2ec310a5ba3e50f"}, {"is_disabled": 0, "is_reserved": 0, "fusion_lat": 0.0, "lat": 38.874462666666666, "fusion_lon": 0.0, "rental_uris": {"ios": "https://dc.lft.to/lastmile_qr_scan", "android": "https://dc.lft.to/lastmile_qr_scan"}, "lon": -77.002791, "bike_id": "63336854b44b9f2713195e96b56bc5d4", "type": "electric_scooter", "name": "63336854b44b9f2713195e96b56bc5d4"}, {"is_disabled": 0, "is_reserved": 0, "fusion_lat": 0.0, "lat": 38.84477966666667, "fusion_lon": 0.0, "rental_uris": {"ios": "https://dc.lft.to/lastmile_qr_scan", "android": "https://dc.lft.to/lastmile_qr_scan"}, "lon": -76.99602316666666, "bike_id": "8901dd5ea75c8e24bf04f45b8efe744f", "type": "electric_bike", "name": "8901dd5ea75c8e24bf04f45b8efe744f"}, {"is_disabled": 0, "is_reserved": 0, "fusion_lat": 0.0, "lat": 38.920649166666664, "fusion_lon": 0.0, "rental_uris": {"ios": "https://dc.lft.to/lastmile_qr_scan", "android": "https://dc.lft.to/lastmile_qr_scan"}, "lon": -77.04545633333333, "bike_id": "867995bc4ad4930ed5438720f0f95ea7", "type": "electric_scooter", "name": "867995bc4ad4930ed5438720f0f95ea7"}, {"is_disabled": 0, "is_reserved": 0, "fusion_lat": 0.0, "lat": 38.9747685, "fusion_lon": 0.0, "rental_uris": {"ios": "https://dc.lft.to/lastmile_qr_scan", "android": "https://dc.lft.to/lastmile_qr_scan"}, "lon": -76.986723, "bike_id": "b8a6b3026c62e7fdfb2be5218b54e3bc", "type": "electric_bike", "name": "b8a6b3026c62e7fdfb2be5218b54e3bc"}, {"is_disabled": 0, "is_reserved": 0, "fusion_lat": 0.0, "lat": 38.8349425, "fusion_lon": 0.0, "rental_uris": {"ios": "https://dc.lft.to/lastmile_qr_scan", "android": "https://dc.lft.to/lastmile_qr_scan"}, "lon": -77.00434516666667, "bike_id": "d9237de9ed4ae2dd55c08bd97b5379b6", "type": "electric_bike", "name": "d9237de9ed4ae2dd55c08bd97b5379b6"}, {"is_disabled": 0, "is_reserved": 0, "fusion_lat": 0.0, "lat": 38.84093416666666, "fusion_lon": 0.0, "rental_uris": {"ios": "https://dc.lft.to/lastmile_qr_scan", "android": "https://dc.lft.to/lastmile_qr_scan"}, "lon": -76.9702695, "bike_id": "535f9ddff4cc5b6ed507c5850eb0d00e", "type": "electric_bike", "name": "535f9ddff4cc5b6ed507c5850eb0d00e"}, {"is_disabled": 0, "is_reserved": 0, "fusion_lat": 0.0, "lat": 38.904984, "fusion_lon": 0.0, "rental_uris": {"ios": "https://dc.lft.to/lastmile_qr_scan", "android": "https://dc.lft.to/lastmile_qr_scan"}, "lon": -77.02591166666667, "bike_id": "c4b70b86d326b720b644b16544facbd3", "type": "electric_scooter", "name": "c4b70b86d326b720b644b16544facbd3"}, {"is_disabled": 0, "is_reserved": 0, "fusion_lat": 0.0, "lat": 38.898569333333334, "fusion_lon": 0.0, "rental_uris": {"ios": "https://dc.lft.to/lastmile_qr_scan", "android": "https://dc.lft.to/lastmile_qr_scan"}, "lon": -77.00197316666667, "bike_id": "afb55bae017d4175453d3ca5627a5a8f", "type": "electric_scooter", "name": "afb55bae017d4175453d3ca5627a5a8f"}, {"is_disabled": 0, "is_reserved": 0, "fusion_lat": 0.0, "lat": 39.022992, "fusion_lon": 0.0, "rental_uris": {"ios": "https://dc.lft.to/lastmile_qr_scan", "android": "https://dc.lft.to/lastmile_qr_scan"}, "lon": -77.02105866666666, "bike_id": "257bc6054b602de3890394c1b0493b58", "type": "electric_bike", "name": "257bc6054b602de3890394c1b0493b58"}, {"is_disabled": 0, "is_reserved": 0, "fusion_lat": 0.0, "lat": 38.91556933333333, "fusion_lon": 0.0, "rental_uris": {"ios": "https://dc.lft.to/lastmile_qr_scan", "android": "https://dc.lft.to/lastmile_qr_scan"}, "lon": -77.02047433333334, "bike_id": "9441968df3d1c646add9737869544685", "type": "electric_scooter", "name": "9441968df3d1c646add9737869544685"}, {"is_disabled": 0, "is_reserved": 0, "fusion_lat": 0.0, "lat": 38.91925483333333, "fusion_lon": 0.0, "rental_uris": {"ios": "https://dc.lft.to/lastmile_qr_scan", "android": "https://dc.lft.to/lastmile_qr_scan"}, "lon": -77.02455066666667, "bike_id": "0642d19c406c4a8ce3f59f9232f07818", "type": "electric_scooter", "name": "0642d19c406c4a8ce3f59f9232f07818"}, {"is_disabled": 0, "is_reserved": 0, "fusion_lat": 0.0, "lat": 38.87828983333333, "fusion_lon": 0.0, "rental_uris": {"ios": "https://dc.lft.to/lastmile_qr_scan", "android": "https://dc.lft.to/lastmile_qr_scan"}, "lon": -77.00867066666666, "bike_id": "e2d2882a57a226cdc15302d75287767a", "type": "electric_bike", "name": "e2d2882a57a226cdc15302d75287767a"}, {"is_disabled": 0, "is_reserved": 0, "fusion_lat": 0.0, "lat": 38.931193666666665, "fusion_lon": 0.0, "rental_uris": {"ios": "https://dc.lft.to/lastmile_qr_scan", "android": "https://dc.lft.to/lastmile_qr_scan"}, "lon": -77.02725083333333, "bike_id": "f0042b2cd0ee309d3e169c880510a235", "type": "electric_bike", "name": "f0042b2cd0ee309d3e169c880510a235"}, {"is_disabled": 0, "is_reserved": 0, "fusion_lat": 0.0, "lat": 38.91707983333333, "fusion_lon": 0.0, "rental_uris": {"ios": "https://dc.lft.to/lastmile_qr_scan", "android": "https://dc.lft.to/lastmile_qr_scan"}, "lon": -77.04146866666666, "bike_id": "36d5cfe7c4399f202bac12e19c625289", "type": "electric_scooter", "name": "36d5cfe7c4399f202bac12e19c625289"}, {"is_disabled": 0, "is_reserved": 0, "fusion_lat": 0.0, "lat": 38.9417785, "fusion_lon": 0.0, "rental_uris": {"ios": "https://dc.lft.to/lastmile_qr_scan", "android": "https://dc.lft.to/lastmile_qr_scan"}, "lon": -77.025414, "bike_id": "ddb774af0dc0a5613c3b6747221f9a04", "type": "electric_scooter", "name": "ddb774af0dc0a5613c3b6747221f9a04"}, {"is_disabled": 0, "is_reserved": 0, "fusion_lat": 0.0, "lat": 38.912326, "fusion_lon": 0.0, "rental_uris": {"ios": "https://dc.lft.to/lastmile_qr_scan", "android": "https://dc.lft.to/lastmile_qr_scan"}, "lon": -77.0640025, "bike_id": "0deb3cf9ff34d2b64c82240bd54d86e7", "type": "electric_scooter", "name": "0deb3cf9ff34d2b64c82240bd54d86e7"}, {"is_disabled": 0, "is_reserved": 0, "fusion_lat": 0.0, "lat": 38.9181815, "fusion_lon": 0.0, "rental_uris": {"ios": "https://dc.lft.to/lastmile_qr_scan", "android": "https://dc.lft.to/lastmile_qr_scan"}, "lon": -77.02561066666667, "bike_id": "31a8dab0bcab1f71cf0e8a250c60150e", "type": "electric_scooter", "name": "31a8dab0bcab1f71cf0e8a250c60150e"}, {"is_disabled": 0, "is_reserved": 0, "fusion_lat": 0.0, "lat": 38.908828666666665, "fusion_lon": 0.0, "rental_uris": {"ios": "https://dc.lft.to/lastmile_qr_scan", "android": "https://dc.lft.to/lastmile_qr_scan"}, "lon": -77.07435, "bike_id": "72c2e7839e54b46245fd575d15ec986a", "type": "electric_scooter", "name": "72c2e7839e54b46245fd575d15ec986a"}, {"is_disabled": 0, "is_reserved": 0, "fusion_lat": 0.0, "lat": 38.928621166666666, "fusion_lon": 0.0, "rental_uris": {"ios": "https://dc.lft.to/lastmile_qr_scan", "android": "https://dc.lft.to/lastmile_qr_scan"}, "lon": -77.01408183333334, "bike_id": "2c4a9541dcd700ef18dc4cb289373cb4", "type": "electric_scooter", "name": "2c4a9541dcd700ef18dc4cb289373cb4"}, {"is_disabled": 0, "is_reserved": 0, "fusion_lat": 0.0, "lat": 38.89607516666667, "fusion_lon": 0.0, "rental_uris": {"ios": "https://dc.lft.to/lastmile_qr_scan", "android": "https://dc.lft.to/lastmile_qr_scan"}, "lon": -76.99808216666666, "bike_id": "b6ae5a0c485ec6b931c81970d23bd5c4", "type": "electric_scooter", "name": "b6ae5a0c485ec6b931c81970d23bd5c4"}, {"is_disabled": 0, "is_reserved": 0, "fusion_lat": 0.0, "lat": 38.911107, "fusion_lon": 0.0, "rental_uris": {"ios": "https://dc.lft.to/lastmile_qr_scan", "android": "https://dc.lft.to/lastmile_qr_scan"}, "lon": -77.01161516666667, "bike_id": "eed6c153468c4963be6e1050f8f185e4", "type": "electric_scooter", "name": "eed6c153468c4963be6e1050f8f185e4"}, {"is_disabled": 0, "is_reserved": 0, "fusion_lat": 0.0, "lat": 38.915449, "fusion_lon": 0.0, "rental_uris": {"ios": "https://dc.lft.to/lastmile_qr_scan", "android": "https://dc.lft.to/lastmile_qr_scan"}, "lon": -77.0092025, "bike_id": "94acae460d4d5ac708f827c581dd99e7", "type": "electric_scooter", "name": "94acae460d4d5ac708f827c581dd99e7"}, {"is_disabled": 0, "is_reserved": 0, "fusion_lat": 0.0, "lat": 38.929146, "fusion_lon": 0.0, "rental_uris": {"ios": "https://dc.lft.to/lastmile_qr_scan", "android": "https://dc.lft.to/lastmile_qr_scan"}, "lon": -77.02095366666667, "bike_id": "308175584eada868017aa50b94e505e4", "type": "electric_scooter", "name": "308175584eada868017aa50b94e505e4"}, {"is_disabled": 0, "is_reserved": 0, "fusion_lat": 0.0, "lat": 38.897194166666665, "fusion_lon": 0.0, "rental_uris": {"ios": "https://dc.lft.to/lastmile_qr_scan", "android": "https://dc.lft.to/lastmile_qr_scan"}, "lon": -77.008004, "bike_id": "ce065f2614dc88600327574db2e17b60", "type": "electric_scooter", "name": "ce065f2614dc88600327574db2e17b60"}, {"is_disabled": 0, "is_reserved": 0, "fusion_lat": 0.0, "lat": 38.8409975, "fusion_lon": 0.0, "rental_uris": {"ios": "https://dc.lft.to/lastmile_qr_scan", "android": "https://dc.lft.to/lastmile_qr_scan"}, "lon": -76.98717016666667, "bike_id": "5375aff8fdf212958ef7d9a465b0b5a4", "type": "electric_bike", "name": "5375aff8fdf212958ef7d9a465b0b5a4"}, {"is_disabled": 0, "is_reserved": 0, "fusion_lat": 0.0, "lat": 38.923618833333336, "fusion_lon": 0.0, "rental_uris": {"ios": "https://dc.lft.to/lastmile_qr_scan", "android": "https://dc.lft.to/lastmile_qr_scan"}, "lon": -77.05281366666667, "bike_id": "730190dcae47b22184470c7afea8f6c8", "type": "electric_scooter", "name": "730190dcae47b22184470c7afea8f6c8"}, {"is_disabled": 0, "is_reserved": 0, "fusion_lat": 0.0, "lat": 38.9183555, "fusion_lon": 0.0, "rental_uris": {"ios": "https://dc.lft.to/lastmile_qr_scan", "android": "https://dc.lft.to/lastmile_qr_scan"}, "lon": -77.053106, "bike_id": "d9e0046d278450f99d8419010eb60b3c", "type": "electric_scooter", "name": "d9e0046d278450f99d8419010eb60b3c"}, {"is_disabled": 0, "is_reserved": 0, "fusion_lat": 0.0, "lat": 38.910521333333335, "fusion_lon": 0.0, "rental_uris": {"ios": "https://dc.lft.to/lastmile_qr_scan", "android": "https://dc.lft.to/lastmile_qr_scan"}, "lon": -76.99805416666666, "bike_id": "e282c428eac805634b17139735d7386e", "type": "electric_scooter", "name": "e282c428eac805634b17139735d7386e"}, {"is_disabled": 0, "is_reserved": 0, "fusion_lat": 0.0, "lat": 38.924212833333335, "fusion_lon": 0.0, "rental_uris": {"ios": "https://dc.lft.to/lastmile_qr_scan", "android": "https://dc.lft.to/lastmile_qr_scan"}, "lon": -77.05753533333333, "bike_id": "0f264f6c77911860e17c6867c3b5969d", "type": "electric_scooter", "name": "0f264f6c77911860e17c6867c3b5969d"}, {"is_disabled": 0, "is_reserved": 0, "fusion_lat": 0.0, "lat": 38.921565666666666, "fusion_lon": 0.0, "rental_uris": {"ios": "https://dc.lft.to/lastmile_qr_scan", "android": "https://dc.lft.to/lastmile_qr_scan"}, "lon": -77.03659866666666, "bike_id": "9bb39725feb2f44e666b6926f8e49fcf", "type": "electric_scooter", "name": "9bb39725feb2f44e666b6926f8e49fcf"}, {"is_disabled": 0, "is_reserved": 0, "fusion_lat": 0.0, "lat": 38.90657783333333, "fusion_lon": 0.0, "rental_uris": {"ios": "https://dc.lft.to/lastmile_qr_scan", "android": "https://dc.lft.to/lastmile_qr_scan"}, "lon": -77.02950966666667, "bike_id": "fe2865c3401f4ed40bca8000ec0450eb", "type": "electric_scooter", "name": "fe2865c3401f4ed40bca8000ec0450eb"}, {"is_disabled": 0, "is_reserved": 0, "fusion_lat": 0.0, "lat": 38.8748935, "fusion_lon": 0.0, "rental_uris": {"ios": "https://dc.lft.to/lastmile_qr_scan", "android": "https://dc.lft.to/lastmile_qr_scan"}, "lon": -76.999807, "bike_id": "08cbb5f3b96f858dbe23db41e5da9b79", "type": "electric_scooter", "name": "08cbb5f3b96f858dbe23db41e5da9b79"}, {"is_disabled": 0, "is_reserved": 0, "fusion_lat": 0.0, "lat": 38.90861483333333, "fusion_lon": 0.0, "rental_uris": {"ios": "https://dc.lft.to/lastmile_qr_scan", "android": "https://dc.lft.to/lastmile_qr_scan"}, "lon": -77.04722716666667, "bike_id": "db0b6c434317a96c6669e2ebe1ce00e7", "type": "electric_scooter", "name": "db0b6c434317a96c6669e2ebe1ce00e7"}, {"is_disabled": 0, "is_reserved": 0, "fusion_lat": 0.0, "lat": 38.892754833333335, "fusion_lon": 0.0, "rental_uris": {"ios": "https://dc.lft.to/lastmile_qr_scan", "android": "https://dc.lft.to/lastmile_qr_scan"}, "lon": -77.04500283333333, "bike_id": "9006e6c404f765f3221035f3ec9de1c8", "type": "electric_scooter", "name": "9006e6c404f765f3221035f3ec9de1c8"}, {"is_disabled": 0, "is_reserved": 0, "fusion_lat": 0.0, "lat": 38.91529833333333, "fusion_lon": 0.0, "rental_uris": {"ios": "https://dc.lft.to/lastmile_qr_scan", "android": "https://dc.lft.to/lastmile_qr_scan"}, "lon": -77.01854783333333, "bike_id": "c1e88ee7293d96ff208a1116e849adfb", "type": "electric_scooter", "name": "c1e88ee7293d96ff208a1116e849adfb"}, {"is_disabled": 0, "is_reserved": 0, "fusion_lat": 0.0, "lat": 38.9018855, "fusion_lon": 0.0, "rental_uris": {"ios": "https://dc.lft.to/lastmile_qr_scan", "android": "https://dc.lft.to/lastmile_qr_scan"}, "lon": -77.0021045, "bike_id": "9e9fdcbca4c7c21b7b0128c576df02fe", "type": "electric_scooter", "name": "9e9fdcbca4c7c21b7b0128c576df02fe"}, {"is_disabled": 0, "is_reserved": 0, "fusion_lat": 0.0, "lat": 38.92216466666667, "fusion_lon": 0.0, "rental_uris": {"ios": "https://dc.lft.to/lastmile_qr_scan", "android": "https://dc.lft.to/lastmile_qr_scan"}, "lon": -77.03293533333333, "bike_id": "76ae985f08226dc996fa8f787e26930b", "type": "electric_scooter", "name": "76ae985f08226dc996fa8f787e26930b"}, {"is_disabled": 0, "is_reserved": 0, "fusion_lat": 0.0, "lat": 38.904727666666666, "fusion_lon": 0.0, "rental_uris": {"ios": "https://dc.lft.to/lastmile_qr_scan", "android": "https://dc.lft.to/lastmile_qr_scan"}, "lon": -76.95050666666667, "bike_id": "d94e588af3bc6b63f2218314eb0f8870", "type": "electric_scooter", "name": "d94e588af3bc6b63f2218314eb0f8870"}, {"is_disabled": 0, "is_reserved": 0, "fusion_lat": 0.0, "lat": 38.916259833333335, "fusion_lon": 0.0, "rental_uris": {"ios": "https://dc.lft.to/lastmile_qr_scan", "android": "https://dc.lft.to/lastmile_qr_scan"}, "lon": -77.02396116666667, "bike_id": "57a58416e894b9a198a2ddf18b8da8cf", "type": "electric_scooter", "name": "57a58416e894b9a198a2ddf18b8da8cf"}, {"is_disabled": 0, "is_reserved": 0, "fusion_lat": 0.0, "lat": 38.8552455, "fusion_lon": 0.0, "rental_uris": {"ios": "https://dc.lft.to/lastmile_qr_scan", "android": "https://dc.lft.to/lastmile_qr_scan"}, "lon": -76.99155483333334, "bike_id": "f1b1b08640b39f8e3192b8e65f368135", "type": "electric_scooter", "name": "f1b1b08640b39f8e3192b8e65f368135"}, {"is_disabled": 0, "is_reserved": 0, "fusion_lat": 0.0, "lat": 38.92436166666667, "fusion_lon": 0.0, "rental_uris": {"ios": "https://dc.lft.to/lastmile_qr_scan", "android": "https://dc.lft.to/lastmile_qr_scan"}, "lon": -77.0297865, "bike_id": "1d4b1844d3fb704c534a53c41f645eeb", "type": "electric_scooter", "name": "1d4b1844d3fb704c534a53c41f645eeb"}, {"is_disabled": 0, "is_reserved": 0, "fusion_lat": 0.0, "lat": 38.89721433333333, "fusion_lon": 0.0, "rental_uris": {"ios": "https://dc.lft.to/lastmile_qr_scan", "android": "https://dc.lft.to/lastmile_qr_scan"}, "lon": -77.0488205, "bike_id": "00f696fffe2d1d39d80abaab8dc7ee43", "type": "electric_scooter", "name": "00f696fffe2d1d39d80abaab8dc7ee43"}, {"is_disabled": 0, "is_reserved": 0, "fusion_lat": 0.0, "lat": 38.92384966666667, "fusion_lon": 0.0, "rental_uris": {"ios": "https://dc.lft.to/lastmile_qr_scan", "android": "https://dc.lft.to/lastmile_qr_scan"}, "lon": -77.0308695, "bike_id": "7c0de9afc805b228d023db3e068308a3", "type": "electric_scooter", "name": "7c0de9afc805b228d023db3e068308a3"}, {"is_disabled": 0, "is_reserved": 0, "fusion_lat": 0.0, "lat": 38.90184033333333, "fusion_lon": 0.0, "rental_uris": {"ios": "https://dc.lft.to/lastmile_qr_scan", "android": "https://dc.lft.to/lastmile_qr_scan"}, "lon": -76.976748, "bike_id": "a396c425f1e90a11749382fdb0c0b30b", "type": "electric_scooter", "name": "a396c425f1e90a11749382fdb0c0b30b"}, {"is_disabled": 0, "is_reserved": 0, "fusion_lat": 0.0, "lat": 38.88714616666667, "fusion_lon": 0.0, "rental_uris": {"ios": "https://dc.lft.to/lastmile_qr_scan", "android": "https://dc.lft.to/lastmile_qr_scan"}, "lon": -76.98380716666667, "bike_id": "3b50ade5ccd97a15b7c0c941e9c5f36b", "type": "electric_scooter", "name": "3b50ade5ccd97a15b7c0c941e9c5f36b"}, {"is_disabled": 0, "is_reserved": 0, "fusion_lat": 0.0, "lat": 38.9014025, "fusion_lon": 0.0, "rental_uris": {"ios": "https://dc.lft.to/lastmile_qr_scan", "android": "https://dc.lft.to/lastmile_qr_scan"}, "lon": -77.0198705, "bike_id": "bc434fc9f286132d9ba90098e68cf5a9", "type": "electric_scooter", "name": "bc434fc9f286132d9ba90098e68cf5a9"}, {"is_disabled": 0, "is_reserved": 0, "fusion_lat": 0.0, "lat": 38.804838833333335, "fusion_lon": 0.0, "rental_uris": {"ios": "https://dc.lft.to/lastmile_qr_scan", "android": "https://dc.lft.to/lastmile_qr_scan"}, "lon": -76.99108366666667, "bike_id": "6938ff86b2d7314d3ee9f1f3df9801e2", "type": "electric_bike", "name": "6938ff86b2d7314d3ee9f1f3df9801e2"}, {"is_disabled": 0, "is_reserved": 0, "fusion_lat": 0.0, "lat": 38.9173465, "fusion_lon": 0.0, "rental_uris": {"ios": "https://dc.lft.to/lastmile_qr_scan", "android": "https://dc.lft.to/lastmile_qr_scan"}, "lon": -77.06895766666666, "bike_id": "858c4b2caf4307a7d268d6ca209ae320", "type": "electric_scooter", "name": "858c4b2caf4307a7d268d6ca209ae320"}, {"is_disabled": 0, "is_reserved": 0, "fusion_lat": 0.0, "lat": 39.00100183333333, "fusion_lon": 0.0, "rental_uris": {"ios": "https://dc.lft.to/lastmile_qr_scan", "android": "https://dc.lft.to/lastmile_qr_scan"}, "lon": -76.90988283333333, "bike_id": "0e3fd5b2dddbd8b2d17ffac61fec4b05", "type": "electric_bike", "name": "0e3fd5b2dddbd8b2d17ffac61fec4b05"}, {"is_disabled": 0, "is_reserved": 0, "fusion_lat": 0.0, "lat": 38.91558083333334, "fusion_lon": 0.0, "rental_uris": {"ios": "https://dc.lft.to/lastmile_qr_scan", "android": "https://dc.lft.to/lastmile_qr_scan"}, "lon": -77.02337483333334, "bike_id": "2d049e6a00143bbc6866c4017e9475d5", "type": "electric_scooter", "name": "2d049e6a00143bbc6866c4017e9475d5"}, {"is_disabled": 0, "is_reserved": 0, "fusion_lat": 0.0, "lat": 38.925345, "fusion_lon": 0.0, "rental_uris": {"ios": "https://dc.lft.to/lastmile_qr_scan", "android": "https://dc.lft.to/lastmile_qr_scan"}, "lon": -77.02622, "bike_id": "3f072828e03551ffd2b2517de23651bc", "type": "electric_bike", "name": "3f072828e03551ffd2b2517de23651bc"}, {"is_disabled": 0, "is_reserved": 0, "fusion_lat": 0.0, "lat": 38.892474166666666, "fusion_lon": 0.0, "rental_uris": {"ios": "https://dc.lft.to/lastmile_qr_scan", "android": "https://dc.lft.to/lastmile_qr_scan"}, "lon": -77.03960533333333, "bike_id": "ac8cc3ec2a984551cc6698b5a73a70f8", "type": "electric_scooter", "name": "ac8cc3ec2a984551cc6698b5a73a70f8"}, {"is_disabled": 0, "is_reserved": 0, "fusion_lat": 0.0, "lat": 38.93213733333333, "fusion_lon": 0.0, "rental_uris": {"ios": "https://dc.lft.to/lastmile_qr_scan", "android": "https://dc.lft.to/lastmile_qr_scan"}, "lon": -77.02288666666666, "bike_id": "3a0e69cd07a1659bdb9ec3f9cc9b6a7a", "type": "electric_scooter", "name": "3a0e69cd07a1659bdb9ec3f9cc9b6a7a"}, {"is_disabled": 0, "is_reserved": 0, "fusion_lat": 0.0, "lat": 38.93058933333333, "fusion_lon": 0.0, "rental_uris": {"ios": "https://dc.lft.to/lastmile_qr_scan", "android": "https://dc.lft.to/lastmile_qr_scan"}, "lon": -77.031791, "bike_id": "e44c0663e154e47057312155f1516cdb", "type": "electric_scooter", "name": "e44c0663e154e47057312155f1516cdb"}, {"is_disabled": 0, "is_reserved": 0, "fusion_lat": 0.0, "lat": 38.90284033333333, "fusion_lon": 0.0, "rental_uris": {"ios": "https://dc.lft.to/lastmile_qr_scan", "android": "https://dc.lft.to/lastmile_qr_scan"}, "lon": -77.01906166666667, "bike_id": "1236a75df41cd8ea9622c3a86ae9efc2", "type": "electric_scooter", "name": "1236a75df41cd8ea9622c3a86ae9efc2"}, {"is_disabled": 0, "is_reserved": 0, "fusion_lat": 0.0, "lat": 38.90239716666667, "fusion_lon": 0.0, "rental_uris": {"ios": "https://dc.lft.to/lastmile_qr_scan", "android": "https://dc.lft.to/lastmile_qr_scan"}, "lon": -77.060731, "bike_id": "764ef2a0f468c81216c0420a06c7e49a", "type": "electric_scooter", "name": "764ef2a0f468c81216c0420a06c7e49a"}, {"is_disabled": 0, "is_reserved": 0, "fusion_lat": 0.0, "lat": 38.910679, "fusion_lon": 0.0, "rental_uris": {"ios": "https://dc.lft.to/lastmile_qr_scan", "android": "https://dc.lft.to/lastmile_qr_scan"}, "lon": -77.06379116666666, "bike_id": "fe380c2cccaee4cf31010a15dead4d90", "type": "electric_bike", "name": "fe380c2cccaee4cf31010a15dead4d90"}, {"is_disabled": 0, "is_reserved": 0, "fusion_lat": 0.0, "lat": 38.915646, "fusion_lon": 0.0, "rental_uris": {"ios": "https://dc.lft.to/lastmile_qr_scan", "android": "https://dc.lft.to/lastmile_qr_scan"}, "lon": -77.0314035, "bike_id": "b2bc3b15b86b45edd37d21c67f4ed92b", "type": "electric_scooter", "name": "b2bc3b15b86b45edd37d21c67f4ed92b"}, {"is_disabled": 0, "is_reserved": 0, "fusion_lat": 0.0, "lat": 38.94589283333333, "fusion_lon": 0.0, "rental_uris": {"ios": "https://dc.lft.to/lastmile_qr_scan", "android": "https://dc.lft.to/lastmile_qr_scan"}, "lon": -77.020328, "bike_id": "5c9b6427c66ceb9e33d02eadf1df84bb", "type": "electric_scooter", "name": "5c9b6427c66ceb9e33d02eadf1df84bb"}, {"is_disabled": 0, "is_reserved": 0, "fusion_lat": 0.0, "lat": 38.88564916666667, "fusion_lon": 0.0, "rental_uris": {"ios": "https://dc.lft.to/lastmile_qr_scan", "android": "https://dc.lft.to/lastmile_qr_scan"}, "lon": -77.02004683333334, "bike_id": "4e38a42a295147b18263d6d8ef1ff507", "type": "electric_scooter", "name": "4e38a42a295147b18263d6d8ef1ff507"}, {"is_disabled": 0, "is_reserved": 0, "fusion_lat": 0.0, "lat": 38.910494166666666, "fusion_lon": 0.0, "rental_uris": {"ios": "https://dc.lft.to/lastmile_qr_scan", "android": "https://dc.lft.to/lastmile_qr_scan"}, "lon": -77.01515483333333, "bike_id": "8ff549b8f4bdcd9af3e9d8de6657bf35", "type": "electric_scooter", "name": "8ff549b8f4bdcd9af3e9d8de6657bf35"}, {"is_disabled": 0, "is_reserved": 0, "fusion_lat": 0.0, "lat": 38.909582, "fusion_lon": 0.0, "rental_uris": {"ios": "https://dc.lft.to/lastmile_qr_scan", "android": "https://dc.lft.to/lastmile_qr_scan"}, "lon": -77.04573583333334, "bike_id": "062ebd0f7e0ab90a57a3b565fcbdc3b2", "type": "electric_scooter", "name": "062ebd0f7e0ab90a57a3b565fcbdc3b2"}, {"is_disabled": 0, "is_reserved": 0, "fusion_lat": 0.0, "lat": 38.80679266666667, "fusion_lon": 0.0, "rental_uris": {"ios": "https://dc.lft.to/lastmile_qr_scan", "android": "https://dc.lft.to/lastmile_qr_scan"}, "lon": -77.0691975, "bike_id": "8f287a4ec5380b734e565f92f8163e70", "type": "electric_bike", "name": "8f287a4ec5380b734e565f92f8163e70"}, {"is_disabled": 0, "is_reserved": 0, "fusion_lat": 0.0, "lat": 38.90646133333333, "fusion_lon": 0.0, "rental_uris": {"ios": "https://dc.lft.to/lastmile_qr_scan", "android": "https://dc.lft.to/lastmile_qr_scan"}, "lon": -77.045534, "bike_id": "878c36d4746a303ea599e0345a9088b9", "type": "electric_scooter", "name": "878c36d4746a303ea599e0345a9088b9"}, {"is_disabled": 0, "is_reserved": 0, "fusion_lat": 0.0, "lat": 38.8427935, "fusion_lon": 0.0, "rental_uris": {"ios": "https://dc.lft.to/lastmile_qr_scan", "android": "https://dc.lft.to/lastmile_qr_scan"}, "lon": -76.98840883333334, "bike_id": "b5c0aed09326dbdce976e654d5021385", "type": "electric_bike", "name": "b5c0aed09326dbdce976e654d5021385"}, {"is_disabled": 0, "is_reserved": 0, "fusion_lat": 0.0, "lat": 38.92386183333333, "fusion_lon": 0.0, "rental_uris": {"ios": "https://dc.lft.to/lastmile_qr_scan", "android": "https://dc.lft.to/lastmile_qr_scan"}, "lon": -77.04021183333333, "bike_id": "651f6a9b4b81b7ad0723c4c464a9ff50", "type": "electric_scooter", "name": "651f6a9b4b81b7ad0723c4c464a9ff50"}, {"is_disabled": 0, "is_reserved": 0, "fusion_lat": 0.0, "lat": 38.912616, "fusion_lon": 0.0, "rental_uris": {"ios": "https://dc.lft.to/lastmile_qr_scan", "android": "https://dc.lft.to/lastmile_qr_scan"}, "lon": -77.045968, "bike_id": "e79aa2b7c8572576e5348683fe96bf7d", "type": "electric_scooter", "name": "e79aa2b7c8572576e5348683fe96bf7d"}, {"is_disabled": 0, "is_reserved": 0, "fusion_lat": 0.0, "lat": 38.9463155, "fusion_lon": 0.0, "rental_uris": {"ios": "https://dc.lft.to/lastmile_qr_scan", "android": "https://dc.lft.to/lastmile_qr_scan"}, "lon": -77.01842183333333, "bike_id": "20b5125b99094148547eafbd9be9bb28", "type": "electric_scooter", "name": "20b5125b99094148547eafbd9be9bb28"}, {"is_disabled": 0, "is_reserved": 0, "fusion_lat": 0.0, "lat": 38.902931333333335, "fusion_lon": 0.0, "rental_uris": {"ios": "https://dc.lft.to/lastmile_qr_scan", "android": "https://dc.lft.to/lastmile_qr_scan"}, "lon": -77.0120995, "bike_id": "c37388a8ca8097a5f5e18babcb11e43f", "type": "electric_scooter", "name": "c37388a8ca8097a5f5e18babcb11e43f"}, {"is_disabled": 0, "is_reserved": 0, "fusion_lat": 0.0, "lat": 38.91576116666667, "fusion_lon": 0.0, "rental_uris": {"ios": "https://dc.lft.to/lastmile_qr_scan", "android": "https://dc.lft.to/lastmile_qr_scan"}, "lon": -77.02088266666667, "bike_id": "d3d936b19cd6cda8bff9e6819b23980b", "type": "electric_scooter", "name": "d3d936b19cd6cda8bff9e6819b23980b"}, {"is_disabled": 0, "is_reserved": 0, "fusion_lat": 0.0, "lat": 38.90910483333333, "fusion_lon": 0.0, "rental_uris": {"ios": "https://dc.lft.to/lastmile_qr_scan", "android": "https://dc.lft.to/lastmile_qr_scan"}, "lon": -77.04388683333333, "bike_id": "98029487d049e914b76bd6c567fb01fb", "type": "electric_scooter", "name": "98029487d049e914b76bd6c567fb01fb"}, {"is_disabled": 0, "is_reserved": 0, "fusion_lat": 0.0, "lat": 38.91335733333333, "fusion_lon": 0.0, "rental_uris": {"ios": "https://dc.lft.to/lastmile_qr_scan", "android": "https://dc.lft.to/lastmile_qr_scan"}, "lon": -77.0166125, "bike_id": "739fd6a144d0e3ef066c87ba42aaf8ad", "type": "electric_scooter", "name": "739fd6a144d0e3ef066c87ba42aaf8ad"}, {"is_disabled": 0, "is_reserved": 0, "fusion_lat": 0.0, "lat": 38.906461166666666, "fusion_lon": 0.0, "rental_uris": {"ios": "https://dc.lft.to/lastmile_qr_scan", "android": "https://dc.lft.to/lastmile_qr_scan"}, "lon": -77.01123883333334, "bike_id": "1ddea05cf0a2a1a2f87b8bed78cd1f24", "type": "electric_scooter", "name": "1ddea05cf0a2a1a2f87b8bed78cd1f24"}, {"is_disabled": 0, "is_reserved": 0, "fusion_lat": 0.0, "lat": 38.9366205, "fusion_lon": 0.0, "rental_uris": {"ios": "https://dc.lft.to/lastmile_qr_scan", "android": "https://dc.lft.to/lastmile_qr_scan"}, "lon": -77.06611, "bike_id": "b7bd010e5be304133bbb10532b92a981", "type": "electric_scooter", "name": "b7bd010e5be304133bbb10532b92a981"}, {"is_disabled": 0, "is_reserved": 0, "fusion_lat": 0.0, "lat": 38.925523, "fusion_lon": 0.0, "rental_uris": {"ios": "https://dc.lft.to/lastmile_qr_scan", "android": "https://dc.lft.to/lastmile_qr_scan"}, "lon": -77.00324333333333, "bike_id": "7fd06c852fa8a80ff1a4f9f45578a84f", "type": "electric_scooter", "name": "7fd06c852fa8a80ff1a4f9f45578a84f"}, {"is_disabled": 0, "is_reserved": 0, "fusion_lat": 0.0, "lat": 38.930642166666665, "fusion_lon": 0.0, "rental_uris": {"ios": "https://dc.lft.to/lastmile_qr_scan", "android": "https://dc.lft.to/lastmile_qr_scan"}, "lon": -77.0402995, "bike_id": "9b048762bb4171bc1ac129190de51427", "type": "electric_scooter", "name": "9b048762bb4171bc1ac129190de51427"}, {"is_disabled": 0, "is_reserved": 0, "fusion_lat": 0.0, "lat": 38.897659166666664, "fusion_lon": 0.0, "rental_uris": {"ios": "https://dc.lft.to/lastmile_qr_scan", "android": "https://dc.lft.to/lastmile_qr_scan"}, "lon": -77.0272625, "bike_id": "b930700b8d68656e8543ab4e8c57c698", "type": "electric_scooter", "name": "b930700b8d68656e8543ab4e8c57c698"}, {"is_disabled": 0, "is_reserved": 0, "fusion_lat": 0.0, "lat": 38.877804833333336, "fusion_lon": 0.0, "rental_uris": {"ios": "https://dc.lft.to/lastmile_qr_scan", "android": "https://dc.lft.to/lastmile_qr_scan"}, "lon": -77.0013375, "bike_id": "8dd199c04cbf74f0910142823d34ef94", "type": "electric_scooter", "name": "8dd199c04cbf74f0910142823d34ef94"}, {"is_disabled": 0, "is_reserved": 0, "fusion_lat": 0.0, "lat": 38.920762833333335, "fusion_lon": 0.0, "rental_uris": {"ios": "https://dc.lft.to/lastmile_qr_scan", "android": "https://dc.lft.to/lastmile_qr_scan"}, "lon": -77.0231695, "bike_id": "64ebd08a1765fa563311b91c6f0cb095", "type": "electric_scooter", "name": "64ebd08a1765fa563311b91c6f0cb095"}, {"is_disabled": 0, "is_reserved": 0, "fusion_lat": 0.0, "lat": 38.89850283333333, "fusion_lon": 0.0, "rental_uris": {"ios": "https://dc.lft.to/lastmile_qr_scan", "android": "https://dc.lft.to/lastmile_qr_scan"}, "lon": -77.00202183333333, "bike_id": "94806df1fb7b829ea8803665119ddb2a", "type": "electric_scooter", "name": "94806df1fb7b829ea8803665119ddb2a"}, {"is_disabled": 0, "is_reserved": 0, "fusion_lat": 0.0, "lat": 38.91428833333333, "fusion_lon": 0.0, "rental_uris": {"ios": "https://dc.lft.to/lastmile_qr_scan", "android": "https://dc.lft.to/lastmile_qr_scan"}, "lon": -77.01682016666666, "bike_id": "905391b60789afbd70b6b4ac498dea03", "type": "electric_scooter", "name": "905391b60789afbd70b6b4ac498dea03"}, {"is_disabled": 0, "is_reserved": 0, "fusion_lat": 0.0, "lat": 38.974443, "fusion_lon": 0.0, "rental_uris": {"ios": "https://dc.lft.to/lastmile_qr_scan", "android": "https://dc.lft.to/lastmile_qr_scan"}, "lon": -77.096204, "bike_id": "2ce12f0e021ff782fd8c34285af96d2c", "type": "electric_bike", "name": "2ce12f0e021ff782fd8c34285af96d2c"}, {"is_disabled": 0, "is_reserved": 0, "fusion_lat": 0.0, "lat": 38.87660533333333, "fusion_lon": 0.0, "rental_uris": {"ios": "https://dc.lft.to/lastmile_qr_scan", "android": "https://dc.lft.to/lastmile_qr_scan"}, "lon": -77.00882966666667, "bike_id": "2dccd2d01418d59205e806402bfa50ef", "type": "electric_scooter", "name": "2dccd2d01418d59205e806402bfa50ef"}, {"is_disabled": 0, "is_reserved": 0, "fusion_lat": 0.0, "lat": 38.89461266666667, "fusion_lon": 0.0, "rental_uris": {"ios": "https://dc.lft.to/lastmile_qr_scan", "android": "https://dc.lft.to/lastmile_qr_scan"}, "lon": -76.9367485, "bike_id": "d62ccd6bebe83f9409a02247e8606032", "type": "electric_bike", "name": "d62ccd6bebe83f9409a02247e8606032"}, {"is_disabled": 0, "is_reserved": 0, "fusion_lat": 0.0, "lat": 38.91822466666667, "fusion_lon": 0.0, "rental_uris": {"ios": "https://dc.lft.to/lastmile_qr_scan", "android": "https://dc.lft.to/lastmile_qr_scan"}, "lon": -77.02718866666666, "bike_id": "646de6abd641044bb209441792325958", "type": "electric_scooter", "name": "646de6abd641044bb209441792325958"}, {"is_disabled": 0, "is_reserved": 0, "fusion_lat": 0.0, "lat": 38.87579683333333, "fusion_lon": 0.0, "rental_uris": {"ios": "https://dc.lft.to/lastmile_qr_scan", "android": "https://dc.lft.to/lastmile_qr_scan"}, "lon": -77.23411966666667, "bike_id": "97416ef8e4d3a6a35f9cf8d91bb26c38", "type": "electric_bike", "name": "97416ef8e4d3a6a35f9cf8d91bb26c38"}, {"is_disabled": 0, "is_reserved": 0, "fusion_lat": 0.0, "lat": 38.8852105, "fusion_lon": 0.0, "rental_uris": {"ios": "https://dc.lft.to/lastmile_qr_scan", "android": "https://dc.lft.to/lastmile_qr_scan"}, "lon": -77.02815233333334, "bike_id": "91145755887f54e9e4063f149efdcc04", "type": "electric_scooter", "name": "91145755887f54e9e4063f149efdcc04"}, {"is_disabled": 0, "is_reserved": 0, "fusion_lat": 0.0, "lat": 38.8848675, "fusion_lon": 0.0, "rental_uris": {"ios": "https://dc.lft.to/lastmile_qr_scan", "android": "https://dc.lft.to/lastmile_qr_scan"}, "lon": -77.02220816666667, "bike_id": "d00fdbc2b73cd7ef67f59b6506718626", "type": "electric_scooter", "name": "d00fdbc2b73cd7ef67f59b6506718626"}, {"is_disabled": 0, "is_reserved": 0, "fusion_lat": 0.0, "lat": 38.914425666666666, "fusion_lon": 0.0, "rental_uris": {"ios": "https://dc.lft.to/lastmile_qr_scan", "android": "https://dc.lft.to/lastmile_qr_scan"}, "lon": -77.0228135, "bike_id": "aed6767045179a0266eb79cd4b550c69", "type": "electric_scooter", "name": "aed6767045179a0266eb79cd4b550c69"}, {"is_disabled": 0, "is_reserved": 0, "fusion_lat": 0.0, "lat": 38.88040633333333, "fusion_lon": 0.0, "rental_uris": {"ios": "https://dc.lft.to/lastmile_qr_scan", "android": "https://dc.lft.to/lastmile_qr_scan"}, "lon": -76.927288, "bike_id": "04a193d057f185db99da1d66bd4e35fe", "type": "electric_scooter", "name": "04a193d057f185db99da1d66bd4e35fe"}, {"is_disabled": 0, "is_reserved": 0, "fusion_lat": 0.0, "lat": 38.902873666666665, "fusion_lon": 0.0, "rental_uris": {"ios": "https://dc.lft.to/lastmile_qr_scan", "android": "https://dc.lft.to/lastmile_qr_scan"}, "lon": -77.03915833333333, "bike_id": "1cf5faaca701688449a0ee567a25d659", "type": "electric_scooter", "name": "1cf5faaca701688449a0ee567a25d659"}, {"is_disabled": 0, "is_reserved": 0, "fusion_lat": 0.0, "lat": 38.870726833333336, "fusion_lon": 0.0, "rental_uris": {"ios": "https://dc.lft.to/lastmile_qr_scan", "android": "https://dc.lft.to/lastmile_qr_scan"}, "lon": -76.98128166666666, "bike_id": "462bd57cd26060ed0dde354ded3fa505", "type": "electric_scooter", "name": "462bd57cd26060ed0dde354ded3fa505"}, {"is_disabled": 0, "is_reserved": 0, "fusion_lat": 0.0, "lat": 38.91556416666667, "fusion_lon": 0.0, "rental_uris": {"ios": "https://dc.lft.to/lastmile_qr_scan", "android": "https://dc.lft.to/lastmile_qr_scan"}, "lon": -77.021468, "bike_id": "25cb1d077ccd7f03213917294e4e8faa", "type": "electric_scooter", "name": "25cb1d077ccd7f03213917294e4e8faa"}, {"is_disabled": 0, "is_reserved": 0, "fusion_lat": 0.0, "lat": 38.90174016666667, "fusion_lon": 0.0, "rental_uris": {"ios": "https://dc.lft.to/lastmile_qr_scan", "android": "https://dc.lft.to/lastmile_qr_scan"}, "lon": -77.00188, "bike_id": "467b453786381fd5a28867a65ecd2f66", "type": "electric_scooter", "name": "467b453786381fd5a28867a65ecd2f66"}, {"is_disabled": 0, "is_reserved": 0, "fusion_lat": 0.0, "lat": 38.90844416666667, "fusion_lon": 0.0, "rental_uris": {"ios": "https://dc.lft.to/lastmile_qr_scan", "android": "https://dc.lft.to/lastmile_qr_scan"}, "lon": -77.000989, "bike_id": "ff95956b15a05b552b2346168fc57cc1", "type": "electric_scooter", "name": "ff95956b15a05b552b2346168fc57cc1"}, {"is_disabled": 0, "is_reserved": 0, "fusion_lat": 0.0, "lat": 38.91004366666667, "fusion_lon": 0.0, "rental_uris": {"ios": "https://dc.lft.to/lastmile_qr_scan", "android": "https://dc.lft.to/lastmile_qr_scan"}, "lon": -76.986137, "bike_id": "ba30863dff1c6768b80c0259b7b0fb3f", "type": "electric_scooter", "name": "ba30863dff1c6768b80c0259b7b0fb3f"}, {"is_disabled": 0, "is_reserved": 0, "fusion_lat": 0.0, "lat": 38.84812266666667, "fusion_lon": 0.0, "rental_uris": {"ios": "https://dc.lft.to/lastmile_qr_scan", "android": "https://dc.lft.to/lastmile_qr_scan"}, "lon": -77.0841755, "bike_id": "4b202696bea0690bffb4be330ad6224a", "type": "electric_bike", "name": "4b202696bea0690bffb4be330ad6224a"}, {"is_disabled": 0, "is_reserved": 0, "fusion_lat": 0.0, "lat": 38.93748266666667, "fusion_lon": 0.0, "rental_uris": {"ios": "https://dc.lft.to/lastmile_qr_scan", "android": "https://dc.lft.to/lastmile_qr_scan"}, "lon": -77.03442133333333, "bike_id": "4f1da77e7a7556028923e8db21c85abf", "type": "electric_scooter", "name": "4f1da77e7a7556028923e8db21c85abf"}, {"is_disabled": 0, "is_reserved": 0, "fusion_lat": 0.0, "lat": 38.902931333333335, "fusion_lon": 0.0, "rental_uris": {"ios": "https://dc.lft.to/lastmile_qr_scan", "android": "https://dc.lft.to/lastmile_qr_scan"}, "lon": -77.03932816666666, "bike_id": "e03cd8b092cb0c431b8549e16f886b02", "type": "electric_scooter", "name": "e03cd8b092cb0c431b8549e16f886b02"}, {"is_disabled": 0, "is_reserved": 0, "fusion_lat": 0.0, "lat": 38.92075283333333, "fusion_lon": 0.0, "rental_uris": {"ios": "https://dc.lft.to/lastmile_qr_scan", "android": "https://dc.lft.to/lastmile_qr_scan"}, "lon": -77.023185, "bike_id": "eb4ac89b825c39871126ef509011ff72", "type": "electric_scooter", "name": "eb4ac89b825c39871126ef509011ff72"}, {"is_disabled": 0, "is_reserved": 0, "fusion_lat": 0.0, "lat": 38.885140666666665, "fusion_lon": 0.0, "rental_uris": {"ios": "https://dc.lft.to/lastmile_qr_scan", "android": "https://dc.lft.to/lastmile_qr_scan"}, "lon": -76.9974945, "bike_id": "ad1da12275dc88842d78c42ddac4437b", "type": "electric_scooter", "name": "ad1da12275dc88842d78c42ddac4437b"}, {"is_disabled": 0, "is_reserved": 0, "fusion_lat": 0.0, "lat": 38.92620083333333, "fusion_lon": 0.0, "rental_uris": {"ios": "https://dc.lft.to/lastmile_qr_scan", "android": "https://dc.lft.to/lastmile_qr_scan"}, "lon": -76.99054966666667, "bike_id": "597ca8aa0b6d18268969af00ea1d5e6f", "type": "electric_scooter", "name": "597ca8aa0b6d18268969af00ea1d5e6f"}, {"is_disabled": 0, "is_reserved": 0, "fusion_lat": 0.0, "lat": 38.8580395, "fusion_lon": 0.0, "rental_uris": {"ios": "https://dc.lft.to/lastmile_qr_scan", "android": "https://dc.lft.to/lastmile_qr_scan"}, "lon": -76.987573, "bike_id": "a37e966f91aee69fdd1f10852422cf05", "type": "electric_bike", "name": "a37e966f91aee69fdd1f10852422cf05"}, {"is_disabled": 0, "is_reserved": 0, "fusion_lat": 0.0, "lat": 39.026219166666664, "fusion_lon": 0.0, "rental_uris": {"ios": "https://dc.lft.to/lastmile_qr_scan", "android": "https://dc.lft.to/lastmile_qr_scan"}, "lon": -77.03878416666667, "bike_id": "c2374a45cf9dd44f1acc976c28846cc8", "type": "electric_bike", "name": "c2374a45cf9dd44f1acc976c28846cc8"}, {"is_disabled": 0, "is_reserved": 0, "fusion_lat": 0.0, "lat": 38.92079483333333, "fusion_lon": 0.0, "rental_uris": {"ios": "https://dc.lft.to/lastmile_qr_scan", "android": "https://dc.lft.to/lastmile_qr_scan"}, "lon": -77.02384666666667, "bike_id": "22120719832826aad72f316ffc31e403", "type": "electric_scooter", "name": "22120719832826aad72f316ffc31e403"}, {"is_disabled": 0, "is_reserved": 0, "fusion_lat": 0.0, "lat": 38.902589166666665, "fusion_lon": 0.0, "rental_uris": {"ios": "https://dc.lft.to/lastmile_qr_scan", "android": "https://dc.lft.to/lastmile_qr_scan"}, "lon": -77.06175016666667, "bike_id": "0c63806b85f8f1bd3af9ef7bb1b474ef", "type": "electric_scooter", "name": "0c63806b85f8f1bd3af9ef7bb1b474ef"}, {"is_disabled": 0, "is_reserved": 0, "fusion_lat": 0.0, "lat": 38.929748333333336, "fusion_lon": 0.0, "rental_uris": {"ios": "https://dc.lft.to/lastmile_qr_scan", "android": "https://dc.lft.to/lastmile_qr_scan"}, "lon": -77.03083033333333, "bike_id": "4f33fc9d9bd1e8dbbe789b2b6a9cd174", "type": "electric_scooter", "name": "4f33fc9d9bd1e8dbbe789b2b6a9cd174"}, {"is_disabled": 0, "is_reserved": 0, "fusion_lat": 0.0, "lat": 38.93589516666667, "fusion_lon": 0.0, "rental_uris": {"ios": "https://dc.lft.to/lastmile_qr_scan", "android": "https://dc.lft.to/lastmile_qr_scan"}, "lon": -77.0743525, "bike_id": "fcac6256b9c4fac20542f0a3e0b131b1", "type": "electric_scooter", "name": "fcac6256b9c4fac20542f0a3e0b131b1"}, {"is_disabled": 0, "is_reserved": 0, "fusion_lat": 0.0, "lat": 38.911103833333335, "fusion_lon": 0.0, "rental_uris": {"ios": "https://dc.lft.to/lastmile_qr_scan", "android": "https://dc.lft.to/lastmile_qr_scan"}, "lon": -77.02174633333334, "bike_id": "a7f5cdb53f8ae0a75b485c72dc5f4a14", "type": "electric_scooter", "name": "a7f5cdb53f8ae0a75b485c72dc5f4a14"}, {"is_disabled": 0, "is_reserved": 0, "fusion_lat": 0.0, "lat": 38.907797, "fusion_lon": 0.0, "rental_uris": {"ios": "https://dc.lft.to/lastmile_qr_scan", "android": "https://dc.lft.to/lastmile_qr_scan"}, "lon": -77.00599916666667, "bike_id": "27f2fa8c1d28701086533cdb5184098f", "type": "electric_scooter", "name": "27f2fa8c1d28701086533cdb5184098f"}, {"is_disabled": 0, "is_reserved": 0, "fusion_lat": 0.0, "lat": 38.9230285, "fusion_lon": 0.0, "rental_uris": {"ios": "https://dc.lft.to/lastmile_qr_scan", "android": "https://dc.lft.to/lastmile_qr_scan"}, "lon": -77.04301516666666, "bike_id": "68f7dea5a70743af2f2134d3e83755d2", "type": "electric_scooter", "name": "68f7dea5a70743af2f2134d3e83755d2"}, {"is_disabled": 0, "is_reserved": 0, "fusion_lat": 0.0, "lat": 38.893437666666664, "fusion_lon": 0.0, "rental_uris": {"ios": "https://dc.lft.to/lastmile_qr_scan", "android": "https://dc.lft.to/lastmile_qr_scan"}, "lon": -76.98563083333333, "bike_id": "0d1b10245fb04f4831bbbe83c896fde3", "type": "electric_scooter", "name": "0d1b10245fb04f4831bbbe83c896fde3"}, {"is_disabled": 0, "is_reserved": 0, "fusion_lat": 0.0, "lat": 38.91873916666667, "fusion_lon": 0.0, "rental_uris": {"ios": "https://dc.lft.to/lastmile_qr_scan", "android": "https://dc.lft.to/lastmile_qr_scan"}, "lon": -77.035591, "bike_id": "df1377a33d5178d14205acd9eeb913e3", "type": "electric_scooter", "name": "df1377a33d5178d14205acd9eeb913e3"}, {"is_disabled": 0, "is_reserved": 0, "fusion_lat": 0.0, "lat": 38.87607083333333, "fusion_lon": 0.0, "rental_uris": {"ios": "https://dc.lft.to/lastmile_qr_scan", "android": "https://dc.lft.to/lastmile_qr_scan"}, "lon": -77.00813083333334, "bike_id": "184d2d5d12c875a273271f9e35604e40", "type": "electric_scooter", "name": "184d2d5d12c875a273271f9e35604e40"}, {"is_disabled": 0, "is_reserved": 0, "fusion_lat": 0.0, "lat": 38.908465166666666, "fusion_lon": 0.0, "rental_uris": {"ios": "https://dc.lft.to/lastmile_qr_scan", "android": "https://dc.lft.to/lastmile_qr_scan"}, "lon": -76.93448666666667, "bike_id": "61690c7de1c63d037e2c047a68d2665f", "type": "electric_scooter", "name": "61690c7de1c63d037e2c047a68d2665f"}, {"is_disabled": 0, "is_reserved": 0, "fusion_lat": 0.0, "lat": 38.94494916666667, "fusion_lon": 0.0, "rental_uris": {"ios": "https://dc.lft.to/lastmile_qr_scan", "android": "https://dc.lft.to/lastmile_qr_scan"}, "lon": -77.00734883333334, "bike_id": "dfb8725f4611da4a7c13f3b403f0efa7", "type": "electric_bike", "name": "dfb8725f4611da4a7c13f3b403f0efa7"}, {"is_disabled": 0, "is_reserved": 0, "fusion_lat": 0.0, "lat": 38.87683833333333, "fusion_lon": 0.0, "rental_uris": {"ios": "https://dc.lft.to/lastmile_qr_scan", "android": "https://dc.lft.to/lastmile_qr_scan"}, "lon": -77.0179295, "bike_id": "22c766e0f011cc5357b944c418ab306b", "type": "electric_scooter", "name": "22c766e0f011cc5357b944c418ab306b"}, {"is_disabled": 0, "is_reserved": 0, "fusion_lat": 0.0, "lat": 38.881226, "fusion_lon": 0.0, "rental_uris": {"ios": "https://dc.lft.to/lastmile_qr_scan", "android": "https://dc.lft.to/lastmile_qr_scan"}, "lon": -76.992836, "bike_id": "2aa5afeaea0d3224d49f98a45d736dfb", "type": "electric_scooter", "name": "2aa5afeaea0d3224d49f98a45d736dfb"}, {"is_disabled": 0, "is_reserved": 0, "fusion_lat": 0.0, "lat": 38.80523, "fusion_lon": 0.0, "rental_uris": {"ios": "https://dc.lft.to/lastmile_qr_scan", "android": "https://dc.lft.to/lastmile_qr_scan"}, "lon": -77.04344116666667, "bike_id": "5faf9d2ff6a32d9ff006bc456a807232", "type": "electric_bike", "name": "5faf9d2ff6a32d9ff006bc456a807232"}, {"is_disabled": 0, "is_reserved": 0, "fusion_lat": 0.0, "lat": 38.91506783333333, "fusion_lon": 0.0, "rental_uris": {"ios": "https://dc.lft.to/lastmile_qr_scan", "android": "https://dc.lft.to/lastmile_qr_scan"}, "lon": -77.00928966666666, "bike_id": "5a63d81d30fd1968b257c257084e7269", "type": "electric_scooter", "name": "5a63d81d30fd1968b257c257084e7269"}, {"is_disabled": 0, "is_reserved": 0, "fusion_lat": 0.0, "lat": 38.92174033333333, "fusion_lon": 0.0, "rental_uris": {"ios": "https://dc.lft.to/lastmile_qr_scan", "android": "https://dc.lft.to/lastmile_qr_scan"}, "lon": -77.03815183333333, "bike_id": "864bb717d96cee05671b016c0064e297", "type": "electric_scooter", "name": "864bb717d96cee05671b016c0064e297"}, {"is_disabled": 0, "is_reserved": 0, "fusion_lat": 0.0, "lat": 38.903330833333335, "fusion_lon": 0.0, "rental_uris": {"ios": "https://dc.lft.to/lastmile_qr_scan", "android": "https://dc.lft.to/lastmile_qr_scan"}, "lon": -77.01964383333333, "bike_id": "847fea5e579148eac3128cab4acd6440", "type": "electric_scooter", "name": "847fea5e579148eac3128cab4acd6440"}, {"is_disabled": 0, "is_reserved": 0, "fusion_lat": 0.0, "lat": 38.965536666666665, "fusion_lon": 0.0, "rental_uris": {"ios": "https://dc.lft.to/lastmile_qr_scan", "android": "https://dc.lft.to/lastmile_qr_scan"}, "lon": -77.01630783333333, "bike_id": "9a58487dbd831d4b34093a5b1ca86619", "type": "electric_bike", "name": "9a58487dbd831d4b34093a5b1ca86619"}, {"is_disabled": 0, "is_reserved": 0, "fusion_lat": 0.0, "lat": 38.91611833333333, "fusion_lon": 0.0, "rental_uris": {"ios": "https://dc.lft.to/lastmile_qr_scan", "android": "https://dc.lft.to/lastmile_qr_scan"}, "lon": -76.98289666666666, "bike_id": "c399ef67119bfaac92445bc00b363cfd", "type": "electric_scooter", "name": "c399ef67119bfaac92445bc00b363cfd"}, {"is_disabled": 0, "is_reserved": 0, "fusion_lat": 0.0, "lat": 38.96799733333334, "fusion_lon": 0.0, "rental_uris": {"ios": "https://dc.lft.to/lastmile_qr_scan", "android": "https://dc.lft.to/lastmile_qr_scan"}, "lon": -77.024317, "bike_id": "4f5f8beaf46406913703de6476124b09", "type": "electric_scooter", "name": "4f5f8beaf46406913703de6476124b09"}, {"is_disabled": 0, "is_reserved": 0, "fusion_lat": 0.0, "lat": 38.898733666666665, "fusion_lon": 0.0, "rental_uris": {"ios": "https://dc.lft.to/lastmile_qr_scan", "android": "https://dc.lft.to/lastmile_qr_scan"}, "lon": -76.93144483333333, "bike_id": "8af62172f671c9b87f6cb724b4fbebb6", "type": "electric_scooter", "name": "8af62172f671c9b87f6cb724b4fbebb6"}, {"is_disabled": 0, "is_reserved": 0, "fusion_lat": 0.0, "lat": 38.9054305, "fusion_lon": 0.0, "rental_uris": {"ios": "https://dc.lft.to/lastmile_qr_scan", "android": "https://dc.lft.to/lastmile_qr_scan"}, "lon": -77.0499735, "bike_id": "260c1c6b2a82967426bb6910de154376", "type": "electric_scooter", "name": "260c1c6b2a82967426bb6910de154376"}, {"is_disabled": 0, "is_reserved": 0, "fusion_lat": 0.0, "lat": 38.902534, "fusion_lon": 0.0, "rental_uris": {"ios": "https://dc.lft.to/lastmile_qr_scan", "android": "https://dc.lft.to/lastmile_qr_scan"}, "lon": -77.03930283333334, "bike_id": "4323cc06a1a38868fbff075de06ad804", "type": "electric_scooter", "name": "4323cc06a1a38868fbff075de06ad804"}, {"is_disabled": 0, "is_reserved": 0, "fusion_lat": 0.0, "lat": 38.930822666666664, "fusion_lon": 0.0, "rental_uris": {"ios": "https://dc.lft.to/lastmile_qr_scan", "android": "https://dc.lft.to/lastmile_qr_scan"}, "lon": -77.02332633333333, "bike_id": "992ba3f74f059e05cd7563648c304659", "type": "electric_scooter", "name": "992ba3f74f059e05cd7563648c304659"}, {"is_disabled": 0, "is_reserved": 0, "fusion_lat": 0.0, "lat": 38.885431833333335, "fusion_lon": 0.0, "rental_uris": {"ios": "https://dc.lft.to/lastmile_qr_scan", "android": "https://dc.lft.to/lastmile_qr_scan"}, "lon": -76.97889766666667, "bike_id": "b3d4a1abca2119ccdd544c735bba37ab", "type": "electric_scooter", "name": "b3d4a1abca2119ccdd544c735bba37ab"}, {"is_disabled": 0, "is_reserved": 0, "fusion_lat": 0.0, "lat": 38.85716683333333, "fusion_lon": 0.0, "rental_uris": {"ios": "https://dc.lft.to/lastmile_qr_scan", "android": "https://dc.lft.to/lastmile_qr_scan"}, "lon": -76.98099933333333, "bike_id": "040585392727db7939f41ef10f3a47dc", "type": "electric_scooter", "name": "040585392727db7939f41ef10f3a47dc"}, {"is_disabled": 0, "is_reserved": 0, "fusion_lat": 0.0, "lat": 38.964294333333335, "fusion_lon": 0.0, "rental_uris": {"ios": "https://dc.lft.to/lastmile_qr_scan", "android": "https://dc.lft.to/lastmile_qr_scan"}, "lon": -77.074283, "bike_id": "1f76cf0c596c88ea5fb04f81601266f4", "type": "electric_scooter", "name": "1f76cf0c596c88ea5fb04f81601266f4"}, {"is_disabled": 0, "is_reserved": 0, "fusion_lat": 0.0, "lat": 38.896760666666665, "fusion_lon": 0.0, "rental_uris": {"ios": "https://dc.lft.to/lastmile_qr_scan", "android": "https://dc.lft.to/lastmile_qr_scan"}, "lon": -77.05467216666666, "bike_id": "a5f1928e3bb539dbbcea4de428849fcd", "type": "electric_scooter", "name": "a5f1928e3bb539dbbcea4de428849fcd"}, {"is_disabled": 0, "is_reserved": 0, "fusion_lat": 0.0, "lat": 38.834109, "fusion_lon": 0.0, "rental_uris": {"ios": "https://dc.lft.to/lastmile_qr_scan", "android": "https://dc.lft.to/lastmile_qr_scan"}, "lon": -77.04989366666666, "bike_id": "b9c5de1578a03a4e10282cc17b603006", "type": "electric_bike", "name": "b9c5de1578a03a4e10282cc17b603006"}, {"is_disabled": 0, "is_reserved": 0, "fusion_lat": 0.0, "lat": 38.924688, "fusion_lon": 0.0, "rental_uris": {"ios": "https://dc.lft.to/lastmile_qr_scan", "android": "https://dc.lft.to/lastmile_qr_scan"}, "lon": -77.07870166666666, "bike_id": "e8a3693c196722a521e771abe7fc9853", "type": "electric_scooter", "name": "e8a3693c196722a521e771abe7fc9853"}, {"is_disabled": 0, "is_reserved": 0, "fusion_lat": 0.0, "lat": 38.896099166666666, "fusion_lon": 0.0, "rental_uris": {"ios": "https://dc.lft.to/lastmile_qr_scan", "android": "https://dc.lft.to/lastmile_qr_scan"}, "lon": -77.0033475, "bike_id": "34b37fd2bc1101f3a9b337070192712d", "type": "electric_scooter", "name": "34b37fd2bc1101f3a9b337070192712d"}, {"is_disabled": 0, "is_reserved": 0, "fusion_lat": 0.0, "lat": 38.94921983333333, "fusion_lon": 0.0, "rental_uris": {"ios": "https://dc.lft.to/lastmile_qr_scan", "android": "https://dc.lft.to/lastmile_qr_scan"}, "lon": -77.0231385, "bike_id": "c0fedd803b09e3935c20001f7838b34b", "type": "electric_scooter", "name": "c0fedd803b09e3935c20001f7838b34b"}, {"is_disabled": 0, "is_reserved": 0, "fusion_lat": 0.0, "lat": 38.90917733333333, "fusion_lon": 0.0, "rental_uris": {"ios": "https://dc.lft.to/lastmile_qr_scan", "android": "https://dc.lft.to/lastmile_qr_scan"}, "lon": -77.04185216666667, "bike_id": "32dc8309180c97db08bee05d42a290d2", "type": "electric_scooter", "name": "32dc8309180c97db08bee05d42a290d2"}, {"is_disabled": 0, "is_reserved": 0, "fusion_lat": 0.0, "lat": 38.92803266666667, "fusion_lon": 0.0, "rental_uris": {"ios": "https://dc.lft.to/lastmile_qr_scan", "android": "https://dc.lft.to/lastmile_qr_scan"}, "lon": -77.22942766666667, "bike_id": "2a114e5c6e2d132e8ea5de9167c9915b", "type": "electric_bike", "name": "2a114e5c6e2d132e8ea5de9167c9915b"}, {"is_disabled": 0, "is_reserved": 0, "fusion_lat": 0.0, "lat": 38.948528, "fusion_lon": 0.0, "rental_uris": {"ios": "https://dc.lft.to/lastmile_qr_scan", "android": "https://dc.lft.to/lastmile_qr_scan"}, "lon": -77.02112833333334, "bike_id": "79869e9e3fbe2d60c10931884a7d4060", "type": "electric_scooter", "name": "79869e9e3fbe2d60c10931884a7d4060"}, {"is_disabled": 0, "is_reserved": 0, "fusion_lat": 0.0, "lat": 38.957293666666665, "fusion_lon": 0.0, "rental_uris": {"ios": "https://dc.lft.to/lastmile_qr_scan", "android": "https://dc.lft.to/lastmile_qr_scan"}, "lon": -77.02571233333333, "bike_id": "b6157161719293226fec6fd94544a948", "type": "electric_scooter", "name": "b6157161719293226fec6fd94544a948"}, {"is_disabled": 0, "is_reserved": 0, "fusion_lat": 0.0, "lat": 38.92354366666667, "fusion_lon": 0.0, "rental_uris": {"ios": "https://dc.lft.to/lastmile_qr_scan", "android": "https://dc.lft.to/lastmile_qr_scan"}, "lon": -77.03315666666667, "bike_id": "4e3225997cb12e56caf6a4d7910d319a", "type": "electric_scooter", "name": "4e3225997cb12e56caf6a4d7910d319a"}, {"is_disabled": 0, "is_reserved": 0, "fusion_lat": 0.0, "lat": 38.921155166666665, "fusion_lon": 0.0, "rental_uris": {"ios": "https://dc.lft.to/lastmile_qr_scan", "android": "https://dc.lft.to/lastmile_qr_scan"}, "lon": -77.01765766666666, "bike_id": "2108de1763a25f67c7525f2d9aa6631f", "type": "electric_scooter", "name": "2108de1763a25f67c7525f2d9aa6631f"}, {"is_disabled": 0, "is_reserved": 0, "fusion_lat": 0.0, "lat": 38.871007666666664, "fusion_lon": 0.0, "rental_uris": {"ios": "https://dc.lft.to/lastmile_qr_scan", "android": "https://dc.lft.to/lastmile_qr_scan"}, "lon": -77.01212733333334, "bike_id": "79f5d895409aa620e84e6daf333e7373", "type": "electric_scooter", "name": "79f5d895409aa620e84e6daf333e7373"}, {"is_disabled": 0, "is_reserved": 0, "fusion_lat": 0.0, "lat": 38.88482333333333, "fusion_lon": 0.0, "rental_uris": {"ios": "https://dc.lft.to/lastmile_qr_scan", "android": "https://dc.lft.to/lastmile_qr_scan"}, "lon": -77.02369566666667, "bike_id": "dc96b0888b0e9b6f9f5e9cc162a45f65", "type": "electric_scooter", "name": "dc96b0888b0e9b6f9f5e9cc162a45f65"}, {"is_disabled": 0, "is_reserved": 0, "fusion_lat": 0.0, "lat": 38.956343833333335, "fusion_lon": 0.0, "rental_uris": {"ios": "https://dc.lft.to/lastmile_qr_scan", "android": "https://dc.lft.to/lastmile_qr_scan"}, "lon": -77.0221215, "bike_id": "3f5975fec88daf3d457ae63acda0ec2f", "type": "electric_scooter", "name": "3f5975fec88daf3d457ae63acda0ec2f"}, {"is_disabled": 0, "is_reserved": 0, "fusion_lat": 0.0, "lat": 38.899003, "fusion_lon": 0.0, "rental_uris": {"ios": "https://dc.lft.to/lastmile_qr_scan", "android": "https://dc.lft.to/lastmile_qr_scan"}, "lon": -77.04998, "bike_id": "813a81a214007b2fe18eef0b068346b2", "type": "electric_scooter", "name": "813a81a214007b2fe18eef0b068346b2"}, {"is_disabled": 0, "is_reserved": 0, "fusion_lat": 0.0, "lat": 38.923665, "fusion_lon": 0.0, "rental_uris": {"ios": "https://dc.lft.to/lastmile_qr_scan", "android": "https://dc.lft.to/lastmile_qr_scan"}, "lon": -77.052407, "bike_id": "b5462e4d46ed84090dcc8d70c58bf10a", "type": "electric_scooter", "name": "b5462e4d46ed84090dcc8d70c58bf10a"}, {"is_disabled": 0, "is_reserved": 0, "fusion_lat": 0.0, "lat": 38.938640666666664, "fusion_lon": 0.0, "rental_uris": {"ios": "https://dc.lft.to/lastmile_qr_scan", "android": "https://dc.lft.to/lastmile_qr_scan"}, "lon": -77.07237533333333, "bike_id": "ee13779b8235ffa02034995570754a27", "type": "electric_scooter", "name": "ee13779b8235ffa02034995570754a27"}, {"is_disabled": 0, "is_reserved": 0, "fusion_lat": 0.0, "lat": 38.827678166666665, "fusion_lon": 0.0, "rental_uris": {"ios": "https://dc.lft.to/lastmile_qr_scan", "android": "https://dc.lft.to/lastmile_qr_scan"}, "lon": -77.06014833333333, "bike_id": "0f6ce4083785c1f2faf06f9e49a234e0", "type": "electric_bike", "name": "0f6ce4083785c1f2faf06f9e49a234e0"}, {"is_disabled": 0, "is_reserved": 0, "fusion_lat": 0.0, "lat": 38.93196016666667, "fusion_lon": 0.0, "rental_uris": {"ios": "https://dc.lft.to/lastmile_qr_scan", "android": "https://dc.lft.to/lastmile_qr_scan"}, "lon": -77.02838666666666, "bike_id": "f26062d8647560eec89efade7d502bd2", "type": "electric_scooter", "name": "f26062d8647560eec89efade7d502bd2"}, {"is_disabled": 0, "is_reserved": 0, "fusion_lat": 0.0, "lat": 38.918272, "fusion_lon": 0.0, "rental_uris": {"ios": "https://dc.lft.to/lastmile_qr_scan", "android": "https://dc.lft.to/lastmile_qr_scan"}, "lon": -77.012149, "bike_id": "4934a6b56efad4b5e596c6846720ddb3", "type": "electric_scooter", "name": "4934a6b56efad4b5e596c6846720ddb3"}, {"is_disabled": 0, "is_reserved": 0, "fusion_lat": 0.0, "lat": 38.9224385, "fusion_lon": 0.0, "rental_uris": {"ios": "https://dc.lft.to/lastmile_qr_scan", "android": "https://dc.lft.to/lastmile_qr_scan"}, "lon": -77.0227325, "bike_id": "856d7db6863864480cc8888dbdfd8bd7", "type": "electric_scooter", "name": "856d7db6863864480cc8888dbdfd8bd7"}, {"is_disabled": 0, "is_reserved": 0, "fusion_lat": 0.0, "lat": 38.93611383333333, "fusion_lon": 0.0, "rental_uris": {"ios": "https://dc.lft.to/lastmile_qr_scan", "android": "https://dc.lft.to/lastmile_qr_scan"}, "lon": -77.03876633333333, "bike_id": "2fb146c9d4a3dfc5dfe94d1cd3b9ff66", "type": "electric_scooter", "name": "2fb146c9d4a3dfc5dfe94d1cd3b9ff66"}, {"is_disabled": 0, "is_reserved": 0, "fusion_lat": 0.0, "lat": 38.91335216666667, "fusion_lon": 0.0, "rental_uris": {"ios": "https://dc.lft.to/lastmile_qr_scan", "android": "https://dc.lft.to/lastmile_qr_scan"}, "lon": -77.03039, "bike_id": "55d78e88f629e0446e5c6747cf3068f5", "type": "electric_scooter", "name": "55d78e88f629e0446e5c6747cf3068f5"}, {"is_disabled": 0, "is_reserved": 0, "fusion_lat": 0.0, "lat": 38.8951885, "fusion_lon": 0.0, "rental_uris": {"ios": "https://dc.lft.to/lastmile_qr_scan", "android": "https://dc.lft.to/lastmile_qr_scan"}, "lon": -77.02571716666667, "bike_id": "1d18bcacc1253b4e95c978c1adad242e", "type": "electric_scooter", "name": "1d18bcacc1253b4e95c978c1adad242e"}, {"is_disabled": 0, "is_reserved": 0, "fusion_lat": 0.0, "lat": 38.92993366666666, "fusion_lon": 0.0, "rental_uris": {"ios": "https://dc.lft.to/lastmile_qr_scan", "android": "https://dc.lft.to/lastmile_qr_scan"}, "lon": -77.0347535, "bike_id": "929848765f0821485df5446c65cc0676", "type": "electric_scooter", "name": "929848765f0821485df5446c65cc0676"}, {"is_disabled": 0, "is_reserved": 0, "fusion_lat": 0.0, "lat": 38.9105655, "fusion_lon": 0.0, "rental_uris": {"ios": "https://dc.lft.to/lastmile_qr_scan", "android": "https://dc.lft.to/lastmile_qr_scan"}, "lon": -77.04413566666666, "bike_id": "f42628fe9f1cef86afdf8df6eee10fd1", "type": "electric_scooter", "name": "f42628fe9f1cef86afdf8df6eee10fd1"}, {"is_disabled": 0, "is_reserved": 0, "fusion_lat": 0.0, "lat": 38.89550833333333, "fusion_lon": 0.0, "rental_uris": {"ios": "https://dc.lft.to/lastmile_qr_scan", "android": "https://dc.lft.to/lastmile_qr_scan"}, "lon": -77.02667316666667, "bike_id": "79052cc6bcebd030248d50ce42fddecc", "type": "electric_scooter", "name": "79052cc6bcebd030248d50ce42fddecc"}, {"is_disabled": 0, "is_reserved": 0, "fusion_lat": 0.0, "lat": 38.92116, "fusion_lon": 0.0, "rental_uris": {"ios": "https://dc.lft.to/lastmile_qr_scan", "android": "https://dc.lft.to/lastmile_qr_scan"}, "lon": -77.04209583333333, "bike_id": "a8a2fae8329af000893e4e97a9409c3b", "type": "electric_scooter", "name": "a8a2fae8329af000893e4e97a9409c3b"}, {"is_disabled": 0, "is_reserved": 0, "fusion_lat": 0.0, "lat": 38.90268, "fusion_lon": 0.0, "rental_uris": {"ios": "https://dc.lft.to/lastmile_qr_scan", "android": "https://dc.lft.to/lastmile_qr_scan"}, "lon": -77.003299, "bike_id": "90b0a88254dd4cb0775c317b40282805", "type": "electric_scooter", "name": "90b0a88254dd4cb0775c317b40282805"}, {"is_disabled": 0, "is_reserved": 0, "fusion_lat": 0.0, "lat": 38.9090535, "fusion_lon": 0.0, "rental_uris": {"ios": "https://dc.lft.to/lastmile_qr_scan", "android": "https://dc.lft.to/lastmile_qr_scan"}, "lon": -76.99779216666667, "bike_id": "f8e20c2e456508d768b960aec2930590", "type": "electric_scooter", "name": "f8e20c2e456508d768b960aec2930590"}, {"is_disabled": 0, "is_reserved": 0, "fusion_lat": 0.0, "lat": 38.887622666666665, "fusion_lon": 0.0, "rental_uris": {"ios": "https://dc.lft.to/lastmile_qr_scan", "android": "https://dc.lft.to/lastmile_qr_scan"}, "lon": -77.15655383333333, "bike_id": "b2a20c95f2f3451ce2f33446374b3592", "type": "electric_bike", "name": "b2a20c95f2f3451ce2f33446374b3592"}, {"is_disabled": 0, "is_reserved": 0, "fusion_lat": 0.0, "lat": 38.8428345, "fusion_lon": 0.0, "rental_uris": {"ios": "https://dc.lft.to/lastmile_qr_scan", "android": "https://dc.lft.to/lastmile_qr_scan"}, "lon": -76.98849166666666, "bike_id": "3fb585f91497d5d2857cf9dff591e8b5", "type": "electric_bike", "name": "3fb585f91497d5d2857cf9dff591e8b5"}, {"is_disabled": 0, "is_reserved": 0, "fusion_lat": 0.0, "lat": 38.86370933333333, "fusion_lon": 0.0, "rental_uris": {"ios": "https://dc.lft.to/lastmile_qr_scan", "android": "https://dc.lft.to/lastmile_qr_scan"}, "lon": -76.97010916666666, "bike_id": "721bc5e70c3b23ebb52062f010272b25", "type": "electric_bike", "name": "721bc5e70c3b23ebb52062f010272b25"}, {"is_disabled": 0, "is_reserved": 0, "fusion_lat": 0.0, "lat": 38.88363, "fusion_lon": 0.0, "rental_uris": {"ios": "https://dc.lft.to/lastmile_qr_scan", "android": "https://dc.lft.to/lastmile_qr_scan"}, "lon": -76.92795166666667, "bike_id": "693ea14e006a6206e2fea85f870c1f62", "type": "electric_scooter", "name": "693ea14e006a6206e2fea85f870c1f62"}, {"is_disabled": 0, "is_reserved": 0, "fusion_lat": 0.0, "lat": 38.906203166666664, "fusion_lon": 0.0, "rental_uris": {"ios": "https://dc.lft.to/lastmile_qr_scan", "android": "https://dc.lft.to/lastmile_qr_scan"}, "lon": -77.02972633333333, "bike_id": "3b0eb218a3483095d3eef95bffdc69fd", "type": "electric_scooter", "name": "3b0eb218a3483095d3eef95bffdc69fd"}, {"is_disabled": 0, "is_reserved": 0, "fusion_lat": 0.0, "lat": 38.9026095, "fusion_lon": 0.0, "rental_uris": {"ios": "https://dc.lft.to/lastmile_qr_scan", "android": "https://dc.lft.to/lastmile_qr_scan"}, "lon": -76.9284975, "bike_id": "e6fa25dc9131d56472198b7a5594d5ad", "type": "electric_scooter", "name": "e6fa25dc9131d56472198b7a5594d5ad"}, {"is_disabled": 0, "is_reserved": 0, "fusion_lat": 0.0, "lat": 38.928686166666665, "fusion_lon": 0.0, "rental_uris": {"ios": "https://dc.lft.to/lastmile_qr_scan", "android": "https://dc.lft.to/lastmile_qr_scan"}, "lon": -77.078979, "bike_id": "89008f9aa264397732b5637ca2c94327", "type": "electric_scooter", "name": "89008f9aa264397732b5637ca2c94327"}, {"is_disabled": 0, "is_reserved": 0, "fusion_lat": 0.0, "lat": 38.9018645, "fusion_lon": 0.0, "rental_uris": {"ios": "https://dc.lft.to/lastmile_qr_scan", "android": "https://dc.lft.to/lastmile_qr_scan"}, "lon": -77.02507683333333, "bike_id": "bda6cf360882395a3c0a6940fbda11f0", "type": "electric_scooter", "name": "bda6cf360882395a3c0a6940fbda11f0"}, {"is_disabled": 0, "is_reserved": 0, "fusion_lat": 0.0, "lat": 38.87659983333333, "fusion_lon": 0.0, "rental_uris": {"ios": "https://dc.lft.to/lastmile_qr_scan", "android": "https://dc.lft.to/lastmile_qr_scan"}, "lon": -77.00884483333333, "bike_id": "d872b6fd9e7bc76840079d134b06cb27", "type": "electric_scooter", "name": "d872b6fd9e7bc76840079d134b06cb27"}, {"is_disabled": 0, "is_reserved": 0, "fusion_lat": 0.0, "lat": 38.89246516666667, "fusion_lon": 0.0, "rental_uris": {"ios": "https://dc.lft.to/lastmile_qr_scan", "android": "https://dc.lft.to/lastmile_qr_scan"}, "lon": -77.039579, "bike_id": "a1cb969c2c673d3c914f5a50d43f3365", "type": "electric_scooter", "name": "a1cb969c2c673d3c914f5a50d43f3365"}, {"is_disabled": 0, "is_reserved": 0, "fusion_lat": 0.0, "lat": 38.931089, "fusion_lon": 0.0, "rental_uris": {"ios": "https://dc.lft.to/lastmile_qr_scan", "android": "https://dc.lft.to/lastmile_qr_scan"}, "lon": -77.0301985, "bike_id": "e6b203a6bfe32d364083257ddfdbb7de", "type": "electric_scooter", "name": "e6b203a6bfe32d364083257ddfdbb7de"}, {"is_disabled": 0, "is_reserved": 0, "fusion_lat": 0.0, "lat": 38.9203675, "fusion_lon": 0.0, "rental_uris": {"ios": "https://dc.lft.to/lastmile_qr_scan", "android": "https://dc.lft.to/lastmile_qr_scan"}, "lon": -76.97959166666666, "bike_id": "a55f96c4dab0c49625e8910e302463a8", "type": "electric_bike", "name": "a55f96c4dab0c49625e8910e302463a8"}, {"is_disabled": 0, "is_reserved": 0, "fusion_lat": 0.0, "lat": 38.921762666666666, "fusion_lon": 0.0, "rental_uris": {"ios": "https://dc.lft.to/lastmile_qr_scan", "android": "https://dc.lft.to/lastmile_qr_scan"}, "lon": -76.9980895, "bike_id": "1e41d1472cd656aef6fe81de30d64ca2", "type": "electric_scooter", "name": "1e41d1472cd656aef6fe81de30d64ca2"}, {"is_disabled": 0, "is_reserved": 0, "fusion_lat": 0.0, "lat": 38.916783, "fusion_lon": 0.0, "rental_uris": {"ios": "https://dc.lft.to/lastmile_qr_scan", "android": "https://dc.lft.to/lastmile_qr_scan"}, "lon": -77.09578216666667, "bike_id": "3cb5388785731315c0b032f3a243d186", "type": "electric_scooter", "name": "3cb5388785731315c0b032f3a243d186"}, {"is_disabled": 0, "is_reserved": 0, "fusion_lat": 0.0, "lat": 39.00379366666667, "fusion_lon": 0.0, "rental_uris": {"ios": "https://dc.lft.to/lastmile_qr_scan", "android": "https://dc.lft.to/lastmile_qr_scan"}, "lon": -77.01301916666667, "bike_id": "acc9105ba9be3930a0591b77ae4e2d0c", "type": "electric_bike", "name": "acc9105ba9be3930a0591b77ae4e2d0c"}, {"is_disabled": 0, "is_reserved": 0, "fusion_lat": 0.0, "lat": 38.924862166666664, "fusion_lon": 0.0, "rental_uris": {"ios": "https://dc.lft.to/lastmile_qr_scan", "android": "https://dc.lft.to/lastmile_qr_scan"}, "lon": -77.031071, "bike_id": "3ddc3fc8b6a96df75e1ddf450e77b9d8", "type": "electric_scooter", "name": "3ddc3fc8b6a96df75e1ddf450e77b9d8"}, {"is_disabled": 0, "is_reserved": 0, "fusion_lat": 0.0, "lat": 38.939740666666665, "fusion_lon": 0.0, "rental_uris": {"ios": "https://dc.lft.to/lastmile_qr_scan", "android": "https://dc.lft.to/lastmile_qr_scan"}, "lon": -77.0343075, "bike_id": "837db53cea86dac9b47ae135d283cfd1", "type": "electric_scooter", "name": "837db53cea86dac9b47ae135d283cfd1"}, {"is_disabled": 0, "is_reserved": 0, "fusion_lat": 0.0, "lat": 38.928786833333334, "fusion_lon": 0.0, "rental_uris": {"ios": "https://dc.lft.to/lastmile_qr_scan", "android": "https://dc.lft.to/lastmile_qr_scan"}, "lon": -77.0324635, "bike_id": "c0cdd8d72ca652f156a4b8fd80dbba97", "type": "electric_scooter", "name": "c0cdd8d72ca652f156a4b8fd80dbba97"}, {"is_disabled": 0, "is_reserved": 0, "fusion_lat": 0.0, "lat": 38.91335383333333, "fusion_lon": 0.0, "rental_uris": {"ios": "https://dc.lft.to/lastmile_qr_scan", "android": "https://dc.lft.to/lastmile_qr_scan"}, "lon": -77.04340883333333, "bike_id": "fbdf01a10f8fe81ec5d66dcb9a5d036d", "type": "electric_scooter", "name": "fbdf01a10f8fe81ec5d66dcb9a5d036d"}, {"is_disabled": 0, "is_reserved": 0, "fusion_lat": 0.0, "lat": 38.8922865, "fusion_lon": 0.0, "rental_uris": {"ios": "https://dc.lft.to/lastmile_qr_scan", "android": "https://dc.lft.to/lastmile_qr_scan"}, "lon": -77.050049, "bike_id": "b7ec94ab7c18483598a5bfd7e81dfb35", "type": "electric_scooter", "name": "b7ec94ab7c18483598a5bfd7e81dfb35"}, {"is_disabled": 0, "is_reserved": 0, "fusion_lat": 0.0, "lat": 38.91605716666667, "fusion_lon": 0.0, "rental_uris": {"ios": "https://dc.lft.to/lastmile_qr_scan", "android": "https://dc.lft.to/lastmile_qr_scan"}, "lon": -77.0229045, "bike_id": "53aa2529c4a010620c02f664a4dc948c", "type": "electric_scooter", "name": "53aa2529c4a010620c02f664a4dc948c"}, {"is_disabled": 0, "is_reserved": 0, "fusion_lat": 0.0, "lat": 38.92878133333333, "fusion_lon": 0.0, "rental_uris": {"ios": "https://dc.lft.to/lastmile_qr_scan", "android": "https://dc.lft.to/lastmile_qr_scan"}, "lon": -77.03993666666666, "bike_id": "c138462aaf88a088661dbf81a2d5ab9e", "type": "electric_scooter", "name": "c138462aaf88a088661dbf81a2d5ab9e"}, {"is_disabled": 0, "is_reserved": 0, "fusion_lat": 0.0, "lat": 38.904323, "fusion_lon": 0.0, "rental_uris": {"ios": "https://dc.lft.to/lastmile_qr_scan", "android": "https://dc.lft.to/lastmile_qr_scan"}, "lon": -77.06110166666667, "bike_id": "3d5c4325bf61b053193192e056850db1", "type": "electric_scooter", "name": "3d5c4325bf61b053193192e056850db1"}, {"is_disabled": 0, "is_reserved": 0, "fusion_lat": 0.0, "lat": 38.907179, "fusion_lon": 0.0, "rental_uris": {"ios": "https://dc.lft.to/lastmile_qr_scan", "android": "https://dc.lft.to/lastmile_qr_scan"}, "lon": -77.040302, "bike_id": "10d6e117e9a7b9098db3283cdc20e367", "type": "electric_scooter", "name": "10d6e117e9a7b9098db3283cdc20e367"}, {"is_disabled": 0, "is_reserved": 0, "fusion_lat": 0.0, "lat": 38.908141666666666, "fusion_lon": 0.0, "rental_uris": {"ios": "https://dc.lft.to/lastmile_qr_scan", "android": "https://dc.lft.to/lastmile_qr_scan"}, "lon": -77.0253525, "bike_id": "0cf308aa5bcde2deef89e094555be2d9", "type": "electric_scooter", "name": "0cf308aa5bcde2deef89e094555be2d9"}, {"is_disabled": 0, "is_reserved": 0, "fusion_lat": 0.0, "lat": 38.9195375, "fusion_lon": 0.0, "rental_uris": {"ios": "https://dc.lft.to/lastmile_qr_scan", "android": "https://dc.lft.to/lastmile_qr_scan"}, "lon": -77.02303566666667, "bike_id": "254eb7e7164b33d776cee49b58185de2", "type": "electric_scooter", "name": "254eb7e7164b33d776cee49b58185de2"}, {"is_disabled": 0, "is_reserved": 0, "fusion_lat": 0.0, "lat": 38.92301066666667, "fusion_lon": 0.0, "rental_uris": {"ios": "https://dc.lft.to/lastmile_qr_scan", "android": "https://dc.lft.to/lastmile_qr_scan"}, "lon": -77.03659733333333, "bike_id": "a042be437346d848ebf9b64d8e87a8ae", "type": "electric_bike", "name": "a042be437346d848ebf9b64d8e87a8ae"}, {"is_disabled": 0, "is_reserved": 0, "fusion_lat": 0.0, "lat": 38.92535733333333, "fusion_lon": 0.0, "rental_uris": {"ios": "https://dc.lft.to/lastmile_qr_scan", "android": "https://dc.lft.to/lastmile_qr_scan"}, "lon": -77.025582, "bike_id": "537a9a67592c063d3482200ac38a30e6", "type": "electric_scooter", "name": "537a9a67592c063d3482200ac38a30e6"}, {"is_disabled": 0, "is_reserved": 0, "fusion_lat": 0.0, "lat": 38.91653216666667, "fusion_lon": 0.0, "rental_uris": {"ios": "https://dc.lft.to/lastmile_qr_scan", "android": "https://dc.lft.to/lastmile_qr_scan"}, "lon": -77.02389533333333, "bike_id": "d1a6e5fc8176bb6e632edd3c411df903", "type": "electric_scooter", "name": "d1a6e5fc8176bb6e632edd3c411df903"}, {"is_disabled": 0, "is_reserved": 0, "fusion_lat": 0.0, "lat": 38.944503833333336, "fusion_lon": 0.0, "rental_uris": {"ios": "https://dc.lft.to/lastmile_qr_scan", "android": "https://dc.lft.to/lastmile_qr_scan"}, "lon": -77.03282166666666, "bike_id": "a241e458ce47a528d1dc52c01843bccd", "type": "electric_scooter", "name": "a241e458ce47a528d1dc52c01843bccd"}, {"is_disabled": 0, "is_reserved": 0, "fusion_lat": 0.0, "lat": 38.92219983333333, "fusion_lon": 0.0, "rental_uris": {"ios": "https://dc.lft.to/lastmile_qr_scan", "android": "https://dc.lft.to/lastmile_qr_scan"}, "lon": -77.035163, "bike_id": "6dd91471ede8702bf846ad7171a63b24", "type": "electric_scooter", "name": "6dd91471ede8702bf846ad7171a63b24"}, {"is_disabled": 0, "is_reserved": 0, "fusion_lat": 0.0, "lat": 38.90587083333333, "fusion_lon": 0.0, "rental_uris": {"ios": "https://dc.lft.to/lastmile_qr_scan", "android": "https://dc.lft.to/lastmile_qr_scan"}, "lon": -77.03306333333333, "bike_id": "2b4d68ea3834628070b7be4c698be65c", "type": "electric_scooter", "name": "2b4d68ea3834628070b7be4c698be65c"}, {"is_disabled": 0, "is_reserved": 0, "fusion_lat": 0.0, "lat": 38.907491, "fusion_lon": 0.0, "rental_uris": {"ios": "https://dc.lft.to/lastmile_qr_scan", "android": "https://dc.lft.to/lastmile_qr_scan"}, "lon": -77.03854133333333, "bike_id": "92c002fd49a9a82b4ff289d0782d2ecb", "type": "electric_scooter", "name": "92c002fd49a9a82b4ff289d0782d2ecb"}, {"is_disabled": 0, "is_reserved": 0, "fusion_lat": 0.0, "lat": 38.92818666666667, "fusion_lon": 0.0, "rental_uris": {"ios": "https://dc.lft.to/lastmile_qr_scan", "android": "https://dc.lft.to/lastmile_qr_scan"}, "lon": -77.04352666666666, "bike_id": "af953ffb007eea7ff64ebb17e7b39ba6", "type": "electric_scooter", "name": "af953ffb007eea7ff64ebb17e7b39ba6"}, {"is_disabled": 0, "is_reserved": 0, "fusion_lat": 0.0, "lat": 38.850664333333334, "fusion_lon": 0.0, "rental_uris": {"ios": "https://dc.lft.to/lastmile_qr_scan", "android": "https://dc.lft.to/lastmile_qr_scan"}, "lon": -76.95827483333333, "bike_id": "b81eb018229686cb1d0627be824191dc", "type": "electric_bike", "name": "b81eb018229686cb1d0627be824191dc"}, {"is_disabled": 0, "is_reserved": 0, "fusion_lat": 0.0, "lat": 38.90247883333333, "fusion_lon": 0.0, "rental_uris": {"ios": "https://dc.lft.to/lastmile_qr_scan", "android": "https://dc.lft.to/lastmile_qr_scan"}, "lon": -77.00754883333333, "bike_id": "e53dfa4cc212d09ac0d2d4997df4325a", "type": "electric_scooter", "name": "e53dfa4cc212d09ac0d2d4997df4325a"}, {"is_disabled": 0, "is_reserved": 0, "fusion_lat": 0.0, "lat": 38.91803016666667, "fusion_lon": 0.0, "rental_uris": {"ios": "https://dc.lft.to/lastmile_qr_scan", "android": "https://dc.lft.to/lastmile_qr_scan"}, "lon": -77.03179766666666, "bike_id": "8777000009a01cc27428102a685ccac5", "type": "electric_scooter", "name": "8777000009a01cc27428102a685ccac5"}, {"is_disabled": 0, "is_reserved": 0, "fusion_lat": 0.0, "lat": 38.86083683333333, "fusion_lon": 0.0, "rental_uris": {"ios": "https://dc.lft.to/lastmile_qr_scan", "android": "https://dc.lft.to/lastmile_qr_scan"}, "lon": -76.98374316666667, "bike_id": "4b576bd69155d02a1b5222d091727157", "type": "electric_scooter", "name": "4b576bd69155d02a1b5222d091727157"}, {"is_disabled": 0, "is_reserved": 0, "fusion_lat": 0.0, "lat": 38.88578066666667, "fusion_lon": 0.0, "rental_uris": {"ios": "https://dc.lft.to/lastmile_qr_scan", "android": "https://dc.lft.to/lastmile_qr_scan"}, "lon": -77.01212166666667, "bike_id": "e81d9652b40a8f585afb9b330c7a5c26", "type": "electric_scooter", "name": "e81d9652b40a8f585afb9b330c7a5c26"}, {"is_disabled": 0, "is_reserved": 0, "fusion_lat": 0.0, "lat": 38.92083483333333, "fusion_lon": 0.0, "rental_uris": {"ios": "https://dc.lft.to/lastmile_qr_scan", "android": "https://dc.lft.to/lastmile_qr_scan"}, "lon": -77.02522583333334, "bike_id": "c47148c19ff0947866d80ea820efdf36", "type": "electric_scooter", "name": "c47148c19ff0947866d80ea820efdf36"}, {"is_disabled": 0, "is_reserved": 0, "fusion_lat": 0.0, "lat": 38.932188333333336, "fusion_lon": 0.0, "rental_uris": {"ios": "https://dc.lft.to/lastmile_qr_scan", "android": "https://dc.lft.to/lastmile_qr_scan"}, "lon": -76.99716666666667, "bike_id": "1ad28a12e6d3db15c8d2893750f2419e", "type": "electric_scooter", "name": "1ad28a12e6d3db15c8d2893750f2419e"}, {"is_disabled": 0, "is_reserved": 0, "fusion_lat": 0.0, "lat": 38.91053016666667, "fusion_lon": 0.0, "rental_uris": {"ios": "https://dc.lft.to/lastmile_qr_scan", "android": "https://dc.lft.to/lastmile_qr_scan"}, "lon": -77.02300183333334, "bike_id": "ebabdb7b602c46df5ab55ded5177b4ee", "type": "electric_scooter", "name": "ebabdb7b602c46df5ab55ded5177b4ee"}, {"is_disabled": 0, "is_reserved": 0, "fusion_lat": 0.0, "lat": 38.90276183333334, "fusion_lon": 0.0, "rental_uris": {"ios": "https://dc.lft.to/lastmile_qr_scan", "android": "https://dc.lft.to/lastmile_qr_scan"}, "lon": -77.0392315, "bike_id": "e627277d289f0baa11ca8f6ab9a7a318", "type": "electric_scooter", "name": "e627277d289f0baa11ca8f6ab9a7a318"}, {"is_disabled": 0, "is_reserved": 0, "fusion_lat": 0.0, "lat": 38.8911275, "fusion_lon": 0.0, "rental_uris": {"ios": "https://dc.lft.to/lastmile_qr_scan", "android": "https://dc.lft.to/lastmile_qr_scan"}, "lon": -77.01443666666667, "bike_id": "080478218c017992377f1e9d26bb5032", "type": "electric_scooter", "name": "080478218c017992377f1e9d26bb5032"}, {"is_disabled": 0, "is_reserved": 0, "fusion_lat": 0.0, "lat": 38.907288666666666, "fusion_lon": 0.0, "rental_uris": {"ios": "https://dc.lft.to/lastmile_qr_scan", "android": "https://dc.lft.to/lastmile_qr_scan"}, "lon": -77.040244, "bike_id": "fb1a0a25bcbd2856e637a66e9c572c07", "type": "electric_scooter", "name": "fb1a0a25bcbd2856e637a66e9c572c07"}, {"is_disabled": 0, "is_reserved": 0, "fusion_lat": 0.0, "lat": 38.91558533333333, "fusion_lon": 0.0, "rental_uris": {"ios": "https://dc.lft.to/lastmile_qr_scan", "android": "https://dc.lft.to/lastmile_qr_scan"}, "lon": -77.02354766666667, "bike_id": "dc350357acdc6afdcb7a8dec6ae5c2fc", "type": "electric_scooter", "name": "dc350357acdc6afdcb7a8dec6ae5c2fc"}, {"is_disabled": 0, "is_reserved": 0, "fusion_lat": 0.0, "lat": 38.930604333333335, "fusion_lon": 0.0, "rental_uris": {"ios": "https://dc.lft.to/lastmile_qr_scan", "android": "https://dc.lft.to/lastmile_qr_scan"}, "lon": -77.029826, "bike_id": "b7954047d8e3bfde5e4dd384cb3f05c8", "type": "electric_scooter", "name": "b7954047d8e3bfde5e4dd384cb3f05c8"}, {"is_disabled": 0, "is_reserved": 0, "fusion_lat": 0.0, "lat": 38.93083033333333, "fusion_lon": 0.0, "rental_uris": {"ios": "https://dc.lft.to/lastmile_qr_scan", "android": "https://dc.lft.to/lastmile_qr_scan"}, "lon": -77.03239433333333, "bike_id": "f7598685e72f4d3f5b8772a89943e5c2", "type": "electric_scooter", "name": "f7598685e72f4d3f5b8772a89943e5c2"}, {"is_disabled": 0, "is_reserved": 0, "fusion_lat": 0.0, "lat": 38.92022733333334, "fusion_lon": 0.0, "rental_uris": {"ios": "https://dc.lft.to/lastmile_qr_scan", "android": "https://dc.lft.to/lastmile_qr_scan"}, "lon": -77.03642483333333, "bike_id": "663e02b4961b8440f9267069ac21a2a6", "type": "electric_scooter", "name": "663e02b4961b8440f9267069ac21a2a6"}, {"is_disabled": 0, "is_reserved": 0, "fusion_lat": 0.0, "lat": 38.902251166666666, "fusion_lon": 0.0, "rental_uris": {"ios": "https://dc.lft.to/lastmile_qr_scan", "android": "https://dc.lft.to/lastmile_qr_scan"}, "lon": -77.060678, "bike_id": "b70176a12b6a501b7ada8c93ab51b460", "type": "electric_scooter", "name": "b70176a12b6a501b7ada8c93ab51b460"}, {"is_disabled": 0, "is_reserved": 0, "fusion_lat": 0.0, "lat": 38.914825666666665, "fusion_lon": 0.0, "rental_uris": {"ios": "https://dc.lft.to/lastmile_qr_scan", "android": "https://dc.lft.to/lastmile_qr_scan"}, "lon": -77.03210166666666, "bike_id": "ec164a3a16039c26c920eb1b98cf49fd", "type": "electric_scooter", "name": "ec164a3a16039c26c920eb1b98cf49fd"}, {"is_disabled": 0, "is_reserved": 0, "fusion_lat": 0.0, "lat": 38.91810516666666, "fusion_lon": 0.0, "rental_uris": {"ios": "https://dc.lft.to/lastmile_qr_scan", "android": "https://dc.lft.to/lastmile_qr_scan"}, "lon": -77.0250105, "bike_id": "da2a7d6779dcbe1e080716749ed1fbb9", "type": "electric_scooter", "name": "da2a7d6779dcbe1e080716749ed1fbb9"}, {"is_disabled": 0, "is_reserved": 0, "fusion_lat": 0.0, "lat": 38.906125, "fusion_lon": 0.0, "rental_uris": {"ios": "https://dc.lft.to/lastmile_qr_scan", "android": "https://dc.lft.to/lastmile_qr_scan"}, "lon": -76.9780345, "bike_id": "f1f9b6d62235a5843a592f23778ab4cc", "type": "electric_scooter", "name": "f1f9b6d62235a5843a592f23778ab4cc"}, {"is_disabled": 0, "is_reserved": 0, "fusion_lat": 0.0, "lat": 38.981511166666664, "fusion_lon": 0.0, "rental_uris": {"ios": "https://dc.lft.to/lastmile_qr_scan", "android": "https://dc.lft.to/lastmile_qr_scan"}, "lon": -77.00782516666666, "bike_id": "6b2f15dbf979e8b6d2e38c94c16bf9cc", "type": "electric_bike", "name": "6b2f15dbf979e8b6d2e38c94c16bf9cc"}, {"is_disabled": 0, "is_reserved": 0, "fusion_lat": 0.0, "lat": 38.911236833333334, "fusion_lon": 0.0, "rental_uris": {"ios": "https://dc.lft.to/lastmile_qr_scan", "android": "https://dc.lft.to/lastmile_qr_scan"}, "lon": -77.00332566666667, "bike_id": "3ef70c1a70a2c7d5af81c86759541a87", "type": "electric_scooter", "name": "3ef70c1a70a2c7d5af81c86759541a87"}, {"is_disabled": 0, "is_reserved": 0, "fusion_lat": 0.0, "lat": 38.90146383333333, "fusion_lon": 0.0, "rental_uris": {"ios": "https://dc.lft.to/lastmile_qr_scan", "android": "https://dc.lft.to/lastmile_qr_scan"}, "lon": -76.9855485, "bike_id": "f41aa31f48d29b0d29cb457fd6e4654f", "type": "electric_scooter", "name": "f41aa31f48d29b0d29cb457fd6e4654f"}, {"is_disabled": 0, "is_reserved": 0, "fusion_lat": 0.0, "lat": 38.87842633333333, "fusion_lon": 0.0, "rental_uris": {"ios": "https://dc.lft.to/lastmile_qr_scan", "android": "https://dc.lft.to/lastmile_qr_scan"}, "lon": -76.931316, "bike_id": "b28f3ea235d4454162d5dc1567d1479f", "type": "electric_scooter", "name": "b28f3ea235d4454162d5dc1567d1479f"}, {"is_disabled": 0, "is_reserved": 0, "fusion_lat": 0.0, "lat": 38.882964666666666, "fusion_lon": 0.0, "rental_uris": {"ios": "https://dc.lft.to/lastmile_qr_scan", "android": "https://dc.lft.to/lastmile_qr_scan"}, "lon": -77.02562766666667, "bike_id": "c2136cc7eaeac54119443c9e9440931c", "type": "electric_scooter", "name": "c2136cc7eaeac54119443c9e9440931c"}, {"is_disabled": 0, "is_reserved": 0, "fusion_lat": 0.0, "lat": 38.91259733333333, "fusion_lon": 0.0, "rental_uris": {"ios": "https://dc.lft.to/lastmile_qr_scan", "android": "https://dc.lft.to/lastmile_qr_scan"}, "lon": -77.005086, "bike_id": "a540a153a21ad82832ce9e2cdacdacc3", "type": "electric_scooter", "name": "a540a153a21ad82832ce9e2cdacdacc3"}, {"is_disabled": 0, "is_reserved": 0, "fusion_lat": 0.0, "lat": 39.01069116666667, "fusion_lon": 0.0, "rental_uris": {"ios": "https://dc.lft.to/lastmile_qr_scan", "android": "https://dc.lft.to/lastmile_qr_scan"}, "lon": -76.92246916666667, "bike_id": "5e0ade72b7d22fef915e9d8fbc19c174", "type": "electric_bike", "name": "5e0ade72b7d22fef915e9d8fbc19c174"}, {"is_disabled": 0, "is_reserved": 0, "fusion_lat": 0.0, "lat": 38.89848033333333, "fusion_lon": 0.0, "rental_uris": {"ios": "https://dc.lft.to/lastmile_qr_scan", "android": "https://dc.lft.to/lastmile_qr_scan"}, "lon": -77.02864066666666, "bike_id": "a4c661c4997cdc932372dc175908b308", "type": "electric_scooter", "name": "a4c661c4997cdc932372dc175908b308"}, {"is_disabled": 0, "is_reserved": 0, "fusion_lat": 0.0, "lat": 38.928803, "fusion_lon": 0.0, "rental_uris": {"ios": "https://dc.lft.to/lastmile_qr_scan", "android": "https://dc.lft.to/lastmile_qr_scan"}, "lon": -77.03405816666667, "bike_id": "9055bfc7ad8c5e725be598d6397a1242", "type": "electric_scooter", "name": "9055bfc7ad8c5e725be598d6397a1242"}, {"is_disabled": 0, "is_reserved": 0, "fusion_lat": 0.0, "lat": 38.916782833333336, "fusion_lon": 0.0, "rental_uris": {"ios": "https://dc.lft.to/lastmile_qr_scan", "android": "https://dc.lft.to/lastmile_qr_scan"}, "lon": -77.04614333333333, "bike_id": "631fa8b2a166da9a5acd1b85ef8fbf73", "type": "electric_scooter", "name": "631fa8b2a166da9a5acd1b85ef8fbf73"}, {"is_disabled": 0, "is_reserved": 0, "fusion_lat": 0.0, "lat": 38.92900483333333, "fusion_lon": 0.0, "rental_uris": {"ios": "https://dc.lft.to/lastmile_qr_scan", "android": "https://dc.lft.to/lastmile_qr_scan"}, "lon": -77.03763533333333, "bike_id": "233cf07a287dd88da70ba3225776a7c3", "type": "electric_scooter", "name": "233cf07a287dd88da70ba3225776a7c3"}, {"is_disabled": 0, "is_reserved": 0, "fusion_lat": 0.0, "lat": 38.949216666666665, "fusion_lon": 0.0, "rental_uris": {"ios": "https://dc.lft.to/lastmile_qr_scan", "android": "https://dc.lft.to/lastmile_qr_scan"}, "lon": -77.00802733333333, "bike_id": "b4b82745c3f09217f5108d6c86e537cc", "type": "electric_bike", "name": "b4b82745c3f09217f5108d6c86e537cc"}, {"is_disabled": 0, "is_reserved": 0, "fusion_lat": 0.0, "lat": 38.949817833333334, "fusion_lon": 0.0, "rental_uris": {"ios": "https://dc.lft.to/lastmile_qr_scan", "android": "https://dc.lft.to/lastmile_qr_scan"}, "lon": -77.02446983333333, "bike_id": "a9136749f5d355479057e131ad90e2de", "type": "electric_scooter", "name": "a9136749f5d355479057e131ad90e2de"}, {"is_disabled": 0, "is_reserved": 0, "fusion_lat": 0.0, "lat": 38.81333766666667, "fusion_lon": 0.0, "rental_uris": {"ios": "https://dc.lft.to/lastmile_qr_scan", "android": "https://dc.lft.to/lastmile_qr_scan"}, "lon": -77.05092483333334, "bike_id": "edb277c243818d487ea74331093e05a0", "type": "electric_bike", "name": "edb277c243818d487ea74331093e05a0"}, {"is_disabled": 0, "is_reserved": 0, "fusion_lat": 0.0, "lat": 38.881444333333334, "fusion_lon": 0.0, "rental_uris": {"ios": "https://dc.lft.to/lastmile_qr_scan", "android": "https://dc.lft.to/lastmile_qr_scan"}, "lon": -77.02275183333333, "bike_id": "8f006bb322534e2737a0a03d1760121c", "type": "electric_scooter", "name": "8f006bb322534e2737a0a03d1760121c"}, {"is_disabled": 0, "is_reserved": 0, "fusion_lat": 0.0, "lat": 38.884512666666666, "fusion_lon": 0.0, "rental_uris": {"ios": "https://dc.lft.to/lastmile_qr_scan", "android": "https://dc.lft.to/lastmile_qr_scan"}, "lon": -76.9509655, "bike_id": "6c115165eee1b47c24b7e4766acf1adf", "type": "electric_scooter", "name": "6c115165eee1b47c24b7e4766acf1adf"}, {"is_disabled": 0, "is_reserved": 0, "fusion_lat": 0.0, "lat": 38.91037333333333, "fusion_lon": 0.0, "rental_uris": {"ios": "https://dc.lft.to/lastmile_qr_scan", "android": "https://dc.lft.to/lastmile_qr_scan"}, "lon": -76.9233785, "bike_id": "9596f2938ee0e9e0cc8e69dcc339ea37", "type": "electric_bike", "name": "9596f2938ee0e9e0cc8e69dcc339ea37"}, {"is_disabled": 0, "is_reserved": 0, "fusion_lat": 0.0, "lat": 38.913555833333334, "fusion_lon": 0.0, "rental_uris": {"ios": "https://dc.lft.to/lastmile_qr_scan", "android": "https://dc.lft.to/lastmile_qr_scan"}, "lon": -76.9714155, "bike_id": "9fd7c137714b3f336f1325ce97777896", "type": "electric_scooter", "name": "9fd7c137714b3f336f1325ce97777896"}, {"is_disabled": 0, "is_reserved": 0, "fusion_lat": 0.0, "lat": 38.93241416666667, "fusion_lon": 0.0, "rental_uris": {"ios": "https://dc.lft.to/lastmile_qr_scan", "android": "https://dc.lft.to/lastmile_qr_scan"}, "lon": -77.0293265, "bike_id": "017c2289c0679adbd80aeb83f6b4e067", "type": "electric_scooter", "name": "017c2289c0679adbd80aeb83f6b4e067"}, {"is_disabled": 0, "is_reserved": 0, "fusion_lat": 0.0, "lat": 38.9298185, "fusion_lon": 0.0, "rental_uris": {"ios": "https://dc.lft.to/lastmile_qr_scan", "android": "https://dc.lft.to/lastmile_qr_scan"}, "lon": -77.038842, "bike_id": "bc21f4a31d35915081adc98fe1eb6afd", "type": "electric_scooter", "name": "bc21f4a31d35915081adc98fe1eb6afd"}, {"is_disabled": 0, "is_reserved": 0, "fusion_lat": 0.0, "lat": 38.899451166666665, "fusion_lon": 0.0, "rental_uris": {"ios": "https://dc.lft.to/lastmile_qr_scan", "android": "https://dc.lft.to/lastmile_qr_scan"}, "lon": -77.01499233333334, "bike_id": "7c890d87818173020480eb1798d4258c", "type": "electric_scooter", "name": "7c890d87818173020480eb1798d4258c"}, {"is_disabled": 0, "is_reserved": 0, "fusion_lat": 0.0, "lat": 38.92508383333333, "fusion_lon": 0.0, "rental_uris": {"ios": "https://dc.lft.to/lastmile_qr_scan", "android": "https://dc.lft.to/lastmile_qr_scan"}, "lon": -77.02358183333334, "bike_id": "3f15b02d27d661088f0e1d86ce7c30f1", "type": "electric_scooter", "name": "3f15b02d27d661088f0e1d86ce7c30f1"}, {"is_disabled": 0, "is_reserved": 0, "fusion_lat": 0.0, "lat": 38.8998465, "fusion_lon": 0.0, "rental_uris": {"ios": "https://dc.lft.to/lastmile_qr_scan", "android": "https://dc.lft.to/lastmile_qr_scan"}, "lon": -77.00676516666667, "bike_id": "5e9aa9436743a1101d858b8566d61cb6", "type": "electric_scooter", "name": "5e9aa9436743a1101d858b8566d61cb6"}, {"is_disabled": 0, "is_reserved": 0, "fusion_lat": 0.0, "lat": 38.90919916666667, "fusion_lon": 0.0, "rental_uris": {"ios": "https://dc.lft.to/lastmile_qr_scan", "android": "https://dc.lft.to/lastmile_qr_scan"}, "lon": -77.0494085, "bike_id": "2f91006b1f0c564aca8f767822cbce71", "type": "electric_scooter", "name": "2f91006b1f0c564aca8f767822cbce71"}, {"is_disabled": 0, "is_reserved": 0, "fusion_lat": 0.0, "lat": 38.92789633333334, "fusion_lon": 0.0, "rental_uris": {"ios": "https://dc.lft.to/lastmile_qr_scan", "android": "https://dc.lft.to/lastmile_qr_scan"}, "lon": -77.02589566666667, "bike_id": "0b66fe66883ff1a5633748b667202e66", "type": "electric_scooter", "name": "0b66fe66883ff1a5633748b667202e66"}, {"is_disabled": 0, "is_reserved": 0, "fusion_lat": 0.0, "lat": 38.86013466666667, "fusion_lon": 0.0, "rental_uris": {"ios": "https://dc.lft.to/lastmile_qr_scan", "android": "https://dc.lft.to/lastmile_qr_scan"}, "lon": -77.06532983333334, "bike_id": "e292d3486748c844d07cd1a558a7fa59", "type": "electric_bike", "name": "e292d3486748c844d07cd1a558a7fa59"}, {"is_disabled": 0, "is_reserved": 0, "fusion_lat": 0.0, "lat": 38.8967, "fusion_lon": 0.0, "rental_uris": {"ios": "https://dc.lft.to/lastmile_qr_scan", "android": "https://dc.lft.to/lastmile_qr_scan"}, "lon": -76.9321265, "bike_id": "b82f65cea92cb4a630c0d8d9666d0419", "type": "electric_scooter", "name": "b82f65cea92cb4a630c0d8d9666d0419"}, {"is_disabled": 0, "is_reserved": 0, "fusion_lat": 0.0, "lat": 38.918105833333335, "fusion_lon": 0.0, "rental_uris": {"ios": "https://dc.lft.to/lastmile_qr_scan", "android": "https://dc.lft.to/lastmile_qr_scan"}, "lon": -77.02496216666667, "bike_id": "968cf4c8ea4ab228db52fb157ba4160d", "type": "electric_scooter", "name": "968cf4c8ea4ab228db52fb157ba4160d"}, {"is_disabled": 0, "is_reserved": 0, "fusion_lat": 0.0, "lat": 38.879237833333335, "fusion_lon": 0.0, "rental_uris": {"ios": "https://dc.lft.to/lastmile_qr_scan", "android": "https://dc.lft.to/lastmile_qr_scan"}, "lon": -77.00886316666667, "bike_id": "a0a4662948ec3f410bdca828c37f2fe9", "type": "electric_scooter", "name": "a0a4662948ec3f410bdca828c37f2fe9"}, {"is_disabled": 0, "is_reserved": 0, "fusion_lat": 0.0, "lat": 38.94263466666666, "fusion_lon": 0.0, "rental_uris": {"ios": "https://dc.lft.to/lastmile_qr_scan", "android": "https://dc.lft.to/lastmile_qr_scan"}, "lon": -77.01543066666666, "bike_id": "e988d38b152126ca47d559a0238799e3", "type": "electric_scooter", "name": "e988d38b152126ca47d559a0238799e3"}, {"is_disabled": 0, "is_reserved": 0, "fusion_lat": 0.0, "lat": 38.926656666666666, "fusion_lon": 0.0, "rental_uris": {"ios": "https://dc.lft.to/lastmile_qr_scan", "android": "https://dc.lft.to/lastmile_qr_scan"}, "lon": -77.05203883333333, "bike_id": "63535a46c68510cd8356de44ce53f409", "type": "electric_scooter", "name": "63535a46c68510cd8356de44ce53f409"}, {"is_disabled": 0, "is_reserved": 0, "fusion_lat": 0.0, "lat": 38.905116666666665, "fusion_lon": 0.0, "rental_uris": {"ios": "https://dc.lft.to/lastmile_qr_scan", "android": "https://dc.lft.to/lastmile_qr_scan"}, "lon": -76.95202133333333, "bike_id": "5f7a685124972a517490ae3660a0cfe6", "type": "electric_scooter", "name": "5f7a685124972a517490ae3660a0cfe6"}, {"is_disabled": 0, "is_reserved": 0, "fusion_lat": 0.0, "lat": 38.88546433333333, "fusion_lon": 0.0, "rental_uris": {"ios": "https://dc.lft.to/lastmile_qr_scan", "android": "https://dc.lft.to/lastmile_qr_scan"}, "lon": -76.95974816666667, "bike_id": "09082e0622eec25b8ec2965ea31bd4f6", "type": "electric_scooter", "name": "09082e0622eec25b8ec2965ea31bd4f6"}, {"is_disabled": 0, "is_reserved": 0, "fusion_lat": 0.0, "lat": 38.87464716666667, "fusion_lon": 0.0, "rental_uris": {"ios": "https://dc.lft.to/lastmile_qr_scan", "android": "https://dc.lft.to/lastmile_qr_scan"}, "lon": -77.00940016666667, "bike_id": "fc4cbfd1891f9680eb9aa8e6e1a4f68a", "type": "electric_scooter", "name": "fc4cbfd1891f9680eb9aa8e6e1a4f68a"}, {"is_disabled": 0, "is_reserved": 0, "fusion_lat": 0.0, "lat": 38.91608933333333, "fusion_lon": 0.0, "rental_uris": {"ios": "https://dc.lft.to/lastmile_qr_scan", "android": "https://dc.lft.to/lastmile_qr_scan"}, "lon": -77.02311966666667, "bike_id": "bff73fdf0d10554129fccf3b2b9e96c3", "type": "electric_scooter", "name": "bff73fdf0d10554129fccf3b2b9e96c3"}, {"is_disabled": 0, "is_reserved": 0, "fusion_lat": 0.0, "lat": 38.89366616666667, "fusion_lon": 0.0, "rental_uris": {"ios": "https://dc.lft.to/lastmile_qr_scan", "android": "https://dc.lft.to/lastmile_qr_scan"}, "lon": -76.9410995, "bike_id": "1ceef42f85d012b15f55a1459cce20f9", "type": "electric_scooter", "name": "1ceef42f85d012b15f55a1459cce20f9"}, {"is_disabled": 0, "is_reserved": 0, "fusion_lat": 0.0, "lat": 38.871847333333335, "fusion_lon": 0.0, "rental_uris": {"ios": "https://dc.lft.to/lastmile_qr_scan", "android": "https://dc.lft.to/lastmile_qr_scan"}, "lon": -77.233985, "bike_id": "d8e55cf4b1ff5245736a7a3e0b4fa49a", "type": "electric_bike", "name": "d8e55cf4b1ff5245736a7a3e0b4fa49a"}, {"is_disabled": 0, "is_reserved": 0, "fusion_lat": 0.0, "lat": 38.91952466666667, "fusion_lon": 0.0, "rental_uris": {"ios": "https://dc.lft.to/lastmile_qr_scan", "android": "https://dc.lft.to/lastmile_qr_scan"}, "lon": -77.0415655, "bike_id": "3b4614ccfda6fa456648b92da00b1be6", "type": "electric_scooter", "name": "3b4614ccfda6fa456648b92da00b1be6"}, {"is_disabled": 0, "is_reserved": 0, "fusion_lat": 0.0, "lat": 38.9310365, "fusion_lon": 0.0, "rental_uris": {"ios": "https://dc.lft.to/lastmile_qr_scan", "android": "https://dc.lft.to/lastmile_qr_scan"}, "lon": -77.02669466666667, "bike_id": "35e7ec04c45201b84b4601d169a36a7b", "type": "electric_scooter", "name": "35e7ec04c45201b84b4601d169a36a7b"}, {"is_disabled": 0, "is_reserved": 0, "fusion_lat": 0.0, "lat": 38.80739716666667, "fusion_lon": 0.0, "rental_uris": {"ios": "https://dc.lft.to/lastmile_qr_scan", "android": "https://dc.lft.to/lastmile_qr_scan"}, "lon": -77.096905, "bike_id": "ed31a211ceb3cb2af8a04b034d361a3a", "type": "electric_bike", "name": "ed31a211ceb3cb2af8a04b034d361a3a"}, {"is_disabled": 0, "is_reserved": 0, "fusion_lat": 0.0, "lat": 38.86677783333333, "fusion_lon": 0.0, "rental_uris": {"ios": "https://dc.lft.to/lastmile_qr_scan", "android": "https://dc.lft.to/lastmile_qr_scan"}, "lon": -77.010867, "bike_id": "f34d3315088e91b786eeed3a595fff62", "type": "electric_scooter", "name": "f34d3315088e91b786eeed3a595fff62"}, {"is_disabled": 0, "is_reserved": 0, "fusion_lat": 0.0, "lat": 38.90028183333333, "fusion_lon": 0.0, "rental_uris": {"ios": "https://dc.lft.to/lastmile_qr_scan", "android": "https://dc.lft.to/lastmile_qr_scan"}, "lon": -77.0337945, "bike_id": "7aff6e92fce24c1600f16a424ce558ad", "type": "electric_scooter", "name": "7aff6e92fce24c1600f16a424ce558ad"}, {"is_disabled": 0, "is_reserved": 0, "fusion_lat": 0.0, "lat": 38.91524016666666, "fusion_lon": 0.0, "rental_uris": {"ios": "https://dc.lft.to/lastmile_qr_scan", "android": "https://dc.lft.to/lastmile_qr_scan"}, "lon": -77.03661916666667, "bike_id": "38e1e6370ad13ca56310dfa43a4042e4", "type": "electric_scooter", "name": "38e1e6370ad13ca56310dfa43a4042e4"}, {"is_disabled": 0, "is_reserved": 0, "fusion_lat": 0.0, "lat": 38.916575, "fusion_lon": 0.0, "rental_uris": {"ios": "https://dc.lft.to/lastmile_qr_scan", "android": "https://dc.lft.to/lastmile_qr_scan"}, "lon": -77.02371166666667, "bike_id": "eaa77ec96fed5ab18ae1081e1b503a35", "type": "electric_scooter", "name": "eaa77ec96fed5ab18ae1081e1b503a35"}, {"is_disabled": 0, "is_reserved": 0, "fusion_lat": 0.0, "lat": 38.91596033333333, "fusion_lon": 0.0, "rental_uris": {"ios": "https://dc.lft.to/lastmile_qr_scan", "android": "https://dc.lft.to/lastmile_qr_scan"}, "lon": -77.02404216666666, "bike_id": "5538935f6e3e2e2b53e0afd484e330d2", "type": "electric_scooter", "name": "5538935f6e3e2e2b53e0afd484e330d2"}, {"is_disabled": 0, "is_reserved": 0, "fusion_lat": 0.0, "lat": 38.885301166666665, "fusion_lon": 0.0, "rental_uris": {"ios": "https://dc.lft.to/lastmile_qr_scan", "android": "https://dc.lft.to/lastmile_qr_scan"}, "lon": -76.9980465, "bike_id": "4b1cc8c21a88314f53b7d29a2f9ed638", "type": "electric_scooter", "name": "4b1cc8c21a88314f53b7d29a2f9ed638"}, {"is_disabled": 0, "is_reserved": 0, "fusion_lat": 0.0, "lat": 39.000074, "fusion_lon": 0.0, "rental_uris": {"ios": "https://dc.lft.to/lastmile_qr_scan", "android": "https://dc.lft.to/lastmile_qr_scan"}, "lon": -76.91802316666667, "bike_id": "000fc6a563671b1f13e361e9001c13f6", "type": "electric_bike", "name": "000fc6a563671b1f13e361e9001c13f6"}, {"is_disabled": 0, "is_reserved": 0, "fusion_lat": 0.0, "lat": 38.916054333333335, "fusion_lon": 0.0, "rental_uris": {"ios": "https://dc.lft.to/lastmile_qr_scan", "android": "https://dc.lft.to/lastmile_qr_scan"}, "lon": -77.024065, "bike_id": "7d1292dc9b782d306987e2dc14f0cd2a", "type": "electric_scooter", "name": "7d1292dc9b782d306987e2dc14f0cd2a"}, {"is_disabled": 0, "is_reserved": 0, "fusion_lat": 0.0, "lat": 38.90190883333333, "fusion_lon": 0.0, "rental_uris": {"ios": "https://dc.lft.to/lastmile_qr_scan", "android": "https://dc.lft.to/lastmile_qr_scan"}, "lon": -77.04876816666666, "bike_id": "857440cd59aa8d6dc0fd43f23ff616b5", "type": "electric_scooter", "name": "857440cd59aa8d6dc0fd43f23ff616b5"}, {"is_disabled": 0, "is_reserved": 0, "fusion_lat": 0.0, "lat": 38.897322833333334, "fusion_lon": 0.0, "rental_uris": {"ios": "https://dc.lft.to/lastmile_qr_scan", "android": "https://dc.lft.to/lastmile_qr_scan"}, "lon": -77.04988083333333, "bike_id": "43dd67908eb640e35d438175681d412b", "type": "electric_scooter", "name": "43dd67908eb640e35d438175681d412b"}, {"is_disabled": 0, "is_reserved": 0, "fusion_lat": 0.0, "lat": 38.942038333333336, "fusion_lon": 0.0, "rental_uris": {"ios": "https://dc.lft.to/lastmile_qr_scan", "android": "https://dc.lft.to/lastmile_qr_scan"}, "lon": -77.02566916666666, "bike_id": "516ec60ff3b6f88787d124b2daf595b7", "type": "electric_scooter", "name": "516ec60ff3b6f88787d124b2daf595b7"}, {"is_disabled": 0, "is_reserved": 0, "fusion_lat": 0.0, "lat": 38.965337166666664, "fusion_lon": 0.0, "rental_uris": {"ios": "https://dc.lft.to/lastmile_qr_scan", "android": "https://dc.lft.to/lastmile_qr_scan"}, "lon": -77.034161, "bike_id": "1d7d7d91ef7418266e01e894528068df", "type": "electric_bike", "name": "1d7d7d91ef7418266e01e894528068df"}, {"is_disabled": 0, "is_reserved": 0, "fusion_lat": 0.0, "lat": 38.84600433333333, "fusion_lon": 0.0, "rental_uris": {"ios": "https://dc.lft.to/lastmile_qr_scan", "android": "https://dc.lft.to/lastmile_qr_scan"}, "lon": -76.974114, "bike_id": "8313daa271f8d7bf9664cc875a226efa", "type": "electric_scooter", "name": "8313daa271f8d7bf9664cc875a226efa"}, {"is_disabled": 0, "is_reserved": 0, "fusion_lat": 0.0, "lat": 38.87838266666667, "fusion_lon": 0.0, "rental_uris": {"ios": "https://dc.lft.to/lastmile_qr_scan", "android": "https://dc.lft.to/lastmile_qr_scan"}, "lon": -76.9860755, "bike_id": "f6811cf44123eec6b99d9435d9bf5fd8", "type": "electric_scooter", "name": "f6811cf44123eec6b99d9435d9bf5fd8"}, {"is_disabled": 0, "is_reserved": 0, "fusion_lat": 0.0, "lat": 38.89517216666667, "fusion_lon": 0.0, "rental_uris": {"ios": "https://dc.lft.to/lastmile_qr_scan", "android": "https://dc.lft.to/lastmile_qr_scan"}, "lon": -77.02290266666667, "bike_id": "3f01251180583c45557a74cd689a6a57", "type": "electric_scooter", "name": "3f01251180583c45557a74cd689a6a57"}, {"is_disabled": 0, "is_reserved": 0, "fusion_lat": 0.0, "lat": 38.929901666666666, "fusion_lon": 0.0, "rental_uris": {"ios": "https://dc.lft.to/lastmile_qr_scan", "android": "https://dc.lft.to/lastmile_qr_scan"}, "lon": -77.03474883333334, "bike_id": "8fdc80bc22e742b9362450bd9a126d99", "type": "electric_scooter", "name": "8fdc80bc22e742b9362450bd9a126d99"}, {"is_disabled": 0, "is_reserved": 0, "fusion_lat": 0.0, "lat": 38.9112825, "fusion_lon": 0.0, "rental_uris": {"ios": "https://dc.lft.to/lastmile_qr_scan", "android": "https://dc.lft.to/lastmile_qr_scan"}, "lon": -77.01996433333333, "bike_id": "a3fdc541092bb85c0a4bf27fab538b42", "type": "electric_scooter", "name": "a3fdc541092bb85c0a4bf27fab538b42"}, {"is_disabled": 0, "is_reserved": 0, "fusion_lat": 0.0, "lat": 38.922197, "fusion_lon": 0.0, "rental_uris": {"ios": "https://dc.lft.to/lastmile_qr_scan", "android": "https://dc.lft.to/lastmile_qr_scan"}, "lon": -77.043427, "bike_id": "9be464217932c25618f0f4b2a22b54a0", "type": "electric_scooter", "name": "9be464217932c25618f0f4b2a22b54a0"}, {"is_disabled": 0, "is_reserved": 0, "fusion_lat": 0.0, "lat": 38.93792333333333, "fusion_lon": 0.0, "rental_uris": {"ios": "https://dc.lft.to/lastmile_qr_scan", "android": "https://dc.lft.to/lastmile_qr_scan"}, "lon": -77.02327733333334, "bike_id": "6d732844757b990f5c7de81a8e7a095e", "type": "electric_scooter", "name": "6d732844757b990f5c7de81a8e7a095e"}, {"is_disabled": 0, "is_reserved": 0, "fusion_lat": 0.0, "lat": 38.959295833333336, "fusion_lon": 0.0, "rental_uris": {"ios": "https://dc.lft.to/lastmile_qr_scan", "android": "https://dc.lft.to/lastmile_qr_scan"}, "lon": -76.92530316666667, "bike_id": "0065438fede73c8407422796a113ca16", "type": "electric_bike", "name": "0065438fede73c8407422796a113ca16"}, {"is_disabled": 0, "is_reserved": 0, "fusion_lat": 0.0, "lat": 38.911755, "fusion_lon": 0.0, "rental_uris": {"ios": "https://dc.lft.to/lastmile_qr_scan", "android": "https://dc.lft.to/lastmile_qr_scan"}, "lon": -77.068623, "bike_id": "821888ce9343e6f9bf3e6c3dbc779019", "type": "electric_scooter", "name": "821888ce9343e6f9bf3e6c3dbc779019"}, {"is_disabled": 0, "is_reserved": 0, "fusion_lat": 0.0, "lat": 38.9182535, "fusion_lon": 0.0, "rental_uris": {"ios": "https://dc.lft.to/lastmile_qr_scan", "android": "https://dc.lft.to/lastmile_qr_scan"}, "lon": -77.01216066666667, "bike_id": "54bf673210ef491382e58169d36c2775", "type": "electric_scooter", "name": "54bf673210ef491382e58169d36c2775"}, {"is_disabled": 0, "is_reserved": 0, "fusion_lat": 0.0, "lat": 38.9105175, "fusion_lon": 0.0, "rental_uris": {"ios": "https://dc.lft.to/lastmile_qr_scan", "android": "https://dc.lft.to/lastmile_qr_scan"}, "lon": -77.0609585, "bike_id": "8f36886312d70be223b41c51ce08d2f5", "type": "electric_scooter", "name": "8f36886312d70be223b41c51ce08d2f5"},