{"data": {"bikes": [{"fusion_lat": 0.0, "name": "38e8d5c69fd2cc68ccd9151d347a4d89", "is_disabled": 0, "rental_uris": {"android": "https://dc.lft.to/lastmile_qr_scan", "ios": "https://dc.lft.to/lastmile_qr_scan"}, "fusion_lon": 0.0, "lat": 38.88492033333333, "bike_id": "38e8d5c69fd2cc68ccd9151d347a4d89", "type": "electric_scooter", "is_reserved": 0, "lon": -77.010845}, {"fusion_lat": 0.0, "name": "842c41c6bed0ebe6186bf5bc3ec2c81a", "is_disabled": 0, "rental_uris": {"android": "https://dc.lft.to/lastmile_qr_scan", "ios": "https://dc.lft.to/lastmile_qr_scan"}, "fusion_lon": 0.0, "lat": 38.9225915, "bike_id": "842c41c6bed0ebe6186bf5bc3ec2c81a", "type": "electric_scooter", "is_reserved": 0, "lon": -76.997505}, {"fusion_lat": 0.0, "name": "6f5d253f3b8f85a9b4f27bc57a0184f3", "is_disabled": 0, "rental_uris": {"android": "https://dc.lft.to/lastmile_qr_scan", "ios": "https://dc.lft.to/lastmile_qr_scan"}, "fusion_lon": 0.0, "lat": 38.90887816666667, "bike_id": "6f5d253f3b8f85a9b4f27bc57a0184f3", "type": "electric_scooter", "is_reserved": 0, "lon": -77.03655316666666}, {"fusion_lat": 0.0, "name": "1301bc26b118cf96ae9e8473c1f3d489", "is_disabled": 0, "rental_uris": {"android": "https://dc.lft.to/lastmile_qr_scan", "ios": "https://dc.lft.to/lastmile_qr_scan"}, "fusion_lon": 0.0, "lat": 38.8884, "bike_id": "1301bc26b118cf96ae9e8473c1f3d489", "type": "electric_scooter", "is_reserved": 0, "lon": -76.92683183333334}, {"fusion_lat": 0.0, "name": "c12e5c3b2da9e70d752ff67019da3964", "is_disabled": 0, "rental_uris": {"android": "https://dc.lft.to/lastmile_qr_scan", "ios": "https://dc.lft.to/lastmile_qr_scan"}, "fusion_lon": 0.0, "lat": 38.93870616666667, "bike_id": "c12e5c3b2da9e70d752ff67019da3964", "type": "electric_bike", "is_reserved": 0, "lon": -77.02916033333334}, {"fusion_lat": 0.0, "name": "3f40841ba4c3a711602c6ae9ae7cee82", "is_disabled": 0, "rental_uris": {"android": "https://dc.lft.to/lastmile_qr_scan", "ios": "https://dc.lft.to/lastmile_qr_scan"}, "fusion_lon": 0.0, "lat": 38.897303, "bike_id": "3f40841ba4c3a711602c6ae9ae7cee82", "type": "electric_scooter", "is_reserved": 0, "lon": -77.007567}, {"fusion_lat": 0.0, "name": "6861654b2f5cfc887b2c9aaf6883e4a8", "is_disabled": 0, "rental_uris": {"android": "https://dc.lft.to/lastmile_qr_scan", "ios": "https://dc.lft.to/lastmile_qr_scan"}, "fusion_lon": 0.0, "lat": 38.90942, "bike_id": "6861654b2f5cfc887b2c9aaf6883e4a8", "type": "electric_scooter", "is_reserved": 0, "lon": -76.98774266666666}, {"fusion_lat": 0.0, "name": "cdcd20eca57589d34fc80ba2711e5183", "is_disabled": 0, "rental_uris": {"android": "https://dc.lft.to/lastmile_qr_scan", "ios": "https://dc.lft.to/lastmile_qr_scan"}, "fusion_lon": 0.0, "lat": 38.9030135, "bike_id": "cdcd20eca57589d34fc80ba2711e5183", "type": "electric_scooter", "is_reserved": 0, "lon": -77.02907283333333}, {"fusion_lat": 0.0, "name": "a7749e4fdbec695215270df1e794355b", "is_disabled": 0, "rental_uris": {"android": "https://dc.lft.to/lastmile_qr_scan", "ios": "https://dc.lft.to/lastmile_qr_scan"}, "fusion_lon": 0.0, "lat": 38.894687, "bike_id": "a7749e4fdbec695215270df1e794355b", "type": "electric_scooter", "is_reserved": 0, "lon": -77.02131916666667}, {"fusion_lat": 0.0, "name": "6e51a519fc6693f9bfe0d344ba448f41", "is_disabled": 0, "rental_uris": {"android": "https://dc.lft.to/lastmile_qr_scan", "ios": "https://dc.lft.to/lastmile_qr_scan"}, "fusion_lon": 0.0, "lat": 38.90513466666667, "bike_id": "6e51a519fc6693f9bfe0d344ba448f41", "type": "electric_scooter", "is_reserved": 0, "lon": -77.06780716666667}, {"fusion_lat": 0.0, "name": "9f62986b0703a3a5737fee80f680cacb", "is_disabled": 0, "rental_uris": {"android": "https://dc.lft.to/lastmile_qr_scan", "ios": "https://dc.lft.to/lastmile_qr_scan"}, "fusion_lon": 0.0, "lat": 38.92488183333333, "bike_id": "9f62986b0703a3a5737fee80f680cacb", "type": "electric_bike", "is_reserved": 0, "lon": -77.23336583333334}, {"fusion_lat": 0.0, "name": "11c157fcbfe1c6a27d9244f9df9f3327", "is_disabled": 0, "rental_uris": {"android": "https://dc.lft.to/lastmile_qr_scan", "ios": "https://dc.lft.to/lastmile_qr_scan"}, "fusion_lon": 0.0, "lat": 38.88714433333333, "bike_id": "11c157fcbfe1c6a27d9244f9df9f3327", "type": "electric_scooter", "is_reserved": 0, "lon": -77.017813}, {"fusion_lat": 0.0, "name": "b478463ca99d6b71d559cdfac1d2bfea", "is_disabled": 0, "rental_uris": {"android": "https://dc.lft.to/lastmile_qr_scan", "ios": "https://dc.lft.to/lastmile_qr_scan"}, "fusion_lon": 0.0, "lat": 38.927021833333335, "bike_id": "b478463ca99d6b71d559cdfac1d2bfea", "type": "electric_scooter", "is_reserved": 0, "lon": -77.02095683333333}, {"fusion_lat": 0.0, "name": "e41352adcc8a8d31d12e1abdbf0dc9e9", "is_disabled": 0, "rental_uris": {"android": "https://dc.lft.to/lastmile_qr_scan", "ios": "https://dc.lft.to/lastmile_qr_scan"}, "fusion_lon": 0.0, "lat": 38.9312435, "bike_id": "e41352adcc8a8d31d12e1abdbf0dc9e9", "type": "electric_scooter", "is_reserved": 0, "lon": -77.02089466666666}, {"fusion_lat": 0.0, "name": "45b3bfb13492e2e20a048879ec7f825f", "is_disabled": 0, "rental_uris": {"android": "https://dc.lft.to/lastmile_qr_scan", "ios": "https://dc.lft.to/lastmile_qr_scan"}, "fusion_lon": 0.0, "lat": 38.93253766666667, "bike_id": "45b3bfb13492e2e20a048879ec7f825f", "type": "electric_scooter", "is_reserved": 0, "lon": -77.019163}, {"fusion_lat": 0.0, "name": "b6c44979ba6aef3e65feeef5d4223c13", "is_disabled": 0, "rental_uris": {"android": "https://dc.lft.to/lastmile_qr_scan", "ios": "https://dc.lft.to/lastmile_qr_scan"}, "fusion_lon": 0.0, "lat": 38.91520833333333, "bike_id": "b6c44979ba6aef3e65feeef5d4223c13", "type": "electric_scooter", "is_reserved": 0, "lon": -77.07277633333334}, {"fusion_lat": 0.0, "name": "ed08f4790ca0120c74014d64e8e654a9", "is_disabled": 0, "rental_uris": {"android": "https://dc.lft.to/lastmile_qr_scan", "ios": "https://dc.lft.to/lastmile_qr_scan"}, "fusion_lon": 0.0, "lat": 38.90266616666667, "bike_id": "ed08f4790ca0120c74014d64e8e654a9", "type": "electric_scooter", "is_reserved": 0, "lon": -77.027091}, {"fusion_lat": 0.0, "name": "dd51b33d5be6e4a50aa23a84cf04fe7d", "is_disabled": 0, "rental_uris": {"android": "https://dc.lft.to/lastmile_qr_scan", "ios": "https://dc.lft.to/lastmile_qr_scan"}, "fusion_lon": 0.0, "lat": 38.939614166666665, "bike_id": "dd51b33d5be6e4a50aa23a84cf04fe7d", "type": "electric_scooter", "is_reserved": 0, "lon": -77.03282066666667}, {"fusion_lat": 0.0, "name": "e0655a6d058da47f46fcfee3a95659fb", "is_disabled": 0, "rental_uris": {"android": "https://dc.lft.to/lastmile_qr_scan", "ios": "https://dc.lft.to/lastmile_qr_scan"}, "fusion_lon": 0.0, "lat": 38.8966885, "bike_id": "e0655a6d058da47f46fcfee3a95659fb", "type": "electric_scooter", "is_reserved": 0, "lon": -76.93210266666667}, {"fusion_lat": 0.0, "name": "a38b42db076bdefc158d44bd5f520073", "is_disabled": 0, "rental_uris": {"android": "https://dc.lft.to/lastmile_qr_scan", "ios": "https://dc.lft.to/lastmile_qr_scan"}, "fusion_lon": 0.0, "lat": 38.9093395, "bike_id": "a38b42db076bdefc158d44bd5f520073", "type": "electric_scooter", "is_reserved": 0, "lon": -77.062714}, {"fusion_lat": 0.0, "name": "09a944d05dc3556c7db79b8f555bf719", "is_disabled": 0, "rental_uris": {"android": "https://dc.lft.to/lastmile_qr_scan", "ios": "https://dc.lft.to/lastmile_qr_scan"}, "fusion_lon": 0.0, "lat": 38.9348445, "bike_id": "09a944d05dc3556c7db79b8f555bf719", "type": "electric_scooter", "is_reserved": 0, "lon": -77.04527683333333}, {"fusion_lat": 0.0, "name": "b16a0482053c7bcc8896f65bc5b8d698", "is_disabled": 0, "rental_uris": {"android": "https://dc.lft.to/lastmile_qr_scan", "ios": "https://dc.lft.to/lastmile_qr_scan"}, "fusion_lon": 0.0, "lat": 38.95617883333333, "bike_id": "b16a0482053c7bcc8896f65bc5b8d698", "type": "electric_bike", "is_reserved": 0, "lon": -76.938702}, {"fusion_lat": 0.0, "name": "a15abb1e61491c8ae97e4a6f7e42dee7", "is_disabled": 0, "rental_uris": {"android": "https://dc.lft.to/lastmile_qr_scan", "ios": "https://dc.lft.to/lastmile_qr_scan"}, "fusion_lon": 0.0, "lat": 38.9452475, "bike_id": "a15abb1e61491c8ae97e4a6f7e42dee7", "type": "electric_scooter", "is_reserved": 0, "lon": -77.0208615}, {"fusion_lat": 0.0, "name": "43375e676573d93e658752d7b737dc14", "is_disabled": 0, "rental_uris": {"android": "https://dc.lft.to/lastmile_qr_scan", "ios": "https://dc.lft.to/lastmile_qr_scan"}, "fusion_lon": 0.0, "lat": 39.01075683333333, "bike_id": "43375e676573d93e658752d7b737dc14", "type": "electric_bike", "is_reserved": 0, "lon": -76.91065316666666}, {"fusion_lat": 0.0, "name": "06f950888ba7efc8d57ded116e7b9fb0", "is_disabled": 0, "rental_uris": {"android": "https://dc.lft.to/lastmile_qr_scan", "ios": "https://dc.lft.to/lastmile_qr_scan"}, "fusion_lon": 0.0, "lat": 38.91650383333333, "bike_id": "06f950888ba7efc8d57ded116e7b9fb0", "type": "electric_scooter", "is_reserved": 0, "lon": -77.02283266666667}, {"fusion_lat": 0.0, "name": "bdc3ffca9940c7dd2745586a8bf17aa8", "is_disabled": 0, "rental_uris": {"android": "https://dc.lft.to/lastmile_qr_scan", "ios": "https://dc.lft.to/lastmile_qr_scan"}, "fusion_lon": 0.0, "lat": 38.881640166666664, "bike_id": "bdc3ffca9940c7dd2745586a8bf17aa8", "type": "electric_scooter", "is_reserved": 0, "lon": -77.02769516666666}, {"fusion_lat": 0.0, "name": "1ea9ac22db82b2e7877f1c86d3556c7d", "is_disabled": 0, "rental_uris": {"android": "https://dc.lft.to/lastmile_qr_scan", "ios": "https://dc.lft.to/lastmile_qr_scan"}, "fusion_lon": 0.0, "lat": 38.8947885, "bike_id": "1ea9ac22db82b2e7877f1c86d3556c7d", "type": "electric_scooter", "is_reserved": 0, "lon": -77.01072066666667}, {"fusion_lat": 0.0, "name": "f4adda3819113cf3135b93cc14a8705b", "is_disabled": 0, "rental_uris": {"android": "https://dc.lft.to/lastmile_qr_scan", "ios": "https://dc.lft.to/lastmile_qr_scan"}, "fusion_lon": 0.0, "lat": 38.902788666666666, "bike_id": "f4adda3819113cf3135b93cc14a8705b", "type": "electric_scooter", "is_reserved": 0, "lon": -77.03643233333334}, {"fusion_lat": 0.0, "name": "2fa0266021f17cdd809c4713f0c11e5f", "is_disabled": 0, "rental_uris": {"android": "https://dc.lft.to/lastmile_qr_scan", "ios": "https://dc.lft.to/lastmile_qr_scan"}, "fusion_lon": 0.0, "lat": 38.93041783333334, "bike_id": "2fa0266021f17cdd809c4713f0c11e5f", "type": "electric_scooter", "is_reserved": 0, "lon": -77.040622}, {"fusion_lat": 0.0, "name": "7a9b3e4b18d0dbdd16685e096b4919b4", "is_disabled": 0, "rental_uris": {"android": "https://dc.lft.to/lastmile_qr_scan", "ios": "https://dc.lft.to/lastmile_qr_scan"}, "fusion_lon": 0.0, "lat": 38.919175333333335, "bike_id": "7a9b3e4b18d0dbdd16685e096b4919b4", "type": "electric_scooter", "is_reserved": 0, "lon": -77.01217216666667}, {"fusion_lat": 0.0, "name": "1d10d394632f52a4fb1202e9bf18ac04", "is_disabled": 0, "rental_uris": {"android": "https://dc.lft.to/lastmile_qr_scan", "ios": "https://dc.lft.to/lastmile_qr_scan"}, "fusion_lon": 0.0, "lat": 38.92556233333333, "bike_id": "1d10d394632f52a4fb1202e9bf18ac04", "type": "electric_scooter", "is_reserved": 0, "lon": -77.02282516666666}, {"fusion_lat": 0.0, "name": "9675b87417aa0fda030b3403d4f9a91a", "is_disabled": 0, "rental_uris": {"android": "https://dc.lft.to/lastmile_qr_scan", "ios": "https://dc.lft.to/lastmile_qr_scan"}, "fusion_lon": 0.0, "lat": 38.916717, "bike_id": "9675b87417aa0fda030b3403d4f9a91a", "type": "electric_scooter", "is_reserved": 0, "lon": -77.02953533333333}, {"fusion_lat": 0.0, "name": "3fe965bb3c976bb715170f265f7d0966", "is_disabled": 0, "rental_uris": {"android": "https://dc.lft.to/lastmile_qr_scan", "ios": "https://dc.lft.to/lastmile_qr_scan"}, "fusion_lon": 0.0, "lat": 38.93930233333333, "bike_id": "3fe965bb3c976bb715170f265f7d0966", "type": "electric_scooter", "is_reserved": 0, "lon": -77.074795}, {"fusion_lat": 0.0, "name": "f888864d01f02ecfd0cd65f68f59eabb", "is_disabled": 0, "rental_uris": {"android": "https://dc.lft.to/lastmile_qr_scan", "ios": "https://dc.lft.to/lastmile_qr_scan"}, "fusion_lon": 0.0, "lat": 38.88183, "bike_id": "f888864d01f02ecfd0cd65f68f59eabb", "type": "electric_scooter", "is_reserved": 0, "lon": -77.00356}, {"fusion_lat": 0.0, "name": "99a009766cdd827435a837320f7af7a7", "is_disabled": 0, "rental_uris": {"android": "https://dc.lft.to/lastmile_qr_scan", "ios": "https://dc.lft.to/lastmile_qr_scan"}, "fusion_lon": 0.0, "lat": 38.8962775, "bike_id": "99a009766cdd827435a837320f7af7a7", "type": "electric_scooter", "is_reserved": 0, "lon": -76.95739133333333}, {"fusion_lat": 0.0, "name": "bf8d470bffae6d710028abcd3103943b", "is_disabled": 0, "rental_uris": {"android": "https://dc.lft.to/lastmile_qr_scan", "ios": "https://dc.lft.to/lastmile_qr_scan"}, "fusion_lon": 0.0, "lat": 38.90211433333333, "bike_id": "bf8d470bffae6d710028abcd3103943b", "type": "electric_scooter", "is_reserved": 0, "lon": -77.01656716666666}, {"fusion_lat": 0.0, "name": "78349e6357d45b19aaa44c51756fb4cb", "is_disabled": 0, "rental_uris": {"android": "https://dc.lft.to/lastmile_qr_scan", "ios": "https://dc.lft.to/lastmile_qr_scan"}, "fusion_lon": 0.0, "lat": 38.92714183333333, "bike_id": "78349e6357d45b19aaa44c51756fb4cb", "type": "electric_scooter", "is_reserved": 0, "lon": -77.041971}, {"fusion_lat": 0.0, "name": "bb2c821d8bb5340c047210fbfeca9cd9", "is_disabled": 0, "rental_uris": {"android": "https://dc.lft.to/lastmile_qr_scan", "ios": "https://dc.lft.to/lastmile_qr_scan"}, "fusion_lon": 0.0, "lat": 38.80291583333333, "bike_id": "bb2c821d8bb5340c047210fbfeca9cd9", "type": "electric_bike", "is_reserved": 0, "lon": -77.0593605}, {"fusion_lat": 0.0, "name": "92782b7adf942f521925e300b0850d11", "is_disabled": 0, "rental_uris": {"android": "https://dc.lft.to/lastmile_qr_scan", "ios": "https://dc.lft.to/lastmile_qr_scan"}, "fusion_lon": 0.0, "lat": 38.896863333333336, "bike_id": "92782b7adf942f521925e300b0850d11", "type": "electric_scooter", "is_reserved": 0, "lon": -76.93713233333334}, {"fusion_lat": 0.0, "name": "ff351748ffa7a4da467f228be7f07a42", "is_disabled": 0, "rental_uris": {"android": "https://dc.lft.to/lastmile_qr_scan", "ios": "https://dc.lft.to/lastmile_qr_scan"}, "fusion_lon": 0.0, "lat": 38.92391033333333, "bike_id": "ff351748ffa7a4da467f228be7f07a42", "type": "electric_scooter", "is_reserved": 0, "lon": -77.04308916666666}, {"fusion_lat": 0.0, "name": "2566368ed065fa58291206c62f8a96a4", "is_disabled": 0, "rental_uris": {"android": "https://dc.lft.to/lastmile_qr_scan", "ios": "https://dc.lft.to/lastmile_qr_scan"}, "fusion_lon": 0.0, "lat": 38.89249866666667, "bike_id": "2566368ed065fa58291206c62f8a96a4", "type": "electric_scooter", "is_reserved": 0, "lon": -77.02009666666666}, {"fusion_lat": 0.0, "name": "71ec74f3d270c2d82ac18f1c6ce87eaf", "is_disabled": 0, "rental_uris": {"android": "https://dc.lft.to/lastmile_qr_scan", "ios": "https://dc.lft.to/lastmile_qr_scan"}, "fusion_lon": 0.0, "lat": 38.904115166666664, "bike_id": "71ec74f3d270c2d82ac18f1c6ce87eaf", "type": "electric_scooter", "is_reserved": 0, "lon": -77.05131066666667}, {"fusion_lat": 0.0, "name": "4d04f7f9204d8172ef12ab30f93f5c32", "is_disabled": 0, "rental_uris": {"android": "https://dc.lft.to/lastmile_qr_scan", "ios": "https://dc.lft.to/lastmile_qr_scan"}, "fusion_lon": 0.0, "lat": 38.9390335, "bike_id": "4d04f7f9204d8172ef12ab30f93f5c32", "type": "electric_scooter", "is_reserved": 0, "lon": -77.03262333333333}, {"fusion_lat": 0.0, "name": "8bf55346eafa0f303b3f3e66c0df77a6", "is_disabled": 0, "rental_uris": {"android": "https://dc.lft.to/lastmile_qr_scan", "ios": "https://dc.lft.to/lastmile_qr_scan"}, "fusion_lon": 0.0, "lat": 38.89443716666667, "bike_id": "8bf55346eafa0f303b3f3e66c0df77a6", "type": "electric_scooter", "is_reserved": 0, "lon": -77.045459}, {"fusion_lat": 0.0, "name": "25bdf81b25e98133809099add2b727ac", "is_disabled": 0, "rental_uris": {"android": "https://dc.lft.to/lastmile_qr_scan", "ios": "https://dc.lft.to/lastmile_qr_scan"}, "fusion_lon": 0.0, "lat": 38.899963, "bike_id": "25bdf81b25e98133809099add2b727ac", "type": "electric_scooter", "is_reserved": 0, "lon": -76.997017}, {"fusion_lat": 0.0, "name": "bd5c33cc335bd89a41880c6decfb4255", "is_disabled": 0, "rental_uris": {"android": "https://dc.lft.to/lastmile_qr_scan", "ios": "https://dc.lft.to/lastmile_qr_scan"}, "fusion_lon": 0.0, "lat": 38.911086833333336, "bike_id": "bd5c33cc335bd89a41880c6decfb4255", "type": "electric_scooter", "is_reserved": 0, "lon": -77.04472933333334}, {"fusion_lat": 0.0, "name": "f42936c391c7a4d8509786644bcfa018", "is_disabled": 0, "rental_uris": {"android": "https://dc.lft.to/lastmile_qr_scan", "ios": "https://dc.lft.to/lastmile_qr_scan"}, "fusion_lon": 0.0, "lat": 38.89238066666667, "bike_id": "f42936c391c7a4d8509786644bcfa018", "type": "electric_scooter", "is_reserved": 0, "lon": -77.03957616666666}, {"fusion_lat": 0.0, "name": "5118c7e16bc66933bccdce4aa44aaffb", "is_disabled": 0, "rental_uris": {"android": "https://dc.lft.to/lastmile_qr_scan", "ios": "https://dc.lft.to/lastmile_qr_scan"}, "fusion_lon": 0.0, "lat": 38.927877, "bike_id": "5118c7e16bc66933bccdce4aa44aaffb", "type": "electric_scooter", "is_reserved": 0, "lon": -77.03153016666667}, {"fusion_lat": 0.0, "name": "9490231f16b4d1475976e4564b4024fa", "is_disabled": 0, "rental_uris": {"android": "https://dc.lft.to/lastmile_qr_scan", "ios": "https://dc.lft.to/lastmile_qr_scan"}, "fusion_lon": 0.0, "lat": 38.906674, "bike_id": "9490231f16b4d1475976e4564b4024fa", "type": "electric_bike", "is_reserved": 0, "lon": -77.00903416666667}, {"fusion_lat": 0.0, "name": "19a746942dba1c785e2447d5f30c85cd", "is_disabled": 0, "rental_uris": {"android": "https://dc.lft.to/lastmile_qr_scan", "ios": "https://dc.lft.to/lastmile_qr_scan"}, "fusion_lon": 0.0, "lat": 38.94118566666667, "bike_id": "19a746942dba1c785e2447d5f30c85cd", "type": "electric_bike", "is_reserved": 0, "lon": -76.99032366666667}, {"fusion_lat": 0.0, "name": "cd622429c79e34b2dad07779a682927c", "is_disabled": 0, "rental_uris": {"android": "https://dc.lft.to/lastmile_qr_scan", "ios": "https://dc.lft.to/lastmile_qr_scan"}, "fusion_lon": 0.0, "lat": 38.90250066666667, "bike_id": "cd622429c79e34b2dad07779a682927c", "type": "electric_scooter", "is_reserved": 0, "lon": -77.0020485}, {"fusion_lat": 0.0, "name": "ee954eba3039ace69cab9dfa85cfa6db", "is_disabled": 0, "rental_uris": {"android": "https://dc.lft.to/lastmile_qr_scan", "ios": "https://dc.lft.to/lastmile_qr_scan"}, "fusion_lon": 0.0, "lat": 38.88397533333333, "bike_id": "ee954eba3039ace69cab9dfa85cfa6db", "type": "electric_scooter", "is_reserved": 0, "lon": -77.02577883333333}, {"fusion_lat": 0.0, "name": "de0f004b0d9069fdc573abff62447364", "is_disabled": 0, "rental_uris": {"android": "https://dc.lft.to/lastmile_qr_scan", "ios": "https://dc.lft.to/lastmile_qr_scan"}, "fusion_lon": 0.0, "lat": 38.93376, "bike_id": "de0f004b0d9069fdc573abff62447364", "type": "electric_scooter", "is_reserved": 0, "lon": -77.02413433333334}, {"fusion_lat": 0.0, "name": "bf13a09ede45c1e69854486614985add", "is_disabled": 0, "rental_uris": {"android": "https://dc.lft.to/lastmile_qr_scan", "ios": "https://dc.lft.to/lastmile_qr_scan"}, "fusion_lon": 0.0, "lat": 38.9005305, "bike_id": "bf13a09ede45c1e69854486614985add", "type": "electric_scooter", "is_reserved": 0, "lon": -77.01351483333333}, {"fusion_lat": 0.0, "name": "8f742035eba0a68ec8f7d65aee868841", "is_disabled": 0, "rental_uris": {"android": "https://dc.lft.to/lastmile_qr_scan", "ios": "https://dc.lft.to/lastmile_qr_scan"}, "fusion_lon": 0.0, "lat": 38.905333166666665, "bike_id": "8f742035eba0a68ec8f7d65aee868841", "type": "electric_bike", "is_reserved": 0, "lon": -76.9980455}, {"fusion_lat": 0.0, "name": "ecf2bbb402916ca699deabd32fc97ff5", "is_disabled": 0, "rental_uris": {"android": "https://dc.lft.to/lastmile_qr_scan", "ios": "https://dc.lft.to/lastmile_qr_scan"}, "fusion_lon": 0.0, "lat": 38.916823666666666, "bike_id": "ecf2bbb402916ca699deabd32fc97ff5", "type": "electric_scooter", "is_reserved": 0, "lon": -77.02302816666666}, {"fusion_lat": 0.0, "name": "be8821997e128c0affd5325051309c56", "is_disabled": 0, "rental_uris": {"android": "https://dc.lft.to/lastmile_qr_scan", "ios": "https://dc.lft.to/lastmile_qr_scan"}, "fusion_lon": 0.0, "lat": 38.866276666666664, "bike_id": "be8821997e128c0affd5325051309c56", "type": "electric_scooter", "is_reserved": 0, "lon": -76.98717183333333}, {"fusion_lat": 0.0, "name": "95221d965c87a0144b98554b82f5de5e", "is_disabled": 0, "rental_uris": {"android": "https://dc.lft.to/lastmile_qr_scan", "ios": "https://dc.lft.to/lastmile_qr_scan"}, "fusion_lon": 0.0, "lat": 38.90849633333333, "bike_id": "95221d965c87a0144b98554b82f5de5e", "type": "electric_scooter", "is_reserved": 0, "lon": -77.027213}, {"fusion_lat": 0.0, "name": "8fb068a7d34ac11eb191f7cd76658d3c", "is_disabled": 0, "rental_uris": {"android": "https://dc.lft.to/lastmile_qr_scan", "ios": "https://dc.lft.to/lastmile_qr_scan"}, "fusion_lon": 0.0, "lat": 38.9510865, "bike_id": "8fb068a7d34ac11eb191f7cd76658d3c", "type": "electric_scooter", "is_reserved": 0, "lon": -77.0586185}, {"fusion_lat": 0.0, "name": "539e0fde5ec145054ac6e09e26237e2b", "is_disabled": 0, "rental_uris": {"android": "https://dc.lft.to/lastmile_qr_scan", "ios": "https://dc.lft.to/lastmile_qr_scan"}, "fusion_lon": 0.0, "lat": 38.914990333333336, "bike_id": "539e0fde5ec145054ac6e09e26237e2b", "type": "electric_scooter", "is_reserved": 0, "lon": -77.03271033333333}, {"fusion_lat": 0.0, "name": "808d2f6bbf0ef8e1007fdc18cdc42779", "is_disabled": 0, "rental_uris": {"android": "https://dc.lft.to/lastmile_qr_scan", "ios": "https://dc.lft.to/lastmile_qr_scan"}, "fusion_lon": 0.0, "lat": 38.916941333333334, "bike_id": "808d2f6bbf0ef8e1007fdc18cdc42779", "type": "electric_scooter", "is_reserved": 0, "lon": -77.0371805}, {"fusion_lat": 0.0, "name": "c96867fbf000c15f2de1ec6f529338e5", "is_disabled": 0, "rental_uris": {"android": "https://dc.lft.to/lastmile_qr_scan", "ios": "https://dc.lft.to/lastmile_qr_scan"}, "fusion_lon": 0.0, "lat": 38.88824733333333, "bike_id": "c96867fbf000c15f2de1ec6f529338e5", "type": "electric_scooter", "is_reserved": 0, "lon": -76.98665183333334}, {"fusion_lat": 0.0, "name": "8a63001aa2784163ca05274e8d9fda63", "is_disabled": 0, "rental_uris": {"android": "https://dc.lft.to/lastmile_qr_scan", "ios": "https://dc.lft.to/lastmile_qr_scan"}, "fusion_lon": 0.0, "lat": 38.914987333333336, "bike_id": "8a63001aa2784163ca05274e8d9fda63", "type": "electric_scooter", "is_reserved": 0, "lon": -77.06729916666667}, {"fusion_lat": 0.0, "name": "e45426822f9da57e84913d6ce4062d8c", "is_disabled": 0, "rental_uris": {"android": "https://dc.lft.to/lastmile_qr_scan", "ios": "https://dc.lft.to/lastmile_qr_scan"}, "fusion_lon": 0.0, "lat": 38.907992166666666, "bike_id": "e45426822f9da57e84913d6ce4062d8c", "type": "electric_scooter", "is_reserved": 0, "lon": -76.99424783333333}, {"fusion_lat": 0.0, "name": "15a916dd2222d423f70e5386480da39b", "is_disabled": 0, "rental_uris": {"android": "https://dc.lft.to/lastmile_qr_scan", "ios": "https://dc.lft.to/lastmile_qr_scan"}, "fusion_lon": 0.0, "lat": 38.91705616666667, "bike_id": "15a916dd2222d423f70e5386480da39b", "type": "electric_scooter", "is_reserved": 0, "lon": -77.01356883333334}, {"fusion_lat": 0.0, "name": "5d8e0a6e1f68012aededb832a379dcdd", "is_disabled": 0, "rental_uris": {"android": "https://dc.lft.to/lastmile_qr_scan", "ios": "https://dc.lft.to/lastmile_qr_scan"}, "fusion_lon": 0.0, "lat": 38.922503, "bike_id": "5d8e0a6e1f68012aededb832a379dcdd", "type": "electric_scooter", "is_reserved": 0, "lon": -77.07448033333333}, {"fusion_lat": 0.0, "name": "3e73120875100734d47ca051d8754d39", "is_disabled": 0, "rental_uris": {"android": "https://dc.lft.to/lastmile_qr_scan", "ios": "https://dc.lft.to/lastmile_qr_scan"}, "fusion_lon": 0.0, "lat": 38.90433, "bike_id": "3e73120875100734d47ca051d8754d39", "type": "electric_scooter", "is_reserved": 0, "lon": -76.982811}, {"fusion_lat": 0.0, "name": "68ae4de96669a7c927045f19e8e0caa6", "is_disabled": 0, "rental_uris": {"android": "https://dc.lft.to/lastmile_qr_scan", "ios": "https://dc.lft.to/lastmile_qr_scan"}, "fusion_lon": 0.0, "lat": 38.9111805, "bike_id": "68ae4de96669a7c927045f19e8e0caa6", "type": "electric_scooter", "is_reserved": 0, "lon": -76.99725383333333}, {"fusion_lat": 0.0, "name": "18e625d6ed52c822ffefd73a8fb4f4d2", "is_disabled": 0, "rental_uris": {"android": "https://dc.lft.to/lastmile_qr_scan", "ios": "https://dc.lft.to/lastmile_qr_scan"}, "fusion_lon": 0.0, "lat": 38.804906, "bike_id": "18e625d6ed52c822ffefd73a8fb4f4d2", "type": "electric_bike", "is_reserved": 0, "lon": -77.10161316666667}, {"fusion_lat": 0.0, "name": "2475e3df9de9bf55c673848428c3ef64", "is_disabled": 0, "rental_uris": {"android": "https://dc.lft.to/lastmile_qr_scan", "ios": "https://dc.lft.to/lastmile_qr_scan"}, "fusion_lon": 0.0, "lat": 38.91052633333334, "bike_id": "2475e3df9de9bf55c673848428c3ef64", "type": "electric_scooter", "is_reserved": 0, "lon": -77.03839733333334}, {"fusion_lat": 0.0, "name": "84eb083e224826e2fcd478baa41a6143", "is_disabled": 0, "rental_uris": {"android": "https://dc.lft.to/lastmile_qr_scan", "ios": "https://dc.lft.to/lastmile_qr_scan"}, "fusion_lon": 0.0, "lat": 38.878290666666665, "bike_id": "84eb083e224826e2fcd478baa41a6143", "type": "electric_scooter", "is_reserved": 0, "lon": -76.96320283333333}, {"fusion_lat": 0.0, "name": "48b24f4ac547cbd6fc256353911873db", "is_disabled": 0, "rental_uris": {"android": "https://dc.lft.to/lastmile_qr_scan", "ios": "https://dc.lft.to/lastmile_qr_scan"}, "fusion_lon": 0.0, "lat": 38.9255505, "bike_id": "48b24f4ac547cbd6fc256353911873db", "type": "electric_scooter", "is_reserved": 0, "lon": -77.07762766666667}, {"fusion_lat": 0.0, "name": "55915d1284f34fe990f4b82e150fa3fa", "is_disabled": 0, "rental_uris": {"android": "https://dc.lft.to/lastmile_qr_scan", "ios": "https://dc.lft.to/lastmile_qr_scan"}, "fusion_lon": 0.0, "lat": 38.93765716666667, "bike_id": "55915d1284f34fe990f4b82e150fa3fa", "type": "electric_scooter", "is_reserved": 0, "lon": -77.03260166666666}, {"fusion_lat": 0.0, "name": "110b9b2b2236a0a8aeeed94b8403e6a8", "is_disabled": 0, "rental_uris": {"android": "https://dc.lft.to/lastmile_qr_scan", "ios": "https://dc.lft.to/lastmile_qr_scan"}, "fusion_lon": 0.0, "lat": 38.913049, "bike_id": "110b9b2b2236a0a8aeeed94b8403e6a8", "type": "electric_scooter", "is_reserved": 0, "lon": -77.04871916666667}, {"fusion_lat": 0.0, "name": "03c8b94a895c9d1d55b0ccf654d9c772", "is_disabled": 0, "rental_uris": {"android": "https://dc.lft.to/lastmile_qr_scan", "ios": "https://dc.lft.to/lastmile_qr_scan"}, "fusion_lon": 0.0, "lat": 38.92794716666667, "bike_id": "03c8b94a895c9d1d55b0ccf654d9c772", "type": "electric_scooter", "is_reserved": 0, "lon": -77.03210733333333}, {"fusion_lat": 0.0, "name": "5f2b1d0ad4ab27183fffff68b70b3025", "is_disabled": 0, "rental_uris": {"android": "https://dc.lft.to/lastmile_qr_scan", "ios": "https://dc.lft.to/lastmile_qr_scan"}, "fusion_lon": 0.0, "lat": 38.91081483333333, "bike_id": "5f2b1d0ad4ab27183fffff68b70b3025", "type": "electric_scooter", "is_reserved": 0, "lon": -77.0650215}, {"fusion_lat": 0.0, "name": "a3b6ce96543cea11eefe937061d5aad2", "is_disabled": 0, "rental_uris": {"android": "https://dc.lft.to/lastmile_qr_scan", "ios": "https://dc.lft.to/lastmile_qr_scan"}, "fusion_lon": 0.0, "lat": 38.892842, "bike_id": "a3b6ce96543cea11eefe937061d5aad2", "type": "electric_scooter", "is_reserved": 0, "lon": -76.98307516666667}, {"fusion_lat": 0.0, "name": "a267709406132e656fa6825b172ad95c", "is_disabled": 0, "rental_uris": {"android": "https://dc.lft.to/lastmile_qr_scan", "ios": "https://dc.lft.to/lastmile_qr_scan"}, "fusion_lon": 0.0, "lat": 38.9203725, "bike_id": "a267709406132e656fa6825b172ad95c", "type": "electric_scooter", "is_reserved": 0, "lon": -77.01730866666666}, {"fusion_lat": 0.0, "name": "c579525c2187956291509a2b8151db43", "is_disabled": 0, "rental_uris": {"android": "https://dc.lft.to/lastmile_qr_scan", "ios": "https://dc.lft.to/lastmile_qr_scan"}, "fusion_lon": 0.0, "lat": 38.93628616666667, "bike_id": "c579525c2187956291509a2b8151db43", "type": "electric_scooter", "is_reserved": 0, "lon": -77.0365915}, {"fusion_lat": 0.0, "name": "dfcf316751a46c5fc6f0c2283091f26d", "is_disabled": 0, "rental_uris": {"android": "https://dc.lft.to/lastmile_qr_scan", "ios": "https://dc.lft.to/lastmile_qr_scan"}, "fusion_lon": 0.0, "lat": 38.910248333333335, "bike_id": "dfcf316751a46c5fc6f0c2283091f26d", "type": "electric_scooter", "is_reserved": 0, "lon": -77.02906233333333}, {"fusion_lat": 0.0, "name": "4fe6431a18453fee2c88d8b802e621d1", "is_disabled": 0, "rental_uris": {"android": "https://dc.lft.to/lastmile_qr_scan", "ios": "https://dc.lft.to/lastmile_qr_scan"}, "fusion_lon": 0.0, "lat": 38.924646333333335, "bike_id": "4fe6431a18453fee2c88d8b802e621d1", "type": "electric_scooter", "is_reserved": 0, "lon": -77.02074716666667}, {"fusion_lat": 0.0, "name": "54fe47c203cef54393814ac726a49527", "is_disabled": 0, "rental_uris": {"android": "https://dc.lft.to/lastmile_qr_scan", "ios": "https://dc.lft.to/lastmile_qr_scan"}, "fusion_lon": 0.0, "lat": 38.9117625, "bike_id": "54fe47c203cef54393814ac726a49527", "type": "electric_scooter", "is_reserved": 0, "lon": -77.02827166666667}, {"fusion_lat": 0.0, "name": "4d490d3a8176c400c3219b15de64aeff", "is_disabled": 0, "rental_uris": {"android": "https://dc.lft.to/lastmile_qr_scan", "ios": "https://dc.lft.to/lastmile_qr_scan"}, "fusion_lon": 0.0, "lat": 38.907312166666664, "bike_id": "4d490d3a8176c400c3219b15de64aeff", "type": "electric_scooter", "is_reserved": 0, "lon": -77.04766083333334}, {"fusion_lat": 0.0, "name": "1796482282c9bd27569331e373954553", "is_disabled": 0, "rental_uris": {"android": "https://dc.lft.to/lastmile_qr_scan", "ios": "https://dc.lft.to/lastmile_qr_scan"}, "fusion_lon": 0.0, "lat": 38.89237216666667, "bike_id": "1796482282c9bd27569331e373954553", "type": "electric_scooter", "is_reserved": 0, "lon": -77.00274183333333}, {"fusion_lat": 0.0, "name": "d7c3d01d6dfcf6412e2b3e6a5cbc587e", "is_disabled": 0, "rental_uris": {"android": "https://dc.lft.to/lastmile_qr_scan", "ios": "https://dc.lft.to/lastmile_qr_scan"}, "fusion_lon": 0.0, "lat": 38.90103833333333, "bike_id": "d7c3d01d6dfcf6412e2b3e6a5cbc587e", "type": "electric_scooter", "is_reserved": 0, "lon": -76.93045466666666}, {"fusion_lat": 0.0, "name": "40173184edbcad47773fe7220984a756", "is_disabled": 0, "rental_uris": {"android": "https://dc.lft.to/lastmile_qr_scan", "ios": "https://dc.lft.to/lastmile_qr_scan"}, "fusion_lon": 0.0, "lat": 38.897193666666666, "bike_id": "40173184edbcad47773fe7220984a756", "type": "electric_scooter", "is_reserved": 0, "lon": -77.02446633333334}, {"fusion_lat": 0.0, "name": "ddc3dec5e39331872fab7e7e712d08b4", "is_disabled": 0, "rental_uris": {"android": "https://dc.lft.to/lastmile_qr_scan", "ios": "https://dc.lft.to/lastmile_qr_scan"}, "fusion_lon": 0.0, "lat": 38.910831333333334, "bike_id": "ddc3dec5e39331872fab7e7e712d08b4", "type": "electric_scooter", "is_reserved": 0, "lon": -77.021021}, {"fusion_lat": 0.0, "name": "b9eac6982bf29c131d4ee538d703bd2d", "is_disabled": 0, "rental_uris": {"android": "https://dc.lft.to/lastmile_qr_scan", "ios": "https://dc.lft.to/lastmile_qr_scan"}, "fusion_lon": 0.0, "lat": 38.84756383333333, "bike_id": "b9eac6982bf29c131d4ee538d703bd2d", "type": "electric_scooter", "is_reserved": 0, "lon": -76.99501666666667}, {"fusion_lat": 0.0, "name": "162ecdd0bf5c0859ef119bfcfc1be63f", "is_disabled": 0, "rental_uris": {"android": "https://dc.lft.to/lastmile_qr_scan", "ios": "https://dc.lft.to/lastmile_qr_scan"}, "fusion_lon": 0.0, "lat": 38.8873755, "bike_id": "162ecdd0bf5c0859ef119bfcfc1be63f", "type": "electric_scooter", "is_reserved": 0, "lon": -77.022734}, {"fusion_lat": 0.0, "name": "0a850b4b35c3617ff7713bef81fd2287", "is_disabled": 0, "rental_uris": {"android": "https://dc.lft.to/lastmile_qr_scan", "ios": "https://dc.lft.to/lastmile_qr_scan"}, "fusion_lon": 0.0, "lat": 38.915758333333336, "bike_id": "0a850b4b35c3617ff7713bef81fd2287", "type": "electric_scooter", "is_reserved": 0, "lon": -77.012307}, {"fusion_lat": 0.0, "name": "0b224b3465cac5c27fcbe369da5f70da", "is_disabled": 0, "rental_uris": {"android": "https://dc.lft.to/lastmile_qr_scan", "ios": "https://dc.lft.to/lastmile_qr_scan"}, "fusion_lon": 0.0, "lat": 38.874747166666666, "bike_id": "0b224b3465cac5c27fcbe369da5f70da", "type": "electric_scooter", "is_reserved": 0, "lon": -77.00027433333334}, {"fusion_lat": 0.0, "name": "f6f3f00090a3ae2c0053f07ee7908b09", "is_disabled": 0, "rental_uris": {"android": "https://dc.lft.to/lastmile_qr_scan", "ios": "https://dc.lft.to/lastmile_qr_scan"}, "fusion_lon": 0.0, "lat": 38.914806166666665, "bike_id": "f6f3f00090a3ae2c0053f07ee7908b09", "type": "electric_scooter", "is_reserved": 0, "lon": -77.013266}, {"fusion_lat": 0.0, "name": "6e01eb6de14949c1307ac27ab8238482", "is_disabled": 0, "rental_uris": {"android": "https://dc.lft.to/lastmile_qr_scan", "ios": "https://dc.lft.to/lastmile_qr_scan"}, "fusion_lon": 0.0, "lat": 38.9215325, "bike_id": "6e01eb6de14949c1307ac27ab8238482", "type": "electric_scooter", "is_reserved": 0, "lon": -77.03396166666667}, {"fusion_lat": 0.0, "name": "2ac2ceea712335f9e563ad7f626b9ec4", "is_disabled": 0, "rental_uris": {"android": "https://dc.lft.to/lastmile_qr_scan", "ios": "https://dc.lft.to/lastmile_qr_scan"}, "fusion_lon": 0.0, "lat": 38.920554333333335, "bike_id": "2ac2ceea712335f9e563ad7f626b9ec4", "type": "electric_scooter", "is_reserved": 0, "lon": -77.032224}, {"fusion_lat": 0.0, "name": "279430e1fa0435cfaf00793792f3c8bb", "is_disabled": 0, "rental_uris": {"android": "https://dc.lft.to/lastmile_qr_scan", "ios": "https://dc.lft.to/lastmile_qr_scan"}, "fusion_lon": 0.0, "lat": 38.91312633333333, "bike_id": "279430e1fa0435cfaf00793792f3c8bb", "type": "electric_scooter", "is_reserved": 0, "lon": -77.02360783333333}, {"fusion_lat": 0.0, "name": "8d6233832979780e7647ceebddd0b98f", "is_disabled": 0, "rental_uris": {"android": "https://dc.lft.to/lastmile_qr_scan", "ios": "https://dc.lft.to/lastmile_qr_scan"}, "fusion_lon": 0.0, "lat": 38.92273683333333, "bike_id": "8d6233832979780e7647ceebddd0b98f", "type": "electric_scooter", "is_reserved": 0, "lon": -77.042384}, {"fusion_lat": 0.0, "name": "7f960a553e69f0c04cc590c529499db3", "is_disabled": 0, "rental_uris": {"android": "https://dc.lft.to/lastmile_qr_scan", "ios": "https://dc.lft.to/lastmile_qr_scan"}, "fusion_lon": 0.0, "lat": 38.915951666666665, "bike_id": "7f960a553e69f0c04cc590c529499db3", "type": "electric_scooter", "is_reserved": 0, "lon": -77.0366425}, {"fusion_lat": 0.0, "name": "dd35908fc3d7b0641997358ebae465ef", "is_disabled": 0, "rental_uris": {"android": "https://dc.lft.to/lastmile_qr_scan", "ios": "https://dc.lft.to/lastmile_qr_scan"}, "fusion_lon": 0.0, "lat": 38.924019, "bike_id": "dd35908fc3d7b0641997358ebae465ef", "type": "electric_scooter", "is_reserved": 0, "lon": -77.02261083333333}, {"fusion_lat": 0.0, "name": "37d7978079e72fcb8357fba21f45bee1", "is_disabled": 0, "rental_uris": {"android": "https://dc.lft.to/lastmile_qr_scan", "ios": "https://dc.lft.to/lastmile_qr_scan"}, "fusion_lon": 0.0, "lat": 38.9297595, "bike_id": "37d7978079e72fcb8357fba21f45bee1", "type": "electric_scooter", "is_reserved": 0, "lon": -77.03242}, {"fusion_lat": 0.0, "name": "990296a017bd06f869598baf3789c8ef", "is_disabled": 0, "rental_uris": {"android": "https://dc.lft.to/lastmile_qr_scan", "ios": "https://dc.lft.to/lastmile_qr_scan"}, "fusion_lon": 0.0, "lat": 38.928627666666664, "bike_id": "990296a017bd06f869598baf3789c8ef", "type": "electric_scooter", "is_reserved": 0, "lon": -77.033561}, {"fusion_lat": 0.0, "name": "a2843725cf21a6d7df2673ce51a21a76", "is_disabled": 0, "rental_uris": {"android": "https://dc.lft.to/lastmile_qr_scan", "ios": "https://dc.lft.to/lastmile_qr_scan"}, "fusion_lon": 0.0, "lat": 38.966774666666666, "bike_id": "a2843725cf21a6d7df2673ce51a21a76", "type": "electric_bike", "is_reserved": 0, "lon": -77.02165983333333}, {"fusion_lat": 0.0, "name": "6a406d4df73f9b32ac7a5c04ae3f4e77", "is_disabled": 0, "rental_uris": {"android": "https://dc.lft.to/lastmile_qr_scan", "ios": "https://dc.lft.to/lastmile_qr_scan"}, "fusion_lon": 0.0, "lat": 38.900242666666664, "bike_id": "6a406d4df73f9b32ac7a5c04ae3f4e77", "type": "electric_scooter", "is_reserved": 0, "lon": -77.0302705}, {"fusion_lat": 0.0, "name": "5aab1ae947ffc82081043405083fb94a", "is_disabled": 0, "rental_uris": {"android": "https://dc.lft.to/lastmile_qr_scan", "ios": "https://dc.lft.to/lastmile_qr_scan"}, "fusion_lon": 0.0, "lat": 38.900248, "bike_id": "5aab1ae947ffc82081043405083fb94a", "type": "electric_scooter", "is_reserved": 0, "lon": -76.99138383333333}, {"fusion_lat": 0.0, "name": "d49923fb9f261f2d41e0042dbbedc65a", "is_disabled": 0, "rental_uris": {"android": "https://dc.lft.to/lastmile_qr_scan", "ios": "https://dc.lft.to/lastmile_qr_scan"}, "fusion_lon": 0.0, "lat": 38.9318565, "bike_id": "d49923fb9f261f2d41e0042dbbedc65a", "type": "electric_scooter", "is_reserved": 0, "lon": -77.04299033333334}, {"fusion_lat": 0.0, "name": "55af68c8ce915fd1d2028ec316590964", "is_disabled": 0, "rental_uris": {"android": "https://dc.lft.to/lastmile_qr_scan", "ios": "https://dc.lft.to/lastmile_qr_scan"}, "fusion_lon": 0.0, "lat": 38.8764855, "bike_id": "55af68c8ce915fd1d2028ec316590964", "type": "electric_scooter", "is_reserved": 0, "lon": -77.00320966666666}, {"fusion_lat": 0.0, "name": "eda4d864fd3ce07df8895d10793dc285", "is_disabled": 0, "rental_uris": {"android": "https://dc.lft.to/lastmile_qr_scan", "ios": "https://dc.lft.to/lastmile_qr_scan"}, "fusion_lon": 0.0, "lat": 38.89041783333333, "bike_id": "eda4d864fd3ce07df8895d10793dc285", "type": "electric_scooter", "is_reserved": 0, "lon": -76.93752116666667}, {"fusion_lat": 0.0, "name": "adcee5245d6f839b1ba90efa76da1c58", "is_disabled": 0, "rental_uris": {"android": "https://dc.lft.to/lastmile_qr_scan", "ios": "https://dc.lft.to/lastmile_qr_scan"}, "fusion_lon": 0.0, "lat": 38.958244, "bike_id": "adcee5245d6f839b1ba90efa76da1c58", "type": "electric_scooter", "is_reserved": 0, "lon": -77.00182133333334}, {"fusion_lat": 0.0, "name": "469e5d817ef4ee675271706a63f91b9d", "is_disabled": 0, "rental_uris": {"android": "https://dc.lft.to/lastmile_qr_scan", "ios": "https://dc.lft.to/lastmile_qr_scan"}, "fusion_lon": 0.0, "lat": 38.88242433333333, "bike_id": "469e5d817ef4ee675271706a63f91b9d", "type": "electric_scooter", "is_reserved": 0, "lon": -77.00358916666667}, {"fusion_lat": 0.0, "name": "caae282ab887dc29d07e4793f0ae7a4a", "is_disabled": 0, "rental_uris": {"android": "https://dc.lft.to/lastmile_qr_scan", "ios": "https://dc.lft.to/lastmile_qr_scan"}, "fusion_lon": 0.0, "lat": 38.935891833333336, "bike_id": "caae282ab887dc29d07e4793f0ae7a4a", "type": "electric_scooter", "is_reserved": 0, "lon": -77.0236515}, {"fusion_lat": 0.0, "name": "9297bb8858802269fed36733229ae972", "is_disabled": 0, "rental_uris": {"android": "https://dc.lft.to/lastmile_qr_scan", "ios": "https://dc.lft.to/lastmile_qr_scan"}, "fusion_lon": 0.0, "lat": 38.9110645, "bike_id": "9297bb8858802269fed36733229ae972", "type": "electric_scooter", "is_reserved": 0, "lon": -77.01149766666667}, {"fusion_lat": 0.0, "name": "9c2e3ee14585121e6189a267b51efa88", "is_disabled": 0, "rental_uris": {"android": "https://dc.lft.to/lastmile_qr_scan", "ios": "https://dc.lft.to/lastmile_qr_scan"}, "fusion_lon": 0.0, "lat": 38.91175033333333, "bike_id": "9c2e3ee14585121e6189a267b51efa88", "type": "electric_scooter", "is_reserved": 0, "lon": -77.04543866666667}, {"fusion_lat": 0.0, "name": "214c4e04bd2d96f4d49eccea0a5c3057", "is_disabled": 0, "rental_uris": {"android": "https://dc.lft.to/lastmile_qr_scan", "ios": "https://dc.lft.to/lastmile_qr_scan"}, "fusion_lon": 0.0, "lat": 38.92258116666667, "bike_id": "214c4e04bd2d96f4d49eccea0a5c3057", "type": "electric_scooter", "is_reserved": 0, "lon": -77.07481933333334}, {"fusion_lat": 0.0, "name": "2c13d51045762bed44577026258b5ccf", "is_disabled": 0, "rental_uris": {"android": "https://dc.lft.to/lastmile_qr_scan", "ios": "https://dc.lft.to/lastmile_qr_scan"}, "fusion_lon": 0.0, "lat": 38.87939516666667, "bike_id": "2c13d51045762bed44577026258b5ccf", "type": "electric_bike", "is_reserved": 0, "lon": -77.01009366666666}, {"fusion_lat": 0.0, "name": "4c220c7ba189998cf2e04abfa83217a3", "is_disabled": 0, "rental_uris": {"android": "https://dc.lft.to/lastmile_qr_scan", "ios": "https://dc.lft.to/lastmile_qr_scan"}, "fusion_lon": 0.0, "lat": 38.93259583333333, "bike_id": "4c220c7ba189998cf2e04abfa83217a3", "type": "electric_scooter", "is_reserved": 0, "lon": -77.040054}, {"fusion_lat": 0.0, "name": "d59ff55080afa2c7151bb33d2dee8cb5", "is_disabled": 0, "rental_uris": {"android": "https://dc.lft.to/lastmile_qr_scan", "ios": "https://dc.lft.to/lastmile_qr_scan"}, "fusion_lon": 0.0, "lat": 38.866187833333335, "bike_id": "d59ff55080afa2c7151bb33d2dee8cb5", "type": "electric_bike", "is_reserved": 0, "lon": -76.94571383333333}, {"fusion_lat": 0.0, "name": "4d10102f763c409d85882c5672843ba9", "is_disabled": 0, "rental_uris": {"android": "https://dc.lft.to/lastmile_qr_scan", "ios": "https://dc.lft.to/lastmile_qr_scan"}, "fusion_lon": 0.0, "lat": 38.9019345, "bike_id": "4d10102f763c409d85882c5672843ba9", "type": "electric_scooter", "is_reserved": 0, "lon": -77.04649366666666}, {"fusion_lat": 0.0, "name": "83a02930f81e240ef5b91e7e3efed486", "is_disabled": 0, "rental_uris": {"android": "https://dc.lft.to/lastmile_qr_scan", "ios": "https://dc.lft.to/lastmile_qr_scan"}, "fusion_lon": 0.0, "lat": 38.8987735, "bike_id": "83a02930f81e240ef5b91e7e3efed486", "type": "electric_scooter", "is_reserved": 0, "lon": -77.01508733333333}, {"fusion_lat": 0.0, "name": "93146dc8c30404ff6114004265207c53", "is_disabled": 0, "rental_uris": {"android": "https://dc.lft.to/lastmile_qr_scan", "ios": "https://dc.lft.to/lastmile_qr_scan"}, "fusion_lon": 0.0, "lat": 38.941977, "bike_id": "93146dc8c30404ff6114004265207c53", "type": "electric_scooter", "is_reserved": 0, "lon": -77.02587083333333}, {"fusion_lat": 0.0, "name": "dd17a7a3600c64fb661c79d2959e8d31", "is_disabled": 0, "rental_uris": {"android": "https://dc.lft.to/lastmile_qr_scan", "ios": "https://dc.lft.to/lastmile_qr_scan"}, "fusion_lon": 0.0, "lat": 38.91048033333333, "bike_id": "dd17a7a3600c64fb661c79d2959e8d31", "type": "electric_scooter", "is_reserved": 0, "lon": -77.04584333333334}, {"fusion_lat": 0.0, "name": "3f3a50ad96f995919c881b121b6c830c", "is_disabled": 0, "rental_uris": {"android": "https://dc.lft.to/lastmile_qr_scan", "ios": "https://dc.lft.to/lastmile_qr_scan"}, "fusion_lon": 0.0, "lat": 38.91441783333333, "bike_id": "3f3a50ad96f995919c881b121b6c830c", "type": "electric_scooter", "is_reserved": 0, "lon": -77.04163966666667}, {"fusion_lat": 0.0, "name": "9607e5028ded7caa5eec51a439eb07fa", "is_disabled": 0, "rental_uris": {"android": "https://dc.lft.to/lastmile_qr_scan", "ios": "https://dc.lft.to/lastmile_qr_scan"}, "fusion_lon": 0.0, "lat": 38.86329416666667, "bike_id": "9607e5028ded7caa5eec51a439eb07fa", "type": "electric_bike", "is_reserved": 0, "lon": -76.9872715}, {"fusion_lat": 0.0, "name": "76ab73e943f468baaefd93a6289cb036", "is_disabled": 0, "rental_uris": {"android": "https://dc.lft.to/lastmile_qr_scan", "ios": "https://dc.lft.to/lastmile_qr_scan"}, "fusion_lon": 0.0, "lat": 38.956355333333335, "bike_id": "76ab73e943f468baaefd93a6289cb036", "type": "electric_scooter", "is_reserved": 0, "lon": -77.033035}, {"fusion_lat": 0.0, "name": "0e2ede630c08630055d5c877617c9e31", "is_disabled": 0, "rental_uris": {"android": "https://dc.lft.to/lastmile_qr_scan", "ios": "https://dc.lft.to/lastmile_qr_scan"}, "fusion_lon": 0.0, "lat": 38.902722, "bike_id": "0e2ede630c08630055d5c877617c9e31", "type": "electric_scooter", "is_reserved": 0, "lon": -77.01882116666667}, {"fusion_lat": 0.0, "name": "9a64a1d7025626d34d475c981cc6fa94", "is_disabled": 0, "rental_uris": {"android": "https://dc.lft.to/lastmile_qr_scan", "ios": "https://dc.lft.to/lastmile_qr_scan"}, "fusion_lon": 0.0, "lat": 38.900792333333335, "bike_id": "9a64a1d7025626d34d475c981cc6fa94", "type": "electric_scooter", "is_reserved": 0, "lon": -77.049537}, {"fusion_lat": 0.0, "name": "e215c574dd0fed6fecc654b78bbc9cbe", "is_disabled": 0, "rental_uris": {"android": "https://dc.lft.to/lastmile_qr_scan", "ios": "https://dc.lft.to/lastmile_qr_scan"}, "fusion_lon": 0.0, "lat": 38.92122533333333, "bike_id": "e215c574dd0fed6fecc654b78bbc9cbe", "type": "electric_scooter", "is_reserved": 0, "lon": -77.046926}, {"fusion_lat": 0.0, "name": "a71fa67dbb797646fe38fad5359bc3e2", "is_disabled": 0, "rental_uris": {"android": "https://dc.lft.to/lastmile_qr_scan", "ios": "https://dc.lft.to/lastmile_qr_scan"}, "fusion_lon": 0.0, "lat": 38.92660816666667, "bike_id": "a71fa67dbb797646fe38fad5359bc3e2", "type": "electric_scooter", "is_reserved": 0, "lon": -77.030502}, {"fusion_lat": 0.0, "name": "9f843f4b4793864afc8b52af0faccead", "is_disabled": 0, "rental_uris": {"android": "https://dc.lft.to/lastmile_qr_scan", "ios": "https://dc.lft.to/lastmile_qr_scan"}, "fusion_lon": 0.0, "lat": 38.890835833333334, "bike_id": "9f843f4b4793864afc8b52af0faccead", "type": "electric_scooter", "is_reserved": 0, "lon": -76.91925883333333}, {"fusion_lat": 0.0, "name": "92b8ce215388f7419cab480de310120e", "is_disabled": 0, "rental_uris": {"android": "https://dc.lft.to/lastmile_qr_scan", "ios": "https://dc.lft.to/lastmile_qr_scan"}, "fusion_lon": 0.0, "lat": 38.7901955, "bike_id": "92b8ce215388f7419cab480de310120e", "type": "electric_bike", "is_reserved": 0, "lon": -77.01544383333334}, {"fusion_lat": 0.0, "name": "10b77749647fc74ad98d57ced5cbbada", "is_disabled": 0, "rental_uris": {"android": "https://dc.lft.to/lastmile_qr_scan", "ios": "https://dc.lft.to/lastmile_qr_scan"}, "fusion_lon": 0.0, "lat": 38.907493833333334, "bike_id": "10b77749647fc74ad98d57ced5cbbada", "type": "electric_scooter", "is_reserved": 0, "lon": -77.03211466666667}, {"fusion_lat": 0.0, "name": "e6355b45fb2341cd3ecd3e8931a703e6", "is_disabled": 0, "rental_uris": {"android": "https://dc.lft.to/lastmile_qr_scan", "ios": "https://dc.lft.to/lastmile_qr_scan"}, "fusion_lon": 0.0, "lat": 38.935995166666665, "bike_id": "e6355b45fb2341cd3ecd3e8931a703e6", "type": "electric_scooter", "is_reserved": 0, "lon": -77.023001}, {"fusion_lat": 0.0, "name": "39c94ee5e944760c9d6f00b81c346c6f", "is_disabled": 0, "rental_uris": {"android": "https://dc.lft.to/lastmile_qr_scan", "ios": "https://dc.lft.to/lastmile_qr_scan"}, "fusion_lon": 0.0, "lat": 38.91634483333333, "bike_id": "39c94ee5e944760c9d6f00b81c346c6f", "type": "electric_scooter", "is_reserved": 0, "lon": -77.015784}, {"fusion_lat": 0.0, "name": "d4ed1f136eec40839325550bc9477b9c", "is_disabled": 0, "rental_uris": {"android": "https://dc.lft.to/lastmile_qr_scan", "ios": "https://dc.lft.to/lastmile_qr_scan"}, "fusion_lon": 0.0, "lat": 38.944278833333335, "bike_id": "d4ed1f136eec40839325550bc9477b9c", "type": "electric_bike", "is_reserved": 0, "lon": -77.02604066666666}, {"fusion_lat": 0.0, "name": "90e06e60be1cf4656f03e31a9b3c8ec6", "is_disabled": 0, "rental_uris": {"android": "https://dc.lft.to/lastmile_qr_scan", "ios": "https://dc.lft.to/lastmile_qr_scan"}, "fusion_lon": 0.0, "lat": 38.887131333333336, "bike_id": "90e06e60be1cf4656f03e31a9b3c8ec6", "type": "electric_scooter", "is_reserved": 0, "lon": -77.017771}, {"fusion_lat": 0.0, "name": "620259c800d3c65b05a8839421efff8e", "is_disabled": 0, "rental_uris": {"android": "https://dc.lft.to/lastmile_qr_scan", "ios": "https://dc.lft.to/lastmile_qr_scan"}, "fusion_lon": 0.0, "lat": 38.905673666666665, "bike_id": "620259c800d3c65b05a8839421efff8e", "type": "electric_scooter", "is_reserved": 0, "lon": -77.03424133333333}, {"fusion_lat": 0.0, "name": "88f896d760a9df70342b8445c20ede27", "is_disabled": 0, "rental_uris": {"android": "https://dc.lft.to/lastmile_qr_scan", "ios": "https://dc.lft.to/lastmile_qr_scan"}, "fusion_lon": 0.0, "lat": 38.881798333333336, "bike_id": "88f896d760a9df70342b8445c20ede27", "type": "electric_scooter", "is_reserved": 0, "lon": -77.0357605}, {"fusion_lat": 0.0, "name": "f6259e32fd9c19adbc35f9c52c8bcc1c", "is_disabled": 0, "rental_uris": {"android": "https://dc.lft.to/lastmile_qr_scan", "ios": "https://dc.lft.to/lastmile_qr_scan"}, "fusion_lon": 0.0, "lat": 38.895228333333336, "bike_id": "f6259e32fd9c19adbc35f9c52c8bcc1c", "type": "electric_scooter", "is_reserved": 0, "lon": -76.93413583333333}, {"fusion_lat": 0.0, "name": "9009a4cf4a6abb6d837329996fc9e140", "is_disabled": 0, "rental_uris": {"android": "https://dc.lft.to/lastmile_qr_scan", "ios": "https://dc.lft.to/lastmile_qr_scan"}, "fusion_lon": 0.0, "lat": 38.901475166666664, "bike_id": "9009a4cf4a6abb6d837329996fc9e140", "type": "electric_scooter", "is_reserved": 0, "lon": -77.06110983333333}, {"fusion_lat": 0.0, "name": "4ba28b351eca7e3d9e3fad0617833f2f", "is_disabled": 0, "rental_uris": {"android": "https://dc.lft.to/lastmile_qr_scan", "ios": "https://dc.lft.to/lastmile_qr_scan"}, "fusion_lon": 0.0, "lat": 38.90076633333334, "bike_id": "4ba28b351eca7e3d9e3fad0617833f2f", "type": "electric_scooter", "is_reserved": 0, "lon": -77.05034366666666}, {"fusion_lat": 0.0, "name": "c85a5faae11b3626970829976cbea5bc", "is_disabled": 0, "rental_uris": {"android": "https://dc.lft.to/lastmile_qr_scan", "ios": "https://dc.lft.to/lastmile_qr_scan"}, "fusion_lon": 0.0, "lat": 38.92398766666667, "bike_id": "c85a5faae11b3626970829976cbea5bc", "type": "electric_scooter", "is_reserved": 0, "lon": -77.02551933333334}, {"fusion_lat": 0.0, "name": "56dff286431bd4e2084af6128366169f", "is_disabled": 0, "rental_uris": {"android": "https://dc.lft.to/lastmile_qr_scan", "ios": "https://dc.lft.to/lastmile_qr_scan"}, "fusion_lon": 0.0, "lat": 38.9211685, "bike_id": "56dff286431bd4e2084af6128366169f", "type": "electric_bike", "is_reserved": 0, "lon": -77.01210633333334}, {"fusion_lat": 0.0, "name": "3eeacd7180a648f40c92f4fb748f6a03", "is_disabled": 0, "rental_uris": {"android": "https://dc.lft.to/lastmile_qr_scan", "ios": "https://dc.lft.to/lastmile_qr_scan"}, "fusion_lon": 0.0, "lat": 38.92477483333333, "bike_id": "3eeacd7180a648f40c92f4fb748f6a03", "type": "electric_scooter", "is_reserved": 0, "lon": -77.02680566666666}, {"fusion_lat": 0.0, "name": "2c4cecf3206c0d719a06b06e97439121", "is_disabled": 0, "rental_uris": {"android": "https://dc.lft.to/lastmile_qr_scan", "ios": "https://dc.lft.to/lastmile_qr_scan"}, "fusion_lon": 0.0, "lat": 38.89854883333334, "bike_id": "2c4cecf3206c0d719a06b06e97439121", "type": "electric_scooter", "is_reserved": 0, "lon": -77.04076983333333}, {"fusion_lat": 0.0, "name": "0ccbaa3ff540df51ec32da28b639e7b8", "is_disabled": 0, "rental_uris": {"android": "https://dc.lft.to/lastmile_qr_scan", "ios": "https://dc.lft.to/lastmile_qr_scan"}, "fusion_lon": 0.0, "lat": 38.90944066666667, "bike_id": "0ccbaa3ff540df51ec32da28b639e7b8", "type": "electric_scooter", "is_reserved": 0, "lon": -77.04660116666666}, {"fusion_lat": 0.0, "name": "39817e771baca9d0bffc16ddf820001a", "is_disabled": 0, "rental_uris": {"android": "https://dc.lft.to/lastmile_qr_scan", "ios": "https://dc.lft.to/lastmile_qr_scan"}, "fusion_lon": 0.0, "lat": 38.87895483333333, "bike_id": "39817e771baca9d0bffc16ddf820001a", "type": "electric_scooter", "is_reserved": 0, "lon": -77.013619}, {"fusion_lat": 0.0, "name": "21ed88a9a3bd6280dee86b950872d4af", "is_disabled": 0, "rental_uris": {"android": "https://dc.lft.to/lastmile_qr_scan", "ios": "https://dc.lft.to/lastmile_qr_scan"}, "fusion_lon": 0.0, "lat": 38.90777966666667, "bike_id": "21ed88a9a3bd6280dee86b950872d4af", "type": "electric_scooter", "is_reserved": 0, "lon": -77.042252}, {"fusion_lat": 0.0, "name": "415ff7ef0f06d6f67e4bfa6405628587", "is_disabled": 0, "rental_uris": {"android": "https://dc.lft.to/lastmile_qr_scan", "ios": "https://dc.lft.to/lastmile_qr_scan"}, "fusion_lon": 0.0, "lat": 38.923106833333335, "bike_id": "415ff7ef0f06d6f67e4bfa6405628587", "type": "electric_scooter", "is_reserved": 0, "lon": -77.05364616666667}, {"fusion_lat": 0.0, "name": "2c0f11c2d87dfd42e62e4bdd44bba56a", "is_disabled": 0, "rental_uris": {"android": "https://dc.lft.to/lastmile_qr_scan", "ios": "https://dc.lft.to/lastmile_qr_scan"}, "fusion_lon": 0.0, "lat": 38.9280705, "bike_id": "2c0f11c2d87dfd42e62e4bdd44bba56a", "type": "electric_scooter", "is_reserved": 0, "lon": -77.04360716666666}, {"fusion_lat": 0.0, "name": "542714e5a218758f6400902be0922c92", "is_disabled": 0, "rental_uris": {"android": "https://dc.lft.to/lastmile_qr_scan", "ios": "https://dc.lft.to/lastmile_qr_scan"}, "fusion_lon": 0.0, "lat": 38.905203, "bike_id": "542714e5a218758f6400902be0922c92", "type": "electric_scooter", "is_reserved": 0, "lon": -77.04840766666666}, {"fusion_lat": 0.0, "name": "68cb51001a3568a1fcedc1c4337d1f83", "is_disabled": 0, "rental_uris": {"android": "https://dc.lft.to/lastmile_qr_scan", "ios": "https://dc.lft.to/lastmile_qr_scan"}, "fusion_lon": 0.0, "lat": 38.89999566666667, "bike_id": "68cb51001a3568a1fcedc1c4337d1f83", "type": "electric_scooter", "is_reserved": 0, "lon": -77.00370416666667}, {"fusion_lat": 0.0, "name": "954e611a1eb1254c3614f874228bba05", "is_disabled": 0, "rental_uris": {"android": "https://dc.lft.to/lastmile_qr_scan", "ios": "https://dc.lft.to/lastmile_qr_scan"}, "fusion_lon": 0.0, "lat": 38.87894716666667, "bike_id": "954e611a1eb1254c3614f874228bba05", "type": "electric_scooter", "is_reserved": 0, "lon": -77.0073065}, {"fusion_lat": 0.0, "name": "c631072700286adee799e6d818054f22", "is_disabled": 0, "rental_uris": {"android": "https://dc.lft.to/lastmile_qr_scan", "ios": "https://dc.lft.to/lastmile_qr_scan"}, "fusion_lon": 0.0, "lat": 38.9010975, "bike_id": "c631072700286adee799e6d818054f22", "type": "electric_scooter", "is_reserved": 0, "lon": -76.97425916666667}, {"fusion_lat": 0.0, "name": "6590a35cffee12da7309d2fb55640deb", "is_disabled": 0, "rental_uris": {"android": "https://dc.lft.to/lastmile_qr_scan", "ios": "https://dc.lft.to/lastmile_qr_scan"}, "fusion_lon": 0.0, "lat": 38.92102233333333, "bike_id": "6590a35cffee12da7309d2fb55640deb", "type": "electric_scooter", "is_reserved": 0, "lon": -77.07474516666667}, {"fusion_lat": 0.0, "name": "3418d93ff9f975f0782c7f3ba32dcf35", "is_disabled": 0, "rental_uris": {"android": "https://dc.lft.to/lastmile_qr_scan", "ios": "https://dc.lft.to/lastmile_qr_scan"}, "fusion_lon": 0.0, "lat": 38.89863966666667, "bike_id": "3418d93ff9f975f0782c7f3ba32dcf35", "type": "electric_scooter", "is_reserved": 0, "lon": -77.02021066666667}, {"fusion_lat": 0.0, "name": "2558fb246971e59a1288e3d679622a6d", "is_disabled": 0, "rental_uris": {"android": "https://dc.lft.to/lastmile_qr_scan", "ios": "https://dc.lft.to/lastmile_qr_scan"}, "fusion_lon": 0.0, "lat": 38.932174833333335, "bike_id": "2558fb246971e59a1288e3d679622a6d", "type": "electric_scooter", "is_reserved": 0, "lon": -77.04418116666666}, {"fusion_lat": 0.0, "name": "bdf8f83178d621b9b832e3d4f366bc0a", "is_disabled": 0, "rental_uris": {"android": "https://dc.lft.to/lastmile_qr_scan", "ios": "https://dc.lft.to/lastmile_qr_scan"}, "fusion_lon": 0.0, "lat": 38.9071595, "bike_id": "bdf8f83178d621b9b832e3d4f366bc0a", "type": "electric_scooter", "is_reserved": 0, "lon": -77.02889666666667}, {"fusion_lat": 0.0, "name": "36d4c510e6b3bcbb4b7c384a968c611d", "is_disabled": 0, "rental_uris": {"android": "https://dc.lft.to/lastmile_qr_scan", "ios": "https://dc.lft.to/lastmile_qr_scan"}, "fusion_lon": 0.0, "lat": 38.938773833333336, "bike_id": "36d4c510e6b3bcbb4b7c384a968c611d", "type": "electric_scooter", "is_reserved": 0, "lon": -77.03231183333334}, {"fusion_lat": 0.0, "name": "a238188f6c6c1abca6db1155437e4d52", "is_disabled": 0, "rental_uris": {"android": "https://dc.lft.to/lastmile_qr_scan", "ios": "https://dc.lft.to/lastmile_qr_scan"}, "fusion_lon": 0.0, "lat": 38.914548833333335, "bike_id": "a238188f6c6c1abca6db1155437e4d52", "type": "electric_scooter", "is_reserved": 0, "lon": -76.984365}, {"fusion_lat": 0.0, "name": "d3d78c94c124e8578d68c05584ea4479", "is_disabled": 0, "rental_uris": {"android": "https://dc.lft.to/lastmile_qr_scan", "ios": "https://dc.lft.to/lastmile_qr_scan"}, "fusion_lon": 0.0, "lat": 38.899856666666665, "bike_id": "d3d78c94c124e8578d68c05584ea4479", "type": "electric_scooter", "is_reserved": 0, "lon": -77.04052}, {"fusion_lat": 0.0, "name": "deb6940349d1ec3e8fe351dfcb7914ae", "is_disabled": 0, "rental_uris": {"android": "https://dc.lft.to/lastmile_qr_scan", "ios": "https://dc.lft.to/lastmile_qr_scan"}, "fusion_lon": 0.0, "lat": 38.842708333333334, "bike_id": "deb6940349d1ec3e8fe351dfcb7914ae", "type": "electric_bike", "is_reserved": 0, "lon": -76.98845166666666}, {"fusion_lat": 0.0, "name": "90616984b251b3ef4c3f0046cb206a23", "is_disabled": 0, "rental_uris": {"android": "https://dc.lft.to/lastmile_qr_scan", "ios": "https://dc.lft.to/lastmile_qr_scan"}, "fusion_lon": 0.0, "lat": 38.9022985, "bike_id": "90616984b251b3ef4c3f0046cb206a23", "type": "electric_scooter", "is_reserved": 0, "lon": -77.0231315}, {"fusion_lat": 0.0, "name": "6b07a072fcdce7e9dedea50284847e78", "is_disabled": 0, "rental_uris": {"android": "https://dc.lft.to/lastmile_qr_scan", "ios": "https://dc.lft.to/lastmile_qr_scan"}, "fusion_lon": 0.0, "lat": 38.9100235, "bike_id": "6b07a072fcdce7e9dedea50284847e78", "type": "electric_scooter", "is_reserved": 0, "lon": -77.0345445}, {"fusion_lat": 0.0, "name": "67bcf233827297cf211a08a243eef91c", "is_disabled": 0, "rental_uris": {"android": "https://dc.lft.to/lastmile_qr_scan", "ios": "https://dc.lft.to/lastmile_qr_scan"}, "fusion_lon": 0.0, "lat": 38.91787883333333, "bike_id": "67bcf233827297cf211a08a243eef91c", "type": "electric_scooter", "is_reserved": 0, "lon": -77.040218}, {"fusion_lat": 0.0, "name": "ca5af906e10860175480395396000d0a", "is_disabled": 0, "rental_uris": {"android": "https://dc.lft.to/lastmile_qr_scan", "ios": "https://dc.lft.to/lastmile_qr_scan"}, "fusion_lon": 0.0, "lat": 38.90549433333333, "bike_id": "ca5af906e10860175480395396000d0a", "type": "electric_scooter", "is_reserved": 0, "lon": -77.04167233333334}, {"fusion_lat": 0.0, "name": "5206ec7df550387994b1c72e6a24d94b", "is_disabled": 0, "rental_uris": {"android": "https://dc.lft.to/lastmile_qr_scan", "ios": "https://dc.lft.to/lastmile_qr_scan"}, "fusion_lon": 0.0, "lat": 38.91313983333333, "bike_id": "5206ec7df550387994b1c72e6a24d94b", "type": "electric_scooter", "is_reserved": 0, "lon": -77.04556683333334}, {"fusion_lat": 0.0, "name": "8026940c292c340693979d7e27bda74c", "is_disabled": 0, "rental_uris": {"android": "https://dc.lft.to/lastmile_qr_scan", "ios": "https://dc.lft.to/lastmile_qr_scan"}, "fusion_lon": 0.0, "lat": 38.906516, "bike_id": "8026940c292c340693979d7e27bda74c", "type": "electric_scooter", "is_reserved": 0, "lon": -77.00883833333333}, {"fusion_lat": 0.0, "name": "062516be3f9e6021193348f6c8bb7f96", "is_disabled": 0, "rental_uris": {"android": "https://dc.lft.to/lastmile_qr_scan", "ios": "https://dc.lft.to/lastmile_qr_scan"}, "fusion_lon": 0.0, "lat": 38.8667895, "bike_id": "062516be3f9e6021193348f6c8bb7f96", "type": "electric_bike", "is_reserved": 0, "lon": -76.98236033333333}, {"fusion_lat": 0.0, "name": "5741d66a3d9b6d0267d25c968dd18d4c", "is_disabled": 0, "rental_uris": {"android": "https://dc.lft.to/lastmile_qr_scan", "ios": "https://dc.lft.to/lastmile_qr_scan"}, "fusion_lon": 0.0, "lat": 38.915401833333334, "bike_id": "5741d66a3d9b6d0267d25c968dd18d4c", "type": "electric_scooter", "is_reserved": 0, "lon": -77.03794516666666}, {"fusion_lat": 0.0, "name": "48b592830b92f68a2801803f3ed5f7f5", "is_disabled": 0, "rental_uris": {"android": "https://dc.lft.to/lastmile_qr_scan", "ios": "https://dc.lft.to/lastmile_qr_scan"}, "fusion_lon": 0.0, "lat": 38.906390333333334, "bike_id": "48b592830b92f68a2801803f3ed5f7f5", "type": "electric_scooter", "is_reserved": 0, "lon": -77.024006}, {"fusion_lat": 0.0, "name": "79eda33ba95acf3dd7bc7c9aa245ca13", "is_disabled": 0, "rental_uris": {"android": "https://dc.lft.to/lastmile_qr_scan", "ios": "https://dc.lft.to/lastmile_qr_scan"}, "fusion_lon": 0.0, "lat": 38.962344333333334, "bike_id": "79eda33ba95acf3dd7bc7c9aa245ca13", "type": "electric_bike", "is_reserved": 0, "lon": -76.927811}, {"fusion_lat": 0.0, "name": "1c6ad1f08d31c42e4e18798b7e27ca98", "is_disabled": 0, "rental_uris": {"android": "https://dc.lft.to/lastmile_qr_scan", "ios": "https://dc.lft.to/lastmile_qr_scan"}, "fusion_lon": 0.0, "lat": 38.9565845, "bike_id": "1c6ad1f08d31c42e4e18798b7e27ca98", "type": "electric_bike", "is_reserved": 0, "lon": -77.011286}, {"fusion_lat": 0.0, "name": "645ea54b4b1cb8c234e2111d0e823d37", "is_disabled": 0, "rental_uris": {"android": "https://dc.lft.to/lastmile_qr_scan", "ios": "https://dc.lft.to/lastmile_qr_scan"}, "fusion_lon": 0.0, "lat": 38.92414983333333, "bike_id": "645ea54b4b1cb8c234e2111d0e823d37", "type": "electric_scooter", "is_reserved": 0, "lon": -77.02246066666666}, {"fusion_lat": 0.0, "name": "d411ea8dfd75105ba48b803e7a446689", "is_disabled": 0, "rental_uris": {"android": "https://dc.lft.to/lastmile_qr_scan", "ios": "https://dc.lft.to/lastmile_qr_scan"}, "fusion_lon": 0.0, "lat": 38.95945416666667, "bike_id": "d411ea8dfd75105ba48b803e7a446689", "type": "electric_scooter", "is_reserved": 0, "lon": -77.00892066666667}, {"fusion_lat": 0.0, "name": "087fa676e05b5c5c71c2738f9d105a1f", "is_disabled": 0, "rental_uris": {"android": "https://dc.lft.to/lastmile_qr_scan", "ios": "https://dc.lft.to/lastmile_qr_scan"}, "fusion_lon": 0.0, "lat": 38.91541633333333, "bike_id": "087fa676e05b5c5c71c2738f9d105a1f", "type": "electric_scooter", "is_reserved": 0, "lon": -77.0322755}, {"fusion_lat": 0.0, "name": "bb8ad6665c674bea0c879b494d395e11", "is_disabled": 0, "rental_uris": {"android": "https://dc.lft.to/lastmile_qr_scan", "ios": "https://dc.lft.to/lastmile_qr_scan"}, "fusion_lon": 0.0, "lat": 38.941993, "bike_id": "bb8ad6665c674bea0c879b494d395e11", "type": "electric_scooter", "is_reserved": 0, "lon": -77.02592316666667}, {"fusion_lat": 0.0, "name": "ca3ae4025b5266bcb63c95fdd95efb64", "is_disabled": 0, "rental_uris": {"android": "https://dc.lft.to/lastmile_qr_scan", "ios": "https://dc.lft.to/lastmile_qr_scan"}, "fusion_lon": 0.0, "lat": 38.934411, "bike_id": "ca3ae4025b5266bcb63c95fdd95efb64", "type": "electric_scooter", "is_reserved": 0, "lon": -77.03867516666666}, {"fusion_lat": 0.0, "name": "2fd13ad859ea6d1fcb1a666731ac3144", "is_disabled": 0, "rental_uris": {"android": "https://dc.lft.to/lastmile_qr_scan", "ios": "https://dc.lft.to/lastmile_qr_scan"}, "fusion_lon": 0.0, "lat": 38.924021333333336, "bike_id": "2fd13ad859ea6d1fcb1a666731ac3144", "type": "electric_scooter", "is_reserved": 0, "lon": -77.0352285}, {"fusion_lat": 0.0, "name": "16f3551c4e02e4cb8299e137a02e58c6", "is_disabled": 0, "rental_uris": {"android": "https://dc.lft.to/lastmile_qr_scan", "ios": "https://dc.lft.to/lastmile_qr_scan"}, "fusion_lon": 0.0, "lat": 38.87935383333333, "bike_id": "16f3551c4e02e4cb8299e137a02e58c6", "type": "electric_scooter", "is_reserved": 0, "lon": -77.00834233333333}, {"fusion_lat": 0.0, "name": "a9fe77d2d5aed774c922881e95003d82", "is_disabled": 0, "rental_uris": {"android": "https://dc.lft.to/lastmile_qr_scan", "ios": "https://dc.lft.to/lastmile_qr_scan"}, "fusion_lon": 0.0, "lat": 38.9094775, "bike_id": "a9fe77d2d5aed774c922881e95003d82", "type": "electric_scooter", "is_reserved": 0, "lon": -77.021977}, {"fusion_lat": 0.0, "name": "bb097d5ca8b3bca9cf70656a3928e9c1", "is_disabled": 0, "rental_uris": {"android": "https://dc.lft.to/lastmile_qr_scan", "ios": "https://dc.lft.to/lastmile_qr_scan"}, "fusion_lon": 0.0, "lat": 38.9181775, "bike_id": "bb097d5ca8b3bca9cf70656a3928e9c1", "type": "electric_scooter", "is_reserved": 0, "lon": -77.03932583333334}, {"fusion_lat": 0.0, "name": "c9b14a6e36053932f6fa0e271a341c52", "is_disabled": 0, "rental_uris": {"android": "https://dc.lft.to/lastmile_qr_scan", "ios": "https://dc.lft.to/lastmile_qr_scan"}, "fusion_lon": 0.0, "lat": 38.92462583333333, "bike_id": "c9b14a6e36053932f6fa0e271a341c52", "type": "electric_scooter", "is_reserved": 0, "lon": -77.02646833333333}, {"fusion_lat": 0.0, "name": "32ad09b9d393e0e683b2b510c120f591", "is_disabled": 0, "rental_uris": {"android": "https://dc.lft.to/lastmile_qr_scan", "ios": "https://dc.lft.to/lastmile_qr_scan"}, "fusion_lon": 0.0, "lat": 38.8982735, "bike_id": "32ad09b9d393e0e683b2b510c120f591", "type": "electric_scooter", "is_reserved": 0, "lon": -77.0238715}, {"fusion_lat": 0.0, "name": "51a3caa4de405c4573ebc9bdcca5d168", "is_disabled": 0, "rental_uris": {"android": "https://dc.lft.to/lastmile_qr_scan", "ios": "https://dc.lft.to/lastmile_qr_scan"}, "fusion_lon": 0.0, "lat": 38.915726666666664, "bike_id": "51a3caa4de405c4573ebc9bdcca5d168", "type": "electric_scooter", "is_reserved": 0, "lon": -77.0228725}, {"fusion_lat": 0.0, "name": "3d98e406bcfe24902e0e3b8e1533d702", "is_disabled": 0, "rental_uris": {"android": "https://dc.lft.to/lastmile_qr_scan", "ios": "https://dc.lft.to/lastmile_qr_scan"}, "fusion_lon": 0.0, "lat": 38.923161666666665, "bike_id": "3d98e406bcfe24902e0e3b8e1533d702", "type": "electric_scooter", "is_reserved": 0, "lon": -77.05794}, {"fusion_lat": 0.0, "name": "fe266befac55d80191a6889c21132596", "is_disabled": 0, "rental_uris": {"android": "https://dc.lft.to/lastmile_qr_scan", "ios": "https://dc.lft.to/lastmile_qr_scan"}, "fusion_lon": 0.0, "lat": 38.91642316666667, "bike_id": "fe266befac55d80191a6889c21132596", "type": "electric_scooter", "is_reserved": 0, "lon": -77.03210833333333}, {"fusion_lat": 0.0, "name": "62114567ecc72ff9bedf79478d251481", "is_disabled": 0, "rental_uris": {"android": "https://dc.lft.to/lastmile_qr_scan", "ios": "https://dc.lft.to/lastmile_qr_scan"}, "fusion_lon": 0.0, "lat": 38.934354666666664, "bike_id": "62114567ecc72ff9bedf79478d251481", "type": "electric_scooter", "is_reserved": 0, "lon": -77.03867066666666}, {"fusion_lat": 0.0, "name": "e4a79d7aa3e4466d0d02a628e8d7b875", "is_disabled": 0, "rental_uris": {"android": "https://dc.lft.to/lastmile_qr_scan", "ios": "https://dc.lft.to/lastmile_qr_scan"}, "fusion_lon": 0.0, "lat": 38.92287116666667, "bike_id": "e4a79d7aa3e4466d0d02a628e8d7b875", "type": "electric_scooter", "is_reserved": 0, "lon": -77.02244366666666}, {"fusion_lat": 0.0, "name": "6142c289b0acc408927c62f18188da2c", "is_disabled": 0, "rental_uris": {"android": "https://dc.lft.to/lastmile_qr_scan", "ios": "https://dc.lft.to/lastmile_qr_scan"}, "fusion_lon": 0.0, "lat": 38.916951833333336, "bike_id": "6142c289b0acc408927c62f18188da2c", "type": "electric_scooter", "is_reserved": 0, "lon": -77.03497433333334}, {"fusion_lat": 0.0, "name": "f737d37d73a35745c485e4c1553482ec", "is_disabled": 0, "rental_uris": {"android": "https://dc.lft.to/lastmile_qr_scan", "ios": "https://dc.lft.to/lastmile_qr_scan"}, "fusion_lon": 0.0, "lat": 38.890117000000004, "bike_id": "f737d37d73a35745c485e4c1553482ec", "type": "electric_scooter", "is_reserved": 0, "lon": -76.93736583333333}, {"fusion_lat": 0.0, "name": "29eedf8b654d61ce16ce0b9527a6d31e", "is_disabled": 0, "rental_uris": {"android": "https://dc.lft.to/lastmile_qr_scan", "ios": "https://dc.lft.to/lastmile_qr_scan"}, "fusion_lon": 0.0, "lat": 38.892580333333335, "bike_id": "29eedf8b654d61ce16ce0b9527a6d31e", "type": "electric_scooter", "is_reserved": 0, "lon": -77.0502185}, {"fusion_lat": 0.0, "name": "0ba816972ccadc8a3a9720c82516143e", "is_disabled": 0, "rental_uris": {"android": "https://dc.lft.to/lastmile_qr_scan", "ios": "https://dc.lft.to/lastmile_qr_scan"}, "fusion_lon": 0.0, "lat": 38.887096666666665, "bike_id": "0ba816972ccadc8a3a9720c82516143e", "type": "electric_scooter", "is_reserved": 0, "lon": -76.99678383333334}, {"fusion_lat": 0.0, "name": "94b50c1a056656b615962bc911dded72", "is_disabled": 0, "rental_uris": {"android": "https://dc.lft.to/lastmile_qr_scan", "ios": "https://dc.lft.to/lastmile_qr_scan"}, "fusion_lon": 0.0, "lat": 38.91401833333333, "bike_id": "94b50c1a056656b615962bc911dded72", "type": "electric_scooter", "is_reserved": 0, "lon": -77.03182933333333}, {"fusion_lat": 0.0, "name": "c2cc5684be1d78acb8ec84e9d28a88b8", "is_disabled": 0, "rental_uris": {"android": "https://dc.lft.to/lastmile_qr_scan", "ios": "https://dc.lft.to/lastmile_qr_scan"}, "fusion_lon": 0.0, "lat": 38.90500266666667, "bike_id": "c2cc5684be1d78acb8ec84e9d28a88b8", "type": "electric_scooter", "is_reserved": 0, "lon": -77.0171065}, {"fusion_lat": 0.0, "name": "220a3e2277ac31c06015a5599fc570bb", "is_disabled": 0, "rental_uris": {"android": "https://dc.lft.to/lastmile_qr_scan", "ios": "https://dc.lft.to/lastmile_qr_scan"}, "fusion_lon": 0.0, "lat": 38.916554, "bike_id": "220a3e2277ac31c06015a5599fc570bb", "type": "electric_scooter", "is_reserved": 0, "lon": -77.038555}, {"fusion_lat": 0.0, "name": "4760116681bde92a3caa4a49c2b258ae", "is_disabled": 0, "rental_uris": {"android": "https://dc.lft.to/lastmile_qr_scan", "ios": "https://dc.lft.to/lastmile_qr_scan"}, "fusion_lon": 0.0, "lat": 38.92041433333333, "bike_id": "4760116681bde92a3caa4a49c2b258ae", "type": "electric_scooter", "is_reserved": 0, "lon": -76.99557483333334}, {"fusion_lat": 0.0, "name": "7cd56e2f9859ce852072c474357a7434", "is_disabled": 0, "rental_uris": {"android": "https://dc.lft.to/lastmile_qr_scan", "ios": "https://dc.lft.to/lastmile_qr_scan"}, "fusion_lon": 0.0, "lat": 38.884289, "bike_id": "7cd56e2f9859ce852072c474357a7434", "type": "electric_scooter", "is_reserved": 0, "lon": -77.02570616666667}, {"fusion_lat": 0.0, "name": "3ab8d6ac1906afc135a81284723c5224", "is_disabled": 0, "rental_uris": {"android": "https://dc.lft.to/lastmile_qr_scan", "ios": "https://dc.lft.to/lastmile_qr_scan"}, "fusion_lon": 0.0, "lat": 38.888618666666666, "bike_id": "3ab8d6ac1906afc135a81284723c5224", "type": "electric_scooter", "is_reserved": 0, "lon": -76.984592}, {"fusion_lat": 0.0, "name": "b23434a03c9b6e71d75f52342386e5cc", "is_disabled": 0, "rental_uris": {"android": "https://dc.lft.to/lastmile_qr_scan", "ios": "https://dc.lft.to/lastmile_qr_scan"}, "fusion_lon": 0.0, "lat": 38.88256666666667, "bike_id": "b23434a03c9b6e71d75f52342386e5cc", "type": "electric_scooter", "is_reserved": 0, "lon": -76.990313}, {"fusion_lat": 0.0, "name": "80bfbdcb92c005f489834f7cd67b16d6", "is_disabled": 0, "rental_uris": {"android": "https://dc.lft.to/lastmile_qr_scan", "ios": "https://dc.lft.to/lastmile_qr_scan"}, "fusion_lon": 0.0, "lat": 38.894790666666665, "bike_id": "80bfbdcb92c005f489834f7cd67b16d6", "type": "electric_scooter", "is_reserved": 0, "lon": -76.99735916666667}, {"fusion_lat": 0.0, "name": "2e445271fcbbf9550986dd9243ec2e3a", "is_disabled": 0, "rental_uris": {"android": "https://dc.lft.to/lastmile_qr_scan", "ios": "https://dc.lft.to/lastmile_qr_scan"}, "fusion_lon": 0.0, "lat": 38.911306333333336, "bike_id": "2e445271fcbbf9550986dd9243ec2e3a", "type": "electric_scooter", "is_reserved": 0, "lon": -77.01050983333333}, {"fusion_lat": 0.0, "name": "c746d85030209040b47d8c9b7d1ad73d", "is_disabled": 0, "rental_uris": {"android": "https://dc.lft.to/lastmile_qr_scan", "ios": "https://dc.lft.to/lastmile_qr_scan"}, "fusion_lon": 0.0, "lat": 38.85311516666667, "bike_id": "c746d85030209040b47d8c9b7d1ad73d", "type": "electric_bike", "is_reserved": 0, "lon": -77.0460425}, {"fusion_lat": 0.0, "name": "5f62e071566b5382d6568cb914a5deee", "is_disabled": 0, "rental_uris": {"android": "https://dc.lft.to/lastmile_qr_scan", "ios": "https://dc.lft.to/lastmile_qr_scan"}, "fusion_lon": 0.0, "lat": 38.91711266666667, "bike_id": "5f62e071566b5382d6568cb914a5deee", "type": "electric_scooter", "is_reserved": 0, "lon": -77.03474066666666}, {"fusion_lat": 0.0, "name": "512066cd9b096df21b6a00b35a848e89", "is_disabled": 0, "rental_uris": {"android": "https://dc.lft.to/lastmile_qr_scan", "ios": "https://dc.lft.to/lastmile_qr_scan"}, "fusion_lon": 0.0, "lat": 38.8839175, "bike_id": "512066cd9b096df21b6a00b35a848e89", "type": "electric_scooter", "is_reserved": 0, "lon": -77.02580233333333}, {"fusion_lat": 0.0, "name": "a0a0492e681f680bf7d0ab078c997690", "is_disabled": 0, "rental_uris": {"android": "https://dc.lft.to/lastmile_qr_scan", "ios": "https://dc.lft.to/lastmile_qr_scan"}, "fusion_lon": 0.0, "lat": 38.92816916666666, "bike_id": "a0a0492e681f680bf7d0ab078c997690", "type": "electric_scooter", "is_reserved": 0, "lon": -77.01329433333333}, {"fusion_lat": 0.0, "name": "dc441b34e5326332019736b6a28bdf51", "is_disabled": 0, "rental_uris": {"android": "https://dc.lft.to/lastmile_qr_scan", "ios": "https://dc.lft.to/lastmile_qr_scan"}, "fusion_lon": 0.0, "lat": 38.92949483333334, "bike_id": "dc441b34e5326332019736b6a28bdf51", "type": "electric_scooter", "is_reserved": 0, "lon": -77.03471166666667}, {"fusion_lat": 0.0, "name": "50c4d4ef834dee0c5900b7b32d02d246", "is_disabled": 0, "rental_uris": {"android": "https://dc.lft.to/lastmile_qr_scan", "ios": "https://dc.lft.to/lastmile_qr_scan"}, "fusion_lon": 0.0, "lat": 38.842783, "bike_id": "50c4d4ef834dee0c5900b7b32d02d246", "type": "electric_bike", "is_reserved": 0, "lon": -77.04502816666667}, {"fusion_lat": 0.0, "name": "3055998503f633d05cbebc114f7031fa", "is_disabled": 0, "rental_uris": {"android": "https://dc.lft.to/lastmile_qr_scan", "ios": "https://dc.lft.to/lastmile_qr_scan"}, "fusion_lon": 0.0, "lat": 38.8956025, "bike_id": "3055998503f633d05cbebc114f7031fa", "type": "electric_bike", "is_reserved": 0, "lon": -77.12737716666666}, {"fusion_lat": 0.0, "name": "50dc4a098e6d871c8f77bcdd132e0499", "is_disabled": 0, "rental_uris": {"android": "https://dc.lft.to/lastmile_qr_scan", "ios": "https://dc.lft.to/lastmile_qr_scan"}, "fusion_lon": 0.0, "lat": 38.881927833333336, "bike_id": "50dc4a098e6d871c8f77bcdd132e0499", "type": "electric_scooter", "is_reserved": 0, "lon": -77.00066116666666}, {"fusion_lat": 0.0, "name": "2c0752ee8c48e1789971927304299504", "is_disabled": 0, "rental_uris": {"android": "https://dc.lft.to/lastmile_qr_scan", "ios": "https://dc.lft.to/lastmile_qr_scan"}, "fusion_lon": 0.0, "lat": 38.9659085, "bike_id": "2c0752ee8c48e1789971927304299504", "type": "electric_scooter", "is_reserved": 0, "lon": -77.01592383333333}, {"fusion_lat": 0.0, "name": "f0615fba6727127d7e9fb198160c06bd", "is_disabled": 0, "rental_uris": {"android": "https://dc.lft.to/lastmile_qr_scan", "ios": "https://dc.lft.to/lastmile_qr_scan"}, "fusion_lon": 0.0, "lat": 38.914639333333334, "bike_id": "f0615fba6727127d7e9fb198160c06bd", "type": "electric_scooter", "is_reserved": 0, "lon": -76.98436883333333}, {"fusion_lat": 0.0, "name": "a3ef1affddcd68cb1ac5e23ce275a505", "is_disabled": 0, "rental_uris": {"android": "https://dc.lft.to/lastmile_qr_scan", "ios": "https://dc.lft.to/lastmile_qr_scan"}, "fusion_lon": 0.0, "lat": 38.883087, "bike_id": "a3ef1affddcd68cb1ac5e23ce275a505", "type": "electric_scooter", "is_reserved": 0, "lon": -76.994879}, {"fusion_lat": 0.0, "name": "9bb8ec7dd02706cd1bc49109f744e79d", "is_disabled": 0, "rental_uris": {"android": "https://dc.lft.to/lastmile_qr_scan", "ios": "https://dc.lft.to/lastmile_qr_scan"}, "fusion_lon": 0.0, "lat": 38.89847866666667, "bike_id": "9bb8ec7dd02706cd1bc49109f744e79d", "type": "electric_scooter", "is_reserved": 0, "lon": -77.04076966666666}, {"fusion_lat": 0.0, "name": "c50ae2be6bd4f7b1775e7d21d3747325", "is_disabled": 0, "rental_uris": {"android": "https://dc.lft.to/lastmile_qr_scan", "ios": "https://dc.lft.to/lastmile_qr_scan"}, "fusion_lon": 0.0, "lat": 38.933693833333336, "bike_id": "c50ae2be6bd4f7b1775e7d21d3747325", "type": "electric_scooter", "is_reserved": 0, "lon": -77.038883}, {"fusion_lat": 0.0, "name": "4ca7fdcc50993b7a40b7ab0419832d41", "is_disabled": 0, "rental_uris": {"android": "https://dc.lft.to/lastmile_qr_scan", "ios": "https://dc.lft.to/lastmile_qr_scan"}, "fusion_lon": 0.0, "lat": 38.8923, "bike_id": "4ca7fdcc50993b7a40b7ab0419832d41", "type": "electric_scooter", "is_reserved": 0, "lon": -77.0499845}, {"fusion_lat": 0.0, "name": "0d07c3d9dabb24af3a514f6cf8797857", "is_disabled": 0, "rental_uris": {"android": "https://dc.lft.to/lastmile_qr_scan", "ios": "https://dc.lft.to/lastmile_qr_scan"}, "fusion_lon": 0.0, "lat": 38.91954633333334, "bike_id": "0d07c3d9dabb24af3a514f6cf8797857", "type": "electric_scooter", "is_reserved": 0, "lon": -77.0321035}, {"fusion_lat": 0.0, "name": "88c637ccbe38ebdb0ceb5d9b6704882b", "is_disabled": 0, "rental_uris": {"android": "https://dc.lft.to/lastmile_qr_scan", "ios": "https://dc.lft.to/lastmile_qr_scan"}, "fusion_lon": 0.0, "lat": 38.920707166666666, "bike_id": "88c637ccbe38ebdb0ceb5d9b6704882b", "type": "electric_scooter", "is_reserved": 0, "lon": -77.00446583333333}, {"fusion_lat": 0.0, "name": "aafa53d31ff5231d103c5f293827b6c9", "is_disabled": 0, "rental_uris": {"android": "https://dc.lft.to/lastmile_qr_scan", "ios": "https://dc.lft.to/lastmile_qr_scan"}, "fusion_lon": 0.0, "lat": 38.8811625, "bike_id": "aafa53d31ff5231d103c5f293827b6c9", "type": "electric_scooter", "is_reserved": 0, "lon": -77.0164585}, {"fusion_lat": 0.0, "name": "b35981b68b5988b313a3e4e09bbeb757", "is_disabled": 0, "rental_uris": {"android": "https://dc.lft.to/lastmile_qr_scan", "ios": "https://dc.lft.to/lastmile_qr_scan"}, "fusion_lon": 0.0, "lat": 38.898253, "bike_id": "b35981b68b5988b313a3e4e09bbeb757", "type": "electric_scooter", "is_reserved": 0, "lon": -77.02933216666666}, {"fusion_lat": 0.0, "name": "c88cf92c5eecff175dbd83da10991b40", "is_disabled": 0, "rental_uris": {"android": "https://dc.lft.to/lastmile_qr_scan", "ios": "https://dc.lft.to/lastmile_qr_scan"}, "fusion_lon": 0.0, "lat": 38.914756833333335, "bike_id": "c88cf92c5eecff175dbd83da10991b40", "type": "electric_scooter", "is_reserved": 0, "lon": -77.032146}, {"fusion_lat": 0.0, "name": "b7cfaa7af1c46802e74286daffbbbafc", "is_disabled": 0, "rental_uris": {"android": "https://dc.lft.to/lastmile_qr_scan", "ios": "https://dc.lft.to/lastmile_qr_scan"}, "fusion_lon": 0.0, "lat": 38.917205, "bike_id": "b7cfaa7af1c46802e74286daffbbbafc", "type": "electric_scooter", "is_reserved": 0, "lon": -76.968726}, {"fusion_lat": 0.0, "name": "f7ebdd2d4f38140ad8c8d4799147a16f", "is_disabled": 0, "rental_uris": {"android": "https://dc.lft.to/lastmile_qr_scan", "ios": "https://dc.lft.to/lastmile_qr_scan"}, "fusion_lon": 0.0, "lat": 38.90533383333333, "bike_id": "f7ebdd2d4f38140ad8c8d4799147a16f", "type": "electric_scooter", "is_reserved": 0, "lon": -77.06141366666667}, {"fusion_lat": 0.0, "name": "8e8ace0edd20cc829992b89754101357", "is_disabled": 0, "rental_uris": {"android": "https://dc.lft.to/lastmile_qr_scan", "ios": "https://dc.lft.to/lastmile_qr_scan"}, "fusion_lon": 0.0, "lat": 38.913833833333335, "bike_id": "8e8ace0edd20cc829992b89754101357", "type": "electric_scooter", "is_reserved": 0, "lon": -77.03944133333333}, {"fusion_lat": 0.0, "name": "b5a92120dc212ea4245fd387b165702e", "is_disabled": 0, "rental_uris": {"android": "https://dc.lft.to/lastmile_qr_scan", "ios": "https://dc.lft.to/lastmile_qr_scan"}, "fusion_lon": 0.0, "lat": 38.9132, "bike_id": "b5a92120dc212ea4245fd387b165702e", "type": "electric_scooter", "is_reserved": 0, "lon": -77.047026}, {"fusion_lat": 0.0, "name": "29d63900d8b0ac6abbb510ae6eb2a97b", "is_disabled": 0, "rental_uris": {"android": "https://dc.lft.to/lastmile_qr_scan", "ios": "https://dc.lft.to/lastmile_qr_scan"}, "fusion_lon": 0.0, "lat": 38.910225, "bike_id": "29d63900d8b0ac6abbb510ae6eb2a97b", "type": "electric_scooter", "is_reserved": 0, "lon": -77.00754416666666}, {"fusion_lat": 0.0, "name": "8b67d005528ad550e7016da9b581f31e", "is_disabled": 0, "rental_uris": {"android": "https://dc.lft.to/lastmile_qr_scan", "ios": "https://dc.lft.to/lastmile_qr_scan"}, "fusion_lon": 0.0, "lat": 38.9000485, "bike_id": "8b67d005528ad550e7016da9b581f31e", "type": "electric_scooter", "is_reserved": 0, "lon": -76.994489}, {"fusion_lat": 0.0, "name": "11df2271b4e5356c654aca97064e7125", "is_disabled": 0, "rental_uris": {"android": "https://dc.lft.to/lastmile_qr_scan", "ios": "https://dc.lft.to/lastmile_qr_scan"}, "fusion_lon": 0.0, "lat": 38.91555483333333, "bike_id": "11df2271b4e5356c654aca97064e7125", "type": "electric_scooter", "is_reserved": 0, "lon": -77.03175216666666}, {"fusion_lat": 0.0, "name": "bb48eebd36a9f3fadd5a862e10b6f3cb", "is_disabled": 0, "rental_uris": {"android": "https://dc.lft.to/lastmile_qr_scan", "ios": "https://dc.lft.to/lastmile_qr_scan"}, "fusion_lon": 0.0, "lat": 38.913224666666665, "bike_id": "bb48eebd36a9f3fadd5a862e10b6f3cb", "type": "electric_scooter", "is_reserved": 0, "lon": -77.021543}, {"fusion_lat": 0.0, "name": "b8c4a706929eabfb66bba10d0173e714", "is_disabled": 0, "rental_uris": {"android": "https://dc.lft.to/lastmile_qr_scan", "ios": "https://dc.lft.to/lastmile_qr_scan"}, "fusion_lon": 0.0, "lat": 38.920443666666664, "bike_id": "b8c4a706929eabfb66bba10d0173e714", "type": "electric_scooter", "is_reserved": 0, "lon": -77.03469266666667}, {"fusion_lat": 0.0, "name": "dffaec527dd666ff422bba066f05d087", "is_disabled": 0, "rental_uris": {"android": "https://dc.lft.to/lastmile_qr_scan", "ios": "https://dc.lft.to/lastmile_qr_scan"}, "fusion_lon": 0.0, "lat": 38.87963666666667, "bike_id": "dffaec527dd666ff422bba066f05d087", "type": "electric_bike", "is_reserved": 0, "lon": -76.91615283333333}, {"fusion_lat": 0.0, "name": "45317bf2bf44bba773775d0e237726fb", "is_disabled": 0, "rental_uris": {"android": "https://dc.lft.to/lastmile_qr_scan", "ios": "https://dc.lft.to/lastmile_qr_scan"}, "fusion_lon": 0.0, "lat": 38.917989, "bike_id": "45317bf2bf44bba773775d0e237726fb", "type": "electric_scooter", "is_reserved": 0, "lon": -77.03303333333334}, {"fusion_lat": 0.0, "name": "76533076b2633bdee75339fb45102a0e", "is_disabled": 0, "rental_uris": {"android": "https://dc.lft.to/lastmile_qr_scan", "ios": "https://dc.lft.to/lastmile_qr_scan"}, "fusion_lon": 0.0, "lat": 38.93871866666667, "bike_id": "76533076b2633bdee75339fb45102a0e", "type": "electric_scooter", "is_reserved": 0, "lon": -77.02464733333333}, {"fusion_lat": 0.0, "name": "b6b7297a8ebf10518dff3153e7dbcc95", "is_disabled": 0, "rental_uris": {"android": "https://dc.lft.to/lastmile_qr_scan", "ios": "https://dc.lft.to/lastmile_qr_scan"}, "fusion_lon": 0.0, "lat": 38.92414633333333, "bike_id": "b6b7297a8ebf10518dff3153e7dbcc95", "type": "electric_scooter", "is_reserved": 0, "lon": -77.01960416666667}, {"fusion_lat": 0.0, "name": "6fdeb1ee453865ecb3ba088a363d0063", "is_disabled": 0, "rental_uris": {"android": "https://dc.lft.to/lastmile_qr_scan", "ios": "https://dc.lft.to/lastmile_qr_scan"}, "fusion_lon": 0.0, "lat": 38.91499916666667, "bike_id": "6fdeb1ee453865ecb3ba088a363d0063", "type": "electric_scooter", "is_reserved": 0, "lon": -77.03211683333333}, {"fusion_lat": 0.0, "name": "93053d769b7c490483b8dddd37496ddc", "is_disabled": 0, "rental_uris": {"android": "https://dc.lft.to/lastmile_qr_scan", "ios": "https://dc.lft.to/lastmile_qr_scan"}, "fusion_lon": 0.0, "lat": 38.89719933333333, "bike_id": "93053d769b7c490483b8dddd37496ddc", "type": "electric_scooter", "is_reserved": 0, "lon": -77.02158533333333}, {"fusion_lat": 0.0, "name": "bc5a0f221f8a94f9146bee1aa5251cfb", "is_disabled": 0, "rental_uris": {"android": "https://dc.lft.to/lastmile_qr_scan", "ios": "https://dc.lft.to/lastmile_qr_scan"}, "fusion_lon": 0.0, "lat": 38.917899166666665, "bike_id": "bc5a0f221f8a94f9146bee1aa5251cfb", "type": "electric_scooter", "is_reserved": 0, "lon": -77.0402655}, {"fusion_lat": 0.0, "name": "70d131168893cf33256e70a71c431865", "is_disabled": 0, "rental_uris": {"android": "https://dc.lft.to/lastmile_qr_scan", "ios": "https://dc.lft.to/lastmile_qr_scan"}, "fusion_lon": 0.0, "lat": 38.916858500000004, "bike_id": "70d131168893cf33256e70a71c431865", "type": "electric_scooter", "is_reserved": 0, "lon": -77.02958916666667}, {"fusion_lat": 0.0, "name": "b3cb0b427af77183cb26d00c51756cc4", "is_disabled": 0, "rental_uris": {"android": "https://dc.lft.to/lastmile_qr_scan", "ios": "https://dc.lft.to/lastmile_qr_scan"}, "fusion_lon": 0.0, "lat": 38.9001055, "bike_id": "b3cb0b427af77183cb26d00c51756cc4", "type": "electric_scooter", "is_reserved": 0, "lon": -76.99838716666666}, {"fusion_lat": 0.0, "name": "af192bfd270ffe27c5337bca266f82c0", "is_disabled": 0, "rental_uris": {"android": "https://dc.lft.to/lastmile_qr_scan", "ios": "https://dc.lft.to/lastmile_qr_scan"}, "fusion_lon": 0.0, "lat": 38.92678, "bike_id": "af192bfd270ffe27c5337bca266f82c0", "type": "electric_scooter", "is_reserved": 0, "lon": -77.03564916666667}, {"fusion_lat": 0.0, "name": "683a254744056cbf355c378612f52c32", "is_disabled": 0, "rental_uris": {"android": "https://dc.lft.to/lastmile_qr_scan", "ios": "https://dc.lft.to/lastmile_qr_scan"}, "fusion_lon": 0.0, "lat": 38.896118666666666, "bike_id": "683a254744056cbf355c378612f52c32", "type": "electric_scooter", "is_reserved": 0, "lon": -77.02204333333333}, {"fusion_lat": 0.0, "name": "038f781e3ec8896c5e66cc9e3db0f703", "is_disabled": 0, "rental_uris": {"android": "https://dc.lft.to/lastmile_qr_scan", "ios": "https://dc.lft.to/lastmile_qr_scan"}, "fusion_lon": 0.0, "lat": 39.03900316666667, "bike_id": "038f781e3ec8896c5e66cc9e3db0f703", "type": "electric_bike", "is_reserved": 0, "lon": -77.05039633333334}, {"fusion_lat": 0.0, "name": "7f0e0bc9cb776c24fd4546c2e8c5077e", "is_disabled": 0, "rental_uris": {"android": "https://dc.lft.to/lastmile_qr_scan", "ios": "https://dc.lft.to/lastmile_qr_scan"}, "fusion_lon": 0.0, "lat": 38.914241, "bike_id": "7f0e0bc9cb776c24fd4546c2e8c5077e", "type": "electric_scooter", "is_reserved": 0, "lon": -76.98446733333333}, {"fusion_lat": 0.0, "name": "b5a2fa0f54c88bfb91671672e3bc3bbd", "is_disabled": 0, "rental_uris": {"android": "https://dc.lft.to/lastmile_qr_scan", "ios": "https://dc.lft.to/lastmile_qr_scan"}, "fusion_lon": 0.0, "lat": 38.87485366666667, "bike_id": "b5a2fa0f54c88bfb91671672e3bc3bbd", "type": "electric_scooter", "is_reserved": 0, "lon": -77.00030566666666}, {"fusion_lat": 0.0, "name": "a670e204102cbefc9b002281b57dcf7c", "is_disabled": 0, "rental_uris": {"android": "https://dc.lft.to/lastmile_qr_scan", "ios": "https://dc.lft.to/lastmile_qr_scan"}, "fusion_lon": 0.0, "lat": 38.878347833333336, "bike_id": "a670e204102cbefc9b002281b57dcf7c", "type": "electric_scooter", "is_reserved": 0, "lon": -76.99037983333334}, {"fusion_lat": 0.0, "name": "9629dd7844fb771b5e8435698c1b4d6e", "is_disabled": 0, "rental_uris": {"android": "https://dc.lft.to/lastmile_qr_scan", "ios": "https://dc.lft.to/lastmile_qr_scan"}, "fusion_lon": 0.0, "lat": 38.90048633333333, "bike_id": "9629dd7844fb771b5e8435698c1b4d6e", "type": "electric_scooter", "is_reserved": 0, "lon": -77.04484733333334}, {"fusion_lat": 0.0, "name": "ef37b84d6a885c949209bda91500d74b", "is_disabled": 0, "rental_uris": {"android": "https://dc.lft.to/lastmile_qr_scan", "ios": "https://dc.lft.to/lastmile_qr_scan"}, "fusion_lon": 0.0, "lat": 38.920394, "bike_id": "ef37b84d6a885c949209bda91500d74b", "type": "electric_scooter", "is_reserved": 0, "lon": -77.01222233333333}, {"fusion_lat": 0.0, "name": "1f2d747c08849cf6ee60bdb5104f2ac1", "is_disabled": 0, "rental_uris": {"android": "https://dc.lft.to/lastmile_qr_scan", "ios": "https://dc.lft.to/lastmile_qr_scan"}, "fusion_lon": 0.0, "lat": 38.938600666666666, "bike_id": "1f2d747c08849cf6ee60bdb5104f2ac1", "type": "electric_scooter", "is_reserved": 0, "lon": -77.0320695}, {"fusion_lat": 0.0, "name": "20e8a4563730d0b5cf8d91561a22360e", "is_disabled": 0, "rental_uris": {"android": "https://dc.lft.to/lastmile_qr_scan", "ios": "https://dc.lft.to/lastmile_qr_scan"}, "fusion_lon": 0.0, "lat": 38.853609666666664, "bike_id": "20e8a4563730d0b5cf8d91561a22360e", "type": "electric_bike", "is_reserved": 0, "lon": -77.11482766666667}, {"fusion_lat": 0.0, "name": "edcc385007c79b87d7e454d51c1b1147", "is_disabled": 0, "rental_uris": {"android": "https://dc.lft.to/lastmile_qr_scan", "ios": "https://dc.lft.to/lastmile_qr_scan"}, "fusion_lon": 0.0, "lat": 38.929803166666666, "bike_id": "edcc385007c79b87d7e454d51c1b1147", "type": "electric_scooter", "is_reserved": 0, "lon": -77.03260116666667}, {"fusion_lat": 0.0, "name": "3a762bf83a99ef0b2806599aeba4bfae", "is_disabled": 0, "rental_uris": {"android": "https://dc.lft.to/lastmile_qr_scan", "ios": "https://dc.lft.to/lastmile_qr_scan"}, "fusion_lon": 0.0, "lat": 38.913978666666665, "bike_id": "3a762bf83a99ef0b2806599aeba4bfae", "type": "electric_scooter", "is_reserved": 0, "lon": -77.031761}, {"fusion_lat": 0.0, "name": "e39ed2f30f4f5a7dff2439de22c4519f", "is_disabled": 0, "rental_uris": {"android": "https://dc.lft.to/lastmile_qr_scan", "ios": "https://dc.lft.to/lastmile_qr_scan"}, "fusion_lon": 0.0, "lat": 38.904742166666665, "bike_id": "e39ed2f30f4f5a7dff2439de22c4519f", "type": "electric_scooter", "is_reserved": 0, "lon": -76.95204383333333}, {"fusion_lat": 0.0, "name": "0eff5c06b201fa7bdd35586b4b82874c", "is_disabled": 0, "rental_uris": {"android": "https://dc.lft.to/lastmile_qr_scan", "ios": "https://dc.lft.to/lastmile_qr_scan"}, "fusion_lon": 0.0, "lat": 38.90072833333333, "bike_id": "0eff5c06b201fa7bdd35586b4b82874c", "type": "electric_scooter", "is_reserved": 0, "lon": -77.047543}, {"fusion_lat": 0.0, "name": "f6039189a07e3340bfdbcbdc73f178c0", "is_disabled": 0, "rental_uris": {"android": "https://dc.lft.to/lastmile_qr_scan", "ios": "https://dc.lft.to/lastmile_qr_scan"}, "fusion_lon": 0.0, "lat": 38.89460183333333, "bike_id": "f6039189a07e3340bfdbcbdc73f178c0", "type": "electric_scooter", "is_reserved": 0, "lon": -77.0109265}, {"fusion_lat": 0.0, "name": "859e4ebbf90f5285628b616b2d5c159b", "is_disabled": 0, "rental_uris": {"android": "https://dc.lft.to/lastmile_qr_scan", "ios": "https://dc.lft.to/lastmile_qr_scan"}, "fusion_lon": 0.0, "lat": 38.94588433333333, "bike_id": "859e4ebbf90f5285628b616b2d5c159b", "type": "electric_bike", "is_reserved": 0, "lon": -77.06458616666667}, {"fusion_lat": 0.0, "name": "4e829045f5d329dfa39970705611b7bb", "is_disabled": 0, "rental_uris": {"android": "https://dc.lft.to/lastmile_qr_scan", "ios": "https://dc.lft.to/lastmile_qr_scan"}, "fusion_lon": 0.0, "lat": 38.95549616666667, "bike_id": "4e829045f5d329dfa39970705611b7bb", "type": "electric_bike", "is_reserved": 0, "lon": -77.06933833333333}, {"fusion_lat": 0.0, "name": "4feb25e9c68bb90fe2fb1b790892d94f", "is_disabled": 0, "rental_uris": {"android": "https://dc.lft.to/lastmile_qr_scan", "ios": "https://dc.lft.to/lastmile_qr_scan"}, "fusion_lon": 0.0, "lat": 38.886204166666666, "bike_id": "4feb25e9c68bb90fe2fb1b790892d94f", "type": "electric_scooter", "is_reserved": 0, "lon": -77.0152825}, {"fusion_lat": 0.0, "name": "7775846cc1142ba88ea24db1c26f2cd4", "is_disabled": 0, "rental_uris": {"android": "https://dc.lft.to/lastmile_qr_scan", "ios": "https://dc.lft.to/lastmile_qr_scan"}, "fusion_lon": 0.0, "lat": 38.90498016666667, "bike_id": "7775846cc1142ba88ea24db1c26f2cd4", "type": "electric_scooter", "is_reserved": 0, "lon": -77.046555}, {"fusion_lat": 0.0, "name": "32b364ffe4b1f217a0aa7baff800a662", "is_disabled": 0, "rental_uris": {"android": "https://dc.lft.to/lastmile_qr_scan", "ios": "https://dc.lft.to/lastmile_qr_scan"}, "fusion_lon": 0.0, "lat": 38.905253, "bike_id": "32b364ffe4b1f217a0aa7baff800a662", "type": "electric_scooter", "is_reserved": 0, "lon": -77.05935316666667}, {"fusion_lat": 0.0, "name": "3d15788e49a73b29cc2733613e3846c6", "is_disabled": 0, "rental_uris": {"android": "https://dc.lft.to/lastmile_qr_scan", "ios": "https://dc.lft.to/lastmile_qr_scan"}, "fusion_lon": 0.0, "lat": 38.9507485, "bike_id": "3d15788e49a73b29cc2733613e3846c6", "type": "electric_bike", "is_reserved": 0, "lon": -77.0119345}, {"fusion_lat": 0.0, "name": "fa3386cefaf0a9cb4545fbacf0c2db5a", "is_disabled": 0, "rental_uris": {"android": "https://dc.lft.to/lastmile_qr_scan", "ios": "https://dc.lft.to/lastmile_qr_scan"}, "fusion_lon": 0.0, "lat": 38.9234835, "bike_id": "fa3386cefaf0a9cb4545fbacf0c2db5a", "type": "electric_scooter", "is_reserved": 0, "lon": -77.04166733333334}, {"fusion_lat": 0.0, "name": "4986dafd0ad5f97fcc31c292a9c907d7", "is_disabled": 0, "rental_uris": {"android": "https://dc.lft.to/lastmile_qr_scan", "ios": "https://dc.lft.to/lastmile_qr_scan"}, "fusion_lon": 0.0, "lat": 38.957326333333334, "bike_id": "4986dafd0ad5f97fcc31c292a9c907d7", "type": "electric_bike", "is_reserved": 0, "lon": -76.9808235}, {"fusion_lat": 0.0, "name": "64becce994e70399d06a1b7d6ce85025", "is_disabled": 0, "rental_uris": {"android": "https://dc.lft.to/lastmile_qr_scan", "ios": "https://dc.lft.to/lastmile_qr_scan"}, "fusion_lon": 0.0, "lat": 38.92195983333333, "bike_id": "64becce994e70399d06a1b7d6ce85025", "type": "electric_scooter", "is_reserved": 0, "lon": -77.080866}, {"fusion_lat": 0.0, "name": "c4dbd7b1e5ebe2561e3af27a87ec4944", "is_disabled": 0, "rental_uris": {"android": "https://dc.lft.to/lastmile_qr_scan", "ios": "https://dc.lft.to/lastmile_qr_scan"}, "fusion_lon": 0.0, "lat": 38.93605733333333, "bike_id": "c4dbd7b1e5ebe2561e3af27a87ec4944", "type": "electric_scooter", "is_reserved": 0, "lon": -77.0319845}, {"fusion_lat": 0.0, "name": "ac38985424538a72443da25f07e391d8", "is_disabled": 0, "rental_uris": {"android": "https://dc.lft.to/lastmile_qr_scan", "ios": "https://dc.lft.to/lastmile_qr_scan"}, "fusion_lon": 0.0, "lat": 38.889896, "bike_id": "ac38985424538a72443da25f07e391d8", "type": "electric_scooter", "is_reserved": 0, "lon": -76.9141755}, {"fusion_lat": 0.0, "name": "2ed1c4d24a91aea9065fb9f1806cb477", "is_disabled": 0, "rental_uris": {"android": "https://dc.lft.to/lastmile_qr_scan", "ios": "https://dc.lft.to/lastmile_qr_scan"}, "fusion_lon": 0.0, "lat": 38.88745883333333, "bike_id": "2ed1c4d24a91aea9065fb9f1806cb477", "type": "electric_scooter", "is_reserved": 0, "lon": -77.02447533333333}, {"fusion_lat": 0.0, "name": "de73b3a820b5f1fcec3be5edeaf1062c", "is_disabled": 0, "rental_uris": {"android": "https://dc.lft.to/lastmile_qr_scan", "ios": "https://dc.lft.to/lastmile_qr_scan"}, "fusion_lon": 0.0, "lat": 38.915675, "bike_id": "de73b3a820b5f1fcec3be5edeaf1062c", "type": "electric_scooter", "is_reserved": 0, "lon": -77.03850333333334}, {"fusion_lat": 0.0, "name": "e54b34837cd25225b521803c9d96c7cf", "is_disabled": 0, "rental_uris": {"android": "https://dc.lft.to/lastmile_qr_scan", "ios": "https://dc.lft.to/lastmile_qr_scan"}, "fusion_lon": 0.0, "lat": 38.906167833333335, "bike_id": "e54b34837cd25225b521803c9d96c7cf", "type": "electric_scooter", "is_reserved": 0, "lon": -77.03702116666666}, {"fusion_lat": 0.0, "name": "61e8654359f12b990abec861d406882d", "is_disabled": 0, "rental_uris": {"android": "https://dc.lft.to/lastmile_qr_scan", "ios": "https://dc.lft.to/lastmile_qr_scan"}, "fusion_lon": 0.0, "lat": 38.92531266666667, "bike_id": "61e8654359f12b990abec861d406882d", "type": "electric_scooter", "is_reserved": 0, "lon": -77.03825233333333}, {"fusion_lat": 0.0, "name": "51e1fdb1c1b4146954d9f62d4d6abd66", "is_disabled": 0, "rental_uris": {"android": "https://dc.lft.to/lastmile_qr_scan", "ios": "https://dc.lft.to/lastmile_qr_scan"}, "fusion_lon": 0.0, "lat": 38.938681833333334, "bike_id": "51e1fdb1c1b4146954d9f62d4d6abd66", "type": "electric_scooter", "is_reserved": 0, "lon": -77.0246565}, {"fusion_lat": 0.0, "name": "4f7fc2cdf0056926e36009a61b321758", "is_disabled": 0, "rental_uris": {"android": "https://dc.lft.to/lastmile_qr_scan", "ios": "https://dc.lft.to/lastmile_qr_scan"}, "fusion_lon": 0.0, "lat": 38.898760333333335, "bike_id": "4f7fc2cdf0056926e36009a61b321758", "type": "electric_scooter", "is_reserved": 0, "lon": -77.01515183333333}, {"fusion_lat": 0.0, "name": "8920948fee943d743486c76f240f2b39", "is_disabled": 0, "rental_uris": {"android": "https://dc.lft.to/lastmile_qr_scan", "ios": "https://dc.lft.to/lastmile_qr_scan"}, "fusion_lon": 0.0, "lat": 38.900889, "bike_id": "8920948fee943d743486c76f240f2b39", "type": "electric_scooter", "is_reserved": 0, "lon": -76.98333233333334}, {"fusion_lat": 0.0, "name": "42894fd689c17114da555db686a25b7d", "is_disabled": 0, "rental_uris": {"android": "https://dc.lft.to/lastmile_qr_scan", "ios": "https://dc.lft.to/lastmile_qr_scan"}, "fusion_lon": 0.0, "lat": 38.910356666666665, "bike_id": "42894fd689c17114da555db686a25b7d", "type": "electric_scooter", "is_reserved": 0, "lon": -77.00830716666667}, {"fusion_lat": 0.0, "name": "6da219ebce3502042cf93fa3c17518b2", "is_disabled": 0, "rental_uris": {"android": "https://dc.lft.to/lastmile_qr_scan", "ios": "https://dc.lft.to/lastmile_qr_scan"}, "fusion_lon": 0.0, "lat": 38.938691166666665, "bike_id": "6da219ebce3502042cf93fa3c17518b2", "type": "electric_scooter", "is_reserved": 0, "lon": -77.02461433333333}, {"fusion_lat": 0.0, "name": "adb4cf821d2a64c6b7f0c5b3900f403c", "is_disabled": 0, "rental_uris": {"android": "https://dc.lft.to/lastmile_qr_scan", "ios": "https://dc.lft.to/lastmile_qr_scan"}, "fusion_lon": 0.0, "lat": 38.897250666666665, "bike_id": "adb4cf821d2a64c6b7f0c5b3900f403c", "type": "electric_scooter", "is_reserved": 0, "lon": -77.00755766666667}, {"fusion_lat": 0.0, "name": "375309b37975f9b0bbea5c15e09135e0", "is_disabled": 0, "rental_uris": {"android": "https://dc.lft.to/lastmile_qr_scan", "ios": "https://dc.lft.to/lastmile_qr_scan"}, "fusion_lon": 0.0, "lat": 38.918394166666666, "bike_id": "375309b37975f9b0bbea5c15e09135e0", "type": "electric_scooter", "is_reserved": 0, "lon": -77.06371133333333}, {"fusion_lat": 0.0, "name": "7fc37d2b4c25732727126e8b7eb46b33", "is_disabled": 0, "rental_uris": {"android": "https://dc.lft.to/lastmile_qr_scan", "ios": "https://dc.lft.to/lastmile_qr_scan"}, "fusion_lon": 0.0, "lat": 38.9381995, "bike_id": "7fc37d2b4c25732727126e8b7eb46b33", "type": "electric_scooter", "is_reserved": 0, "lon": -77.02648333333333}, {"fusion_lat": 0.0, "name": "48c4eefac92c9e173ab5e4e8a80fa4c6", "is_disabled": 0, "rental_uris": {"android": "https://dc.lft.to/lastmile_qr_scan", "ios": "https://dc.lft.to/lastmile_qr_scan"}, "fusion_lon": 0.0, "lat": 38.903559333333334, "bike_id": "48c4eefac92c9e173ab5e4e8a80fa4c6", "type": "electric_scooter", "is_reserved": 0, "lon": -76.97480266666666}, {"fusion_lat": 0.0, "name": "4c4132695378d80d2c812b4395a24cf1", "is_disabled": 0, "rental_uris": {"android": "https://dc.lft.to/lastmile_qr_scan", "ios": "https://dc.lft.to/lastmile_qr_scan"}, "fusion_lon": 0.0, "lat": 38.973664666666664, "bike_id": "4c4132695378d80d2c812b4395a24cf1", "type": "electric_scooter", "is_reserved": 0, "lon": -77.01296666666667}, {"fusion_lat": 0.0, "name": "876de66d47d79ff9a3f2a9426ee4b00d", "is_disabled": 0, "rental_uris": {"android": "https://dc.lft.to/lastmile_qr_scan", "ios": "https://dc.lft.to/lastmile_qr_scan"}, "fusion_lon": 0.0, "lat": 38.89816233333333, "bike_id": "876de66d47d79ff9a3f2a9426ee4b00d", "type": "electric_scooter", "is_reserved": 0, "lon": -77.0467385}, {"fusion_lat": 0.0, "name": "8f4a6aa09dd56c2b652f8e3196c9d1f9", "is_disabled": 0, "rental_uris": {"android": "https://dc.lft.to/lastmile_qr_scan", "ios": "https://dc.lft.to/lastmile_qr_scan"}, "fusion_lon": 0.0, "lat": 38.900891333333334, "bike_id": "8f4a6aa09dd56c2b652f8e3196c9d1f9", "type": "electric_scooter", "is_reserved": 0, "lon": -77.0505425}, {"fusion_lat": 0.0, "name": "6aa8713aa5339cf595ed4f7f0d0ab7b0", "is_disabled": 0, "rental_uris": {"android": "https://dc.lft.to/lastmile_qr_scan", "ios": "https://dc.lft.to/lastmile_qr_scan"}, "fusion_lon": 0.0, "lat": 38.9092955, "bike_id": "6aa8713aa5339cf595ed4f7f0d0ab7b0", "type": "electric_scooter", "is_reserved": 0, "lon": -77.0625165}, {"fusion_lat": 0.0, "name": "d9e9aa7b45581620d5d30f91ff68910e", "is_disabled": 0, "rental_uris": {"android": "https://dc.lft.to/lastmile_qr_scan", "ios": "https://dc.lft.to/lastmile_qr_scan"}, "fusion_lon": 0.0, "lat": 38.876405, "bike_id": "d9e9aa7b45581620d5d30f91ff68910e", "type": "electric_scooter", "is_reserved": 0, "lon": -77.00735633333333}, {"fusion_lat": 0.0, "name": "fdeb4c7bc55a613a3d34131d8bb363f6", "is_disabled": 0, "rental_uris": {"android": "https://dc.lft.to/lastmile_qr_scan", "ios": "https://dc.lft.to/lastmile_qr_scan"}, "fusion_lon": 0.0, "lat": 38.86509483333333, "bike_id": "fdeb4c7bc55a613a3d34131d8bb363f6", "type": "electric_bike", "is_reserved": 0, "lon": -76.97311383333333}, {"fusion_lat": 0.0, "name": "80114c41e7132cd8dfbb73cd67a5d685", "is_disabled": 0, "rental_uris": {"android": "https://dc.lft.to/lastmile_qr_scan", "ios": "https://dc.lft.to/lastmile_qr_scan"}, "fusion_lon": 0.0, "lat": 38.928113833333335, "bike_id": "80114c41e7132cd8dfbb73cd67a5d685", "type": "electric_scooter", "is_reserved": 0, "lon": -77.043593},