{"data": {"bikes": [{"fusion_lat": 0.0, "fusion_lon": 0.0, "rental_uris": {"android": "https://dc.lft.to/lastmile_qr_scan", "ios": "https://dc.lft.to/lastmile_qr_scan"}, "lon": -77.04241866666666, "name": "81c6aa9ae9cfa85dbcc54e1eda6049e2", "is_disabled": 0, "is_reserved": 0, "bike_id": "81c6aa9ae9cfa85dbcc54e1eda6049e2", "lat": 38.906984666666666, "type": "electric_scooter"}, {"fusion_lat": 0.0, "fusion_lon": 0.0, "rental_uris": {"android": "https://dc.lft.to/lastmile_qr_scan", "ios": "https://dc.lft.to/lastmile_qr_scan"}, "lon": -77.03359, "name": "3077c07002a7d0a1ed94fe21c8c7ea45", "is_disabled": 0, "is_reserved": 0, "bike_id": "3077c07002a7d0a1ed94fe21c8c7ea45", "lat": 38.8869255, "type": "electric_scooter"}, {"fusion_lat": 0.0, "fusion_lon": 0.0, "rental_uris": {"android": "https://dc.lft.to/lastmile_qr_scan", "ios": "https://dc.lft.to/lastmile_qr_scan"}, "lon": -77.024772, "name": "57361e90c54e41aadd3851e946404f3a", "is_disabled": 0, "is_reserved": 0, "bike_id": "57361e90c54e41aadd3851e946404f3a", "lat": 38.93849933333333, "type": "electric_scooter"}, {"fusion_lat": 0.0, "fusion_lon": 0.0, "rental_uris": {"android": "https://dc.lft.to/lastmile_qr_scan", "ios": "https://dc.lft.to/lastmile_qr_scan"}, "lon": -77.01604516666667, "name": "ce48885e3622305e1ffffd8d61eb9abb", "is_disabled": 0, "is_reserved": 0, "bike_id": "ce48885e3622305e1ffffd8d61eb9abb", "lat": 38.89553883333333, "type": "electric_scooter"}, {"fusion_lat": 0.0, "fusion_lon": 0.0, "rental_uris": {"android": "https://dc.lft.to/lastmile_qr_scan", "ios": "https://dc.lft.to/lastmile_qr_scan"}, "lon": -77.02386033333333, "name": "dde827f19478e51c7c942f5ef77382e9", "is_disabled": 0, "is_reserved": 0, "bike_id": "dde827f19478e51c7c942f5ef77382e9", "lat": 38.91289416666667, "type": "electric_scooter"}, {"fusion_lat": 0.0, "fusion_lon": 0.0, "rental_uris": {"android": "https://dc.lft.to/lastmile_qr_scan", "ios": "https://dc.lft.to/lastmile_qr_scan"}, "lon": -77.02507166666666, "name": "b5a7fd51a9e6db973ebca42cd40d1099", "is_disabled": 0, "is_reserved": 0, "bike_id": "b5a7fd51a9e6db973ebca42cd40d1099", "lat": 38.918064666666666, "type": "electric_scooter"}, {"fusion_lat": 0.0, "fusion_lon": 0.0, "rental_uris": {"android": "https://dc.lft.to/lastmile_qr_scan", "ios": "https://dc.lft.to/lastmile_qr_scan"}, "lon": -77.04730166666667, "name": "c6636ea75c1fffcc02f97fac072a14b1", "is_disabled": 0, "is_reserved": 0, "bike_id": "c6636ea75c1fffcc02f97fac072a14b1", "lat": 38.9018595, "type": "electric_scooter"}, {"fusion_lat": 0.0, "fusion_lon": 0.0, "rental_uris": {"android": "https://dc.lft.to/lastmile_qr_scan", "ios": "https://dc.lft.to/lastmile_qr_scan"}, "lon": -76.93215816666667, "name": "103407c01cd5936c69a1578ecf5cd9c9", "is_disabled": 0, "is_reserved": 0, "bike_id": "103407c01cd5936c69a1578ecf5cd9c9", "lat": 38.89666366666667, "type": "electric_scooter"}, {"fusion_lat": 0.0, "fusion_lon": 0.0, "rental_uris": {"android": "https://dc.lft.to/lastmile_qr_scan", "ios": "https://dc.lft.to/lastmile_qr_scan"}, "lon": -76.99628066666666, "name": "092a14ea7b37f3c911c00d3190e505e6", "is_disabled": 0, "is_reserved": 0, "bike_id": "092a14ea7b37f3c911c00d3190e505e6", "lat": 38.90062066666667, "type": "electric_scooter"}, {"fusion_lat": 0.0, "fusion_lon": 0.0, "rental_uris": {"android": "https://dc.lft.to/lastmile_qr_scan", "ios": "https://dc.lft.to/lastmile_qr_scan"}, "lon": -77.0401505, "name": "55ac7707e6274b56e1df02d4b772b21e", "is_disabled": 0, "is_reserved": 0, "bike_id": "55ac7707e6274b56e1df02d4b772b21e", "lat": 38.921933333333335, "type": "electric_scooter"}, {"fusion_lat": 0.0, "fusion_lon": 0.0, "rental_uris": {"android": "https://dc.lft.to/lastmile_qr_scan", "ios": "https://dc.lft.to/lastmile_qr_scan"}, "lon": -76.98738266666666, "name": "099706e826368bb0d1db44ba3f874650", "is_disabled": 0, "is_reserved": 0, "bike_id": "099706e826368bb0d1db44ba3f874650", "lat": 38.90026966666667, "type": "electric_scooter"}, {"fusion_lat": 0.0, "fusion_lon": 0.0, "rental_uris": {"android": "https://dc.lft.to/lastmile_qr_scan", "ios": "https://dc.lft.to/lastmile_qr_scan"}, "lon": -77.0345435, "name": "37a573314b1c981af2b66a2e7c930404", "is_disabled": 0, "is_reserved": 0, "bike_id": "37a573314b1c981af2b66a2e7c930404", "lat": 38.902973833333334, "type": "electric_scooter"}, {"fusion_lat": 0.0, "fusion_lon": 0.0, "rental_uris": {"android": "https://dc.lft.to/lastmile_qr_scan", "ios": "https://dc.lft.to/lastmile_qr_scan"}, "lon": -77.03335216666666, "name": "175027d34e6abf2b06615a45df9a4ef4", "is_disabled": 0, "is_reserved": 0, "bike_id": "175027d34e6abf2b06615a45df9a4ef4", "lat": 38.90272066666667, "type": "electric_bike"}, {"fusion_lat": 0.0, "fusion_lon": 0.0, "rental_uris": {"android": "https://dc.lft.to/lastmile_qr_scan", "ios": "https://dc.lft.to/lastmile_qr_scan"}, "lon": -77.01433916666667, "name": "4afdbbf5e95ebf23d3427fbe48e64ae9", "is_disabled": 0, "is_reserved": 0, "bike_id": "4afdbbf5e95ebf23d3427fbe48e64ae9", "lat": 38.9147025, "type": "electric_scooter"}, {"fusion_lat": 0.0, "fusion_lon": 0.0, "rental_uris": {"android": "https://dc.lft.to/lastmile_qr_scan", "ios": "https://dc.lft.to/lastmile_qr_scan"}, "lon": -77.0484945, "name": "a317cf38f53018be0445065907d7fde7", "is_disabled": 0, "is_reserved": 0, "bike_id": "a317cf38f53018be0445065907d7fde7", "lat": 38.91522366666667, "type": "electric_scooter"}, {"fusion_lat": 0.0, "fusion_lon": 0.0, "rental_uris": {"android": "https://dc.lft.to/lastmile_qr_scan", "ios": "https://dc.lft.to/lastmile_qr_scan"}, "lon": -76.983356, "name": "38504e2e2fcb0549d06d275e4a22b4d6", "is_disabled": 0, "is_reserved": 0, "bike_id": "38504e2e2fcb0549d06d275e4a22b4d6", "lat": 38.865626166666665, "type": "electric_scooter"}, {"fusion_lat": 0.0, "fusion_lon": 0.0, "rental_uris": {"android": "https://dc.lft.to/lastmile_qr_scan", "ios": "https://dc.lft.to/lastmile_qr_scan"}, "lon": -77.07752483333333, "name": "61357e778dc4bab75851e1136d53c7e2", "is_disabled": 0, "is_reserved": 0, "bike_id": "61357e778dc4bab75851e1136d53c7e2", "lat": 38.91998683333333, "type": "electric_scooter"}, {"fusion_lat": 0.0, "fusion_lon": 0.0, "rental_uris": {"android": "https://dc.lft.to/lastmile_qr_scan", "ios": "https://dc.lft.to/lastmile_qr_scan"}, "lon": -77.04691916666667, "name": "ec38a5726e14021e718e0826999415ee", "is_disabled": 0, "is_reserved": 0, "bike_id": "ec38a5726e14021e718e0826999415ee", "lat": 38.892199833333336, "type": "electric_scooter"}, {"fusion_lat": 0.0, "fusion_lon": 0.0, "rental_uris": {"android": "https://dc.lft.to/lastmile_qr_scan", "ios": "https://dc.lft.to/lastmile_qr_scan"}, "lon": -77.02519883333333, "name": "f2590ff8623ba696fd6d09d0933ff959", "is_disabled": 0, "is_reserved": 0, "bike_id": "f2590ff8623ba696fd6d09d0933ff959", "lat": 38.922955333333334, "type": "electric_scooter"}, {"fusion_lat": 0.0, "fusion_lon": 0.0, "rental_uris": {"android": "https://dc.lft.to/lastmile_qr_scan", "ios": "https://dc.lft.to/lastmile_qr_scan"}, "lon": -77.01701383333334, "name": "f6e9d3d2f6f03f1bbbebd7c8702157e4", "is_disabled": 0, "is_reserved": 0, "bike_id": "f6e9d3d2f6f03f1bbbebd7c8702157e4", "lat": 38.902455333333336, "type": "electric_scooter"}, {"fusion_lat": 0.0, "fusion_lon": 0.0, "rental_uris": {"android": "https://dc.lft.to/lastmile_qr_scan", "ios": "https://dc.lft.to/lastmile_qr_scan"}, "lon": -77.05103933333334, "name": "d3415b93805f97e9109c798fa52039e4", "is_disabled": 0, "is_reserved": 0, "bike_id": "d3415b93805f97e9109c798fa52039e4", "lat": 38.923643, "type": "electric_scooter"}, {"fusion_lat": 0.0, "fusion_lon": 0.0, "rental_uris": {"android": "https://dc.lft.to/lastmile_qr_scan", "ios": "https://dc.lft.to/lastmile_qr_scan"}, "lon": -76.99493733333334, "name": "3b40b596fda463ba35dd72eee23311cd", "is_disabled": 0, "is_reserved": 0, "bike_id": "3b40b596fda463ba35dd72eee23311cd", "lat": 38.8623755, "type": "electric_scooter"}, {"fusion_lat": 0.0, "fusion_lon": 0.0, "rental_uris": {"android": "https://dc.lft.to/lastmile_qr_scan", "ios": "https://dc.lft.to/lastmile_qr_scan"}, "lon": -77.007437, "name": "5b7bbad2835f1823ffa126758106b2c9", "is_disabled": 0, "is_reserved": 0, "bike_id": "5b7bbad2835f1823ffa126758106b2c9", "lat": 38.898504333333335, "type": "electric_scooter"}, {"fusion_lat": 0.0, "fusion_lon": 0.0, "rental_uris": {"android": "https://dc.lft.to/lastmile_qr_scan", "ios": "https://dc.lft.to/lastmile_qr_scan"}, "lon": -77.02608583333334, "name": "bab1a9ee9f02047cd284a1b982e1ddec", "is_disabled": 0, "is_reserved": 0, "bike_id": "bab1a9ee9f02047cd284a1b982e1ddec", "lat": 38.928462333333336, "type": "electric_scooter"}, {"fusion_lat": 0.0, "fusion_lon": 0.0, "rental_uris": {"android": "https://dc.lft.to/lastmile_qr_scan", "ios": "https://dc.lft.to/lastmile_qr_scan"}, "lon": -77.02285633333334, "name": "070a762841c9cb35adbfdf35c5d0c319", "is_disabled": 0, "is_reserved": 0, "bike_id": "070a762841c9cb35adbfdf35c5d0c319", "lat": 38.9086065, "type": "electric_scooter"}, {"fusion_lat": 0.0, "fusion_lon": 0.0, "rental_uris": {"android": "https://dc.lft.to/lastmile_qr_scan", "ios": "https://dc.lft.to/lastmile_qr_scan"}, "lon": -76.93340616666667, "name": "780c778ed7732e1dc7869c65d5732e02", "is_disabled": 0, "is_reserved": 0, "bike_id": "780c778ed7732e1dc7869c65d5732e02", "lat": 38.90865766666667, "type": "electric_scooter"}, {"fusion_lat": 0.0, "fusion_lon": 0.0, "rental_uris": {"android": "https://dc.lft.to/lastmile_qr_scan", "ios": "https://dc.lft.to/lastmile_qr_scan"}, "lon": -77.0006175, "name": "86ded463f973b32c30b6918e1a5412a1", "is_disabled": 0, "is_reserved": 0, "bike_id": "86ded463f973b32c30b6918e1a5412a1", "lat": 38.875430333333334, "type": "electric_scooter"}, {"fusion_lat": 0.0, "fusion_lon": 0.0, "rental_uris": {"android": "https://dc.lft.to/lastmile_qr_scan", "ios": "https://dc.lft.to/lastmile_qr_scan"}, "lon": -76.99658316666667, "name": "f036c59893a88021314dad750fceaef3", "is_disabled": 0, "is_reserved": 0, "bike_id": "f036c59893a88021314dad750fceaef3", "lat": 38.860033333333334, "type": "electric_scooter"}, {"fusion_lat": 0.0, "fusion_lon": 0.0, "rental_uris": {"android": "https://dc.lft.to/lastmile_qr_scan", "ios": "https://dc.lft.to/lastmile_qr_scan"}, "lon": -76.935555, "name": "0f79385c741623af48b0e0ed18a60fdf", "is_disabled": 0, "is_reserved": 0, "bike_id": "0f79385c741623af48b0e0ed18a60fdf", "lat": 38.88253433333333, "type": "electric_scooter"}, {"fusion_lat": 0.0, "fusion_lon": 0.0, "rental_uris": {"android": "https://dc.lft.to/lastmile_qr_scan", "ios": "https://dc.lft.to/lastmile_qr_scan"}, "lon": -76.9859, "name": "77f874db7cb23b1aeecf40056500029b", "is_disabled": 0, "is_reserved": 0, "bike_id": "77f874db7cb23b1aeecf40056500029b", "lat": 38.88389216666667, "type": "electric_scooter"}, {"fusion_lat": 0.0, "fusion_lon": 0.0, "rental_uris": {"android": "https://dc.lft.to/lastmile_qr_scan", "ios": "https://dc.lft.to/lastmile_qr_scan"}, "lon": -77.03624483333333, "name": "eefc525e44b04c018f635b1752775e13", "is_disabled": 0, "is_reserved": 0, "bike_id": "eefc525e44b04c018f635b1752775e13", "lat": 38.90124433333333, "type": "electric_scooter"}, {"fusion_lat": 0.0, "fusion_lon": 0.0, "rental_uris": {"android": "https://dc.lft.to/lastmile_qr_scan", "ios": "https://dc.lft.to/lastmile_qr_scan"}, "lon": -77.03671233333333, "name": "10a18e3e526aba232b58c247b7d41617", "is_disabled": 0, "is_reserved": 0, "bike_id": "10a18e3e526aba232b58c247b7d41617", "lat": 38.908309833333334, "type": "electric_scooter"}, {"fusion_lat": 0.0, "fusion_lon": 0.0, "rental_uris": {"android": "https://dc.lft.to/lastmile_qr_scan", "ios": "https://dc.lft.to/lastmile_qr_scan"}, "lon": -77.00224933333334, "name": "ba2c4754e318b28d6dd18110a640e053", "is_disabled": 0, "is_reserved": 0, "bike_id": "ba2c4754e318b28d6dd18110a640e053", "lat": 38.894824166666666, "type": "electric_scooter"}, {"fusion_lat": 0.0, "fusion_lon": 0.0, "rental_uris": {"android": "https://dc.lft.to/lastmile_qr_scan", "ios": "https://dc.lft.to/lastmile_qr_scan"}, "lon": -77.00464516666666, "name": "5c398bb47ba617c63ddffa21f11b7293", "is_disabled": 0, "is_reserved": 0, "bike_id": "5c398bb47ba617c63ddffa21f11b7293", "lat": 38.87657816666667, "type": "electric_scooter"}, {"fusion_lat": 0.0, "fusion_lon": 0.0, "rental_uris": {"android": "https://dc.lft.to/lastmile_qr_scan", "ios": "https://dc.lft.to/lastmile_qr_scan"}, "lon": -77.00214016666666, "name": "c460240a8dacac7e1b45a4e621be9535", "is_disabled": 0, "is_reserved": 0, "bike_id": "c460240a8dacac7e1b45a4e621be9535", "lat": 38.89514416666667, "type": "electric_scooter"}, {"fusion_lat": 0.0, "fusion_lon": 0.0, "rental_uris": {"android": "https://dc.lft.to/lastmile_qr_scan", "ios": "https://dc.lft.to/lastmile_qr_scan"}, "lon": -77.02486683333333, "name": "5d5fd6b872067232b5f5ffb1d829c69b", "is_disabled": 0, "is_reserved": 0, "bike_id": "5d5fd6b872067232b5f5ffb1d829c69b", "lat": 38.94182083333333, "type": "electric_scooter"}, {"fusion_lat": 0.0, "fusion_lon": 0.0, "rental_uris": {"android": "https://dc.lft.to/lastmile_qr_scan", "ios": "https://dc.lft.to/lastmile_qr_scan"}, "lon": -77.072695, "name": "57bbac6dd649b196f1214c635352ee75", "is_disabled": 0, "is_reserved": 0, "bike_id": "57bbac6dd649b196f1214c635352ee75", "lat": 38.934601, "type": "electric_scooter"}, {"fusion_lat": 0.0, "fusion_lon": 0.0, "rental_uris": {"android": "https://dc.lft.to/lastmile_qr_scan", "ios": "https://dc.lft.to/lastmile_qr_scan"}, "lon": -76.98597866666667, "name": "3ebcd3377460a84429d07b1f902e05ed", "is_disabled": 0, "is_reserved": 0, "bike_id": "3ebcd3377460a84429d07b1f902e05ed", "lat": 38.90009833333333, "type": "electric_scooter"}, {"fusion_lat": 0.0, "fusion_lon": 0.0, "rental_uris": {"android": "https://dc.lft.to/lastmile_qr_scan", "ios": "https://dc.lft.to/lastmile_qr_scan"}, "lon": -76.94636933333334, "name": "8617f2812b292012b4b9e425dbe7fb17", "is_disabled": 0, "is_reserved": 0, "bike_id": "8617f2812b292012b4b9e425dbe7fb17", "lat": 38.898582166666664, "type": "electric_scooter"}, {"fusion_lat": 0.0, "fusion_lon": 0.0, "rental_uris": {"android": "https://dc.lft.to/lastmile_qr_scan", "ios": "https://dc.lft.to/lastmile_qr_scan"}, "lon": -77.01356333333334, "name": "e4a2b6c8e7288474d5d2769f9b8608b5", "is_disabled": 0, "is_reserved": 0, "bike_id": "e4a2b6c8e7288474d5d2769f9b8608b5", "lat": 38.892202166666664, "type": "electric_scooter"}, {"fusion_lat": 0.0, "fusion_lon": 0.0, "rental_uris": {"android": "https://dc.lft.to/lastmile_qr_scan", "ios": "https://dc.lft.to/lastmile_qr_scan"}, "lon": -76.97548466666667, "name": "a903e2c95822615d54e10ba5fe6e6c11", "is_disabled": 0, "is_reserved": 0, "bike_id": "a903e2c95822615d54e10ba5fe6e6c11", "lat": 38.90319616666667, "type": "electric_scooter"}, {"fusion_lat": 0.0, "fusion_lon": 0.0, "rental_uris": {"android": "https://dc.lft.to/lastmile_qr_scan", "ios": "https://dc.lft.to/lastmile_qr_scan"}, "lon": -77.03830066666667, "name": "1cae4c0f8b76117ab4f14b8aea284a15", "is_disabled": 0, "is_reserved": 0, "bike_id": "1cae4c0f8b76117ab4f14b8aea284a15", "lat": 38.9029655, "type": "electric_scooter"}, {"fusion_lat": 0.0, "fusion_lon": 0.0, "rental_uris": {"android": "https://dc.lft.to/lastmile_qr_scan", "ios": "https://dc.lft.to/lastmile_qr_scan"}, "lon": -76.98563733333333, "name": "279993479953f3633a00b59d1eb8191e", "is_disabled": 0, "is_reserved": 0, "bike_id": "279993479953f3633a00b59d1eb8191e", "lat": 38.8668165, "type": "electric_scooter"}, {"fusion_lat": 0.0, "fusion_lon": 0.0, "rental_uris": {"android": "https://dc.lft.to/lastmile_qr_scan", "ios": "https://dc.lft.to/lastmile_qr_scan"}, "lon": -77.032013, "name": "de09c0d7ed5253d73d3635df430f0360", "is_disabled": 0, "is_reserved": 0, "bike_id": "de09c0d7ed5253d73d3635df430f0360", "lat": 38.91851966666667, "type": "electric_scooter"}, {"fusion_lat": 0.0, "fusion_lon": 0.0, "rental_uris": {"android": "https://dc.lft.to/lastmile_qr_scan", "ios": "https://dc.lft.to/lastmile_qr_scan"}, "lon": -76.96525966666667, "name": "1e5f91762779110685372cb24140fae8", "is_disabled": 0, "is_reserved": 0, "bike_id": "1e5f91762779110685372cb24140fae8", "lat": 38.87627366666667, "type": "electric_scooter"}, {"fusion_lat": 0.0, "fusion_lon": 0.0, "rental_uris": {"android": "https://dc.lft.to/lastmile_qr_scan", "ios": "https://dc.lft.to/lastmile_qr_scan"}, "lon": -77.04024633333333, "name": "37d25c548a78c5ebf5036655e58eebe3", "is_disabled": 0, "is_reserved": 0, "bike_id": "37d25c548a78c5ebf5036655e58eebe3", "lat": 38.921688333333336, "type": "electric_scooter"}, {"fusion_lat": 0.0, "fusion_lon": 0.0, "rental_uris": {"android": "https://dc.lft.to/lastmile_qr_scan", "ios": "https://dc.lft.to/lastmile_qr_scan"}, "lon": -76.986159, "name": "0142e24d75583eb36ccc9c3915ef69bc", "is_disabled": 0, "is_reserved": 0, "bike_id": "0142e24d75583eb36ccc9c3915ef69bc", "lat": 38.882984, "type": "electric_scooter"}, {"fusion_lat": 0.0, "fusion_lon": 0.0, "rental_uris": {"android": "https://dc.lft.to/lastmile_qr_scan", "ios": "https://dc.lft.to/lastmile_qr_scan"}, "lon": -77.03141116666667, "name": "732480e0ee9432738a177228d563ff03", "is_disabled": 0, "is_reserved": 0, "bike_id": "732480e0ee9432738a177228d563ff03", "lat": 38.918192, "type": "electric_scooter"}, {"fusion_lat": 0.0, "fusion_lon": 0.0, "rental_uris": {"android": "https://dc.lft.to/lastmile_qr_scan", "ios": "https://dc.lft.to/lastmile_qr_scan"}, "lon": -77.0418585, "name": "da8423ce641a4c917f16e7e35b490a07", "is_disabled": 0, "is_reserved": 0, "bike_id": "da8423ce641a4c917f16e7e35b490a07", "lat": 38.90587433333334, "type": "electric_scooter"}, {"fusion_lat": 0.0, "fusion_lon": 0.0, "rental_uris": {"android": "https://dc.lft.to/lastmile_qr_scan", "ios": "https://dc.lft.to/lastmile_qr_scan"}, "lon": -77.043545, "name": "d1742278b7ad93157da74bccae3d044a", "is_disabled": 0, "is_reserved": 0, "bike_id": "d1742278b7ad93157da74bccae3d044a", "lat": 38.901314166666666, "type": "electric_bike"}, {"fusion_lat": 0.0, "fusion_lon": 0.0, "rental_uris": {"android": "https://dc.lft.to/lastmile_qr_scan", "ios": "https://dc.lft.to/lastmile_qr_scan"}, "lon": -76.98764883333334, "name": "3e059717c62237ff816a2e65d4043e8a", "is_disabled": 0, "is_reserved": 0, "bike_id": "3e059717c62237ff816a2e65d4043e8a", "lat": 38.900272666666666, "type": "electric_scooter"}, {"fusion_lat": 0.0, "fusion_lon": 0.0, "rental_uris": {"android": "https://dc.lft.to/lastmile_qr_scan", "ios": "https://dc.lft.to/lastmile_qr_scan"}, "lon": -77.02088166666667, "name": "8de089d1a51a6e0c394be904f7f8119d", "is_disabled": 0, "is_reserved": 0, "bike_id": "8de089d1a51a6e0c394be904f7f8119d", "lat": 38.881847, "type": "electric_scooter"}, {"fusion_lat": 0.0, "fusion_lon": 0.0, "rental_uris": {"android": "https://dc.lft.to/lastmile_qr_scan", "ios": "https://dc.lft.to/lastmile_qr_scan"}, "lon": -77.02399433333333, "name": "bd7c6f8e4934d45f9b92fa05e20330db", "is_disabled": 0, "is_reserved": 0, "bike_id": "bd7c6f8e4934d45f9b92fa05e20330db", "lat": 38.905632833333335, "type": "electric_scooter"}, {"fusion_lat": 0.0, "fusion_lon": 0.0, "rental_uris": {"android": "https://dc.lft.to/lastmile_qr_scan", "ios": "https://dc.lft.to/lastmile_qr_scan"}, "lon": -76.97029633333334, "name": "2185dfff4cd733eadf88173a41b4cd44", "is_disabled": 0, "is_reserved": 0, "bike_id": "2185dfff4cd733eadf88173a41b4cd44", "lat": 38.873546, "type": "electric_scooter"}, {"fusion_lat": 0.0, "fusion_lon": 0.0, "rental_uris": {"android": "https://dc.lft.to/lastmile_qr_scan", "ios": "https://dc.lft.to/lastmile_qr_scan"}, "lon": -77.01770983333333, "name": "c6f56f4547f196d10f433c3191a7bdf6", "is_disabled": 0, "is_reserved": 0, "bike_id": "c6f56f4547f196d10f433c3191a7bdf6", "lat": 38.90086183333333, "type": "electric_scooter"}, {"fusion_lat": 0.0, "fusion_lon": 0.0, "rental_uris": {"android": "https://dc.lft.to/lastmile_qr_scan", "ios": "https://dc.lft.to/lastmile_qr_scan"}, "lon": -77.021682, "name": "0892fed39f89ef54548d19ef097c5721", "is_disabled": 0, "is_reserved": 0, "bike_id": "0892fed39f89ef54548d19ef097c5721", "lat": 38.897272, "type": "electric_scooter"}, {"fusion_lat": 0.0, "fusion_lon": 0.0, "rental_uris": {"android": "https://dc.lft.to/lastmile_qr_scan", "ios": "https://dc.lft.to/lastmile_qr_scan"}, "lon": -77.080683, "name": "7f078c2899976f2ed92a8ed665cb1e3e", "is_disabled": 0, "is_reserved": 0, "bike_id": "7f078c2899976f2ed92a8ed665cb1e3e", "lat": 39.05252383333333, "type": "electric_bike"}, {"fusion_lat": 0.0, "fusion_lon": 0.0, "rental_uris": {"android": "https://dc.lft.to/lastmile_qr_scan", "ios": "https://dc.lft.to/lastmile_qr_scan"}, "lon": -77.02948033333334, "name": "a3f6ce7fc273971700edfc77b8689697", "is_disabled": 0, "is_reserved": 0, "bike_id": "a3f6ce7fc273971700edfc77b8689697", "lat": 38.90268116666667, "type": "electric_scooter"}, {"fusion_lat": 0.0, "fusion_lon": 0.0, "rental_uris": {"android": "https://dc.lft.to/lastmile_qr_scan", "ios": "https://dc.lft.to/lastmile_qr_scan"}, "lon": -77.04479583333334, "name": "5d706658766385e56615a951e84054b3", "is_disabled": 0, "is_reserved": 0, "bike_id": "5d706658766385e56615a951e84054b3", "lat": 38.897513000000004, "type": "electric_scooter"}, {"fusion_lat": 0.0, "fusion_lon": 0.0, "rental_uris": {"android": "https://dc.lft.to/lastmile_qr_scan", "ios": "https://dc.lft.to/lastmile_qr_scan"}, "lon": -77.00484566666667, "name": "f913360b8a0a8f3fc22b79036d78d2ed", "is_disabled": 0, "is_reserved": 0, "bike_id": "f913360b8a0a8f3fc22b79036d78d2ed", "lat": 38.874618, "type": "electric_scooter"}, {"fusion_lat": 0.0, "fusion_lon": 0.0, "rental_uris": {"android": "https://dc.lft.to/lastmile_qr_scan", "ios": "https://dc.lft.to/lastmile_qr_scan"}, "lon": -77.05144333333334, "name": "b84002caa476bd1baabc108da1bc2596", "is_disabled": 0, "is_reserved": 0, "bike_id": "b84002caa476bd1baabc108da1bc2596", "lat": 38.901869833333336, "type": "electric_scooter"}, {"fusion_lat": 0.0, "fusion_lon": 0.0, "rental_uris": {"android": "https://dc.lft.to/lastmile_qr_scan", "ios": "https://dc.lft.to/lastmile_qr_scan"}, "lon": -77.03852216666667, "name": "df89c278658d6c8f54fb9a50ea8300f9", "is_disabled": 0, "is_reserved": 0, "bike_id": "df89c278658d6c8f54fb9a50ea8300f9", "lat": 38.9027735, "type": "electric_scooter"}, {"fusion_lat": 0.0, "fusion_lon": 0.0, "rental_uris": {"android": "https://dc.lft.to/lastmile_qr_scan", "ios": "https://dc.lft.to/lastmile_qr_scan"}, "lon": -77.0230205, "name": "e9ac5bd9d020653d03a65e8932760927", "is_disabled": 0, "is_reserved": 0, "bike_id": "e9ac5bd9d020653d03a65e8932760927", "lat": 38.89501683333334, "type": "electric_scooter"}, {"fusion_lat": 0.0, "fusion_lon": 0.0, "rental_uris": {"android": "https://dc.lft.to/lastmile_qr_scan", "ios": "https://dc.lft.to/lastmile_qr_scan"}, "lon": -77.04612416666667, "name": "e6f764b826787ac690478d737977c020", "is_disabled": 0, "is_reserved": 0, "bike_id": "e6f764b826787ac690478d737977c020", "lat": 38.916764666666666, "type": "electric_scooter"}, {"fusion_lat": 0.0, "fusion_lon": 0.0, "rental_uris": {"android": "https://dc.lft.to/lastmile_qr_scan", "ios": "https://dc.lft.to/lastmile_qr_scan"}, "lon": -77.044995, "name": "83075b70c33e4aa79cb85bfb3d42f2cf", "is_disabled": 0, "is_reserved": 0, "bike_id": "83075b70c33e4aa79cb85bfb3d42f2cf", "lat": 38.90363266666667, "type": "electric_scooter"}, {"fusion_lat": 0.0, "fusion_lon": 0.0, "rental_uris": {"android": "https://dc.lft.to/lastmile_qr_scan", "ios": "https://dc.lft.to/lastmile_qr_scan"}, "lon": -77.03381866666666, "name": "d3f3583c2ec69e8fc9c2bb1d63c49053", "is_disabled": 0, "is_reserved": 0, "bike_id": "d3f3583c2ec69e8fc9c2bb1d63c49053", "lat": 38.925371, "type": "electric_scooter"}, {"fusion_lat": 0.0, "fusion_lon": 0.0, "rental_uris": {"android": "https://dc.lft.to/lastmile_qr_scan", "ios": "https://dc.lft.to/lastmile_qr_scan"}, "lon": -77.01370533333333, "name": "46725054a4d9cc605eba178d4cfdaae1", "is_disabled": 0, "is_reserved": 0, "bike_id": "46725054a4d9cc605eba178d4cfdaae1", "lat": 38.92885233333333, "type": "electric_scooter"}, {"fusion_lat": 0.0, "fusion_lon": 0.0, "rental_uris": {"android": "https://dc.lft.to/lastmile_qr_scan", "ios": "https://dc.lft.to/lastmile_qr_scan"}, "lon": -76.94639616666667, "name": "2c4715a13fc40d43b852bef1a98a3037", "is_disabled": 0, "is_reserved": 0, "bike_id": "2c4715a13fc40d43b852bef1a98a3037", "lat": 38.89865116666667, "type": "electric_scooter"}, {"fusion_lat": 0.0, "fusion_lon": 0.0, "rental_uris": {"android": "https://dc.lft.to/lastmile_qr_scan", "ios": "https://dc.lft.to/lastmile_qr_scan"}, "lon": -77.0434965, "name": "3701ad2473eece342515a4b02617e2d8", "is_disabled": 0, "is_reserved": 0, "bike_id": "3701ad2473eece342515a4b02617e2d8", "lat": 38.905148833333335, "type": "electric_scooter"}, {"fusion_lat": 0.0, "fusion_lon": 0.0, "rental_uris": {"android": "https://dc.lft.to/lastmile_qr_scan", "ios": "https://dc.lft.to/lastmile_qr_scan"}, "lon": -76.93730416666666, "name": "e33f170e5f0246e4963cca87fbd61d15", "is_disabled": 0, "is_reserved": 0, "bike_id": "e33f170e5f0246e4963cca87fbd61d15", "lat": 38.8902205, "type": "electric_scooter"}, {"fusion_lat": 0.0, "fusion_lon": 0.0, "rental_uris": {"android": "https://dc.lft.to/lastmile_qr_scan", "ios": "https://dc.lft.to/lastmile_qr_scan"}, "lon": -77.03811433333334, "name": "bbf37c330c9f30c1322a320eb1d66b36", "is_disabled": 0, "is_reserved": 0, "bike_id": "bbf37c330c9f30c1322a320eb1d66b36", "lat": 38.90677766666667, "type": "electric_scooter"}, {"fusion_lat": 0.0, "fusion_lon": 0.0, "rental_uris": {"android": "https://dc.lft.to/lastmile_qr_scan", "ios": "https://dc.lft.to/lastmile_qr_scan"}, "lon": -77.03850716666666, "name": "433f0e9827049e83a93ac0619fd0321b", "is_disabled": 0, "is_reserved": 0, "bike_id": "433f0e9827049e83a93ac0619fd0321b", "lat": 38.902842666666665, "type": "electric_scooter"}, {"fusion_lat": 0.0, "fusion_lon": 0.0, "rental_uris": {"android": "https://dc.lft.to/lastmile_qr_scan", "ios": "https://dc.lft.to/lastmile_qr_scan"}, "lon": -77.0256795, "name": "52c5acb81854465814c5eac4799acb1d", "is_disabled": 0, "is_reserved": 0, "bike_id": "52c5acb81854465814c5eac4799acb1d", "lat": 38.8874765, "type": "electric_scooter"}, {"fusion_lat": 0.0, "fusion_lon": 0.0, "rental_uris": {"android": "https://dc.lft.to/lastmile_qr_scan", "ios": "https://dc.lft.to/lastmile_qr_scan"}, "lon": -77.05860466666667, "name": "3f88fc82f20d1200d9d4292d35c5e2ab", "is_disabled": 0, "is_reserved": 0, "bike_id": "3f88fc82f20d1200d9d4292d35c5e2ab", "lat": 38.936072833333334, "type": "electric_scooter"}, {"fusion_lat": 0.0, "fusion_lon": 0.0, "rental_uris": {"android": "https://dc.lft.to/lastmile_qr_scan", "ios": "https://dc.lft.to/lastmile_qr_scan"}, "lon": -77.029834, "name": "f2f7fe9a18d9ee2ae6277def0d2019f5", "is_disabled": 0, "is_reserved": 0, "bike_id": "f2f7fe9a18d9ee2ae6277def0d2019f5", "lat": 38.896135666666666, "type": "electric_scooter"}, {"fusion_lat": 0.0, "fusion_lon": 0.0, "rental_uris": {"android": "https://dc.lft.to/lastmile_qr_scan", "ios": "https://dc.lft.to/lastmile_qr_scan"}, "lon": -77.02557633333333, "name": "9eb7da7eb6e715a15b52f04410fdba7c", "is_disabled": 0, "is_reserved": 0, "bike_id": "9eb7da7eb6e715a15b52f04410fdba7c", "lat": 38.91632833333333, "type": "electric_scooter"}, {"fusion_lat": 0.0, "fusion_lon": 0.0, "rental_uris": {"android": "https://dc.lft.to/lastmile_qr_scan", "ios": "https://dc.lft.to/lastmile_qr_scan"}, "lon": -77.02150266666666, "name": "ac98798ccfdaec770effb685cf3f019c", "is_disabled": 0, "is_reserved": 0, "bike_id": "ac98798ccfdaec770effb685cf3f019c", "lat": 38.924525333333335, "type": "electric_scooter"}, {"fusion_lat": 0.0, "fusion_lon": 0.0, "rental_uris": {"android": "https://dc.lft.to/lastmile_qr_scan", "ios": "https://dc.lft.to/lastmile_qr_scan"}, "lon": -77.03871816666667, "name": "9e49b029840bf1ec5d3dcfb187002317", "is_disabled": 0, "is_reserved": 0, "bike_id": "9e49b029840bf1ec5d3dcfb187002317", "lat": 38.906361, "type": "electric_scooter"}, {"fusion_lat": 0.0, "fusion_lon": 0.0, "rental_uris": {"android": "https://dc.lft.to/lastmile_qr_scan", "ios": "https://dc.lft.to/lastmile_qr_scan"}, "lon": -77.03802933333333, "name": "49b464c18ddda5a752c5cb54b408730b", "is_disabled": 0, "is_reserved": 0, "bike_id": "49b464c18ddda5a752c5cb54b408730b", "lat": 38.920664, "type": "electric_scooter"}, {"fusion_lat": 0.0, "fusion_lon": 0.0, "rental_uris": {"android": "https://dc.lft.to/lastmile_qr_scan", "ios": "https://dc.lft.to/lastmile_qr_scan"}, "lon": -77.035976, "name": "e792a3e1503bae76b7d391019e322270", "is_disabled": 0, "is_reserved": 0, "bike_id": "e792a3e1503bae76b7d391019e322270", "lat": 38.9286905, "type": "electric_scooter"}, {"fusion_lat": 0.0, "fusion_lon": 0.0, "rental_uris": {"android": "https://dc.lft.to/lastmile_qr_scan", "ios": "https://dc.lft.to/lastmile_qr_scan"}, "lon": -77.02796, "name": "3891352687bda78142b86b221155ee9d", "is_disabled": 0, "is_reserved": 0, "bike_id": "3891352687bda78142b86b221155ee9d", "lat": 38.89602716666667, "type": "electric_scooter"}, {"fusion_lat": 0.0, "fusion_lon": 0.0, "rental_uris": {"android": "https://dc.lft.to/lastmile_qr_scan", "ios": "https://dc.lft.to/lastmile_qr_scan"}, "lon": -77.03652366666667, "name": "a105540ac924428e228f853cee35ef50", "is_disabled": 0, "is_reserved": 0, "bike_id": "a105540ac924428e228f853cee35ef50", "lat": 38.928088333333335, "type": "electric_scooter"}, {"fusion_lat": 0.0, "fusion_lon": 0.0, "rental_uris": {"android": "https://dc.lft.to/lastmile_qr_scan", "ios": "https://dc.lft.to/lastmile_qr_scan"}, "lon": -76.96817633333333, "name": "18e8062c7609ab28ed4b74c7e66919ac", "is_disabled": 0, "is_reserved": 0, "bike_id": "18e8062c7609ab28ed4b74c7e66919ac", "lat": 38.9552525, "type": "electric_bike"}, {"fusion_lat": 0.0, "fusion_lon": 0.0, "rental_uris": {"android": "https://dc.lft.to/lastmile_qr_scan", "ios": "https://dc.lft.to/lastmile_qr_scan"}, "lon": -76.93927233333334, "name": "7daba3d3577f52427d963e3a2ed1e3c5", "is_disabled": 0, "is_reserved": 0, "bike_id": "7daba3d3577f52427d963e3a2ed1e3c5", "lat": 38.893329333333334, "type": "electric_scooter"}, {"fusion_lat": 0.0, "fusion_lon": 0.0, "rental_uris": {"android": "https://dc.lft.to/lastmile_qr_scan", "ios": "https://dc.lft.to/lastmile_qr_scan"}, "lon": -77.01438483333334, "name": "690d10033c4c60985f57b810775a035c", "is_disabled": 0, "is_reserved": 0, "bike_id": "690d10033c4c60985f57b810775a035c", "lat": 38.913112166666664, "type": "electric_scooter"}, {"fusion_lat": 0.0, "fusion_lon": 0.0, "rental_uris": {"android": "https://dc.lft.to/lastmile_qr_scan", "ios": "https://dc.lft.to/lastmile_qr_scan"}, "lon": -76.97227616666666, "name": "bbf064df9e927466e474604a8e555d8a", "is_disabled": 0, "is_reserved": 0, "bike_id": "bbf064df9e927466e474604a8e555d8a", "lat": 38.9003395, "type": "electric_bike"}, {"fusion_lat": 0.0, "fusion_lon": 0.0, "rental_uris": {"android": "https://dc.lft.to/lastmile_qr_scan", "ios": "https://dc.lft.to/lastmile_qr_scan"}, "lon": -77.04194316666667, "name": "98876657d7d063dfd1f69f77a4b18eac", "is_disabled": 0, "is_reserved": 0, "bike_id": "98876657d7d063dfd1f69f77a4b18eac", "lat": 38.90373566666667, "type": "electric_scooter"}, {"fusion_lat": 0.0, "fusion_lon": 0.0, "rental_uris": {"android": "https://dc.lft.to/lastmile_qr_scan", "ios": "https://dc.lft.to/lastmile_qr_scan"}, "lon": -77.05643566666667, "name": "93d1a8b0f6eb02781777a645a5dbf48a", "is_disabled": 0, "is_reserved": 0, "bike_id": "93d1a8b0f6eb02781777a645a5dbf48a", "lat": 38.9233505, "type": "electric_scooter"}, {"fusion_lat": 0.0, "fusion_lon": 0.0, "rental_uris": {"android": "https://dc.lft.to/lastmile_qr_scan", "ios": "https://dc.lft.to/lastmile_qr_scan"}, "lon": -76.94980433333333, "name": "9f59701b5584329779b2b93869c02b3c", "is_disabled": 0, "is_reserved": 0, "bike_id": "9f59701b5584329779b2b93869c02b3c", "lat": 38.88459683333333, "type": "electric_scooter"}, {"fusion_lat": 0.0, "fusion_lon": 0.0, "rental_uris": {"android": "https://dc.lft.to/lastmile_qr_scan", "ios": "https://dc.lft.to/lastmile_qr_scan"}, "lon": -77.03036816666666, "name": "394ef30ccccef1d9d8869b9c806a95af", "is_disabled": 0, "is_reserved": 0, "bike_id": "394ef30ccccef1d9d8869b9c806a95af", "lat": 38.916865666666666, "type": "electric_scooter"}, {"fusion_lat": 0.0, "fusion_lon": 0.0, "rental_uris": {"android": "https://dc.lft.to/lastmile_qr_scan", "ios": "https://dc.lft.to/lastmile_qr_scan"}, "lon": -76.96112566666666, "name": "ae5843afcb117d32e6a72c265a1cc2c6", "is_disabled": 0, "is_reserved": 0, "bike_id": "ae5843afcb117d32e6a72c265a1cc2c6", "lat": 38.88436633333333, "type": "electric_scooter"}, {"fusion_lat": 0.0, "fusion_lon": 0.0, "rental_uris": {"android": "https://dc.lft.to/lastmile_qr_scan", "ios": "https://dc.lft.to/lastmile_qr_scan"}, "lon": -77.03583966666666, "name": "cc2211d578a9e8a551f798c828fdca0f", "is_disabled": 0, "is_reserved": 0, "bike_id": "cc2211d578a9e8a551f798c828fdca0f", "lat": 38.931500666666665, "type": "electric_scooter"}, {"fusion_lat": 0.0, "fusion_lon": 0.0, "rental_uris": {"android": "https://dc.lft.to/lastmile_qr_scan", "ios": "https://dc.lft.to/lastmile_qr_scan"}, "lon": -77.02532133333334, "name": "a16eb4c87f4c7f916db0110f30e9ddc4", "is_disabled": 0, "is_reserved": 0, "bike_id": "a16eb4c87f4c7f916db0110f30e9ddc4", "lat": 38.91855483333333, "type": "electric_scooter"}, {"fusion_lat": 0.0, "fusion_lon": 0.0, "rental_uris": {"android": "https://dc.lft.to/lastmile_qr_scan", "ios": "https://dc.lft.to/lastmile_qr_scan"}, "lon": -77.00918733333333, "name": "2a3ea18fdae76c4b46e24b63cae2eb8e", "is_disabled": 0, "is_reserved": 0, "bike_id": "2a3ea18fdae76c4b46e24b63cae2eb8e", "lat": 38.89600433333333, "type": "electric_scooter"}, {"fusion_lat": 0.0, "fusion_lon": 0.0, "rental_uris": {"android": "https://dc.lft.to/lastmile_qr_scan", "ios": "https://dc.lft.to/lastmile_qr_scan"}, "lon": -77.07140866666667, "name": "5d8979ea3fb1d555963034f571be9260", "is_disabled": 0, "is_reserved": 0, "bike_id": "5d8979ea3fb1d555963034f571be9260", "lat": 38.907755333333334, "type": "electric_scooter"}, {"fusion_lat": 0.0, "fusion_lon": 0.0, "rental_uris": {"android": "https://dc.lft.to/lastmile_qr_scan", "ios": "https://dc.lft.to/lastmile_qr_scan"}, "lon": -77.02821383333334, "name": "409836b97faf320da88cc546a5274610", "is_disabled": 0, "is_reserved": 0, "bike_id": "409836b97faf320da88cc546a5274610", "lat": 38.899014333333334, "type": "electric_scooter"}, {"fusion_lat": 0.0, "fusion_lon": 0.0, "rental_uris": {"android": "https://dc.lft.to/lastmile_qr_scan", "ios": "https://dc.lft.to/lastmile_qr_scan"}, "lon": -77.0220385, "name": "0aec36f35521c67439b18e50531d4ef9", "is_disabled": 0, "is_reserved": 0, "bike_id": "0aec36f35521c67439b18e50531d4ef9", "lat": 38.92463, "type": "electric_scooter"}, {"fusion_lat": 0.0, "fusion_lon": 0.0, "rental_uris": {"android": "https://dc.lft.to/lastmile_qr_scan", "ios": "https://dc.lft.to/lastmile_qr_scan"}, "lon": -77.02330683333334, "name": "03fba0e06b1ffc79f1702c67d380103b", "is_disabled": 0, "is_reserved": 0, "bike_id": "03fba0e06b1ffc79f1702c67d380103b", "lat": 38.92871783333333, "type": "electric_scooter"}, {"fusion_lat": 0.0, "fusion_lon": 0.0, "rental_uris": {"android": "https://dc.lft.to/lastmile_qr_scan", "ios": "https://dc.lft.to/lastmile_qr_scan"}, "lon": -77.04194083333333, "name": "634b528f2cf3c472f241bf5bb4716644", "is_disabled": 0, "is_reserved": 0, "bike_id": "634b528f2cf3c472f241bf5bb4716644", "lat": 38.92617533333333, "type": "electric_scooter"}, {"fusion_lat": 0.0, "fusion_lon": 0.0, "rental_uris": {"android": "https://dc.lft.to/lastmile_qr_scan", "ios": "https://dc.lft.to/lastmile_qr_scan"}, "lon": -77.02036816666667, "name": "db5c4ec14895705b7698595b70acf47c", "is_disabled": 0, "is_reserved": 0, "bike_id": "db5c4ec14895705b7698595b70acf47c", "lat": 38.924094833333335, "type": "electric_scooter"}, {"fusion_lat": 0.0, "fusion_lon": 0.0, "rental_uris": {"android": "https://dc.lft.to/lastmile_qr_scan", "ios": "https://dc.lft.to/lastmile_qr_scan"}, "lon": -77.04370516666667, "name": "1e2dfe4c6334c02452259488b3b68bc9", "is_disabled": 0, "is_reserved": 0, "bike_id": "1e2dfe4c6334c02452259488b3b68bc9", "lat": 38.900044333333334, "type": "electric_scooter"}, {"fusion_lat": 0.0, "fusion_lon": 0.0, "rental_uris": {"android": "https://dc.lft.to/lastmile_qr_scan", "ios": "https://dc.lft.to/lastmile_qr_scan"}, "lon": -77.048741, "name": "23fd8319ccc0169072c02baac4b04f19", "is_disabled": 0, "is_reserved": 0, "bike_id": "23fd8319ccc0169072c02baac4b04f19", "lat": 38.90457816666667, "type": "electric_scooter"}, {"fusion_lat": 0.0, "fusion_lon": 0.0, "rental_uris": {"android": "https://dc.lft.to/lastmile_qr_scan", "ios": "https://dc.lft.to/lastmile_qr_scan"}, "lon": -77.043613, "name": "22d078fa083ff9e218ed7c71689ee866", "is_disabled": 0, "is_reserved": 0, "bike_id": "22d078fa083ff9e218ed7c71689ee866", "lat": 38.921215333333336, "type": "electric_scooter"}, {"fusion_lat": 0.0, "fusion_lon": 0.0, "rental_uris": {"android": "https://dc.lft.to/lastmile_qr_scan", "ios": "https://dc.lft.to/lastmile_qr_scan"}, "lon": -77.050012, "name": "f219e1f1535cf8573bd973ff90cbbec2", "is_disabled": 0, "is_reserved": 0, "bike_id": "f219e1f1535cf8573bd973ff90cbbec2", "lat": 38.89228, "type": "electric_scooter"}, {"fusion_lat": 0.0, "fusion_lon": 0.0, "rental_uris": {"android": "https://dc.lft.to/lastmile_qr_scan", "ios": "https://dc.lft.to/lastmile_qr_scan"}, "lon": -76.95186983333333, "name": "4a93097c28bb961b7aa1119ab53da336", "is_disabled": 0, "is_reserved": 0, "bike_id": "4a93097c28bb961b7aa1119ab53da336", "lat": 39.08444733333334, "type": "electric_bike"}, {"fusion_lat": 0.0, "fusion_lon": 0.0, "rental_uris": {"android": "https://dc.lft.to/lastmile_qr_scan", "ios": "https://dc.lft.to/lastmile_qr_scan"}, "lon": -77.0515355, "name": "48564fa59042b0b20fbc767fe0fc185c", "is_disabled": 0, "is_reserved": 0, "bike_id": "48564fa59042b0b20fbc767fe0fc185c", "lat": 38.92374183333333, "type": "electric_scooter"}, {"fusion_lat": 0.0, "fusion_lon": 0.0, "rental_uris": {"android": "https://dc.lft.to/lastmile_qr_scan", "ios": "https://dc.lft.to/lastmile_qr_scan"}, "lon": -77.06378016666666, "name": "0faef4f682ed0d5d93918c0f610f7da1", "is_disabled": 0, "is_reserved": 0, "bike_id": "0faef4f682ed0d5d93918c0f610f7da1", "lat": 38.94504366666666, "type": "electric_scooter"}, {"fusion_lat": 0.0, "fusion_lon": 0.0, "rental_uris": {"android": "https://dc.lft.to/lastmile_qr_scan", "ios": "https://dc.lft.to/lastmile_qr_scan"}, "lon": -76.99781, "name": "78c7db1d8fb9e75584e2cd8011fd6332", "is_disabled": 0, "is_reserved": 0, "bike_id": "78c7db1d8fb9e75584e2cd8011fd6332", "lat": 38.84434483333333, "type": "electric_scooter"}, {"fusion_lat": 0.0, "fusion_lon": 0.0, "rental_uris": {"android": "https://dc.lft.to/lastmile_qr_scan", "ios": "https://dc.lft.to/lastmile_qr_scan"}, "lon": -77.04339416666667, "name": "f081d0e53ea00304d6f171fdd913c93c", "is_disabled": 0, "is_reserved": 0, "bike_id": "f081d0e53ea00304d6f171fdd913c93c", "lat": 38.92819466666667, "type": "electric_scooter"}, {"fusion_lat": 0.0, "fusion_lon": 0.0, "rental_uris": {"android": "https://dc.lft.to/lastmile_qr_scan", "ios": "https://dc.lft.to/lastmile_qr_scan"}, "lon": -77.024001, "name": "28768faa3334ff9dabbb3a6fa35e9721", "is_disabled": 0, "is_reserved": 0, "bike_id": "28768faa3334ff9dabbb3a6fa35e9721", "lat": 38.91669, "type": "electric_scooter"}, {"fusion_lat": 0.0, "fusion_lon": 0.0, "rental_uris": {"android": "https://dc.lft.to/lastmile_qr_scan", "ios": "https://dc.lft.to/lastmile_qr_scan"}, "lon": -77.02897866666666, "name": "7606cd16563337f42c2dea93bb21e051", "is_disabled": 0, "is_reserved": 0, "bike_id": "7606cd16563337f42c2dea93bb21e051", "lat": 38.92759316666667, "type": "electric_scooter"}, {"fusion_lat": 0.0, "fusion_lon": 0.0, "rental_uris": {"android": "https://dc.lft.to/lastmile_qr_scan", "ios": "https://dc.lft.to/lastmile_qr_scan"}, "lon": -77.041363, "name": "34cd9c0b7e4c9fb075e99a0a9c1679e8", "is_disabled": 0, "is_reserved": 0, "bike_id": "34cd9c0b7e4c9fb075e99a0a9c1679e8", "lat": 38.92492383333333, "type": "electric_scooter"}, {"fusion_lat": 0.0, "fusion_lon": 0.0, "rental_uris": {"android": "https://dc.lft.to/lastmile_qr_scan", "ios": "https://dc.lft.to/lastmile_qr_scan"}, "lon": -76.99302683333333, "name": "d4c787e12d23a7cc1f87e79bfb5975fd", "is_disabled": 0, "is_reserved": 0, "bike_id": "d4c787e12d23a7cc1f87e79bfb5975fd", "lat": 38.857406166666664, "type": "electric_scooter"}, {"fusion_lat": 0.0, "fusion_lon": 0.0, "rental_uris": {"android": "https://dc.lft.to/lastmile_qr_scan", "ios": "https://dc.lft.to/lastmile_qr_scan"}, "lon": -77.1252545, "name": "84b9c4017403c294264b0ac977403893", "is_disabled": 0, "is_reserved": 0, "bike_id": "84b9c4017403c294264b0ac977403893", "lat": 39.05634216666667, "type": "electric_bike"}, {"fusion_lat": 0.0, "fusion_lon": 0.0, "rental_uris": {"android": "https://dc.lft.to/lastmile_qr_scan", "ios": "https://dc.lft.to/lastmile_qr_scan"}, "lon": -77.0245295, "name": "0e28965c89b887cb4be89deac9031cfb", "is_disabled": 0, "is_reserved": 0, "bike_id": "0e28965c89b887cb4be89deac9031cfb", "lat": 38.908576833333335, "type": "electric_scooter"}, {"fusion_lat": 0.0, "fusion_lon": 0.0, "rental_uris": {"android": "https://dc.lft.to/lastmile_qr_scan", "ios": "https://dc.lft.to/lastmile_qr_scan"}, "lon": -77.02506683333333, "name": "177428532402014d1bf6ddeec0b3c430", "is_disabled": 0, "is_reserved": 0, "bike_id": "177428532402014d1bf6ddeec0b3c430", "lat": 38.911007, "type": "electric_scooter"}, {"fusion_lat": 0.0, "fusion_lon": 0.0, "rental_uris": {"android": "https://dc.lft.to/lastmile_qr_scan", "ios": "https://dc.lft.to/lastmile_qr_scan"}, "lon": -76.9717225, "name": "19b757a16ff8e0b84d588a994893affd", "is_disabled": 0, "is_reserved": 0, "bike_id": "19b757a16ff8e0b84d588a994893affd", "lat": 38.86132283333333, "type": "electric_scooter"}, {"fusion_lat": 0.0, "fusion_lon": 0.0, "rental_uris": {"android": "https://dc.lft.to/lastmile_qr_scan", "ios": "https://dc.lft.to/lastmile_qr_scan"}, "lon": -76.99014816666667, "name": "673046471300b1fb62d8565baf27cea3", "is_disabled": 0, "is_reserved": 0, "bike_id": "673046471300b1fb62d8565baf27cea3", "lat": 38.9039305, "type": "electric_scooter"}, {"fusion_lat": 0.0, "fusion_lon": 0.0, "rental_uris": {"android": "https://dc.lft.to/lastmile_qr_scan", "ios": "https://dc.lft.to/lastmile_qr_scan"}, "lon": -76.94640866666667, "name": "b52402498597296f2a93519980b4486f", "is_disabled": 0, "is_reserved": 0, "bike_id": "b52402498597296f2a93519980b4486f", "lat": 38.89859216666667, "type": "electric_scooter"}, {"fusion_lat": 0.0, "fusion_lon": 0.0, "rental_uris": {"android": "https://dc.lft.to/lastmile_qr_scan", "ios": "https://dc.lft.to/lastmile_qr_scan"}, "lon": -77.05733166666667, "name": "8a85835f52242ed4cb6f6b12e690ec05", "is_disabled": 0, "is_reserved": 0, "bike_id": "8a85835f52242ed4cb6f6b12e690ec05", "lat": 38.93373866666667, "type": "electric_scooter"}, {"fusion_lat": 0.0, "fusion_lon": 0.0, "rental_uris": {"android": "https://dc.lft.to/lastmile_qr_scan", "ios": "https://dc.lft.to/lastmile_qr_scan"}, "lon": -77.00225866666666, "name": "c2bc131612d45cf26303cb5b1e53414d", "is_disabled": 0, "is_reserved": 0, "bike_id": "c2bc131612d45cf26303cb5b1e53414d", "lat": 38.9251015, "type": "electric_scooter"}, {"fusion_lat": 0.0, "fusion_lon": 0.0, "rental_uris": {"android": "https://dc.lft.to/lastmile_qr_scan", "ios": "https://dc.lft.to/lastmile_qr_scan"}, "lon": -77.02192533333333, "name": "9bd9bb7345419498affbb2b8a0ff7f2f", "is_disabled": 0, "is_reserved": 0, "bike_id": "9bd9bb7345419498affbb2b8a0ff7f2f", "lat": 38.920908, "type": "electric_scooter"}, {"fusion_lat": 0.0, "fusion_lon": 0.0, "rental_uris": {"android": "https://dc.lft.to/lastmile_qr_scan", "ios": "https://dc.lft.to/lastmile_qr_scan"}, "lon": -77.072492, "name": "6254916ecfca8f9bc85ff77b1ffa727d", "is_disabled": 0, "is_reserved": 0, "bike_id": "6254916ecfca8f9bc85ff77b1ffa727d", "lat": 38.939461, "type": "electric_scooter"}, {"fusion_lat": 0.0, "fusion_lon": 0.0, "rental_uris": {"android": "https://dc.lft.to/lastmile_qr_scan", "ios": "https://dc.lft.to/lastmile_qr_scan"}, "lon": -77.02798966666667, "name": "4f0c69fdbba419bd5a6be1b5374ec574", "is_disabled": 0, "is_reserved": 0, "bike_id": "4f0c69fdbba419bd5a6be1b5374ec574", "lat": 38.898765, "type": "electric_scooter"}, {"fusion_lat": 0.0, "fusion_lon": 0.0, "rental_uris": {"android": "https://dc.lft.to/lastmile_qr_scan", "ios": "https://dc.lft.to/lastmile_qr_scan"}, "lon": -77.04198733333334, "name": "bd66212e1e722333403c0f9f4c64c92d", "is_disabled": 0, "is_reserved": 0, "bike_id": "bd66212e1e722333403c0f9f4c64c92d", "lat": 38.9209365, "type": "electric_scooter"}, {"fusion_lat": 0.0, "fusion_lon": 0.0, "rental_uris": {"android": "https://dc.lft.to/lastmile_qr_scan", "ios": "https://dc.lft.to/lastmile_qr_scan"}, "lon": -77.02230133333333, "name": "1f34dfab244b41887d074492851cf2e9", "is_disabled": 0, "is_reserved": 0, "bike_id": "1f34dfab244b41887d074492851cf2e9", "lat": 38.89216416666667, "type": "electric_scooter"}, {"fusion_lat": 0.0, "fusion_lon": 0.0, "rental_uris": {"android": "https://dc.lft.to/lastmile_qr_scan", "ios": "https://dc.lft.to/lastmile_qr_scan"}, "lon": -77.0462655, "name": "91b2d210262931d954d113850c8f2ab3", "is_disabled": 0, "is_reserved": 0, "bike_id": "91b2d210262931d954d113850c8f2ab3", "lat": 38.902072833333335, "type": "electric_scooter"}, {"fusion_lat": 0.0, "fusion_lon": 0.0, "rental_uris": {"android": "https://dc.lft.to/lastmile_qr_scan", "ios": "https://dc.lft.to/lastmile_qr_scan"}, "lon": -77.01263116666667, "name": "920e7edccda2f141ea9943e8cba3e2a9", "is_disabled": 0, "is_reserved": 0, "bike_id": "920e7edccda2f141ea9943e8cba3e2a9", "lat": 38.918048, "type": "electric_scooter"}, {"fusion_lat": 0.0, "fusion_lon": 0.0, "rental_uris": {"android": "https://dc.lft.to/lastmile_qr_scan", "ios": "https://dc.lft.to/lastmile_qr_scan"}, "lon": -77.02592366666667, "name": "018b47f89dfde2fb2a533ce03ca5045b", "is_disabled": 0, "is_reserved": 0, "bike_id": "018b47f89dfde2fb2a533ce03ca5045b", "lat": 38.9639185, "type": "electric_scooter"}, {"fusion_lat": 0.0, "fusion_lon": 0.0, "rental_uris": {"android": "https://dc.lft.to/lastmile_qr_scan", "ios": "https://dc.lft.to/lastmile_qr_scan"}, "lon": -77.02385066666666, "name": "948072265155a54a58cf9182150ea57b", "is_disabled": 0, "is_reserved": 0, "bike_id": "948072265155a54a58cf9182150ea57b", "lat": 38.89226466666667, "type": "electric_scooter"}, {"fusion_lat": 0.0, "fusion_lon": 0.0, "rental_uris": {"android": "https://dc.lft.to/lastmile_qr_scan", "ios": "https://dc.lft.to/lastmile_qr_scan"}, "lon": -77.09670466666667, "name": "0a2cb97e2b7a047a8d4bfc320d13427f", "is_disabled": 0, "is_reserved": 0, "bike_id": "0a2cb97e2b7a047a8d4bfc320d13427f", "lat": 38.94617233333334, "type": "electric_bike"}, {"fusion_lat": 0.0, "fusion_lon": 0.0, "rental_uris": {"android": "https://dc.lft.to/lastmile_qr_scan", "ios": "https://dc.lft.to/lastmile_qr_scan"}, "lon": -77.02275133333333, "name": "b1e8e1afeee323197f2bcd190ba5328d", "is_disabled": 0, "is_reserved": 0, "bike_id": "b1e8e1afeee323197f2bcd190ba5328d", "lat": 38.89727166666667, "type": "electric_scooter"}, {"fusion_lat": 0.0, "fusion_lon": 0.0, "rental_uris": {"android": "https://dc.lft.to/lastmile_qr_scan", "ios": "https://dc.lft.to/lastmile_qr_scan"}, "lon": -77.01274816666667, "name": "fe7b34bf06ab6552427f95da1b85ac60", "is_disabled": 0, "is_reserved": 0, "bike_id": "fe7b34bf06ab6552427f95da1b85ac60", "lat": 38.873026833333334, "type": "electric_scooter"}, {"fusion_lat": 0.0, "fusion_lon": 0.0, "rental_uris": {"android": "https://dc.lft.to/lastmile_qr_scan", "ios": "https://dc.lft.to/lastmile_qr_scan"}, "lon": -77.03918633333333, "name": "1c8cfd023eed040b57f8d29ae681e83a", "is_disabled": 0, "is_reserved": 0, "bike_id": "1c8cfd023eed040b57f8d29ae681e83a", "lat": 38.91105316666667, "type": "electric_scooter"}, {"fusion_lat": 0.0, "fusion_lon": 0.0, "rental_uris": {"android": "https://dc.lft.to/lastmile_qr_scan", "ios": "https://dc.lft.to/lastmile_qr_scan"}, "lon": -76.99765983333333, "name": "2b45af55835a6eaaff146be17c0bb193", "is_disabled": 0, "is_reserved": 0, "bike_id": "2b45af55835a6eaaff146be17c0bb193", "lat": 38.91112716666667, "type": "electric_scooter"}, {"fusion_lat": 0.0, "fusion_lon": 0.0, "rental_uris": {"android": "https://dc.lft.to/lastmile_qr_scan", "ios": "https://dc.lft.to/lastmile_qr_scan"}, "lon": -77.039462, "name": "aad05630f06fae21548e78bf6325d008", "is_disabled": 0, "is_reserved": 0, "bike_id": "aad05630f06fae21548e78bf6325d008", "lat": 38.9011115, "type": "electric_scooter"}, {"fusion_lat": 0.0, "fusion_lon": 0.0, "rental_uris": {"android": "https://dc.lft.to/lastmile_qr_scan", "ios": "https://dc.lft.to/lastmile_qr_scan"}, "lon": -77.017798, "name": "09969f6da2bb3de413e4cebf83a9d9e0", "is_disabled": 0, "is_reserved": 0, "bike_id": "09969f6da2bb3de413e4cebf83a9d9e0", "lat": 38.887110166666666, "type": "electric_scooter"}, {"fusion_lat": 0.0, "fusion_lon": 0.0, "rental_uris": {"android": "https://dc.lft.to/lastmile_qr_scan", "ios": "https://dc.lft.to/lastmile_qr_scan"}, "lon": -77.05724016666667, "name": "704ebe63e1f8f5a8de3286eb0da26a7c", "is_disabled": 0, "is_reserved": 0, "bike_id": "704ebe63e1f8f5a8de3286eb0da26a7c", "lat": 38.933617, "type": "electric_scooter"}, {"fusion_lat": 0.0, "fusion_lon": 0.0, "rental_uris": {"android": "https://dc.lft.to/lastmile_qr_scan", "ios": "https://dc.lft.to/lastmile_qr_scan"}, "lon": -77.05238233333333, "name": "cd871bd2bf83e2776d3c11ffe144dd57", "is_disabled": 0, "is_reserved": 0, "bike_id": "cd871bd2bf83e2776d3c11ffe144dd57", "lat": 38.92468133333333, "type": "electric_scooter"}, {"fusion_lat": 0.0, "fusion_lon": 0.0, "rental_uris": {"android": "https://dc.lft.to/lastmile_qr_scan", "ios": "https://dc.lft.to/lastmile_qr_scan"}, "lon": -77.03302266666667, "name": "657c61b7b8afc0439b9f3fb04d578b3f", "is_disabled": 0, "is_reserved": 0, "bike_id": "657c61b7b8afc0439b9f3fb04d578b3f", "lat": 38.95632466666667, "type": "electric_scooter"}, {"fusion_lat": 0.0, "fusion_lon": 0.0, "rental_uris": {"android": "https://dc.lft.to/lastmile_qr_scan", "ios": "https://dc.lft.to/lastmile_qr_scan"}, "lon": -77.04273666666667, "name": "b2d1bc63e578e9728eb554d3f485f0ab", "is_disabled": 0, "is_reserved": 0, "bike_id": "b2d1bc63e578e9728eb554d3f485f0ab", "lat": 38.92237683333333, "type": "electric_scooter"}, {"fusion_lat": 0.0, "fusion_lon": 0.0, "rental_uris": {"android": "https://dc.lft.to/lastmile_qr_scan", "ios": "https://dc.lft.to/lastmile_qr_scan"}, "lon": -76.93755133333333, "name": "648daef3f4884ad0a6d65392cc77db91", "is_disabled": 0, "is_reserved": 0, "bike_id": "648daef3f4884ad0a6d65392cc77db91", "lat": 38.89935166666667, "type": "electric_scooter"}, {"fusion_lat": 0.0, "fusion_lon": 0.0, "rental_uris": {"android": "https://dc.lft.to/lastmile_qr_scan", "ios": "https://dc.lft.to/lastmile_qr_scan"}, "lon": -77.0239635, "name": "99bebc8d65118af85b0a048c563e0938", "is_disabled": 0, "is_reserved": 0, "bike_id": "99bebc8d65118af85b0a048c563e0938", "lat": 38.92070366666667, "type": "electric_scooter"}, {"fusion_lat": 0.0, "fusion_lon": 0.0, "rental_uris": {"android": "https://dc.lft.to/lastmile_qr_scan", "ios": "https://dc.lft.to/lastmile_qr_scan"}, "lon": -77.01411716666667, "name": "eaed4218b98e78d8841e4addcf6231ed", "is_disabled": 0, "is_reserved": 0, "bike_id": "eaed4218b98e78d8841e4addcf6231ed", "lat": 38.928135, "type": "electric_scooter"}, {"fusion_lat": 0.0, "fusion_lon": 0.0, "rental_uris": {"android": "https://dc.lft.to/lastmile_qr_scan", "ios": "https://dc.lft.to/lastmile_qr_scan"}, "lon": -77.002565, "name": "ced2711ccbb3d8af6b7b424d5d8531ee", "is_disabled": 0, "is_reserved": 0, "bike_id": "ced2711ccbb3d8af6b7b424d5d8531ee", "lat": 38.8949165, "type": "electric_scooter"}, {"fusion_lat": 0.0, "fusion_lon": 0.0, "rental_uris": {"android": "https://dc.lft.to/lastmile_qr_scan", "ios": "https://dc.lft.to/lastmile_qr_scan"}, "lon": -77.04035183333333, "name": "11d14203cdc95fbb5a0fda3ff0dba6c9", "is_disabled": 0, "is_reserved": 0, "bike_id": "11d14203cdc95fbb5a0fda3ff0dba6c9", "lat": 38.9057035, "type": "electric_scooter"}, {"fusion_lat": 0.0, "fusion_lon": 0.0, "rental_uris": {"android": "https://dc.lft.to/lastmile_qr_scan", "ios": "https://dc.lft.to/lastmile_qr_scan"}, "lon": -77.03859283333334, "name": "da72c545752b79757d5c3afba95a49a5", "is_disabled": 0, "is_reserved": 0, "bike_id": "da72c545752b79757d5c3afba95a49a5", "lat": 38.902936, "type": "electric_scooter"}, {"fusion_lat": 0.0, "fusion_lon": 0.0, "rental_uris": {"android": "https://dc.lft.to/lastmile_qr_scan", "ios": "https://dc.lft.to/lastmile_qr_scan"}, "lon": -77.01094816666667, "name": "1fdc0de44ad8ea33fcc84e2ea9148574", "is_disabled": 0, "is_reserved": 0, "bike_id": "1fdc0de44ad8ea33fcc84e2ea9148574", "lat": 38.87298033333333, "type": "electric_bike"}, {"fusion_lat": 0.0, "fusion_lon": 0.0, "rental_uris": {"android": "https://dc.lft.to/lastmile_qr_scan", "ios": "https://dc.lft.to/lastmile_qr_scan"}, "lon": -77.04869883333333, "name": "4dd7a1a963c1bf02cf1570ab8319fec6", "is_disabled": 0, "is_reserved": 0, "bike_id": "4dd7a1a963c1bf02cf1570ab8319fec6", "lat": 38.9097555, "type": "electric_scooter"}, {"fusion_lat": 0.0, "fusion_lon": 0.0, "rental_uris": {"android": "https://dc.lft.to/lastmile_qr_scan", "ios": "https://dc.lft.to/lastmile_qr_scan"}, "lon": -77.0432715, "name": "c6620cd0454300d641bb4ee16201d0a0", "is_disabled": 0, "is_reserved": 0, "bike_id": "c6620cd0454300d641bb4ee16201d0a0", "lat": 38.90039216666667, "type": "electric_scooter"}, {"fusion_lat": 0.0, "fusion_lon": 0.0, "rental_uris": {"android": "https://dc.lft.to/lastmile_qr_scan", "ios": "https://dc.lft.to/lastmile_qr_scan"}, "lon": -77.04080783333333, "name": "8209e18d19f0e0dbcd2626257ef9d42c", "is_disabled": 0, "is_reserved": 0, "bike_id": "8209e18d19f0e0dbcd2626257ef9d42c", "lat": 38.9039355, "type": "electric_scooter"}, {"fusion_lat": 0.0, "fusion_lon": 0.0, "rental_uris": {"android": "https://dc.lft.to/lastmile_qr_scan", "ios": "https://dc.lft.to/lastmile_qr_scan"}, "lon": -77.02022083333334, "name": "19fcaee25c63c6d537b96f7ab98a4911", "is_disabled": 0, "is_reserved": 0, "bike_id": "19fcaee25c63c6d537b96f7ab98a4911", "lat": 38.903528666666666, "type": "electric_scooter"}, {"fusion_lat": 0.0, "fusion_lon": 0.0, "rental_uris": {"android": "https://dc.lft.to/lastmile_qr_scan", "ios": "https://dc.lft.to/lastmile_qr_scan"}, "lon": -77.03988216666667, "name": "886010b1859f6edc2717b135ded33f70", "is_disabled": 0, "is_reserved": 0, "bike_id": "886010b1859f6edc2717b135ded33f70", "lat": 38.9230995, "type": "electric_scooter"}, {"fusion_lat": 0.0, "fusion_lon": 0.0, "rental_uris": {"android": "https://dc.lft.to/lastmile_qr_scan", "ios": "https://dc.lft.to/lastmile_qr_scan"}, "lon": -77.01510733333333, "name": "c956bd1a5a7718d035d075eb451b33fa", "is_disabled": 0, "is_reserved": 0, "bike_id": "c956bd1a5a7718d035d075eb451b33fa", "lat": 38.912965666666665, "type": "electric_scooter"}, {"fusion_lat": 0.0, "fusion_lon": 0.0, "rental_uris": {"android": "https://dc.lft.to/lastmile_qr_scan", "ios": "https://dc.lft.to/lastmile_qr_scan"}, "lon": -77.0320915, "name": "11ad56655c4660878dd03456ee20ea99", "is_disabled": 0, "is_reserved": 0, "bike_id": "11ad56655c4660878dd03456ee20ea99", "lat": 38.918477833333334, "type": "electric_scooter"}, {"fusion_lat": 0.0, "fusion_lon": 0.0, "rental_uris": {"android": "https://dc.lft.to/lastmile_qr_scan", "ios": "https://dc.lft.to/lastmile_qr_scan"}, "lon": -77.01732533333333, "name": "af801765182baf83c14c06b574aee214", "is_disabled": 0, "is_reserved": 0, "bike_id": "af801765182baf83c14c06b574aee214", "lat": 38.902635, "type": "electric_scooter"}, {"fusion_lat": 0.0, "fusion_lon": 0.0, "rental_uris": {"android": "https://dc.lft.to/lastmile_qr_scan", "ios": "https://dc.lft.to/lastmile_qr_scan"}, "lon": -77.038521, "name": "e681a1f6b5dfd2abe02f44b0daaf4fd5", "is_disabled": 0, "is_reserved": 0, "bike_id": "e681a1f6b5dfd2abe02f44b0daaf4fd5", "lat": 38.91131416666666, "type": "electric_scooter"}, {"fusion_lat": 0.0, "fusion_lon": 0.0, "rental_uris": {"android": "https://dc.lft.to/lastmile_qr_scan", "ios": "https://dc.lft.to/lastmile_qr_scan"}, "lon": -77.02085466666666, "name": "7d0f9206c30d9085c8d10208d4237e32", "is_disabled": 0, "is_reserved": 0, "bike_id": "7d0f9206c30d9085c8d10208d4237e32", "lat": 38.927128, "type": "electric_scooter"}, {"fusion_lat": 0.0, "fusion_lon": 0.0, "rental_uris": {"android": "https://dc.lft.to/lastmile_qr_scan", "ios": "https://dc.lft.to/lastmile_qr_scan"}, "lon": -76.99988833333333, "name": "c78d44226192dc61984b6ed2aaabd4f2", "is_disabled": 0, "is_reserved": 0, "bike_id": "c78d44226192dc61984b6ed2aaabd4f2", "lat": 38.964039, "type": "electric_bike"}, {"fusion_lat": 0.0, "fusion_lon": 0.0, "rental_uris": {"android": "https://dc.lft.to/lastmile_qr_scan", "ios": "https://dc.lft.to/lastmile_qr_scan"}, "lon": -77.0465625, "name": "a9f937e603d6e30931bba582efa137fb", "is_disabled": 0, "is_reserved": 0, "bike_id": "a9f937e603d6e30931bba582efa137fb", "lat": 38.895064, "type": "electric_scooter"}, {"fusion_lat": 0.0, "fusion_lon": 0.0, "rental_uris": {"android": "https://dc.lft.to/lastmile_qr_scan", "ios": "https://dc.lft.to/lastmile_qr_scan"}, "lon": -76.968993, "name": "05fb7bde44fbb4737574c595b734f37e", "is_disabled": 0, "is_reserved": 0, "bike_id": "05fb7bde44fbb4737574c595b734f37e", "lat": 38.959939166666665, "type": "electric_bike"}, {"fusion_lat": 0.0, "fusion_lon": 0.0, "rental_uris": {"android": "https://dc.lft.to/lastmile_qr_scan", "ios": "https://dc.lft.to/lastmile_qr_scan"}, "lon": -77.02787033333334, "name": "36511f48f2b4df26655fada9c572f45a", "is_disabled": 0, "is_reserved": 0, "bike_id": "36511f48f2b4df26655fada9c572f45a", "lat": 38.8992515, "type": "electric_scooter"}, {"fusion_lat": 0.0, "fusion_lon": 0.0, "rental_uris": {"android": "https://dc.lft.to/lastmile_qr_scan", "ios": "https://dc.lft.to/lastmile_qr_scan"}, "lon": -77.02208866666666, "name": "49cb3edaab5e2ccd2857d13d1c6402a3", "is_disabled": 0, "is_reserved": 0, "bike_id": "49cb3edaab5e2ccd2857d13d1c6402a3", "lat": 38.9222705, "type": "electric_scooter"}, {"fusion_lat": 0.0, "fusion_lon": 0.0, "rental_uris": {"android": "https://dc.lft.to/lastmile_qr_scan", "ios": "https://dc.lft.to/lastmile_qr_scan"}, "lon": -76.98555816666666, "name": "caedd6de9e0f6b4886647a1e4f974c34", "is_disabled": 0, "is_reserved": 0, "bike_id": "caedd6de9e0f6b4886647a1e4f974c34", "lat": 38.883536166666666, "type": "electric_scooter"}, {"fusion_lat": 0.0, "fusion_lon": 0.0, "rental_uris": {"android": "https://dc.lft.to/lastmile_qr_scan", "ios": "https://dc.lft.to/lastmile_qr_scan"}, "lon": -77.04988783333333, "name": "8c6a3a0416de8a8673ab736e453fbd99", "is_disabled": 0, "is_reserved": 0, "bike_id": "8c6a3a0416de8a8673ab736e453fbd99", "lat": 38.897680333333334, "type": "electric_scooter"}, {"fusion_lat": 0.0, "fusion_lon": 0.0, "rental_uris": {"android": "https://dc.lft.to/lastmile_qr_scan", "ios": "https://dc.lft.to/lastmile_qr_scan"}, "lon": -77.04348383333334, "name": "a624fcd77ab717e021291d023318006b", "is_disabled": 0, "is_reserved": 0, "bike_id": "a624fcd77ab717e021291d023318006b", "lat": 38.905685, "type": "electric_scooter"}, {"fusion_lat": 0.0, "fusion_lon": 0.0, "rental_uris": {"android": "https://dc.lft.to/lastmile_qr_scan", "ios": "https://dc.lft.to/lastmile_qr_scan"}, "lon": -76.9941055, "name": "c0473343ab6d0c7e12488502709fe902", "is_disabled": 0, "is_reserved": 0, "bike_id": "c0473343ab6d0c7e12488502709fe902", "lat": 38.8778515, "type": "electric_scooter"}, {"fusion_lat": 0.0, "fusion_lon": 0.0, "rental_uris": {"android": "https://dc.lft.to/lastmile_qr_scan", "ios": "https://dc.lft.to/lastmile_qr_scan"}, "lon": -77.03238066666667, "name": "c28c9b4f2a7af327da339e7c6e8c7499", "is_disabled": 0, "is_reserved": 0, "bike_id": "c28c9b4f2a7af327da339e7c6e8c7499", "lat": 38.92725316666667, "type": "electric_scooter"}, {"fusion_lat": 0.0, "fusion_lon": 0.0, "rental_uris": {"android": "https://dc.lft.to/lastmile_qr_scan", "ios": "https://dc.lft.to/lastmile_qr_scan"}, "lon": -77.032375, "name": "ef90eb3bbb4a533c860c7699bf10e000", "is_disabled": 0, "is_reserved": 0, "bike_id": "ef90eb3bbb4a533c860c7699bf10e000", "lat": 38.923789666666664, "type": "electric_scooter"}, {"fusion_lat": 0.0, "fusion_lon": 0.0, "rental_uris": {"android": "https://dc.lft.to/lastmile_qr_scan", "ios": "https://dc.lft.to/lastmile_qr_scan"}, "lon": -77.05744533333333, "name": "ac5e67a19c36a74471fd05910d03d3a9", "is_disabled": 0, "is_reserved": 0, "bike_id": "ac5e67a19c36a74471fd05910d03d3a9", "lat": 38.93386366666667, "type": "electric_scooter"}, {"fusion_lat": 0.0, "fusion_lon": 0.0, "rental_uris": {"android": "https://dc.lft.to/lastmile_qr_scan", "ios": "https://dc.lft.to/lastmile_qr_scan"}, "lon": -77.04339533333334, "name": "0fa793eec4103cd7516308546b7ea5cf", "is_disabled": 0, "is_reserved": 0, "bike_id": "0fa793eec4103cd7516308546b7ea5cf", "lat": 38.90050433333333, "type": "electric_scooter"}, {"fusion_lat": 0.0, "fusion_lon": 0.0, "rental_uris": {"android": "https://dc.lft.to/lastmile_qr_scan", "ios": "https://dc.lft.to/lastmile_qr_scan"}, "lon": -77.04800016666667, "name": "400dc8c1fab8ba2692ba34f13bc1df24", "is_disabled": 0, "is_reserved": 0, "bike_id": "400dc8c1fab8ba2692ba34f13bc1df24", "lat": 38.896178166666665, "type": "electric_scooter"}, {"fusion_lat": 0.0, "fusion_lon": 0.0, "rental_uris": {"android": "https://dc.lft.to/lastmile_qr_scan", "ios": "https://dc.lft.to/lastmile_qr_scan"}, "lon": -77.04342116666666, "name": "36f44bf5791f91d8a0d0d562961d251a", "is_disabled": 0, "is_reserved": 0, "bike_id": "36f44bf5791f91d8a0d0d562961d251a", "lat": 38.907579, "type": "electric_scooter"}, {"fusion_lat": 0.0, "fusion_lon": 0.0, "rental_uris": {"android": "https://dc.lft.to/lastmile_qr_scan", "ios": "https://dc.lft.to/lastmile_qr_scan"}, "lon": -77.052732, "name": "8cfc9c545614d67ce223a3e529525a12", "is_disabled": 0, "is_reserved": 0, "bike_id": "8cfc9c545614d67ce223a3e529525a12", "lat": 38.911283, "type": "electric_scooter"}, {"fusion_lat": 0.0, "fusion_lon": 0.0, "rental_uris": {"android": "https://dc.lft.to/lastmile_qr_scan", "ios": "https://dc.lft.to/lastmile_qr_scan"}, "lon": -77.0111235, "name": "4d7fa18498d8fea20ea1ea737aa4cc3b", "is_disabled": 0, "is_reserved": 0, "bike_id": "4d7fa18498d8fea20ea1ea737aa4cc3b", "lat": 38.8953805, "type": "electric_scooter"}, {"fusion_lat": 0.0, "fusion_lon": 0.0, "rental_uris": {"android": "https://dc.lft.to/lastmile_qr_scan", "ios": "https://dc.lft.to/lastmile_qr_scan"}, "lon": -77.044641, "name": "bbccabc1ddd2b6bfd1afb854aa2ee982", "is_disabled": 0, "is_reserved": 0, "bike_id": "bbccabc1ddd2b6bfd1afb854aa2ee982", "lat": 38.896023, "type": "electric_scooter"}, {"fusion_lat": 0.0, "fusion_lon": 0.0, "rental_uris": {"android": "https://dc.lft.to/lastmile_qr_scan", "ios": "https://dc.lft.to/lastmile_qr_scan"}, "lon": -77.04649866666666, "name": "0caac3576ed5ead353eef3a13ffd84f5", "is_disabled": 0, "is_reserved": 0, "bike_id": "0caac3576ed5ead353eef3a13ffd84f5", "lat": 38.89689516666667, "type": "electric_scooter"}, {"fusion_lat": 0.0, "fusion_lon": 0.0, "rental_uris": {"android": "https://dc.lft.to/lastmile_qr_scan", "ios": "https://dc.lft.to/lastmile_qr_scan"}, "lon": -77.03793133333333, "name": "d76124894e76112705147e0449b53b75", "is_disabled": 0, "is_reserved": 0, "bike_id": "d76124894e76112705147e0449b53b75", "lat": 38.91986, "type": "electric_scooter"}, {"fusion_lat": 0.0, "fusion_lon": 0.0, "rental_uris": {"android": "https://dc.lft.to/lastmile_qr_scan", "ios": "https://dc.lft.to/lastmile_qr_scan"}, "lon": -77.03035566666667, "name": "9ba060a39c15f62830d386d6325b9b1f", "is_disabled": 0, "is_reserved": 0, "bike_id": "9ba060a39c15f62830d386d6325b9b1f", "lat": 38.89830666666667, "type": "electric_scooter"}, {"fusion_lat": 0.0, "fusion_lon": 0.0, "rental_uris": {"android": "https://dc.lft.to/lastmile_qr_scan", "ios": "https://dc.lft.to/lastmile_qr_scan"}, "lon": -77.03277433333334, "name": "f18f40c68dcc1e7e0f7ac2f7a1039e1e", "is_disabled": 0, "is_reserved": 0, "bike_id": "f18f40c68dcc1e7e0f7ac2f7a1039e1e", "lat": 38.898966333333334, "type": "electric_scooter"}, {"fusion_lat": 0.0, "fusion_lon": 0.0, "rental_uris": {"android": "https://dc.lft.to/lastmile_qr_scan", "ios": "https://dc.lft.to/lastmile_qr_scan"}, "lon": -76.99947666666667, "name": "ede429f93c87a3b1a834eff27b626977", "is_disabled": 0, "is_reserved": 0, "bike_id": "ede429f93c87a3b1a834eff27b626977", "lat": 38.8429245, "type": "electric_scooter"}, {"fusion_lat": 0.0, "fusion_lon": 0.0, "rental_uris": {"android": "https://dc.lft.to/lastmile_qr_scan", "ios": "https://dc.lft.to/lastmile_qr_scan"}, "lon": -77.06425883333333, "name": "0974b19bcb800032ec7b5904e7471354", "is_disabled": 0, "is_reserved": 0, "bike_id": "0974b19bcb800032ec7b5904e7471354", "lat": 38.9052175, "type": "electric_scooter"}, {"fusion_lat": 0.0, "fusion_lon": 0.0, "rental_uris": {"android": "https://dc.lft.to/lastmile_qr_scan", "ios": "https://dc.lft.to/lastmile_qr_scan"}, "lon": -77.0679195, "name": "ec6b7ececc3e67cd688747c10dc78dd1", "is_disabled": 0, "is_reserved": 0, "bike_id": "ec6b7ececc3e67cd688747c10dc78dd1", "lat": 38.9127245, "type": "electric_scooter"}, {"fusion_lat": 0.0, "fusion_lon": 0.0, "rental_uris": {"android": "https://dc.lft.to/lastmile_qr_scan", "ios": "https://dc.lft.to/lastmile_qr_scan"}, "lon": -77.01851383333333, "name": "0022f7aa94a7d87ad1cc9b0f8f4704d5", "is_disabled": 0, "is_reserved": 0, "bike_id": "0022f7aa94a7d87ad1cc9b0f8f4704d5", "lat": 38.94925716666667, "type": "electric_scooter"}, {"fusion_lat": 0.0, "fusion_lon": 0.0, "rental_uris": {"android": "https://dc.lft.to/lastmile_qr_scan", "ios": "https://dc.lft.to/lastmile_qr_scan"}, "lon": -77.05074066666667, "name": "c1b3312844a118a50f597e7da26292db", "is_disabled": 0, "is_reserved": 0, "bike_id": "c1b3312844a118a50f597e7da26292db", "lat": 38.92530983333333, "type": "electric_scooter"}, {"fusion_lat": 0.0, "fusion_lon": 0.0, "rental_uris": {"android": "https://dc.lft.to/lastmile_qr_scan", "ios": "https://dc.lft.to/lastmile_qr_scan"}, "lon": -77.04500983333334, "name": "654698991d3466b7fff9c17e16376fce", "is_disabled": 0, "is_reserved": 0, "bike_id": "654698991d3466b7fff9c17e16376fce", "lat": 38.903657333333335, "type": "electric_scooter"}, {"fusion_lat": 0.0, "fusion_lon": 0.0, "rental_uris": {"android": "https://dc.lft.to/lastmile_qr_scan", "ios": "https://dc.lft.to/lastmile_qr_scan"}, "lon": -77.01827833333333, "name": "0b3c2a8de5ff9af6124cc651caf9c3bd", "is_disabled": 0, "is_reserved": 0, "bike_id": "0b3c2a8de5ff9af6124cc651caf9c3bd", "lat": 38.89974216666667, "type": "electric_scooter"}, {"fusion_lat": 0.0, "fusion_lon": 0.0, "rental_uris": {"android": "https://dc.lft.to/lastmile_qr_scan", "ios": "https://dc.lft.to/lastmile_qr_scan"}, "lon": -77.03336233333333, "name": "8718ee0e44c14858c65f151bed6856be", "is_disabled": 0, "is_reserved": 0, "bike_id": "8718ee0e44c14858c65f151bed6856be", "lat": 38.902385, "type": "electric_scooter"}, {"fusion_lat": 0.0, "fusion_lon": 0.0, "rental_uris": {"android": "https://dc.lft.to/lastmile_qr_scan", "ios": "https://dc.lft.to/lastmile_qr_scan"}, "lon": -76.9333785, "name": "d18f9b4e6f254e2ab511d78790ce572c", "is_disabled": 0, "is_reserved": 0, "bike_id": "d18f9b4e6f254e2ab511d78790ce572c", "lat": 38.908641, "type": "electric_scooter"}, {"fusion_lat": 0.0, "fusion_lon": 0.0, "rental_uris": {"android": "https://dc.lft.to/lastmile_qr_scan", "ios": "https://dc.lft.to/lastmile_qr_scan"}, "lon": -77.02150183333333, "name": "9d229ab89d4be6d157ccc37cd632c8bf", "is_disabled": 0, "is_reserved": 0, "bike_id": "9d229ab89d4be6d157ccc37cd632c8bf", "lat": 38.91903416666667, "type": "electric_scooter"}, {"fusion_lat": 0.0, "fusion_lon": 0.0, "rental_uris": {"android": "https://dc.lft.to/lastmile_qr_scan", "ios": "https://dc.lft.to/lastmile_qr_scan"}, "lon": -77.03466016666667, "name": "6b875a64abeff49601172ddb0ef0a3a5", "is_disabled": 0, "is_reserved": 0, "bike_id": "6b875a64abeff49601172ddb0ef0a3a5", "lat": 38.905565833333334, "type": "electric_scooter"}, {"fusion_lat": 0.0, "fusion_lon": 0.0, "rental_uris": {"android": "https://dc.lft.to/lastmile_qr_scan", "ios": "https://dc.lft.to/lastmile_qr_scan"}, "lon": -77.04019016666666, "name": "419096fe0c9b040932b776f0c42af96a", "is_disabled": 0, "is_reserved": 0, "bike_id": "419096fe0c9b040932b776f0c42af96a", "lat": 38.903732166666664, "type": "electric_scooter"}, {"fusion_lat": 0.0, "fusion_lon": 0.0, "rental_uris": {"android": "https://dc.lft.to/lastmile_qr_scan", "ios": "https://dc.lft.to/lastmile_qr_scan"}, "lon": -77.0462585, "name": "06889e827505ee15c10b6442bd102a31", "is_disabled": 0, "is_reserved": 0, "bike_id": "06889e827505ee15c10b6442bd102a31", "lat": 38.918072, "type": "electric_scooter"}, {"fusion_lat": 0.0, "fusion_lon": 0.0, "rental_uris": {"android": "https://dc.lft.to/lastmile_qr_scan", "ios": "https://dc.lft.to/lastmile_qr_scan"}, "lon": -77.03245166666666, "name": "431fe979a49263bbc7037a3d300eb404", "is_disabled": 0, "is_reserved": 0, "bike_id": "431fe979a49263bbc7037a3d300eb404", "lat": 38.9277085, "type": "electric_scooter"}, {"fusion_lat": 0.0, "fusion_lon": 0.0, "rental_uris": {"android": "https://dc.lft.to/lastmile_qr_scan", "ios": "https://dc.lft.to/lastmile_qr_scan"}, "lon": -77.00068566666667, "name": "c42da91f986ca3f543ece272d8d668fe", "is_disabled": 0, "is_reserved": 0, "bike_id": "c42da91f986ca3f543ece272d8d668fe", "lat": 38.88675666666666, "type": "electric_scooter"}, {"fusion_lat": 0.0, "fusion_lon": 0.0, "rental_uris": {"android": "https://dc.lft.to/lastmile_qr_scan", "ios": "https://dc.lft.to/lastmile_qr_scan"}, "lon": -76.9914865, "name": "09c749673aebf1e6f2470605fb8eb665", "is_disabled": 0, "is_reserved": 0, "bike_id": "09c749673aebf1e6f2470605fb8eb665", "lat": 38.88532583333333, "type": "electric_scooter"}, {"fusion_lat": 0.0, "fusion_lon": 0.0, "rental_uris": {"android": "https://dc.lft.to/lastmile_qr_scan", "ios": "https://dc.lft.to/lastmile_qr_scan"}, "lon": -77.00894666666667, "name": "9c9fb267806d5b61c262fe330265f543", "is_disabled": 0, "is_reserved": 0, "bike_id": "9c9fb267806d5b61c262fe330265f543", "lat": 38.87672883333333, "type": "electric_scooter"}, {"fusion_lat": 0.0, "fusion_lon": 0.0, "rental_uris": {"android": "https://dc.lft.to/lastmile_qr_scan", "ios": "https://dc.lft.to/lastmile_qr_scan"}, "lon": -77.02784583333333, "name": "defa72771c5713cf5f36aa49e2e4a3ea", "is_disabled": 0, "is_reserved": 0, "bike_id": "defa72771c5713cf5f36aa49e2e4a3ea", "lat": 38.92773733333333, "type": "electric_scooter"}, {"fusion_lat": 0.0, "fusion_lon": 0.0, "rental_uris": {"android": "https://dc.lft.to/lastmile_qr_scan", "ios": "https://dc.lft.to/lastmile_qr_scan"}, "lon": -77.00323116666667, "name": "e4edec2a5a6e3486a39e08dd2fad320b", "is_disabled": 0, "is_reserved": 0, "bike_id": "e4edec2a5a6e3486a39e08dd2fad320b", "lat": 38.919356666666665, "type": "electric_scooter"}, {"fusion_lat": 0.0, "fusion_lon": 0.0, "rental_uris": {"android": "https://dc.lft.to/lastmile_qr_scan", "ios": "https://dc.lft.to/lastmile_qr_scan"}, "lon": -77.0317785, "name": "88dcb23f0bd56a6061c67529cf53f0a5", "is_disabled": 0, "is_reserved": 0, "bike_id": "88dcb23f0bd56a6061c67529cf53f0a5", "lat": 38.90030616666667, "type": "electric_scooter"}, {"fusion_lat": 0.0, "fusion_lon": 0.0, "rental_uris": {"android": "https://dc.lft.to/lastmile_qr_scan", "ios": "https://dc.lft.to/lastmile_qr_scan"}, "lon": -76.96982416666667, "name": "3e0ecd21552b521e4a94bdcf4b6083a8", "is_disabled": 0, "is_reserved": 0, "bike_id": "3e0ecd21552b521e4a94bdcf4b6083a8", "lat": 38.87864866666666, "type": "electric_scooter"}, {"fusion_lat": 0.0, "fusion_lon": 0.0, "rental_uris": {"android": "https://dc.lft.to/lastmile_qr_scan", "ios": "https://dc.lft.to/lastmile_qr_scan"}, "lon": -76.942535, "name": "48af357886f74b0d412fca74ef450b2b", "is_disabled": 0, "is_reserved": 0, "bike_id": "48af357886f74b0d412fca74ef450b2b", "lat": 38.898439333333336, "type": "electric_scooter"}, {"fusion_lat": 0.0, "fusion_lon": 0.0, "rental_uris": {"android": "https://dc.lft.to/lastmile_qr_scan", "ios": "https://dc.lft.to/lastmile_qr_scan"}, "lon": -77.04693766666666, "name": "90c6cbff032de29b73d8b99b178f1fd8", "is_disabled": 0, "is_reserved": 0, "bike_id": "90c6cbff032de29b73d8b99b178f1fd8", "lat": 38.8921835, "type": "electric_scooter"}, {"fusion_lat": 0.0, "fusion_lon": 0.0, "rental_uris": {"android": "https://dc.lft.to/lastmile_qr_scan", "ios": "https://dc.lft.to/lastmile_qr_scan"}, "lon": -77.02017916666667, "name": "50be3118ae20202c71eb9a54818faeff", "is_disabled": 0, "is_reserved": 0, "bike_id": "50be3118ae20202c71eb9a54818faeff", "lat": 38.89790083333333, "type": "electric_scooter"}, {"fusion_lat": 0.0, "fusion_lon": 0.0, "rental_uris": {"android": "https://dc.lft.to/lastmile_qr_scan", "ios": "https://dc.lft.to/lastmile_qr_scan"}, "lon": -77.01953333333333, "name": "714fe159ed2a6eb258ab2f87a31cba9d", "is_disabled": 0, "is_reserved": 0, "bike_id": "714fe159ed2a6eb258ab2f87a31cba9d", "lat": 38.893571333333334, "type": "electric_scooter"}, {"fusion_lat": 0.0, "fusion_lon": 0.0, "rental_uris": {"android": "https://dc.lft.to/lastmile_qr_scan", "ios": "https://dc.lft.to/lastmile_qr_scan"}, "lon": -77.00342983333333, "name": "87561a85f356351f7886901c6881a18e", "is_disabled": 0, "is_reserved": 0, "bike_id": "87561a85f356351f7886901c6881a18e", "lat": 38.8772075, "type": "electric_scooter"}, {"fusion_lat": 0.0, "fusion_lon": 0.0, "rental_uris": {"android": "https://dc.lft.to/lastmile_qr_scan", "ios": "https://dc.lft.to/lastmile_qr_scan"}, "lon": -77.021662, "name": "54d87ec423ac2349ed4e6005a936ed00", "is_disabled": 0, "is_reserved": 0, "bike_id": "54d87ec423ac2349ed4e6005a936ed00", "lat": 38.8972425, "type": "electric_scooter"}, {"fusion_lat": 0.0, "fusion_lon": 0.0, "rental_uris": {"android": "https://dc.lft.to/lastmile_qr_scan", "ios": "https://dc.lft.to/lastmile_qr_scan"}, "lon": -77.00328466666667, "name": "8ac19c60ee924cbfe3c7431db322a555", "is_disabled": 0, "is_reserved": 0, "bike_id": "8ac19c60ee924cbfe3c7431db322a555", "lat": 38.8850105, "type": "electric_scooter"}, {"fusion_lat": 0.0, "fusion_lon": 0.0, "rental_uris": {"android": "https://dc.lft.to/lastmile_qr_scan", "ios": "https://dc.lft.to/lastmile_qr_scan"}, "lon": -77.02718666666667, "name": "a218c552499cde499666547a60af9661", "is_disabled": 0, "is_reserved": 0, "bike_id": "a218c552499cde499666547a60af9661", "lat": 38.88119583333334, "type": "electric_scooter"}, {"fusion_lat": 0.0, "fusion_lon": 0.0, "rental_uris": {"android": "https://dc.lft.to/lastmile_qr_scan", "ios": "https://dc.lft.to/lastmile_qr_scan"}, "lon": -77.01223633333333, "name": "07d2b8aa38bdd33940ef7064d4209070", "is_disabled": 0, "is_reserved": 0, "bike_id": "07d2b8aa38bdd33940ef7064d4209070", "lat": 38.92601116666667, "type": "electric_scooter"}, {"fusion_lat": 0.0, "fusion_lon": 0.0, "rental_uris": {"android": "https://dc.lft.to/lastmile_qr_scan", "ios": "https://dc.lft.to/lastmile_qr_scan"}, "lon": -77.04980933333333, "name": "20d6a93de23e27cc2906f57f38a8b73b", "is_disabled": 0, "is_reserved": 0, "bike_id": "20d6a93de23e27cc2906f57f38a8b73b", "lat": 38.9178505, "type": "electric_scooter"}, {"fusion_lat": 0.0, "fusion_lon": 0.0, "rental_uris": {"android": "https://dc.lft.to/lastmile_qr_scan", "ios": "https://dc.lft.to/lastmile_qr_scan"}, "lon": -76.98272783333333, "name": "8c4c74f7bbac374f97538324ab8a8872", "is_disabled": 0, "is_reserved": 0, "bike_id": "8c4c74f7bbac374f97538324ab8a8872", "lat": 38.86759583333333, "type": "electric_scooter"}, {"fusion_lat": 0.0, "fusion_lon": 0.0, "rental_uris": {"android": "https://dc.lft.to/lastmile_qr_scan", "ios": "https://dc.lft.to/lastmile_qr_scan"}, "lon": -77.0398395, "name": "152d5d4f10736295cadb3ca9170256a4", "is_disabled": 0, "is_reserved": 0, "bike_id": "152d5d4f10736295cadb3ca9170256a4", "lat": 38.90133633333333, "type": "electric_scooter"}, {"fusion_lat": 0.0, "fusion_lon": 0.0, "rental_uris": {"android": "https://dc.lft.to/lastmile_qr_scan", "ios": "https://dc.lft.to/lastmile_qr_scan"}, "lon": -77.0296275, "name": "5619b7166ce2e1cb8982913e778fedda", "is_disabled": 0, "is_reserved": 0, "bike_id": "5619b7166ce2e1cb8982913e778fedda", "lat": 38.9226915, "type": "electric_scooter"}, {"fusion_lat": 0.0, "fusion_lon": 0.0, "rental_uris": {"android": "https://dc.lft.to/lastmile_qr_scan", "ios": "https://dc.lft.to/lastmile_qr_scan"}, "lon": -77.03302783333334, "name": "1f29d8d65d938da545b73ceb6444bbfb", "is_disabled": 0, "is_reserved": 0, "bike_id": "1f29d8d65d938da545b73ceb6444bbfb", "lat": 38.9563385, "type": "electric_scooter"}, {"fusion_lat": 0.0, "fusion_lon": 0.0, "rental_uris": {"android": "https://dc.lft.to/lastmile_qr_scan", "ios": "https://dc.lft.to/lastmile_qr_scan"}, "lon": -77.0331755, "name": "f6f076c0bdc1eedc16fc12fe9127b23a", "is_disabled": 0, "is_reserved": 0, "bike_id": "f6f076c0bdc1eedc16fc12fe9127b23a", "lat": 38.91558466666667, "type": "electric_scooter"}, {"fusion_lat": 0.0, "fusion_lon": 0.0, "rental_uris": {"android": "https://dc.lft.to/lastmile_qr_scan", "ios": "https://dc.lft.to/lastmile_qr_scan"}, "lon": -77.04279583333333, "name": "22d59fc8410a177a11b9db92d566ccce", "is_disabled": 0, "is_reserved": 0, "bike_id": "22d59fc8410a177a11b9db92d566ccce", "lat": 38.9086625, "type": "electric_scooter"}, {"fusion_lat": 0.0, "fusion_lon": 0.0, "rental_uris": {"android": "https://dc.lft.to/lastmile_qr_scan", "ios": "https://dc.lft.to/lastmile_qr_scan"}, "lon": -77.032554, "name": "cc36608b970f244688bcd6964d40a009", "is_disabled": 0, "is_reserved": 0, "bike_id": "cc36608b970f244688bcd6964d40a009", "lat": 38.9292085, "type": "electric_scooter"}, {"fusion_lat": 0.0, "fusion_lon": 0.0, "rental_uris": {"android": "https://dc.lft.to/lastmile_qr_scan", "ios": "https://dc.lft.to/lastmile_qr_scan"}, "lon": -77.0176645, "name": "15ff7132644bcd3f5f6dfa0d36ad4ca5", "is_disabled": 0, "is_reserved": 0, "bike_id": "15ff7132644bcd3f5f6dfa0d36ad4ca5", "lat": 38.8772075, "type": "electric_scooter"}, {"fusion_lat": 0.0, "fusion_lon": 0.0, "rental_uris": {"android": "https://dc.lft.to/lastmile_qr_scan", "ios": "https://dc.lft.to/lastmile_qr_scan"}, "lon": -77.11080983333333, "name": "6cb54107924e126a7dd1fe2d4149eea5", "is_disabled": 0, "is_reserved": 0, "bike_id": "6cb54107924e126a7dd1fe2d4149eea5", "lat": 39.01219916666667, "type": "electric_bike"}, {"fusion_lat": 0.0, "fusion_lon": 0.0, "rental_uris": {"android": "https://dc.lft.to/lastmile_qr_scan", "ios": "https://dc.lft.to/lastmile_qr_scan"}, "lon": -77.01995766666667, "name": "48a3947b59674ea6b53fed4495fe8694", "is_disabled": 0, "is_reserved": 0, "bike_id": "48a3947b59674ea6b53fed4495fe8694", "lat": 38.895517, "type": "electric_scooter"}, {"fusion_lat": 0.0, "fusion_lon": 0.0, "rental_uris": {"android": "https://dc.lft.to/lastmile_qr_scan", "ios": "https://dc.lft.to/lastmile_qr_scan"}, "lon": -77.02426216666667, "name": "83448252f4e534935fd7e34a6cd95086", "is_disabled": 0, "is_reserved": 0, "bike_id": "83448252f4e534935fd7e34a6cd95086", "lat": 38.937066333333334, "type": "electric_scooter"}, {"fusion_lat": 0.0, "fusion_lon": 0.0, "rental_uris": {"android": "https://dc.lft.to/lastmile_qr_scan", "ios": "https://dc.lft.to/lastmile_qr_scan"}, "lon": -77.06002916666667, "name": "a0f2902af8c97740d6ebb816a3765fce", "is_disabled": 0, "is_reserved": 0, "bike_id": "a0f2902af8c97740d6ebb816a3765fce", "lat": 38.93636566666667, "type": "electric_scooter"}, {"fusion_lat": 0.0, "fusion_lon": 0.0, "rental_uris": {"android": "https://dc.lft.to/lastmile_qr_scan", "ios": "https://dc.lft.to/lastmile_qr_scan"}, "lon": -77.03254016666666, "name": "23a02d4a18234a5012716ba536477ba9", "is_disabled": 0, "is_reserved": 0, "bike_id": "23a02d4a18234a5012716ba536477ba9", "lat": 38.928543166666664, "type": "electric_scooter"}, {"fusion_lat": 0.0, "fusion_lon": 0.0, "rental_uris": {"android": "https://dc.lft.to/lastmile_qr_scan", "ios": "https://dc.lft.to/lastmile_qr_scan"}, "lon": -77.021613, "name": "81cdf30305529155b33176f7d591955a", "is_disabled": 0, "is_reserved": 0, "bike_id": "81cdf30305529155b33176f7d591955a", "lat": 38.9261085, "type": "electric_scooter"}, {"fusion_lat": 0.0, "fusion_lon": 0.0, "rental_uris": {"android": "https://dc.lft.to/lastmile_qr_scan", "ios": "https://dc.lft.to/lastmile_qr_scan"}, "lon": -76.979583, "name": "9358aa32d983f78dbb8d4be104b3f22d", "is_disabled": 0, "is_reserved": 0, "bike_id": "9358aa32d983f78dbb8d4be104b3f22d", "lat": 38.905013, "type": "electric_scooter"}, {"fusion_lat": 0.0, "fusion_lon": 0.0, "rental_uris": {"android": "https://dc.lft.to/lastmile_qr_scan", "ios": "https://dc.lft.to/lastmile_qr_scan"}, "lon": -77.021274, "name": "71b1719b95e47181ce7ffe8dad8e65d9", "is_disabled": 0, "is_reserved": 0, "bike_id": "71b1719b95e47181ce7ffe8dad8e65d9", "lat": 38.920039333333335, "type": "electric_scooter"}, {"fusion_lat": 0.0, "fusion_lon": 0.0, "rental_uris": {"android": "https://dc.lft.to/lastmile_qr_scan", "ios": "https://dc.lft.to/lastmile_qr_scan"}, "lon": -76.95507066666667, "name": "2d53d203008243d72e1383691c7e74fe", "is_disabled": 0, "is_reserved": 0, "bike_id": "2d53d203008243d72e1383691c7e74fe", "lat": 38.939186, "type": "electric_bike"}, {"fusion_lat": 0.0, "fusion_lon": 0.0, "rental_uris": {"android": "https://dc.lft.to/lastmile_qr_scan", "ios": "https://dc.lft.to/lastmile_qr_scan"}, "lon": -77.0176065, "name": "30a4b8f03e29eb5bb7e1806937311a09", "is_disabled": 0, "is_reserved": 0, "bike_id": "30a4b8f03e29eb5bb7e1806937311a09", "lat": 38.902625, "type": "electric_scooter"}, {"fusion_lat": 0.0, "fusion_lon": 0.0, "rental_uris": {"android": "https://dc.lft.to/lastmile_qr_scan", "ios": "https://dc.lft.to/lastmile_qr_scan"}, "lon": -77.043306, "name": "932987c66634df1c77e16205623bcee0", "is_disabled": 0, "is_reserved": 0, "bike_id": "932987c66634df1c77e16205623bcee0", "lat": 38.9075955, "type": "electric_scooter"}, {"fusion_lat": 0.0, "fusion_lon": 0.0, "rental_uris": {"android": "https://dc.lft.to/lastmile_qr_scan", "ios": "https://dc.lft.to/lastmile_qr_scan"}, "lon": -77.01402533333334, "name": "c6fab350f07102bd7457493a9b7eb041", "is_disabled": 0, "is_reserved": 0, "bike_id": "c6fab350f07102bd7457493a9b7eb041", "lat": 38.92805766666667, "type": "electric_scooter"}, {"fusion_lat": 0.0, "fusion_lon": 0.0, "rental_uris": {"android": "https://dc.lft.to/lastmile_qr_scan", "ios": "https://dc.lft.to/lastmile_qr_scan"}, "lon": -76.999473, "name": "9e90cae9c707f05362b6d80b12afdef9", "is_disabled": 0, "is_reserved": 0, "bike_id": "9e90cae9c707f05362b6d80b12afdef9", "lat": 38.84292416666667, "type": "electric_scooter"}, {"fusion_lat": 0.0, "fusion_lon": 0.0, "rental_uris": {"android": "https://dc.lft.to/lastmile_qr_scan", "ios": "https://dc.lft.to/lastmile_qr_scan"}, "lon": -77.03254933333334, "name": "1f1e9a559d8bbe9b2ff840082f22fb05", "is_disabled": 0, "is_reserved": 0, "bike_id": "1f1e9a559d8bbe9b2ff840082f22fb05", "lat": 38.905455333333336, "type": "electric_scooter"}, {"fusion_lat": 0.0, "fusion_lon": 0.0, "rental_uris": {"android": "https://dc.lft.to/lastmile_qr_scan", "ios": "https://dc.lft.to/lastmile_qr_scan"}, "lon": -77.02410233333333, "name": "41ffc8ec4ed991c14f21852d3be012d1", "is_disabled": 0, "is_reserved": 0, "bike_id": "41ffc8ec4ed991c14f21852d3be012d1", "lat": 38.87987966666667, "type": "electric_scooter"}, {"fusion_lat": 0.0, "fusion_lon": 0.0, "rental_uris": {"android": "https://dc.lft.to/lastmile_qr_scan", "ios": "https://dc.lft.to/lastmile_qr_scan"}, "lon": -76.98425383333333, "name": "e4f73d446245cb0d284458954fd67c43", "is_disabled": 0, "is_reserved": 0, "bike_id": "e4f73d446245cb0d284458954fd67c43", "lat": 38.92641, "type": "electric_bike"}, {"fusion_lat": 0.0, "fusion_lon": 0.0, "rental_uris": {"android": "https://dc.lft.to/lastmile_qr_scan", "ios": "https://dc.lft.to/lastmile_qr_scan"}, "lon": -77.02536216666667, "name": "c16d0aaeb934ef67f05d13095d734622", "is_disabled": 0, "is_reserved": 0, "bike_id": "c16d0aaeb934ef67f05d13095d734622", "lat": 38.935893666666665, "type": "electric_scooter"}, {"fusion_lat": 0.0, "fusion_lon": 0.0, "rental_uris": {"android": "https://dc.lft.to/lastmile_qr_scan", "ios": "https://dc.lft.to/lastmile_qr_scan"}, "lon": -77.019418, "name": "2333b4ceedac9ce0db1849a89e71104b", "is_disabled": 0, "is_reserved": 0, "bike_id": "2333b4ceedac9ce0db1849a89e71104b", "lat": 38.9242085, "type": "electric_scooter"}, {"fusion_lat": 0.0, "fusion_lon": 0.0, "rental_uris": {"android": "https://dc.lft.to/lastmile_qr_scan", "ios": "https://dc.lft.to/lastmile_qr_scan"}, "lon": -77.06094233333333, "name": "5dc77320b2cd8e342bbd36fc384e5158", "is_disabled": 0, "is_reserved": 0, "bike_id": "5dc77320b2cd8e342bbd36fc384e5158", "lat": 38.905217666666665, "type": "electric_scooter"}, {"fusion_lat": 0.0, "fusion_lon": 0.0, "rental_uris": {"android": "https://dc.lft.to/lastmile_qr_scan", "ios": "https://dc.lft.to/lastmile_qr_scan"}, "lon": -77.076495, "name": "ee72a74b8606d6381ee383f90e8f9534", "is_disabled": 0, "is_reserved": 0, "bike_id": "ee72a74b8606d6381ee383f90e8f9534", "lat": 38.9431165, "type": "electric_scooter"}, {"fusion_lat": 0.0, "fusion_lon": 0.0, "rental_uris": {"android": "https://dc.lft.to/lastmile_qr_scan", "ios": "https://dc.lft.to/lastmile_qr_scan"}, "lon": -77.0453645, "name": "d2bcb6042b98215f2c559d76e8bd2f89", "is_disabled": 0, "is_reserved": 0, "bike_id": "d2bcb6042b98215f2c559d76e8bd2f89", "lat": 38.91187016666667, "type": "electric_scooter"}, {"fusion_lat": 0.0, "fusion_lon": 0.0, "rental_uris": {"android": "https://dc.lft.to/lastmile_qr_scan", "ios": "https://dc.lft.to/lastmile_qr_scan"}, "lon": -77.01161416666666, "name": "44723090cd9c473a14a38a6f5a6c88be", "is_disabled": 0, "is_reserved": 0, "bike_id": "44723090cd9c473a14a38a6f5a6c88be", "lat": 38.9111085, "type": "electric_scooter"}, {"fusion_lat": 0.0, "fusion_lon": 0.0, "rental_uris": {"android": "https://dc.lft.to/lastmile_qr_scan", "ios": "https://dc.lft.to/lastmile_qr_scan"}, "lon": -77.03520633333333, "name": "ab5197ab1bbcd6aa2804796287120dfc", "is_disabled": 0, "is_reserved": 0, "bike_id": "ab5197ab1bbcd6aa2804796287120dfc", "lat": 38.9253545, "type": "electric_scooter"}, {"fusion_lat": 0.0, "fusion_lon": 0.0, "rental_uris": {"android": "https://dc.lft.to/lastmile_qr_scan", "ios": "https://dc.lft.to/lastmile_qr_scan"}, "lon": -77.04219316666666, "name": "f51b65c549ceb917637b1da258b7e82b", "is_disabled": 0, "is_reserved": 0, "bike_id": "f51b65c549ceb917637b1da258b7e82b", "lat": 38.922982, "type": "electric_scooter"}, {"fusion_lat": 0.0, "fusion_lon": 0.0, "rental_uris": {"android": "https://dc.lft.to/lastmile_qr_scan", "ios": "https://dc.lft.to/lastmile_qr_scan"}, "lon": -77.04157233333333, "name": "9f99d98e188ac8960c4e1deaeeab6450", "is_disabled": 0, "is_reserved": 0, "bike_id": "9f99d98e188ac8960c4e1deaeeab6450", "lat": 38.901196166666665, "type": "electric_scooter"}, {"fusion_lat": 0.0, "fusion_lon": 0.0, "rental_uris": {"android": "https://dc.lft.to/lastmile_qr_scan", "ios": "https://dc.lft.to/lastmile_qr_scan"}, "lon": -77.00111, "name": "a4bee95a7ab1a9c3a3d08d6c55991e4a", "is_disabled": 0, "is_reserved": 0, "bike_id": "a4bee95a7ab1a9c3a3d08d6c55991e4a", "lat": 38.873695833333336, "type": "electric_scooter"}, {"fusion_lat": 0.0, "fusion_lon": 0.0, "rental_uris": {"android": "https://dc.lft.to/lastmile_qr_scan", "ios": "https://dc.lft.to/lastmile_qr_scan"}, "lon": -77.00299483333333, "name": "32708bdb85883a7c2d27c4eb4aef1d52", "is_disabled": 0, "is_reserved": 0, "bike_id": "32708bdb85883a7c2d27c4eb4aef1d52", "lat": 38.9202545, "type": "electric_scooter"}, {"fusion_lat": 0.0, "fusion_lon": 0.0, "rental_uris": {"android": "https://dc.lft.to/lastmile_qr_scan", "ios": "https://dc.lft.to/lastmile_qr_scan"}, "lon": -77.03177166666667, "name": "b6626985d9e32ceef542ca3e2a5509f1", "is_disabled": 0, "is_reserved": 0, "bike_id": "b6626985d9e32ceef542ca3e2a5509f1", "lat": 38.9248025, "type": "electric_scooter"}, {"fusion_lat": 0.0, "fusion_lon": 0.0, "rental_uris": {"android": "https://dc.lft.to/lastmile_qr_scan", "ios": "https://dc.lft.to/lastmile_qr_scan"}, "lon": -77.14058466666667, "name": "7e4ead08a0d091f1af67c006a870673d", "is_disabled": 0, "is_reserved": 0, "bike_id": "7e4ead08a0d091f1af67c006a870673d", "lat": 38.987656333333334, "type": "electric_bike"}, {"fusion_lat": 0.0, "fusion_lon": 0.0, "rental_uris": {"android": "https://dc.lft.to/lastmile_qr_scan", "ios": "https://dc.lft.to/lastmile_qr_scan"}, "lon": -77.00709166666667, "name": "606b7117b72a0b15959bcca985be8b1e", "is_disabled": 0, "is_reserved": 0, "bike_id": "606b7117b72a0b15959bcca985be8b1e", "lat": 38.884875666666666, "type": "electric_scooter"}, {"fusion_lat": 0.0, "fusion_lon": 0.0, "rental_uris": {"android": "https://dc.lft.to/lastmile_qr_scan", "ios": "https://dc.lft.to/lastmile_qr_scan"}, "lon": -77.03986516666667, "name": "e65ccbf96cb513622bfe4af87fb0b1cf", "is_disabled": 0, "is_reserved": 0, "bike_id": "e65ccbf96cb513622bfe4af87fb0b1cf", "lat": 38.924374666666665, "type": "electric_scooter"}, {"fusion_lat": 0.0, "fusion_lon": 0.0, "rental_uris": {"android": "https://dc.lft.to/lastmile_qr_scan", "ios": "https://dc.lft.to/lastmile_qr_scan"}, "lon": -76.98699416666666, "name": "58f432d78eb9fde52c0c23682b4d5c55", "is_disabled": 0, "is_reserved": 0, "bike_id": "58f432d78eb9fde52c0c23682b4d5c55", "lat": 38.867218333333334, "type": "electric_scooter"}, {"fusion_lat": 0.0, "fusion_lon": 0.0, "rental_uris": {"android": "https://dc.lft.to/lastmile_qr_scan", "ios": "https://dc.lft.to/lastmile_qr_scan"}, "lon": -76.97329116666667, "name": "5d18902127ba97e88e88850d63aaf526", "is_disabled": 0, "is_reserved": 0, "bike_id": "5d18902127ba97e88e88850d63aaf526", "lat": 38.90408983333333, "type": "electric_scooter"}, {"fusion_lat": 0.0, "fusion_lon": 0.0, "rental_uris": {"android": "https://dc.lft.to/lastmile_qr_scan", "ios": "https://dc.lft.to/lastmile_qr_scan"}, "lon": -77.01302916666667, "name": "8adbef0aff7f751e8d0575ab46d8a6ac", "is_disabled": 0, "is_reserved": 0, "bike_id": "8adbef0aff7f751e8d0575ab46d8a6ac", "lat": 38.92999316666667, "type": "electric_scooter"}, {"fusion_lat": 0.0, "fusion_lon": 0.0, "rental_uris": {"android": "https://dc.lft.to/lastmile_qr_scan", "ios": "https://dc.lft.to/lastmile_qr_scan"}, "lon": -77.04692533333333, "name": "64661ae2ca23406b8b971522a233959c", "is_disabled": 0, "is_reserved": 0, "bike_id": "64661ae2ca23406b8b971522a233959c", "lat": 38.92155983333333, "type": "electric_scooter"}, {"fusion_lat": 0.0, "fusion_lon": 0.0, "rental_uris": {"android": "https://dc.lft.to/lastmile_qr_scan", "ios": "https://dc.lft.to/lastmile_qr_scan"}, "lon": -77.0499185, "name": "d526563b7206eb972569ee625968644a", "is_disabled": 0, "is_reserved": 0, "bike_id": "d526563b7206eb972569ee625968644a", "lat": 38.89224733333333, "type": "electric_scooter"}, {"fusion_lat": 0.0, "fusion_lon": 0.0, "rental_uris": {"android": "https://dc.lft.to/lastmile_qr_scan", "ios": "https://dc.lft.to/lastmile_qr_scan"}, "lon": -76.9204845, "name": "bf1b397aaac7004055c6e3f18d7d4dcc", "is_disabled": 0, "is_reserved": 0, "bike_id": "bf1b397aaac7004055c6e3f18d7d4dcc", "lat": 38.897316833333335, "type": "electric_bike"}, {"fusion_lat": 0.0, "fusion_lon": 0.0, "rental_uris": {"android": "https://dc.lft.to/lastmile_qr_scan", "ios": "https://dc.lft.to/lastmile_qr_scan"}, "lon": -77.03241333333334, "name": "136f5ab27a260f4904083b7ea2cc217c", "is_disabled": 0, "is_reserved": 0, "bike_id": "136f5ab27a260f4904083b7ea2cc217c", "lat": 38.92742616666666, "type": "electric_scooter"}, {"fusion_lat": 0.0, "fusion_lon": 0.0, "rental_uris": {"android": "https://dc.lft.to/lastmile_qr_scan", "ios": "https://dc.lft.to/lastmile_qr_scan"}, "lon": -77.03177583333333, "name": "4c0f9992751c766381323cc3c7ff95bf", "is_disabled": 0, "is_reserved": 0, "bike_id": "4c0f9992751c766381323cc3c7ff95bf", "lat": 38.90067483333333, "type": "electric_scooter"}, {"fusion_lat": 0.0, "fusion_lon": 0.0, "rental_uris": {"android": "https://dc.lft.to/lastmile_qr_scan", "ios": "https://dc.lft.to/lastmile_qr_scan"}, "lon": -76.93187066666667, "name": "88b106e26244407bc0db2bac70e4c194", "is_disabled": 0, "is_reserved": 0, "bike_id": "88b106e26244407bc0db2bac70e4c194", "lat": 38.89874783333333, "type": "electric_scooter"}, {"fusion_lat": 0.0, "fusion_lon": 0.0, "rental_uris": {"android": "https://dc.lft.to/lastmile_qr_scan", "ios": "https://dc.lft.to/lastmile_qr_scan"}, "lon": -76.96556383333333, "name": "818d9172295b46c11ff720779e43c83e", "is_disabled": 0, "is_reserved": 0, "bike_id": "818d9172295b46c11ff720779e43c83e", "lat": 38.918674833333334, "type": "electric_scooter"}, {"fusion_lat": 0.0, "fusion_lon": 0.0, "rental_uris": {"android": "https://dc.lft.to/lastmile_qr_scan", "ios": "https://dc.lft.to/lastmile_qr_scan"}, "lon": -77.03294266666667, "name": "908c3423c68b2fbf6739b264e14c7287", "is_disabled": 0, "is_reserved": 0, "bike_id": "908c3423c68b2fbf6739b264e14c7287", "lat": 38.919782166666664, "type": "electric_scooter"}, {"fusion_lat": 0.0, "fusion_lon": 0.0, "rental_uris": {"android": "https://dc.lft.to/lastmile_qr_scan", "ios": "https://dc.lft.to/lastmile_qr_scan"}, "lon": -77.027586, "name": "44c2374a59d7ea74fd73b7adf5f7ba9d", "is_disabled": 0, "is_reserved": 0, "bike_id": "44c2374a59d7ea74fd73b7adf5f7ba9d", "lat": 38.896314333333336, "type": "electric_scooter"}, {"fusion_lat": 0.0, "fusion_lon": 0.0, "rental_uris": {"android": "https://dc.lft.to/lastmile_qr_scan", "ios": "https://dc.lft.to/lastmile_qr_scan"}, "lon": -77.02492433333333, "name": "4a687313ad48c6868c65c9153ce0d586", "is_disabled": 0, "is_reserved": 0, "bike_id": "4a687313ad48c6868c65c9153ce0d586", "lat": 38.94942616666667, "type": "electric_scooter"}, {"fusion_lat": 0.0, "fusion_lon": 0.0, "rental_uris": {"android": "https://dc.lft.to/lastmile_qr_scan", "ios": "https://dc.lft.to/lastmile_qr_scan"}, "lon": -77.00567966666667, "name": "4cc59eae4c24d04d3f4e2e4628f78f4f", "is_disabled": 0, "is_reserved": 0, "bike_id": "4cc59eae4c24d04d3f4e2e4628f78f4f", "lat": 38.874640666666664, "type": "electric_scooter"}, {"fusion_lat": 0.0, "fusion_lon": 0.0, "rental_uris": {"android": "https://dc.lft.to/lastmile_qr_scan", "ios": "https://dc.lft.to/lastmile_qr_scan"}, "lon": -77.00930433333333, "name": "9e160a782baf9cf9a59efc8a02e17baf", "is_disabled": 0, "is_reserved": 0, "bike_id": "9e160a782baf9cf9a59efc8a02e17baf", "lat": 38.899921, "type": "electric_scooter"}, {"fusion_lat": 0.0, "fusion_lon": 0.0, "rental_uris": {"android": "https://dc.lft.to/lastmile_qr_scan", "ios": "https://dc.lft.to/lastmile_qr_scan"}, "lon": -77.022988, "name": "3920614d8f41bbf38419b42b256154bf", "is_disabled": 0, "is_reserved": 0, "bike_id": "3920614d8f41bbf38419b42b256154bf", "lat": 38.908612833333336, "type": "electric_scooter"}, {"fusion_lat": 0.0, "fusion_lon": 0.0, "rental_uris": {"android": "https://dc.lft.to/lastmile_qr_scan", "ios": "https://dc.lft.to/lastmile_qr_scan"}, "lon": -77.035131, "name": "af1e2e6e07dcebd3cda3bbb076cfa062", "is_disabled": 0, "is_reserved": 0, "bike_id": "af1e2e6e07dcebd3cda3bbb076cfa062", "lat": 38.922012333333335, "type": "electric_scooter"}, {"fusion_lat": 0.0, "fusion_lon": 0.0, "rental_uris": {"android": "https://dc.lft.to/lastmile_qr_scan", "ios": "https://dc.lft.to/lastmile_qr_scan"}, "lon": -77.03458733333333, "name": "db7848de9fca8a1c3a1e2f5d5ada7aed", "is_disabled": 0, "is_reserved": 0, "bike_id": "db7848de9fca8a1c3a1e2f5d5ada7aed", "lat": 38.90346516666666, "type": "electric_scooter"}, {"fusion_lat": 0.0, "fusion_lon": 0.0, "rental_uris": {"android": "https://dc.lft.to/lastmile_qr_scan", "ios": "https://dc.lft.to/lastmile_qr_scan"}, "lon": -77.0219625, "name": "a27cf4f7abf5dfa946f4553722fd7550", "is_disabled": 0, "is_reserved": 0, "bike_id": "a27cf4f7abf5dfa946f4553722fd7550", "lat": 38.91877616666667, "type": "electric_scooter"}, {"fusion_lat": 0.0, "fusion_lon": 0.0, "rental_uris": {"android": "https://dc.lft.to/lastmile_qr_scan", "ios": "https://dc.lft.to/lastmile_qr_scan"}, "lon": -77.02611966666667, "name": "f4cd62d69e797e24ea5d2239ac681d58", "is_disabled": 0, "is_reserved": 0, "bike_id": "f4cd62d69e797e24ea5d2239ac681d58", "lat": 38.95180216666667, "type": "electric_scooter"}, {"fusion_lat": 0.0, "fusion_lon": 0.0, "rental_uris": {"android": "https://dc.lft.to/lastmile_qr_scan", "ios": "https://dc.lft.to/lastmile_qr_scan"}, "lon": -77.0418855, "name": "73667e9b0194b1c1efa9f658426156a5", "is_disabled": 0, "is_reserved": 0, "bike_id": "73667e9b0194b1c1efa9f658426156a5", "lat": 38.92100833333333, "type": "electric_scooter"}, {"fusion_lat": 0.0, "fusion_lon": 0.0, "rental_uris": {"android": "https://dc.lft.to/lastmile_qr_scan", "ios": "https://dc.lft.to/lastmile_qr_scan"}, "lon": -77.05919483333334, "name": "d6c709779fd3bed504e1ddb6de3ef24d", "is_disabled": 0, "is_reserved": 0, "bike_id": "d6c709779fd3bed504e1ddb6de3ef24d", "lat": 38.90450466666667, "type": "electric_scooter"}, {"fusion_lat": 0.0, "fusion_lon": 0.0, "rental_uris": {"android": "https://dc.lft.to/lastmile_qr_scan", "ios": "https://dc.lft.to/lastmile_qr_scan"}, "lon": -77.03454433333333, "name": "3ca651d68426d0697879065ee5fb2e56", "is_disabled": 0, "is_reserved": 0, "bike_id": "3ca651d68426d0697879065ee5fb2e56", "lat": 38.908427, "type": "electric_scooter"}, {"fusion_lat": 0.0, "fusion_lon": 0.0, "rental_uris": {"android": "https://dc.lft.to/lastmile_qr_scan", "ios": "https://dc.lft.to/lastmile_qr_scan"}, "lon": -76.9733375, "name": "aa01de5b1ceb1481a43ce319602ef203", "is_disabled": 0, "is_reserved": 0, "bike_id": "aa01de5b1ceb1481a43ce319602ef203", "lat": 38.904078, "type": "electric_scooter"}, {"fusion_lat": 0.0, "fusion_lon": 0.0, "rental_uris": {"android": "https://dc.lft.to/lastmile_qr_scan", "ios": "https://dc.lft.to/lastmile_qr_scan"}, "lon": -77.02154616666667, "name": "aeab3546527150d2fc157f40071e1a5e", "is_disabled": 0, "is_reserved": 0, "bike_id": "aeab3546527150d2fc157f40071e1a5e", "lat": 38.924580166666665, "type": "electric_scooter"}, {"fusion_lat": 0.0, "fusion_lon": 0.0, "rental_uris": {"android": "https://dc.lft.to/lastmile_qr_scan", "ios": "https://dc.lft.to/lastmile_qr_scan"}, "lon": -77.024061, "name": "04323dc2a9f7916910efe900c1cd064e", "is_disabled": 0, "is_reserved": 0, "bike_id": "04323dc2a9f7916910efe900c1cd064e", "lat": 38.91396733333333, "type": "electric_scooter"}, {"fusion_lat": 0.0, "fusion_lon": 0.0, "rental_uris": {"android": "https://dc.lft.to/lastmile_qr_scan", "ios": "https://dc.lft.to/lastmile_qr_scan"}, "lon": -77.06340766666666, "name": "5e8540e36db005e3e424ca509cb419db", "is_disabled": 0, "is_reserved": 0, "bike_id": "5e8540e36db005e3e424ca509cb419db", "lat": 38.906772833333335, "type": "electric_scooter"}, {"fusion_lat": 0.0, "fusion_lon": 0.0, "rental_uris": {"android": "https://dc.lft.to/lastmile_qr_scan", "ios": "https://dc.lft.to/lastmile_qr_scan"}, "lon": -77.04568133333333, "name": "780f19ac91cec60295e7f50188d11a7c", "is_disabled": 0, "is_reserved": 0, "bike_id": "780f19ac91cec60295e7f50188d11a7c", "lat": 38.902632, "type": "electric_scooter"}, {"fusion_lat": 0.0, "fusion_lon": 0.0, "rental_uris": {"android": "https://dc.lft.to/lastmile_qr_scan", "ios": "https://dc.lft.to/lastmile_qr_scan"}, "lon": -77.03201116666666, "name": "cecd37fe94d3c0788b0befe89480768c", "is_disabled": 0, "is_reserved": 0, "bike_id": "cecd37fe94d3c0788b0befe89480768c", "lat": 38.9036475, "type": "electric_scooter"}, {"fusion_lat": 0.0, "fusion_lon": 0.0, "rental_uris": {"android": "https://dc.lft.to/lastmile_qr_scan", "ios": "https://dc.lft.to/lastmile_qr_scan"}, "lon": -77.0337965, "name": "e4d7729971151c6281ad41a1e7eee231", "is_disabled": 0, "is_reserved": 0, "bike_id": "e4d7729971151c6281ad41a1e7eee231", "lat": 38.90967783333333, "type": "electric_scooter"}, {"fusion_lat": 0.0, "fusion_lon": 0.0, "rental_uris": {"android": "https://dc.lft.to/lastmile_qr_scan", "ios": "https://dc.lft.to/lastmile_qr_scan"}, "lon": -77.028084, "name": "14ed928941b1726e8083536448ba40df", "is_disabled": 0, "is_reserved": 0, "bike_id": "14ed928941b1726e8083536448ba40df", "lat": 38.93073783333333, "type": "electric_scooter"}, {"fusion_lat": 0.0, "fusion_lon": 0.0, "rental_uris": {"android": "https://dc.lft.to/lastmile_qr_scan", "ios": "https://dc.lft.to/lastmile_qr_scan"}, "lon": -77.03029566666666, "name": "192ce173e60456b5e4acd44dc6cb5ffe", "is_disabled": 0, "is_reserved": 0, "bike_id": "192ce173e60456b5e4acd44dc6cb5ffe", "lat": 38.90269716666667, "type": "electric_scooter"},