{"data": {"bikes": [{"name": "82cbec257b88eb5d2b775fc0906b9146", "lon": -77.001902, "lat": 38.90006366666667, "type": "electric_scooter", "fusion_lon": 0.0, "is_reserved": 0, "bike_id": "82cbec257b88eb5d2b775fc0906b9146", "fusion_lat": 0.0, "is_disabled": 0, "rental_uris": {"ios": "https://dc.lft.to/lastmile_qr_scan", "android": "https://dc.lft.to/lastmile_qr_scan"}}, {"name": "4f115f3b0dd1c63ad5e7dffcef097200", "lon": -76.966039, "lat": 38.87388383333333, "type": "electric_scooter", "fusion_lon": 0.0, "is_reserved": 0, "bike_id": "4f115f3b0dd1c63ad5e7dffcef097200", "fusion_lat": 0.0, "is_disabled": 0, "rental_uris": {"ios": "https://dc.lft.to/lastmile_qr_scan", "android": "https://dc.lft.to/lastmile_qr_scan"}}, {"name": "bc1166c73d2fe3c361104c22c3124bc3", "lon": -77.04708183333334, "lat": 38.897325333333335, "type": "electric_scooter", "fusion_lon": 0.0, "is_reserved": 0, "bike_id": "bc1166c73d2fe3c361104c22c3124bc3", "fusion_lat": 0.0, "is_disabled": 0, "rental_uris": {"ios": "https://dc.lft.to/lastmile_qr_scan", "android": "https://dc.lft.to/lastmile_qr_scan"}}, {"name": "d30337ce337e8efd873d4fa6b034e9f9", "lon": -77.05914233333333, "lat": 38.901008166666664, "type": "electric_scooter", "fusion_lon": 0.0, "is_reserved": 0, "bike_id": "d30337ce337e8efd873d4fa6b034e9f9", "fusion_lat": 0.0, "is_disabled": 0, "rental_uris": {"ios": "https://dc.lft.to/lastmile_qr_scan", "android": "https://dc.lft.to/lastmile_qr_scan"}}, {"name": "2a5f76337f333683f645c62ea9d96b16", "lon": -77.015314, "lat": 38.887402333333334, "type": "electric_scooter", "fusion_lon": 0.0, "is_reserved": 0, "bike_id": "2a5f76337f333683f645c62ea9d96b16", "fusion_lat": 0.0, "is_disabled": 0, "rental_uris": {"ios": "https://dc.lft.to/lastmile_qr_scan", "android": "https://dc.lft.to/lastmile_qr_scan"}}, {"name": "caf0bc7fd1452638942ad0b7a82196a7", "lon": -76.98091833333334, "lat": 38.95361833333333, "type": "electric_bike", "fusion_lon": 0.0, "is_reserved": 0, "bike_id": "caf0bc7fd1452638942ad0b7a82196a7", "fusion_lat": 0.0, "is_disabled": 0, "rental_uris": {"ios": "https://dc.lft.to/lastmile_qr_scan", "android": "https://dc.lft.to/lastmile_qr_scan"}}, {"name": "10c455ec0bac7698e934bbea632b3da8", "lon": -77.04693266666666, "lat": 38.921755, "type": "electric_scooter", "fusion_lon": 0.0, "is_reserved": 0, "bike_id": "10c455ec0bac7698e934bbea632b3da8", "fusion_lat": 0.0, "is_disabled": 0, "rental_uris": {"ios": "https://dc.lft.to/lastmile_qr_scan", "android": "https://dc.lft.to/lastmile_qr_scan"}}, {"name": "26a6a63e7858d485e75524a4252c2e76", "lon": -77.01200183333333, "lat": 38.917082666666666, "type": "electric_scooter", "fusion_lon": 0.0, "is_reserved": 0, "bike_id": "26a6a63e7858d485e75524a4252c2e76", "fusion_lat": 0.0, "is_disabled": 0, "rental_uris": {"ios": "https://dc.lft.to/lastmile_qr_scan", "android": "https://dc.lft.to/lastmile_qr_scan"}}, {"name": "e3b9df4212adaa3d1a65ca71d6861f82", "lon": -77.01747416666667, "lat": 38.88735533333333, "type": "electric_scooter", "fusion_lon": 0.0, "is_reserved": 0, "bike_id": "e3b9df4212adaa3d1a65ca71d6861f82", "fusion_lat": 0.0, "is_disabled": 0, "rental_uris": {"ios": "https://dc.lft.to/lastmile_qr_scan", "android": "https://dc.lft.to/lastmile_qr_scan"}}, {"name": "6d50036542faec3efca8422001523707", "lon": -76.99508516666667, "lat": 38.862524, "type": "electric_scooter", "fusion_lon": 0.0, "is_reserved": 0, "bike_id": "6d50036542faec3efca8422001523707", "fusion_lat": 0.0, "is_disabled": 0, "rental_uris": {"ios": "https://dc.lft.to/lastmile_qr_scan", "android": "https://dc.lft.to/lastmile_qr_scan"}}, {"name": "d9c70a391788759e73e122ec8fa2e99c", "lon": -77.05147966666667, "lat": 38.90448133333334, "type": "electric_scooter", "fusion_lon": 0.0, "is_reserved": 0, "bike_id": "d9c70a391788759e73e122ec8fa2e99c", "fusion_lat": 0.0, "is_disabled": 0, "rental_uris": {"ios": "https://dc.lft.to/lastmile_qr_scan", "android": "https://dc.lft.to/lastmile_qr_scan"}}, {"name": "52e3b7a94e5f8f6f588bc5c358595505", "lon": -76.96861983333334, "lat": 38.8708955, "type": "electric_scooter", "fusion_lon": 0.0, "is_reserved": 0, "bike_id": "52e3b7a94e5f8f6f588bc5c358595505", "fusion_lat": 0.0, "is_disabled": 0, "rental_uris": {"ios": "https://dc.lft.to/lastmile_qr_scan", "android": "https://dc.lft.to/lastmile_qr_scan"}}, {"name": "0c72babe0ab87e9684f1651621c6bc39", "lon": -77.02687816666666, "lat": 38.9277905, "type": "electric_scooter", "fusion_lon": 0.0, "is_reserved": 0, "bike_id": "0c72babe0ab87e9684f1651621c6bc39", "fusion_lat": 0.0, "is_disabled": 0, "rental_uris": {"ios": "https://dc.lft.to/lastmile_qr_scan", "android": "https://dc.lft.to/lastmile_qr_scan"}}, {"name": "7499fdc45fd63e77f326a1814aab8fa5", "lon": -76.9600715, "lat": 38.896451, "type": "electric_scooter", "fusion_lon": 0.0, "is_reserved": 0, "bike_id": "7499fdc45fd63e77f326a1814aab8fa5", "fusion_lat": 0.0, "is_disabled": 0, "rental_uris": {"ios": "https://dc.lft.to/lastmile_qr_scan", "android": "https://dc.lft.to/lastmile_qr_scan"}}, {"name": "a8a0015d44b01fcf3afefe3faa00506e", "lon": -77.03446233333334, "lat": 38.91010566666667, "type": "electric_scooter", "fusion_lon": 0.0, "is_reserved": 0, "bike_id": "a8a0015d44b01fcf3afefe3faa00506e", "fusion_lat": 0.0, "is_disabled": 0, "rental_uris": {"ios": "https://dc.lft.to/lastmile_qr_scan", "android": "https://dc.lft.to/lastmile_qr_scan"}}, {"name": "d0fdb6853431fc7b243af2f2b79b26a9", "lon": -77.02303366666666, "lat": 38.91792483333333, "type": "electric_scooter", "fusion_lon": 0.0, "is_reserved": 0, "bike_id": "d0fdb6853431fc7b243af2f2b79b26a9", "fusion_lat": 0.0, "is_disabled": 0, "rental_uris": {"ios": "https://dc.lft.to/lastmile_qr_scan", "android": "https://dc.lft.to/lastmile_qr_scan"}}, {"name": "69614f493c91d9437099ceb105075cb2", "lon": -77.0384725, "lat": 38.921653166666665, "type": "electric_scooter", "fusion_lon": 0.0, "is_reserved": 0, "bike_id": "69614f493c91d9437099ceb105075cb2", "fusion_lat": 0.0, "is_disabled": 0, "rental_uris": {"ios": "https://dc.lft.to/lastmile_qr_scan", "android": "https://dc.lft.to/lastmile_qr_scan"}}, {"name": "0562ed5f8eca0b621124964861cebc14", "lon": -77.011363, "lat": 38.90641383333333, "type": "electric_scooter", "fusion_lon": 0.0, "is_reserved": 0, "bike_id": "0562ed5f8eca0b621124964861cebc14", "fusion_lat": 0.0, "is_disabled": 0, "rental_uris": {"ios": "https://dc.lft.to/lastmile_qr_scan", "android": "https://dc.lft.to/lastmile_qr_scan"}}, {"name": "5b0bed6317eb694722d02552d114cded", "lon": -77.031089, "lat": 38.916955, "type": "electric_scooter", "fusion_lon": 0.0, "is_reserved": 0, "bike_id": "5b0bed6317eb694722d02552d114cded", "fusion_lat": 0.0, "is_disabled": 0, "rental_uris": {"ios": "https://dc.lft.to/lastmile_qr_scan", "android": "https://dc.lft.to/lastmile_qr_scan"}}, {"name": "03f5f4a41ecfc128f0c3288d00ab1c65", "lon": -76.93643566666667, "lat": 38.87149766666667, "type": "electric_bike", "fusion_lon": 0.0, "is_reserved": 0, "bike_id": "03f5f4a41ecfc128f0c3288d00ab1c65", "fusion_lat": 0.0, "is_disabled": 0, "rental_uris": {"ios": "https://dc.lft.to/lastmile_qr_scan", "android": "https://dc.lft.to/lastmile_qr_scan"}}, {"name": "288f930281554138745d26cc75cdfacd", "lon": -77.02437483333334, "lat": 38.909704, "type": "electric_scooter", "fusion_lon": 0.0, "is_reserved": 0, "bike_id": "288f930281554138745d26cc75cdfacd", "fusion_lat": 0.0, "is_disabled": 0, "rental_uris": {"ios": "https://dc.lft.to/lastmile_qr_scan", "android": "https://dc.lft.to/lastmile_qr_scan"}}, {"name": "587b96553605d74ac1dc69dd17202176", "lon": -76.9901815, "lat": 38.90503266666666, "type": "electric_scooter", "fusion_lon": 0.0, "is_reserved": 0, "bike_id": "587b96553605d74ac1dc69dd17202176", "fusion_lat": 0.0, "is_disabled": 0, "rental_uris": {"ios": "https://dc.lft.to/lastmile_qr_scan", "android": "https://dc.lft.to/lastmile_qr_scan"}}, {"name": "62cbae58c0d0561d00e4dfd833031b8a", "lon": -77.04462716666667, "lat": 38.918942, "type": "electric_scooter", "fusion_lon": 0.0, "is_reserved": 0, "bike_id": "62cbae58c0d0561d00e4dfd833031b8a", "fusion_lat": 0.0, "is_disabled": 0, "rental_uris": {"ios": "https://dc.lft.to/lastmile_qr_scan", "android": "https://dc.lft.to/lastmile_qr_scan"}}, {"name": "e8ee5a1d6aacd73b62b8cd8176bf77fb", "lon": -77.03171266666666, "lat": 38.917889, "type": "electric_scooter", "fusion_lon": 0.0, "is_reserved": 0, "bike_id": "e8ee5a1d6aacd73b62b8cd8176bf77fb", "fusion_lat": 0.0, "is_disabled": 0, "rental_uris": {"ios": "https://dc.lft.to/lastmile_qr_scan", "android": "https://dc.lft.to/lastmile_qr_scan"}}, {"name": "599ca518fa9a29fc2cdad955c915e4d6", "lon": -77.0498725, "lat": 38.9011805, "type": "electric_scooter", "fusion_lon": 0.0, "is_reserved": 0, "bike_id": "599ca518fa9a29fc2cdad955c915e4d6", "fusion_lat": 0.0, "is_disabled": 0, "rental_uris": {"ios": "https://dc.lft.to/lastmile_qr_scan", "android": "https://dc.lft.to/lastmile_qr_scan"}}, {"name": "49470d459291d8a41479966a7c161953", "lon": -77.03372116666667, "lat": 38.92041916666667, "type": "electric_scooter", "fusion_lon": 0.0, "is_reserved": 0, "bike_id": "49470d459291d8a41479966a7c161953", "fusion_lat": 0.0, "is_disabled": 0, "rental_uris": {"ios": "https://dc.lft.to/lastmile_qr_scan", "android": "https://dc.lft.to/lastmile_qr_scan"}}, {"name": "8036bc7e198af0696546aec332cff4fe", "lon": -77.03017566666666, "lat": 38.991454166666664, "type": "electric_bike", "fusion_lon": 0.0, "is_reserved": 0, "bike_id": "8036bc7e198af0696546aec332cff4fe", "fusion_lat": 0.0, "is_disabled": 0, "rental_uris": {"ios": "https://dc.lft.to/lastmile_qr_scan", "android": "https://dc.lft.to/lastmile_qr_scan"}}, {"name": "7eed45b4128195e3302cc590453e6690", "lon": -77.0012635, "lat": 38.87798816666667, "type": "electric_scooter", "fusion_lon": 0.0, "is_reserved": 0, "bike_id": "7eed45b4128195e3302cc590453e6690", "fusion_lat": 0.0, "is_disabled": 0, "rental_uris": {"ios": "https://dc.lft.to/lastmile_qr_scan", "android": "https://dc.lft.to/lastmile_qr_scan"}}, {"name": "d11839c498d01c6c353d7551ff8e4a04", "lon": -77.02711966666666, "lat": 38.90668816666667, "type": "electric_scooter", "fusion_lon": 0.0, "is_reserved": 0, "bike_id": "d11839c498d01c6c353d7551ff8e4a04", "fusion_lat": 0.0, "is_disabled": 0, "rental_uris": {"ios": "https://dc.lft.to/lastmile_qr_scan", "android": "https://dc.lft.to/lastmile_qr_scan"}}, {"name": "6b98c107ef2314f72ff66ccfeb8f5fed", "lon": -77.04002516666667, "lat": 38.888685, "type": "electric_scooter", "fusion_lon": 0.0, "is_reserved": 0, "bike_id": "6b98c107ef2314f72ff66ccfeb8f5fed", "fusion_lat": 0.0, "is_disabled": 0, "rental_uris": {"ios": "https://dc.lft.to/lastmile_qr_scan", "android": "https://dc.lft.to/lastmile_qr_scan"}}, {"name": "259495c809730d3c76ba12e8fa176725", "lon": -77.0344035, "lat": 38.918085166666664, "type": "electric_scooter", "fusion_lon": 0.0, "is_reserved": 0, "bike_id": "259495c809730d3c76ba12e8fa176725", "fusion_lat": 0.0, "is_disabled": 0, "rental_uris": {"ios": "https://dc.lft.to/lastmile_qr_scan", "android": "https://dc.lft.to/lastmile_qr_scan"}}, {"name": "1a1186c4c35ffbffc449593916def840", "lon": -76.99353166666667, "lat": 38.8450685, "type": "electric_bike", "fusion_lon": 0.0, "is_reserved": 0, "bike_id": "1a1186c4c35ffbffc449593916def840", "fusion_lat": 0.0, "is_disabled": 0, "rental_uris": {"ios": "https://dc.lft.to/lastmile_qr_scan", "android": "https://dc.lft.to/lastmile_qr_scan"}}, {"name": "23ba1b3788be1dcea4c53a4c3c201144", "lon": -77.03464583333333, "lat": 38.90567383333333, "type": "electric_scooter", "fusion_lon": 0.0, "is_reserved": 0, "bike_id": "23ba1b3788be1dcea4c53a4c3c201144", "fusion_lat": 0.0, "is_disabled": 0, "rental_uris": {"ios": "https://dc.lft.to/lastmile_qr_scan", "android": "https://dc.lft.to/lastmile_qr_scan"}}, {"name": "7bc15c546c6c5a78164c63a54589d472", "lon": -76.998353, "lat": 38.883213833333336, "type": "electric_scooter", "fusion_lon": 0.0, "is_reserved": 0, "bike_id": "7bc15c546c6c5a78164c63a54589d472", "fusion_lat": 0.0, "is_disabled": 0, "rental_uris": {"ios": "https://dc.lft.to/lastmile_qr_scan", "android": "https://dc.lft.to/lastmile_qr_scan"}}, {"name": "d4c9b55158825c323c5934750a6739da", "lon": -77.030664, "lat": 38.92723566666667, "type": "electric_scooter", "fusion_lon": 0.0, "is_reserved": 0, "bike_id": "d4c9b55158825c323c5934750a6739da", "fusion_lat": 0.0, "is_disabled": 0, "rental_uris": {"ios": "https://dc.lft.to/lastmile_qr_scan", "android": "https://dc.lft.to/lastmile_qr_scan"}}, {"name": "92045f96baa6342ae8fced89629e1f1d", "lon": -76.998148, "lat": 38.844313, "type": "electric_scooter", "fusion_lon": 0.0, "is_reserved": 0, "bike_id": "92045f96baa6342ae8fced89629e1f1d", "fusion_lat": 0.0, "is_disabled": 0, "rental_uris": {"ios": "https://dc.lft.to/lastmile_qr_scan", "android": "https://dc.lft.to/lastmile_qr_scan"}}, {"name": "301eba032921e0ab0145e5da6b322a5d", "lon": -77.04343966666667, "lat": 38.907714666666664, "type": "electric_scooter", "fusion_lon": 0.0, "is_reserved": 0, "bike_id": "301eba032921e0ab0145e5da6b322a5d", "fusion_lat": 0.0, "is_disabled": 0, "rental_uris": {"ios": "https://dc.lft.to/lastmile_qr_scan", "android": "https://dc.lft.to/lastmile_qr_scan"}}, {"name": "cf9635989a58235b30f2c25469ebb67f", "lon": -76.99742116666667, "lat": 38.9000165, "type": "electric_scooter", "fusion_lon": 0.0, "is_reserved": 0, "bike_id": "cf9635989a58235b30f2c25469ebb67f", "fusion_lat": 0.0, "is_disabled": 0, "rental_uris": {"ios": "https://dc.lft.to/lastmile_qr_scan", "android": "https://dc.lft.to/lastmile_qr_scan"}}, {"name": "94dc9bee5419de4754b9d72a4298d813", "lon": -77.01987133333333, "lat": 38.92274833333333, "type": "electric_bike", "fusion_lon": 0.0, "is_reserved": 0, "bike_id": "94dc9bee5419de4754b9d72a4298d813", "fusion_lat": 0.0, "is_disabled": 0, "rental_uris": {"ios": "https://dc.lft.to/lastmile_qr_scan", "android": "https://dc.lft.to/lastmile_qr_scan"}}, {"name": "f0007f9cd14e0811b49930ca1cda23d3", "lon": -77.00200216666667, "lat": 38.902369666666665, "type": "electric_scooter", "fusion_lon": 0.0, "is_reserved": 0, "bike_id": "f0007f9cd14e0811b49930ca1cda23d3", "fusion_lat": 0.0, "is_disabled": 0, "rental_uris": {"ios": "https://dc.lft.to/lastmile_qr_scan", "android": "https://dc.lft.to/lastmile_qr_scan"}}, {"name": "5f8a0cfda402bd685ad7d2c3096bbe09", "lon": -76.98923083333334, "lat": 38.85810083333333, "type": "electric_scooter", "fusion_lon": 0.0, "is_reserved": 0, "bike_id": "5f8a0cfda402bd685ad7d2c3096bbe09", "fusion_lat": 0.0, "is_disabled": 0, "rental_uris": {"ios": "https://dc.lft.to/lastmile_qr_scan", "android": "https://dc.lft.to/lastmile_qr_scan"}}, {"name": "1f583dd28ab5c3ceb3338199cfc5ff85", "lon": -77.0344265, "lat": 38.91802766666667, "type": "electric_scooter", "fusion_lon": 0.0, "is_reserved": 0, "bike_id": "1f583dd28ab5c3ceb3338199cfc5ff85", "fusion_lat": 0.0, "is_disabled": 0, "rental_uris": {"ios": "https://dc.lft.to/lastmile_qr_scan", "android": "https://dc.lft.to/lastmile_qr_scan"}}, {"name": "da02b1510aca9286b6c44a5e440765c9", "lon": -76.99027316666667, "lat": 38.898501, "type": "electric_scooter", "fusion_lon": 0.0, "is_reserved": 0, "bike_id": "da02b1510aca9286b6c44a5e440765c9", "fusion_lat": 0.0, "is_disabled": 0, "rental_uris": {"ios": "https://dc.lft.to/lastmile_qr_scan", "android": "https://dc.lft.to/lastmile_qr_scan"}}, {"name": "429597801e188fcb898d32b6d8026f4c", "lon": -76.90704883333333, "lat": 38.89596233333333, "type": "electric_bike", "fusion_lon": 0.0, "is_reserved": 0, "bike_id": "429597801e188fcb898d32b6d8026f4c", "fusion_lat": 0.0, "is_disabled": 0, "rental_uris": {"ios": "https://dc.lft.to/lastmile_qr_scan", "android": "https://dc.lft.to/lastmile_qr_scan"}}, {"name": "f12ca1b7dbf207a31c5dcda4548f6b60", "lon": -77.0379995, "lat": 38.906670166666665, "type": "electric_scooter", "fusion_lon": 0.0, "is_reserved": 0, "bike_id": "f12ca1b7dbf207a31c5dcda4548f6b60", "fusion_lat": 0.0, "is_disabled": 0, "rental_uris": {"ios": "https://dc.lft.to/lastmile_qr_scan", "android": "https://dc.lft.to/lastmile_qr_scan"}}, {"name": "8283ca84ec4fdb6cdbcfe6748ecdc71e", "lon": -77.0396685, "lat": 38.89350133333333, "type": "electric_scooter", "fusion_lon": 0.0, "is_reserved": 0, "bike_id": "8283ca84ec4fdb6cdbcfe6748ecdc71e", "fusion_lat": 0.0, "is_disabled": 0, "rental_uris": {"ios": "https://dc.lft.to/lastmile_qr_scan", "android": "https://dc.lft.to/lastmile_qr_scan"}}, {"name": "5b191c90474a90c45db63a165acd173b", "lon": -77.02793216666667, "lat": 38.95405433333333, "type": "electric_scooter", "fusion_lon": 0.0, "is_reserved": 0, "bike_id": "5b191c90474a90c45db63a165acd173b", "fusion_lat": 0.0, "is_disabled": 0, "rental_uris": {"ios": "https://dc.lft.to/lastmile_qr_scan", "android": "https://dc.lft.to/lastmile_qr_scan"}}, {"name": "65dd7d0b6e109231a2d4e8cfa695cec5", "lon": -77.05122783333333, "lat": 38.923455, "type": "electric_scooter", "fusion_lon": 0.0, "is_reserved": 0, "bike_id": "65dd7d0b6e109231a2d4e8cfa695cec5", "fusion_lat": 0.0, "is_disabled": 0, "rental_uris": {"ios": "https://dc.lft.to/lastmile_qr_scan", "android": "https://dc.lft.to/lastmile_qr_scan"}}, {"name": "da87edf3e0defbf74dc1b728e2a6c0ba", "lon": -77.02092983333333, "lat": 38.921771166666666, "type": "electric_scooter", "fusion_lon": 0.0, "is_reserved": 0, "bike_id": "da87edf3e0defbf74dc1b728e2a6c0ba", "fusion_lat": 0.0, "is_disabled": 0, "rental_uris": {"ios": "https://dc.lft.to/lastmile_qr_scan", "android": "https://dc.lft.to/lastmile_qr_scan"}}, {"name": "7b8fbdd1a78aeb04bfa74d93bd131e3a", "lon": -77.0248785, "lat": 38.93871583333333, "type": "electric_scooter", "fusion_lon": 0.0, "is_reserved": 0, "bike_id": "7b8fbdd1a78aeb04bfa74d93bd131e3a", "fusion_lat": 0.0, "is_disabled": 0, "rental_uris": {"ios": "https://dc.lft.to/lastmile_qr_scan", "android": "https://dc.lft.to/lastmile_qr_scan"}}, {"name": "b997202cd8f3042e33e89be46ebdb584", "lon": -76.9834855, "lat": 38.91546683333333, "type": "electric_scooter", "fusion_lon": 0.0, "is_reserved": 0, "bike_id": "b997202cd8f3042e33e89be46ebdb584", "fusion_lat": 0.0, "is_disabled": 0, "rental_uris": {"ios": "https://dc.lft.to/lastmile_qr_scan", "android": "https://dc.lft.to/lastmile_qr_scan"}}, {"name": "6f47d6f8f423608307b2c9df6e014993", "lon": -77.052352, "lat": 38.9235835, "type": "electric_scooter", "fusion_lon": 0.0, "is_reserved": 0, "bike_id": "6f47d6f8f423608307b2c9df6e014993", "fusion_lat": 0.0, "is_disabled": 0, "rental_uris": {"ios": "https://dc.lft.to/lastmile_qr_scan", "android": "https://dc.lft.to/lastmile_qr_scan"}}, {"name": "1bae3a3448a751f8a01901c3123e6abf", "lon": -77.0304265, "lat": 38.926700833333335, "type": "electric_scooter", "fusion_lon": 0.0, "is_reserved": 0, "bike_id": "1bae3a3448a751f8a01901c3123e6abf", "fusion_lat": 0.0, "is_disabled": 0, "rental_uris": {"ios": "https://dc.lft.to/lastmile_qr_scan", "android": "https://dc.lft.to/lastmile_qr_scan"}}, {"name": "8a89ab9f4097f6d0ed809bd3f627e45b", "lon": -77.03521083333334, "lat": 38.921539, "type": "electric_scooter", "fusion_lon": 0.0, "is_reserved": 0, "bike_id": "8a89ab9f4097f6d0ed809bd3f627e45b", "fusion_lat": 0.0, "is_disabled": 0, "rental_uris": {"ios": "https://dc.lft.to/lastmile_qr_scan", "android": "https://dc.lft.to/lastmile_qr_scan"}}, {"name": "e8dbde08aa12f8cf2fa0c880a79a0b81", "lon": -77.032077, "lat": 38.91898616666667, "type": "electric_scooter", "fusion_lon": 0.0, "is_reserved": 0, "bike_id": "e8dbde08aa12f8cf2fa0c880a79a0b81", "fusion_lat": 0.0, "is_disabled": 0, "rental_uris": {"ios": "https://dc.lft.to/lastmile_qr_scan", "android": "https://dc.lft.to/lastmile_qr_scan"}}, {"name": "7d6a9f9ca15fefbf0b5a47337eccf8d6", "lon": -77.182935, "lat": 38.890717333333335, "type": "electric_bike", "fusion_lon": 0.0, "is_reserved": 0, "bike_id": "7d6a9f9ca15fefbf0b5a47337eccf8d6", "fusion_lat": 0.0, "is_disabled": 0, "rental_uris": {"ios": "https://dc.lft.to/lastmile_qr_scan", "android": "https://dc.lft.to/lastmile_qr_scan"}}, {"name": "58adc9e0bdcda436fc2579b53a1497f3", "lon": -76.9849075, "lat": 38.903913, "type": "electric_scooter", "fusion_lon": 0.0, "is_reserved": 0, "bike_id": "58adc9e0bdcda436fc2579b53a1497f3", "fusion_lat": 0.0, "is_disabled": 0, "rental_uris": {"ios": "https://dc.lft.to/lastmile_qr_scan", "android": "https://dc.lft.to/lastmile_qr_scan"}}, {"name": "fcb6f91974c1815735ddb1192794f102", "lon": -77.03165566666667, "lat": 38.917883833333335, "type": "electric_scooter", "fusion_lon": 0.0, "is_reserved": 0, "bike_id": "fcb6f91974c1815735ddb1192794f102", "fusion_lat": 0.0, "is_disabled": 0, "rental_uris": {"ios": "https://dc.lft.to/lastmile_qr_scan", "android": "https://dc.lft.to/lastmile_qr_scan"}}, {"name": "c1d127418d48f575d4e76903d8714c73", "lon": -77.04612, "lat": 38.916796166666664, "type": "electric_scooter", "fusion_lon": 0.0, "is_reserved": 0, "bike_id": "c1d127418d48f575d4e76903d8714c73", "fusion_lat": 0.0, "is_disabled": 0, "rental_uris": {"ios": "https://dc.lft.to/lastmile_qr_scan", "android": "https://dc.lft.to/lastmile_qr_scan"}}, {"name": "85c9fc013e2e1fe0ee505d6adcacc88c", "lon": -77.02327066666666, "lat": 38.93595166666667, "type": "electric_scooter", "fusion_lon": 0.0, "is_reserved": 0, "bike_id": "85c9fc013e2e1fe0ee505d6adcacc88c", "fusion_lat": 0.0, "is_disabled": 0, "rental_uris": {"ios": "https://dc.lft.to/lastmile_qr_scan", "android": "https://dc.lft.to/lastmile_qr_scan"}}, {"name": "7435fcb7d3a45c7942f9fe7f59a92483", "lon": -77.034172, "lat": 38.91922666666667, "type": "electric_scooter", "fusion_lon": 0.0, "is_reserved": 0, "bike_id": "7435fcb7d3a45c7942f9fe7f59a92483", "fusion_lat": 0.0, "is_disabled": 0, "rental_uris": {"ios": "https://dc.lft.to/lastmile_qr_scan", "android": "https://dc.lft.to/lastmile_qr_scan"}}, {"name": "7fc243db67ace216417fb43d4e6950e7", "lon": -77.03329383333333, "lat": 38.95828933333333, "type": "electric_scooter", "fusion_lon": 0.0, "is_reserved": 0, "bike_id": "7fc243db67ace216417fb43d4e6950e7", "fusion_lat": 0.0, "is_disabled": 0, "rental_uris": {"ios": "https://dc.lft.to/lastmile_qr_scan", "android": "https://dc.lft.to/lastmile_qr_scan"}}, {"name": "d34a87c3755c2798407742e42a67d12f", "lon": -77.02177266666666, "lat": 38.9151055, "type": "electric_scooter", "fusion_lon": 0.0, "is_reserved": 0, "bike_id": "d34a87c3755c2798407742e42a67d12f", "fusion_lat": 0.0, "is_disabled": 0, "rental_uris": {"ios": "https://dc.lft.to/lastmile_qr_scan", "android": "https://dc.lft.to/lastmile_qr_scan"}}, {"name": "078d30a97565173031f998f288e098c3", "lon": -76.93994166666667, "lat": 38.8997455, "type": "electric_scooter", "fusion_lon": 0.0, "is_reserved": 0, "bike_id": "078d30a97565173031f998f288e098c3", "fusion_lat": 0.0, "is_disabled": 0, "rental_uris": {"ios": "https://dc.lft.to/lastmile_qr_scan", "android": "https://dc.lft.to/lastmile_qr_scan"}}, {"name": "ea61b6831302203db8abf7b45adce619", "lon": -76.9865605, "lat": 38.867353, "type": "electric_scooter", "fusion_lon": 0.0, "is_reserved": 0, "bike_id": "ea61b6831302203db8abf7b45adce619", "fusion_lat": 0.0, "is_disabled": 0, "rental_uris": {"ios": "https://dc.lft.to/lastmile_qr_scan", "android": "https://dc.lft.to/lastmile_qr_scan"}}, {"name": "872324cfe29c2fec53ff0dd4cf06e583", "lon": -76.9901055, "lat": 38.858792333333334, "type": "electric_scooter", "fusion_lon": 0.0, "is_reserved": 0, "bike_id": "872324cfe29c2fec53ff0dd4cf06e583", "fusion_lat": 0.0, "is_disabled": 0, "rental_uris": {"ios": "https://dc.lft.to/lastmile_qr_scan", "android": "https://dc.lft.to/lastmile_qr_scan"}}, {"name": "d540e933321c097ec291fa7aba5d00dc", "lon": -77.00191433333333, "lat": 38.9023495, "type": "electric_scooter", "fusion_lon": 0.0, "is_reserved": 0, "bike_id": "d540e933321c097ec291fa7aba5d00dc", "fusion_lat": 0.0, "is_disabled": 0, "rental_uris": {"ios": "https://dc.lft.to/lastmile_qr_scan", "android": "https://dc.lft.to/lastmile_qr_scan"}}, {"name": "cfd3960817743b2b42044746cb11efb5", "lon": -76.95472166666667, "lat": 38.88640133333333, "type": "electric_scooter", "fusion_lon": 0.0, "is_reserved": 0, "bike_id": "cfd3960817743b2b42044746cb11efb5", "fusion_lat": 0.0, "is_disabled": 0, "rental_uris": {"ios": "https://dc.lft.to/lastmile_qr_scan", "android": "https://dc.lft.to/lastmile_qr_scan"}}, {"name": "2bf1043ff443aaca66c2131a92ec0395", "lon": -77.01166466666666, "lat": 38.915627666666666, "type": "electric_scooter", "fusion_lon": 0.0, "is_reserved": 0, "bike_id": "2bf1043ff443aaca66c2131a92ec0395", "fusion_lat": 0.0, "is_disabled": 0, "rental_uris": {"ios": "https://dc.lft.to/lastmile_qr_scan", "android": "https://dc.lft.to/lastmile_qr_scan"}}, {"name": "3fb451642171d9d976d92347ed0cd79e", "lon": -77.018014, "lat": 38.914189666666665, "type": "electric_scooter", "fusion_lon": 0.0, "is_reserved": 0, "bike_id": "3fb451642171d9d976d92347ed0cd79e", "fusion_lat": 0.0, "is_disabled": 0, "rental_uris": {"ios": "https://dc.lft.to/lastmile_qr_scan", "android": "https://dc.lft.to/lastmile_qr_scan"}}, {"name": "6b497d674dd61bab19fbb84a343d9614", "lon": -77.0365045, "lat": 38.916184666666666, "type": "electric_scooter", "fusion_lon": 0.0, "is_reserved": 0, "bike_id": "6b497d674dd61bab19fbb84a343d9614", "fusion_lat": 0.0, "is_disabled": 0, "rental_uris": {"ios": "https://dc.lft.to/lastmile_qr_scan", "android": "https://dc.lft.to/lastmile_qr_scan"}}, {"name": "8370796cd89ec062deae9df88121eff7", "lon": -77.0082975, "lat": 38.829097833333336, "type": "electric_bike", "fusion_lon": 0.0, "is_reserved": 0, "bike_id": "8370796cd89ec062deae9df88121eff7", "fusion_lat": 0.0, "is_disabled": 0, "rental_uris": {"ios": "https://dc.lft.to/lastmile_qr_scan", "android": "https://dc.lft.to/lastmile_qr_scan"}}, {"name": "64bd7de23cb373ac76b894b7de6724f8", "lon": -77.037972, "lat": 38.91542716666667, "type": "electric_scooter", "fusion_lon": 0.0, "is_reserved": 0, "bike_id": "64bd7de23cb373ac76b894b7de6724f8", "fusion_lat": 0.0, "is_disabled": 0, "rental_uris": {"ios": "https://dc.lft.to/lastmile_qr_scan", "android": "https://dc.lft.to/lastmile_qr_scan"}}, {"name": "d4a88bd5b9733cebd8ceeb4a2c03d020", "lon": -77.034391, "lat": 38.909690499999996, "type": "electric_scooter", "fusion_lon": 0.0, "is_reserved": 0, "bike_id": "d4a88bd5b9733cebd8ceeb4a2c03d020", "fusion_lat": 0.0, "is_disabled": 0, "rental_uris": {"ios": "https://dc.lft.to/lastmile_qr_scan", "android": "https://dc.lft.to/lastmile_qr_scan"}}, {"name": "206359e8a4e94c46a3e19c0a218a0451", "lon": -76.94939716666667, "lat": 38.8950865, "type": "electric_scooter", "fusion_lon": 0.0, "is_reserved": 0, "bike_id": "206359e8a4e94c46a3e19c0a218a0451", "fusion_lat": 0.0, "is_disabled": 0, "rental_uris": {"ios": "https://dc.lft.to/lastmile_qr_scan", "android": "https://dc.lft.to/lastmile_qr_scan"}}, {"name": "2784ccc00d11ccb1134788c4ce9ac554", "lon": -77.00064516666667, "lat": 38.8766865, "type": "electric_scooter", "fusion_lon": 0.0, "is_reserved": 0, "bike_id": "2784ccc00d11ccb1134788c4ce9ac554", "fusion_lat": 0.0, "is_disabled": 0, "rental_uris": {"ios": "https://dc.lft.to/lastmile_qr_scan", "android": "https://dc.lft.to/lastmile_qr_scan"}}, {"name": "4f2981399c677a4c9d15e193017e64d7", "lon": -77.07196283333333, "lat": 38.95947733333333, "type": "electric_scooter", "fusion_lon": 0.0, "is_reserved": 0, "bike_id": "4f2981399c677a4c9d15e193017e64d7", "fusion_lat": 0.0, "is_disabled": 0, "rental_uris": {"ios": "https://dc.lft.to/lastmile_qr_scan", "android": "https://dc.lft.to/lastmile_qr_scan"}}, {"name": "efd89b6712710a7d2a3d8886553701e5", "lon": -77.01509316666667, "lat": 38.9104645, "type": "electric_scooter", "fusion_lon": 0.0, "is_reserved": 0, "bike_id": "efd89b6712710a7d2a3d8886553701e5", "fusion_lat": 0.0, "is_disabled": 0, "rental_uris": {"ios": "https://dc.lft.to/lastmile_qr_scan", "android": "https://dc.lft.to/lastmile_qr_scan"}}, {"name": "70ad02ddb182475581d970f26eb47f13", "lon": -77.04144016666666, "lat": 38.92270116666667, "type": "electric_scooter", "fusion_lon": 0.0, "is_reserved": 0, "bike_id": "70ad02ddb182475581d970f26eb47f13", "fusion_lat": 0.0, "is_disabled": 0, "rental_uris": {"ios": "https://dc.lft.to/lastmile_qr_scan", "android": "https://dc.lft.to/lastmile_qr_scan"}}, {"name": "ae232c6c68972861291e6174682d2366", "lon": -77.025997, "lat": 38.896166, "type": "electric_scooter", "fusion_lon": 0.0, "is_reserved": 0, "bike_id": "ae232c6c68972861291e6174682d2366", "fusion_lat": 0.0, "is_disabled": 0, "rental_uris": {"ios": "https://dc.lft.to/lastmile_qr_scan", "android": "https://dc.lft.to/lastmile_qr_scan"}}, {"name": "9814d8b1693f75cb5e4061be89c44e2b", "lon": -77.03902583333333, "lat": 38.907933, "type": "electric_scooter", "fusion_lon": 0.0, "is_reserved": 0, "bike_id": "9814d8b1693f75cb5e4061be89c44e2b", "fusion_lat": 0.0, "is_disabled": 0, "rental_uris": {"ios": "https://dc.lft.to/lastmile_qr_scan", "android": "https://dc.lft.to/lastmile_qr_scan"}}, {"name": "49fa9655b4fa08bb93e9cbbba5b539be", "lon": -77.00898383333333, "lat": 38.903510833333335, "type": "electric_scooter", "fusion_lon": 0.0, "is_reserved": 0, "bike_id": "49fa9655b4fa08bb93e9cbbba5b539be", "fusion_lat": 0.0, "is_disabled": 0, "rental_uris": {"ios": "https://dc.lft.to/lastmile_qr_scan", "android": "https://dc.lft.to/lastmile_qr_scan"}}, {"name": "04c0c1aa9bf6bd27ce6b2211c58900df", "lon": -77.03206066666667, "lat": 38.90966433333333, "type": "electric_scooter", "fusion_lon": 0.0, "is_reserved": 0, "bike_id": "04c0c1aa9bf6bd27ce6b2211c58900df", "fusion_lat": 0.0, "is_disabled": 0, "rental_uris": {"ios": "https://dc.lft.to/lastmile_qr_scan", "android": "https://dc.lft.to/lastmile_qr_scan"}}, {"name": "6c98f02e125612a80a36c3f288add1e8", "lon": -77.04480633333333, "lat": 38.91108066666666, "type": "electric_scooter", "fusion_lon": 0.0, "is_reserved": 0, "bike_id": "6c98f02e125612a80a36c3f288add1e8", "fusion_lat": 0.0, "is_disabled": 0, "rental_uris": {"ios": "https://dc.lft.to/lastmile_qr_scan", "android": "https://dc.lft.to/lastmile_qr_scan"}}, {"name": "587a16c87e0bfa689719097dddddfdde", "lon": -76.9959725, "lat": 38.856905, "type": "electric_scooter", "fusion_lon": 0.0, "is_reserved": 0, "bike_id": "587a16c87e0bfa689719097dddddfdde", "fusion_lat": 0.0, "is_disabled": 0, "rental_uris": {"ios": "https://dc.lft.to/lastmile_qr_scan", "android": "https://dc.lft.to/lastmile_qr_scan"}}, {"name": "f2e00bf02b15254b8e8acf47f557189b", "lon": -77.03188866666666, "lat": 38.91348433333334, "type": "electric_scooter", "fusion_lon": 0.0, "is_reserved": 0, "bike_id": "f2e00bf02b15254b8e8acf47f557189b", "fusion_lat": 0.0, "is_disabled": 0, "rental_uris": {"ios": "https://dc.lft.to/lastmile_qr_scan", "android": "https://dc.lft.to/lastmile_qr_scan"}}, {"name": "59a8e77eebce065ccfb402ce3e3db1f7", "lon": -77.04252016666666, "lat": 38.92064116666667, "type": "electric_scooter", "fusion_lon": 0.0, "is_reserved": 0, "bike_id": "59a8e77eebce065ccfb402ce3e3db1f7", "fusion_lat": 0.0, "is_disabled": 0, "rental_uris": {"ios": "https://dc.lft.to/lastmile_qr_scan", "android": "https://dc.lft.to/lastmile_qr_scan"}}, {"name": "e22194afad264d8bbfec312cf317ce10", "lon": -77.03065933333333, "lat": 38.9237965, "type": "electric_scooter", "fusion_lon": 0.0, "is_reserved": 0, "bike_id": "e22194afad264d8bbfec312cf317ce10", "fusion_lat": 0.0, "is_disabled": 0, "rental_uris": {"ios": "https://dc.lft.to/lastmile_qr_scan", "android": "https://dc.lft.to/lastmile_qr_scan"}}, {"name": "a13aa402aaf51d57c3ce9a330b4439b1", "lon": -77.02405016666667, "lat": 38.909606833333335, "type": "electric_scooter", "fusion_lon": 0.0, "is_reserved": 0, "bike_id": "a13aa402aaf51d57c3ce9a330b4439b1", "fusion_lat": 0.0, "is_disabled": 0, "rental_uris": {"ios": "https://dc.lft.to/lastmile_qr_scan", "android": "https://dc.lft.to/lastmile_qr_scan"}}, {"name": "feb5af0c4924bab0805d027c129a1c06", "lon": -77.046048, "lat": 38.919141333333336, "type": "electric_scooter", "fusion_lon": 0.0, "is_reserved": 0, "bike_id": "feb5af0c4924bab0805d027c129a1c06", "fusion_lat": 0.0, "is_disabled": 0, "rental_uris": {"ios": "https://dc.lft.to/lastmile_qr_scan", "android": "https://dc.lft.to/lastmile_qr_scan"}}, {"name": "80322b9860618983ef3af1551ae7e813", "lon": -77.02200833333333, "lat": 38.90202683333333, "type": "electric_scooter", "fusion_lon": 0.0, "is_reserved": 0, "bike_id": "80322b9860618983ef3af1551ae7e813", "fusion_lat": 0.0, "is_disabled": 0, "rental_uris": {"ios": "https://dc.lft.to/lastmile_qr_scan", "android": "https://dc.lft.to/lastmile_qr_scan"}}, {"name": "40f805c59878e8d2525da6c945ea96fa", "lon": -77.02951366666667, "lat": 38.915631833333336, "type": "electric_scooter", "fusion_lon": 0.0, "is_reserved": 0, "bike_id": "40f805c59878e8d2525da6c945ea96fa", "fusion_lat": 0.0, "is_disabled": 0, "rental_uris": {"ios": "https://dc.lft.to/lastmile_qr_scan", "android": "https://dc.lft.to/lastmile_qr_scan"}}, {"name": "a268217d51696fe4563baa04f561e672", "lon": -77.032812, "lat": 38.93258, "type": "electric_scooter", "fusion_lon": 0.0, "is_reserved": 0, "bike_id": "a268217d51696fe4563baa04f561e672", "fusion_lat": 0.0, "is_disabled": 0, "rental_uris": {"ios": "https://dc.lft.to/lastmile_qr_scan", "android": "https://dc.lft.to/lastmile_qr_scan"}}, {"name": "d7a1a8669fc302349ba1f931b373dee6", "lon": -77.082876, "lat": 38.930122833333336, "type": "electric_scooter", "fusion_lon": 0.0, "is_reserved": 0, "bike_id": "d7a1a8669fc302349ba1f931b373dee6", "fusion_lat": 0.0, "is_disabled": 0, "rental_uris": {"ios": "https://dc.lft.to/lastmile_qr_scan", "android": "https://dc.lft.to/lastmile_qr_scan"}}, {"name": "15263313b3f362dce18f55fc0a5099d0", "lon": -77.043645, "lat": 38.906324, "type": "electric_scooter", "fusion_lon": 0.0, "is_reserved": 0, "bike_id": "15263313b3f362dce18f55fc0a5099d0", "fusion_lat": 0.0, "is_disabled": 0, "rental_uris": {"ios": "https://dc.lft.to/lastmile_qr_scan", "android": "https://dc.lft.to/lastmile_qr_scan"}}, {"name": "969368f78bb6dec32d152b281fb29f98", "lon": -77.01216, "lat": 38.921422166666666, "type": "electric_scooter", "fusion_lon": 0.0, "is_reserved": 0, "bike_id": "969368f78bb6dec32d152b281fb29f98", "fusion_lat": 0.0, "is_disabled": 0, "rental_uris": {"ios": "https://dc.lft.to/lastmile_qr_scan", "android": "https://dc.lft.to/lastmile_qr_scan"}}, {"name": "b5fbd3a03060ac28726c09de53864c52", "lon": -77.038431, "lat": 38.91211116666667, "type": "electric_scooter", "fusion_lon": 0.0, "is_reserved": 0, "bike_id": "b5fbd3a03060ac28726c09de53864c52", "fusion_lat": 0.0, "is_disabled": 0, "rental_uris": {"ios": "https://dc.lft.to/lastmile_qr_scan", "android": "https://dc.lft.to/lastmile_qr_scan"}}, {"name": "be52e2f03f45c8c2d126fcdca2184281", "lon": -77.02609133333333, "lat": 38.8835995, "type": "electric_scooter", "fusion_lon": 0.0, "is_reserved": 0, "bike_id": "be52e2f03f45c8c2d126fcdca2184281", "fusion_lat": 0.0, "is_disabled": 0, "rental_uris": {"ios": "https://dc.lft.to/lastmile_qr_scan", "android": "https://dc.lft.to/lastmile_qr_scan"}}, {"name": "df64068f230c1bb929a9ab5af482316a", "lon": -77.04029466666667, "lat": 38.912893833333335, "type": "electric_scooter", "fusion_lon": 0.0, "is_reserved": 0, "bike_id": "df64068f230c1bb929a9ab5af482316a", "fusion_lat": 0.0, "is_disabled": 0, "rental_uris": {"ios": "https://dc.lft.to/lastmile_qr_scan", "android": "https://dc.lft.to/lastmile_qr_scan"}}, {"name": "c027c2370bf15a6bd6c7f6404fd5c1d8", "lon": -77.02699816666667, "lat": 38.906723, "type": "electric_scooter", "fusion_lon": 0.0, "is_reserved": 0, "bike_id": "c027c2370bf15a6bd6c7f6404fd5c1d8", "fusion_lat": 0.0, "is_disabled": 0, "rental_uris": {"ios": "https://dc.lft.to/lastmile_qr_scan", "android": "https://dc.lft.to/lastmile_qr_scan"}}, {"name": "2818f38244653af47655bef5094c0110", "lon": -77.0222405, "lat": 38.892199166666664, "type": "electric_scooter", "fusion_lon": 0.0, "is_reserved": 0, "bike_id": "2818f38244653af47655bef5094c0110", "fusion_lat": 0.0, "is_disabled": 0, "rental_uris": {"ios": "https://dc.lft.to/lastmile_qr_scan", "android": "https://dc.lft.to/lastmile_qr_scan"}}, {"name": "0ff7122dc9f1912bc8af78f7b11846f3", "lon": -77.00077966666667, "lat": 38.9163095, "type": "electric_scooter", "fusion_lon": 0.0, "is_reserved": 0, "bike_id": "0ff7122dc9f1912bc8af78f7b11846f3", "fusion_lat": 0.0, "is_disabled": 0, "rental_uris": {"ios": "https://dc.lft.to/lastmile_qr_scan", "android": "https://dc.lft.to/lastmile_qr_scan"}}, {"name": "60f0a6b7d02882737e35c191da7773cd", "lon": -77.0377945, "lat": 38.916879333333334, "type": "electric_scooter", "fusion_lon": 0.0, "is_reserved": 0, "bike_id": "60f0a6b7d02882737e35c191da7773cd", "fusion_lat": 0.0, "is_disabled": 0, "rental_uris": {"ios": "https://dc.lft.to/lastmile_qr_scan", "android": "https://dc.lft.to/lastmile_qr_scan"}}, {"name": "6fbc36c60daa3f9bd8098b692bf3ae00", "lon": -77.02258216666667, "lat": 38.92733833333333, "type": "electric_scooter", "fusion_lon": 0.0, "is_reserved": 0, "bike_id": "6fbc36c60daa3f9bd8098b692bf3ae00", "fusion_lat": 0.0, "is_disabled": 0, "rental_uris": {"ios": "https://dc.lft.to/lastmile_qr_scan", "android": "https://dc.lft.to/lastmile_qr_scan"}}, {"name": "b5deda0336d789f44d479bba563fb65a", "lon": -76.99635566666667, "lat": 38.925590166666666, "type": "electric_scooter", "fusion_lon": 0.0, "is_reserved": 0, "bike_id": "b5deda0336d789f44d479bba563fb65a", "fusion_lat": 0.0, "is_disabled": 0, "rental_uris": {"ios": "https://dc.lft.to/lastmile_qr_scan", "android": "https://dc.lft.to/lastmile_qr_scan"}}, {"name": "106a70e40852fca4c083a38b1edd39c0", "lon": -77.04598866666667, "lat": 38.917231666666666, "type": "electric_scooter", "fusion_lon": 0.0, "is_reserved": 0, "bike_id": "106a70e40852fca4c083a38b1edd39c0", "fusion_lat": 0.0, "is_disabled": 0, "rental_uris": {"ios": "https://dc.lft.to/lastmile_qr_scan", "android": "https://dc.lft.to/lastmile_qr_scan"}}, {"name": "b343ba9a7f59825923cad1c55d1fbb92", "lon": -77.0119575, "lat": 38.90014583333333, "type": "electric_scooter", "fusion_lon": 0.0, "is_reserved": 0, "bike_id": "b343ba9a7f59825923cad1c55d1fbb92", "fusion_lat": 0.0, "is_disabled": 0, "rental_uris": {"ios": "https://dc.lft.to/lastmile_qr_scan", "android": "https://dc.lft.to/lastmile_qr_scan"}}, {"name": "b69edcc82b591f8b90bf021d083388e8", "lon": -77.04325383333334, "lat": 38.89223483333333, "type": "electric_scooter", "fusion_lon": 0.0, "is_reserved": 0, "bike_id": "b69edcc82b591f8b90bf021d083388e8", "fusion_lat": 0.0, "is_disabled": 0, "rental_uris": {"ios": "https://dc.lft.to/lastmile_qr_scan", "android": "https://dc.lft.to/lastmile_qr_scan"}}, {"name": "ae9d81d76c9f6e4c907b90ebbf0fd446", "lon": -77.01533716666667, "lat": 38.88414566666667, "type": "electric_scooter", "fusion_lon": 0.0, "is_reserved": 0, "bike_id": "ae9d81d76c9f6e4c907b90ebbf0fd446", "fusion_lat": 0.0, "is_disabled": 0, "rental_uris": {"ios": "https://dc.lft.to/lastmile_qr_scan", "android": "https://dc.lft.to/lastmile_qr_scan"}}, {"name": "d005fa2d2dbe5d0b97d99326e7a216fc", "lon": -77.0006905, "lat": 38.91605716666667, "type": "electric_scooter", "fusion_lon": 0.0, "is_reserved": 0, "bike_id": "d005fa2d2dbe5d0b97d99326e7a216fc", "fusion_lat": 0.0, "is_disabled": 0, "rental_uris": {"ios": "https://dc.lft.to/lastmile_qr_scan", "android": "https://dc.lft.to/lastmile_qr_scan"}}, {"name": "346bf5f17e6656c8c76ad5b7ddff7c72", "lon": -77.020348, "lat": 38.89279616666666, "type": "electric_scooter", "fusion_lon": 0.0, "is_reserved": 0, "bike_id": "346bf5f17e6656c8c76ad5b7ddff7c72", "fusion_lat": 0.0, "is_disabled": 0, "rental_uris": {"ios": "https://dc.lft.to/lastmile_qr_scan", "android": "https://dc.lft.to/lastmile_qr_scan"}}, {"name": "7d18759f3f66f9e7656da85c529259f9", "lon": -77.0297255, "lat": 38.90517416666667, "type": "electric_scooter", "fusion_lon": 0.0, "is_reserved": 0, "bike_id": "7d18759f3f66f9e7656da85c529259f9", "fusion_lat": 0.0, "is_disabled": 0, "rental_uris": {"ios": "https://dc.lft.to/lastmile_qr_scan", "android": "https://dc.lft.to/lastmile_qr_scan"}}, {"name": "0adcf6eebc84d49661ad5469733d33d8", "lon": -77.02164416666666, "lat": 38.9019045, "type": "electric_scooter", "fusion_lon": 0.0, "is_reserved": 0, "bike_id": "0adcf6eebc84d49661ad5469733d33d8", "fusion_lat": 0.0, "is_disabled": 0, "rental_uris": {"ios": "https://dc.lft.to/lastmile_qr_scan", "android": "https://dc.lft.to/lastmile_qr_scan"}}, {"name": "d0f76d26e388bb9c1c9a0c98b281ce1a", "lon": -77.01593133333333, "lat": 38.91713266666667, "type": "electric_scooter", "fusion_lon": 0.0, "is_reserved": 0, "bike_id": "d0f76d26e388bb9c1c9a0c98b281ce1a", "fusion_lat": 0.0, "is_disabled": 0, "rental_uris": {"ios": "https://dc.lft.to/lastmile_qr_scan", "android": "https://dc.lft.to/lastmile_qr_scan"}}, {"name": "be9e1d840bd4b8f8601590c86c17308a", "lon": -77.04170016666667, "lat": 38.917312, "type": "electric_scooter", "fusion_lon": 0.0, "is_reserved": 0, "bike_id": "be9e1d840bd4b8f8601590c86c17308a", "fusion_lat": 0.0, "is_disabled": 0, "rental_uris": {"ios": "https://dc.lft.to/lastmile_qr_scan", "android": "https://dc.lft.to/lastmile_qr_scan"}}, {"name": "a9c91e6ab1a185cda2abbe02075c8e54", "lon": -76.99565716666666, "lat": 38.920290333333334, "type": "electric_scooter", "fusion_lon": 0.0, "is_reserved": 0, "bike_id": "a9c91e6ab1a185cda2abbe02075c8e54", "fusion_lat": 0.0, "is_disabled": 0, "rental_uris": {"ios": "https://dc.lft.to/lastmile_qr_scan", "android": "https://dc.lft.to/lastmile_qr_scan"}}, {"name": "9fdfd3c98e7fb173ea0667932ac3d5ae", "lon": -77.029631, "lat": 38.923334, "type": "electric_scooter", "fusion_lon": 0.0, "is_reserved": 0, "bike_id": "9fdfd3c98e7fb173ea0667932ac3d5ae", "fusion_lat": 0.0, "is_disabled": 0, "rental_uris": {"ios": "https://dc.lft.to/lastmile_qr_scan", "android": "https://dc.lft.to/lastmile_qr_scan"}}, {"name": "f0c4fab8e4d20d1370706c681917aae3", "lon": -77.0770375, "lat": 38.84074866666667, "type": "electric_bike", "fusion_lon": 0.0, "is_reserved": 0, "bike_id": "f0c4fab8e4d20d1370706c681917aae3", "fusion_lat": 0.0, "is_disabled": 0, "rental_uris": {"ios": "https://dc.lft.to/lastmile_qr_scan", "android": "https://dc.lft.to/lastmile_qr_scan"}}, {"name": "604ece1f35c49b11f9863617ca027d49", "lon": -77.02681533333333, "lat": 38.912691, "type": "electric_scooter", "fusion_lon": 0.0, "is_reserved": 0, "bike_id": "604ece1f35c49b11f9863617ca027d49", "fusion_lat": 0.0, "is_disabled": 0, "rental_uris": {"ios": "https://dc.lft.to/lastmile_qr_scan", "android": "https://dc.lft.to/lastmile_qr_scan"}}, {"name": "0324d90afab22e5162d4beb7d87feadc", "lon": -77.0318735, "lat": 38.917836333333334, "type": "electric_scooter", "fusion_lon": 0.0, "is_reserved": 0, "bike_id": "0324d90afab22e5162d4beb7d87feadc", "fusion_lat": 0.0, "is_disabled": 0, "rental_uris": {"ios": "https://dc.lft.to/lastmile_qr_scan", "android": "https://dc.lft.to/lastmile_qr_scan"}}, {"name": "bdb80941d3c23bca032884f30c778b52", "lon": -77.01831666666666, "lat": 38.942007333333336, "type": "electric_scooter", "fusion_lon": 0.0, "is_reserved": 0, "bike_id": "bdb80941d3c23bca032884f30c778b52", "fusion_lat": 0.0, "is_disabled": 0, "rental_uris": {"ios": "https://dc.lft.to/lastmile_qr_scan", "android": "https://dc.lft.to/lastmile_qr_scan"}}, {"name": "b7b3fd55addc3a4f5c267efbc7bfdbc3", "lon": -77.0299005, "lat": 38.923712, "type": "electric_scooter", "fusion_lon": 0.0, "is_reserved": 0, "bike_id": "b7b3fd55addc3a4f5c267efbc7bfdbc3", "fusion_lat": 0.0, "is_disabled": 0, "rental_uris": {"ios": "https://dc.lft.to/lastmile_qr_scan", "android": "https://dc.lft.to/lastmile_qr_scan"}}, {"name": "71ee709bd62aace5d49b9fcc8c53c398", "lon": -77.03962766666666, "lat": 38.930674333333336, "type": "electric_scooter", "fusion_lon": 0.0, "is_reserved": 0, "bike_id": "71ee709bd62aace5d49b9fcc8c53c398", "fusion_lat": 0.0, "is_disabled": 0, "rental_uris": {"ios": "https://dc.lft.to/lastmile_qr_scan", "android": "https://dc.lft.to/lastmile_qr_scan"}}, {"name": "bf568679e5a9b00e2bb425d806cc64cc", "lon": -77.03907916666667, "lat": 38.91830616666667, "type": "electric_scooter", "fusion_lon": 0.0, "is_reserved": 0, "bike_id": "bf568679e5a9b00e2bb425d806cc64cc", "fusion_lat": 0.0, "is_disabled": 0, "rental_uris": {"ios": "https://dc.lft.to/lastmile_qr_scan", "android": "https://dc.lft.to/lastmile_qr_scan"}}, {"name": "3ec213f4399647bea7459596f391e0e2", "lon": -77.037438, "lat": 38.926935666666665, "type": "electric_scooter", "fusion_lon": 0.0, "is_reserved": 0, "bike_id": "3ec213f4399647bea7459596f391e0e2", "fusion_lat": 0.0, "is_disabled": 0, "rental_uris": {"ios": "https://dc.lft.to/lastmile_qr_scan", "android": "https://dc.lft.to/lastmile_qr_scan"}}, {"name": "691cd7d8c15b2b1897a96f3505449296", "lon": -77.01981916666666, "lat": 38.88588566666667, "type": "electric_scooter", "fusion_lon": 0.0, "is_reserved": 0, "bike_id": "691cd7d8c15b2b1897a96f3505449296", "fusion_lat": 0.0, "is_disabled": 0, "rental_uris": {"ios": "https://dc.lft.to/lastmile_qr_scan", "android": "https://dc.lft.to/lastmile_qr_scan"}}, {"name": "19f820ba2ee9eaafdc863485e6c8f2a6", "lon": -76.98351116666667, "lat": 38.915526, "type": "electric_scooter", "fusion_lon": 0.0, "is_reserved": 0, "bike_id": "19f820ba2ee9eaafdc863485e6c8f2a6", "fusion_lat": 0.0, "is_disabled": 0, "rental_uris": {"ios": "https://dc.lft.to/lastmile_qr_scan", "android": "https://dc.lft.to/lastmile_qr_scan"}}, {"name": "79ca3c613282989d5ee50f56bb228afc", "lon": -76.9964635, "lat": 38.9882125, "type": "electric_bike", "fusion_lon": 0.0, "is_reserved": 0, "bike_id": "79ca3c613282989d5ee50f56bb228afc", "fusion_lat": 0.0, "is_disabled": 0, "rental_uris": {"ios": "https://dc.lft.to/lastmile_qr_scan", "android": "https://dc.lft.to/lastmile_qr_scan"}}, {"name": "f0e4812fb05c50a4310363512c6962c2", "lon": -77.03605733333333, "lat": 38.923323833333335, "type": "electric_scooter", "fusion_lon": 0.0, "is_reserved": 0, "bike_id": "f0e4812fb05c50a4310363512c6962c2", "fusion_lat": 0.0, "is_disabled": 0, "rental_uris": {"ios": "https://dc.lft.to/lastmile_qr_scan", "android": "https://dc.lft.to/lastmile_qr_scan"}}, {"name": "ef9040548e0f9b782c484abe235ce14c", "lon": -77.06084816666667, "lat": 38.911687, "type": "electric_scooter", "fusion_lon": 0.0, "is_reserved": 0, "bike_id": "ef9040548e0f9b782c484abe235ce14c", "fusion_lat": 0.0, "is_disabled": 0, "rental_uris": {"ios": "https://dc.lft.to/lastmile_qr_scan", "android": "https://dc.lft.to/lastmile_qr_scan"}}, {"name": "a89267892ac6524ab57f8d1c87fed919", "lon": -77.04511883333333, "lat": 38.89221466666667, "type": "electric_scooter", "fusion_lon": 0.0, "is_reserved": 0, "bike_id": "a89267892ac6524ab57f8d1c87fed919", "fusion_lat": 0.0, "is_disabled": 0, "rental_uris": {"ios": "https://dc.lft.to/lastmile_qr_scan", "android": "https://dc.lft.to/lastmile_qr_scan"}}, {"name": "bf5420c9446205d4c828366f1dc23526", "lon": -77.03129683333333, "lat": 38.919281, "type": "electric_scooter", "fusion_lon": 0.0, "is_reserved": 0, "bike_id": "bf5420c9446205d4c828366f1dc23526", "fusion_lat": 0.0, "is_disabled": 0, "rental_uris": {"ios": "https://dc.lft.to/lastmile_qr_scan", "android": "https://dc.lft.to/lastmile_qr_scan"}}, {"name": "7d94a58f057f6806baac46aa936b2524", "lon": -77.032732, "lat": 38.928585, "type": "electric_scooter", "fusion_lon": 0.0, "is_reserved": 0, "bike_id": "7d94a58f057f6806baac46aa936b2524", "fusion_lat": 0.0, "is_disabled": 0, "rental_uris": {"ios": "https://dc.lft.to/lastmile_qr_scan", "android": "https://dc.lft.to/lastmile_qr_scan"}}, {"name": "fb2c28c2cf85cc40746ccfee6f375482", "lon": -76.986114, "lat": 38.86527666666667, "type": "electric_scooter", "fusion_lon": 0.0, "is_reserved": 0, "bike_id": "fb2c28c2cf85cc40746ccfee6f375482", "fusion_lat": 0.0, "is_disabled": 0, "rental_uris": {"ios": "https://dc.lft.to/lastmile_qr_scan", "android": "https://dc.lft.to/lastmile_qr_scan"}}, {"name": "102718c01dfb6c7113ca945b09837b46", "lon": -77.03958566666667, "lat": 38.9306795, "type": "electric_scooter", "fusion_lon": 0.0, "is_reserved": 0, "bike_id": "102718c01dfb6c7113ca945b09837b46", "fusion_lat": 0.0, "is_disabled": 0, "rental_uris": {"ios": "https://dc.lft.to/lastmile_qr_scan", "android": "https://dc.lft.to/lastmile_qr_scan"}}, {"name": "977b4d6f1748f99240fa197254c80191", "lon": -77.02352316666666, "lat": 38.919929833333335, "type": "electric_scooter", "fusion_lon": 0.0, "is_reserved": 0, "bike_id": "977b4d6f1748f99240fa197254c80191", "fusion_lat": 0.0, "is_disabled": 0, "rental_uris": {"ios": "https://dc.lft.to/lastmile_qr_scan", "android": "https://dc.lft.to/lastmile_qr_scan"}}, {"name": "04d1b595890a9a3a8557e03dea1f2de1", "lon": -77.12527016666667, "lat": 39.0563145, "type": "electric_bike", "fusion_lon": 0.0, "is_reserved": 0, "bike_id": "04d1b595890a9a3a8557e03dea1f2de1", "fusion_lat": 0.0, "is_disabled": 0, "rental_uris": {"ios": "https://dc.lft.to/lastmile_qr_scan", "android": "https://dc.lft.to/lastmile_qr_scan"}}, {"name": "600437294132b7a3fe663263d28dc0d4", "lon": -77.011347, "lat": 38.91695816666667, "type": "electric_scooter", "fusion_lon": 0.0, "is_reserved": 0, "bike_id": "600437294132b7a3fe663263d28dc0d4", "fusion_lat": 0.0, "is_disabled": 0, "rental_uris": {"ios": "https://dc.lft.to/lastmile_qr_scan", "android": "https://dc.lft.to/lastmile_qr_scan"}}, {"name": "3e6c7c01cc488740b5dedceb1d1d8754", "lon": -77.03805516666667, "lat": 38.906723166666666, "type": "electric_scooter", "fusion_lon": 0.0, "is_reserved": 0, "bike_id": "3e6c7c01cc488740b5dedceb1d1d8754", "fusion_lat": 0.0, "is_disabled": 0, "rental_uris": {"ios": "https://dc.lft.to/lastmile_qr_scan", "android": "https://dc.lft.to/lastmile_qr_scan"}}, {"name": "e9dcab9ed3455fec85f6bfe890d017ac", "lon": -76.9463745, "lat": 38.89845116666667, "type": "electric_scooter", "fusion_lon": 0.0, "is_reserved": 0, "bike_id": "e9dcab9ed3455fec85f6bfe890d017ac", "fusion_lat": 0.0, "is_disabled": 0, "rental_uris": {"ios": "https://dc.lft.to/lastmile_qr_scan", "android": "https://dc.lft.to/lastmile_qr_scan"}}, {"name": "ec30e4f4351e72acddc6f9a6ab6a11dc", "lon": -77.02152266666667, "lat": 38.926058166666664, "type": "electric_scooter", "fusion_lon": 0.0, "is_reserved": 0, "bike_id": "ec30e4f4351e72acddc6f9a6ab6a11dc", "fusion_lat": 0.0, "is_disabled": 0, "rental_uris": {"ios": "https://dc.lft.to/lastmile_qr_scan", "android": "https://dc.lft.to/lastmile_qr_scan"}}, {"name": "5ccec4cbdb94fa1fd6b358bcec7a8bb4", "lon": -77.01638583333333, "lat": 38.903651333333336, "type": "electric_scooter", "fusion_lon": 0.0, "is_reserved": 0, "bike_id": "5ccec4cbdb94fa1fd6b358bcec7a8bb4", "fusion_lat": 0.0, "is_disabled": 0, "rental_uris": {"ios": "https://dc.lft.to/lastmile_qr_scan", "android": "https://dc.lft.to/lastmile_qr_scan"}}, {"name": "af612e4f9e024deb03c3af61642809e8", "lon": -77.04175233333333, "lat": 38.9155095, "type": "electric_scooter", "fusion_lon": 0.0, "is_reserved": 0, "bike_id": "af612e4f9e024deb03c3af61642809e8", "fusion_lat": 0.0, "is_disabled": 0, "rental_uris": {"ios": "https://dc.lft.to/lastmile_qr_scan", "android": "https://dc.lft.to/lastmile_qr_scan"}}, {"name": "b9746dae8e790ef3b1791e5e17755079", "lon": -76.97629883333333, "lat": 38.9057165, "type": "electric_scooter", "fusion_lon": 0.0, "is_reserved": 0, "bike_id": "b9746dae8e790ef3b1791e5e17755079", "fusion_lat": 0.0, "is_disabled": 0, "rental_uris": {"ios": "https://dc.lft.to/lastmile_qr_scan", "android": "https://dc.lft.to/lastmile_qr_scan"}}, {"name": "dbedd47d5c8e729e0db15bd35721ce5f", "lon": -77.02683033333334, "lat": 38.927853666666664, "type": "electric_scooter", "fusion_lon": 0.0, "is_reserved": 0, "bike_id": "dbedd47d5c8e729e0db15bd35721ce5f", "fusion_lat": 0.0, "is_disabled": 0, "rental_uris": {"ios": "https://dc.lft.to/lastmile_qr_scan", "android": "https://dc.lft.to/lastmile_qr_scan"}}, {"name": "2c5bd6358064047355a1953dc224754d", "lon": -77.00731133333333, "lat": 38.898428833333334, "type": "electric_scooter", "fusion_lon": 0.0, "is_reserved": 0, "bike_id": "2c5bd6358064047355a1953dc224754d", "fusion_lat": 0.0, "is_disabled": 0, "rental_uris": {"ios": "https://dc.lft.to/lastmile_qr_scan", "android": "https://dc.lft.to/lastmile_qr_scan"}}, {"name": "492a0248adcb0d311b919d5dd854d454", "lon": -77.03309066666667, "lat": 38.9561645, "type": "electric_scooter", "fusion_lon": 0.0, "is_reserved": 0, "bike_id": "492a0248adcb0d311b919d5dd854d454", "fusion_lat": 0.0, "is_disabled": 0, "rental_uris": {"ios": "https://dc.lft.to/lastmile_qr_scan", "android": "https://dc.lft.to/lastmile_qr_scan"}}, {"name": "fb860a36fe35a3e431b49e14c89e7389", "lon": -77.05690333333334, "lat": 38.9061785, "type": "electric_scooter", "fusion_lon": 0.0, "is_reserved": 0, "bike_id": "fb860a36fe35a3e431b49e14c89e7389", "fusion_lat": 0.0, "is_disabled": 0, "rental_uris": {"ios": "https://dc.lft.to/lastmile_qr_scan", "android": "https://dc.lft.to/lastmile_qr_scan"}}, {"name": "cf38bbad2e94c69e24adca5ae76b9ec6", "lon": -77.0058265, "lat": 38.878956, "type": "electric_scooter", "fusion_lon": 0.0, "is_reserved": 0, "bike_id": "cf38bbad2e94c69e24adca5ae76b9ec6", "fusion_lat": 0.0, "is_disabled": 0, "rental_uris": {"ios": "https://dc.lft.to/lastmile_qr_scan", "android": "https://dc.lft.to/lastmile_qr_scan"}}, {"name": "6c8e31532686884d51b28a992415018f", "lon": -77.04492183333333, "lat": 38.842842, "type": "electric_bike", "fusion_lon": 0.0, "is_reserved": 0, "bike_id": "6c8e31532686884d51b28a992415018f", "fusion_lat": 0.0, "is_disabled": 0, "rental_uris": {"ios": "https://dc.lft.to/lastmile_qr_scan", "android": "https://dc.lft.to/lastmile_qr_scan"}}, {"name": "076a4dd736eaa24437f2a0c323ddc8ae", "lon": -77.03458066666667, "lat": 38.906023166666664, "type": "electric_scooter", "fusion_lon": 0.0, "is_reserved": 0, "bike_id": "076a4dd736eaa24437f2a0c323ddc8ae", "fusion_lat": 0.0, "is_disabled": 0, "rental_uris": {"ios": "https://dc.lft.to/lastmile_qr_scan", "android": "https://dc.lft.to/lastmile_qr_scan"}}, {"name": "a46c4b0013eabe4049bad6f016400ffa", "lon": -76.949307, "lat": 38.893449833333335, "type": "electric_scooter", "fusion_lon": 0.0, "is_reserved": 0, "bike_id": "a46c4b0013eabe4049bad6f016400ffa", "fusion_lat": 0.0, "is_disabled": 0, "rental_uris": {"ios": "https://dc.lft.to/lastmile_qr_scan", "android": "https://dc.lft.to/lastmile_qr_scan"}}, {"name": "39bbb34432eaa4e0116b19aa7954b330", "lon": -77.045034, "lat": 38.91183766666666, "type": "electric_scooter", "fusion_lon": 0.0, "is_reserved": 0, "bike_id": "39bbb34432eaa4e0116b19aa7954b330", "fusion_lat": 0.0, "is_disabled": 0, "rental_uris": {"ios": "https://dc.lft.to/lastmile_qr_scan", "android": "https://dc.lft.to/lastmile_qr_scan"}}, {"name": "35d01329390af4998bf165ef13765bf8", "lon": -76.99831116666667, "lat": 38.88473916666667, "type": "electric_scooter", "fusion_lon": 0.0, "is_reserved": 0, "bike_id": "35d01329390af4998bf165ef13765bf8", "fusion_lat": 0.0, "is_disabled": 0, "rental_uris": {"ios": "https://dc.lft.to/lastmile_qr_scan", "android": "https://dc.lft.to/lastmile_qr_scan"}}, {"name": "a308b1bd79b9aa771ddd552a678023b5", "lon": -77.04260733333334, "lat": 38.90868666666667, "type": "electric_scooter", "fusion_lon": 0.0, "is_reserved": 0, "bike_id": "a308b1bd79b9aa771ddd552a678023b5", "fusion_lat": 0.0, "is_disabled": 0, "rental_uris": {"ios": "https://dc.lft.to/lastmile_qr_scan", "android": "https://dc.lft.to/lastmile_qr_scan"}}, {"name": "65b901384450f654a4f726a3f1b60521", "lon": -77.00216933333333, "lat": 38.914468166666666, "type": "electric_scooter", "fusion_lon": 0.0, "is_reserved": 0, "bike_id": "65b901384450f654a4f726a3f1b60521", "fusion_lat": 0.0, "is_disabled": 0, "rental_uris": {"ios": "https://dc.lft.to/lastmile_qr_scan", "android": "https://dc.lft.to/lastmile_qr_scan"}}, {"name": "628e152e3c627178a5fd0c1c7087db36", "lon": -77.02097766666667, "lat": 38.93719166666666, "type": "electric_bike", "fusion_lon": 0.0, "is_reserved": 0, "bike_id": "628e152e3c627178a5fd0c1c7087db36", "fusion_lat": 0.0, "is_disabled": 0, "rental_uris": {"ios": "https://dc.lft.to/lastmile_qr_scan", "android": "https://dc.lft.to/lastmile_qr_scan"}}, {"name": "af72a5b3640867d32ebab1e37933ede2", "lon": -77.02691783333333, "lat": 38.909722333333335, "type": "electric_scooter", "fusion_lon": 0.0, "is_reserved": 0, "bike_id": "af72a5b3640867d32ebab1e37933ede2", "fusion_lat": 0.0, "is_disabled": 0, "rental_uris": {"ios": "https://dc.lft.to/lastmile_qr_scan", "android": "https://dc.lft.to/lastmile_qr_scan"}}, {"name": "1d2a3b2462123931c6d9b771f9cd06ac", "lon": -77.02715816666667, "lat": 38.904880666666664, "type": "electric_scooter", "fusion_lon": 0.0, "is_reserved": 0, "bike_id": "1d2a3b2462123931c6d9b771f9cd06ac", "fusion_lat": 0.0, "is_disabled": 0, "rental_uris": {"ios": "https://dc.lft.to/lastmile_qr_scan", "android": "https://dc.lft.to/lastmile_qr_scan"}}, {"name": "1332a059a61e253c76148f7665999864", "lon": -77.03100083333334, "lat": 38.950754833333335, "type": "electric_scooter", "fusion_lon": 0.0, "is_reserved": 0, "bike_id": "1332a059a61e253c76148f7665999864", "fusion_lat": 0.0, "is_disabled": 0, "rental_uris": {"ios": "https://dc.lft.to/lastmile_qr_scan", "android": "https://dc.lft.to/lastmile_qr_scan"}}, {"name": "96ea3bfa2ec73f922e6dbbe48f4befcb", "lon": -77.04534683333333, "lat": 38.9346355, "type": "electric_bike", "fusion_lon": 0.0, "is_reserved": 0, "bike_id": "96ea3bfa2ec73f922e6dbbe48f4befcb", "fusion_lat": 0.0, "is_disabled": 0, "rental_uris": {"ios": "https://dc.lft.to/lastmile_qr_scan", "android": "https://dc.lft.to/lastmile_qr_scan"}}, {"name": "45d9546c9eb0356d74fed944ba0bc6b4", "lon": -76.969071, "lat": 38.84611116666667, "type": "electric_bike", "fusion_lon": 0.0, "is_reserved": 0, "bike_id": "45d9546c9eb0356d74fed944ba0bc6b4", "fusion_lat": 0.0, "is_disabled": 0, "rental_uris": {"ios": "https://dc.lft.to/lastmile_qr_scan", "android": "https://dc.lft.to/lastmile_qr_scan"}}, {"name": "2ac0ff375cc72a03990d01b3429e0950", "lon": -76.997724, "lat": 38.862096333333334, "type": "electric_bike", "fusion_lon": 0.0, "is_reserved": 0, "bike_id": "2ac0ff375cc72a03990d01b3429e0950", "fusion_lat": 0.0, "is_disabled": 0, "rental_uris": {"ios": "https://dc.lft.to/lastmile_qr_scan", "android": "https://dc.lft.to/lastmile_qr_scan"}}, {"name": "9c8c957bb95097bb3f68e145700d8b50", "lon": -77.08398733333334, "lat": 38.90803666666667, "type": "electric_scooter", "fusion_lon": 0.0, "is_reserved": 0, "bike_id": "9c8c957bb95097bb3f68e145700d8b50", "fusion_lat": 0.0, "is_disabled": 0, "rental_uris": {"ios": "https://dc.lft.to/lastmile_qr_scan", "android": "https://dc.lft.to/lastmile_qr_scan"}}, {"name": "72d978067348452ff4a4eb43fee4de3d", "lon": -77.07258683333333, "lat": 38.933435, "type": "electric_bike", "fusion_lon": 0.0, "is_reserved": 0, "bike_id": "72d978067348452ff4a4eb43fee4de3d", "fusion_lat": 0.0, "is_disabled": 0, "rental_uris": {"ios": "https://dc.lft.to/lastmile_qr_scan", "android": "https://dc.lft.to/lastmile_qr_scan"}}, {"name": "132702a221920aa081b076950ea44143", "lon": -77.0384825, "lat": 38.902452833333335, "type": "electric_scooter", "fusion_lon": 0.0, "is_reserved": 0, "bike_id": "132702a221920aa081b076950ea44143", "fusion_lat": 0.0, "is_disabled": 0, "rental_uris": {"ios": "https://dc.lft.to/lastmile_qr_scan", "android": "https://dc.lft.to/lastmile_qr_scan"}}, {"name": "8a72562ff1951e05f8076a033d24a5aa", "lon": -77.0347435, "lat": 38.925415666666666, "type": "electric_scooter", "fusion_lon": 0.0, "is_reserved": 0, "bike_id": "8a72562ff1951e05f8076a033d24a5aa", "fusion_lat": 0.0, "is_disabled": 0, "rental_uris": {"ios": "https://dc.lft.to/lastmile_qr_scan", "android": "https://dc.lft.to/lastmile_qr_scan"}}, {"name": "d897f977f73c0bfe009246548f3dbcf3", "lon": -76.99335316666667, "lat": 38.9244655, "type": "electric_scooter", "fusion_lon": 0.0, "is_reserved": 0, "bike_id": "d897f977f73c0bfe009246548f3dbcf3", "fusion_lat": 0.0, "is_disabled": 0, "rental_uris": {"ios": "https://dc.lft.to/lastmile_qr_scan", "android": "https://dc.lft.to/lastmile_qr_scan"}}, {"name": "397d0eb9fe2675c3d9af9dfbc8c06a3f", "lon": -76.98489483333333, "lat": 38.915155166666665, "type": "electric_scooter", "fusion_lon": 0.0, "is_reserved": 0, "bike_id": "397d0eb9fe2675c3d9af9dfbc8c06a3f", "fusion_lat": 0.0, "is_disabled": 0, "rental_uris": {"ios": "https://dc.lft.to/lastmile_qr_scan", "android": "https://dc.lft.to/lastmile_qr_scan"}}, {"name": "79f66f9938f83fa0b83a2ac0af8aeed7", "lon": -77.04315166666666, "lat": 38.923287333333334, "type": "electric_scooter", "fusion_lon": 0.0, "is_reserved": 0, "bike_id": "79f66f9938f83fa0b83a2ac0af8aeed7", "fusion_lat": 0.0, "is_disabled": 0, "rental_uris": {"ios": "https://dc.lft.to/lastmile_qr_scan", "android": "https://dc.lft.to/lastmile_qr_scan"}}, {"name": "3f9fd3cf890d6a7e5da77a932964b66e", "lon": -77.0573775, "lat": 38.93389283333333, "type": "electric_scooter", "fusion_lon": 0.0, "is_reserved": 0, "bike_id": "3f9fd3cf890d6a7e5da77a932964b66e", "fusion_lat": 0.0, "is_disabled": 0, "rental_uris": {"ios": "https://dc.lft.to/lastmile_qr_scan", "android": "https://dc.lft.to/lastmile_qr_scan"}}, {"name": "db2f3a9a11610f5049713cc6d2fd2ec6", "lon": -76.97234966666667, "lat": 38.949042666666664, "type": "electric_bike", "fusion_lon": 0.0, "is_reserved": 0, "bike_id": "db2f3a9a11610f5049713cc6d2fd2ec6", "fusion_lat": 0.0, "is_disabled": 0, "rental_uris": {"ios": "https://dc.lft.to/lastmile_qr_scan", "android": "https://dc.lft.to/lastmile_qr_scan"}}, {"name": "81e6b62a4bc0918e571926770e6e317a", "lon": -77.03884833333333, "lat": 38.92252583333333, "type": "electric_scooter", "fusion_lon": 0.0, "is_reserved": 0, "bike_id": "81e6b62a4bc0918e571926770e6e317a", "fusion_lat": 0.0, "is_disabled": 0, "rental_uris": {"ios": "https://dc.lft.to/lastmile_qr_scan", "android": "https://dc.lft.to/lastmile_qr_scan"}}, {"name": "e232294f8d38b9d085bde5ed14f1e10a", "lon": -77.03657816666667, "lat": 38.91799483333333, "type": "electric_scooter", "fusion_lon": 0.0, "is_reserved": 0, "bike_id": "e232294f8d38b9d085bde5ed14f1e10a", "fusion_lat": 0.0, "is_disabled": 0, "rental_uris": {"ios": "https://dc.lft.to/lastmile_qr_scan", "android": "https://dc.lft.to/lastmile_qr_scan"}}, {"name": "9ce6f33327b78bfb7910cd5e45970885", "lon": -77.02206666666666, "lat": 38.8864495, "type": "electric_scooter", "fusion_lon": 0.0, "is_reserved": 0, "bike_id": "9ce6f33327b78bfb7910cd5e45970885", "fusion_lat": 0.0, "is_disabled": 0, "rental_uris": {"ios": "https://dc.lft.to/lastmile_qr_scan", "android": "https://dc.lft.to/lastmile_qr_scan"}}, {"name": "32d64360fb41ccd3b1c1a60a6962a013", "lon": -77.08583933333334, "lat": 38.84438166666666, "type": "electric_bike", "fusion_lon": 0.0, "is_reserved": 0, "bike_id": "32d64360fb41ccd3b1c1a60a6962a013", "fusion_lat": 0.0, "is_disabled": 0, "rental_uris": {"ios": "https://dc.lft.to/lastmile_qr_scan", "android": "https://dc.lft.to/lastmile_qr_scan"}}, {"name": "60aeeba6c990accaa27be4f34c69be10", "lon": -77.03702366666667, "lat": 38.920357333333335, "type": "electric_bike", "fusion_lon": 0.0, "is_reserved": 0, "bike_id": "60aeeba6c990accaa27be4f34c69be10", "fusion_lat": 0.0, "is_disabled": 0, "rental_uris": {"ios": "https://dc.lft.to/lastmile_qr_scan", "android": "https://dc.lft.to/lastmile_qr_scan"}}, {"name": "4447b49ac2cd44ceb16255741e870f55", "lon": -77.03957316666667, "lat": 38.902298, "type": "electric_scooter", "fusion_lon": 0.0, "is_reserved": 0, "bike_id": "4447b49ac2cd44ceb16255741e870f55", "fusion_lat": 0.0, "is_disabled": 0, "rental_uris": {"ios": "https://dc.lft.to/lastmile_qr_scan", "android": "https://dc.lft.to/lastmile_qr_scan"}}, {"name": "fc36659bff77a31cd564fd571ef3599f", "lon": -76.985162, "lat": 38.86666916666667, "type": "electric_scooter", "fusion_lon": 0.0, "is_reserved": 0, "bike_id": "fc36659bff77a31cd564fd571ef3599f", "fusion_lat": 0.0, "is_disabled": 0, "rental_uris": {"ios": "https://dc.lft.to/lastmile_qr_scan", "android": "https://dc.lft.to/lastmile_qr_scan"}}, {"name": "7b1a9d3585df0e88eaeafbef4c9d07ee", "lon": -77.04670616666667, "lat": 38.895644833333336, "type": "electric_scooter", "fusion_lon": 0.0, "is_reserved": 0, "bike_id": "7b1a9d3585df0e88eaeafbef4c9d07ee", "fusion_lat": 0.0, "is_disabled": 0, "rental_uris": {"ios": "https://dc.lft.to/lastmile_qr_scan", "android": "https://dc.lft.to/lastmile_qr_scan"}}, {"name": "0f836e1b099a82a68166e5516d956f5a", "lon": -77.03822033333333, "lat": 38.925337999999996, "type": "electric_scooter", "fusion_lon": 0.0, "is_reserved": 0, "bike_id": "0f836e1b099a82a68166e5516d956f5a", "fusion_lat": 0.0, "is_disabled": 0, "rental_uris": {"ios": "https://dc.lft.to/lastmile_qr_scan", "android": "https://dc.lft.to/lastmile_qr_scan"}}, {"name": "37515ed94e4428bb7349909925ecaab6", "lon": -77.0503775, "lat": 38.9235805, "type": "electric_scooter", "fusion_lon": 0.0, "is_reserved": 0, "bike_id": "37515ed94e4428bb7349909925ecaab6", "fusion_lat": 0.0, "is_disabled": 0, "rental_uris": {"ios": "https://dc.lft.to/lastmile_qr_scan", "android": "https://dc.lft.to/lastmile_qr_scan"}}, {"name": "95e4a046cee843c2d12fc9084e077d46", "lon": -77.023329, "lat": 38.92889866666667, "type": "electric_scooter", "fusion_lon": 0.0, "is_reserved": 0, "bike_id": "95e4a046cee843c2d12fc9084e077d46", "fusion_lat": 0.0, "is_disabled": 0, "rental_uris": {"ios": "https://dc.lft.to/lastmile_qr_scan", "android": "https://dc.lft.to/lastmile_qr_scan"}}, {"name": "3a5131be3c554b6fa80599d03a28bac7", "lon": -77.01765766666666, "lat": 38.890836166666666, "type": "electric_scooter", "fusion_lon": 0.0, "is_reserved": 0, "bike_id": "3a5131be3c554b6fa80599d03a28bac7", "fusion_lat": 0.0, "is_disabled": 0, "rental_uris": {"ios": "https://dc.lft.to/lastmile_qr_scan", "android": "https://dc.lft.to/lastmile_qr_scan"}}, {"name": "420e10d97bc8c6b59d4c6684e205c4d3", "lon": -77.034673, "lat": 38.91705066666667, "type": "electric_scooter", "fusion_lon": 0.0, "is_reserved": 0, "bike_id": "420e10d97bc8c6b59d4c6684e205c4d3", "fusion_lat": 0.0, "is_disabled": 0, "rental_uris": {"ios": "https://dc.lft.to/lastmile_qr_scan", "android": "https://dc.lft.to/lastmile_qr_scan"}}, {"name": "b124da802b5175e52acbc88612d8c3b2", "lon": -77.05659583333333, "lat": 38.905326, "type": "electric_scooter", "fusion_lon": 0.0, "is_reserved": 0, "bike_id": "b124da802b5175e52acbc88612d8c3b2", "fusion_lat": 0.0, "is_disabled": 0, "rental_uris": {"ios": "https://dc.lft.to/lastmile_qr_scan", "android": "https://dc.lft.to/lastmile_qr_scan"}}, {"name": "e8bd233b6ee04b3614b7076db2fa43a7", "lon": -77.01936533333334, "lat": 38.947016166666664, "type": "electric_scooter", "fusion_lon": 0.0, "is_reserved": 0, "bike_id": "e8bd233b6ee04b3614b7076db2fa43a7", "fusion_lat": 0.0, "is_disabled": 0, "rental_uris": {"ios": "https://dc.lft.to/lastmile_qr_scan", "android": "https://dc.lft.to/lastmile_qr_scan"}}, {"name": "35b2aa58981193ddedd6400e6bbc6623", "lon": -77.06863683333333, "lat": 38.805776, "type": "electric_bike", "fusion_lon": 0.0, "is_reserved": 0, "bike_id": "35b2aa58981193ddedd6400e6bbc6623", "fusion_lat": 0.0, "is_disabled": 0, "rental_uris": {"ios": "https://dc.lft.to/lastmile_qr_scan", "android": "https://dc.lft.to/lastmile_qr_scan"}}, {"name": "ea2376ce07ebea9f393603b26de6f8c1", "lon": -76.92738616666666, "lat": 38.88966166666667, "type": "electric_scooter", "fusion_lon": 0.0, "is_reserved": 0, "bike_id": "ea2376ce07ebea9f393603b26de6f8c1", "fusion_lat": 0.0, "is_disabled": 0, "rental_uris": {"ios": "https://dc.lft.to/lastmile_qr_scan", "android": "https://dc.lft.to/lastmile_qr_scan"}}, {"name": "5e34e7a60d3dcfe309ff835e66650d18", "lon": -77.0024435, "lat": 38.90257883333334, "type": "electric_scooter", "fusion_lon": 0.0, "is_reserved": 0, "bike_id": "5e34e7a60d3dcfe309ff835e66650d18", "fusion_lat": 0.0, "is_disabled": 0, "rental_uris": {"ios": "https://dc.lft.to/lastmile_qr_scan", "android": "https://dc.lft.to/lastmile_qr_scan"}}, {"name": "2191157c50a479d1613525e623779c80", "lon": -76.987962, "lat": 38.922154666666664, "type": "electric_bike", "fusion_lon": 0.0, "is_reserved": 0, "bike_id": "2191157c50a479d1613525e623779c80", "fusion_lat": 0.0, "is_disabled": 0, "rental_uris": {"ios": "https://dc.lft.to/lastmile_qr_scan", "android": "https://dc.lft.to/lastmile_qr_scan"}}, {"name": "6b335b1e75bb0324af3e7bf1c0fad31b", "lon": -76.93158716666667, "lat": 38.8988015, "type": "electric_scooter", "fusion_lon": 0.0, "is_reserved": 0, "bike_id": "6b335b1e75bb0324af3e7bf1c0fad31b", "fusion_lat": 0.0, "is_disabled": 0, "rental_uris": {"ios": "https://dc.lft.to/lastmile_qr_scan", "android": "https://dc.lft.to/lastmile_qr_scan"}}, {"name": "017e1590efc08c5f3c0bfb83c4b4086a", "lon": -77.03716383333334, "lat": 38.910648333333334, "type": "electric_scooter", "fusion_lon": 0.0, "is_reserved": 0, "bike_id": "017e1590efc08c5f3c0bfb83c4b4086a", "fusion_lat": 0.0, "is_disabled": 0, "rental_uris": {"ios": "https://dc.lft.to/lastmile_qr_scan", "android": "https://dc.lft.to/lastmile_qr_scan"}}, {"name": "401516cb67a86d8af9053f9cd9358542", "lon": -77.07369933333334, "lat": 38.93354333333333, "type": "electric_scooter", "fusion_lon": 0.0, "is_reserved": 0, "bike_id": "401516cb67a86d8af9053f9cd9358542", "fusion_lat": 0.0, "is_disabled": 0, "rental_uris": {"ios": "https://dc.lft.to/lastmile_qr_scan", "android": "https://dc.lft.to/lastmile_qr_scan"}}, {"name": "bb6c5ff6eed2990efd377ee7c3890e4a", "lon": -77.00898483333333, "lat": 38.906726, "type": "electric_scooter", "fusion_lon": 0.0, "is_reserved": 0, "bike_id": "bb6c5ff6eed2990efd377ee7c3890e4a", "fusion_lat": 0.0, "is_disabled": 0, "rental_uris": {"ios": "https://dc.lft.to/lastmile_qr_scan", "android": "https://dc.lft.to/lastmile_qr_scan"}}, {"name": "eaec7326f8fbc218df72b2d69b1409f5", "lon": -77.03666316666667, "lat": 38.92721866666667, "type": "electric_scooter", "fusion_lon": 0.0, "is_reserved": 0, "bike_id": "eaec7326f8fbc218df72b2d69b1409f5", "fusion_lat": 0.0, "is_disabled": 0, "rental_uris": {"ios": "https://dc.lft.to/lastmile_qr_scan", "android": "https://dc.lft.to/lastmile_qr_scan"}}, {"name": "f2cceb3bd8b55ad3b5641a07b2f2bfb7", "lon": -77.040088, "lat": 38.91842416666667, "type": "electric_scooter", "fusion_lon": 0.0, "is_reserved": 0, "bike_id": "f2cceb3bd8b55ad3b5641a07b2f2bfb7", "fusion_lat": 0.0, "is_disabled": 0, "rental_uris": {"ios": "https://dc.lft.to/lastmile_qr_scan", "android": "https://dc.lft.to/lastmile_qr_scan"}}, {"name": "d75450dffb901b88ea23c4ef38d83500", "lon": -77.013716, "lat": 38.92855266666667, "type": "electric_scooter", "fusion_lon": 0.0, "is_reserved": 0, "bike_id": "d75450dffb901b88ea23c4ef38d83500", "fusion_lat": 0.0, "is_disabled": 0, "rental_uris": {"ios": "https://dc.lft.to/lastmile_qr_scan", "android": "https://dc.lft.to/lastmile_qr_scan"}}, {"name": "1a476b9e04c93d959462b72d5a081c3b", "lon": -77.02715, "lat": 38.924568666666666, "type": "electric_scooter", "fusion_lon": 0.0, "is_reserved": 0, "bike_id": "1a476b9e04c93d959462b72d5a081c3b", "fusion_lat": 0.0, "is_disabled": 0, "rental_uris": {"ios": "https://dc.lft.to/lastmile_qr_scan", "android": "https://dc.lft.to/lastmile_qr_scan"}}, {"name": "36b8edcde8de6c4abcb09cb48cefdba7", "lon": -77.03102183333333, "lat": 38.904277666666665, "type": "electric_scooter", "fusion_lon": 0.0, "is_reserved": 0, "bike_id": "36b8edcde8de6c4abcb09cb48cefdba7", "fusion_lat": 0.0, "is_disabled": 0, "rental_uris": {"ios": "https://dc.lft.to/lastmile_qr_scan", "android": "https://dc.lft.to/lastmile_qr_scan"}}, {"name": "b32fcc92a6ebcebf0b7473393aef7dac", "lon": -76.99902566666667, "lat": 38.948229166666664, "type": "electric_scooter", "fusion_lon": 0.0, "is_reserved": 0, "bike_id": "b32fcc92a6ebcebf0b7473393aef7dac", "fusion_lat": 0.0, "is_disabled": 0, "rental_uris": {"ios": "https://dc.lft.to/lastmile_qr_scan", "android": "https://dc.lft.to/lastmile_qr_scan"}}, {"name": "444a5a882037c9549bb2d7db4cb6d97d", "lon": -77.0271335, "lat": 38.90684266666667, "type": "electric_scooter", "fusion_lon": 0.0, "is_reserved": 0, "bike_id": "444a5a882037c9549bb2d7db4cb6d97d", "fusion_lat": 0.0, "is_disabled": 0, "rental_uris": {"ios": "https://dc.lft.to/lastmile_qr_scan", "android": "https://dc.lft.to/lastmile_qr_scan"}}, {"name": "e9e12c127e87991d36c124db520bf736", "lon": -77.00233266666666, "lat": 38.95715783333333, "type": "electric_scooter", "fusion_lon": 0.0, "is_reserved": 0, "bike_id": "e9e12c127e87991d36c124db520bf736", "fusion_lat": 0.0, "is_disabled": 0, "rental_uris": {"ios": "https://dc.lft.to/lastmile_qr_scan", "android": "https://dc.lft.to/lastmile_qr_scan"}}, {"name": "94c4024f8e11539c46f79b7d66b18512", "lon": -77.05997283333333, "lat": 38.901851, "type": "electric_scooter", "fusion_lon": 0.0, "is_reserved": 0, "bike_id": "94c4024f8e11539c46f79b7d66b18512", "fusion_lat": 0.0, "is_disabled": 0, "rental_uris": {"ios": "https://dc.lft.to/lastmile_qr_scan", "android": "https://dc.lft.to/lastmile_qr_scan"}}, {"name": "fa7298cf3531f76d814e395655f704be", "lon": -76.98690233333333, "lat": 38.9447425, "type": "electric_bike", "fusion_lon": 0.0, "is_reserved": 0, "bike_id": "fa7298cf3531f76d814e395655f704be", "fusion_lat": 0.0, "is_disabled": 0, "rental_uris": {"ios": "https://dc.lft.to/lastmile_qr_scan", "android": "https://dc.lft.to/lastmile_qr_scan"}}, {"name": "503397725a0415c198a5b35eb9f8feec", "lon": -77.07904866666667, "lat": 38.94801616666667, "type": "electric_scooter", "fusion_lon": 0.0, "is_reserved": 0, "bike_id": "503397725a0415c198a5b35eb9f8feec", "fusion_lat": 0.0, "is_disabled": 0, "rental_uris": {"ios": "https://dc.lft.to/lastmile_qr_scan", "android": "https://dc.lft.to/lastmile_qr_scan"}}, {"name": "c458fa058664eee5d8b828a894565924", "lon": -77.07350616666666, "lat": 38.930511333333335, "type": "electric_bike", "fusion_lon": 0.0, "is_reserved": 0, "bike_id": "c458fa058664eee5d8b828a894565924", "fusion_lat": 0.0, "is_disabled": 0, "rental_uris": {"ios": "https://dc.lft.to/lastmile_qr_scan", "android": "https://dc.lft.to/lastmile_qr_scan"}}, {"name": "4ccef9095211156e39093f9ceb01854a", "lon": -77.0249735, "lat": 38.906348666666666, "type": "electric_scooter", "fusion_lon": 0.0, "is_reserved": 0, "bike_id": "4ccef9095211156e39093f9ceb01854a", "fusion_lat": 0.0, "is_disabled": 0, "rental_uris": {"ios": "https://dc.lft.to/lastmile_qr_scan", "android": "https://dc.lft.to/lastmile_qr_scan"}}, {"name": "fcdef08d613c7cc68d190c8ce3a79529", "lon": -77.11599133333333, "lat": 39.074946, "type": "electric_bike", "fusion_lon": 0.0, "is_reserved": 0, "bike_id": "fcdef08d613c7cc68d190c8ce3a79529", "fusion_lat": 0.0, "is_disabled": 0, "rental_uris": {"ios": "https://dc.lft.to/lastmile_qr_scan", "android": "https://dc.lft.to/lastmile_qr_scan"}}, {"name": "45623fcb5b332c7c353c7158e03d00a6", "lon": -77.015145, "lat": 38.88631383333333, "type": "electric_scooter", "fusion_lon": 0.0, "is_reserved": 0, "bike_id": "45623fcb5b332c7c353c7158e03d00a6", "fusion_lat": 0.0, "is_disabled": 0, "rental_uris": {"ios": "https://dc.lft.to/lastmile_qr_scan", "android": "https://dc.lft.to/lastmile_qr_scan"}}, {"name": "4ddb4e5643f4020f74770f09bb9f6caa", "lon": -76.99776983333334, "lat": 38.909033, "type": "electric_scooter", "fusion_lon": 0.0, "is_reserved": 0, "bike_id": "4ddb4e5643f4020f74770f09bb9f6caa", "fusion_lat": 0.0, "is_disabled": 0, "rental_uris": {"ios": "https://dc.lft.to/lastmile_qr_scan", "android": "https://dc.lft.to/lastmile_qr_scan"}}, {"name": "78b4f5396ef0790d84fd539bcde0052b", "lon": -77.0296755, "lat": 38.916801, "type": "electric_scooter", "fusion_lon": 0.0, "is_reserved": 0, "bike_id": "78b4f5396ef0790d84fd539bcde0052b", "fusion_lat": 0.0, "is_disabled": 0, "rental_uris": {"ios": "https://dc.lft.to/lastmile_qr_scan", "android": "https://dc.lft.to/lastmile_qr_scan"}}, {"name": "69a115a66bae985eb38bbd2032c00ac8", "lon": -77.02176733333333, "lat": 38.93478233333333, "type": "electric_scooter", "fusion_lon": 0.0, "is_reserved": 0, "bike_id": "69a115a66bae985eb38bbd2032c00ac8", "fusion_lat": 0.0, "is_disabled": 0, "rental_uris": {"ios": "https://dc.lft.to/lastmile_qr_scan", "android": "https://dc.lft.to/lastmile_qr_scan"}}, {"name": "7adfdb1bd46863bf83904eda47816560", "lon": -77.01677866666667, "lat": 38.88133066666666, "type": "electric_scooter", "fusion_lon": 0.0, "is_reserved": 0, "bike_id": "7adfdb1bd46863bf83904eda47816560", "fusion_lat": 0.0, "is_disabled": 0, "rental_uris": {"ios": "https://dc.lft.to/lastmile_qr_scan", "android": "https://dc.lft.to/lastmile_qr_scan"}}, {"name": "31f9ad5c07073ae5d4bd262d46e27cb1", "lon": -77.02828866666667, "lat": 38.950840666666664, "type": "electric_scooter", "fusion_lon": 0.0, "is_reserved": 0, "bike_id": "31f9ad5c07073ae5d4bd262d46e27cb1", "fusion_lat": 0.0, "is_disabled": 0, "rental_uris": {"ios": "https://dc.lft.to/lastmile_qr_scan", "android": "https://dc.lft.to/lastmile_qr_scan"}}, {"name": "3663c0dc4a91cbcca9f8dad5e78cc633", "lon": -77.038607, "lat": 38.907862, "type": "electric_scooter", "fusion_lon": 0.0, "is_reserved": 0, "bike_id": "3663c0dc4a91cbcca9f8dad5e78cc633", "fusion_lat": 0.0, "is_disabled": 0, "rental_uris": {"ios": "https://dc.lft.to/lastmile_qr_scan", "android": "https://dc.lft.to/lastmile_qr_scan"}}, {"name": "6b504c24234f12a455a86349504ac827", "lon": -77.04750083333333, "lat": 38.905399333333335, "type": "electric_scooter", "fusion_lon": 0.0, "is_reserved": 0, "bike_id": "6b504c24234f12a455a86349504ac827", "fusion_lat": 0.0, "is_disabled": 0, "rental_uris": {"ios": "https://dc.lft.to/lastmile_qr_scan", "android": "https://dc.lft.to/lastmile_qr_scan"}}, {"name": "53e36ca09f79195c7de415fe5e2cdf48", "lon": -77.05085633333333, "lat": 38.81330583333333, "type": "electric_bike", "fusion_lon": 0.0, "is_reserved": 0, "bike_id": "53e36ca09f79195c7de415fe5e2cdf48", "fusion_lat": 0.0, "is_disabled": 0, "rental_uris": {"ios": "https://dc.lft.to/lastmile_qr_scan", "android": "https://dc.lft.to/lastmile_qr_scan"}}, {"name": "f0bcacfac0a6603fbaf90d4312d6fdf5", "lon": -77.02181233333333, "lat": 38.91018483333333, "type": "electric_scooter", "fusion_lon": 0.0, "is_reserved": 0, "bike_id": "f0bcacfac0a6603fbaf90d4312d6fdf5", "fusion_lat": 0.0, "is_disabled": 0, "rental_uris": {"ios": "https://dc.lft.to/lastmile_qr_scan", "android": "https://dc.lft.to/lastmile_qr_scan"}}, {"name": "e07fe4ef3650b453bf04edf56f4dccfe", "lon": -77.03185983333333, "lat": 38.913508, "type": "electric_scooter", "fusion_lon": 0.0, "is_reserved": 0, "bike_id": "e07fe4ef3650b453bf04edf56f4dccfe", "fusion_lat": 0.0, "is_disabled": 0, "rental_uris": {"ios": "https://dc.lft.to/lastmile_qr_scan", "android": "https://dc.lft.to/lastmile_qr_scan"}}, {"name": "984640af63ad9754abdce717c6d637c6", "lon": -77.02599233333333, "lat": 38.89683266666667, "type": "electric_scooter", "fusion_lon": 0.0, "is_reserved": 0, "bike_id": "984640af63ad9754abdce717c6d637c6", "fusion_lat": 0.0, "is_disabled": 0, "rental_uris": {"ios": "https://dc.lft.to/lastmile_qr_scan", "android": "https://dc.lft.to/lastmile_qr_scan"}}, {"name": "b9e9be658cf597b895d92a510bfb272d", "lon": -76.98093416666667, "lat": 38.953539, "type": "electric_bike", "fusion_lon": 0.0, "is_reserved": 0, "bike_id": "b9e9be658cf597b895d92a510bfb272d", "fusion_lat": 0.0, "is_disabled": 0, "rental_uris": {"ios": "https://dc.lft.to/lastmile_qr_scan", "android": "https://dc.lft.to/lastmile_qr_scan"}}, {"name": "6298cea2951b46f0288d3758157242c4", "lon": -77.023165, "lat": 38.907235, "type": "electric_scooter", "fusion_lon": 0.0, "is_reserved": 0, "bike_id": "6298cea2951b46f0288d3758157242c4", "fusion_lat": 0.0, "is_disabled": 0, "rental_uris": {"ios": "https://dc.lft.to/lastmile_qr_scan", "android": "https://dc.lft.to/lastmile_qr_scan"}}, {"name": "ae5340d873e4fd69ed392062c2581dba", "lon": -77.00197016666667, "lat": 38.90243616666667, "type": "electric_scooter", "fusion_lon": 0.0, "is_reserved": 0, "bike_id": "ae5340d873e4fd69ed392062c2581dba", "fusion_lat": 0.0, "is_disabled": 0, "rental_uris": {"ios": "https://dc.lft.to/lastmile_qr_scan", "android": "https://dc.lft.to/lastmile_qr_scan"}}, {"name": "0cf6742519647c74586d393ba23a8674", "lon": -77.03862483333333, "lat": 38.91555183333333, "type": "electric_scooter", "fusion_lon": 0.0, "is_reserved": 0, "bike_id": "0cf6742519647c74586d393ba23a8674", "fusion_lat": 0.0, "is_disabled": 0, "rental_uris": {"ios": "https://dc.lft.to/lastmile_qr_scan", "android": "https://dc.lft.to/lastmile_qr_scan"}}, {"name": "b72d7c94708f55815becff4125db11bf", "lon": -77.0434055, "lat": 38.9079555, "type": "electric_scooter", "fusion_lon": 0.0, "is_reserved": 0, "bike_id": "b72d7c94708f55815becff4125db11bf", "fusion_lat": 0.0, "is_disabled": 0, "rental_uris": {"ios": "https://dc.lft.to/lastmile_qr_scan", "android": "https://dc.lft.to/lastmile_qr_scan"}}, {"name": "d3f24c421be79e5a43bc8847e9521598", "lon": -76.99538333333334, "lat": 38.92668366666667, "type": "electric_scooter", "fusion_lon": 0.0, "is_reserved": 0, "bike_id": "d3f24c421be79e5a43bc8847e9521598", "fusion_lat": 0.0, "is_disabled": 0, "rental_uris": {"ios": "https://dc.lft.to/lastmile_qr_scan", "android": "https://dc.lft.to/lastmile_qr_scan"}}, {"name": "a9fc2b1106de673c8f39c6adfb6942ae", "lon": -77.03239816666667, "lat": 38.91550066666667, "type": "electric_scooter", "fusion_lon": 0.0, "is_reserved": 0, "bike_id": "a9fc2b1106de673c8f39c6adfb6942ae", "fusion_lat": 0.0, "is_disabled": 0, "rental_uris": {"ios": "https://dc.lft.to/lastmile_qr_scan", "android": "https://dc.lft.to/lastmile_qr_scan"}}, {"name": "c69dfbfa3cd9981b377bebf662b42d7f", "lon": -77.02190933333333, "lat": 38.911223166666666, "type": "electric_scooter", "fusion_lon": 0.0, "is_reserved": 0, "bike_id": "c69dfbfa3cd9981b377bebf662b42d7f", "fusion_lat": 0.0, "is_disabled": 0, "rental_uris": {"ios": "https://dc.lft.to/lastmile_qr_scan", "android": "https://dc.lft.to/lastmile_qr_scan"}}, {"name": "f0a13ec9f32b4b5b0a9d349e93c0ea68", "lon": -77.0980255, "lat": 38.85026966666667, "type": "electric_bike", "fusion_lon": 0.0, "is_reserved": 0, "bike_id": "f0a13ec9f32b4b5b0a9d349e93c0ea68", "fusion_lat": 0.0, "is_disabled": 0, "rental_uris": {"ios": "https://dc.lft.to/lastmile_qr_scan", "android": "https://dc.lft.to/lastmile_qr_scan"}}, {"name": "dbe9354a9cb0abdddcf921e437c06661", "lon": -77.03497116666666, "lat": 38.932674166666665, "type": "electric_scooter", "fusion_lon": 0.0, "is_reserved": 0, "bike_id": "dbe9354a9cb0abdddcf921e437c06661", "fusion_lat": 0.0, "is_disabled": 0, "rental_uris": {"ios": "https://dc.lft.to/lastmile_qr_scan", "android": "https://dc.lft.to/lastmile_qr_scan"}}, {"name": "c8c056f4b5e4bb4fdd8753713fc80d1d", "lon": -77.03515833333333, "lat": 38.906668333333336, "type": "electric_scooter", "fusion_lon": 0.0, "is_reserved": 0, "bike_id": "c8c056f4b5e4bb4fdd8753713fc80d1d", "fusion_lat": 0.0, "is_disabled": 0, "rental_uris": {"ios": "https://dc.lft.to/lastmile_qr_scan", "android": "https://dc.lft.to/lastmile_qr_scan"}}, {"name": "a5edb9378523509e95e344c4f99bd06a", "lon": -77.07790883333334, "lat": 38.84887716666667, "type": "electric_bike", "fusion_lon": 0.0, "is_reserved": 0, "bike_id": "a5edb9378523509e95e344c4f99bd06a", "fusion_lat": 0.0, "is_disabled": 0, "rental_uris": {"ios": "https://dc.lft.to/lastmile_qr_scan", "android": "https://dc.lft.to/lastmile_qr_scan"}}, {"name": "c8a28a47dc15b8922762eb264fbb63ec", "lon": -77.02474516666666, "lat": 38.90964, "type": "electric_scooter", "fusion_lon": 0.0, "is_reserved": 0, "bike_id": "c8a28a47dc15b8922762eb264fbb63ec", "fusion_lat": 0.0, "is_disabled": 0, "rental_uris": {"ios": "https://dc.lft.to/lastmile_qr_scan", "android": "https://dc.lft.to/lastmile_qr_scan"}}, {"name": "79fb72ea5b14942ba7849c03a277d095", "lon": -77.0254795, "lat": 38.94221733333333, "type": "electric_scooter", "fusion_lon": 0.0, "is_reserved": 0, "bike_id": "79fb72ea5b14942ba7849c03a277d095", "fusion_lat": 0.0, "is_disabled": 0, "rental_uris": {"ios": "https://dc.lft.to/lastmile_qr_scan", "android": "https://dc.lft.to/lastmile_qr_scan"}}, {"name": "b15388bd56869980d2b2a63b6a804b21", "lon": -77.05581033333333, "lat": 38.936097833333335, "type": "electric_scooter", "fusion_lon": 0.0, "is_reserved": 0, "bike_id": "b15388bd56869980d2b2a63b6a804b21", "fusion_lat": 0.0, "is_disabled": 0, "rental_uris": {"ios": "https://dc.lft.to/lastmile_qr_scan", "android": "https://dc.lft.to/lastmile_qr_scan"}}, {"name": "7496faa5c8343a64cd9a7a0bf8756ca5", "lon": -77.044828, "lat": 38.924062166666666, "type": "electric_scooter", "fusion_lon": 0.0, "is_reserved": 0, "bike_id": "7496faa5c8343a64cd9a7a0bf8756ca5", "fusion_lat": 0.0, "is_disabled": 0, "rental_uris": {"ios": "https://dc.lft.to/lastmile_qr_scan", "android": "https://dc.lft.to/lastmile_qr_scan"}}, {"name": "a0d8d53207ae19f850a9f22b51cadda1", "lon": -77.02203383333334, "lat": 38.899807, "type": "electric_scooter", "fusion_lon": 0.0, "is_reserved": 0, "bike_id": "a0d8d53207ae19f850a9f22b51cadda1", "fusion_lat": 0.0, "is_disabled": 0, "rental_uris": {"ios": "https://dc.lft.to/lastmile_qr_scan", "android": "https://dc.lft.to/lastmile_qr_scan"}}, {"name": "0f586162dae28be75e4e6a3e442e99d2", "lon": -77.05221433333334, "lat": 38.92482966666667, "type": "electric_scooter", "fusion_lon": 0.0, "is_reserved": 0, "bike_id": "0f586162dae28be75e4e6a3e442e99d2", "fusion_lat": 0.0, "is_disabled": 0, "rental_uris": {"ios": "https://dc.lft.to/lastmile_qr_scan", "android": "https://dc.lft.to/lastmile_qr_scan"}}, {"name": "cc9f601ae2a1f7eac671fb30f019a3a1", "lon": -77.00600183333333, "lat": 38.90649, "type": "electric_scooter", "fusion_lon": 0.0, "is_reserved": 0, "bike_id": "cc9f601ae2a1f7eac671fb30f019a3a1", "fusion_lat": 0.0, "is_disabled": 0, "rental_uris": {"ios": "https://dc.lft.to/lastmile_qr_scan", "android": "https://dc.lft.to/lastmile_qr_scan"}}, {"name": "10a33b388db0df5b8dc832a4e1fadb46", "lon": -77.00914766666666, "lat": 38.827853833333336, "type": "electric_scooter", "fusion_lon": 0.0, "is_reserved": 0, "bike_id": "10a33b388db0df5b8dc832a4e1fadb46", "fusion_lat": 0.0, "is_disabled": 0, "rental_uris": {"ios": "https://dc.lft.to/lastmile_qr_scan", "android": "https://dc.lft.to/lastmile_qr_scan"}}, {"name": "273c93dc87eb4b1c10e2a54903122789", "lon": -77.03299683333333, "lat": 38.92623433333333, "type": "electric_bike", "fusion_lon": 0.0, "is_reserved": 0, "bike_id": "273c93dc87eb4b1c10e2a54903122789", "fusion_lat": 0.0, "is_disabled": 0, "rental_uris": {"ios": "https://dc.lft.to/lastmile_qr_scan", "android": "https://dc.lft.to/lastmile_qr_scan"}}, {"name": "7ad995aef0057046cfaa20058d1b5adc", "lon": -76.99384866666666, "lat": 38.8776325, "type": "electric_scooter", "fusion_lon": 0.0, "is_reserved": 0, "bike_id": "7ad995aef0057046cfaa20058d1b5adc", "fusion_lat": 0.0, "is_disabled": 0, "rental_uris": {"ios": "https://dc.lft.to/lastmile_qr_scan", "android": "https://dc.lft.to/lastmile_qr_scan"}}, {"name": "3fbd32bb10da210d59a455751baaf4dd", "lon": -77.03081583333334, "lat": 38.91109633333333, "type": "electric_scooter", "fusion_lon": 0.0, "is_reserved": 0, "bike_id": "3fbd32bb10da210d59a455751baaf4dd", "fusion_lat": 0.0, "is_disabled": 0, "rental_uris": {"ios": "https://dc.lft.to/lastmile_qr_scan", "android": "https://dc.lft.to/lastmile_qr_scan"}}, {"name": "77a94ac980140e587b36a9d2563f79dd", "lon": -76.99726, "lat": 38.92751616666666, "type": "electric_bike", "fusion_lon": 0.0, "is_reserved": 0, "bike_id": "77a94ac980140e587b36a9d2563f79dd", "fusion_lat": 0.0, "is_disabled": 0, "rental_uris": {"ios": "https://dc.lft.to/lastmile_qr_scan", "android": "https://dc.lft.to/lastmile_qr_scan"}}, {"name": "530429ed328315951366ccb937bc3b08", "lon": -77.03274233333333, "lat": 38.902526333333334, "type": "electric_scooter", "fusion_lon": 0.0, "is_reserved": 0, "bike_id": "530429ed328315951366ccb937bc3b08", "fusion_lat": 0.0, "is_disabled": 0, "rental_uris": {"ios": "https://dc.lft.to/lastmile_qr_scan", "android": "https://dc.lft.to/lastmile_qr_scan"}}, {"name": "6dffc832cdd4cad9cf2419eef3fa2e63", "lon": -77.04478433333334, "lat": 38.918705833333334, "type": "electric_scooter", "fusion_lon": 0.0, "is_reserved": 0, "bike_id": "6dffc832cdd4cad9cf2419eef3fa2e63", "fusion_lat": 0.0, "is_disabled": 0, "rental_uris": {"ios": "https://dc.lft.to/lastmile_qr_scan", "android": "https://dc.lft.to/lastmile_qr_scan"}}, {"name": "639d27137de0c2d5ec68e35a866240db", "lon": -77.0447455, "lat": 38.90012866666667, "type": "electric_scooter", "fusion_lon": 0.0, "is_reserved": 0, "bike_id": "639d27137de0c2d5ec68e35a866240db", "fusion_lat": 0.0, "is_disabled": 0, "rental_uris": {"ios": "https://dc.lft.to/lastmile_qr_scan", "android": "https://dc.lft.to/lastmile_qr_scan"}}, {"name": "e5d788e1d3918e729b33f2b011c62e49", "lon": -76.9851475, "lat": 38.866659, "type": "electric_scooter", "fusion_lon": 0.0, "is_reserved": 0, "bike_id": "e5d788e1d3918e729b33f2b011c62e49", "fusion_lat": 0.0, "is_disabled": 0, "rental_uris": {"ios": "https://dc.lft.to/lastmile_qr_scan", "android": "https://dc.lft.to/lastmile_qr_scan"}}, {"name": "df4e1d633a9dab7dd7e842a8b4da9e06", "lon": -77.04762433333333, "lat": 38.91246016666667, "type": "electric_scooter", "fusion_lon": 0.0, "is_reserved": 0, "bike_id": "df4e1d633a9dab7dd7e842a8b4da9e06", "fusion_lat": 0.0, "is_disabled": 0, "rental_uris": {"ios": "https://dc.lft.to/lastmile_qr_scan", "android": "https://dc.lft.to/lastmile_qr_scan"}}, {"name": "f147afc517f96367be59283a3c7ceeb8", "lon": -77.0437175, "lat": 38.92572666666667, "type": "electric_scooter", "fusion_lon": 0.0, "is_reserved": 0, "bike_id": "f147afc517f96367be59283a3c7ceeb8", "fusion_lat": 0.0, "is_disabled": 0, "rental_uris": {"ios": "https://dc.lft.to/lastmile_qr_scan", "android": "https://dc.lft.to/lastmile_qr_scan"}}, {"name": "5dd28cc5e6d5a57f2e4a670ac3a413b1", "lon": -77.05126633333333, "lat": 38.90520316666667, "type": "electric_scooter", "fusion_lon": 0.0, "is_reserved": 0, "bike_id": "5dd28cc5e6d5a57f2e4a670ac3a413b1", "fusion_lat": 0.0, "is_disabled": 0, "rental_uris": {"ios": "https://dc.lft.to/lastmile_qr_scan", "android": "https://dc.lft.to/lastmile_qr_scan"}}, {"name": "a9c157d727ccb51f9a49c81c84deae9b", "lon": -76.93191883333333, "lat": 38.898772666666666, "type": "electric_scooter", "fusion_lon": 0.0, "is_reserved": 0, "bike_id": "a9c157d727ccb51f9a49c81c84deae9b", "fusion_lat": 0.0, "is_disabled": 0, "rental_uris": {"ios": "https://dc.lft.to/lastmile_qr_scan", "android": "https://dc.lft.to/lastmile_qr_scan"}}, {"name": "20c0c05b6acc96fddf3466f82da72128", "lon": -76.99476683333333, "lat": 38.902945833333334, "type": "electric_scooter", "fusion_lon": 0.0, "is_reserved": 0, "bike_id": "20c0c05b6acc96fddf3466f82da72128", "fusion_lat": 0.0, "is_disabled": 0, "rental_uris": {"ios": "https://dc.lft.to/lastmile_qr_scan", "android": "https://dc.lft.to/lastmile_qr_scan"}}, {"name": "62ec1e619058fa0d9108a9223695d09e", "lon": -77.0333475, "lat": 38.89222083333333, "type": "electric_scooter", "fusion_lon": 0.0, "is_reserved": 0, "bike_id": "62ec1e619058fa0d9108a9223695d09e", "fusion_lat": 0.0, "is_disabled": 0, "rental_uris": {"ios": "https://dc.lft.to/lastmile_qr_scan", "android": "https://dc.lft.to/lastmile_qr_scan"}}, {"name": "30ebf6b2e8a8ab77072dcff4b81ea600", "lon": -77.044807, "lat": 38.92237516666667, "type": "electric_scooter", "fusion_lon": 0.0, "is_reserved": 0, "bike_id": "30ebf6b2e8a8ab77072dcff4b81ea600", "fusion_lat": 0.0, "is_disabled": 0, "rental_uris": {"ios": "https://dc.lft.to/lastmile_qr_scan", "android": "https://dc.lft.to/lastmile_qr_scan"}}, {"name": "f1ce63c81262035533e92ffb87e151bf", "lon": -76.93544883333334, "lat": 38.955472, "type": "electric_bike", "fusion_lon": 0.0, "is_reserved": 0, "bike_id": "f1ce63c81262035533e92ffb87e151bf", "fusion_lat": 0.0, "is_disabled": 0, "rental_uris": {"ios": "https://dc.lft.to/lastmile_qr_scan", "android": "https://dc.lft.to/lastmile_qr_scan"}}, {"name": "d01e757e30e9adc19eff28c16884cc50", "lon": -76.9907275, "lat": 38.897979166666666, "type": "electric_bike", "fusion_lon": 0.0, "is_reserved": 0, "bike_id": "d01e757e30e9adc19eff28c16884cc50", "fusion_lat": 0.0, "is_disabled": 0, "rental_uris": {"ios": "https://dc.lft.to/lastmile_qr_scan", "android": "https://dc.lft.to/lastmile_qr_scan"}}, {"name": "a07152bd363a953f822f0e5abe26b17e", "lon": -77.02044966666666, "lat": 38.921840833333334, "type": "electric_scooter", "fusion_lon": 0.0, "is_reserved": 0, "bike_id": "a07152bd363a953f822f0e5abe26b17e", "fusion_lat": 0.0, "is_disabled": 0, "rental_uris": {"ios": "https://dc.lft.to/lastmile_qr_scan", "android": "https://dc.lft.to/lastmile_qr_scan"}}, {"name": "c9bd323bdeaff67e3fbbf359e7dfbfd8", "lon": -76.9878125, "lat": 38.844713, "type": "electric_bike", "fusion_lon": 0.0, "is_reserved": 0, "bike_id": "c9bd323bdeaff67e3fbbf359e7dfbfd8", "fusion_lat": 0.0, "is_disabled": 0, "rental_uris": {"ios": "https://dc.lft.to/lastmile_qr_scan", "android": "https://dc.lft.to/lastmile_qr_scan"}}, {"name": "04562ae52cd6453b1a7523d0d2e6e3c6", "lon": -77.0217255, "lat": 38.89479683333333, "type": "electric_scooter", "fusion_lon": 0.0, "is_reserved": 0, "bike_id": "04562ae52cd6453b1a7523d0d2e6e3c6", "fusion_lat": 0.0, "is_disabled": 0, "rental_uris": {"ios": "https://dc.lft.to/lastmile_qr_scan", "android": "https://dc.lft.to/lastmile_qr_scan"}}, {"name": "c39ae5dcf2ee24a6da30497cc4b3f90f", "lon": -77.01162283333333, "lat": 38.91564666666667, "type": "electric_scooter", "fusion_lon": 0.0, "is_reserved": 0, "bike_id": "c39ae5dcf2ee24a6da30497cc4b3f90f", "fusion_lat": 0.0, "is_disabled": 0, "rental_uris": {"ios": "https://dc.lft.to/lastmile_qr_scan", "android": "https://dc.lft.to/lastmile_qr_scan"}}, {"name": "097a9bafab825a8d1eb63e31c8f31a23", "lon": -77.026022, "lat": 38.8944065, "type": "electric_scooter", "fusion_lon": 0.0, "is_reserved": 0, "bike_id": "097a9bafab825a8d1eb63e31c8f31a23", "fusion_lat": 0.0, "is_disabled": 0, "rental_uris": {"ios": "https://dc.lft.to/lastmile_qr_scan", "android": "https://dc.lft.to/lastmile_qr_scan"}}, {"name": "b308300417eb81ac5301b48e1e8f9ce4", "lon": -77.03846733333333, "lat": 38.908432166666664, "type": "electric_scooter", "fusion_lon": 0.0, "is_reserved": 0, "bike_id": "b308300417eb81ac5301b48e1e8f9ce4", "fusion_lat": 0.0, "is_disabled": 0, "rental_uris": {"ios": "https://dc.lft.to/lastmile_qr_scan", "android": "https://dc.lft.to/lastmile_qr_scan"}}, {"name": "a0b19c82141c28cafb7a9d866522d37d", "lon": -77.03290333333334, "lat": 38.9072235, "type": "electric_scooter", "fusion_lon": 0.0, "is_reserved": 0, "bike_id": "a0b19c82141c28cafb7a9d866522d37d", "fusion_lat": 0.0, "is_disabled": 0, "rental_uris": {"ios": "https://dc.lft.to/lastmile_qr_scan", "android": "https://dc.lft.to/lastmile_qr_scan"}}, {"name": "cc6c9cea7d9e60427d622e61a4b1a344", "lon": -77.039013, "lat": 38.92205083333333, "type": "electric_scooter", "fusion_lon": 0.0, "is_reserved": 0, "bike_id": "cc6c9cea7d9e60427d622e61a4b1a344", "fusion_lat": 0.0, "is_disabled": 0, "rental_uris": {"ios": "https://dc.lft.to/lastmile_qr_scan", "android": "https://dc.lft.to/lastmile_qr_scan"}}, {"name": "1040bea41d06cdb62128fc4965c5f231", "lon": -77.02689633333334, "lat": 38.8972645, "type": "electric_scooter", "fusion_lon": 0.0, "is_reserved": 0, "bike_id": "1040bea41d06cdb62128fc4965c5f231", "fusion_lat": 0.0, "is_disabled": 0, "rental_uris": {"ios": "https://dc.lft.to/lastmile_qr_scan", "android": "https://dc.lft.to/lastmile_qr_scan"}}, {"name": "d2ab6003392ae12e6d522118f7eb3ad7", "lon": -77.0384085, "lat": 38.916845, "type": "electric_scooter", "fusion_lon": 0.0, "is_reserved": 0, "bike_id": "d2ab6003392ae12e6d522118f7eb3ad7", "fusion_lat": 0.0, "is_disabled": 0, "rental_uris": {"ios": "https://dc.lft.to/lastmile_qr_scan", "android": "https://dc.lft.to/lastmile_qr_scan"}}, {"name": "0f81d95fbf3747befa380079a38a6e5c", "lon": -77.02223933333333, "lat": 38.89221383333334, "type": "electric_scooter", "fusion_lon": 0.0, "is_reserved": 0, "bike_id": "0f81d95fbf3747befa380079a38a6e5c", "fusion_lat": 0.0, "is_disabled": 0, "rental_uris": {"ios": "https://dc.lft.to/lastmile_qr_scan", "android": "https://dc.lft.to/lastmile_qr_scan"}}, {"name": "4bf00b0bb17c377f53d3680c8f2051d7", "lon": -76.98840383333334, "lat": 38.842779, "type": "electric_bike", "fusion_lon": 0.0, "is_reserved": 0, "bike_id": "4bf00b0bb17c377f53d3680c8f2051d7", "fusion_lat": 0.0, "is_disabled": 0, "rental_uris": {"ios": "https://dc.lft.to/lastmile_qr_scan", "android": "https://dc.lft.to/lastmile_qr_scan"}}, {"name": "b8fb29241609316bb01546c3f66b7f6c", "lon": -77.05263216666667, "lat": 38.939378, "type": "electric_scooter", "fusion_lon": 0.0, "is_reserved": 0, "bike_id": "b8fb29241609316bb01546c3f66b7f6c", "fusion_lat": 0.0, "is_disabled": 0, "rental_uris": {"ios": "https://dc.lft.to/lastmile_qr_scan", "android": "https://dc.lft.to/lastmile_qr_scan"}}, {"name": "4d7457b470a2160a16b5f2fc59ccfeb8", "lon": -77.04409166666667, "lat": 38.929517, "type": "electric_scooter", "fusion_lon": 0.0, "is_reserved": 0, "bike_id": "4d7457b470a2160a16b5f2fc59ccfeb8", "fusion_lat": 0.0, "is_disabled": 0, "rental_uris": {"ios": "https://dc.lft.to/lastmile_qr_scan", "android": "https://dc.lft.to/lastmile_qr_scan"}}, {"name": "5203c0c56bc3828ef470d2448e02eb73", "lon": -76.95958766666666, "lat": 38.88998483333334, "type": "electric_scooter", "fusion_lon": 0.0, "is_reserved": 0, "bike_id": "5203c0c56bc3828ef470d2448e02eb73", "fusion_lat": 0.0, "is_disabled": 0, "rental_uris": {"ios": "https://dc.lft.to/lastmile_qr_scan", "android": "https://dc.lft.to/lastmile_qr_scan"}}, {"name": "0db80eb8abe560d612b5269cb50b8eb7", "lon": -77.0459775, "lat": 38.916955333333334, "type": "electric_scooter", "fusion_lon": 0.0, "is_reserved": 0, "bike_id": "0db80eb8abe560d612b5269cb50b8eb7", "fusion_lat": 0.0, "is_disabled": 0, "rental_uris": {"ios": "https://dc.lft.to/lastmile_qr_scan", "android": "https://dc.lft.to/lastmile_qr_scan"}}, {"name": "b3579d3cd169667863df356552a27c88", "lon": -77.03256583333334, "lat": 38.918132666666665, "type": "electric_scooter", "fusion_lon": 0.0, "is_reserved": 0, "bike_id": "b3579d3cd169667863df356552a27c88", "fusion_lat": 0.0, "is_disabled": 0, "rental_uris": {"ios": "https://dc.lft.to/lastmile_qr_scan", "android": "https://dc.lft.to/lastmile_qr_scan"}}, {"name": "ec5f016712eeacc343b8255799b86c8a", "lon": -77.07817866666667, "lat": 38.936416, "type": "electric_bike", "fusion_lon": 0.0, "is_reserved": 0, "bike_id": "ec5f016712eeacc343b8255799b86c8a", "fusion_lat": 0.0, "is_disabled": 0, "rental_uris": {"ios": "https://dc.lft.to/lastmile_qr_scan", "android": "https://dc.lft.to/lastmile_qr_scan"}}, {"name": "2ea4a61b12dce6dd80bdb028595dd2b7", "lon": -77.03270716666667, "lat": 38.931491, "type": "electric_scooter", "fusion_lon": 0.0, "is_reserved": 0, "bike_id": "2ea4a61b12dce6dd80bdb028595dd2b7", "fusion_lat": 0.0, "is_disabled": 0, "rental_uris": {"ios": "https://dc.lft.to/lastmile_qr_scan", "android": "https://dc.lft.to/lastmile_qr_scan"}}, {"name": "d6c1564fed02776c1ea467482e2432d7", "lon": -76.990625, "lat": 38.863577666666664, "type": "electric_scooter", "fusion_lon": 0.0, "is_reserved": 0, "bike_id": "d6c1564fed02776c1ea467482e2432d7", "fusion_lat": 0.0, "is_disabled": 0, "rental_uris": {"ios": "https://dc.lft.to/lastmile_qr_scan", "android": "https://dc.lft.to/lastmile_qr_scan"}}, {"name": "2a36d3cd4e168d0199b8dbb121313f1b", "lon": -77.011878, "lat": 38.91548233333333, "type": "electric_scooter", "fusion_lon": 0.0, "is_reserved": 0, "bike_id": "2a36d3cd4e168d0199b8dbb121313f1b", "fusion_lat": 0.0, "is_disabled": 0, "rental_uris": {"ios": "https://dc.lft.to/lastmile_qr_scan", "android": "https://dc.lft.to/lastmile_qr_scan"}}, {"name": "c90700c0691e16a564fe045260777948", "lon": -76.9536345, "lat": 38.8920775, "type": "electric_scooter", "fusion_lon": 0.0, "is_reserved": 0, "bike_id": "c90700c0691e16a564fe045260777948", "fusion_lat": 0.0, "is_disabled": 0, "rental_uris": {"ios": "https://dc.lft.to/lastmile_qr_scan", "android": "https://dc.lft.to/lastmile_qr_scan"}}, {"name": "77d2172c4efcaaff23b945ce55825d53", "lon": -76.98708983333333, "lat": 38.86698466666667, "type": "electric_scooter", "fusion_lon": 0.0, "is_reserved": 0, "bike_id": "77d2172c4efcaaff23b945ce55825d53", "fusion_lat": 0.0, "is_disabled": 0, "rental_uris": {"ios": "https://dc.lft.to/lastmile_qr_scan", "android": "https://dc.lft.to/lastmile_qr_scan"}}, {"name": "2053eb7cbc033901851eedef46a3cdd6", "lon": -77.05120033333333, "lat": 38.899570833333335, "type": "electric_scooter", "fusion_lon": 0.0, "is_reserved": 0, "bike_id": "2053eb7cbc033901851eedef46a3cdd6", "fusion_lat": 0.0, "is_disabled": 0, "rental_uris": {"ios": "https://dc.lft.to/lastmile_qr_scan", "android": "https://dc.lft.to/lastmile_qr_scan"}},