{"data": {"bikes": [{"is_reserved": 0, "is_disabled": 0, "fusion_lon": 0.0, "lat": 38.91915516666667, "name": "7003bbbeb4147b89ef26c600cb8f49c3", "bike_id": "7003bbbeb4147b89ef26c600cb8f49c3", "lon": -77.01228, "fusion_lat": 0.0, "rental_uris": {"android": "https://dc.lft.to/lastmile_qr_scan", "ios": "https://dc.lft.to/lastmile_qr_scan"}, "type": "electric_scooter"}, {"is_reserved": 0, "is_disabled": 0, "fusion_lon": 0.0, "lat": 38.90781716666667, "name": "90eef97bb60b400d35f8820b03e435ea", "bike_id": "90eef97bb60b400d35f8820b03e435ea", "lon": -76.99717883333334, "fusion_lat": 0.0, "rental_uris": {"android": "https://dc.lft.to/lastmile_qr_scan", "ios": "https://dc.lft.to/lastmile_qr_scan"}, "type": "electric_scooter"}, {"is_reserved": 0, "is_disabled": 0, "fusion_lon": 0.0, "lat": 38.90196983333333, "name": "b47cee0223a24a11fa2c58cf647cb6c0", "bike_id": "b47cee0223a24a11fa2c58cf647cb6c0", "lon": -77.052375, "fusion_lat": 0.0, "rental_uris": {"android": "https://dc.lft.to/lastmile_qr_scan", "ios": "https://dc.lft.to/lastmile_qr_scan"}, "type": "electric_scooter"}, {"is_reserved": 0, "is_disabled": 0, "fusion_lon": 0.0, "lat": 38.93624833333333, "name": "827d2694b56d57626de03b1d97cf2a98", "bike_id": "827d2694b56d57626de03b1d97cf2a98", "lon": -77.06414816666667, "fusion_lat": 0.0, "rental_uris": {"android": "https://dc.lft.to/lastmile_qr_scan", "ios": "https://dc.lft.to/lastmile_qr_scan"}, "type": "electric_scooter"}, {"is_reserved": 0, "is_disabled": 0, "fusion_lon": 0.0, "lat": 38.913289166666665, "name": "2709561534bf025a4f96c6793682c198", "bike_id": "2709561534bf025a4f96c6793682c198", "lon": -77.03187083333333, "fusion_lat": 0.0, "rental_uris": {"android": "https://dc.lft.to/lastmile_qr_scan", "ios": "https://dc.lft.to/lastmile_qr_scan"}, "type": "electric_scooter"}, {"is_reserved": 0, "is_disabled": 0, "fusion_lon": 0.0, "lat": 38.92375066666666, "name": "0e6004c7c542f2a5fa30d769bc3e5e5e", "bike_id": "0e6004c7c542f2a5fa30d769bc3e5e5e", "lon": -77.01914916666666, "fusion_lat": 0.0, "rental_uris": {"android": "https://dc.lft.to/lastmile_qr_scan", "ios": "https://dc.lft.to/lastmile_qr_scan"}, "type": "electric_scooter"}, {"is_reserved": 0, "is_disabled": 0, "fusion_lon": 0.0, "lat": 38.95057116666667, "name": "4b7f552604451c7b874b92b0223e1435", "bike_id": "4b7f552604451c7b874b92b0223e1435", "lon": -77.06634233333334, "fusion_lat": 0.0, "rental_uris": {"android": "https://dc.lft.to/lastmile_qr_scan", "ios": "https://dc.lft.to/lastmile_qr_scan"}, "type": "electric_bike"}, {"is_reserved": 0, "is_disabled": 0, "fusion_lon": 0.0, "lat": 38.899607, "name": "28da4d7a889ae39d3331bead0de459b1", "bike_id": "28da4d7a889ae39d3331bead0de459b1", "lon": -77.04508466666667, "fusion_lat": 0.0, "rental_uris": {"android": "https://dc.lft.to/lastmile_qr_scan", "ios": "https://dc.lft.to/lastmile_qr_scan"}, "type": "electric_scooter"}, {"is_reserved": 0, "is_disabled": 0, "fusion_lon": 0.0, "lat": 38.915866, "name": "e9b22d0577f304147ceca0b07165f2a8", "bike_id": "e9b22d0577f304147ceca0b07165f2a8", "lon": -77.04607416666667, "fusion_lat": 0.0, "rental_uris": {"android": "https://dc.lft.to/lastmile_qr_scan", "ios": "https://dc.lft.to/lastmile_qr_scan"}, "type": "electric_scooter"}, {"is_reserved": 0, "is_disabled": 0, "fusion_lon": 0.0, "lat": 38.91401783333333, "name": "008572b43d71a2f706b375fbfc6415a5", "bike_id": "008572b43d71a2f706b375fbfc6415a5", "lon": -77.0182575, "fusion_lat": 0.0, "rental_uris": {"android": "https://dc.lft.to/lastmile_qr_scan", "ios": "https://dc.lft.to/lastmile_qr_scan"}, "type": "electric_scooter"}, {"is_reserved": 0, "is_disabled": 0, "fusion_lon": 0.0, "lat": 38.927628166666665, "name": "ad11d5b6b232b0320b5bb06a2ab98aab", "bike_id": "ad11d5b6b232b0320b5bb06a2ab98aab", "lon": -77.02783366666667, "fusion_lat": 0.0, "rental_uris": {"android": "https://dc.lft.to/lastmile_qr_scan", "ios": "https://dc.lft.to/lastmile_qr_scan"}, "type": "electric_scooter"}, {"is_reserved": 0, "is_disabled": 0, "fusion_lon": 0.0, "lat": 38.919854, "name": "cf2cfd7f53b572d0ba80f0e6855b190f", "bike_id": "cf2cfd7f53b572d0ba80f0e6855b190f", "lon": -77.0239545, "fusion_lat": 0.0, "rental_uris": {"android": "https://dc.lft.to/lastmile_qr_scan", "ios": "https://dc.lft.to/lastmile_qr_scan"}, "type": "electric_scooter"}, {"is_reserved": 0, "is_disabled": 0, "fusion_lon": 0.0, "lat": 38.900406833333335, "name": "1dfe1fa4e77318a7b07152c47be94e5e", "bike_id": "1dfe1fa4e77318a7b07152c47be94e5e", "lon": -77.01772516666666, "fusion_lat": 0.0, "rental_uris": {"android": "https://dc.lft.to/lastmile_qr_scan", "ios": "https://dc.lft.to/lastmile_qr_scan"}, "type": "electric_scooter"}, {"is_reserved": 0, "is_disabled": 0, "fusion_lon": 0.0, "lat": 38.915609, "name": "222191db2afc012e41edbc91e4e74faa", "bike_id": "222191db2afc012e41edbc91e4e74faa", "lon": -77.00714033333334, "fusion_lat": 0.0, "rental_uris": {"android": "https://dc.lft.to/lastmile_qr_scan", "ios": "https://dc.lft.to/lastmile_qr_scan"}, "type": "electric_scooter"}, {"is_reserved": 0, "is_disabled": 0, "fusion_lon": 0.0, "lat": 38.8802345, "name": "5e2f89126e2760d560d144a89b30fad3", "bike_id": "5e2f89126e2760d560d144a89b30fad3", "lon": -76.9432515, "fusion_lat": 0.0, "rental_uris": {"android": "https://dc.lft.to/lastmile_qr_scan", "ios": "https://dc.lft.to/lastmile_qr_scan"}, "type": "electric_scooter"}, {"is_reserved": 0, "is_disabled": 0, "fusion_lon": 0.0, "lat": 38.921520666666666, "name": "da897fb2e09b9f01dc14d016b96e33fe", "bike_id": "da897fb2e09b9f01dc14d016b96e33fe", "lon": -77.04015316666667, "fusion_lat": 0.0, "rental_uris": {"android": "https://dc.lft.to/lastmile_qr_scan", "ios": "https://dc.lft.to/lastmile_qr_scan"}, "type": "electric_scooter"}, {"is_reserved": 0, "is_disabled": 0, "fusion_lon": 0.0, "lat": 38.8870715, "name": "6de81885f0b27c2e6ac9088a6cf9053d", "bike_id": "6de81885f0b27c2e6ac9088a6cf9053d", "lon": -76.98345683333334, "fusion_lat": 0.0, "rental_uris": {"android": "https://dc.lft.to/lastmile_qr_scan", "ios": "https://dc.lft.to/lastmile_qr_scan"}, "type": "electric_scooter"}, {"is_reserved": 0, "is_disabled": 0, "fusion_lon": 0.0, "lat": 38.90362116666667, "name": "c29ee8741d8e1bd1d0a216aebc8c032f", "bike_id": "c29ee8741d8e1bd1d0a216aebc8c032f", "lon": -77.03671983333334, "fusion_lat": 0.0, "rental_uris": {"android": "https://dc.lft.to/lastmile_qr_scan", "ios": "https://dc.lft.to/lastmile_qr_scan"}, "type": "electric_scooter"}, {"is_reserved": 0, "is_disabled": 0, "fusion_lon": 0.0, "lat": 38.93991883333333, "name": "f4e723a833210a89b8aa19e07b10b6d2", "bike_id": "f4e723a833210a89b8aa19e07b10b6d2", "lon": -77.01743483333334, "fusion_lat": 0.0, "rental_uris": {"android": "https://dc.lft.to/lastmile_qr_scan", "ios": "https://dc.lft.to/lastmile_qr_scan"}, "type": "electric_scooter"}, {"is_reserved": 0, "is_disabled": 0, "fusion_lon": 0.0, "lat": 38.8812265, "name": "8ad07f51a99e632aee7ddce1adf40e81", "bike_id": "8ad07f51a99e632aee7ddce1adf40e81", "lon": -76.99346583333333, "fusion_lat": 0.0, "rental_uris": {"android": "https://dc.lft.to/lastmile_qr_scan", "ios": "https://dc.lft.to/lastmile_qr_scan"}, "type": "electric_scooter"}, {"is_reserved": 0, "is_disabled": 0, "fusion_lon": 0.0, "lat": 38.910254333333334, "name": "fcb2a4a14bae65a2233a1a93d2b0e2f0", "bike_id": "fcb2a4a14bae65a2233a1a93d2b0e2f0", "lon": -77.02939133333334, "fusion_lat": 0.0, "rental_uris": {"android": "https://dc.lft.to/lastmile_qr_scan", "ios": "https://dc.lft.to/lastmile_qr_scan"}, "type": "electric_scooter"}, {"is_reserved": 0, "is_disabled": 0, "fusion_lon": 0.0, "lat": 38.8581335, "name": "4fa1decbfb147e81c8b4a91465f1ab02", "bike_id": "4fa1decbfb147e81c8b4a91465f1ab02", "lon": -76.98992016666666, "fusion_lat": 0.0, "rental_uris": {"android": "https://dc.lft.to/lastmile_qr_scan", "ios": "https://dc.lft.to/lastmile_qr_scan"}, "type": "electric_scooter"}, {"is_reserved": 0, "is_disabled": 0, "fusion_lon": 0.0, "lat": 38.912660833333334, "name": "7e73a1eb82ef41c8c589f7350e25fafa", "bike_id": "7e73a1eb82ef41c8c589f7350e25fafa", "lon": -77.02209883333333, "fusion_lat": 0.0, "rental_uris": {"android": "https://dc.lft.to/lastmile_qr_scan", "ios": "https://dc.lft.to/lastmile_qr_scan"}, "type": "electric_scooter"}, {"is_reserved": 0, "is_disabled": 0, "fusion_lon": 0.0, "lat": 38.905542, "name": "fe316a9b2c5bc38205326a4489c1292e", "bike_id": "fe316a9b2c5bc38205326a4489c1292e", "lon": -76.9837375, "fusion_lat": 0.0, "rental_uris": {"android": "https://dc.lft.to/lastmile_qr_scan", "ios": "https://dc.lft.to/lastmile_qr_scan"}, "type": "electric_scooter"}, {"is_reserved": 0, "is_disabled": 0, "fusion_lon": 0.0, "lat": 38.917671, "name": "03ce33b8f3e075dc1adb5b30e3cac44a", "bike_id": "03ce33b8f3e075dc1adb5b30e3cac44a", "lon": -77.014923, "fusion_lat": 0.0, "rental_uris": {"android": "https://dc.lft.to/lastmile_qr_scan", "ios": "https://dc.lft.to/lastmile_qr_scan"}, "type": "electric_scooter"}, {"is_reserved": 0, "is_disabled": 0, "fusion_lon": 0.0, "lat": 38.80385033333334, "name": "30df8010000fd36b620137dbc3e8823e", "bike_id": "30df8010000fd36b620137dbc3e8823e", "lon": -76.98811766666667, "fusion_lat": 0.0, "rental_uris": {"android": "https://dc.lft.to/lastmile_qr_scan", "ios": "https://dc.lft.to/lastmile_qr_scan"}, "type": "electric_bike"}, {"is_reserved": 0, "is_disabled": 0, "fusion_lon": 0.0, "lat": 38.906689166666666, "name": "b95141a678fd98a4a46ad983d5b08a14", "bike_id": "b95141a678fd98a4a46ad983d5b08a14", "lon": -76.98367733333333, "fusion_lat": 0.0, "rental_uris": {"android": "https://dc.lft.to/lastmile_qr_scan", "ios": "https://dc.lft.to/lastmile_qr_scan"}, "type": "electric_scooter"}, {"is_reserved": 0, "is_disabled": 0, "fusion_lon": 0.0, "lat": 38.93857766666667, "name": "529fcd67dd585aa81fc35bd348dc76d5", "bike_id": "529fcd67dd585aa81fc35bd348dc76d5", "lon": -77.034255, "fusion_lat": 0.0, "rental_uris": {"android": "https://dc.lft.to/lastmile_qr_scan", "ios": "https://dc.lft.to/lastmile_qr_scan"}, "type": "electric_scooter"}, {"is_reserved": 0, "is_disabled": 0, "fusion_lon": 0.0, "lat": 38.875503333333334, "name": "aa0571b81f687d970dde81db17dce5de", "bike_id": "aa0571b81f687d970dde81db17dce5de", "lon": -77.00582716666666, "fusion_lat": 0.0, "rental_uris": {"android": "https://dc.lft.to/lastmile_qr_scan", "ios": "https://dc.lft.to/lastmile_qr_scan"}, "type": "electric_scooter"}, {"is_reserved": 0, "is_disabled": 0, "fusion_lon": 0.0, "lat": 38.934807166666666, "name": "73e62088ea78b46f448bde999146162a", "bike_id": "73e62088ea78b46f448bde999146162a", "lon": -77.04468033333333, "fusion_lat": 0.0, "rental_uris": {"android": "https://dc.lft.to/lastmile_qr_scan", "ios": "https://dc.lft.to/lastmile_qr_scan"}, "type": "electric_scooter"}, {"is_reserved": 0, "is_disabled": 0, "fusion_lon": 0.0, "lat": 38.90752283333333, "name": "024c3e7f62dad1b1769b1f35f552421f", "bike_id": "024c3e7f62dad1b1769b1f35f552421f", "lon": -77.0452755, "fusion_lat": 0.0, "rental_uris": {"android": "https://dc.lft.to/lastmile_qr_scan", "ios": "https://dc.lft.to/lastmile_qr_scan"}, "type": "electric_scooter"}, {"is_reserved": 0, "is_disabled": 0, "fusion_lon": 0.0, "lat": 38.92195266666667, "name": "87fc7e34e6ce1b2906cc9a3d562d88eb", "bike_id": "87fc7e34e6ce1b2906cc9a3d562d88eb", "lon": -76.9836975, "fusion_lat": 0.0, "rental_uris": {"android": "https://dc.lft.to/lastmile_qr_scan", "ios": "https://dc.lft.to/lastmile_qr_scan"}, "type": "electric_scooter"}, {"is_reserved": 0, "is_disabled": 0, "fusion_lon": 0.0, "lat": 38.8745385, "name": "7307861c56572c4c1ffe1aa434ab775e", "bike_id": "7307861c56572c4c1ffe1aa434ab775e", "lon": -77.00303, "fusion_lat": 0.0, "rental_uris": {"android": "https://dc.lft.to/lastmile_qr_scan", "ios": "https://dc.lft.to/lastmile_qr_scan"}, "type": "electric_scooter"}, {"is_reserved": 0, "is_disabled": 0, "fusion_lon": 0.0, "lat": 38.93098883333333, "name": "a710a6d15aef238f776ca0b1f09b227d", "bike_id": "a710a6d15aef238f776ca0b1f09b227d", "lon": -77.02482033333334, "fusion_lat": 0.0, "rental_uris": {"android": "https://dc.lft.to/lastmile_qr_scan", "ios": "https://dc.lft.to/lastmile_qr_scan"}, "type": "electric_scooter"}, {"is_reserved": 0, "is_disabled": 0, "fusion_lon": 0.0, "lat": 38.924686333333334, "name": "5c2dfd08b21ab998493c75d2793853e9", "bike_id": "5c2dfd08b21ab998493c75d2793853e9", "lon": -77.05759083333334, "fusion_lat": 0.0, "rental_uris": {"android": "https://dc.lft.to/lastmile_qr_scan", "ios": "https://dc.lft.to/lastmile_qr_scan"}, "type": "electric_scooter"}, {"is_reserved": 0, "is_disabled": 0, "fusion_lon": 0.0, "lat": 38.924473, "name": "2f2e56ace0cb673ef267ac86fdee6a9d", "bike_id": "2f2e56ace0cb673ef267ac86fdee6a9d", "lon": -77.03969766666667, "fusion_lat": 0.0, "rental_uris": {"android": "https://dc.lft.to/lastmile_qr_scan", "ios": "https://dc.lft.to/lastmile_qr_scan"}, "type": "electric_scooter"}, {"is_reserved": 0, "is_disabled": 0, "fusion_lon": 0.0, "lat": 38.949662000000004, "name": "ba96440e22a31fd77e15b5399c3b5e85", "bike_id": "ba96440e22a31fd77e15b5399c3b5e85", "lon": -76.96097516666667, "fusion_lat": 0.0, "rental_uris": {"android": "https://dc.lft.to/lastmile_qr_scan", "ios": "https://dc.lft.to/lastmile_qr_scan"}, "type": "electric_bike"}, {"is_reserved": 0, "is_disabled": 0, "fusion_lon": 0.0, "lat": 38.890511833333335, "name": "16eeb768101c4fc35b0d1f0e6dc319d3", "bike_id": "16eeb768101c4fc35b0d1f0e6dc319d3", "lon": -77.0449575, "fusion_lat": 0.0, "rental_uris": {"android": "https://dc.lft.to/lastmile_qr_scan", "ios": "https://dc.lft.to/lastmile_qr_scan"}, "type": "electric_scooter"}, {"is_reserved": 0, "is_disabled": 0, "fusion_lon": 0.0, "lat": 38.895106166666665, "name": "85695bb9e14957c1c9834d5e5ab8c9e8", "bike_id": "85695bb9e14957c1c9834d5e5ab8c9e8", "lon": -76.948895, "fusion_lat": 0.0, "rental_uris": {"android": "https://dc.lft.to/lastmile_qr_scan", "ios": "https://dc.lft.to/lastmile_qr_scan"}, "type": "electric_scooter"}, {"is_reserved": 0, "is_disabled": 0, "fusion_lon": 0.0, "lat": 38.95735916666667, "name": "6e43a502f20e5677af096cd3ee46ee74", "bike_id": "6e43a502f20e5677af096cd3ee46ee74", "lon": -77.0241705, "fusion_lat": 0.0, "rental_uris": {"android": "https://dc.lft.to/lastmile_qr_scan", "ios": "https://dc.lft.to/lastmile_qr_scan"}, "type": "electric_scooter"}, {"is_reserved": 0, "is_disabled": 0, "fusion_lon": 0.0, "lat": 38.9245125, "name": "34faefd468fdf9c0e85a92c223d6cda0", "bike_id": "34faefd468fdf9c0e85a92c223d6cda0", "lon": -77.040187, "fusion_lat": 0.0, "rental_uris": {"android": "https://dc.lft.to/lastmile_qr_scan", "ios": "https://dc.lft.to/lastmile_qr_scan"}, "type": "electric_scooter"}, {"is_reserved": 0, "is_disabled": 0, "fusion_lon": 0.0, "lat": 38.912222666666665, "name": "856ab47ed7b4be94208186b43adebe87", "bike_id": "856ab47ed7b4be94208186b43adebe87", "lon": -77.031808, "fusion_lat": 0.0, "rental_uris": {"android": "https://dc.lft.to/lastmile_qr_scan", "ios": "https://dc.lft.to/lastmile_qr_scan"}, "type": "electric_scooter"}, {"is_reserved": 0, "is_disabled": 0, "fusion_lon": 0.0, "lat": 38.93017966666667, "name": "50f8e8acee52781fd88b875eb9dd5f90", "bike_id": "50f8e8acee52781fd88b875eb9dd5f90", "lon": -77.06190383333333, "fusion_lat": 0.0, "rental_uris": {"android": "https://dc.lft.to/lastmile_qr_scan", "ios": "https://dc.lft.to/lastmile_qr_scan"}, "type": "electric_scooter"}, {"is_reserved": 0, "is_disabled": 0, "fusion_lon": 0.0, "lat": 38.9115145, "name": "3da1912cbf309e8079b0bbaca6525d2a", "bike_id": "3da1912cbf309e8079b0bbaca6525d2a", "lon": -77.021923, "fusion_lat": 0.0, "rental_uris": {"android": "https://dc.lft.to/lastmile_qr_scan", "ios": "https://dc.lft.to/lastmile_qr_scan"}, "type": "electric_scooter"}, {"is_reserved": 0, "is_disabled": 0, "fusion_lon": 0.0, "lat": 38.926473333333334, "name": "736fed902075182f33db7cf662a03bfc", "bike_id": "736fed902075182f33db7cf662a03bfc", "lon": -77.03852083333334, "fusion_lat": 0.0, "rental_uris": {"android": "https://dc.lft.to/lastmile_qr_scan", "ios": "https://dc.lft.to/lastmile_qr_scan"}, "type": "electric_scooter"}, {"is_reserved": 0, "is_disabled": 0, "fusion_lon": 0.0, "lat": 38.924339, "name": "8a6fd8056d20b4ec22c2f32e81de396a", "bike_id": "8a6fd8056d20b4ec22c2f32e81de396a", "lon": -77.00320416666666, "fusion_lat": 0.0, "rental_uris": {"android": "https://dc.lft.to/lastmile_qr_scan", "ios": "https://dc.lft.to/lastmile_qr_scan"}, "type": "electric_scooter"}, {"is_reserved": 0, "is_disabled": 0, "fusion_lon": 0.0, "lat": 38.897519333333335, "name": "1028d6847e31e0af97545443f3b7b9d2", "bike_id": "1028d6847e31e0af97545443f3b7b9d2", "lon": -77.0190305, "fusion_lat": 0.0, "rental_uris": {"android": "https://dc.lft.to/lastmile_qr_scan", "ios": "https://dc.lft.to/lastmile_qr_scan"}, "type": "electric_scooter"}, {"is_reserved": 0, "is_disabled": 0, "fusion_lon": 0.0, "lat": 38.897001833333334, "name": "b49fada8638a090c2380e2f16aafca3b", "bike_id": "b49fada8638a090c2380e2f16aafca3b", "lon": -76.93920516666667, "fusion_lat": 0.0, "rental_uris": {"android": "https://dc.lft.to/lastmile_qr_scan", "ios": "https://dc.lft.to/lastmile_qr_scan"}, "type": "electric_scooter"}, {"is_reserved": 0, "is_disabled": 0, "fusion_lon": 0.0, "lat": 38.902643, "name": "3a96ac80853f5466cbaf0d8f5ffe175d", "bike_id": "3a96ac80853f5466cbaf0d8f5ffe175d", "lon": -76.99849766666667, "fusion_lat": 0.0, "rental_uris": {"android": "https://dc.lft.to/lastmile_qr_scan", "ios": "https://dc.lft.to/lastmile_qr_scan"}, "type": "electric_scooter"}, {"is_reserved": 0, "is_disabled": 0, "fusion_lon": 0.0, "lat": 38.87659216666667, "name": "566b99bfd9cc5f6bf15a947bdd02cdac", "bike_id": "566b99bfd9cc5f6bf15a947bdd02cdac", "lon": -77.01171116666667, "fusion_lat": 0.0, "rental_uris": {"android": "https://dc.lft.to/lastmile_qr_scan", "ios": "https://dc.lft.to/lastmile_qr_scan"}, "type": "electric_scooter"}, {"is_reserved": 0, "is_disabled": 0, "fusion_lon": 0.0, "lat": 38.89352433333333, "name": "113c6a3d50abf03dee9c1b2a69d23bb5", "bike_id": "113c6a3d50abf03dee9c1b2a69d23bb5", "lon": -77.0463275, "fusion_lat": 0.0, "rental_uris": {"android": "https://dc.lft.to/lastmile_qr_scan", "ios": "https://dc.lft.to/lastmile_qr_scan"}, "type": "electric_scooter"}, {"is_reserved": 0, "is_disabled": 0, "fusion_lon": 0.0, "lat": 38.90717716666666, "name": "65f2048e1f17b6b3df712720d51b0225", "bike_id": "65f2048e1f17b6b3df712720d51b0225", "lon": -77.025672, "fusion_lat": 0.0, "rental_uris": {"android": "https://dc.lft.to/lastmile_qr_scan", "ios": "https://dc.lft.to/lastmile_qr_scan"}, "type": "electric_scooter"}, {"is_reserved": 0, "is_disabled": 0, "fusion_lon": 0.0, "lat": 38.931908, "name": "11466203d594735e55010d18454a99df", "bike_id": "11466203d594735e55010d18454a99df", "lon": -77.02020466666667, "fusion_lat": 0.0, "rental_uris": {"android": "https://dc.lft.to/lastmile_qr_scan", "ios": "https://dc.lft.to/lastmile_qr_scan"}, "type": "electric_scooter"}, {"is_reserved": 0, "is_disabled": 0, "fusion_lon": 0.0, "lat": 38.920516, "name": "859398c63e9afa1a0cd04abb1307c523", "bike_id": "859398c63e9afa1a0cd04abb1307c523", "lon": -77.02438283333333, "fusion_lat": 0.0, "rental_uris": {"android": "https://dc.lft.to/lastmile_qr_scan", "ios": "https://dc.lft.to/lastmile_qr_scan"}, "type": "electric_scooter"}, {"is_reserved": 0, "is_disabled": 0, "fusion_lon": 0.0, "lat": 38.90967416666667, "name": "9fb0f73a43637ed58de77a26a78f73f4", "bike_id": "9fb0f73a43637ed58de77a26a78f73f4", "lon": -77.01439766666667, "fusion_lat": 0.0, "rental_uris": {"android": "https://dc.lft.to/lastmile_qr_scan", "ios": "https://dc.lft.to/lastmile_qr_scan"}, "type": "electric_scooter"}, {"is_reserved": 0, "is_disabled": 0, "fusion_lon": 0.0, "lat": 38.920869833333334, "name": "7ecf2510bf53382ee2b65292fbc9b01c", "bike_id": "7ecf2510bf53382ee2b65292fbc9b01c", "lon": -77.031584, "fusion_lat": 0.0, "rental_uris": {"android": "https://dc.lft.to/lastmile_qr_scan", "ios": "https://dc.lft.to/lastmile_qr_scan"}, "type": "electric_scooter"}, {"is_reserved": 0, "is_disabled": 0, "fusion_lon": 0.0, "lat": 38.93658833333333, "name": "8ab565e322beb303ea6eda82e0251d86", "bike_id": "8ab565e322beb303ea6eda82e0251d86", "lon": -77.06613, "fusion_lat": 0.0, "rental_uris": {"android": "https://dc.lft.to/lastmile_qr_scan", "ios": "https://dc.lft.to/lastmile_qr_scan"}, "type": "electric_scooter"}, {"is_reserved": 0, "is_disabled": 0, "fusion_lon": 0.0, "lat": 38.912344833333336, "name": "a227cb1bba0df962939f05fd31630ca8", "bike_id": "a227cb1bba0df962939f05fd31630ca8", "lon": -76.9868275, "fusion_lat": 0.0, "rental_uris": {"android": "https://dc.lft.to/lastmile_qr_scan", "ios": "https://dc.lft.to/lastmile_qr_scan"}, "type": "electric_scooter"}, {"is_reserved": 0, "is_disabled": 0, "fusion_lon": 0.0, "lat": 38.8776185, "name": "0bff07c3e26b1421ecf26a4afc736668", "bike_id": "0bff07c3e26b1421ecf26a4afc736668", "lon": -77.00598666666667, "fusion_lat": 0.0, "rental_uris": {"android": "https://dc.lft.to/lastmile_qr_scan", "ios": "https://dc.lft.to/lastmile_qr_scan"}, "type": "electric_scooter"}, {"is_reserved": 0, "is_disabled": 0, "fusion_lon": 0.0, "lat": 38.9118825, "name": "cb0aa9d70c9fae4a68b30f913738ddee", "bike_id": "cb0aa9d70c9fae4a68b30f913738ddee", "lon": -77.01983666666666, "fusion_lat": 0.0, "rental_uris": {"android": "https://dc.lft.to/lastmile_qr_scan", "ios": "https://dc.lft.to/lastmile_qr_scan"}, "type": "electric_scooter"}, {"is_reserved": 0, "is_disabled": 0, "fusion_lon": 0.0, "lat": 38.91685733333333, "name": "2154df10bc977ff5701310721bcf4dc1", "bike_id": "2154df10bc977ff5701310721bcf4dc1", "lon": -77.0295305, "fusion_lat": 0.0, "rental_uris": {"android": "https://dc.lft.to/lastmile_qr_scan", "ios": "https://dc.lft.to/lastmile_qr_scan"}, "type": "electric_scooter"}, {"is_reserved": 0, "is_disabled": 0, "fusion_lon": 0.0, "lat": 38.90866833333333, "name": "614adafc1b2c62523ea83e28e9dbda4f", "bike_id": "614adafc1b2c62523ea83e28e9dbda4f", "lon": -77.0374855, "fusion_lat": 0.0, "rental_uris": {"android": "https://dc.lft.to/lastmile_qr_scan", "ios": "https://dc.lft.to/lastmile_qr_scan"}, "type": "electric_scooter"}, {"is_reserved": 0, "is_disabled": 0, "fusion_lon": 0.0, "lat": 38.88638616666667, "name": "9727ad5295819770103845d96bd0bf98", "bike_id": "9727ad5295819770103845d96bd0bf98", "lon": -77.00211966666667, "fusion_lat": 0.0, "rental_uris": {"android": "https://dc.lft.to/lastmile_qr_scan", "ios": "https://dc.lft.to/lastmile_qr_scan"}, "type": "electric_scooter"}, {"is_reserved": 0, "is_disabled": 0, "fusion_lon": 0.0, "lat": 38.897968, "name": "c4c056d334bb1d1c81e70dc89d08e70d", "bike_id": "c4c056d334bb1d1c81e70dc89d08e70d", "lon": -76.99258916666666, "fusion_lat": 0.0, "rental_uris": {"android": "https://dc.lft.to/lastmile_qr_scan", "ios": "https://dc.lft.to/lastmile_qr_scan"}, "type": "electric_scooter"}, {"is_reserved": 0, "is_disabled": 0, "fusion_lon": 0.0, "lat": 38.92703, "name": "2ba6ac6505f8a6b13eb1cb5367806839", "bike_id": "2ba6ac6505f8a6b13eb1cb5367806839", "lon": -77.02066783333333, "fusion_lat": 0.0, "rental_uris": {"android": "https://dc.lft.to/lastmile_qr_scan", "ios": "https://dc.lft.to/lastmile_qr_scan"}, "type": "electric_scooter"}, {"is_reserved": 0, "is_disabled": 0, "fusion_lon": 0.0, "lat": 38.9612935, "name": "b76cd8669087d081e58a530fe57efec9", "bike_id": "b76cd8669087d081e58a530fe57efec9", "lon": -77.03278116666667, "fusion_lat": 0.0, "rental_uris": {"android": "https://dc.lft.to/lastmile_qr_scan", "ios": "https://dc.lft.to/lastmile_qr_scan"}, "type": "electric_bike"}, {"is_reserved": 0, "is_disabled": 0, "fusion_lon": 0.0, "lat": 38.923574, "name": "ee98a4c6ec217954b3abd18f3bf69ef2", "bike_id": "ee98a4c6ec217954b3abd18f3bf69ef2", "lon": -77.05365633333334, "fusion_lat": 0.0, "rental_uris": {"android": "https://dc.lft.to/lastmile_qr_scan", "ios": "https://dc.lft.to/lastmile_qr_scan"}, "type": "electric_scooter"}, {"is_reserved": 0, "is_disabled": 0, "fusion_lon": 0.0, "lat": 38.917073333333335, "name": "a212061016e663165481388d15179a11", "bike_id": "a212061016e663165481388d15179a11", "lon": -77.038573, "fusion_lat": 0.0, "rental_uris": {"android": "https://dc.lft.to/lastmile_qr_scan", "ios": "https://dc.lft.to/lastmile_qr_scan"}, "type": "electric_scooter"}, {"is_reserved": 0, "is_disabled": 0, "fusion_lon": 0.0, "lat": 38.912520666666666, "name": "236c6be4bbbd0153a247440ee094be1b", "bike_id": "236c6be4bbbd0153a247440ee094be1b", "lon": -77.03863283333334, "fusion_lat": 0.0, "rental_uris": {"android": "https://dc.lft.to/lastmile_qr_scan", "ios": "https://dc.lft.to/lastmile_qr_scan"}, "type": "electric_scooter"}, {"is_reserved": 0, "is_disabled": 0, "fusion_lon": 0.0, "lat": 38.90034383333333, "name": "759bff85b12f58355d24721a6135dd43", "bike_id": "759bff85b12f58355d24721a6135dd43", "lon": -76.9883535, "fusion_lat": 0.0, "rental_uris": {"android": "https://dc.lft.to/lastmile_qr_scan", "ios": "https://dc.lft.to/lastmile_qr_scan"}, "type": "electric_scooter"}, {"is_reserved": 0, "is_disabled": 0, "fusion_lon": 0.0, "lat": 38.91915866666667, "name": "5349771febe201b38da23ebb0fbdfef5", "bike_id": "5349771febe201b38da23ebb0fbdfef5", "lon": -77.026873, "fusion_lat": 0.0, "rental_uris": {"android": "https://dc.lft.to/lastmile_qr_scan", "ios": "https://dc.lft.to/lastmile_qr_scan"}, "type": "electric_scooter"}, {"is_reserved": 0, "is_disabled": 0, "fusion_lon": 0.0, "lat": 38.8024475, "name": "7a04a45d5f88aa1975eb56de40fe5bfa", "bike_id": "7a04a45d5f88aa1975eb56de40fe5bfa", "lon": -77.11457466666667, "fusion_lat": 0.0, "rental_uris": {"android": "https://dc.lft.to/lastmile_qr_scan", "ios": "https://dc.lft.to/lastmile_qr_scan"}, "type": "electric_bike"}, {"is_reserved": 0, "is_disabled": 0, "fusion_lon": 0.0, "lat": 38.900212833333335, "name": "63bd07b6dc0176a5e4c8a8b0b16feab4", "bike_id": "63bd07b6dc0176a5e4c8a8b0b16feab4", "lon": -76.9984695, "fusion_lat": 0.0, "rental_uris": {"android": "https://dc.lft.to/lastmile_qr_scan", "ios": "https://dc.lft.to/lastmile_qr_scan"}, "type": "electric_scooter"}, {"is_reserved": 0, "is_disabled": 0, "fusion_lon": 0.0, "lat": 38.916683166666665, "name": "b56678b34f29946cddb6a892499c2f03", "bike_id": "b56678b34f29946cddb6a892499c2f03", "lon": -77.04622316666666, "fusion_lat": 0.0, "rental_uris": {"android": "https://dc.lft.to/lastmile_qr_scan", "ios": "https://dc.lft.to/lastmile_qr_scan"}, "type": "electric_scooter"}, {"is_reserved": 0, "is_disabled": 0, "fusion_lon": 0.0, "lat": 39.0746755, "name": "69c027dd7e51b8460ea6dfe7c97cee14", "bike_id": "69c027dd7e51b8460ea6dfe7c97cee14", "lon": -77.115253, "fusion_lat": 0.0, "rental_uris": {"android": "https://dc.lft.to/lastmile_qr_scan", "ios": "https://dc.lft.to/lastmile_qr_scan"}, "type": "electric_bike"}, {"is_reserved": 0, "is_disabled": 0, "fusion_lon": 0.0, "lat": 38.91908316666667, "name": "c8ed86c88967376bfbb1567b01efda53", "bike_id": "c8ed86c88967376bfbb1567b01efda53", "lon": -77.03118733333334, "fusion_lat": 0.0, "rental_uris": {"android": "https://dc.lft.to/lastmile_qr_scan", "ios": "https://dc.lft.to/lastmile_qr_scan"}, "type": "electric_scooter"}, {"is_reserved": 0, "is_disabled": 0, "fusion_lon": 0.0, "lat": 38.913155333333336, "name": "9c645dac1fe9602a9f8ac12ec5420e84", "bike_id": "9c645dac1fe9602a9f8ac12ec5420e84", "lon": -77.046589, "fusion_lat": 0.0, "rental_uris": {"android": "https://dc.lft.to/lastmile_qr_scan", "ios": "https://dc.lft.to/lastmile_qr_scan"}, "type": "electric_scooter"}, {"is_reserved": 0, "is_disabled": 0, "fusion_lon": 0.0, "lat": 38.912291, "name": "c899b896b19aae47e07a181ff6734143", "bike_id": "c899b896b19aae47e07a181ff6734143", "lon": -77.07750883333334, "fusion_lat": 0.0, "rental_uris": {"android": "https://dc.lft.to/lastmile_qr_scan", "ios": "https://dc.lft.to/lastmile_qr_scan"}, "type": "electric_scooter"}, {"is_reserved": 0, "is_disabled": 0, "fusion_lon": 0.0, "lat": 38.914152, "name": "ffaf4d5546941747092dc68c40057b75", "bike_id": "ffaf4d5546941747092dc68c40057b75", "lon": -77.031645, "fusion_lat": 0.0, "rental_uris": {"android": "https://dc.lft.to/lastmile_qr_scan", "ios": "https://dc.lft.to/lastmile_qr_scan"}, "type": "electric_scooter"}, {"is_reserved": 0, "is_disabled": 0, "fusion_lon": 0.0, "lat": 38.913524, "name": "84ff644989b6b1c1aa96e815cd846cb0", "bike_id": "84ff644989b6b1c1aa96e815cd846cb0", "lon": -77.03182316666667, "fusion_lat": 0.0, "rental_uris": {"android": "https://dc.lft.to/lastmile_qr_scan", "ios": "https://dc.lft.to/lastmile_qr_scan"}, "type": "electric_scooter"}, {"is_reserved": 0, "is_disabled": 0, "fusion_lon": 0.0, "lat": 38.900445500000004, "name": "28eb3811bb3f09aa012e0db73dd75772", "bike_id": "28eb3811bb3f09aa012e0db73dd75772", "lon": -76.998399, "fusion_lat": 0.0, "rental_uris": {"android": "https://dc.lft.to/lastmile_qr_scan", "ios": "https://dc.lft.to/lastmile_qr_scan"}, "type": "electric_scooter"}, {"is_reserved": 0, "is_disabled": 0, "fusion_lon": 0.0, "lat": 38.8771115, "name": "fcdc85876d629908a53877e3175d377d", "bike_id": "fcdc85876d629908a53877e3175d377d", "lon": -77.01649916666666, "fusion_lat": 0.0, "rental_uris": {"android": "https://dc.lft.to/lastmile_qr_scan", "ios": "https://dc.lft.to/lastmile_qr_scan"}, "type": "electric_scooter"}, {"is_reserved": 0, "is_disabled": 0, "fusion_lon": 0.0, "lat": 38.922403, "name": "84727b7db16ab849262896c2da860ace", "bike_id": "84727b7db16ab849262896c2da860ace", "lon": -77.0284835, "fusion_lat": 0.0, "rental_uris": {"android": "https://dc.lft.to/lastmile_qr_scan", "ios": "https://dc.lft.to/lastmile_qr_scan"}, "type": "electric_scooter"}, {"is_reserved": 0, "is_disabled": 0, "fusion_lon": 0.0, "lat": 38.919216666666664, "name": "1e05f9420b47c0c4d15abbeba849cd56", "bike_id": "1e05f9420b47c0c4d15abbeba849cd56", "lon": -77.078888, "fusion_lat": 0.0, "rental_uris": {"android": "https://dc.lft.to/lastmile_qr_scan", "ios": "https://dc.lft.to/lastmile_qr_scan"}, "type": "electric_scooter"}, {"is_reserved": 0, "is_disabled": 0, "fusion_lon": 0.0, "lat": 38.8972065, "name": "1425fa724f5afbf2892fead0bead52b9", "bike_id": "1425fa724f5afbf2892fead0bead52b9", "lon": -77.03128316666667, "fusion_lat": 0.0, "rental_uris": {"android": "https://dc.lft.to/lastmile_qr_scan", "ios": "https://dc.lft.to/lastmile_qr_scan"}, "type": "electric_scooter"}, {"is_reserved": 0, "is_disabled": 0, "fusion_lon": 0.0, "lat": 38.9296825, "name": "2ae933c6b3aec5020999294affebfe6a", "bike_id": "2ae933c6b3aec5020999294affebfe6a", "lon": -77.0419865, "fusion_lat": 0.0, "rental_uris": {"android": "https://dc.lft.to/lastmile_qr_scan", "ios": "https://dc.lft.to/lastmile_qr_scan"}, "type": "electric_scooter"}, {"is_reserved": 0, "is_disabled": 0, "fusion_lon": 0.0, "lat": 38.92131666666667, "name": "0ef8bbb2248e9fa09813023e85f2014f", "bike_id": "0ef8bbb2248e9fa09813023e85f2014f", "lon": -77.01806833333333, "fusion_lat": 0.0, "rental_uris": {"android": "https://dc.lft.to/lastmile_qr_scan", "ios": "https://dc.lft.to/lastmile_qr_scan"}, "type": "electric_scooter"}, {"is_reserved": 0, "is_disabled": 0, "fusion_lon": 0.0, "lat": 38.922269666666665, "name": "58f7b0b75a89d62455a085ed2adb5f63", "bike_id": "58f7b0b75a89d62455a085ed2adb5f63", "lon": -77.04329816666667, "fusion_lat": 0.0, "rental_uris": {"android": "https://dc.lft.to/lastmile_qr_scan", "ios": "https://dc.lft.to/lastmile_qr_scan"}, "type": "electric_scooter"}, {"is_reserved": 0, "is_disabled": 0, "fusion_lon": 0.0, "lat": 38.9229805, "name": "4af0b4735e8b0a13729aa972c018068d", "bike_id": "4af0b4735e8b0a13729aa972c018068d", "lon": -77.01950683333334, "fusion_lat": 0.0, "rental_uris": {"android": "https://dc.lft.to/lastmile_qr_scan", "ios": "https://dc.lft.to/lastmile_qr_scan"}, "type": "electric_scooter"}, {"is_reserved": 0, "is_disabled": 0, "fusion_lon": 0.0, "lat": 38.93672016666667, "name": "5b25a4844b5796a3cb240f0ef6b20fc4", "bike_id": "5b25a4844b5796a3cb240f0ef6b20fc4", "lon": -77.03595516666667, "fusion_lat": 0.0, "rental_uris": {"android": "https://dc.lft.to/lastmile_qr_scan", "ios": "https://dc.lft.to/lastmile_qr_scan"}, "type": "electric_scooter"}, {"is_reserved": 0, "is_disabled": 0, "fusion_lon": 0.0, "lat": 38.908465666666665, "name": "1085c4130acd2fbe1133830ff9fcd1df", "bike_id": "1085c4130acd2fbe1133830ff9fcd1df", "lon": -77.04940166666667, "fusion_lat": 0.0, "rental_uris": {"android": "https://dc.lft.to/lastmile_qr_scan", "ios": "https://dc.lft.to/lastmile_qr_scan"}, "type": "electric_scooter"}, {"is_reserved": 0, "is_disabled": 0, "fusion_lon": 0.0, "lat": 38.89609433333333, "name": "bb927306a478fbfc831e8340ebab15e2", "bike_id": "bb927306a478fbfc831e8340ebab15e2", "lon": -77.04516433333333, "fusion_lat": 0.0, "rental_uris": {"android": "https://dc.lft.to/lastmile_qr_scan", "ios": "https://dc.lft.to/lastmile_qr_scan"}, "type": "electric_scooter"}, {"is_reserved": 0, "is_disabled": 0, "fusion_lon": 0.0, "lat": 38.92077616666667, "name": "25927bf4899d1a4f6f77aaaff7193ac5", "bike_id": "25927bf4899d1a4f6f77aaaff7193ac5", "lon": -77.025134, "fusion_lat": 0.0, "rental_uris": {"android": "https://dc.lft.to/lastmile_qr_scan", "ios": "https://dc.lft.to/lastmile_qr_scan"}, "type": "electric_scooter"}, {"is_reserved": 0, "is_disabled": 0, "fusion_lon": 0.0, "lat": 38.922453, "name": "c40df3d9dfbc26894c1f60884b58e3db", "bike_id": "c40df3d9dfbc26894c1f60884b58e3db", "lon": -77.021554, "fusion_lat": 0.0, "rental_uris": {"android": "https://dc.lft.to/lastmile_qr_scan", "ios": "https://dc.lft.to/lastmile_qr_scan"}, "type": "electric_scooter"}, {"is_reserved": 0, "is_disabled": 0, "fusion_lon": 0.0, "lat": 38.930599666666666, "name": "410db4370265c8ba7114287e84bc2c24", "bike_id": "410db4370265c8ba7114287e84bc2c24", "lon": -77.0394165, "fusion_lat": 0.0, "rental_uris": {"android": "https://dc.lft.to/lastmile_qr_scan", "ios": "https://dc.lft.to/lastmile_qr_scan"}, "type": "electric_scooter"}, {"is_reserved": 0, "is_disabled": 0, "fusion_lon": 0.0, "lat": 38.869467666666665, "name": "911853edd5bd7334e7341f98e2d86713", "bike_id": "911853edd5bd7334e7341f98e2d86713", "lon": -77.13306633333333, "fusion_lat": 0.0, "rental_uris": {"android": "https://dc.lft.to/lastmile_qr_scan", "ios": "https://dc.lft.to/lastmile_qr_scan"}, "type": "electric_bike"}, {"is_reserved": 0, "is_disabled": 0, "fusion_lon": 0.0, "lat": 38.90578416666666, "name": "65e3152b425c532558db0c64bc1bc8aa", "bike_id": "65e3152b425c532558db0c64bc1bc8aa", "lon": -77.0329295, "fusion_lat": 0.0, "rental_uris": {"android": "https://dc.lft.to/lastmile_qr_scan", "ios": "https://dc.lft.to/lastmile_qr_scan"}, "type": "electric_scooter"}, {"is_reserved": 0, "is_disabled": 0, "fusion_lon": 0.0, "lat": 38.901767166666666, "name": "2c2ff2f1c7deaf528b932d7f1ae87b98", "bike_id": "2c2ff2f1c7deaf528b932d7f1ae87b98", "lon": -77.022027, "fusion_lat": 0.0, "rental_uris": {"android": "https://dc.lft.to/lastmile_qr_scan", "ios": "https://dc.lft.to/lastmile_qr_scan"}, "type": "electric_scooter"}, {"is_reserved": 0, "is_disabled": 0, "fusion_lon": 0.0, "lat": 38.953075166666665, "name": "fbd1edaa939b41eecfb78a75514942ed", "bike_id": "fbd1edaa939b41eecfb78a75514942ed", "lon": -76.98178583333333, "fusion_lat": 0.0, "rental_uris": {"android": "https://dc.lft.to/lastmile_qr_scan", "ios": "https://dc.lft.to/lastmile_qr_scan"}, "type": "electric_bike"}, {"is_reserved": 0, "is_disabled": 0, "fusion_lon": 0.0, "lat": 38.92676983333333, "name": "3a72d656594232fd688d182cee534fe8", "bike_id": "3a72d656594232fd688d182cee534fe8", "lon": -77.0323005, "fusion_lat": 0.0, "rental_uris": {"android": "https://dc.lft.to/lastmile_qr_scan", "ios": "https://dc.lft.to/lastmile_qr_scan"}, "type": "electric_scooter"}, {"is_reserved": 0, "is_disabled": 0, "fusion_lon": 0.0, "lat": 38.908721666666665, "name": "d763bb11c39f6d79ad1234dfea12da3a", "bike_id": "d763bb11c39f6d79ad1234dfea12da3a", "lon": -77.0259595, "fusion_lat": 0.0, "rental_uris": {"android": "https://dc.lft.to/lastmile_qr_scan", "ios": "https://dc.lft.to/lastmile_qr_scan"}, "type": "electric_scooter"}, {"is_reserved": 0, "is_disabled": 0, "fusion_lon": 0.0, "lat": 38.9128615, "name": "bdff9e62b529901b589c826063bcf61a", "bike_id": "bdff9e62b529901b589c826063bcf61a", "lon": -76.98538366666666, "fusion_lat": 0.0, "rental_uris": {"android": "https://dc.lft.to/lastmile_qr_scan", "ios": "https://dc.lft.to/lastmile_qr_scan"}, "type": "electric_scooter"}, {"is_reserved": 0, "is_disabled": 0, "fusion_lon": 0.0, "lat": 38.87885416666667, "name": "0c6167ade5671d37e5ee47a19c095998", "bike_id": "0c6167ade5671d37e5ee47a19c095998", "lon": -77.0005045, "fusion_lat": 0.0, "rental_uris": {"android": "https://dc.lft.to/lastmile_qr_scan", "ios": "https://dc.lft.to/lastmile_qr_scan"}, "type": "electric_scooter"}, {"is_reserved": 0, "is_disabled": 0, "fusion_lon": 0.0, "lat": 38.91482166666667, "name": "981ec0cddca17994da2c835370e7d8db", "bike_id": "981ec0cddca17994da2c835370e7d8db", "lon": -77.0219865, "fusion_lat": 0.0, "rental_uris": {"android": "https://dc.lft.to/lastmile_qr_scan", "ios": "https://dc.lft.to/lastmile_qr_scan"}, "type": "electric_scooter"}, {"is_reserved": 0, "is_disabled": 0, "fusion_lon": 0.0, "lat": 38.9048, "name": "9a914217ccb52bf4806e0ff6c2a0c3b7", "bike_id": "9a914217ccb52bf4806e0ff6c2a0c3b7", "lon": -77.00128966666666, "fusion_lat": 0.0, "rental_uris": {"android": "https://dc.lft.to/lastmile_qr_scan", "ios": "https://dc.lft.to/lastmile_qr_scan"}, "type": "electric_scooter"}, {"is_reserved": 0, "is_disabled": 0, "fusion_lon": 0.0, "lat": 38.90236, "name": "418a6dc0d180cbb3f96d3ab137ef3682", "bike_id": "418a6dc0d180cbb3f96d3ab137ef3682", "lon": -77.00202083333333, "fusion_lat": 0.0, "rental_uris": {"android": "https://dc.lft.to/lastmile_qr_scan", "ios": "https://dc.lft.to/lastmile_qr_scan"}, "type": "electric_scooter"}, {"is_reserved": 0, "is_disabled": 0, "fusion_lon": 0.0, "lat": 38.9255215, "name": "b88f552fe04240abf9ac369fc6d574a7", "bike_id": "b88f552fe04240abf9ac369fc6d574a7", "lon": -77.02148, "fusion_lat": 0.0, "rental_uris": {"android": "https://dc.lft.to/lastmile_qr_scan", "ios": "https://dc.lft.to/lastmile_qr_scan"}, "type": "electric_scooter"}, {"is_reserved": 0, "is_disabled": 0, "fusion_lon": 0.0, "lat": 38.944130666666666, "name": "f412bce4c75c38aff43e56816fec5705", "bike_id": "f412bce4c75c38aff43e56816fec5705", "lon": -77.06326033333333, "fusion_lat": 0.0, "rental_uris": {"android": "https://dc.lft.to/lastmile_qr_scan", "ios": "https://dc.lft.to/lastmile_qr_scan"}, "type": "electric_scooter"}, {"is_reserved": 0, "is_disabled": 0, "fusion_lon": 0.0, "lat": 38.8961065, "name": "59ab74bfd9f591f03c94d66a8ea264c5", "bike_id": "59ab74bfd9f591f03c94d66a8ea264c5", "lon": -77.04650733333334, "fusion_lat": 0.0, "rental_uris": {"android": "https://dc.lft.to/lastmile_qr_scan", "ios": "https://dc.lft.to/lastmile_qr_scan"}, "type": "electric_scooter"}, {"is_reserved": 0, "is_disabled": 0, "fusion_lon": 0.0, "lat": 38.87646983333333, "name": "2800a093371832b52b3389f62d6bbf23", "bike_id": "2800a093371832b52b3389f62d6bbf23", "lon": -77.015776, "fusion_lat": 0.0, "rental_uris": {"android": "https://dc.lft.to/lastmile_qr_scan", "ios": "https://dc.lft.to/lastmile_qr_scan"}, "type": "electric_scooter"}, {"is_reserved": 0, "is_disabled": 0, "fusion_lon": 0.0, "lat": 38.92469366666667, "name": "48c015b974d69c9ccc9a883d6ff4c618", "bike_id": "48c015b974d69c9ccc9a883d6ff4c618", "lon": -77.02227483333333, "fusion_lat": 0.0, "rental_uris": {"android": "https://dc.lft.to/lastmile_qr_scan", "ios": "https://dc.lft.to/lastmile_qr_scan"}, "type": "electric_scooter"}, {"is_reserved": 0, "is_disabled": 0, "fusion_lon": 0.0, "lat": 38.9224315, "name": "cdb4d196a390ca66a2ead237174f8a0c", "bike_id": "cdb4d196a390ca66a2ead237174f8a0c", "lon": -77.03145033333334, "fusion_lat": 0.0, "rental_uris": {"android": "https://dc.lft.to/lastmile_qr_scan", "ios": "https://dc.lft.to/lastmile_qr_scan"}, "type": "electric_scooter"}, {"is_reserved": 0, "is_disabled": 0, "fusion_lon": 0.0, "lat": 38.9275765, "name": "4cd8b18258b0f5f05d4bf0a857bce264", "bike_id": "4cd8b18258b0f5f05d4bf0a857bce264", "lon": -77.03210066666666, "fusion_lat": 0.0, "rental_uris": {"android": "https://dc.lft.to/lastmile_qr_scan", "ios": "https://dc.lft.to/lastmile_qr_scan"}, "type": "electric_scooter"}, {"is_reserved": 0, "is_disabled": 0, "fusion_lon": 0.0, "lat": 38.936994166666665, "name": "c117008495d61e85a6f7704ec69f9b6c", "bike_id": "c117008495d61e85a6f7704ec69f9b6c", "lon": -77.05599716666667, "fusion_lat": 0.0, "rental_uris": {"android": "https://dc.lft.to/lastmile_qr_scan", "ios": "https://dc.lft.to/lastmile_qr_scan"}, "type": "electric_scooter"}, {"is_reserved": 0, "is_disabled": 0, "fusion_lon": 0.0, "lat": 38.93101266666667, "name": "e18cb081a4c9608327aeefad3c23aa17", "bike_id": "e18cb081a4c9608327aeefad3c23aa17", "lon": -77.02666516666666, "fusion_lat": 0.0, "rental_uris": {"android": "https://dc.lft.to/lastmile_qr_scan", "ios": "https://dc.lft.to/lastmile_qr_scan"}, "type": "electric_scooter"}, {"is_reserved": 0, "is_disabled": 0, "fusion_lon": 0.0, "lat": 38.92098466666667, "name": "79261360b279c4e2b35328b809198e12", "bike_id": "79261360b279c4e2b35328b809198e12", "lon": -77.0365345, "fusion_lat": 0.0, "rental_uris": {"android": "https://dc.lft.to/lastmile_qr_scan", "ios": "https://dc.lft.to/lastmile_qr_scan"}, "type": "electric_scooter"}, {"is_reserved": 0, "is_disabled": 0, "fusion_lon": 0.0, "lat": 38.887706333333334, "name": "93ae0cfea4bba1ad53c149d08efabaf1", "bike_id": "93ae0cfea4bba1ad53c149d08efabaf1", "lon": -76.93260483333333, "fusion_lat": 0.0, "rental_uris": {"android": "https://dc.lft.to/lastmile_qr_scan", "ios": "https://dc.lft.to/lastmile_qr_scan"}, "type": "electric_scooter"}, {"is_reserved": 0, "is_disabled": 0, "fusion_lon": 0.0, "lat": 38.892469, "name": "4196969b79f7353274ba6c8fcbdf4bf4", "bike_id": "4196969b79f7353274ba6c8fcbdf4bf4", "lon": -76.98541033333333, "fusion_lat": 0.0, "rental_uris": {"android": "https://dc.lft.to/lastmile_qr_scan", "ios": "https://dc.lft.to/lastmile_qr_scan"}, "type": "electric_bike"}, {"is_reserved": 0, "is_disabled": 0, "fusion_lon": 0.0, "lat": 38.93268333333333, "name": "19b9692ef1049b7169bd9f4cf1683e8b", "bike_id": "19b9692ef1049b7169bd9f4cf1683e8b", "lon": -77.02653433333333, "fusion_lat": 0.0, "rental_uris": {"android": "https://dc.lft.to/lastmile_qr_scan", "ios": "https://dc.lft.to/lastmile_qr_scan"}, "type": "electric_scooter"}, {"is_reserved": 0, "is_disabled": 0, "fusion_lon": 0.0, "lat": 38.92499383333333, "name": "06a44657f9d03f39baf7655e4704f62a", "bike_id": "06a44657f9d03f39baf7655e4704f62a", "lon": -77.02154966666667, "fusion_lat": 0.0, "rental_uris": {"android": "https://dc.lft.to/lastmile_qr_scan", "ios": "https://dc.lft.to/lastmile_qr_scan"}, "type": "electric_scooter"}, {"is_reserved": 0, "is_disabled": 0, "fusion_lon": 0.0, "lat": 38.935317833333336, "name": "3bb0fe46ec74fad8ba3ce263dd5f451f", "bike_id": "3bb0fe46ec74fad8ba3ce263dd5f451f", "lon": -77.0236655, "fusion_lat": 0.0, "rental_uris": {"android": "https://dc.lft.to/lastmile_qr_scan", "ios": "https://dc.lft.to/lastmile_qr_scan"}, "type": "electric_scooter"}, {"is_reserved": 0, "is_disabled": 0, "fusion_lon": 0.0, "lat": 38.8288705, "name": "79a54ff8cc6c8f4e6563f741fa150ede", "bike_id": "79a54ff8cc6c8f4e6563f741fa150ede", "lon": -77.0120835, "fusion_lat": 0.0, "rental_uris": {"android": "https://dc.lft.to/lastmile_qr_scan", "ios": "https://dc.lft.to/lastmile_qr_scan"}, "type": "electric_bike"}, {"is_reserved": 0, "is_disabled": 0, "fusion_lon": 0.0, "lat": 38.906191, "name": "db05286093d2e98b2ba2bbd2219d261c", "bike_id": "db05286093d2e98b2ba2bbd2219d261c", "lon": -77.06266133333334, "fusion_lat": 0.0, "rental_uris": {"android": "https://dc.lft.to/lastmile_qr_scan", "ios": "https://dc.lft.to/lastmile_qr_scan"}, "type": "electric_scooter"}, {"is_reserved": 0, "is_disabled": 0, "fusion_lon": 0.0, "lat": 38.919268833333334, "name": "5bf4a2117e8c00c9e745e4e52d1fad74", "bike_id": "5bf4a2117e8c00c9e745e4e52d1fad74", "lon": -77.0455985, "fusion_lat": 0.0, "rental_uris": {"android": "https://dc.lft.to/lastmile_qr_scan", "ios": "https://dc.lft.to/lastmile_qr_scan"}, "type": "electric_scooter"}, {"is_reserved": 0, "is_disabled": 0, "fusion_lon": 0.0, "lat": 38.91727216666666, "name": "b3faed412c95441bec28ae06bcfaa1ef", "bike_id": "b3faed412c95441bec28ae06bcfaa1ef", "lon": -77.0320475, "fusion_lat": 0.0, "rental_uris": {"android": "https://dc.lft.to/lastmile_qr_scan", "ios": "https://dc.lft.to/lastmile_qr_scan"}, "type": "electric_scooter"}, {"is_reserved": 0, "is_disabled": 0, "fusion_lon": 0.0, "lat": 38.8963185, "name": "b4062760d4f129e3b2fee32fc498793c", "bike_id": "b4062760d4f129e3b2fee32fc498793c", "lon": -76.92963, "fusion_lat": 0.0, "rental_uris": {"android": "https://dc.lft.to/lastmile_qr_scan", "ios": "https://dc.lft.to/lastmile_qr_scan"}, "type": "electric_scooter"}, {"is_reserved": 0, "is_disabled": 0, "fusion_lon": 0.0, "lat": 38.881053666666666, "name": "2e63b032a677adf770284295590add13", "bike_id": "2e63b032a677adf770284295590add13", "lon": -77.01693066666667, "fusion_lat": 0.0, "rental_uris": {"android": "https://dc.lft.to/lastmile_qr_scan", "ios": "https://dc.lft.to/lastmile_qr_scan"}, "type": "electric_bike"}, {"is_reserved": 0, "is_disabled": 0, "fusion_lon": 0.0, "lat": 38.901995666666664, "name": "9a3198e9a5f5540abb846b0085b7ceaa", "bike_id": "9a3198e9a5f5540abb846b0085b7ceaa", "lon": -76.99835433333334, "fusion_lat": 0.0, "rental_uris": {"android": "https://dc.lft.to/lastmile_qr_scan", "ios": "https://dc.lft.to/lastmile_qr_scan"}, "type": "electric_scooter"}, {"is_reserved": 0, "is_disabled": 0, "fusion_lon": 0.0, "lat": 38.957346333333334, "name": "4df8c8ddf5043525b44706c2474c0be5", "bike_id": "4df8c8ddf5043525b44706c2474c0be5", "lon": -77.0275205, "fusion_lat": 0.0, "rental_uris": {"android": "https://dc.lft.to/lastmile_qr_scan", "ios": "https://dc.lft.to/lastmile_qr_scan"}, "type": "electric_scooter"}, {"is_reserved": 0, "is_disabled": 0, "fusion_lon": 0.0, "lat": 38.93148716666666, "name": "4f28352ed9a84bf493d6189977f3f397", "bike_id": "4f28352ed9a84bf493d6189977f3f397", "lon": -77.03948216666667, "fusion_lat": 0.0, "rental_uris": {"android": "https://dc.lft.to/lastmile_qr_scan", "ios": "https://dc.lft.to/lastmile_qr_scan"}, "type": "electric_scooter"}, {"is_reserved": 0, "is_disabled": 0, "fusion_lon": 0.0, "lat": 38.90868966666667, "name": "c8b2d3f302132f9fd03ccb40e95a0331", "bike_id": "c8b2d3f302132f9fd03ccb40e95a0331", "lon": -77.04531283333333, "fusion_lat": 0.0, "rental_uris": {"android": "https://dc.lft.to/lastmile_qr_scan", "ios": "https://dc.lft.to/lastmile_qr_scan"}, "type": "electric_scooter"}, {"is_reserved": 0, "is_disabled": 0, "fusion_lon": 0.0, "lat": 38.9615395, "name": "2352263628d5434f2e7b511e8cda6b84", "bike_id": "2352263628d5434f2e7b511e8cda6b84", "lon": -76.99783933333333, "fusion_lat": 0.0, "rental_uris": {"android": "https://dc.lft.to/lastmile_qr_scan", "ios": "https://dc.lft.to/lastmile_qr_scan"}, "type": "electric_bike"}, {"is_reserved": 0, "is_disabled": 0, "fusion_lon": 0.0, "lat": 38.896154333333335, "name": "f007e8bf0d5d92d2a8c5211ca8a1c301", "bike_id": "f007e8bf0d5d92d2a8c5211ca8a1c301", "lon": -77.0479765, "fusion_lat": 0.0, "rental_uris": {"android": "https://dc.lft.to/lastmile_qr_scan", "ios": "https://dc.lft.to/lastmile_qr_scan"}, "type": "electric_scooter"}, {"is_reserved": 0, "is_disabled": 0, "fusion_lon": 0.0, "lat": 38.90399383333333, "name": "0daa48a4021bfcb5a29c876f0338d189", "bike_id": "0daa48a4021bfcb5a29c876f0338d189", "lon": -77.0259795, "fusion_lat": 0.0, "rental_uris": {"android": "https://dc.lft.to/lastmile_qr_scan", "ios": "https://dc.lft.to/lastmile_qr_scan"}, "type": "electric_scooter"}, {"is_reserved": 0, "is_disabled": 0, "fusion_lon": 0.0, "lat": 38.902557333333334, "name": "53f27f508ab815a2f53b1dbc5a5ac58f", "bike_id": "53f27f508ab815a2f53b1dbc5a5ac58f", "lon": -77.0389, "fusion_lat": 0.0, "rental_uris": {"android": "https://dc.lft.to/lastmile_qr_scan", "ios": "https://dc.lft.to/lastmile_qr_scan"}, "type": "electric_scooter"}, {"is_reserved": 0, "is_disabled": 0, "fusion_lon": 0.0, "lat": 38.949738833333335, "name": "48f6169c07e44fd53fefcfcdd2e3fc0e", "bike_id": "48f6169c07e44fd53fefcfcdd2e3fc0e", "lon": -77.02454583333333, "fusion_lat": 0.0, "rental_uris": {"android": "https://dc.lft.to/lastmile_qr_scan", "ios": "https://dc.lft.to/lastmile_qr_scan"}, "type": "electric_scooter"}, {"is_reserved": 0, "is_disabled": 0, "fusion_lon": 0.0, "lat": 38.91557266666667, "name": "701817b173ae0095496c24ac440f1952", "bike_id": "701817b173ae0095496c24ac440f1952", "lon": -77.03172216666667, "fusion_lat": 0.0, "rental_uris": {"android": "https://dc.lft.to/lastmile_qr_scan", "ios": "https://dc.lft.to/lastmile_qr_scan"}, "type": "electric_scooter"}, {"is_reserved": 0, "is_disabled": 0, "fusion_lon": 0.0, "lat": 38.911744166666665, "name": "1fea33c885cb6d0fe74eec417d09bba2", "bike_id": "1fea33c885cb6d0fe74eec417d09bba2", "lon": -77.02952016666667, "fusion_lat": 0.0, "rental_uris": {"android": "https://dc.lft.to/lastmile_qr_scan", "ios": "https://dc.lft.to/lastmile_qr_scan"}, "type": "electric_scooter"}, {"is_reserved": 0, "is_disabled": 0, "fusion_lon": 0.0, "lat": 38.9223605, "name": "df42eb2de05ecd6864c94e8c3d5d82b8", "bike_id": "df42eb2de05ecd6864c94e8c3d5d82b8", "lon": -77.02139583333333, "fusion_lat": 0.0, "rental_uris": {"android": "https://dc.lft.to/lastmile_qr_scan", "ios": "https://dc.lft.to/lastmile_qr_scan"}, "type": "electric_scooter"}, {"is_reserved": 0, "is_disabled": 0, "fusion_lon": 0.0, "lat": 38.931898333333336, "name": "fd07195e20b90945ecb41d71a09a1da7", "bike_id": "fd07195e20b90945ecb41d71a09a1da7", "lon": -77.0283705, "fusion_lat": 0.0, "rental_uris": {"android": "https://dc.lft.to/lastmile_qr_scan", "ios": "https://dc.lft.to/lastmile_qr_scan"}, "type": "electric_scooter"}, {"is_reserved": 0, "is_disabled": 0, "fusion_lon": 0.0, "lat": 38.951853166666666, "name": "e7ccb424106023000e3a83de0f7452a7", "bike_id": "e7ccb424106023000e3a83de0f7452a7", "lon": -77.02616466666667, "fusion_lat": 0.0, "rental_uris": {"android": "https://dc.lft.to/lastmile_qr_scan", "ios": "https://dc.lft.to/lastmile_qr_scan"}, "type": "electric_scooter"}, {"is_reserved": 0, "is_disabled": 0, "fusion_lon": 0.0, "lat": 38.93244083333333, "name": "c8e7697f3fa2fe1fa561bfcf77e0c58c", "bike_id": "c8e7697f3fa2fe1fa561bfcf77e0c58c", "lon": -77.032818, "fusion_lat": 0.0, "rental_uris": {"android": "https://dc.lft.to/lastmile_qr_scan", "ios": "https://dc.lft.to/lastmile_qr_scan"}, "type": "electric_scooter"}, {"is_reserved": 0, "is_disabled": 0, "fusion_lon": 0.0, "lat": 38.92647316666667, "name": "d36a032dcaaccba220b415e108323540", "bike_id": "d36a032dcaaccba220b415e108323540", "lon": -77.02506316666667, "fusion_lat": 0.0, "rental_uris": {"android": "https://dc.lft.to/lastmile_qr_scan", "ios": "https://dc.lft.to/lastmile_qr_scan"}, "type": "electric_scooter"}, {"is_reserved": 0, "is_disabled": 0, "fusion_lon": 0.0, "lat": 38.900176333333334, "name": "d3ab4f8536a9b3068db3a147ac98acd8", "bike_id": "d3ab4f8536a9b3068db3a147ac98acd8", "lon": -76.99537933333333, "fusion_lat": 0.0, "rental_uris": {"android": "https://dc.lft.to/lastmile_qr_scan", "ios": "https://dc.lft.to/lastmile_qr_scan"}, "type": "electric_scooter"}, {"is_reserved": 0, "is_disabled": 0, "fusion_lon": 0.0, "lat": 38.92701666666667, "name": "558ebf0596819f1271696658b0dbbf8b", "bike_id": "558ebf0596819f1271696658b0dbbf8b", "lon": -77.02070016666667, "fusion_lat": 0.0, "rental_uris": {"android": "https://dc.lft.to/lastmile_qr_scan", "ios": "https://dc.lft.to/lastmile_qr_scan"}, "type": "electric_scooter"}, {"is_reserved": 0, "is_disabled": 0, "fusion_lon": 0.0, "lat": 38.892205, "name": "57f8342a2fc7acb23aeef3e49db24ed2", "bike_id": "57f8342a2fc7acb23aeef3e49db24ed2", "lon": -77.03135816666666, "fusion_lat": 0.0, "rental_uris": {"android": "https://dc.lft.to/lastmile_qr_scan", "ios": "https://dc.lft.to/lastmile_qr_scan"}, "type": "electric_scooter"}, {"is_reserved": 0, "is_disabled": 0, "fusion_lon": 0.0, "lat": 38.9118285, "name": "4531617a1ed41914437c0f09bc2380f2", "bike_id": "4531617a1ed41914437c0f09bc2380f2", "lon": -77.0384305, "fusion_lat": 0.0, "rental_uris": {"android": "https://dc.lft.to/lastmile_qr_scan", "ios": "https://dc.lft.to/lastmile_qr_scan"}, "type": "electric_scooter"}, {"is_reserved": 0, "is_disabled": 0, "fusion_lon": 0.0, "lat": 38.9231645, "name": "7abf01d89452055e262948ca9af77956", "bike_id": "7abf01d89452055e262948ca9af77956", "lon": -77.0194965, "fusion_lat": 0.0, "rental_uris": {"android": "https://dc.lft.to/lastmile_qr_scan", "ios": "https://dc.lft.to/lastmile_qr_scan"}, "type": "electric_scooter"}, {"is_reserved": 0, "is_disabled": 0, "fusion_lon": 0.0, "lat": 38.931891, "name": "104b5d7970b07602a5d32f50753f4d60", "bike_id": "104b5d7970b07602a5d32f50753f4d60", "lon": -77.02840733333333, "fusion_lat": 0.0, "rental_uris": {"android": "https://dc.lft.to/lastmile_qr_scan", "ios": "https://dc.lft.to/lastmile_qr_scan"}, "type": "electric_scooter"}, {"is_reserved": 0, "is_disabled": 0, "fusion_lon": 0.0, "lat": 38.923683833333335, "name": "7cc1735ca2b5755d30a9d4df33de842f", "bike_id": "7cc1735ca2b5755d30a9d4df33de842f", "lon": -77.02694566666666, "fusion_lat": 0.0, "rental_uris": {"android": "https://dc.lft.to/lastmile_qr_scan", "ios": "https://dc.lft.to/lastmile_qr_scan"}, "type": "electric_scooter"}, {"is_reserved": 0, "is_disabled": 0, "fusion_lon": 0.0, "lat": 38.8950095, "name": "7dad345eb654bbd245429ae715b0cdcf", "bike_id": "7dad345eb654bbd245429ae715b0cdcf", "lon": -77.02319816666666, "fusion_lat": 0.0, "rental_uris": {"android": "https://dc.lft.to/lastmile_qr_scan", "ios": "https://dc.lft.to/lastmile_qr_scan"}, "type": "electric_scooter"}, {"is_reserved": 0, "is_disabled": 0, "fusion_lon": 0.0, "lat": 38.920332333333334, "name": "3a92420601552266835dbd294ad916cf", "bike_id": "3a92420601552266835dbd294ad916cf", "lon": -77.01217533333333, "fusion_lat": 0.0, "rental_uris": {"android": "https://dc.lft.to/lastmile_qr_scan", "ios": "https://dc.lft.to/lastmile_qr_scan"}, "type": "electric_scooter"}, {"is_reserved": 0, "is_disabled": 0, "fusion_lon": 0.0, "lat": 38.93294483333333, "name": "1e83e1290a2fcae8135f00fbf7477300", "bike_id": "1e83e1290a2fcae8135f00fbf7477300", "lon": -77.02294183333333, "fusion_lat": 0.0, "rental_uris": {"android": "https://dc.lft.to/lastmile_qr_scan", "ios": "https://dc.lft.to/lastmile_qr_scan"}, "type": "electric_scooter"}, {"is_reserved": 0, "is_disabled": 0, "fusion_lon": 0.0, "lat": 38.924800833333336, "name": "90d438ab37bdd6bb039fcef399921d87", "bike_id": "90d438ab37bdd6bb039fcef399921d87", "lon": -77.05095683333333, "fusion_lat": 0.0, "rental_uris": {"android": "https://dc.lft.to/lastmile_qr_scan", "ios": "https://dc.lft.to/lastmile_qr_scan"}, "type": "electric_scooter"}, {"is_reserved": 0, "is_disabled": 0, "fusion_lon": 0.0, "lat": 38.9085885, "name": "5a545221fabed17cfe5e6ec81c84fe1b", "bike_id": "5a545221fabed17cfe5e6ec81c84fe1b", "lon": -77.01020066666666, "fusion_lat": 0.0, "rental_uris": {"android": "https://dc.lft.to/lastmile_qr_scan", "ios": "https://dc.lft.to/lastmile_qr_scan"}, "type": "electric_scooter"}, {"is_reserved": 0, "is_disabled": 0, "fusion_lon": 0.0, "lat": 38.862533666666664, "name": "2aa35a4445d9984adb0db116dbe4eb12", "bike_id": "2aa35a4445d9984adb0db116dbe4eb12", "lon": -76.98359233333333, "fusion_lat": 0.0, "rental_uris": {"android": "https://dc.lft.to/lastmile_qr_scan", "ios": "https://dc.lft.to/lastmile_qr_scan"}, "type": "electric_bike"}, {"is_reserved": 0, "is_disabled": 0, "fusion_lon": 0.0, "lat": 38.924466, "name": "abde0312ac4abe533d4fb6c8267ffbee", "bike_id": "abde0312ac4abe533d4fb6c8267ffbee", "lon": -76.96837216666667, "fusion_lat": 0.0, "rental_uris": {"android": "https://dc.lft.to/lastmile_qr_scan", "ios": "https://dc.lft.to/lastmile_qr_scan"}, "type": "electric_bike"}, {"is_reserved": 0, "is_disabled": 0, "fusion_lon": 0.0, "lat": 38.88405616666667, "name": "912b6fc86749e58b6f1a9db7d78f4e45", "bike_id": "912b6fc86749e58b6f1a9db7d78f4e45", "lon": -77.02549183333333, "fusion_lat": 0.0, "rental_uris": {"android": "https://dc.lft.to/lastmile_qr_scan", "ios": "https://dc.lft.to/lastmile_qr_scan"}, "type": "electric_scooter"}, {"is_reserved": 0, "is_disabled": 0, "fusion_lon": 0.0, "lat": 38.94200033333333, "name": "b448454887ff552abd41bb13b36da33c", "bike_id": "b448454887ff552abd41bb13b36da33c", "lon": -77.01834966666667, "fusion_lat": 0.0, "rental_uris": {"android": "https://dc.lft.to/lastmile_qr_scan", "ios": "https://dc.lft.to/lastmile_qr_scan"}, "type": "electric_scooter"}, {"is_reserved": 0, "is_disabled": 0, "fusion_lon": 0.0, "lat": 38.938634666666665, "name": "ecb40b94aeb76e135484c425a0b767d5", "bike_id": "ecb40b94aeb76e135484c425a0b767d5", "lon": -77.0251875, "fusion_lat": 0.0, "rental_uris": {"android": "https://dc.lft.to/lastmile_qr_scan", "ios": "https://dc.lft.to/lastmile_qr_scan"}, "type": "electric_scooter"}, {"is_reserved": 0, "is_disabled": 0, "fusion_lon": 0.0, "lat": 38.890100833333335, "name": "fbefeb9b9b58896fc4479ea9208bc263", "bike_id": "fbefeb9b9b58896fc4479ea9208bc263", "lon": -76.93740666666666, "fusion_lat": 0.0, "rental_uris": {"android": "https://dc.lft.to/lastmile_qr_scan", "ios": "https://dc.lft.to/lastmile_qr_scan"}, "type": "electric_scooter"}, {"is_reserved": 0, "is_disabled": 0, "fusion_lon": 0.0, "lat": 38.89876783333333, "name": "3ab8c80f6891df0e796d6f08b73be56f", "bike_id": "3ab8c80f6891df0e796d6f08b73be56f", "lon": -76.93182966666667, "fusion_lat": 0.0, "rental_uris": {"android": "https://dc.lft.to/lastmile_qr_scan", "ios": "https://dc.lft.to/lastmile_qr_scan"}, "type": "electric_bike"}, {"is_reserved": 0, "is_disabled": 0, "fusion_lon": 0.0, "lat": 38.8793685, "name": "e9efb112e4176ad4f669a1a32adcf6a0", "bike_id": "e9efb112e4176ad4f669a1a32adcf6a0", "lon": -77.0036645, "fusion_lat": 0.0, "rental_uris": {"android": "https://dc.lft.to/lastmile_qr_scan", "ios": "https://dc.lft.to/lastmile_qr_scan"}, "type": "electric_scooter"}, {"is_reserved": 0, "is_disabled": 0, "fusion_lon": 0.0, "lat": 38.91706966666667, "name": "eea975b12ec57a72ee2c3f0e688f4eda", "bike_id": "eea975b12ec57a72ee2c3f0e688f4eda", "lon": -77.03834233333333, "fusion_lat": 0.0, "rental_uris": {"android": "https://dc.lft.to/lastmile_qr_scan", "ios": "https://dc.lft.to/lastmile_qr_scan"}, "type": "electric_scooter"}, {"is_reserved": 0, "is_disabled": 0, "fusion_lon": 0.0, "lat": 38.90238733333333, "name": "4b282fa913da52eaa414b2f51446ab16", "bike_id": "4b282fa913da52eaa414b2f51446ab16", "lon": -77.00199583333334, "fusion_lat": 0.0, "rental_uris": {"android": "https://dc.lft.to/lastmile_qr_scan", "ios": "https://dc.lft.to/lastmile_qr_scan"}, "type": "electric_scooter"}, {"is_reserved": 0, "is_disabled": 0, "fusion_lon": 0.0, "lat": 38.89910833333333, "name": "f60ba22615cb7fbc93fd377a9c4d2038", "bike_id": "f60ba22615cb7fbc93fd377a9c4d2038", "lon": -76.9338255, "fusion_lat": 0.0, "rental_uris": {"android": "https://dc.lft.to/lastmile_qr_scan", "ios": "https://dc.lft.to/lastmile_qr_scan"}, "type": "electric_scooter"}, {"is_reserved": 0, "is_disabled": 0, "fusion_lon": 0.0, "lat": 38.932514, "name": "412418bc5617191595dd083061c3f214", "bike_id": "412418bc5617191595dd083061c3f214", "lon": -77.02986733333333, "fusion_lat": 0.0, "rental_uris": {"android": "https://dc.lft.to/lastmile_qr_scan", "ios": "https://dc.lft.to/lastmile_qr_scan"}, "type": "electric_scooter"}, {"is_reserved": 0, "is_disabled": 0, "fusion_lon": 0.0, "lat": 38.91267083333334, "name": "e5d5b9764776c6b553bbe0c212cfa0e1", "bike_id": "e5d5b9764776c6b553bbe0c212cfa0e1", "lon": -77.01478, "fusion_lat": 0.0, "rental_uris": {"android": "https://dc.lft.to/lastmile_qr_scan", "ios": "https://dc.lft.to/lastmile_qr_scan"}, "type": "electric_scooter"}, {"is_reserved": 0, "is_disabled": 0, "fusion_lon": 0.0, "lat": 38.92154466666667, "name": "6698476004f3a1a68316c814f6c9aa48", "bike_id": "6698476004f3a1a68316c814f6c9aa48", "lon": -77.04240333333334, "fusion_lat": 0.0, "rental_uris": {"android": "https://dc.lft.to/lastmile_qr_scan", "ios": "https://dc.lft.to/lastmile_qr_scan"}, "type": "electric_scooter"}, {"is_reserved": 0, "is_disabled": 0, "fusion_lon": 0.0, "lat": 38.89667716666666, "name": "5b46f620fa4bbb1d54d7c49c3ae36f80", "bike_id": "5b46f620fa4bbb1d54d7c49c3ae36f80", "lon": -76.93213383333334, "fusion_lat": 0.0, "rental_uris": {"android": "https://dc.lft.to/lastmile_qr_scan", "ios": "https://dc.lft.to/lastmile_qr_scan"}, "type": "electric_bike"}, {"is_reserved": 0, "is_disabled": 0, "fusion_lon": 0.0, "lat": 38.93520083333333, "name": "4380085ade2e10d43c583e3cead0a551", "bike_id": "4380085ade2e10d43c583e3cead0a551", "lon": -77.03346416666666, "fusion_lat": 0.0, "rental_uris": {"android": "https://dc.lft.to/lastmile_qr_scan", "ios": "https://dc.lft.to/lastmile_qr_scan"}, "type": "electric_scooter"}, {"is_reserved": 0, "is_disabled": 0, "fusion_lon": 0.0, "lat": 38.92139783333333, "name": "f7619e749ac3ce8ba274c9c2fab78e31", "bike_id": "f7619e749ac3ce8ba274c9c2fab78e31", "lon": -77.02145583333333, "fusion_lat": 0.0, "rental_uris": {"android": "https://dc.lft.to/lastmile_qr_scan", "ios": "https://dc.lft.to/lastmile_qr_scan"}, "type": "electric_scooter"}, {"is_reserved": 0, "is_disabled": 0, "fusion_lon": 0.0, "lat": 38.8967885, "name": "ab457913d32c009997d5934514f44976", "bike_id": "ab457913d32c009997d5934514f44976", "lon": -77.04355083333333, "fusion_lat": 0.0, "rental_uris": {"android": "https://dc.lft.to/lastmile_qr_scan", "ios": "https://dc.lft.to/lastmile_qr_scan"}, "type": "electric_scooter"}, {"is_reserved": 0, "is_disabled": 0, "fusion_lon": 0.0, "lat": 38.936963, "name": "96ac4691c9ecfe9e740d87bc0352c3f0", "bike_id": "96ac4691c9ecfe9e740d87bc0352c3f0", "lon": -77.03286233333333, "fusion_lat": 0.0, "rental_uris": {"android": "https://dc.lft.to/lastmile_qr_scan", "ios": "https://dc.lft.to/lastmile_qr_scan"}, "type": "electric_scooter"}, {"is_reserved": 0, "is_disabled": 0, "fusion_lon": 0.0, "lat": 38.9293055, "name": "50c5b487b14db860c31f6ae39ea3ef8e", "bike_id": "50c5b487b14db860c31f6ae39ea3ef8e", "lon": -76.99814583333334, "fusion_lat": 0.0, "rental_uris": {"android": "https://dc.lft.to/lastmile_qr_scan", "ios": "https://dc.lft.to/lastmile_qr_scan"}, "type": "electric_scooter"}, {"is_reserved": 0, "is_disabled": 0, "fusion_lon": 0.0, "lat": 38.920699666666664, "name": "4b2135baf8d8eea6bab6d175160e818f", "bike_id": "4b2135baf8d8eea6bab6d175160e818f", "lon": -77.03792166666666, "fusion_lat": 0.0, "rental_uris": {"android": "https://dc.lft.to/lastmile_qr_scan", "ios": "https://dc.lft.to/lastmile_qr_scan"}, "type": "electric_scooter"}, {"is_reserved": 0, "is_disabled": 0, "fusion_lon": 0.0, "lat": 38.90774733333333, "name": "93fbdc158927d252f49d5f176c02ecad", "bike_id": "93fbdc158927d252f49d5f176c02ecad", "lon": -77.02201166666667, "fusion_lat": 0.0, "rental_uris": {"android": "https://dc.lft.to/lastmile_qr_scan", "ios": "https://dc.lft.to/lastmile_qr_scan"}, "type": "electric_scooter"}, {"is_reserved": 0, "is_disabled": 0, "fusion_lon": 0.0, "lat": 38.9049675, "name": "aedcb7c56c882ea4c9b18e2b00ed9066", "bike_id": "aedcb7c56c882ea4c9b18e2b00ed9066", "lon": -77.02952566666667, "fusion_lat": 0.0, "rental_uris": {"android": "https://dc.lft.to/lastmile_qr_scan", "ios": "https://dc.lft.to/lastmile_qr_scan"}, "type": "electric_scooter"}, {"is_reserved": 0, "is_disabled": 0, "fusion_lon": 0.0, "lat": 38.92231316666667, "name": "df230023c98d515058b0e2a3633956d4", "bike_id": "df230023c98d515058b0e2a3633956d4", "lon": -77.043075, "fusion_lat": 0.0, "rental_uris": {"android": "https://dc.lft.to/lastmile_qr_scan", "ios": "https://dc.lft.to/lastmile_qr_scan"}, "type": "electric_scooter"}, {"is_reserved": 0, "is_disabled": 0, "fusion_lon": 0.0, "lat": 38.9224155, "name": "0d2a95500aad942f55e637f34d3b5951", "bike_id": "0d2a95500aad942f55e637f34d3b5951", "lon": -77.04357733333333, "fusion_lat": 0.0, "rental_uris": {"android": "https://dc.lft.to/lastmile_qr_scan", "ios": "https://dc.lft.to/lastmile_qr_scan"}, "type": "electric_scooter"}, {"is_reserved": 0, "is_disabled": 0, "fusion_lon": 0.0, "lat": 38.925936666666665, "name": "8f00934ae504ee314170a0c7bd9c8c1a", "bike_id": "8f00934ae504ee314170a0c7bd9c8c1a", "lon": -77.0375395, "fusion_lat": 0.0, "rental_uris": {"android": "https://dc.lft.to/lastmile_qr_scan", "ios": "https://dc.lft.to/lastmile_qr_scan"}, "type": "electric_scooter"}, {"is_reserved": 0, "is_disabled": 0, "fusion_lon": 0.0, "lat": 38.898486166666665, "name": "60e363cb8a74cec925e4040b6ce044d5", "bike_id": "60e363cb8a74cec925e4040b6ce044d5", "lon": -76.990287, "fusion_lat": 0.0, "rental_uris": {"android": "https://dc.lft.to/lastmile_qr_scan", "ios": "https://dc.lft.to/lastmile_qr_scan"}, "type": "electric_scooter"}, {"is_reserved": 0, "is_disabled": 0, "fusion_lon": 0.0, "lat": 38.935953, "name": "c499e8e8903a2c6c9ecf09c4ee04a37e", "bike_id": "c499e8e8903a2c6c9ecf09c4ee04a37e", "lon": -77.05844783333333, "fusion_lat": 0.0, "rental_uris": {"android": "https://dc.lft.to/lastmile_qr_scan", "ios": "https://dc.lft.to/lastmile_qr_scan"}, "type": "electric_scooter"}, {"is_reserved": 0, "is_disabled": 0, "fusion_lon": 0.0, "lat": 38.898526, "name": "5ef309c5a4e58e67d79e524eaaffb3c2", "bike_id": "5ef309c5a4e58e67d79e524eaaffb3c2", "lon": -76.93186433333334, "fusion_lat": 0.0, "rental_uris": {"android": "https://dc.lft.to/lastmile_qr_scan", "ios": "https://dc.lft.to/lastmile_qr_scan"}, "type": "electric_bike"}, {"is_reserved": 0, "is_disabled": 0, "fusion_lon": 0.0, "lat": 38.953547666666665, "name": "c48fb02e496a712ba57e40eb35205a40", "bike_id": "c48fb02e496a712ba57e40eb35205a40", "lon": -76.98089666666667, "fusion_lat": 0.0, "rental_uris": {"android": "https://dc.lft.to/lastmile_qr_scan", "ios": "https://dc.lft.to/lastmile_qr_scan"}, "type": "electric_bike"}, {"is_reserved": 0, "is_disabled": 0, "fusion_lon": 0.0, "lat": 38.887865166666664, "name": "0632f76dfac0e01d4d695a2e87c219f8", "bike_id": "0632f76dfac0e01d4d695a2e87c219f8", "lon": -77.01598633333333, "fusion_lat": 0.0, "rental_uris": {"android": "https://dc.lft.to/lastmile_qr_scan", "ios": "https://dc.lft.to/lastmile_qr_scan"}, "type": "electric_scooter"}, {"is_reserved": 0, "is_disabled": 0, "fusion_lon": 0.0, "lat": 38.8813645, "name": "2daaaf93d25a62c1c69d6c792097de94", "bike_id": "2daaaf93d25a62c1c69d6c792097de94", "lon": -77.02270983333334, "fusion_lat": 0.0, "rental_uris": {"android": "https://dc.lft.to/lastmile_qr_scan", "ios": "https://dc.lft.to/lastmile_qr_scan"}, "type": "electric_scooter"}, {"is_reserved": 0, "is_disabled": 0, "fusion_lon": 0.0, "lat": 38.92303916666667, "name": "ca769ebeb4f97b0b83243c42a849d240", "bike_id": "ca769ebeb4f97b0b83243c42a849d240", "lon": -77.03111233333334, "fusion_lat": 0.0, "rental_uris": {"android": "https://dc.lft.to/lastmile_qr_scan", "ios": "https://dc.lft.to/lastmile_qr_scan"}, "type": "electric_scooter"}, {"is_reserved": 0, "is_disabled": 0, "fusion_lon": 0.0, "lat": 38.888734, "name": "c339c42a65e812d00f013157c27580b7", "bike_id": "c339c42a65e812d00f013157c27580b7", "lon": -76.98672433333333, "fusion_lat": 0.0, "rental_uris": {"android": "https://dc.lft.to/lastmile_qr_scan", "ios": "https://dc.lft.to/lastmile_qr_scan"}, "type": "electric_scooter"}, {"is_reserved": 0, "is_disabled": 0, "fusion_lon": 0.0, "lat": 38.933079, "name": "c8b5564e44d6ac797c94807443226ddd", "bike_id": "c8b5564e44d6ac797c94807443226ddd", "lon": -77.03075816666667, "fusion_lat": 0.0, "rental_uris": {"android": "https://dc.lft.to/lastmile_qr_scan", "ios": "https://dc.lft.to/lastmile_qr_scan"}, "type": "electric_scooter"}, {"is_reserved": 0, "is_disabled": 0, "fusion_lon": 0.0, "lat": 38.90269116666666, "name": "aa83965a4dc7541e0ad291159c155891", "bike_id": "aa83965a4dc7541e0ad291159c155891", "lon": -77.06017466666667, "fusion_lat": 0.0, "rental_uris": {"android": "https://dc.lft.to/lastmile_qr_scan", "ios": "https://dc.lft.to/lastmile_qr_scan"}, "type": "electric_scooter"}, {"is_reserved": 0, "is_disabled": 0, "fusion_lon": 0.0, "lat": 38.92468733333333, "name": "7a5c06079ce43e8d5e697a0220593202", "bike_id": "7a5c06079ce43e8d5e697a0220593202", "lon": -77.02718983333334, "fusion_lat": 0.0, "rental_uris": {"android": "https://dc.lft.to/lastmile_qr_scan", "ios": "https://dc.lft.to/lastmile_qr_scan"}, "type": "electric_scooter"}, {"is_reserved": 0, "is_disabled": 0, "fusion_lon": 0.0, "lat": 38.90722, "name": "1a0cc815c44b635cfe768a1ce256f29e", "bike_id": "1a0cc815c44b635cfe768a1ce256f29e", "lon": -77.03216616666667, "fusion_lat": 0.0, "rental_uris": {"android": "https://dc.lft.to/lastmile_qr_scan", "ios": "https://dc.lft.to/lastmile_qr_scan"}, "type": "electric_scooter"}, {"is_reserved": 0, "is_disabled": 0, "fusion_lon": 0.0, "lat": 38.9026405, "name": "cdccdb9ce7da19e36ddfa52fd1cf1575", "bike_id": "cdccdb9ce7da19e36ddfa52fd1cf1575", "lon": -77.0176175, "fusion_lat": 0.0, "rental_uris": {"android": "https://dc.lft.to/lastmile_qr_scan", "ios": "https://dc.lft.to/lastmile_qr_scan"}, "type": "electric_scooter"}, {"is_reserved": 0, "is_disabled": 0, "fusion_lon": 0.0, "lat": 38.916615166666666, "name": "833a6a62b9c5d492c4ff3bc787bd9caa", "bike_id": "833a6a62b9c5d492c4ff3bc787bd9caa", "lon": -77.03843033333334, "fusion_lat": 0.0, "rental_uris": {"android": "https://dc.lft.to/lastmile_qr_scan", "ios": "https://dc.lft.to/lastmile_qr_scan"}, "type": "electric_scooter"}, {"is_reserved": 0, "is_disabled": 0, "fusion_lon": 0.0, "lat": 38.909468333333336, "name": "1d505160d64722162d39afe96eaa6a10", "bike_id": "1d505160d64722162d39afe96eaa6a10", "lon": -77.0152495, "fusion_lat": 0.0, "rental_uris": {"android": "https://dc.lft.to/lastmile_qr_scan", "ios": "https://dc.lft.to/lastmile_qr_scan"}, "type": "electric_scooter"}, {"is_reserved": 0, "is_disabled": 0, "fusion_lon": 0.0, "lat": 38.9066295, "name": "4b5c41a6be0d8d7dfac86f61ee04403b", "bike_id": "4b5c41a6be0d8d7dfac86f61ee04403b", "lon": -77.04884, "fusion_lat": 0.0, "rental_uris": {"android": "https://dc.lft.to/lastmile_qr_scan", "ios": "https://dc.lft.to/lastmile_qr_scan"}, "type": "electric_scooter"}, {"is_reserved": 0, "is_disabled": 0, "fusion_lon": 0.0, "lat": 38.96226383333333, "name": "3c5a2650387407b0e74ead1c47e324b0", "bike_id": "3c5a2650387407b0e74ead1c47e324b0", "lon": -77.01361183333333, "fusion_lat": 0.0, "rental_uris": {"android": "https://dc.lft.to/lastmile_qr_scan", "ios": "https://dc.lft.to/lastmile_qr_scan"}, "type": "electric_scooter"}, {"is_reserved": 0, "is_disabled": 0, "fusion_lon": 0.0, "lat": 38.8972925, "name": "197398b6ead3eeca07ced55a0b58fbe4", "bike_id": "197398b6ead3eeca07ced55a0b58fbe4", "lon": -77.05524383333334, "fusion_lat": 0.0, "rental_uris": {"android": "https://dc.lft.to/lastmile_qr_scan", "ios": "https://dc.lft.to/lastmile_qr_scan"}, "type": "electric_scooter"}, {"is_reserved": 0, "is_disabled": 0, "fusion_lon": 0.0, "lat": 38.78462783333333, "name": "2c54f48421fd053a34cbf509e0a6c784", "bike_id": "2c54f48421fd053a34cbf509e0a6c784", "lon": -77.05437416666666, "fusion_lat": 0.0, "rental_uris": {"android": "https://dc.lft.to/lastmile_qr_scan", "ios": "https://dc.lft.to/lastmile_qr_scan"}, "type": "electric_bike"}, {"is_reserved": 0, "is_disabled": 0, "fusion_lon": 0.0, "lat": 38.92784133333333, "name": "33ebe9ada95754839bcca03357458e39", "bike_id": "33ebe9ada95754839bcca03357458e39", "lon": -77.01563816666666, "fusion_lat": 0.0, "rental_uris": {"android": "https://dc.lft.to/lastmile_qr_scan", "ios": "https://dc.lft.to/lastmile_qr_scan"}, "type": "electric_scooter"}, {"is_reserved": 0, "is_disabled": 0, "fusion_lon": 0.0, "lat": 38.921368333333334, "name": "c6fbd053a15d83a3a684ea76c3eb4d77", "bike_id": "c6fbd053a15d83a3a684ea76c3eb4d77", "lon": -77.01835266666667, "fusion_lat": 0.0, "rental_uris": {"android": "https://dc.lft.to/lastmile_qr_scan", "ios": "https://dc.lft.to/lastmile_qr_scan"}, "type": "electric_scooter"}, {"is_reserved": 0, "is_disabled": 0, "fusion_lon": 0.0, "lat": 38.92159083333333, "name": "81ea4c38587f87d3b1ddd6cdc03e4400", "bike_id": "81ea4c38587f87d3b1ddd6cdc03e4400", "lon": -77.03371766666666, "fusion_lat": 0.0, "rental_uris": {"android": "https://dc.lft.to/lastmile_qr_scan", "ios": "https://dc.lft.to/lastmile_qr_scan"}, "type": "electric_scooter"}, {"is_reserved": 0, "is_disabled": 0, "fusion_lon": 0.0, "lat": 38.8932255, "name": "00403cab882e3f591505430c130df535", "bike_id": "00403cab882e3f591505430c130df535", "lon": -77.02218216666667, "fusion_lat": 0.0, "rental_uris": {"android": "https://dc.lft.to/lastmile_qr_scan", "ios": "https://dc.lft.to/lastmile_qr_scan"}, "type": "electric_scooter"}, {"is_reserved": 0, "is_disabled": 0, "fusion_lon": 0.0, "lat": 38.917148166666664, "name": "0e37f944297a801f903b438527ae97b2", "bike_id": "0e37f944297a801f903b438527ae97b2", "lon": -77.02510633333333, "fusion_lat": 0.0, "rental_uris": {"android": "https://dc.lft.to/lastmile_qr_scan", "ios": "https://dc.lft.to/lastmile_qr_scan"}, "type": "electric_scooter"}, {"is_reserved": 0, "is_disabled": 0, "fusion_lon": 0.0, "lat": 38.9112125, "name": "a7d989a735a578488695edc404e93c91", "bike_id": "a7d989a735a578488695edc404e93c91", "lon": -77.03835133333334, "fusion_lat": 0.0, "rental_uris": {"android": "https://dc.lft.to/lastmile_qr_scan", "ios": "https://dc.lft.to/lastmile_qr_scan"}, "type": "electric_scooter"}, {"is_reserved": 0, "is_disabled": 0, "fusion_lon": 0.0, "lat": 38.893940666666666, "name": "18ba35b3ad921cd965306ccc8731ce25", "bike_id": "18ba35b3ad921cd965306ccc8731ce25", "lon": -77.02173866666666, "fusion_lat": 0.0, "rental_uris": {"android": "https://dc.lft.to/lastmile_qr_scan", "ios": "https://dc.lft.to/lastmile_qr_scan"}, "type": "electric_scooter"}, {"is_reserved": 0, "is_disabled": 0, "fusion_lon": 0.0, "lat": 38.889581, "name": "3877d655e6fa23c9673a3640bdd6cc4f", "bike_id": "3877d655e6fa23c9673a3640bdd6cc4f", "lon": -76.988205, "fusion_lat": 0.0, "rental_uris": {"android": "https://dc.lft.to/lastmile_qr_scan", "ios": "https://dc.lft.to/lastmile_qr_scan"}, "type": "electric_scooter"}, {"is_reserved": 0, "is_disabled": 0, "fusion_lon": 0.0, "lat": 38.920824833333334, "name": "537ca6fe9ea4a5056c65d88ada658128", "bike_id": "537ca6fe9ea4a5056c65d88ada658128", "lon": -77.02337516666667, "fusion_lat": 0.0, "rental_uris": {"android": "https://dc.lft.to/lastmile_qr_scan", "ios": "https://dc.lft.to/lastmile_qr_scan"}, "type": "electric_scooter"}, {"is_reserved": 0, "is_disabled": 0, "fusion_lon": 0.0, "lat": 38.92374733333333, "name": "bddbb9eb1dcd31879b5ba12e207ae849", "bike_id": "bddbb9eb1dcd31879b5ba12e207ae849", "lon": -77.03055566666667, "fusion_lat": 0.0, "rental_uris": {"android": "https://dc.lft.to/lastmile_qr_scan", "ios": "https://dc.lft.to/lastmile_qr_scan"}, "type": "electric_scooter"}, {"is_reserved": 0, "is_disabled": 0, "fusion_lon": 0.0, "lat": 38.91545333333333, "name": "28fc6553a2b6334f88780c1e7832d829", "bike_id": "28fc6553a2b6334f88780c1e7832d829", "lon": -77.044519, "fusion_lat": 0.0, "rental_uris": {"android": "https://dc.lft.to/lastmile_qr_scan", "ios": "https://dc.lft.to/lastmile_qr_scan"}, "type": "electric_scooter"}, {"is_reserved": 0, "is_disabled": 0, "fusion_lon": 0.0, "lat": 38.912574166666666, "name": "2b1d96ccc63416c8b2e19bd2b9ea3d79", "bike_id": "2b1d96ccc63416c8b2e19bd2b9ea3d79", "lon": -77.07236683333333, "fusion_lat": 0.0, "rental_uris": {"android": "https://dc.lft.to/lastmile_qr_scan", "ios": "https://dc.lft.to/lastmile_qr_scan"}, "type": "electric_scooter"}, {"is_reserved": 0, "is_disabled": 0, "fusion_lon": 0.0, "lat": 38.90836633333333, "name": "d5aa42d040999acca85ff3050270f1c1", "bike_id": "d5aa42d040999acca85ff3050270f1c1", "lon": -77.0728935, "fusion_lat": 0.0, "rental_uris": {"android": "https://dc.lft.to/lastmile_qr_scan", "ios": "https://dc.lft.to/lastmile_qr_scan"}, "type": "electric_scooter"}, {"is_reserved": 0, "is_disabled": 0, "fusion_lon": 0.0, "lat": 38.905588333333334, "name": "429a3c735a606b99ecb16dc2cb96e28c", "bike_id": "429a3c735a606b99ecb16dc2cb96e28c", "lon": -77.00611866666667, "fusion_lat": 0.0, "rental_uris": {"android": "https://dc.lft.to/lastmile_qr_scan", "ios": "https://dc.lft.to/lastmile_qr_scan"}, "type": "electric_scooter"}, {"is_reserved": 0, "is_disabled": 0, "fusion_lon": 0.0, "lat": 38.92045183333333, "name": "de41806175b6de07c7fe91c7c9db4af5", "bike_id": "de41806175b6de07c7fe91c7c9db4af5", "lon": -77.0347735, "fusion_lat": 0.0, "rental_uris": {"android": "https://dc.lft.to/lastmile_qr_scan", "ios": "https://dc.lft.to/lastmile_qr_scan"}, "type": "electric_scooter"}, {"is_reserved": 0, "is_disabled": 0, "fusion_lon": 0.0, "lat": 38.91919033333333, "name": "6062919fc3814c9a42d7e68f4f7edef8", "bike_id": "6062919fc3814c9a42d7e68f4f7edef8", "lon": -77.03043333333333, "fusion_lat": 0.0, "rental_uris": {"android": "https://dc.lft.to/lastmile_qr_scan", "ios": "https://dc.lft.to/lastmile_qr_scan"}, "type": "electric_scooter"}, {"is_reserved": 0, "is_disabled": 0, "fusion_lon": 0.0, "lat": 38.9141485, "name": "dd97f1024841eff26874276c4b8dfbcd", "bike_id": "dd97f1024841eff26874276c4b8dfbcd", "lon": -77.0223825, "fusion_lat": 0.0, "rental_uris": {"android": "https://dc.lft.to/lastmile_qr_scan", "ios": "https://dc.lft.to/lastmile_qr_scan"}, "type": "electric_scooter"}, {"is_reserved": 0, "is_disabled": 0, "fusion_lon": 0.0, "lat": 38.92313566666667, "name": "13a41a23fe1417e9def8a2e2d07b4b1d", "bike_id": "13a41a23fe1417e9def8a2e2d07b4b1d", "lon": -77.02717633333333, "fusion_lat": 0.0, "rental_uris": {"android": "https://dc.lft.to/lastmile_qr_scan", "ios": "https://dc.lft.to/lastmile_qr_scan"}, "type": "electric_scooter"}, {"is_reserved": 0, "is_disabled": 0, "fusion_lon": 0.0, "lat": 38.91817116666667, "name": "9d89e37783bef1dd0255b416d3307a32", "bike_id": "9d89e37783bef1dd0255b416d3307a32", "lon": -77.01418516666666, "fusion_lat": 0.0, "rental_uris": {"android": "https://dc.lft.to/lastmile_qr_scan", "ios": "https://dc.lft.to/lastmile_qr_scan"}, "type": "electric_scooter"}, {"is_reserved": 0, "is_disabled": 0, "fusion_lon": 0.0, "lat": 38.95758466666667, "name": "d20593e7d68890e1149a01260474bc16", "bike_id": "d20593e7d68890e1149a01260474bc16", "lon": -77.009153, "fusion_lat": 0.0, "rental_uris": {"android": "https://dc.lft.to/lastmile_qr_scan", "ios": "https://dc.lft.to/lastmile_qr_scan"}, "type": "electric_scooter"}, {"is_reserved": 0, "is_disabled": 0, "fusion_lon": 0.0, "lat": 38.89506466666667, "name": "3b857e34c98d0eb82392a8b4790dd055", "bike_id": "3b857e34c98d0eb82392a8b4790dd055", "lon": -77.04641483333333, "fusion_lat": 0.0, "rental_uris": {"android": "https://dc.lft.to/lastmile_qr_scan", "ios": "https://dc.lft.to/lastmile_qr_scan"}, "type": "electric_scooter"}, {"is_reserved": 0, "is_disabled": 0, "fusion_lon": 0.0, "lat": 38.870724833333334, "name": "41b47bf5952515a4ec083ff4966ac9d0", "bike_id": "41b47bf5952515a4ec083ff4966ac9d0", "lon": -77.11062816666667, "fusion_lat": 0.0, "rental_uris": {"android": "https://dc.lft.to/lastmile_qr_scan", "ios": "https://dc.lft.to/lastmile_qr_scan"}, "type": "electric_bike"}, {"is_reserved": 0, "is_disabled": 0, "fusion_lon": 0.0, "lat": 38.9118255, "name": "863b3b86c6fc4f90db929194ce087fd9", "bike_id": "863b3b86c6fc4f90db929194ce087fd9", "lon": -77.03134583333333, "fusion_lat": 0.0, "rental_uris": {"android": "https://dc.lft.to/lastmile_qr_scan", "ios": "https://dc.lft.to/lastmile_qr_scan"}, "type": "electric_scooter"}, {"is_reserved": 0, "is_disabled": 0, "fusion_lon": 0.0, "lat": 38.900946, "name": "f744478df5e8cc2a1faa85b4d43656d5", "bike_id": "f744478df5e8cc2a1faa85b4d43656d5", "lon": -77.03161416666667, "fusion_lat": 0.0, "rental_uris": {"android": "https://dc.lft.to/lastmile_qr_scan", "ios": "https://dc.lft.to/lastmile_qr_scan"}, "type": "electric_scooter"}, {"is_reserved": 0, "is_disabled": 0, "fusion_lon": 0.0, "lat": 38.92408283333333, "name": "08800bfffaf330f9625d12558424d58f", "bike_id": "08800bfffaf330f9625d12558424d58f", "lon": -77.0194765, "fusion_lat": 0.0, "rental_uris": {"android": "https://dc.lft.to/lastmile_qr_scan", "ios": "https://dc.lft.to/lastmile_qr_scan"}, "type": "electric_scooter"}, {"is_reserved": 0, "is_disabled": 0, "fusion_lon": 0.0, "lat": 38.911914333333335, "name": "003d72a1f174db6fad45626a53443804", "bike_id": "003d72a1f174db6fad45626a53443804", "lon": -77.01083816666667, "fusion_lat": 0.0, "rental_uris": {"android": "https://dc.lft.to/lastmile_qr_scan", "ios": "https://dc.lft.to/lastmile_qr_scan"}, "type": "electric_scooter"}, {"is_reserved": 0, "is_disabled": 0, "fusion_lon": 0.0, "lat": 38.916829666666665, "name": "b36aa62016c6749dc15257fc35c96c01", "bike_id": "b36aa62016c6749dc15257fc35c96c01", "lon": -77.029504, "fusion_lat": 0.0, "rental_uris": {"android": "https://dc.lft.to/lastmile_qr_scan", "ios": "https://dc.lft.to/lastmile_qr_scan"}, "type": "electric_scooter"}, {"is_reserved": 0, "is_disabled": 0, "fusion_lon": 0.0, "lat": 38.927260833333335, "name": "8f766d6ef058bd3c93ca9c05a050107a", "bike_id": "8f766d6ef058bd3c93ca9c05a050107a", "lon": -77.0227245, "fusion_lat": 0.0, "rental_uris": {"android": "https://dc.lft.to/lastmile_qr_scan", "ios": "https://dc.lft.to/lastmile_qr_scan"}, "type": "electric_scooter"}, {"is_reserved": 0, "is_disabled": 0, "fusion_lon": 0.0, "lat": 38.93595916666666, "name": "5bf7686cb475cd462db7900b29eb4bca", "bike_id": "5bf7686cb475cd462db7900b29eb4bca", "lon": -77.02120416666666, "fusion_lat": 0.0, "rental_uris": {"android": "https://dc.lft.to/lastmile_qr_scan", "ios": "https://dc.lft.to/lastmile_qr_scan"}, "type": "electric_bike"}, {"is_reserved": 0, "is_disabled": 0, "fusion_lon": 0.0, "lat": 38.919425, "name": "367e19e8cc5365c8c3b0c566372d8cbf", "bike_id": "367e19e8cc5365c8c3b0c566372d8cbf", "lon": -77.045504, "fusion_lat": 0.0, "rental_uris": {"android": "https://dc.lft.to/lastmile_qr_scan", "ios": "https://dc.lft.to/lastmile_qr_scan"}, "type": "electric_scooter"}, {"is_reserved": 0, "is_disabled": 0, "fusion_lon": 0.0, "lat": 38.923445, "name": "1e3eb1751b2866e3b99681398c867ff2", "bike_id": "1e3eb1751b2866e3b99681398c867ff2", "lon": -77.03541316666667, "fusion_lat": 0.0, "rental_uris": {"android": "https://dc.lft.to/lastmile_qr_scan", "ios": "https://dc.lft.to/lastmile_qr_scan"}, "type": "electric_scooter"}, {"is_reserved": 0, "is_disabled": 0, "fusion_lon": 0.0, "lat": 38.91975866666667, "name": "44da4251d762fad060e9b6a4cab02e24", "bike_id": "44da4251d762fad060e9b6a4cab02e24", "lon": -77.02190583333334, "fusion_lat": 0.0, "rental_uris": {"android": "https://dc.lft.to/lastmile_qr_scan", "ios": "https://dc.lft.to/lastmile_qr_scan"}, "type": "electric_scooter"}, {"is_reserved": 0, "is_disabled": 0, "fusion_lon": 0.0, "lat": 38.92752483333334, "name": "66b088288c20f5b76e98946c348f7e6d", "bike_id": "66b088288c20f5b76e98946c348f7e6d", "lon": -77.02112216666667, "fusion_lat": 0.0, "rental_uris": {"android": "https://dc.lft.to/lastmile_qr_scan", "ios": "https://dc.lft.to/lastmile_qr_scan"}, "type": "electric_scooter"}, {"is_reserved": 0, "is_disabled": 0, "fusion_lon": 0.0, "lat": 38.899571, "name": "c210182ce17a3cae8f477c7a8170ab90", "bike_id": "c210182ce17a3cae8f477c7a8170ab90", "lon": -77.04719483333334, "fusion_lat": 0.0, "rental_uris": {"android": "https://dc.lft.to/lastmile_qr_scan", "ios": "https://dc.lft.to/lastmile_qr_scan"}, "type": "electric_scooter"}, {"is_reserved": 0, "is_disabled": 0, "fusion_lon": 0.0, "lat": 38.923850333333334, "name": "844295656e77a06e3e9ac241f13c5a4c", "bike_id": "844295656e77a06e3e9ac241f13c5a4c", "lon": -77.026561, "fusion_lat": 0.0, "rental_uris": {"android": "https://dc.lft.to/lastmile_qr_scan", "ios": "https://dc.lft.to/lastmile_qr_scan"}, "type": "electric_scooter"}, {"is_reserved": 0, "is_disabled": 0, "fusion_lon": 0.0, "lat": 38.807342166666665, "name": "2cb896ac88e122377c1a92c05f82fdad", "bike_id": "2cb896ac88e122377c1a92c05f82fdad", "lon": -76.99256883333334, "fusion_lat": 0.0, "rental_uris": {"android": "https://dc.lft.to/lastmile_qr_scan", "ios": "https://dc.lft.to/lastmile_qr_scan"}, "type": "electric_bike"}, {"is_reserved": 0, "is_disabled": 0, "fusion_lon": 0.0, "lat": 38.926881333333334, "name": "d8e9120ba66f5b2899d73c0e5d656f0d", "bike_id": "d8e9120ba66f5b2899d73c0e5d656f0d", "lon": -77.029657, "fusion_lat": 0.0, "rental_uris": {"android": "https://dc.lft.to/lastmile_qr_scan", "ios": "https://dc.lft.to/lastmile_qr_scan"}, "type": "electric_scooter"}, {"is_reserved": 0, "is_disabled": 0, "fusion_lon": 0.0, "lat": 38.918008666666665, "name": "7c00dd23368b446c14b1967ba04d90b0", "bike_id": "7c00dd23368b446c14b1967ba04d90b0", "lon": -77.02490333333333, "fusion_lat": 0.0, "rental_uris": {"android": "https://dc.lft.to/lastmile_qr_scan", "ios": "https://dc.lft.to/lastmile_qr_scan"}, "type": "electric_scooter"}, {"is_reserved": 0, "is_disabled": 0, "fusion_lon": 0.0, "lat": 38.91654966666667, "name": "efb9ecbac33ff6cbd8ea0b5b4fc3d65a", "bike_id": "efb9ecbac33ff6cbd8ea0b5b4fc3d65a", "lon": -77.02030683333334, "fusion_lat": 0.0, "rental_uris": {"android": "https://dc.lft.to/lastmile_qr_scan", "ios": "https://dc.lft.to/lastmile_qr_scan"}, "type": "electric_scooter"}, {"is_reserved": 0, "is_disabled": 0, "fusion_lon": 0.0, "lat": 38.9165235, "name": "931b969f1b187d59e2d04dd1cb99371e", "bike_id": "931b969f1b187d59e2d04dd1cb99371e", "lon": -77.0317685, "fusion_lat": 0.0, "rental_uris": {"android": "https://dc.lft.to/lastmile_qr_scan", "ios": "https://dc.lft.to/lastmile_qr_scan"}, "type": "electric_scooter"}, {"is_reserved": 0, "is_disabled": 0, "fusion_lon": 0.0, "lat": 38.923615166666664, "name": "1cc44fbfc0703c90e1963d29c10c4d6b", "bike_id": "1cc44fbfc0703c90e1963d29c10c4d6b", "lon": -77.0503185, "fusion_lat": 0.0, "rental_uris": {"android": "https://dc.lft.to/lastmile_qr_scan", "ios": "https://dc.lft.to/lastmile_qr_scan"}, "type": "electric_scooter"}, {"is_reserved": 0, "is_disabled": 0, "fusion_lon": 0.0, "lat": 38.897239666666664, "name": "46646da43c1e92ec6c1710860faf0c17", "bike_id": "46646da43c1e92ec6c1710860faf0c17", "lon": -77.00207766666666, "fusion_lat": 0.0, "rental_uris": {"android": "https://dc.lft.to/lastmile_qr_scan", "ios": "https://dc.lft.to/lastmile_qr_scan"}, "type": "electric_scooter"}, {"is_reserved": 0, "is_disabled": 0, "fusion_lon": 0.0, "lat": 38.884335, "name": "56aa64c018591596b192717096382c60", "bike_id": "56aa64c018591596b192717096382c60", "lon": -76.957495, "fusion_lat": 0.0, "rental_uris": {"android": "https://dc.lft.to/lastmile_qr_scan", "ios": "https://dc.lft.to/lastmile_qr_scan"}, "type": "electric_scooter"}, {"is_reserved": 0, "is_disabled": 0, "fusion_lon": 0.0, "lat": 38.95084716666667, "name": "3662996da565fd99f6987c040384b4fd", "bike_id": "3662996da565fd99f6987c040384b4fd", "lon": -76.99800883333333, "fusion_lat": 0.0, "rental_uris": {"android": "https://dc.lft.to/lastmile_qr_scan", "ios": "https://dc.lft.to/lastmile_qr_scan"}, "type": "electric_scooter"}, {"is_reserved": 0, "is_disabled": 0, "fusion_lon": 0.0, "lat": 38.90078916666667, "name": "59278244b1bb983f9bb780ecb787f476", "bike_id": "59278244b1bb983f9bb780ecb787f476", "lon": -77.04888166666667, "fusion_lat": 0.0, "rental_uris": {"android": "https://dc.lft.to/lastmile_qr_scan", "ios": "https://dc.lft.to/lastmile_qr_scan"}, "type": "electric_scooter"}, {"is_reserved": 0, "is_disabled": 0, "fusion_lon": 0.0, "lat": 38.892251, "name": "bbca45c96ec6f825c65fac2db56f0ec8", "bike_id": "bbca45c96ec6f825c65fac2db56f0ec8", "lon": -77.04373983333333, "fusion_lat": 0.0, "rental_uris": {"android": "https://dc.lft.to/lastmile_qr_scan", "ios": "https://dc.lft.to/lastmile_qr_scan"}, "type": "electric_scooter"}, {"is_reserved": 0, "is_disabled": 0, "fusion_lon": 0.0, "lat": 38.902712, "name": "4e4fd85cc04a384ab85c093a2a6f3fbf", "bike_id": "4e4fd85cc04a384ab85c093a2a6f3fbf", "lon": -77.003267, "fusion_lat": 0.0, "rental_uris": {"android": "https://dc.lft.to/lastmile_qr_scan", "ios": "https://dc.lft.to/lastmile_qr_scan"}, "type": "electric_scooter"}, {"is_reserved": 0, "is_disabled": 0, "fusion_lon": 0.0, "lat": 38.922485, "name": "61f3f3126b8b7fa6b6788dade6b04813", "bike_id": "61f3f3126b8b7fa6b6788dade6b04813", "lon": -77.0306505, "fusion_lat": 0.0, "rental_uris": {"android": "https://dc.lft.to/lastmile_qr_scan", "ios": "https://dc.lft.to/lastmile_qr_scan"}, "type": "electric_scooter"}, {"is_reserved": 0, "is_disabled": 0, "fusion_lon": 0.0, "lat": 38.89609516666667, "name": "7600f213b7ac8b805c4ec6e632f53dd1", "bike_id": "7600f213b7ac8b805c4ec6e632f53dd1", "lon": -77.045171, "fusion_lat": 0.0, "rental_uris": {"android": "https://dc.lft.to/lastmile_qr_scan", "ios": "https://dc.lft.to/lastmile_qr_scan"}, "type": "electric_scooter"}, {"is_reserved": 0, "is_disabled": 0, "fusion_lon": 0.0, "lat": 38.90400966666667, "name": "a7de1d7dee109c866dde86654dd06bf9", "bike_id": "a7de1d7dee109c866dde86654dd06bf9", "lon": -77.0186845, "fusion_lat": 0.0, "rental_uris": {"android": "https://dc.lft.to/lastmile_qr_scan", "ios": "https://dc.lft.to/lastmile_qr_scan"}, "type": "electric_scooter"}, {"is_reserved": 0, "is_disabled": 0, "fusion_lon": 0.0, "lat": 38.90604833333333, "name": "6c44f490a7059c18cc6c4497372f13a4", "bike_id": "6c44f490a7059c18cc6c4497372f13a4", "lon": -77.1288065, "fusion_lat": 0.0, "rental_uris": {"android": "https://dc.lft.to/lastmile_qr_scan", "ios": "https://dc.lft.to/lastmile_qr_scan"}, "type": "electric_bike"}, {"is_reserved": 0, "is_disabled": 0, "fusion_lon": 0.0, "lat": 38.88360383333333, "name": "0f945cdf7f6474965c894a61bbf2829e", "bike_id": "0f945cdf7f6474965c894a61bbf2829e", "lon": -77.02007633333334, "fusion_lat": 0.0, "rental_uris": {"android": "https://dc.lft.to/lastmile_qr_scan", "ios": "https://dc.lft.to/lastmile_qr_scan"}, "type": "electric_scooter"}, {"is_reserved": 0, "is_disabled": 0, "fusion_lon": 0.0, "lat": 38.89980666666666, "name": "843910f2c2502cc18934050d6186e156", "bike_id": "843910f2c2502cc18934050d6186e156", "lon": -77.03339066666666, "fusion_lat": 0.0, "rental_uris": {"android": "https://dc.lft.to/lastmile_qr_scan", "ios": "https://dc.lft.to/lastmile_qr_scan"}, "type": "electric_bike"}, {"is_reserved": 0, "is_disabled": 0, "fusion_lon": 0.0, "lat": 38.88067683333333, "name": "53b4624f8de71cdd38b7080822cc255d", "bike_id": "53b4624f8de71cdd38b7080822cc255d", "lon": -77.01174966666666, "fusion_lat": 0.0, "rental_uris": {"android": "https://dc.lft.to/lastmile_qr_scan", "ios": "https://dc.lft.to/lastmile_qr_scan"}, "type": "electric_scooter"}, {"is_reserved": 0, "is_disabled": 0, "fusion_lon": 0.0, "lat": 38.917466, "name": "71b813f46aa2e05fdfaf214ad7fa29af", "bike_id": "71b813f46aa2e05fdfaf214ad7fa29af", "lon": -77.01711666666667, "fusion_lat": 0.0, "rental_uris": {"android": "https://dc.lft.to/lastmile_qr_scan", "ios": "https://dc.lft.to/lastmile_qr_scan"}, "type": "electric_scooter"}, {"is_reserved": 0, "is_disabled": 0, "fusion_lon": 0.0, "lat": 38.90498783333334, "name": "e5ae2a989bfc7e59f929e65c73dd2e6a", "bike_id": "e5ae2a989bfc7e59f929e65c73dd2e6a", "lon": -77.02704, "fusion_lat": 0.0, "rental_uris": {"android": "https://dc.lft.to/lastmile_qr_scan", "ios": "https://dc.lft.to/lastmile_qr_scan"}, "type": "electric_scooter"}, {"is_reserved": 0, "is_disabled": 0, "fusion_lon": 0.0, "lat": 38.918736833333334, "name": "45ab09ac9a2ae2def69ebf47c7f6f469", "bike_id": "45ab09ac9a2ae2def69ebf47c7f6f469", "lon": -77.0427035, "fusion_lat": 0.0, "rental_uris": {"android": "https://dc.lft.to/lastmile_qr_scan", "ios": "https://dc.lft.to/lastmile_qr_scan"}, "type": "electric_scooter"}, {"is_reserved": 0, "is_disabled": 0, "fusion_lon": 0.0, "lat": 38.9131905, "name": "9a3b7ba1ab6e4637b2c3780750466e0e", "bike_id": "9a3b7ba1ab6e4637b2c3780750466e0e", "lon": -77.036463, "fusion_lat": 0.0, "rental_uris": {"android": "https://dc.lft.to/lastmile_qr_scan", "ios": "https://dc.lft.to/lastmile_qr_scan"}, "type": "electric_scooter"}, {"is_reserved": 0, "is_disabled": 0, "fusion_lon": 0.0, "lat": 38.925018333333334, "name": "18d085d784985da94ff0010f18ebe84c", "bike_id": "18d085d784985da94ff0010f18ebe84c", "lon": -77.02403216666667, "fusion_lat": 0.0, "rental_uris": {"android": "https://dc.lft.to/lastmile_qr_scan", "ios": "https://dc.lft.to/lastmile_qr_scan"}, "type": "electric_scooter"}, {"is_reserved": 0, "is_disabled": 0, "fusion_lon": 0.0, "lat": 38.92239216666667, "name": "bee4376d21779fc840d2029a715dbed0", "bike_id": "bee4376d21779fc840d2029a715dbed0", "lon": -77.03663016666667, "fusion_lat": 0.0, "rental_uris": {"android": "https://dc.lft.to/lastmile_qr_scan", "ios": "https://dc.lft.to/lastmile_qr_scan"}, "type": "electric_scooter"}, {"is_reserved": 0, "is_disabled": 0, "fusion_lon": 0.0, "lat": 38.918550333333336, "name": "218b8fdf5b73833e378ed13b39f3049e", "bike_id": "218b8fdf5b73833e378ed13b39f3049e", "lon": -76.9608615, "fusion_lat": 0.0, "rental_uris": {"android": "https://dc.lft.to/lastmile_qr_scan", "ios": "https://dc.lft.to/lastmile_qr_scan"}, "type": "electric_bike"}, {"is_reserved": 0, "is_disabled": 0, "fusion_lon": 0.0, "lat": 38.91323216666667, "name": "9a81ef910385aa0251715d19e8da873a", "bike_id": "9a81ef910385aa0251715d19e8da873a", "lon": -77.01511483333333, "fusion_lat": 0.0, "rental_uris": {"android": "https://dc.lft.to/lastmile_qr_scan", "ios": "https://dc.lft.to/lastmile_qr_scan"}, "type": "electric_scooter"}, {"is_reserved": 0, "is_disabled": 0, "fusion_lon": 0.0, "lat": 38.90148216666667, "name": "b0480c19c24953e5dbce8193fc63468e", "bike_id": "b0480c19c24953e5dbce8193fc63468e", "lon": -76.97423383333333, "fusion_lat": 0.0, "rental_uris": {"android": "https://dc.lft.to/lastmile_qr_scan", "ios": "https://dc.lft.to/lastmile_qr_scan"}, "type": "electric_scooter"}, {"is_reserved": 0, "is_disabled": 0, "fusion_lon": 0.0, "lat": 38.94656366666667, "name": "facc3566905602e14f582ab1f58f1d4f", "bike_id": "facc3566905602e14f582ab1f58f1d4f", "lon": -77.02251533333333, "fusion_lat": 0.0, "rental_uris": {"android": "https://dc.lft.to/lastmile_qr_scan", "ios": "https://dc.lft.to/lastmile_qr_scan"}, "type": "electric_scooter"}, {"is_reserved": 0, "is_disabled": 0, "fusion_lon": 0.0, "lat": 38.89608316666666, "name": "6f99db58a111f554e3aac00c1d679dd5", "bike_id": "6f99db58a111f554e3aac00c1d679dd5", "lon": -77.04427516666667, "fusion_lat": 0.0, "rental_uris": {"android": "https://dc.lft.to/lastmile_qr_scan", "ios": "https://dc.lft.to/lastmile_qr_scan"}, "type": "electric_scooter"}, {"is_reserved": 0, "is_disabled": 0, "fusion_lon": 0.0, "lat": 38.909734, "name": "51b8d81255a2545b09679c84e29678cf", "bike_id": "51b8d81255a2545b09679c84e29678cf", "lon": -77.0452215, "fusion_lat": 0.0, "rental_uris": {"android": "https://dc.lft.to/lastmile_qr_scan", "ios": "https://dc.lft.to/lastmile_qr_scan"}, "type": "electric_scooter"}, {"is_reserved": 0, "is_disabled": 0, "fusion_lon": 0.0, "lat": 38.917689833333334, "name": "0b907bff506ac7db552c514019748602", "bike_id": "0b907bff506ac7db552c514019748602", "lon": -77.0476935, "fusion_lat": 0.0, "rental_uris": {"android": "https://dc.lft.to/lastmile_qr_scan", "ios": "https://dc.lft.to/lastmile_qr_scan"}, "type": "electric_scooter"}, {"is_reserved": 0, "is_disabled": 0, "fusion_lon": 0.0, "lat": 38.923618833333336, "name": "9e3fb4a50cba08465318cd2ba67de85b", "bike_id": "9e3fb4a50cba08465318cd2ba67de85b", "lon": -77.05032466666667, "fusion_lat": 0.0, "rental_uris": {"android": "https://dc.lft.to/lastmile_qr_scan", "ios": "https://dc.lft.to/lastmile_qr_scan"}, "type": "electric_scooter"}, {"is_reserved": 0, "is_disabled": 0, "fusion_lon": 0.0, "lat": 38.89718466666667, "name": "8f86a5ef8b8618b7e824992a157fe84c", "bike_id": "8f86a5ef8b8618b7e824992a157fe84c", "lon": -77.0251345, "fusion_lat": 0.0, "rental_uris": {"android": "https://dc.lft.to/lastmile_qr_scan", "ios": "https://dc.lft.to/lastmile_qr_scan"}, "type": "electric_scooter"}, {"is_reserved": 0, "is_disabled": 0, "fusion_lon": 0.0, "lat": 38.942393, "name": "c52fa328c9a3ed9162ea60db965376cf", "bike_id": "c52fa328c9a3ed9162ea60db965376cf", "lon": -77.0022, "fusion_lat": 0.0, "rental_uris": {"android": "https://dc.lft.to/lastmile_qr_scan", "ios": "https://dc.lft.to/lastmile_qr_scan"}, "type": "electric_scooter"}, {"is_reserved": 0, "is_disabled": 0, "fusion_lon": 0.0, "lat": 38.917097, "name": "17b0b891be236508e7c7054736f88c0a", "bike_id": "17b0b891be236508e7c7054736f88c0a", "lon": -77.04173233333333, "fusion_lat": 0.0, "rental_uris": {"android": "https://dc.lft.to/lastmile_qr_scan", "ios": "https://dc.lft.to/lastmile_qr_scan"}, "type": "electric_scooter"}, {"is_reserved": 0, "is_disabled": 0, "fusion_lon": 0.0, "lat": 38.89620816666667, "name": "cb310671d9f7bdebabc0ac5512e4e5e3", "bike_id": "cb310671d9f7bdebabc0ac5512e4e5e3", "lon": -76.90752966666666, "fusion_lat": 0.0, "rental_uris": {"android": "https://dc.lft.to/lastmile_qr_scan", "ios": "https://dc.lft.to/lastmile_qr_scan"}, "type": "electric_bike"}, {"is_reserved": 0, "is_disabled": 0, "fusion_lon": 0.0, "lat": 38.886694166666665, "name": "06136a509095c3a2fe5dc2c458012e83", "bike_id": "06136a509095c3a2fe5dc2c458012e83", "lon": -77.01375916666667, "fusion_lat": 0.0, "rental_uris": {"android": "https://dc.lft.to/lastmile_qr_scan", "ios": "https://dc.lft.to/lastmile_qr_scan"}, "type": "electric_scooter"}, {"is_reserved": 0, "is_disabled": 0, "fusion_lon": 0.0, "lat": 38.900194666666664, "name": "783d3a712f9d0dd9c0018c4a828ac9e9", "bike_id": "783d3a712f9d0dd9c0018c4a828ac9e9", "lon": -76.99836116666667, "fusion_lat": 0.0, "rental_uris": {"android": "https://dc.lft.to/lastmile_qr_scan", "ios": "https://dc.lft.to/lastmile_qr_scan"}, "type": "electric_scooter"}, {"is_reserved": 0, "is_disabled": 0, "fusion_lon": 0.0, "lat": 38.903872, "name": "379c03f3bad38b5f2d1796b635838217", "bike_id": "379c03f3bad38b5f2d1796b635838217", "lon": -76.98942633333333, "fusion_lat": 0.0, "rental_uris": {"android": "https://dc.lft.to/lastmile_qr_scan", "ios": "https://dc.lft.to/lastmile_qr_scan"}, "type": "electric_scooter"}, {"is_reserved": 0, "is_disabled": 0, "fusion_lon": 0.0, "lat": 38.908707, "name": "417639f2825b4d42770d8e6147fa4154", "bike_id": "417639f2825b4d42770d8e6147fa4154", "lon": -77.08590783333334, "fusion_lat": 0.0, "rental_uris": {"android": "https://dc.lft.to/lastmile_qr_scan", "ios": "https://dc.lft.to/lastmile_qr_scan"}, "type": "electric_scooter"}, {"is_reserved": 0, "is_disabled": 0, "fusion_lon": 0.0, "lat": 38.907854, "name": "d003c65b1c43aa595fc6e0880464ff51", "bike_id": "d003c65b1c43aa595fc6e0880464ff51", "lon": -77.0096605, "fusion_lat": 0.0, "rental_uris": {"android": "https://dc.lft.to/lastmile_qr_scan", "ios": "https://dc.lft.to/lastmile_qr_scan"}, "type": "electric_scooter"}, {"is_reserved": 0, "is_disabled": 0, "fusion_lon": 0.0, "lat": 38.9080915, "name": "500ee83647e33b8ca5b04f2c955996a3", "bike_id": "500ee83647e33b8ca5b04f2c955996a3", "lon": -77.00231766666667, "fusion_lat": 0.0, "rental_uris": {"android": "https://dc.lft.to/lastmile_qr_scan", "ios": "https://dc.lft.to/lastmile_qr_scan"}, "type": "electric_scooter"}, {"is_reserved": 0, "is_disabled": 0, "fusion_lon": 0.0, "lat": 38.922603333333335, "name": "be605fa5c9fb6801fdaea6f7d5ab5390", "bike_id": "be605fa5c9fb6801fdaea6f7d5ab5390", "lon": -76.9864415, "fusion_lat": 0.0, "rental_uris": {"android": "https://dc.lft.to/lastmile_qr_scan", "ios": "https://dc.lft.to/lastmile_qr_scan"}, "type": "electric_bike"}, {"is_reserved": 0, "is_disabled": 0, "fusion_lon": 0.0, "lat": 38.91051133333333, "name": "e130d1e8b8c64824bc18d9b918545cc5", "bike_id": "e130d1e8b8c64824bc18d9b918545cc5", "lon": -77.04179733333334, "fusion_lat": 0.0, "rental_uris": {"android": "https://dc.lft.to/lastmile_qr_scan", "ios": "https://dc.lft.to/lastmile_qr_scan"}, "type": "electric_scooter"}, {"is_reserved": 0, "is_disabled": 0, "fusion_lon": 0.0, "lat": 38.854388, "name": "4c10ca4d74cd87e5b7095a7619848e0e", "bike_id": "4c10ca4d74cd87e5b7095a7619848e0e", "lon": -76.97169383333333, "fusion_lat": 0.0, "rental_uris": {"android": "https://dc.lft.to/lastmile_qr_scan", "ios": "https://dc.lft.to/lastmile_qr_scan"}, "type": "electric_scooter"}, {"is_reserved": 0, "is_disabled": 0, "fusion_lon": 0.0, "lat": 38.91802116666667, "name": "e2746c2bc7a7be75e8fb1d80c3cf3916", "bike_id": "e2746c2bc7a7be75e8fb1d80c3cf3916", "lon": -77.02488066666666, "fusion_lat": 0.0, "rental_uris": {"android": "https://dc.lft.to/lastmile_qr_scan", "ios": "https://dc.lft.to/lastmile_qr_scan"}, "type": "electric_scooter"},