{"data": {"bikes": [{"rental_uris": {"android": "https://dc.lft.to/lastmile_qr_scan", "ios": "https://dc.lft.to/lastmile_qr_scan"}, "fusion_lat": 0.0, "is_reserved": 0, "lat": 38.87943416666667, "name": "ef906ece781ce5e616ca9f304e1068d7", "bike_id": "ef906ece781ce5e616ca9f304e1068d7", "is_disabled": 0, "fusion_lon": 0.0, "type": "electric_scooter", "lon": -77.02160933333333}, {"rental_uris": {"android": "https://dc.lft.to/lastmile_qr_scan", "ios": "https://dc.lft.to/lastmile_qr_scan"}, "fusion_lat": 0.0, "is_reserved": 0, "lat": 38.916535333333336, "name": "b7ed6c5d88e957715360b603c40a74b5", "bike_id": "b7ed6c5d88e957715360b603c40a74b5", "is_disabled": 0, "fusion_lon": 0.0, "type": "electric_scooter", "lon": -77.01026866666666}, {"rental_uris": {"android": "https://dc.lft.to/lastmile_qr_scan", "ios": "https://dc.lft.to/lastmile_qr_scan"}, "fusion_lat": 0.0, "is_reserved": 0, "lat": 38.905827, "name": "59a48016acaa5609ed35a116a386adf1", "bike_id": "59a48016acaa5609ed35a116a386adf1", "is_disabled": 0, "fusion_lon": 0.0, "type": "electric_scooter", "lon": -77.0056685}, {"rental_uris": {"android": "https://dc.lft.to/lastmile_qr_scan", "ios": "https://dc.lft.to/lastmile_qr_scan"}, "fusion_lat": 0.0, "is_reserved": 0, "lat": 38.92671, "name": "faa42f0bd536749c60cd90eb94ae75a9", "bike_id": "faa42f0bd536749c60cd90eb94ae75a9", "is_disabled": 0, "fusion_lon": 0.0, "type": "electric_scooter", "lon": -77.03031133333333}, {"rental_uris": {"android": "https://dc.lft.to/lastmile_qr_scan", "ios": "https://dc.lft.to/lastmile_qr_scan"}, "fusion_lat": 0.0, "is_reserved": 0, "lat": 38.900618333333334, "name": "f9a4368fab8f55954b33df85d4672933", "bike_id": "f9a4368fab8f55954b33df85d4672933", "is_disabled": 0, "fusion_lon": 0.0, "type": "electric_scooter", "lon": -77.02169316666667}, {"rental_uris": {"android": "https://dc.lft.to/lastmile_qr_scan", "ios": "https://dc.lft.to/lastmile_qr_scan"}, "fusion_lat": 0.0, "is_reserved": 0, "lat": 38.893008333333334, "name": "b29efdac1556b07da9f744482e7299c5", "bike_id": "b29efdac1556b07da9f744482e7299c5", "is_disabled": 0, "fusion_lon": 0.0, "type": "electric_scooter", "lon": -76.92994283333333}, {"rental_uris": {"android": "https://dc.lft.to/lastmile_qr_scan", "ios": "https://dc.lft.to/lastmile_qr_scan"}, "fusion_lat": 0.0, "is_reserved": 0, "lat": 38.90787183333333, "name": "7be66c5436303e9448fab3d13d6b52f3", "bike_id": "7be66c5436303e9448fab3d13d6b52f3", "is_disabled": 0, "fusion_lon": 0.0, "type": "electric_scooter", "lon": -77.030576}, {"rental_uris": {"android": "https://dc.lft.to/lastmile_qr_scan", "ios": "https://dc.lft.to/lastmile_qr_scan"}, "fusion_lat": 0.0, "is_reserved": 0, "lat": 38.89993416666667, "name": "23279b7721264b8c1afbc73bde486533", "bike_id": "23279b7721264b8c1afbc73bde486533", "is_disabled": 0, "fusion_lon": 0.0, "type": "electric_scooter", "lon": -77.00069783333333}, {"rental_uris": {"android": "https://dc.lft.to/lastmile_qr_scan", "ios": "https://dc.lft.to/lastmile_qr_scan"}, "fusion_lat": 0.0, "is_reserved": 0, "lat": 38.91708966666667, "name": "abcf8147ca6a8194a7acd9a316167a34", "bike_id": "abcf8147ca6a8194a7acd9a316167a34", "is_disabled": 0, "fusion_lon": 0.0, "type": "electric_scooter", "lon": -77.03113983333333}, {"rental_uris": {"android": "https://dc.lft.to/lastmile_qr_scan", "ios": "https://dc.lft.to/lastmile_qr_scan"}, "fusion_lat": 0.0, "is_reserved": 0, "lat": 38.90836, "name": "ee646585334c731073123bb04c17299a", "bike_id": "ee646585334c731073123bb04c17299a", "is_disabled": 0, "fusion_lon": 0.0, "type": "electric_scooter", "lon": -76.9970095}, {"rental_uris": {"android": "https://dc.lft.to/lastmile_qr_scan", "ios": "https://dc.lft.to/lastmile_qr_scan"}, "fusion_lat": 0.0, "is_reserved": 0, "lat": 38.909040166666664, "name": "c84bad6f4a372aff547609b3708b3bb9", "bike_id": "c84bad6f4a372aff547609b3708b3bb9", "is_disabled": 0, "fusion_lon": 0.0, "type": "electric_scooter", "lon": -76.99117616666666}, {"rental_uris": {"android": "https://dc.lft.to/lastmile_qr_scan", "ios": "https://dc.lft.to/lastmile_qr_scan"}, "fusion_lat": 0.0, "is_reserved": 0, "lat": 38.9117545, "name": "f5aa47c43034ba43413d7bf37fce95a8", "bike_id": "f5aa47c43034ba43413d7bf37fce95a8", "is_disabled": 0, "fusion_lon": 0.0, "type": "electric_scooter", "lon": -77.0045275}, {"rental_uris": {"android": "https://dc.lft.to/lastmile_qr_scan", "ios": "https://dc.lft.to/lastmile_qr_scan"}, "fusion_lat": 0.0, "is_reserved": 0, "lat": 38.902443833333336, "name": "93e2255507667939a7b130baa1a7b217", "bike_id": "93e2255507667939a7b130baa1a7b217", "is_disabled": 0, "fusion_lon": 0.0, "type": "electric_scooter", "lon": -77.001887}, {"rental_uris": {"android": "https://dc.lft.to/lastmile_qr_scan", "ios": "https://dc.lft.to/lastmile_qr_scan"}, "fusion_lat": 0.0, "is_reserved": 0, "lat": 38.89616633333333, "name": "a539b11e0d7ffb25bae1bfbc025b3bf9", "bike_id": "a539b11e0d7ffb25bae1bfbc025b3bf9", "is_disabled": 0, "fusion_lon": 0.0, "type": "electric_scooter", "lon": -76.97683316666667}, {"rental_uris": {"android": "https://dc.lft.to/lastmile_qr_scan", "ios": "https://dc.lft.to/lastmile_qr_scan"}, "fusion_lat": 0.0, "is_reserved": 0, "lat": 38.91681533333333, "name": "13f397840af73a5d81f25ec41e5a155d", "bike_id": "13f397840af73a5d81f25ec41e5a155d", "is_disabled": 0, "fusion_lon": 0.0, "type": "electric_scooter", "lon": -77.02292566666667}, {"rental_uris": {"android": "https://dc.lft.to/lastmile_qr_scan", "ios": "https://dc.lft.to/lastmile_qr_scan"}, "fusion_lat": 0.0, "is_reserved": 0, "lat": 38.926126, "name": "425df2555254f1587e4d14c55823c1ec", "bike_id": "425df2555254f1587e4d14c55823c1ec", "is_disabled": 0, "fusion_lon": 0.0, "type": "electric_scooter", "lon": -77.02158433333334}, {"rental_uris": {"android": "https://dc.lft.to/lastmile_qr_scan", "ios": "https://dc.lft.to/lastmile_qr_scan"}, "fusion_lat": 0.0, "is_reserved": 0, "lat": 38.883999833333334, "name": "109635c08cc81d0b3b1d4565cdc7ba71", "bike_id": "109635c08cc81d0b3b1d4565cdc7ba71", "is_disabled": 0, "fusion_lon": 0.0, "type": "electric_scooter", "lon": -76.93044183333333}, {"rental_uris": {"android": "https://dc.lft.to/lastmile_qr_scan", "ios": "https://dc.lft.to/lastmile_qr_scan"}, "fusion_lat": 0.0, "is_reserved": 0, "lat": 38.90015283333334, "name": "d431be15a7ed3acb9277733843afcc4b", "bike_id": "d431be15a7ed3acb9277733843afcc4b", "is_disabled": 0, "fusion_lon": 0.0, "type": "electric_scooter", "lon": -76.93026766666667}, {"rental_uris": {"android": "https://dc.lft.to/lastmile_qr_scan", "ios": "https://dc.lft.to/lastmile_qr_scan"}, "fusion_lat": 0.0, "is_reserved": 0, "lat": 38.9215965, "name": "e594f749776b07ae1c6fa02ef5ce0e14", "bike_id": "e594f749776b07ae1c6fa02ef5ce0e14", "is_disabled": 0, "fusion_lon": 0.0, "type": "electric_scooter", "lon": -77.033841}, {"rental_uris": {"android": "https://dc.lft.to/lastmile_qr_scan", "ios": "https://dc.lft.to/lastmile_qr_scan"}, "fusion_lat": 0.0, "is_reserved": 0, "lat": 38.90727783333333, "name": "7d5affaf057f05fb36154fd41a0863fd", "bike_id": "7d5affaf057f05fb36154fd41a0863fd", "is_disabled": 0, "fusion_lon": 0.0, "type": "electric_scooter", "lon": -77.017264}, {"rental_uris": {"android": "https://dc.lft.to/lastmile_qr_scan", "ios": "https://dc.lft.to/lastmile_qr_scan"}, "fusion_lat": 0.0, "is_reserved": 0, "lat": 38.920307333333334, "name": "0d6f86cbe82b373479dc4a305561baa6", "bike_id": "0d6f86cbe82b373479dc4a305561baa6", "is_disabled": 0, "fusion_lon": 0.0, "type": "electric_scooter", "lon": -76.98543316666667}, {"rental_uris": {"android": "https://dc.lft.to/lastmile_qr_scan", "ios": "https://dc.lft.to/lastmile_qr_scan"}, "fusion_lat": 0.0, "is_reserved": 0, "lat": 38.9236645, "name": "5d4ecbea29b3b835f9a26769aeadabfd", "bike_id": "5d4ecbea29b3b835f9a26769aeadabfd", "is_disabled": 0, "fusion_lon": 0.0, "type": "electric_scooter", "lon": -77.0503105}, {"rental_uris": {"android": "https://dc.lft.to/lastmile_qr_scan", "ios": "https://dc.lft.to/lastmile_qr_scan"}, "fusion_lat": 0.0, "is_reserved": 0, "lat": 38.92188433333333, "name": "53cce02435180697262490a7f5b08e32", "bike_id": "53cce02435180697262490a7f5b08e32", "is_disabled": 0, "fusion_lon": 0.0, "type": "electric_scooter", "lon": -77.01912516666667}, {"rental_uris": {"android": "https://dc.lft.to/lastmile_qr_scan", "ios": "https://dc.lft.to/lastmile_qr_scan"}, "fusion_lat": 0.0, "is_reserved": 0, "lat": 38.92473833333333, "name": "ca989cec0294742752dbdb1bfbffd159", "bike_id": "ca989cec0294742752dbdb1bfbffd159", "is_disabled": 0, "fusion_lon": 0.0, "type": "electric_scooter", "lon": -77.02117466666667}, {"rental_uris": {"android": "https://dc.lft.to/lastmile_qr_scan", "ios": "https://dc.lft.to/lastmile_qr_scan"}, "fusion_lat": 0.0, "is_reserved": 0, "lat": 38.93356283333333, "name": "98b607ea5498cc0bb4d9b65316dfc470", "bike_id": "98b607ea5498cc0bb4d9b65316dfc470", "is_disabled": 0, "fusion_lon": 0.0, "type": "electric_scooter", "lon": -77.02495066666667}, {"rental_uris": {"android": "https://dc.lft.to/lastmile_qr_scan", "ios": "https://dc.lft.to/lastmile_qr_scan"}, "fusion_lat": 0.0, "is_reserved": 0, "lat": 38.88773233333333, "name": "3f01109cae854789aac584d51729fe81", "bike_id": "3f01109cae854789aac584d51729fe81", "is_disabled": 0, "fusion_lon": 0.0, "type": "electric_scooter", "lon": -76.93264933333333}, {"rental_uris": {"android": "https://dc.lft.to/lastmile_qr_scan", "ios": "https://dc.lft.to/lastmile_qr_scan"}, "fusion_lat": 0.0, "is_reserved": 0, "lat": 38.88750866666667, "name": "4388e56bd3dcf03d9149f16248428f0f", "bike_id": "4388e56bd3dcf03d9149f16248428f0f", "is_disabled": 0, "fusion_lon": 0.0, "type": "electric_bike", "lon": -76.900948}, {"rental_uris": {"android": "https://dc.lft.to/lastmile_qr_scan", "ios": "https://dc.lft.to/lastmile_qr_scan"}, "fusion_lat": 0.0, "is_reserved": 0, "lat": 38.93360166666667, "name": "b2e3d9c56e4f0880b300ece9ef9f6e15", "bike_id": "b2e3d9c56e4f0880b300ece9ef9f6e15", "is_disabled": 0, "fusion_lon": 0.0, "type": "electric_scooter", "lon": -77.04124783333333}, {"rental_uris": {"android": "https://dc.lft.to/lastmile_qr_scan", "ios": "https://dc.lft.to/lastmile_qr_scan"}, "fusion_lat": 0.0, "is_reserved": 0, "lat": 38.92356983333333, "name": "22582e98da50b544bfc28b06c7791d2a", "bike_id": "22582e98da50b544bfc28b06c7791d2a", "is_disabled": 0, "fusion_lon": 0.0, "type": "electric_scooter", "lon": -77.019111}, {"rental_uris": {"android": "https://dc.lft.to/lastmile_qr_scan", "ios": "https://dc.lft.to/lastmile_qr_scan"}, "fusion_lat": 0.0, "is_reserved": 0, "lat": 38.91416516666666, "name": "70c7b0a8d0bdc8cffaec138b7d6ac735", "bike_id": "70c7b0a8d0bdc8cffaec138b7d6ac735", "is_disabled": 0, "fusion_lon": 0.0, "type": "electric_scooter", "lon": -77.0018225}, {"rental_uris": {"android": "https://dc.lft.to/lastmile_qr_scan", "ios": "https://dc.lft.to/lastmile_qr_scan"}, "fusion_lat": 0.0, "is_reserved": 0, "lat": 38.9317705, "name": "19ab80b8dfd66823bc07377a22ee665c", "bike_id": "19ab80b8dfd66823bc07377a22ee665c", "is_disabled": 0, "fusion_lon": 0.0, "type": "electric_bike", "lon": -77.020203}, {"rental_uris": {"android": "https://dc.lft.to/lastmile_qr_scan", "ios": "https://dc.lft.to/lastmile_qr_scan"}, "fusion_lat": 0.0, "is_reserved": 0, "lat": 38.8801635, "name": "0ec68666d6f38d4e428a152e48f3960c", "bike_id": "0ec68666d6f38d4e428a152e48f3960c", "is_disabled": 0, "fusion_lon": 0.0, "type": "electric_scooter", "lon": -76.98457333333333}, {"rental_uris": {"android": "https://dc.lft.to/lastmile_qr_scan", "ios": "https://dc.lft.to/lastmile_qr_scan"}, "fusion_lat": 0.0, "is_reserved": 0, "lat": 38.9034875, "name": "4be5026bf29d7a1be63d30f13d58bc29", "bike_id": "4be5026bf29d7a1be63d30f13d58bc29", "is_disabled": 0, "fusion_lon": 0.0, "type": "electric_scooter", "lon": -77.02614216666667}, {"rental_uris": {"android": "https://dc.lft.to/lastmile_qr_scan", "ios": "https://dc.lft.to/lastmile_qr_scan"}, "fusion_lat": 0.0, "is_reserved": 0, "lat": 38.921228166666666, "name": "e6053413dc1aeef316cca4069ce9c248", "bike_id": "e6053413dc1aeef316cca4069ce9c248", "is_disabled": 0, "fusion_lon": 0.0, "type": "electric_scooter", "lon": -77.03664}, {"rental_uris": {"android": "https://dc.lft.to/lastmile_qr_scan", "ios": "https://dc.lft.to/lastmile_qr_scan"}, "fusion_lat": 0.0, "is_reserved": 0, "lat": 38.91562166666667, "name": "c4ebd616f1a362baed27a3d7f6a8940b", "bike_id": "c4ebd616f1a362baed27a3d7f6a8940b", "is_disabled": 0, "fusion_lon": 0.0, "type": "electric_scooter", "lon": -77.03129466666667}, {"rental_uris": {"android": "https://dc.lft.to/lastmile_qr_scan", "ios": "https://dc.lft.to/lastmile_qr_scan"}, "fusion_lat": 0.0, "is_reserved": 0, "lat": 38.9052825, "name": "d6cc48d2f14f67e6d602dc9f1d2f74bf", "bike_id": "d6cc48d2f14f67e6d602dc9f1d2f74bf", "is_disabled": 0, "fusion_lon": 0.0, "type": "electric_scooter", "lon": -76.98406516666667}, {"rental_uris": {"android": "https://dc.lft.to/lastmile_qr_scan", "ios": "https://dc.lft.to/lastmile_qr_scan"}, "fusion_lat": 0.0, "is_reserved": 0, "lat": 38.879416, "name": "6e82da456ec6c61b13abe3637f99a320", "bike_id": "6e82da456ec6c61b13abe3637f99a320", "is_disabled": 0, "fusion_lon": 0.0, "type": "electric_scooter", "lon": -77.00382833333333}, {"rental_uris": {"android": "https://dc.lft.to/lastmile_qr_scan", "ios": "https://dc.lft.to/lastmile_qr_scan"}, "fusion_lat": 0.0, "is_reserved": 0, "lat": 38.883441, "name": "e92a8ea8214bc1dbaeffa4cd94eb4d30", "bike_id": "e92a8ea8214bc1dbaeffa4cd94eb4d30", "is_disabled": 0, "fusion_lon": 0.0, "type": "electric_scooter", "lon": -76.94288383333334}, {"rental_uris": {"android": "https://dc.lft.to/lastmile_qr_scan", "ios": "https://dc.lft.to/lastmile_qr_scan"}, "fusion_lat": 0.0, "is_reserved": 0, "lat": 38.917109833333335, "name": "f8bf2503711ecef0825c5f25f37349c7", "bike_id": "f8bf2503711ecef0825c5f25f37349c7", "is_disabled": 0, "fusion_lon": 0.0, "type": "electric_scooter", "lon": -77.03459866666667}, {"rental_uris": {"android": "https://dc.lft.to/lastmile_qr_scan", "ios": "https://dc.lft.to/lastmile_qr_scan"}, "fusion_lat": 0.0, "is_reserved": 0, "lat": 38.91190066666667, "name": "ab05544097d19a8ed5943696c847d57a", "bike_id": "ab05544097d19a8ed5943696c847d57a", "is_disabled": 0, "fusion_lon": 0.0, "type": "electric_scooter", "lon": -77.03831866666667}, {"rental_uris": {"android": "https://dc.lft.to/lastmile_qr_scan", "ios": "https://dc.lft.to/lastmile_qr_scan"}, "fusion_lat": 0.0, "is_reserved": 0, "lat": 38.917342166666664, "name": "2a18c597ca1a6ce579311ef4994c1bd4", "bike_id": "2a18c597ca1a6ce579311ef4994c1bd4", "is_disabled": 0, "fusion_lon": 0.0, "type": "electric_scooter", "lon": -77.0321165}, {"rental_uris": {"android": "https://dc.lft.to/lastmile_qr_scan", "ios": "https://dc.lft.to/lastmile_qr_scan"}, "fusion_lat": 0.0, "is_reserved": 0, "lat": 38.870697, "name": "d22b4efd2aa38735cebd04c3ff983726", "bike_id": "d22b4efd2aa38735cebd04c3ff983726", "is_disabled": 0, "fusion_lon": 0.0, "type": "electric_bike", "lon": -77.11054566666667}, {"rental_uris": {"android": "https://dc.lft.to/lastmile_qr_scan", "ios": "https://dc.lft.to/lastmile_qr_scan"}, "fusion_lat": 0.0, "is_reserved": 0, "lat": 38.884237, "name": "299dda923b9c897e95d4ba6dd710d181", "bike_id": "299dda923b9c897e95d4ba6dd710d181", "is_disabled": 0, "fusion_lon": 0.0, "type": "electric_scooter", "lon": -77.02543483333334}, {"rental_uris": {"android": "https://dc.lft.to/lastmile_qr_scan", "ios": "https://dc.lft.to/lastmile_qr_scan"}, "fusion_lat": 0.0, "is_reserved": 0, "lat": 38.91815033333334, "name": "4a6aa877576237775ae63bbd9e10a0cf", "bike_id": "4a6aa877576237775ae63bbd9e10a0cf", "is_disabled": 0, "fusion_lon": 0.0, "type": "electric_scooter", "lon": -77.024783}, {"rental_uris": {"android": "https://dc.lft.to/lastmile_qr_scan", "ios": "https://dc.lft.to/lastmile_qr_scan"}, "fusion_lat": 0.0, "is_reserved": 0, "lat": 38.90408433333333, "name": "c13c1d3537444dcbb86a080341cc3f8d", "bike_id": "c13c1d3537444dcbb86a080341cc3f8d", "is_disabled": 0, "fusion_lon": 0.0, "type": "electric_scooter", "lon": -77.0532965}, {"rental_uris": {"android": "https://dc.lft.to/lastmile_qr_scan", "ios": "https://dc.lft.to/lastmile_qr_scan"}, "fusion_lat": 0.0, "is_reserved": 0, "lat": 38.9171105, "name": "2e49b7886ff800b51ffda7f7ff98399e", "bike_id": "2e49b7886ff800b51ffda7f7ff98399e", "is_disabled": 0, "fusion_lon": 0.0, "type": "electric_scooter", "lon": -77.0267265}, {"rental_uris": {"android": "https://dc.lft.to/lastmile_qr_scan", "ios": "https://dc.lft.to/lastmile_qr_scan"}, "fusion_lat": 0.0, "is_reserved": 0, "lat": 38.92729216666667, "name": "4e9d0d34809a068dbba631bde8b0b37b", "bike_id": "4e9d0d34809a068dbba631bde8b0b37b", "is_disabled": 0, "fusion_lon": 0.0, "type": "electric_scooter", "lon": -77.0229895}, {"rental_uris": {"android": "https://dc.lft.to/lastmile_qr_scan", "ios": "https://dc.lft.to/lastmile_qr_scan"}, "fusion_lat": 0.0, "is_reserved": 0, "lat": 38.940383833333335, "name": "9aab2ff7d137834a7b069f06e74a4233", "bike_id": "9aab2ff7d137834a7b069f06e74a4233", "is_disabled": 0, "fusion_lon": 0.0, "type": "electric_scooter", "lon": -77.02494983333334}, {"rental_uris": {"android": "https://dc.lft.to/lastmile_qr_scan", "ios": "https://dc.lft.to/lastmile_qr_scan"}, "fusion_lat": 0.0, "is_reserved": 0, "lat": 38.917938166666666, "name": "946161c925b9a9fc1b8990ba807c6242", "bike_id": "946161c925b9a9fc1b8990ba807c6242", "is_disabled": 0, "fusion_lon": 0.0, "type": "electric_scooter", "lon": -77.03174366666667}, {"rental_uris": {"android": "https://dc.lft.to/lastmile_qr_scan", "ios": "https://dc.lft.to/lastmile_qr_scan"}, "fusion_lat": 0.0, "is_reserved": 0, "lat": 38.924686333333334, "name": "84475102adecc9bc48b6817ef513fd8b", "bike_id": "84475102adecc9bc48b6817ef513fd8b", "is_disabled": 0, "fusion_lon": 0.0, "type": "electric_scooter", "lon": -77.022639}, {"rental_uris": {"android": "https://dc.lft.to/lastmile_qr_scan", "ios": "https://dc.lft.to/lastmile_qr_scan"}, "fusion_lat": 0.0, "is_reserved": 0, "lat": 38.92419566666667, "name": "66f95fa24766a6baeadec6e1dd8ca3d2", "bike_id": "66f95fa24766a6baeadec6e1dd8ca3d2", "is_disabled": 0, "fusion_lon": 0.0, "type": "electric_scooter", "lon": -77.01947216666667}, {"rental_uris": {"android": "https://dc.lft.to/lastmile_qr_scan", "ios": "https://dc.lft.to/lastmile_qr_scan"}, "fusion_lat": 0.0, "is_reserved": 0, "lat": 38.898821, "name": "26d4a35fba874276d58cbf31e7d34c1f", "bike_id": "26d4a35fba874276d58cbf31e7d34c1f", "is_disabled": 0, "fusion_lon": 0.0, "type": "electric_scooter", "lon": -76.9883205}, {"rental_uris": {"android": "https://dc.lft.to/lastmile_qr_scan", "ios": "https://dc.lft.to/lastmile_qr_scan"}, "fusion_lat": 0.0, "is_reserved": 0, "lat": 38.8954595, "name": "b56f24d1b9121d339bc92d2c17ba3f8a", "bike_id": "b56f24d1b9121d339bc92d2c17ba3f8a", "is_disabled": 0, "fusion_lon": 0.0, "type": "electric_scooter", "lon": -76.98337516666666}, {"rental_uris": {"android": "https://dc.lft.to/lastmile_qr_scan", "ios": "https://dc.lft.to/lastmile_qr_scan"}, "fusion_lat": 0.0, "is_reserved": 0, "lat": 38.929740333333335, "name": "e118a550b05c74d778c6eb5a6f0497d0", "bike_id": "e118a550b05c74d778c6eb5a6f0497d0", "is_disabled": 0, "fusion_lon": 0.0, "type": "electric_scooter", "lon": -77.02800333333333}, {"rental_uris": {"android": "https://dc.lft.to/lastmile_qr_scan", "ios": "https://dc.lft.to/lastmile_qr_scan"}, "fusion_lat": 0.0, "is_reserved": 0, "lat": 38.952182, "name": "2fbd04aa24116e20e70f486270dbf038", "bike_id": "2fbd04aa24116e20e70f486270dbf038", "is_disabled": 0, "fusion_lon": 0.0, "type": "electric_scooter", "lon": -77.06969}, {"rental_uris": {"android": "https://dc.lft.to/lastmile_qr_scan", "ios": "https://dc.lft.to/lastmile_qr_scan"}, "fusion_lat": 0.0, "is_reserved": 0, "lat": 38.91252583333333, "name": "444d6bd3b5a10101a64a385fae3c1f3d", "bike_id": "444d6bd3b5a10101a64a385fae3c1f3d", "is_disabled": 0, "fusion_lon": 0.0, "type": "electric_scooter", "lon": -77.03439916666666}, {"rental_uris": {"android": "https://dc.lft.to/lastmile_qr_scan", "ios": "https://dc.lft.to/lastmile_qr_scan"}, "fusion_lat": 0.0, "is_reserved": 0, "lat": 38.90034433333334, "name": "bb1b63c1a109ca775afb127109c3e471", "bike_id": "bb1b63c1a109ca775afb127109c3e471", "is_disabled": 0, "fusion_lon": 0.0, "type": "electric_scooter", "lon": -77.011945}, {"rental_uris": {"android": "https://dc.lft.to/lastmile_qr_scan", "ios": "https://dc.lft.to/lastmile_qr_scan"}, "fusion_lat": 0.0, "is_reserved": 0, "lat": 38.80055983333333, "name": "a395274a8d6dce020a46d0cff5b3b286", "bike_id": "a395274a8d6dce020a46d0cff5b3b286", "is_disabled": 0, "fusion_lon": 0.0, "type": "electric_bike", "lon": -77.128374}, {"rental_uris": {"android": "https://dc.lft.to/lastmile_qr_scan", "ios": "https://dc.lft.to/lastmile_qr_scan"}, "fusion_lat": 0.0, "is_reserved": 0, "lat": 38.9164065, "name": "41bef46ddb2c2af09c3cecef18d24ff9", "bike_id": "41bef46ddb2c2af09c3cecef18d24ff9", "is_disabled": 0, "fusion_lon": 0.0, "type": "electric_scooter", "lon": -77.02100616666667}, {"rental_uris": {"android": "https://dc.lft.to/lastmile_qr_scan", "ios": "https://dc.lft.to/lastmile_qr_scan"}, "fusion_lat": 0.0, "is_reserved": 0, "lat": 38.8875755, "name": "676a1592a67b425dee757e11689b3a98", "bike_id": "676a1592a67b425dee757e11689b3a98", "is_disabled": 0, "fusion_lon": 0.0, "type": "electric_bike", "lon": -77.08922283333334}, {"rental_uris": {"android": "https://dc.lft.to/lastmile_qr_scan", "ios": "https://dc.lft.to/lastmile_qr_scan"}, "fusion_lat": 0.0, "is_reserved": 0, "lat": 38.90875316666666, "name": "1da91bbdf16d19dd878e7e0c4180234e", "bike_id": "1da91bbdf16d19dd878e7e0c4180234e", "is_disabled": 0, "fusion_lon": 0.0, "type": "electric_scooter", "lon": -77.03443433333334}, {"rental_uris": {"android": "https://dc.lft.to/lastmile_qr_scan", "ios": "https://dc.lft.to/lastmile_qr_scan"}, "fusion_lat": 0.0, "is_reserved": 0, "lat": 38.894254, "name": "a2a10bba135e8e359037307cbf122bf8", "bike_id": "a2a10bba135e8e359037307cbf122bf8", "is_disabled": 0, "fusion_lon": 0.0, "type": "electric_scooter", "lon": -76.99774383333333}, {"rental_uris": {"android": "https://dc.lft.to/lastmile_qr_scan", "ios": "https://dc.lft.to/lastmile_qr_scan"}, "fusion_lat": 0.0, "is_reserved": 0, "lat": 38.908935666666665, "name": "186da9cb92669f4e8fb5ed6c0dfc8ce8", "bike_id": "186da9cb92669f4e8fb5ed6c0dfc8ce8", "is_disabled": 0, "fusion_lon": 0.0, "type": "electric_scooter", "lon": -77.04390233333334}, {"rental_uris": {"android": "https://dc.lft.to/lastmile_qr_scan", "ios": "https://dc.lft.to/lastmile_qr_scan"}, "fusion_lat": 0.0, "is_reserved": 0, "lat": 38.93104233333333, "name": "45b156cb3329da95d5dcf7808c9cdebc", "bike_id": "45b156cb3329da95d5dcf7808c9cdebc", "is_disabled": 0, "fusion_lon": 0.0, "type": "electric_scooter", "lon": -77.03517666666667}, {"rental_uris": {"android": "https://dc.lft.to/lastmile_qr_scan", "ios": "https://dc.lft.to/lastmile_qr_scan"}, "fusion_lat": 0.0, "is_reserved": 0, "lat": 38.914897333333336, "name": "90b134cbfc1d0bf04b06c9d58b21affd", "bike_id": "90b134cbfc1d0bf04b06c9d58b21affd", "is_disabled": 0, "fusion_lon": 0.0, "type": "electric_scooter", "lon": -77.002182}, {"rental_uris": {"android": "https://dc.lft.to/lastmile_qr_scan", "ios": "https://dc.lft.to/lastmile_qr_scan"}, "fusion_lat": 0.0, "is_reserved": 0, "lat": 38.9044805, "name": "2fdaae6493bc108e2dd423ecce67c573", "bike_id": "2fdaae6493bc108e2dd423ecce67c573", "is_disabled": 0, "fusion_lon": 0.0, "type": "electric_scooter", "lon": -77.06012283333334}, {"rental_uris": {"android": "https://dc.lft.to/lastmile_qr_scan", "ios": "https://dc.lft.to/lastmile_qr_scan"}, "fusion_lat": 0.0, "is_reserved": 0, "lat": 38.943121166666664, "name": "746cdaed60da59fcd721941781c58581", "bike_id": "746cdaed60da59fcd721941781c58581", "is_disabled": 0, "fusion_lon": 0.0, "type": "electric_scooter", "lon": -77.02179066666666}, {"rental_uris": {"android": "https://dc.lft.to/lastmile_qr_scan", "ios": "https://dc.lft.to/lastmile_qr_scan"}, "fusion_lat": 0.0, "is_reserved": 0, "lat": 38.9013775, "name": "93e9d03e5e8e8f366305030d561c7134", "bike_id": "93e9d03e5e8e8f366305030d561c7134", "is_disabled": 0, "fusion_lon": 0.0, "type": "electric_scooter", "lon": -77.00317116666666}, {"rental_uris": {"android": "https://dc.lft.to/lastmile_qr_scan", "ios": "https://dc.lft.to/lastmile_qr_scan"}, "fusion_lat": 0.0, "is_reserved": 0, "lat": 38.92540616666667, "name": "aec2cef915cfe70ed77281720eff1655", "bike_id": "aec2cef915cfe70ed77281720eff1655", "is_disabled": 0, "fusion_lon": 0.0, "type": "electric_scooter", "lon": -77.04049983333333}, {"rental_uris": {"android": "https://dc.lft.to/lastmile_qr_scan", "ios": "https://dc.lft.to/lastmile_qr_scan"}, "fusion_lat": 0.0, "is_reserved": 0, "lat": 38.878393, "name": "cead64264e1eac00fea9b8510dbc0518", "bike_id": "cead64264e1eac00fea9b8510dbc0518", "is_disabled": 0, "fusion_lon": 0.0, "type": "electric_scooter", "lon": -76.98298033333333}, {"rental_uris": {"android": "https://dc.lft.to/lastmile_qr_scan", "ios": "https://dc.lft.to/lastmile_qr_scan"}, "fusion_lat": 0.0, "is_reserved": 0, "lat": 38.90699216666667, "name": "893c431ffaa65ba7ca3a599fc1db99b5", "bike_id": "893c431ffaa65ba7ca3a599fc1db99b5", "is_disabled": 0, "fusion_lon": 0.0, "type": "electric_scooter", "lon": -77.01110933333334}, {"rental_uris": {"android": "https://dc.lft.to/lastmile_qr_scan", "ios": "https://dc.lft.to/lastmile_qr_scan"}, "fusion_lat": 0.0, "is_reserved": 0, "lat": 38.902691833333336, "name": "bac917bedf7897e5f5860ffee5e61b85", "bike_id": "bac917bedf7897e5f5860ffee5e61b85", "is_disabled": 0, "fusion_lon": 0.0, "type": "electric_scooter", "lon": -77.01743716666667}, {"rental_uris": {"android": "https://dc.lft.to/lastmile_qr_scan", "ios": "https://dc.lft.to/lastmile_qr_scan"}, "fusion_lat": 0.0, "is_reserved": 0, "lat": 38.893666333333336, "name": "ee85d3b8d6dc835a8b35881a5e5db208", "bike_id": "ee85d3b8d6dc835a8b35881a5e5db208", "is_disabled": 0, "fusion_lon": 0.0, "type": "electric_scooter", "lon": -76.9863995}, {"rental_uris": {"android": "https://dc.lft.to/lastmile_qr_scan", "ios": "https://dc.lft.to/lastmile_qr_scan"}, "fusion_lat": 0.0, "is_reserved": 0, "lat": 38.99674133333333, "name": "e6dc0413738716a44ca7ea7bbbab29f7", "bike_id": "e6dc0413738716a44ca7ea7bbbab29f7", "is_disabled": 0, "fusion_lon": 0.0, "type": "electric_bike", "lon": -77.0379375}, {"rental_uris": {"android": "https://dc.lft.to/lastmile_qr_scan", "ios": "https://dc.lft.to/lastmile_qr_scan"}, "fusion_lat": 0.0, "is_reserved": 0, "lat": 38.89926633333333, "name": "cebe4bf5253c360fa7cd89e6511c5018", "bike_id": "cebe4bf5253c360fa7cd89e6511c5018", "is_disabled": 0, "fusion_lon": 0.0, "type": "electric_scooter", "lon": -77.02672433333333}, {"rental_uris": {"android": "https://dc.lft.to/lastmile_qr_scan", "ios": "https://dc.lft.to/lastmile_qr_scan"}, "fusion_lat": 0.0, "is_reserved": 0, "lat": 38.920322, "name": "48cfcc045799536d21dfc7160a7e0d12", "bike_id": "48cfcc045799536d21dfc7160a7e0d12", "is_disabled": 0, "fusion_lon": 0.0, "type": "electric_scooter", "lon": -77.01033283333334}, {"rental_uris": {"android": "https://dc.lft.to/lastmile_qr_scan", "ios": "https://dc.lft.to/lastmile_qr_scan"}, "fusion_lat": 0.0, "is_reserved": 0, "lat": 38.9260905, "name": "5291f2f0f5de80b727e60b1a74256b45", "bike_id": "5291f2f0f5de80b727e60b1a74256b45", "is_disabled": 0, "fusion_lon": 0.0, "type": "electric_scooter", "lon": -77.0220965}, {"rental_uris": {"android": "https://dc.lft.to/lastmile_qr_scan", "ios": "https://dc.lft.to/lastmile_qr_scan"}, "fusion_lat": 0.0, "is_reserved": 0, "lat": 38.9216685, "name": "8752dea893f71538ad2662afbadac250", "bike_id": "8752dea893f71538ad2662afbadac250", "is_disabled": 0, "fusion_lon": 0.0, "type": "electric_scooter", "lon": -77.01863733333333}, {"rental_uris": {"android": "https://dc.lft.to/lastmile_qr_scan", "ios": "https://dc.lft.to/lastmile_qr_scan"}, "fusion_lat": 0.0, "is_reserved": 0, "lat": 38.887193, "name": "9aa740e2e50a2cc01b25040ff423c4d3", "bike_id": "9aa740e2e50a2cc01b25040ff423c4d3", "is_disabled": 0, "fusion_lon": 0.0, "type": "electric_scooter", "lon": -77.021825}, {"rental_uris": {"android": "https://dc.lft.to/lastmile_qr_scan", "ios": "https://dc.lft.to/lastmile_qr_scan"}, "fusion_lat": 0.0, "is_reserved": 0, "lat": 38.8974195, "name": "9818c03ebfda146436a0a8674fdefb64", "bike_id": "9818c03ebfda146436a0a8674fdefb64", "is_disabled": 0, "fusion_lon": 0.0, "type": "electric_scooter", "lon": -77.00736883333333}, {"rental_uris": {"android": "https://dc.lft.to/lastmile_qr_scan", "ios": "https://dc.lft.to/lastmile_qr_scan"}, "fusion_lat": 0.0, "is_reserved": 0, "lat": 38.923379833333335, "name": "bb07d2015661283af2c572aea53df50d", "bike_id": "bb07d2015661283af2c572aea53df50d", "is_disabled": 0, "fusion_lon": 0.0, "type": "electric_scooter", "lon": -77.0361575}, {"rental_uris": {"android": "https://dc.lft.to/lastmile_qr_scan", "ios": "https://dc.lft.to/lastmile_qr_scan"}, "fusion_lat": 0.0, "is_reserved": 0, "lat": 38.91801266666667, "name": "c4e0173bf673aef71d231ae76ff339e1", "bike_id": "c4e0173bf673aef71d231ae76ff339e1", "is_disabled": 0, "fusion_lon": 0.0, "type": "electric_scooter", "lon": -77.03147016666667}, {"rental_uris": {"android": "https://dc.lft.to/lastmile_qr_scan", "ios": "https://dc.lft.to/lastmile_qr_scan"}, "fusion_lat": 0.0, "is_reserved": 0, "lat": 38.9338635, "name": "ef7428616f13156c0ac2f1f5ff0574bf", "bike_id": "ef7428616f13156c0ac2f1f5ff0574bf", "is_disabled": 0, "fusion_lon": 0.0, "type": "electric_scooter", "lon": -77.03251316666666}, {"rental_uris": {"android": "https://dc.lft.to/lastmile_qr_scan", "ios": "https://dc.lft.to/lastmile_qr_scan"}, "fusion_lat": 0.0, "is_reserved": 0, "lat": 38.91630516666667, "name": "998dd4b91a5b15b1bb0d96f9ff309fbe", "bike_id": "998dd4b91a5b15b1bb0d96f9ff309fbe", "is_disabled": 0, "fusion_lon": 0.0, "type": "electric_scooter", "lon": -77.03203933333333}, {"rental_uris": {"android": "https://dc.lft.to/lastmile_qr_scan", "ios": "https://dc.lft.to/lastmile_qr_scan"}, "fusion_lat": 0.0, "is_reserved": 0, "lat": 38.9182885, "name": "c74ac94c1b4b29e4deb397dbc195e25f", "bike_id": "c74ac94c1b4b29e4deb397dbc195e25f", "is_disabled": 0, "fusion_lon": 0.0, "type": "electric_scooter", "lon": -77.045611}, {"rental_uris": {"android": "https://dc.lft.to/lastmile_qr_scan", "ios": "https://dc.lft.to/lastmile_qr_scan"}, "fusion_lat": 0.0, "is_reserved": 0, "lat": 38.938640666666664, "name": "0deab4f634078410b1c32852a480b0ad", "bike_id": "0deab4f634078410b1c32852a480b0ad", "is_disabled": 0, "fusion_lon": 0.0, "type": "electric_scooter", "lon": -77.02475483333333}, {"rental_uris": {"android": "https://dc.lft.to/lastmile_qr_scan", "ios": "https://dc.lft.to/lastmile_qr_scan"}, "fusion_lat": 0.0, "is_reserved": 0, "lat": 38.92439566666667, "name": "eb08a4641c3d5aa3f41516557020a157", "bike_id": "eb08a4641c3d5aa3f41516557020a157", "is_disabled": 0, "fusion_lon": 0.0, "type": "electric_scooter", "lon": -77.037863}, {"rental_uris": {"android": "https://dc.lft.to/lastmile_qr_scan", "ios": "https://dc.lft.to/lastmile_qr_scan"}, "fusion_lat": 0.0, "is_reserved": 0, "lat": 38.9059535, "name": "21ba8c27d765f6d4846446815a442e94", "bike_id": "21ba8c27d765f6d4846446815a442e94", "is_disabled": 0, "fusion_lon": 0.0, "type": "electric_bike", "lon": -77.128946}, {"rental_uris": {"android": "https://dc.lft.to/lastmile_qr_scan", "ios": "https://dc.lft.to/lastmile_qr_scan"}, "fusion_lat": 0.0, "is_reserved": 0, "lat": 38.934444166666665, "name": "a6dd7f8cc8f04a6a6d3239d286991cc4", "bike_id": "a6dd7f8cc8f04a6a6d3239d286991cc4", "is_disabled": 0, "fusion_lon": 0.0, "type": "electric_scooter", "lon": -77.02987583333334}, {"rental_uris": {"android": "https://dc.lft.to/lastmile_qr_scan", "ios": "https://dc.lft.to/lastmile_qr_scan"}, "fusion_lat": 0.0, "is_reserved": 0, "lat": 38.8805175, "name": "26f1053474b4af4cbca7f2fd334ca8ab", "bike_id": "26f1053474b4af4cbca7f2fd334ca8ab", "is_disabled": 0, "fusion_lon": 0.0, "type": "electric_scooter", "lon": -77.011798}, {"rental_uris": {"android": "https://dc.lft.to/lastmile_qr_scan", "ios": "https://dc.lft.to/lastmile_qr_scan"}, "fusion_lat": 0.0, "is_reserved": 0, "lat": 38.90603616666667, "name": "dfb11618af148dffb1ad00024a91fade", "bike_id": "dfb11618af148dffb1ad00024a91fade", "is_disabled": 0, "fusion_lon": 0.0, "type": "electric_scooter", "lon": -77.050209}, {"rental_uris": {"android": "https://dc.lft.to/lastmile_qr_scan", "ios": "https://dc.lft.to/lastmile_qr_scan"}, "fusion_lat": 0.0, "is_reserved": 0, "lat": 38.900991833333336, "name": "8f056503e5a4463403be8a7655072ecd", "bike_id": "8f056503e5a4463403be8a7655072ecd", "is_disabled": 0, "fusion_lon": 0.0, "type": "electric_scooter", "lon": -76.9869485}, {"rental_uris": {"android": "https://dc.lft.to/lastmile_qr_scan", "ios": "https://dc.lft.to/lastmile_qr_scan"}, "fusion_lat": 0.0, "is_reserved": 0, "lat": 38.924585, "name": "341a0ca0c7e9bddf154c156d719b7557", "bike_id": "341a0ca0c7e9bddf154c156d719b7557", "is_disabled": 0, "fusion_lon": 0.0, "type": "electric_scooter", "lon": -76.99910433333334}, {"rental_uris": {"android": "https://dc.lft.to/lastmile_qr_scan", "ios": "https://dc.lft.to/lastmile_qr_scan"}, "fusion_lat": 0.0, "is_reserved": 0, "lat": 38.864345666666665, "name": "325addab81578ee2e4ff7ee5bd42c055", "bike_id": "325addab81578ee2e4ff7ee5bd42c055", "is_disabled": 0, "fusion_lon": 0.0, "type": "electric_scooter", "lon": -76.998612}, {"rental_uris": {"android": "https://dc.lft.to/lastmile_qr_scan", "ios": "https://dc.lft.to/lastmile_qr_scan"}, "fusion_lat": 0.0, "is_reserved": 0, "lat": 38.90405766666667, "name": "0337892b183d9468bd323b0b61fd9d6b", "bike_id": "0337892b183d9468bd323b0b61fd9d6b", "is_disabled": 0, "fusion_lon": 0.0, "type": "electric_scooter", "lon": -76.98122}, {"rental_uris": {"android": "https://dc.lft.to/lastmile_qr_scan", "ios": "https://dc.lft.to/lastmile_qr_scan"}, "fusion_lat": 0.0, "is_reserved": 0, "lat": 38.9068955, "name": "9f6fe1c88493d2dab275120260d332ee", "bike_id": "9f6fe1c88493d2dab275120260d332ee", "is_disabled": 0, "fusion_lon": 0.0, "type": "electric_scooter", "lon": -77.01624166666667}, {"rental_uris": {"android": "https://dc.lft.to/lastmile_qr_scan", "ios": "https://dc.lft.to/lastmile_qr_scan"}, "fusion_lat": 0.0, "is_reserved": 0, "lat": 38.90153333333333, "name": "9aa8ef2f91ff735d8812f6adc5456298", "bike_id": "9aa8ef2f91ff735d8812f6adc5456298", "is_disabled": 0, "fusion_lon": 0.0, "type": "electric_scooter", "lon": -77.03191766666667}, {"rental_uris": {"android": "https://dc.lft.to/lastmile_qr_scan", "ios": "https://dc.lft.to/lastmile_qr_scan"}, "fusion_lat": 0.0, "is_reserved": 0, "lat": 38.90831883333333, "name": "548491705a117e6e697f4896b570a631", "bike_id": "548491705a117e6e697f4896b570a631", "is_disabled": 0, "fusion_lon": 0.0, "type": "electric_bike", "lon": -76.94160766666667}, {"rental_uris": {"android": "https://dc.lft.to/lastmile_qr_scan", "ios": "https://dc.lft.to/lastmile_qr_scan"}, "fusion_lat": 0.0, "is_reserved": 0, "lat": 38.90746766666667, "name": "43bdd386dde782073a746250704a0ad9", "bike_id": "43bdd386dde782073a746250704a0ad9", "is_disabled": 0, "fusion_lon": 0.0, "type": "electric_scooter", "lon": -77.008005}, {"rental_uris": {"android": "https://dc.lft.to/lastmile_qr_scan", "ios": "https://dc.lft.to/lastmile_qr_scan"}, "fusion_lat": 0.0, "is_reserved": 0, "lat": 38.92176166666667, "name": "fb20991d7516a09c50a532c45932896b", "bike_id": "fb20991d7516a09c50a532c45932896b", "is_disabled": 0, "fusion_lon": 0.0, "type": "electric_scooter", "lon": -77.03327033333333}, {"rental_uris": {"android": "https://dc.lft.to/lastmile_qr_scan", "ios": "https://dc.lft.to/lastmile_qr_scan"}, "fusion_lat": 0.0, "is_reserved": 0, "lat": 38.92317666666667, "name": "cd679e29852cd4c16dba8e7c428c549a", "bike_id": "cd679e29852cd4c16dba8e7c428c549a", "is_disabled": 0, "fusion_lon": 0.0, "type": "electric_scooter", "lon": -77.04570466666667}, {"rental_uris": {"android": "https://dc.lft.to/lastmile_qr_scan", "ios": "https://dc.lft.to/lastmile_qr_scan"}, "fusion_lat": 0.0, "is_reserved": 0, "lat": 38.89921916666667, "name": "64b918758545981f1b70b30e70219c47", "bike_id": "64b918758545981f1b70b30e70219c47", "is_disabled": 0, "fusion_lon": 0.0, "type": "electric_scooter", "lon": -77.02717216666667}, {"rental_uris": {"android": "https://dc.lft.to/lastmile_qr_scan", "ios": "https://dc.lft.to/lastmile_qr_scan"}, "fusion_lat": 0.0, "is_reserved": 0, "lat": 38.918141166666665, "name": "f66798f9dc30952aaec3b30112c9037a", "bike_id": "f66798f9dc30952aaec3b30112c9037a", "is_disabled": 0, "fusion_lon": 0.0, "type": "electric_scooter", "lon": -77.03638716666667}, {"rental_uris": {"android": "https://dc.lft.to/lastmile_qr_scan", "ios": "https://dc.lft.to/lastmile_qr_scan"}, "fusion_lat": 0.0, "is_reserved": 0, "lat": 38.9013305, "name": "ebbaea12d64384853d3e5fbf98a23f92", "bike_id": "ebbaea12d64384853d3e5fbf98a23f92", "is_disabled": 0, "fusion_lon": 0.0, "type": "electric_scooter", "lon": -77.03780683333333}, {"rental_uris": {"android": "https://dc.lft.to/lastmile_qr_scan", "ios": "https://dc.lft.to/lastmile_qr_scan"}, "fusion_lat": 0.0, "is_reserved": 0, "lat": 38.91807816666667, "name": "2ac7c0c3462afbd1d4be15d62107fc53", "bike_id": "2ac7c0c3462afbd1d4be15d62107fc53", "is_disabled": 0, "fusion_lon": 0.0, "type": "electric_scooter", "lon": -77.0316625}, {"rental_uris": {"android": "https://dc.lft.to/lastmile_qr_scan", "ios": "https://dc.lft.to/lastmile_qr_scan"}, "fusion_lat": 0.0, "is_reserved": 0, "lat": 38.91940783333333, "name": "0b34e637ba01e2941f55bd57c1b35e77", "bike_id": "0b34e637ba01e2941f55bd57c1b35e77", "is_disabled": 0, "fusion_lon": 0.0, "type": "electric_scooter", "lon": -77.04222733333333}, {"rental_uris": {"android": "https://dc.lft.to/lastmile_qr_scan", "ios": "https://dc.lft.to/lastmile_qr_scan"}, "fusion_lat": 0.0, "is_reserved": 0, "lat": 38.921719333333336, "name": "28e30bc7f6f181d641511efd3851b50f", "bike_id": "28e30bc7f6f181d641511efd3851b50f", "is_disabled": 0, "fusion_lon": 0.0, "type": "electric_scooter", "lon": -77.0337995}, {"rental_uris": {"android": "https://dc.lft.to/lastmile_qr_scan", "ios": "https://dc.lft.to/lastmile_qr_scan"}, "fusion_lat": 0.0, "is_reserved": 0, "lat": 38.897717166666666, "name": "a2aeb99ac4e438e411d7d9b45bf7354a", "bike_id": "a2aeb99ac4e438e411d7d9b45bf7354a", "is_disabled": 0, "fusion_lon": 0.0, "type": "electric_scooter", "lon": -77.047816}, {"rental_uris": {"android": "https://dc.lft.to/lastmile_qr_scan", "ios": "https://dc.lft.to/lastmile_qr_scan"}, "fusion_lat": 0.0, "is_reserved": 0, "lat": 38.92480483333333, "name": "837b140768b7a6c0554258621b7efd40", "bike_id": "837b140768b7a6c0554258621b7efd40", "is_disabled": 0, "fusion_lon": 0.0, "type": "electric_scooter", "lon": -77.0521285}, {"rental_uris": {"android": "https://dc.lft.to/lastmile_qr_scan", "ios": "https://dc.lft.to/lastmile_qr_scan"}, "fusion_lat": 0.0, "is_reserved": 0, "lat": 38.9292765, "name": "01ae4f65e15a8739c81169504ee22477", "bike_id": "01ae4f65e15a8739c81169504ee22477", "is_disabled": 0, "fusion_lon": 0.0, "type": "electric_scooter", "lon": -76.998201}, {"rental_uris": {"android": "https://dc.lft.to/lastmile_qr_scan", "ios": "https://dc.lft.to/lastmile_qr_scan"}, "fusion_lat": 0.0, "is_reserved": 0, "lat": 38.907028833333335, "name": "8bac73eac8dfb791bae313d4c1fcdd1c", "bike_id": "8bac73eac8dfb791bae313d4c1fcdd1c", "is_disabled": 0, "fusion_lon": 0.0, "type": "electric_scooter", "lon": -77.02688616666667}, {"rental_uris": {"android": "https://dc.lft.to/lastmile_qr_scan", "ios": "https://dc.lft.to/lastmile_qr_scan"}, "fusion_lat": 0.0, "is_reserved": 0, "lat": 38.92796633333333, "name": "231438daabec70a949e0433d127c16ca", "bike_id": "231438daabec70a949e0433d127c16ca", "is_disabled": 0, "fusion_lon": 0.0, "type": "electric_scooter", "lon": -77.033723}, {"rental_uris": {"android": "https://dc.lft.to/lastmile_qr_scan", "ios": "https://dc.lft.to/lastmile_qr_scan"}, "fusion_lat": 0.0, "is_reserved": 0, "lat": 38.92388183333333, "name": "e6dd1c63be721d0a611760cb4d9389d1", "bike_id": "e6dd1c63be721d0a611760cb4d9389d1", "is_disabled": 0, "fusion_lon": 0.0, "type": "electric_scooter", "lon": -77.02140833333333}, {"rental_uris": {"android": "https://dc.lft.to/lastmile_qr_scan", "ios": "https://dc.lft.to/lastmile_qr_scan"}, "fusion_lat": 0.0, "is_reserved": 0, "lat": 38.92603, "name": "49cfae124abb59c19b459de533436e6a", "bike_id": "49cfae124abb59c19b459de533436e6a", "is_disabled": 0, "fusion_lon": 0.0, "type": "electric_scooter", "lon": -77.021555}, {"rental_uris": {"android": "https://dc.lft.to/lastmile_qr_scan", "ios": "https://dc.lft.to/lastmile_qr_scan"}, "fusion_lat": 0.0, "is_reserved": 0, "lat": 38.8734245, "name": "c2e7b1e43bbf0e4e1521084bfc9a8802", "bike_id": "c2e7b1e43bbf0e4e1521084bfc9a8802", "is_disabled": 0, "fusion_lon": 0.0, "type": "electric_scooter", "lon": -76.99167816666667}, {"rental_uris": {"android": "https://dc.lft.to/lastmile_qr_scan", "ios": "https://dc.lft.to/lastmile_qr_scan"}, "fusion_lat": 0.0, "is_reserved": 0, "lat": 38.893773333333336, "name": "c4c9a4607191da6f6fb571160f73a288", "bike_id": "c4c9a4607191da6f6fb571160f73a288", "is_disabled": 0, "fusion_lon": 0.0, "type": "electric_scooter", "lon": -77.02803483333334}, {"rental_uris": {"android": "https://dc.lft.to/lastmile_qr_scan", "ios": "https://dc.lft.to/lastmile_qr_scan"}, "fusion_lat": 0.0, "is_reserved": 0, "lat": 38.90748383333333, "name": "6aa697391c404dd20f81c3b1a797248a", "bike_id": "6aa697391c404dd20f81c3b1a797248a", "is_disabled": 0, "fusion_lon": 0.0, "type": "electric_scooter", "lon": -76.9975715}, {"rental_uris": {"android": "https://dc.lft.to/lastmile_qr_scan", "ios": "https://dc.lft.to/lastmile_qr_scan"}, "fusion_lat": 0.0, "is_reserved": 0, "lat": 38.9155315, "name": "a1961022f6319213761caf2160c8022f", "bike_id": "a1961022f6319213761caf2160c8022f", "is_disabled": 0, "fusion_lon": 0.0, "type": "electric_scooter", "lon": -77.024391}, {"rental_uris": {"android": "https://dc.lft.to/lastmile_qr_scan", "ios": "https://dc.lft.to/lastmile_qr_scan"}, "fusion_lat": 0.0, "is_reserved": 0, "lat": 38.90254683333333, "name": "8eab2769f03f9137bb4683e8af41ffcb", "bike_id": "8eab2769f03f9137bb4683e8af41ffcb", "is_disabled": 0, "fusion_lon": 0.0, "type": "electric_scooter", "lon": -77.0058865}, {"rental_uris": {"android": "https://dc.lft.to/lastmile_qr_scan", "ios": "https://dc.lft.to/lastmile_qr_scan"}, "fusion_lat": 0.0, "is_reserved": 0, "lat": 38.878576333333335, "name": "64ee3b2656eee57fa88ee2b16c8e27dc", "bike_id": "64ee3b2656eee57fa88ee2b16c8e27dc", "is_disabled": 0, "fusion_lon": 0.0, "type": "electric_scooter", "lon": -77.02220433333333}, {"rental_uris": {"android": "https://dc.lft.to/lastmile_qr_scan", "ios": "https://dc.lft.to/lastmile_qr_scan"}, "fusion_lat": 0.0, "is_reserved": 0, "lat": 38.92655466666667, "name": "4044c2fb47068fa74e9efbd19f59f3b6", "bike_id": "4044c2fb47068fa74e9efbd19f59f3b6", "is_disabled": 0, "fusion_lon": 0.0, "type": "electric_scooter", "lon": -77.03469333333334}, {"rental_uris": {"android": "https://dc.lft.to/lastmile_qr_scan", "ios": "https://dc.lft.to/lastmile_qr_scan"}, "fusion_lat": 0.0, "is_reserved": 0, "lat": 38.9278065, "name": "ec5359c3fa6f2b4ee2bf749548dc7752", "bike_id": "ec5359c3fa6f2b4ee2bf749548dc7752", "is_disabled": 0, "fusion_lon": 0.0, "type": "electric_scooter", "lon": -77.02710866666666}, {"rental_uris": {"android": "https://dc.lft.to/lastmile_qr_scan", "ios": "https://dc.lft.to/lastmile_qr_scan"}, "fusion_lat": 0.0, "is_reserved": 0, "lat": 38.894245, "name": "8400c4a74f7bc8d4905cb3ed7ce9813c", "bike_id": "8400c4a74f7bc8d4905cb3ed7ce9813c", "is_disabled": 0, "fusion_lon": 0.0, "type": "electric_scooter", "lon": -77.02092683333333}, {"rental_uris": {"android": "https://dc.lft.to/lastmile_qr_scan", "ios": "https://dc.lft.to/lastmile_qr_scan"}, "fusion_lat": 0.0, "is_reserved": 0, "lat": 38.904347666666666, "name": "a2139e95d363e1d27760115618460cb3", "bike_id": "a2139e95d363e1d27760115618460cb3", "is_disabled": 0, "fusion_lon": 0.0, "type": "electric_scooter", "lon": -77.02580616666667}, {"rental_uris": {"android": "https://dc.lft.to/lastmile_qr_scan", "ios": "https://dc.lft.to/lastmile_qr_scan"}, "fusion_lat": 0.0, "is_reserved": 0, "lat": 38.91307416666667, "name": "2de942fb9a82bb5d63cecdb89af033e5", "bike_id": "2de942fb9a82bb5d63cecdb89af033e5", "is_disabled": 0, "fusion_lon": 0.0, "type": "electric_scooter", "lon": -77.02329716666667}, {"rental_uris": {"android": "https://dc.lft.to/lastmile_qr_scan", "ios": "https://dc.lft.to/lastmile_qr_scan"}, "fusion_lat": 0.0, "is_reserved": 0, "lat": 38.89968666666667, "name": "13dd2fe30767f15c4af2e807f881823d", "bike_id": "13dd2fe30767f15c4af2e807f881823d", "is_disabled": 0, "fusion_lon": 0.0, "type": "electric_scooter", "lon": -77.0212505}, {"rental_uris": {"android": "https://dc.lft.to/lastmile_qr_scan", "ios": "https://dc.lft.to/lastmile_qr_scan"}, "fusion_lat": 0.0, "is_reserved": 0, "lat": 38.90089066666667, "name": "57c73c546a8a28374dbf8d7ddd200ff3", "bike_id": "57c73c546a8a28374dbf8d7ddd200ff3", "is_disabled": 0, "fusion_lon": 0.0, "type": "electric_scooter", "lon": -77.016073}, {"rental_uris": {"android": "https://dc.lft.to/lastmile_qr_scan", "ios": "https://dc.lft.to/lastmile_qr_scan"}, "fusion_lat": 0.0, "is_reserved": 0, "lat": 38.92841466666667, "name": "2a53f79e584f1fc26404b5950b942285", "bike_id": "2a53f79e584f1fc26404b5950b942285", "is_disabled": 0, "fusion_lon": 0.0, "type": "electric_scooter", "lon": -76.99901516666667}, {"rental_uris": {"android": "https://dc.lft.to/lastmile_qr_scan", "ios": "https://dc.lft.to/lastmile_qr_scan"}, "fusion_lat": 0.0, "is_reserved": 0, "lat": 38.918002, "name": "3481b3217033a5feb05080c143346b68", "bike_id": "3481b3217033a5feb05080c143346b68", "is_disabled": 0, "fusion_lon": 0.0, "type": "electric_scooter", "lon": -77.04012216666666}, {"rental_uris": {"android": "https://dc.lft.to/lastmile_qr_scan", "ios": "https://dc.lft.to/lastmile_qr_scan"}, "fusion_lat": 0.0, "is_reserved": 0, "lat": 38.90111916666667, "name": "3830e3fab5263501591e69aa706a05c5", "bike_id": "3830e3fab5263501591e69aa706a05c5", "is_disabled": 0, "fusion_lon": 0.0, "type": "electric_scooter", "lon": -77.0162585}, {"rental_uris": {"android": "https://dc.lft.to/lastmile_qr_scan", "ios": "https://dc.lft.to/lastmile_qr_scan"}, "fusion_lat": 0.0, "is_reserved": 0, "lat": 38.93385983333334, "name": "f939b0265c3df41bd12a35c1c8f74b37", "bike_id": "f939b0265c3df41bd12a35c1c8f74b37", "is_disabled": 0, "fusion_lon": 0.0, "type": "electric_scooter", "lon": -77.02384066666667}, {"rental_uris": {"android": "https://dc.lft.to/lastmile_qr_scan", "ios": "https://dc.lft.to/lastmile_qr_scan"}, "fusion_lat": 0.0, "is_reserved": 0, "lat": 38.892254, "name": "16b9769bd51b84e866eabef90972a3ec", "bike_id": "16b9769bd51b84e866eabef90972a3ec", "is_disabled": 0, "fusion_lon": 0.0, "type": "electric_scooter", "lon": -77.032037}, {"rental_uris": {"android": "https://dc.lft.to/lastmile_qr_scan", "ios": "https://dc.lft.to/lastmile_qr_scan"}, "fusion_lat": 0.0, "is_reserved": 0, "lat": 38.917294166666665, "name": "0777bb630f80406a8ddaf49e049a9179", "bike_id": "0777bb630f80406a8ddaf49e049a9179", "is_disabled": 0, "fusion_lon": 0.0, "type": "electric_scooter", "lon": -77.06838683333334}, {"rental_uris": {"android": "https://dc.lft.to/lastmile_qr_scan", "ios": "https://dc.lft.to/lastmile_qr_scan"}, "fusion_lat": 0.0, "is_reserved": 0, "lat": 38.9101595, "name": "80aec157000b076395fe8405897832c0", "bike_id": "80aec157000b076395fe8405897832c0", "is_disabled": 0, "fusion_lon": 0.0, "type": "electric_scooter", "lon": -77.04453683333334}, {"rental_uris": {"android": "https://dc.lft.to/lastmile_qr_scan", "ios": "https://dc.lft.to/lastmile_qr_scan"}, "fusion_lat": 0.0, "is_reserved": 0, "lat": 38.897343666666664, "name": "01cc0f8b70b1984b5ce4e95e6e2e8012", "bike_id": "01cc0f8b70b1984b5ce4e95e6e2e8012", "is_disabled": 0, "fusion_lon": 0.0, "type": "electric_scooter", "lon": -77.00773866666667}, {"rental_uris": {"android": "https://dc.lft.to/lastmile_qr_scan", "ios": "https://dc.lft.to/lastmile_qr_scan"}, "fusion_lat": 0.0, "is_reserved": 0, "lat": 38.90390283333333, "name": "d591c93f50c3b9cf9755fe0a99d69d65", "bike_id": "d591c93f50c3b9cf9755fe0a99d69d65", "is_disabled": 0, "fusion_lon": 0.0, "type": "electric_scooter", "lon": -77.00750916666667}, {"rental_uris": {"android": "https://dc.lft.to/lastmile_qr_scan", "ios": "https://dc.lft.to/lastmile_qr_scan"}, "fusion_lat": 0.0, "is_reserved": 0, "lat": 38.92327133333333, "name": "6ce7ecbb9bc45cdeefd7cbd1ed6c84a1", "bike_id": "6ce7ecbb9bc45cdeefd7cbd1ed6c84a1", "is_disabled": 0, "fusion_lon": 0.0, "type": "electric_scooter", "lon": -77.0461215}, {"rental_uris": {"android": "https://dc.lft.to/lastmile_qr_scan", "ios": "https://dc.lft.to/lastmile_qr_scan"}, "fusion_lat": 0.0, "is_reserved": 0, "lat": 38.848968, "name": "578bd1520d71b2d9ac8e4e2d6a7da46c", "bike_id": "578bd1520d71b2d9ac8e4e2d6a7da46c", "is_disabled": 0, "fusion_lon": 0.0, "type": "electric_bike", "lon": -77.07809166666667}, {"rental_uris": {"android": "https://dc.lft.to/lastmile_qr_scan", "ios": "https://dc.lft.to/lastmile_qr_scan"}, "fusion_lat": 0.0, "is_reserved": 0, "lat": 38.92289016666667, "name": "1d8fa28aa9442825a5018a1c5fbc569b", "bike_id": "1d8fa28aa9442825a5018a1c5fbc569b", "is_disabled": 0, "fusion_lon": 0.0, "type": "electric_scooter", "lon": -77.03657066666666}, {"rental_uris": {"android": "https://dc.lft.to/lastmile_qr_scan", "ios": "https://dc.lft.to/lastmile_qr_scan"}, "fusion_lat": 0.0, "is_reserved": 0, "lat": 38.91918483333333, "name": "8e2b0c23a48fbe734b0fd3d9a9985cb8", "bike_id": "8e2b0c23a48fbe734b0fd3d9a9985cb8", "is_disabled": 0, "fusion_lon": 0.0, "type": "electric_scooter", "lon": -77.046421}, {"rental_uris": {"android": "https://dc.lft.to/lastmile_qr_scan", "ios": "https://dc.lft.to/lastmile_qr_scan"}, "fusion_lat": 0.0, "is_reserved": 0, "lat": 38.90792883333334, "name": "cd1d38fcb1852cd3f7e79618ec32ba9a", "bike_id": "cd1d38fcb1852cd3f7e79618ec32ba9a", "is_disabled": 0, "fusion_lon": 0.0, "type": "electric_scooter", "lon": -76.99428516666667}, {"rental_uris": {"android": "https://dc.lft.to/lastmile_qr_scan", "ios": "https://dc.lft.to/lastmile_qr_scan"}, "fusion_lat": 0.0, "is_reserved": 0, "lat": 38.91932716666667, "name": "1168bfcdb5e2c9da295c1a46768cafb8", "bike_id": "1168bfcdb5e2c9da295c1a46768cafb8", "is_disabled": 0, "fusion_lon": 0.0, "type": "electric_scooter", "lon": -77.046184}, {"rental_uris": {"android": "https://dc.lft.to/lastmile_qr_scan", "ios": "https://dc.lft.to/lastmile_qr_scan"}, "fusion_lat": 0.0, "is_reserved": 0, "lat": 38.94304116666667, "name": "da3054cf84832a172f3fe292e9e2d8c0", "bike_id": "da3054cf84832a172f3fe292e9e2d8c0", "is_disabled": 0, "fusion_lon": 0.0, "type": "electric_scooter", "lon": -77.05925083333334}, {"rental_uris": {"android": "https://dc.lft.to/lastmile_qr_scan", "ios": "https://dc.lft.to/lastmile_qr_scan"}, "fusion_lat": 0.0, "is_reserved": 0, "lat": 38.91325033333333, "name": "0d6cec23dff2f6018c98d8ce01d75659", "bike_id": "0d6cec23dff2f6018c98d8ce01d75659", "is_disabled": 0, "fusion_lon": 0.0, "type": "electric_scooter", "lon": -77.01653366666666}, {"rental_uris": {"android": "https://dc.lft.to/lastmile_qr_scan", "ios": "https://dc.lft.to/lastmile_qr_scan"}, "fusion_lat": 0.0, "is_reserved": 0, "lat": 38.803859, "name": "c8aa6c8b93dd376f82ae89fdfddbf0ed", "bike_id": "c8aa6c8b93dd376f82ae89fdfddbf0ed", "is_disabled": 0, "fusion_lon": 0.0, "type": "electric_bike", "lon": -76.98813433333333}, {"rental_uris": {"android": "https://dc.lft.to/lastmile_qr_scan", "ios": "https://dc.lft.to/lastmile_qr_scan"}, "fusion_lat": 0.0, "is_reserved": 0, "lat": 38.906513333333336, "name": "3b770c11c543d825af5f5184c89b5f65", "bike_id": "3b770c11c543d825af5f5184c89b5f65", "is_disabled": 0, "fusion_lon": 0.0, "type": "electric_scooter", "lon": -77.0531915}, {"rental_uris": {"android": "https://dc.lft.to/lastmile_qr_scan", "ios": "https://dc.lft.to/lastmile_qr_scan"}, "fusion_lat": 0.0, "is_reserved": 0, "lat": 38.9182665, "name": "ffe484f02fdd4d1957064be225f6f250", "bike_id": "ffe484f02fdd4d1957064be225f6f250", "is_disabled": 0, "fusion_lon": 0.0, "type": "electric_scooter", "lon": -77.03177533333333}, {"rental_uris": {"android": "https://dc.lft.to/lastmile_qr_scan", "ios": "https://dc.lft.to/lastmile_qr_scan"}, "fusion_lat": 0.0, "is_reserved": 0, "lat": 38.89534066666667, "name": "a3e625ba4233e02d508def4166ee729c", "bike_id": "a3e625ba4233e02d508def4166ee729c", "is_disabled": 0, "fusion_lon": 0.0, "type": "electric_scooter", "lon": -76.94890083333334}, {"rental_uris": {"android": "https://dc.lft.to/lastmile_qr_scan", "ios": "https://dc.lft.to/lastmile_qr_scan"}, "fusion_lat": 0.0, "is_reserved": 0, "lat": 38.90300583333333, "name": "813156ef1ec0ceca58111f0f1d2d5fe6", "bike_id": "813156ef1ec0ceca58111f0f1d2d5fe6", "is_disabled": 0, "fusion_lon": 0.0, "type": "electric_scooter", "lon": -77.04241666666667}, {"rental_uris": {"android": "https://dc.lft.to/lastmile_qr_scan", "ios": "https://dc.lft.to/lastmile_qr_scan"}, "fusion_lat": 0.0, "is_reserved": 0, "lat": 38.8950545, "name": "51f4775b931a74fb9f36234150b32eb1", "bike_id": "51f4775b931a74fb9f36234150b32eb1", "is_disabled": 0, "fusion_lon": 0.0, "type": "electric_scooter", "lon": -76.93475783333334}, {"rental_uris": {"android": "https://dc.lft.to/lastmile_qr_scan", "ios": "https://dc.lft.to/lastmile_qr_scan"}, "fusion_lat": 0.0, "is_reserved": 0, "lat": 38.893681666666666, "name": "b4df839bf8bfbfdf5c6cbde9701e84e8", "bike_id": "b4df839bf8bfbfdf5c6cbde9701e84e8", "is_disabled": 0, "fusion_lon": 0.0, "type": "electric_scooter", "lon": -76.935959}, {"rental_uris": {"android": "https://dc.lft.to/lastmile_qr_scan", "ios": "https://dc.lft.to/lastmile_qr_scan"}, "fusion_lat": 0.0, "is_reserved": 0, "lat": 38.89227133333333, "name": "53a8fc6efce319d2ae4866a38433e5e8", "bike_id": "53a8fc6efce319d2ae4866a38433e5e8", "is_disabled": 0, "fusion_lon": 0.0, "type": "electric_scooter", "lon": -77.04083966666667}, {"rental_uris": {"android": "https://dc.lft.to/lastmile_qr_scan", "ios": "https://dc.lft.to/lastmile_qr_scan"}, "fusion_lat": 0.0, "is_reserved": 0, "lat": 38.86659983333333, "name": "cca25b208b04f5f15d3e412720f2ab4e", "bike_id": "cca25b208b04f5f15d3e412720f2ab4e", "is_disabled": 0, "fusion_lon": 0.0, "type": "electric_scooter", "lon": -76.97908633333333}, {"rental_uris": {"android": "https://dc.lft.to/lastmile_qr_scan", "ios": "https://dc.lft.to/lastmile_qr_scan"}, "fusion_lat": 0.0, "is_reserved": 0, "lat": 38.881074, "name": "a9455fa9aff2f160a5a759bb81679590", "bike_id": "a9455fa9aff2f160a5a759bb81679590", "is_disabled": 0, "fusion_lon": 0.0, "type": "electric_scooter", "lon": -76.9341875}, {"rental_uris": {"android": "https://dc.lft.to/lastmile_qr_scan", "ios": "https://dc.lft.to/lastmile_qr_scan"}, "fusion_lat": 0.0, "is_reserved": 0, "lat": 38.9223715, "name": "db5e108dc561f374df4e0772875e16ff", "bike_id": "db5e108dc561f374df4e0772875e16ff", "is_disabled": 0, "fusion_lon": 0.0, "type": "electric_scooter", "lon": -77.0352095}, {"rental_uris": {"android": "https://dc.lft.to/lastmile_qr_scan", "ios": "https://dc.lft.to/lastmile_qr_scan"}, "fusion_lat": 0.0, "is_reserved": 0, "lat": 38.887401833333335, "name": "dbc60a743d91e648cf704f1bf16b03ff", "bike_id": "dbc60a743d91e648cf704f1bf16b03ff", "is_disabled": 0, "fusion_lon": 0.0, "type": "electric_scooter", "lon": -77.0260115}, {"rental_uris": {"android": "https://dc.lft.to/lastmile_qr_scan", "ios": "https://dc.lft.to/lastmile_qr_scan"}, "fusion_lat": 0.0, "is_reserved": 0, "lat": 38.883031833333334, "name": "37814db7490da9302beeb8403d6b2094", "bike_id": "37814db7490da9302beeb8403d6b2094", "is_disabled": 0, "fusion_lon": 0.0, "type": "electric_scooter", "lon": -76.9485495}, {"rental_uris": {"android": "https://dc.lft.to/lastmile_qr_scan", "ios": "https://dc.lft.to/lastmile_qr_scan"}, "fusion_lat": 0.0, "is_reserved": 0, "lat": 38.90040483333333, "name": "f41ac8e38b87c33e9a4fbf40eaad6a76", "bike_id": "f41ac8e38b87c33e9a4fbf40eaad6a76", "is_disabled": 0, "fusion_lon": 0.0, "type": "electric_scooter", "lon": -76.99662566666666}, {"rental_uris": {"android": "https://dc.lft.to/lastmile_qr_scan", "ios": "https://dc.lft.to/lastmile_qr_scan"}, "fusion_lat": 0.0, "is_reserved": 0, "lat": 38.908263833333336, "name": "dfc812645b428b7e03d0fb9ea0f6037f", "bike_id": "dfc812645b428b7e03d0fb9ea0f6037f", "is_disabled": 0, "fusion_lon": 0.0, "type": "electric_scooter", "lon": -77.0334665}, {"rental_uris": {"android": "https://dc.lft.to/lastmile_qr_scan", "ios": "https://dc.lft.to/lastmile_qr_scan"}, "fusion_lat": 0.0, "is_reserved": 0, "lat": 38.949778, "name": "5a73cc7a5b45b09dc2305fe6e6d5d6e8", "bike_id": "5a73cc7a5b45b09dc2305fe6e6d5d6e8", "is_disabled": 0, "fusion_lon": 0.0, "type": "electric_scooter", "lon": -77.024527}, {"rental_uris": {"android": "https://dc.lft.to/lastmile_qr_scan", "ios": "https://dc.lft.to/lastmile_qr_scan"}, "fusion_lat": 0.0, "is_reserved": 0, "lat": 38.8973125, "name": "2f896ab089ab5eb08037c135edc01d97", "bike_id": "2f896ab089ab5eb08037c135edc01d97", "is_disabled": 0, "fusion_lon": 0.0, "type": "electric_scooter", "lon": -76.94701716666667}, {"rental_uris": {"android": "https://dc.lft.to/lastmile_qr_scan", "ios": "https://dc.lft.to/lastmile_qr_scan"}, "fusion_lat": 0.0, "is_reserved": 0, "lat": 38.89680333333333, "name": "36e136b8eec6662178282b98e65c666f", "bike_id": "36e136b8eec6662178282b98e65c666f", "is_disabled": 0, "fusion_lon": 0.0, "type": "electric_scooter", "lon": -76.94746266666667}, {"rental_uris": {"android": "https://dc.lft.to/lastmile_qr_scan", "ios": "https://dc.lft.to/lastmile_qr_scan"}, "fusion_lat": 0.0, "is_reserved": 0, "lat": 38.88399283333333, "name": "34aac20f26af6c3dd18f570f1c3f1101", "bike_id": "34aac20f26af6c3dd18f570f1c3f1101", "is_disabled": 0, "fusion_lon": 0.0, "type": "electric_scooter", "lon": -76.93042466666667}, {"rental_uris": {"android": "https://dc.lft.to/lastmile_qr_scan", "ios": "https://dc.lft.to/lastmile_qr_scan"}, "fusion_lat": 0.0, "is_reserved": 0, "lat": 38.898082333333335, "name": "60c99cb8d475e879347d813d5aec38d1", "bike_id": "60c99cb8d475e879347d813d5aec38d1", "is_disabled": 0, "fusion_lon": 0.0, "type": "electric_scooter", "lon": -77.05132433333333}, {"rental_uris": {"android": "https://dc.lft.to/lastmile_qr_scan", "ios": "https://dc.lft.to/lastmile_qr_scan"}, "fusion_lat": 0.0, "is_reserved": 0, "lat": 38.92541166666667, "name": "a9736b1055d6c9821bd21d1c610b4c64", "bike_id": "a9736b1055d6c9821bd21d1c610b4c64", "is_disabled": 0, "fusion_lon": 0.0, "type": "electric_scooter", "lon": -77.0341165}, {"rental_uris": {"android": "https://dc.lft.to/lastmile_qr_scan", "ios": "https://dc.lft.to/lastmile_qr_scan"}, "fusion_lat": 0.0, "is_reserved": 0, "lat": 38.936757666666665, "name": "4a314d235ce6fa94d67dbd60d28b8ecd", "bike_id": "4a314d235ce6fa94d67dbd60d28b8ecd", "is_disabled": 0, "fusion_lon": 0.0, "type": "electric_bike", "lon": -76.98991866666667}, {"rental_uris": {"android": "https://dc.lft.to/lastmile_qr_scan", "ios": "https://dc.lft.to/lastmile_qr_scan"}, "fusion_lat": 0.0, "is_reserved": 0, "lat": 38.89456716666667, "name": "84b122e44a3ab06001c7c762927a8861", "bike_id": "84b122e44a3ab06001c7c762927a8861", "is_disabled": 0, "fusion_lon": 0.0, "type": "electric_bike", "lon": -77.19131766666666}, {"rental_uris": {"android": "https://dc.lft.to/lastmile_qr_scan", "ios": "https://dc.lft.to/lastmile_qr_scan"}, "fusion_lat": 0.0, "is_reserved": 0, "lat": 38.94314333333333, "name": "0bcac8fc8954fdc0ef787ea5443cd8ed", "bike_id": "0bcac8fc8954fdc0ef787ea5443cd8ed", "is_disabled": 0, "fusion_lon": 0.0, "type": "electric_scooter", "lon": -77.017532}, {"rental_uris": {"android": "https://dc.lft.to/lastmile_qr_scan", "ios": "https://dc.lft.to/lastmile_qr_scan"}, "fusion_lat": 0.0, "is_reserved": 0, "lat": 38.91010433333334, "name": "0d6b0e4caeb143fe32675da38a6d3d3b", "bike_id": "0d6b0e4caeb143fe32675da38a6d3d3b", "is_disabled": 0, "fusion_lon": 0.0, "type": "electric_scooter", "lon": -77.03840666666666}, {"rental_uris": {"android": "https://dc.lft.to/lastmile_qr_scan", "ios": "https://dc.lft.to/lastmile_qr_scan"}, "fusion_lat": 0.0, "is_reserved": 0, "lat": 38.91223333333333, "name": "f557c286f3949ce5521532a3e1ef26fb", "bike_id": "f557c286f3949ce5521532a3e1ef26fb", "is_disabled": 0, "fusion_lon": 0.0, "type": "electric_scooter", "lon": -77.0320565}, {"rental_uris": {"android": "https://dc.lft.to/lastmile_qr_scan", "ios": "https://dc.lft.to/lastmile_qr_scan"}, "fusion_lat": 0.0, "is_reserved": 0, "lat": 38.900114, "name": "d4bf01db54bb383ee4229360ce7975c0", "bike_id": "d4bf01db54bb383ee4229360ce7975c0", "is_disabled": 0, "fusion_lon": 0.0, "type": "electric_scooter", "lon": -77.04657983333334}, {"rental_uris": {"android": "https://dc.lft.to/lastmile_qr_scan", "ios": "https://dc.lft.to/lastmile_qr_scan"}, "fusion_lat": 0.0, "is_reserved": 0, "lat": 38.892254666666666, "name": "ec302887e4e37bcba84f0c3734197980", "bike_id": "ec302887e4e37bcba84f0c3734197980", "is_disabled": 0, "fusion_lon": 0.0, "type": "electric_scooter", "lon": -77.039814}, {"rental_uris": {"android": "https://dc.lft.to/lastmile_qr_scan", "ios": "https://dc.lft.to/lastmile_qr_scan"}, "fusion_lat": 0.0, "is_reserved": 0, "lat": 38.915474333333336, "name": "b3d81e9d3e8acc7aefaa7da90dc37eed", "bike_id": "b3d81e9d3e8acc7aefaa7da90dc37eed", "is_disabled": 0, "fusion_lon": 0.0, "type": "electric_scooter", "lon": -77.03655383333333}, {"rental_uris": {"android": "https://dc.lft.to/lastmile_qr_scan", "ios": "https://dc.lft.to/lastmile_qr_scan"}, "fusion_lat": 0.0, "is_reserved": 0, "lat": 38.934468833333334, "name": "b2437d974f9fac297cea632c6828c92e", "bike_id": "b2437d974f9fac297cea632c6828c92e", "is_disabled": 0, "fusion_lon": 0.0, "type": "electric_scooter", "lon": -77.029809}, {"rental_uris": {"android": "https://dc.lft.to/lastmile_qr_scan", "ios": "https://dc.lft.to/lastmile_qr_scan"}, "fusion_lat": 0.0, "is_reserved": 0, "lat": 38.879344, "name": "795f438ca6550ccd87287c3549ce609d", "bike_id": "795f438ca6550ccd87287c3549ce609d", "is_disabled": 0, "fusion_lon": 0.0, "type": "electric_scooter", "lon": -77.01684416666667}, {"rental_uris": {"android": "https://dc.lft.to/lastmile_qr_scan", "ios": "https://dc.lft.to/lastmile_qr_scan"}, "fusion_lat": 0.0, "is_reserved": 0, "lat": 38.93021866666667, "name": "7a4bc99e0d6583506ed8faa9d6510b4b", "bike_id": "7a4bc99e0d6583506ed8faa9d6510b4b", "is_disabled": 0, "fusion_lon": 0.0, "type": "electric_scooter", "lon": -77.02327633333333}, {"rental_uris": {"android": "https://dc.lft.to/lastmile_qr_scan", "ios": "https://dc.lft.to/lastmile_qr_scan"}, "fusion_lat": 0.0, "is_reserved": 0, "lat": 38.93500316666667, "name": "b0ac130c3af8ef760d90e6e21b63d177", "bike_id": "b0ac130c3af8ef760d90e6e21b63d177", "is_disabled": 0, "fusion_lon": 0.0, "type": "electric_scooter", "lon": -77.045212}, {"rental_uris": {"android": "https://dc.lft.to/lastmile_qr_scan", "ios": "https://dc.lft.to/lastmile_qr_scan"}, "fusion_lat": 0.0, "is_reserved": 0, "lat": 38.92650833333333, "name": "2b238ad75e465c451a4f20dd8380a442", "bike_id": "2b238ad75e465c451a4f20dd8380a442", "is_disabled": 0, "fusion_lon": 0.0, "type": "electric_scooter", "lon": -77.02468}, {"rental_uris": {"android": "https://dc.lft.to/lastmile_qr_scan", "ios": "https://dc.lft.to/lastmile_qr_scan"}, "fusion_lat": 0.0, "is_reserved": 0, "lat": 38.975001166666665, "name": "918f6a52590550a3c2f5059e534c69af", "bike_id": "918f6a52590550a3c2f5059e534c69af", "is_disabled": 0, "fusion_lon": 0.0, "type": "electric_scooter", "lon": -77.01696783333334}, {"rental_uris": {"android": "https://dc.lft.to/lastmile_qr_scan", "ios": "https://dc.lft.to/lastmile_qr_scan"}, "fusion_lat": 0.0, "is_reserved": 0, "lat": 38.952128333333334, "name": "bebca79a6cb7a05c0444b3e484721794", "bike_id": "bebca79a6cb7a05c0444b3e484721794", "is_disabled": 0, "fusion_lon": 0.0, "type": "electric_bike", "lon": -77.017499}, {"rental_uris": {"android": "https://dc.lft.to/lastmile_qr_scan", "ios": "https://dc.lft.to/lastmile_qr_scan"}, "fusion_lat": 0.0, "is_reserved": 0, "lat": 38.88694183333333, "name": "75bb4adc33484111705295e68dfb0144", "bike_id": "75bb4adc33484111705295e68dfb0144", "is_disabled": 0, "fusion_lon": 0.0, "type": "electric_scooter", "lon": -76.97629983333333}, {"rental_uris": {"android": "https://dc.lft.to/lastmile_qr_scan", "ios": "https://dc.lft.to/lastmile_qr_scan"}, "fusion_lat": 0.0, "is_reserved": 0, "lat": 38.931927333333334, "name": "57d461ab7079be7128d75f8741800bc5", "bike_id": "57d461ab7079be7128d75f8741800bc5", "is_disabled": 0, "fusion_lon": 0.0, "type": "electric_scooter", "lon": -77.02020366666666}, {"rental_uris": {"android": "https://dc.lft.to/lastmile_qr_scan", "ios": "https://dc.lft.to/lastmile_qr_scan"}, "fusion_lat": 0.0, "is_reserved": 0, "lat": 38.9127985, "name": "35c62bda422cd45ef7d3aba491aade8e", "bike_id": "35c62bda422cd45ef7d3aba491aade8e", "is_disabled": 0, "fusion_lon": 0.0, "type": "electric_scooter", "lon": -77.04505566666667}, {"rental_uris": {"android": "https://dc.lft.to/lastmile_qr_scan", "ios": "https://dc.lft.to/lastmile_qr_scan"}, "fusion_lat": 0.0, "is_reserved": 0, "lat": 38.895208, "name": "bed66fd0b7616be9a641bbee952ce16a", "bike_id": "bed66fd0b7616be9a641bbee952ce16a", "is_disabled": 0, "fusion_lon": 0.0, "type": "electric_scooter", "lon": -76.99203483333334}, {"rental_uris": {"android": "https://dc.lft.to/lastmile_qr_scan", "ios": "https://dc.lft.to/lastmile_qr_scan"}, "fusion_lat": 0.0, "is_reserved": 0, "lat": 38.9086, "name": "17a4cd8865494623d9d11dcc6d579077", "bike_id": "17a4cd8865494623d9d11dcc6d579077", "is_disabled": 0, "fusion_lon": 0.0, "type": "electric_scooter", "lon": -76.99116133333334}, {"rental_uris": {"android": "https://dc.lft.to/lastmile_qr_scan", "ios": "https://dc.lft.to/lastmile_qr_scan"}, "fusion_lat": 0.0, "is_reserved": 0, "lat": 38.904974833333334, "name": "315084d4c51bf7ab7c8262ca824d4690", "bike_id": "315084d4c51bf7ab7c8262ca824d4690", "is_disabled": 0, "fusion_lon": 0.0, "type": "electric_scooter", "lon": -77.0484335}, {"rental_uris": {"android": "https://dc.lft.to/lastmile_qr_scan", "ios": "https://dc.lft.to/lastmile_qr_scan"}, "fusion_lat": 0.0, "is_reserved": 0, "lat": 38.916913, "name": "d3527d851b14ba83a081d180f98d2d18", "bike_id": "d3527d851b14ba83a081d180f98d2d18", "is_disabled": 0, "fusion_lon": 0.0, "type": "electric_scooter", "lon": -77.02990183333333}, {"rental_uris": {"android": "https://dc.lft.to/lastmile_qr_scan", "ios": "https://dc.lft.to/lastmile_qr_scan"}, "fusion_lat": 0.0, "is_reserved": 0, "lat": 38.9153905, "name": "df8a908d9f46c08d64570e78298181db", "bike_id": "df8a908d9f46c08d64570e78298181db", "is_disabled": 0, "fusion_lon": 0.0, "type": "electric_scooter", "lon": -77.04456816666666}, {"rental_uris": {"android": "https://dc.lft.to/lastmile_qr_scan", "ios": "https://dc.lft.to/lastmile_qr_scan"}, "fusion_lat": 0.0, "is_reserved": 0, "lat": 38.955736, "name": "31de969d56b58941a3f70db671c61b5c", "bike_id": "31de969d56b58941a3f70db671c61b5c", "is_disabled": 0, "fusion_lon": 0.0, "type": "electric_scooter", "lon": -77.07013666666667}, {"rental_uris": {"android": "https://dc.lft.to/lastmile_qr_scan", "ios": "https://dc.lft.to/lastmile_qr_scan"}, "fusion_lat": 0.0, "is_reserved": 0, "lat": 38.909895666666664, "name": "8fece972839bba93dac89c17ef91684c", "bike_id": "8fece972839bba93dac89c17ef91684c", "is_disabled": 0, "fusion_lon": 0.0, "type": "electric_scooter", "lon": -77.02392716666667}, {"rental_uris": {"android": "https://dc.lft.to/lastmile_qr_scan", "ios": "https://dc.lft.to/lastmile_qr_scan"}, "fusion_lat": 0.0, "is_reserved": 0, "lat": 38.903836166666665, "name": "897adcd86e5ea471ef4ab5a8f33ba31a", "bike_id": "897adcd86e5ea471ef4ab5a8f33ba31a", "is_disabled": 0, "fusion_lon": 0.0, "type": "electric_scooter", "lon": -77.03680866666667}, {"rental_uris": {"android": "https://dc.lft.to/lastmile_qr_scan", "ios": "https://dc.lft.to/lastmile_qr_scan"}, "fusion_lat": 0.0, "is_reserved": 0, "lat": 38.912704833333336, "name": "2586901afa43b5603f8788a2f6f8fe13", "bike_id": "2586901afa43b5603f8788a2f6f8fe13", "is_disabled": 0, "fusion_lon": 0.0, "type": "electric_scooter", "lon": -77.02212333333334}, {"rental_uris": {"android": "https://dc.lft.to/lastmile_qr_scan", "ios": "https://dc.lft.to/lastmile_qr_scan"}, "fusion_lat": 0.0, "is_reserved": 0, "lat": 38.92794583333333, "name": "705e83e30944f36f6030af56c76dbfac", "bike_id": "705e83e30944f36f6030af56c76dbfac", "is_disabled": 0, "fusion_lon": 0.0, "type": "electric_scooter", "lon": -77.053286}, {"rental_uris": {"android": "https://dc.lft.to/lastmile_qr_scan", "ios": "https://dc.lft.to/lastmile_qr_scan"}, "fusion_lat": 0.0, "is_reserved": 0, "lat": 38.892320166666664, "name": "c4673876fc56c6c36a837c5e0d026788", "bike_id": "c4673876fc56c6c36a837c5e0d026788", "is_disabled": 0, "fusion_lon": 0.0, "type": "electric_scooter", "lon": -77.0500405}, {"rental_uris": {"android": "https://dc.lft.to/lastmile_qr_scan", "ios": "https://dc.lft.to/lastmile_qr_scan"}, "fusion_lat": 0.0, "is_reserved": 0, "lat": 38.89787583333333, "name": "c37df136567909fe5a523dbe36856c7a", "bike_id": "c37df136567909fe5a523dbe36856c7a", "is_disabled": 0, "fusion_lon": 0.0, "type": "electric_scooter", "lon": -77.054662}, {"rental_uris": {"android": "https://dc.lft.to/lastmile_qr_scan", "ios": "https://dc.lft.to/lastmile_qr_scan"}, "fusion_lat": 0.0, "is_reserved": 0, "lat": 38.88187416666667, "name": "ed90dec72e109302bf778732249c107d", "bike_id": "ed90dec72e109302bf778732249c107d", "is_disabled": 0, "fusion_lon": 0.0, "type": "electric_scooter", "lon": -76.9902775}, {"rental_uris": {"android": "https://dc.lft.to/lastmile_qr_scan", "ios": "https://dc.lft.to/lastmile_qr_scan"}, "fusion_lat": 0.0, "is_reserved": 0, "lat": 38.91847116666667, "name": "bbea82d20d18ccf0fa310742df12f496", "bike_id": "bbea82d20d18ccf0fa310742df12f496", "is_disabled": 0, "fusion_lon": 0.0, "type": "electric_scooter", "lon": -77.02182683333334}, {"rental_uris": {"android": "https://dc.lft.to/lastmile_qr_scan", "ios": "https://dc.lft.to/lastmile_qr_scan"}, "fusion_lat": 0.0, "is_reserved": 0, "lat": 38.91608933333333, "name": "1a660f381068f8461139484727eb97b8", "bike_id": "1a660f381068f8461139484727eb97b8", "is_disabled": 0, "fusion_lon": 0.0, "type": "electric_scooter", "lon": -77.02299883333333}, {"rental_uris": {"android": "https://dc.lft.to/lastmile_qr_scan", "ios": "https://dc.lft.to/lastmile_qr_scan"}, "fusion_lat": 0.0, "is_reserved": 0, "lat": 38.87298716666667, "name": "c199098b58ed6efca5544a010db26d79", "bike_id": "c199098b58ed6efca5544a010db26d79", "is_disabled": 0, "fusion_lon": 0.0, "type": "electric_scooter", "lon": -77.002294}, {"rental_uris": {"android": "https://dc.lft.to/lastmile_qr_scan", "ios": "https://dc.lft.to/lastmile_qr_scan"}, "fusion_lat": 0.0, "is_reserved": 0, "lat": 38.892223666666666, "name": "a80a7d475a342480e871062f8ffaaee1", "bike_id": "a80a7d475a342480e871062f8ffaaee1", "is_disabled": 0, "fusion_lon": 0.0, "type": "electric_scooter", "lon": -77.03989066666666}, {"rental_uris": {"android": "https://dc.lft.to/lastmile_qr_scan", "ios": "https://dc.lft.to/lastmile_qr_scan"}, "fusion_lat": 0.0, "is_reserved": 0, "lat": 38.9088785, "name": "c5b1db92a4729cffdcfdccb566a2fa03", "bike_id": "c5b1db92a4729cffdcfdccb566a2fa03", "is_disabled": 0, "fusion_lon": 0.0, "type": "electric_scooter", "lon": -77.043825}, {"rental_uris": {"android": "https://dc.lft.to/lastmile_qr_scan", "ios": "https://dc.lft.to/lastmile_qr_scan"}, "fusion_lat": 0.0, "is_reserved": 0, "lat": 38.922416, "name": "1043f3498d29acd1619a433a09bf6f02", "bike_id": "1043f3498d29acd1619a433a09bf6f02", "is_disabled": 0, "fusion_lon": 0.0, "type": "electric_scooter", "lon": -77.03456983333334}, {"rental_uris": {"android": "https://dc.lft.to/lastmile_qr_scan", "ios": "https://dc.lft.to/lastmile_qr_scan"}, "fusion_lat": 0.0, "is_reserved": 0, "lat": 38.9236985, "name": "858be25b24b5eff2ad1f772e5a8f34f6", "bike_id": "858be25b24b5eff2ad1f772e5a8f34f6", "is_disabled": 0, "fusion_lon": 0.0, "type": "electric_scooter", "lon": -77.0298015}, {"rental_uris": {"android": "https://dc.lft.to/lastmile_qr_scan", "ios": "https://dc.lft.to/lastmile_qr_scan"}, "fusion_lat": 0.0, "is_reserved": 0, "lat": 38.92672566666667, "name": "068c314a5810574acc72670fe240cc17", "bike_id": "068c314a5810574acc72670fe240cc17", "is_disabled": 0, "fusion_lon": 0.0, "type": "electric_scooter", "lon": -77.00748266666666}, {"rental_uris": {"android": "https://dc.lft.to/lastmile_qr_scan", "ios": "https://dc.lft.to/lastmile_qr_scan"}, "fusion_lat": 0.0, "is_reserved": 0, "lat": 38.918369, "name": "53e6032e79c928cf2012617fae13c30b", "bike_id": "53e6032e79c928cf2012617fae13c30b", "is_disabled": 0, "fusion_lon": 0.0, "type": "electric_scooter", "lon": -77.022992}, {"rental_uris": {"android": "https://dc.lft.to/lastmile_qr_scan", "ios": "https://dc.lft.to/lastmile_qr_scan"}, "fusion_lat": 0.0, "is_reserved": 0, "lat": 38.895468666666666, "name": "b2c67a5f04330257de97b2df1f72f888", "bike_id": "b2c67a5f04330257de97b2df1f72f888", "is_disabled": 0, "fusion_lon": 0.0, "type": "electric_scooter", "lon": -76.98337266666667}, {"rental_uris": {"android": "https://dc.lft.to/lastmile_qr_scan", "ios": "https://dc.lft.to/lastmile_qr_scan"}, "fusion_lat": 0.0, "is_reserved": 0, "lat": 38.904328666666665, "name": "4e28e1dde40b77bfa6c3c4abb3a5ef6c", "bike_id": "4e28e1dde40b77bfa6c3c4abb3a5ef6c", "is_disabled": 0, "fusion_lon": 0.0, "type": "electric_scooter", "lon": -77.02591016666666}, {"rental_uris": {"android": "https://dc.lft.to/lastmile_qr_scan", "ios": "https://dc.lft.to/lastmile_qr_scan"}, "fusion_lat": 0.0, "is_reserved": 0, "lat": 38.91778433333333, "name": "0bb50b9b74e887caa56d6b21963bf210", "bike_id": "0bb50b9b74e887caa56d6b21963bf210", "is_disabled": 0, "fusion_lon": 0.0, "type": "electric_scooter", "lon": -77.03448266666666}, {"rental_uris": {"android": "https://dc.lft.to/lastmile_qr_scan", "ios": "https://dc.lft.to/lastmile_qr_scan"}, "fusion_lat": 0.0, "is_reserved": 0, "lat": 38.9229735, "name": "daefc0e464b8604ac8794f1bcca3e713", "bike_id": "daefc0e464b8604ac8794f1bcca3e713", "is_disabled": 0, "fusion_lon": 0.0, "type": "electric_scooter", "lon": -77.0414255}, {"rental_uris": {"android": "https://dc.lft.to/lastmile_qr_scan", "ios": "https://dc.lft.to/lastmile_qr_scan"}, "fusion_lat": 0.0, "is_reserved": 0, "lat": 38.913418, "name": "078c963cd95ddded6784e696b1001912", "bike_id": "078c963cd95ddded6784e696b1001912", "is_disabled": 0, "fusion_lon": 0.0, "type": "electric_scooter", "lon": -77.032055}, {"rental_uris": {"android": "https://dc.lft.to/lastmile_qr_scan", "ios": "https://dc.lft.to/lastmile_qr_scan"}, "fusion_lat": 0.0, "is_reserved": 0, "lat": 38.94796, "name": "071502e1a40841b4073c984969bdc619", "bike_id": "071502e1a40841b4073c984969bdc619", "is_disabled": 0, "fusion_lon": 0.0, "type": "electric_bike", "lon": -76.94251983333334}, {"rental_uris": {"android": "https://dc.lft.to/lastmile_qr_scan", "ios": "https://dc.lft.to/lastmile_qr_scan"}, "fusion_lat": 0.0, "is_reserved": 0, "lat": 38.935281, "name": "eba63f24f80c1f5e0cb1727e54fcd1ff", "bike_id": "eba63f24f80c1f5e0cb1727e54fcd1ff", "is_disabled": 0, "fusion_lon": 0.0, "type": "electric_scooter", "lon": -77.03486833333334}, {"rental_uris": {"android": "https://dc.lft.to/lastmile_qr_scan", "ios": "https://dc.lft.to/lastmile_qr_scan"}, "fusion_lat": 0.0, "is_reserved": 0, "lat": 38.94150283333333, "name": "e23838aad338922f2c2db6cf4119fd43", "bike_id": "e23838aad338922f2c2db6cf4119fd43", "is_disabled": 0, "fusion_lon": 0.0, "type": "electric_scooter", "lon": -77.004339}, {"rental_uris": {"android": "https://dc.lft.to/lastmile_qr_scan", "ios": "https://dc.lft.to/lastmile_qr_scan"}, "fusion_lat": 0.0, "is_reserved": 0, "lat": 38.9182065, "name": "635945f681eb341dd2201b2aeee3d6eb", "bike_id": "635945f681eb341dd2201b2aeee3d6eb", "is_disabled": 0, "fusion_lon": 0.0, "type": "electric_scooter", "lon": -77.0315695}, {"rental_uris": {"android": "https://dc.lft.to/lastmile_qr_scan", "ios": "https://dc.lft.to/lastmile_qr_scan"}, "fusion_lat": 0.0, "is_reserved": 0, "lat": 38.9590915, "name": "759fa1f7df138972188a171c08cc3b65", "bike_id": "759fa1f7df138972188a171c08cc3b65", "is_disabled": 0, "fusion_lon": 0.0, "type": "electric_bike", "lon": -76.92516183333333}, {"rental_uris": {"android": "https://dc.lft.to/lastmile_qr_scan", "ios": "https://dc.lft.to/lastmile_qr_scan"}, "fusion_lat": 0.0, "is_reserved": 0, "lat": 38.921744833333335, "name": "fe1537d0ebc2b45732a835c0e75b0822", "bike_id": "fe1537d0ebc2b45732a835c0e75b0822", "is_disabled": 0, "fusion_lon": 0.0, "type": "electric_scooter", "lon": -77.026708}, {"rental_uris": {"android": "https://dc.lft.to/lastmile_qr_scan", "ios": "https://dc.lft.to/lastmile_qr_scan"}, "fusion_lat": 0.0, "is_reserved": 0, "lat": 38.95756933333333, "name": "4b69594513aed83d280da9cdc0d17aa0", "bike_id": "4b69594513aed83d280da9cdc0d17aa0", "is_disabled": 0, "fusion_lon": 0.0, "type": "electric_scooter", "lon": -77.00910933333333}, {"rental_uris": {"android": "https://dc.lft.to/lastmile_qr_scan", "ios": "https://dc.lft.to/lastmile_qr_scan"}, "fusion_lat": 0.0, "is_reserved": 0, "lat": 38.87661833333333, "name": "45b69c63fdf5741ccc62843be2e324a4", "bike_id": "45b69c63fdf5741ccc62843be2e324a4", "is_disabled": 0, "fusion_lon": 0.0, "type": "electric_scooter", "lon": -76.993236}, {"rental_uris": {"android": "https://dc.lft.to/lastmile_qr_scan", "ios": "https://dc.lft.to/lastmile_qr_scan"}, "fusion_lat": 0.0, "is_reserved": 0, "lat": 38.920060166666666, "name": "596fee318bcbd480a90cf988b58d47e0", "bike_id": "596fee318bcbd480a90cf988b58d47e0", "is_disabled": 0, "fusion_lon": 0.0, "type": "electric_scooter", "lon": -77.037804}, {"rental_uris": {"android": "https://dc.lft.to/lastmile_qr_scan", "ios": "https://dc.lft.to/lastmile_qr_scan"}, "fusion_lat": 0.0, "is_reserved": 0, "lat": 38.94369066666667, "name": "72208df65d6b2ff3033eb4157c577953", "bike_id": "72208df65d6b2ff3033eb4157c577953", "is_disabled": 0, "fusion_lon": 0.0, "type": "electric_scooter", "lon": -77.0610215}, {"rental_uris": {"android": "https://dc.lft.to/lastmile_qr_scan", "ios": "https://dc.lft.to/lastmile_qr_scan"}, "fusion_lat": 0.0, "is_reserved": 0, "lat": 38.91179966666667, "name": "27dd6ffe37074e8be7e4c3ff0e3770a4", "bike_id": "27dd6ffe37074e8be7e4c3ff0e3770a4", "is_disabled": 0, "fusion_lon": 0.0, "type": "electric_scooter", "lon": -77.06625533333333}, {"rental_uris": {"android": "https://dc.lft.to/lastmile_qr_scan", "ios": "https://dc.lft.to/lastmile_qr_scan"}, "fusion_lat": 0.0, "is_reserved": 0, "lat": 38.98224833333333, "name": "d2640da07ccc25da6c4667b1d293282b", "bike_id": "d2640da07ccc25da6c4667b1d293282b", "is_disabled": 0, "fusion_lon": 0.0, "type": "electric_scooter", "lon": -77.026439}, {"rental_uris": {"android": "https://dc.lft.to/lastmile_qr_scan", "ios": "https://dc.lft.to/lastmile_qr_scan"}, "fusion_lat": 0.0, "is_reserved": 0, "lat": 38.92507366666667, "name": "8c9797facaa378fdee264c9ecbf1b226", "bike_id": "8c9797facaa378fdee264c9ecbf1b226", "is_disabled": 0, "fusion_lon": 0.0, "type": "electric_scooter", "lon": -77.02166916666667}, {"rental_uris": {"android": "https://dc.lft.to/lastmile_qr_scan", "ios": "https://dc.lft.to/lastmile_qr_scan"}, "fusion_lat": 0.0, "is_reserved": 0, "lat": 38.94411616666667, "name": "18f483852fb67b9e7c938a56ddecd75c", "bike_id": "18f483852fb67b9e7c938a56ddecd75c", "is_disabled": 0, "fusion_lon": 0.0, "type": "electric_scooter", "lon": -77.06323483333334}, {"rental_uris": {"android": "https://dc.lft.to/lastmile_qr_scan", "ios": "https://dc.lft.to/lastmile_qr_scan"}, "fusion_lat": 0.0, "is_reserved": 0, "lat": 38.91608033333333, "name": "48199ef4f72324cb751ae8f5fb24bcdc", "bike_id": "48199ef4f72324cb751ae8f5fb24bcdc", "is_disabled": 0, "fusion_lon": 0.0, "type": "electric_scooter", "lon": -77.0458345}, {"rental_uris": {"android": "https://dc.lft.to/lastmile_qr_scan", "ios": "https://dc.lft.to/lastmile_qr_scan"}, "fusion_lat": 0.0, "is_reserved": 0, "lat": 38.892369333333335, "name": "511988ee7b7da3da6a65b8593b97fa55", "bike_id": "511988ee7b7da3da6a65b8593b97fa55", "is_disabled": 0, "fusion_lon": 0.0, "type": "electric_scooter", "lon": -77.023821}, {"rental_uris": {"android": "https://dc.lft.to/lastmile_qr_scan", "ios": "https://dc.lft.to/lastmile_qr_scan"}, "fusion_lat": 0.0, "is_reserved": 0, "lat": 38.88519466666666, "name": "4ba9cdcc65dfb579e296bb2c49904b3f", "bike_id": "4ba9cdcc65dfb579e296bb2c49904b3f", "is_disabled": 0, "fusion_lon": 0.0, "type": "electric_scooter", "lon": -76.99671833333333}, {"rental_uris": {"android": "https://dc.lft.to/lastmile_qr_scan", "ios": "https://dc.lft.to/lastmile_qr_scan"}, "fusion_lat": 0.0, "is_reserved": 0, "lat": 38.893537, "name": "5a0a101326244d16ecf6c8826f857934", "bike_id": "5a0a101326244d16ecf6c8826f857934", "is_disabled": 0, "fusion_lon": 0.0, "type": "electric_scooter", "lon": -77.01745983333333}, {"rental_uris": {"android": "https://dc.lft.to/lastmile_qr_scan", "ios": "https://dc.lft.to/lastmile_qr_scan"}, "fusion_lat": 0.0, "is_reserved": 0, "lat": 38.935944666666664, "name": "8c3884eb92f254c7251505856abfab7b", "bike_id": "8c3884eb92f254c7251505856abfab7b", "is_disabled": 0, "fusion_lon": 0.0, "type": "electric_scooter", "lon": -77.0336595}, {"rental_uris": {"android": "https://dc.lft.to/lastmile_qr_scan", "ios": "https://dc.lft.to/lastmile_qr_scan"}, "fusion_lat": 0.0, "is_reserved": 0, "lat": 38.9003885, "name": "7338a89254956dfcb80795219086b886", "bike_id": "7338a89254956dfcb80795219086b886", "is_disabled": 0, "fusion_lon": 0.0, "type": "electric_scooter", "lon": -76.988291}, {"rental_uris": {"android": "https://dc.lft.to/lastmile_qr_scan", "ios": "https://dc.lft.to/lastmile_qr_scan"}, "fusion_lat": 0.0, "is_reserved": 0, "lat": 38.917593, "name": "fac45e26a1d3b4c1bc97f288ff7bc634", "bike_id": "fac45e26a1d3b4c1bc97f288ff7bc634", "is_disabled": 0, "fusion_lon": 0.0, "type": "electric_scooter", "lon": -77.0279305}, {"rental_uris": {"android": "https://dc.lft.to/lastmile_qr_scan", "ios": "https://dc.lft.to/lastmile_qr_scan"}, "fusion_lat": 0.0, "is_reserved": 0, "lat": 38.9261545, "name": "49938eb81344972053b21ad88e43cc7e", "bike_id": "49938eb81344972053b21ad88e43cc7e", "is_disabled": 0, "fusion_lon": 0.0, "type": "electric_scooter", "lon": -77.0216095}, {"rental_uris": {"android": "https://dc.lft.to/lastmile_qr_scan", "ios": "https://dc.lft.to/lastmile_qr_scan"}, "fusion_lat": 0.0, "is_reserved": 0, "lat": 38.921728, "name": "ca0f440e32fbfe3027aa93de3e0b48f1", "bike_id": "ca0f440e32fbfe3027aa93de3e0b48f1", "is_disabled": 0, "fusion_lon": 0.0, "type": "electric_scooter", "lon": -77.0266505}, {"rental_uris": {"android": "https://dc.lft.to/lastmile_qr_scan", "ios": "https://dc.lft.to/lastmile_qr_scan"}, "fusion_lat": 0.0, "is_reserved": 0, "lat": 38.8948715, "name": "fa5631e573dc6d1902aaa11dc9dfb689", "bike_id": "fa5631e573dc6d1902aaa11dc9dfb689", "is_disabled": 0, "fusion_lon": 0.0, "type": "electric_scooter", "lon": -76.995742}, {"rental_uris": {"android": "https://dc.lft.to/lastmile_qr_scan", "ios": "https://dc.lft.to/lastmile_qr_scan"}, "fusion_lat": 0.0, "is_reserved": 0, "lat": 38.891307833333336, "name": "da648a12559f148bfecf57d079d1b73c", "bike_id": "da648a12559f148bfecf57d079d1b73c", "is_disabled": 0, "fusion_lon": 0.0, "type": "electric_scooter", "lon": -76.9994665}, {"rental_uris": {"android": "https://dc.lft.to/lastmile_qr_scan", "ios": "https://dc.lft.to/lastmile_qr_scan"}, "fusion_lat": 0.0, "is_reserved": 0, "lat": 38.944993333333336, "name": "405a3b691b5689015c7e44892ee684f1", "bike_id": "405a3b691b5689015c7e44892ee684f1", "is_disabled": 0, "fusion_lon": 0.0, "type": "electric_bike", "lon": -77.005068}, {"rental_uris": {"android": "https://dc.lft.to/lastmile_qr_scan", "ios": "https://dc.lft.to/lastmile_qr_scan"}, "fusion_lat": 0.0, "is_reserved": 0, "lat": 38.919140666666664, "name": "dadbd6604a64d2ec555e1206ef25a872", "bike_id": "dadbd6604a64d2ec555e1206ef25a872", "is_disabled": 0, "fusion_lon": 0.0, "type": "electric_scooter", "lon": -77.0239415}, {"rental_uris": {"android": "https://dc.lft.to/lastmile_qr_scan", "ios": "https://dc.lft.to/lastmile_qr_scan"}, "fusion_lat": 0.0, "is_reserved": 0, "lat": 38.864905666666665, "name": "cc1275196a52204abe12e578decc632d", "bike_id": "cc1275196a52204abe12e578decc632d", "is_disabled": 0, "fusion_lon": 0.0, "type": "electric_scooter", "lon": -76.97746533333333}, {"rental_uris": {"android": "https://dc.lft.to/lastmile_qr_scan", "ios": "https://dc.lft.to/lastmile_qr_scan"}, "fusion_lat": 0.0, "is_reserved": 0, "lat": 38.89788716666666, "name": "0307f6d43b68041d2b551c8f3587a4a6", "bike_id": "0307f6d43b68041d2b551c8f3587a4a6", "is_disabled": 0, "fusion_lon": 0.0, "type": "electric_scooter", "lon": -77.01640483333334}, {"rental_uris": {"android": "https://dc.lft.to/lastmile_qr_scan", "ios": "https://dc.lft.to/lastmile_qr_scan"}, "fusion_lat": 0.0, "is_reserved": 0, "lat": 38.89015166666667, "name": "b823398b8d01e4bc0114266e05e0a847", "bike_id": "b823398b8d01e4bc0114266e05e0a847", "is_disabled": 0, "fusion_lon": 0.0, "type": "electric_scooter", "lon": -76.93735766666667}, {"rental_uris": {"android": "https://dc.lft.to/lastmile_qr_scan", "ios": "https://dc.lft.to/lastmile_qr_scan"}, "fusion_lat": 0.0, "is_reserved": 0, "lat": 38.901477166666666, "name": "54e63a17c0c72362373a8b4c034cfede", "bike_id": "54e63a17c0c72362373a8b4c034cfede", "is_disabled": 0, "fusion_lon": 0.0, "type": "electric_scooter", "lon": -76.98027933333333}, {"rental_uris": {"android": "https://dc.lft.to/lastmile_qr_scan", "ios": "https://dc.lft.to/lastmile_qr_scan"}, "fusion_lat": 0.0, "is_reserved": 0, "lat": 38.91102016666667, "name": "04290188657890e823226b87b056a47d", "bike_id": "04290188657890e823226b87b056a47d", "is_disabled": 0, "fusion_lon": 0.0, "type": "electric_scooter", "lon": -77.07344966666666}, {"rental_uris": {"android": "https://dc.lft.to/lastmile_qr_scan", "ios": "https://dc.lft.to/lastmile_qr_scan"}, "fusion_lat": 0.0, "is_reserved": 0, "lat": 38.943812666666666, "name": "015da143a6b6d13d797f35abe3df0a3b", "bike_id": "015da143a6b6d13d797f35abe3df0a3b", "is_disabled": 0, "fusion_lon": 0.0, "type": "electric_scooter", "lon": -77.060296}, {"rental_uris": {"android": "https://dc.lft.to/lastmile_qr_scan", "ios": "https://dc.lft.to/lastmile_qr_scan"}, "fusion_lat": 0.0, "is_reserved": 0, "lat": 38.91454683333333, "name": "76c50dbde3b3dcdea2edf078c0b22b3c", "bike_id": "76c50dbde3b3dcdea2edf078c0b22b3c", "is_disabled": 0, "fusion_lon": 0.0, "type": "electric_scooter", "lon": -77.02177933333333}, {"rental_uris": {"android": "https://dc.lft.to/lastmile_qr_scan", "ios": "https://dc.lft.to/lastmile_qr_scan"}, "fusion_lat": 0.0, "is_reserved": 0, "lat": 38.88719233333333, "name": "d4fa2c15d53e260ff5b729e87e7577de", "bike_id": "d4fa2c15d53e260ff5b729e87e7577de", "is_disabled": 0, "fusion_lon": 0.0, "type": "electric_scooter", "lon": -77.02184283333334}, {"rental_uris": {"android": "https://dc.lft.to/lastmile_qr_scan", "ios": "https://dc.lft.to/lastmile_qr_scan"}, "fusion_lat": 0.0, "is_reserved": 0, "lat": 38.9346925, "name": "63fe1afdf50967ad00cf56e547b8caab", "bike_id": "63fe1afdf50967ad00cf56e547b8caab", "is_disabled": 0, "fusion_lon": 0.0, "type": "electric_scooter", "lon": -77.041345}, {"rental_uris": {"android": "https://dc.lft.to/lastmile_qr_scan", "ios": "https://dc.lft.to/lastmile_qr_scan"}, "fusion_lat": 0.0, "is_reserved": 0, "lat": 38.898053833333336, "name": "d02f4ab8bb01100b1ec68dc84c044627", "bike_id": "d02f4ab8bb01100b1ec68dc84c044627", "is_disabled": 0, "fusion_lon": 0.0, "type": "electric_scooter", "lon": -77.04614883333333}, {"rental_uris": {"android": "https://dc.lft.to/lastmile_qr_scan", "ios": "https://dc.lft.to/lastmile_qr_scan"}, "fusion_lat": 0.0, "is_reserved": 0, "lat": 38.91417033333333, "name": "06c72bdf48b154ba62c8cc63d10610fe", "bike_id": "06c72bdf48b154ba62c8cc63d10610fe", "is_disabled": 0, "fusion_lon": 0.0, "type": "electric_scooter", "lon": -77.019091}, {"rental_uris": {"android": "https://dc.lft.to/lastmile_qr_scan", "ios": "https://dc.lft.to/lastmile_qr_scan"}, "fusion_lat": 0.0, "is_reserved": 0, "lat": 38.89235083333333, "name": "52ce4aa2751099f52501346e733405a2", "bike_id": "52ce4aa2751099f52501346e733405a2", "is_disabled": 0, "fusion_lon": 0.0, "type": "electric_scooter", "lon": -77.03196216666667}, {"rental_uris": {"android": "https://dc.lft.to/lastmile_qr_scan", "ios": "https://dc.lft.to/lastmile_qr_scan"}, "fusion_lat": 0.0, "is_reserved": 0, "lat": 38.9077995, "name": "32a927bc0ae85f65203aa5199628f35a", "bike_id": "32a927bc0ae85f65203aa5199628f35a", "is_disabled": 0, "fusion_lon": 0.0, "type": "electric_scooter", "lon": -77.03761766666666}, {"rental_uris": {"android": "https://dc.lft.to/lastmile_qr_scan", "ios": "https://dc.lft.to/lastmile_qr_scan"}, "fusion_lat": 0.0, "is_reserved": 0, "lat": 38.922061, "name": "2f407add924439ae01bc4cde08ce8e48", "bike_id": "2f407add924439ae01bc4cde08ce8e48", "is_disabled": 0, "fusion_lon": 0.0, "type": "electric_scooter", "lon": -77.027131}, {"rental_uris": {"android": "https://dc.lft.to/lastmile_qr_scan", "ios": "https://dc.lft.to/lastmile_qr_scan"}, "fusion_lat": 0.0, "is_reserved": 0, "lat": 38.9104555, "name": "6862923770d3f8a6bbc79dca58f22d09", "bike_id": "6862923770d3f8a6bbc79dca58f22d09", "is_disabled": 0, "fusion_lon": 0.0, "type": "electric_scooter", "lon": -77.02190583333334}, {"rental_uris": {"android": "https://dc.lft.to/lastmile_qr_scan", "ios": "https://dc.lft.to/lastmile_qr_scan"}, "fusion_lat": 0.0, "is_reserved": 0, "lat": 38.92232033333333, "name": "ad2d96d97dae8d5b7a46838328db2974", "bike_id": "ad2d96d97dae8d5b7a46838328db2974", "is_disabled": 0, "fusion_lon": 0.0, "type": "electric_scooter", "lon": -77.02331766666667}, {"rental_uris": {"android": "https://dc.lft.to/lastmile_qr_scan", "ios": "https://dc.lft.to/lastmile_qr_scan"}, "fusion_lat": 0.0, "is_reserved": 0, "lat": 38.91493033333333, "name": "b30d072132f617188e380da26f737821", "bike_id": "b30d072132f617188e380da26f737821", "is_disabled": 0, "fusion_lon": 0.0, "type": "electric_scooter", "lon": -77.02183266666667}, {"rental_uris": {"android": "https://dc.lft.to/lastmile_qr_scan", "ios": "https://dc.lft.to/lastmile_qr_scan"}, "fusion_lat": 0.0, "is_reserved": 0, "lat": 38.908327, "name": "4a622524a3ba310ffb140d40cdb35a1e", "bike_id": "4a622524a3ba310ffb140d40cdb35a1e", "is_disabled": 0, "fusion_lon": 0.0, "type": "electric_scooter", "lon": -77.00201066666666}, {"rental_uris": {"android": "https://dc.lft.to/lastmile_qr_scan", "ios": "https://dc.lft.to/lastmile_qr_scan"}, "fusion_lat": 0.0, "is_reserved": 0, "lat": 38.842817333333336, "name": "c6cc51c630a80695c3a69bbef97180b9", "bike_id": "c6cc51c630a80695c3a69bbef97180b9", "is_disabled": 0, "fusion_lon": 0.0, "type": "electric_bike", "lon": -76.98838816666667}, {"rental_uris": {"android": "https://dc.lft.to/lastmile_qr_scan", "ios": "https://dc.lft.to/lastmile_qr_scan"}, "fusion_lat": 0.0, "is_reserved": 0, "lat": 38.9096395, "name": "cf42d0eea187ec9127b3955c5c6084c5", "bike_id": "cf42d0eea187ec9127b3955c5c6084c5", "is_disabled": 0, "fusion_lon": 0.0, "type": "electric_scooter", "lon": -77.0322665}, {"rental_uris": {"android": "https://dc.lft.to/lastmile_qr_scan", "ios": "https://dc.lft.to/lastmile_qr_scan"}, "fusion_lat": 0.0, "is_reserved": 0, "lat": 38.91970883333333, "name": "e44be628760146829a05980bdf86f9df", "bike_id": "e44be628760146829a05980bdf86f9df", "is_disabled": 0, "fusion_lon": 0.0, "type": "electric_scooter", "lon": -77.042217}, {"rental_uris": {"android": "https://dc.lft.to/lastmile_qr_scan", "ios": "https://dc.lft.to/lastmile_qr_scan"}, "fusion_lat": 0.0, "is_reserved": 0, "lat": 38.884412, "name": "7b9008d4ab9efd179ef34c8d77b5afa6", "bike_id": "7b9008d4ab9efd179ef34c8d77b5afa6", "is_disabled": 0, "fusion_lon": 0.0, "type": "electric_scooter", "lon": -77.00347516666666}, {"rental_uris": {"android": "https://dc.lft.to/lastmile_qr_scan", "ios": "https://dc.lft.to/lastmile_qr_scan"}, "fusion_lat": 0.0, "is_reserved": 0, "lat": 38.88884433333333, "name": "faccd29690d9472154b392904232b742", "bike_id": "faccd29690d9472154b392904232b742", "is_disabled": 0, "fusion_lon": 0.0, "type": "electric_scooter", "lon": -76.9903005}, {"rental_uris": {"android": "https://dc.lft.to/lastmile_qr_scan", "ios": "https://dc.lft.to/lastmile_qr_scan"}, "fusion_lat": 0.0, "is_reserved": 0, "lat": 38.9139235, "name": "cdd2cba4662a4059fc3ea393ee679a35", "bike_id": "cdd2cba4662a4059fc3ea393ee679a35", "is_disabled": 0, "fusion_lon": 0.0, "type": "electric_scooter", "lon": -76.98414216666667}, {"rental_uris": {"android": "https://dc.lft.to/lastmile_qr_scan", "ios": "https://dc.lft.to/lastmile_qr_scan"}, "fusion_lat": 0.0, "is_reserved": 0, "lat": 38.908392, "name": "ad02b48f1293491931bd357cf66736d1", "bike_id": "ad02b48f1293491931bd357cf66736d1", "is_disabled": 0, "fusion_lon": 0.0, "type": "electric_scooter", "lon": -77.00375716666667}, {"rental_uris": {"android": "https://dc.lft.to/lastmile_qr_scan", "ios": "https://dc.lft.to/lastmile_qr_scan"}, "fusion_lat": 0.0, "is_reserved": 0, "lat": 38.93515716666667, "name": "4d00d41003dd2e83d453e5870a7e0748", "bike_id": "4d00d41003dd2e83d453e5870a7e0748", "is_disabled": 0, "fusion_lon": 0.0, "type": "electric_scooter", "lon": -77.0328955}, {"rental_uris": {"android": "https://dc.lft.to/lastmile_qr_scan", "ios": "https://dc.lft.to/lastmile_qr_scan"}, "fusion_lat": 0.0, "is_reserved": 0, "lat": 38.98435583333333, "name": "34bec7ca71d19523278a938eea22e288", "bike_id": "34bec7ca71d19523278a938eea22e288", "is_disabled": 0, "fusion_lon": 0.0, "type": "electric_scooter", "lon": -77.02676833333334}, {"rental_uris": {"android": "https://dc.lft.to/lastmile_qr_scan", "ios": "https://dc.lft.to/lastmile_qr_scan"}, "fusion_lat": 0.0, "is_reserved": 0, "lat": 38.898090333333336, "name": "551446c68942271dab087dc09e678b78", "bike_id": "551446c68942271dab087dc09e678b78", "is_disabled": 0, "fusion_lon": 0.0, "type": "electric_bike", "lon": -76.99081516666666}, {"rental_uris": {"android": "https://dc.lft.to/lastmile_qr_scan", "ios": "https://dc.lft.to/lastmile_qr_scan"}, "fusion_lat": 0.0, "is_reserved": 0, "lat": 38.9158335, "name": "2e5187d1673c37ae6cab848776010d0b", "bike_id": "2e5187d1673c37ae6cab848776010d0b", "is_disabled": 0, "fusion_lon": 0.0, "type": "electric_scooter", "lon": -77.01239616666666}, {"rental_uris": {"android": "https://dc.lft.to/lastmile_qr_scan", "ios": "https://dc.lft.to/lastmile_qr_scan"}, "fusion_lat": 0.0, "is_reserved": 0, "lat": 38.92293216666667, "name": "2b4b2962396e829ec3969dabbfb3c563", "bike_id": "2b4b2962396e829ec3969dabbfb3c563", "is_disabled": 0, "fusion_lon": 0.0, "type": "electric_scooter", "lon": -76.99777583333334}, {"rental_uris": {"android": "https://dc.lft.to/lastmile_qr_scan", "ios": "https://dc.lft.to/lastmile_qr_scan"}, "fusion_lat": 0.0, "is_reserved": 0, "lat": 38.91449383333333, "name": "1c9551471c957aa3ec11d1fc3d53e686", "bike_id": "1c9551471c957aa3ec11d1fc3d53e686", "is_disabled": 0, "fusion_lon": 0.0, "type": "electric_bike", "lon": -76.9728165}, {"rental_uris": {"android": "https://dc.lft.to/lastmile_qr_scan", "ios": "https://dc.lft.to/lastmile_qr_scan"}, "fusion_lat": 0.0, "is_reserved": 0, "lat": 38.87921266666667, "name": "8af9447367f3c297258fc3193987ffcf", "bike_id": "8af9447367f3c297258fc3193987ffcf", "is_disabled": 0, "fusion_lon": 0.0, "type": "electric_scooter", "lon": -77.02153716666666}, {"rental_uris": {"android": "https://dc.lft.to/lastmile_qr_scan", "ios": "https://dc.lft.to/lastmile_qr_scan"}, "fusion_lat": 0.0, "is_reserved": 0, "lat": 38.943839, "name": "b63741943aad2b9d47ad52a3382c3251", "bike_id": "b63741943aad2b9d47ad52a3382c3251", "is_disabled": 0, "fusion_lon": 0.0, "type": "electric_bike", "lon": -77.0235095}, {"rental_uris": {"android": "https://dc.lft.to/lastmile_qr_scan", "ios": "https://dc.lft.to/lastmile_qr_scan"}, "fusion_lat": 0.0, "is_reserved": 0, "lat": 38.913225, "name": "a23223d7c7e85b5708b084b070256006", "bike_id": "a23223d7c7e85b5708b084b070256006", "is_disabled": 0, "fusion_lon": 0.0, "type": "electric_scooter", "lon": -77.015007}, {"rental_uris": {"android": "https://dc.lft.to/lastmile_qr_scan", "ios": "https://dc.lft.to/lastmile_qr_scan"}, "fusion_lat": 0.0, "is_reserved": 0, "lat": 38.892237333333334, "name": "c836bcb355a77588f5cd2f11ab98b7ed", "bike_id": "c836bcb355a77588f5cd2f11ab98b7ed", "is_disabled": 0, "fusion_lon": 0.0, "type": "electric_scooter", "lon": -77.04505583333334}, {"rental_uris": {"android": "https://dc.lft.to/lastmile_qr_scan", "ios": "https://dc.lft.to/lastmile_qr_scan"}, "fusion_lat": 0.0, "is_reserved": 0, "lat": 38.914281, "name": "9311bc5b2567133a3ae88acf693d96d9", "bike_id": "9311bc5b2567133a3ae88acf693d96d9", "is_disabled": 0, "fusion_lon": 0.0, "type": "electric_scooter", "lon": -77.03208383333333}, {"rental_uris": {"android": "https://dc.lft.to/lastmile_qr_scan", "ios": "https://dc.lft.to/lastmile_qr_scan"}, "fusion_lat": 0.0, "is_reserved": 0, "lat": 38.899073666666666, "name": "c381f5676c21e53064ba0c5a2b67034e", "bike_id": "c381f5676c21e53064ba0c5a2b67034e", "is_disabled": 0, "fusion_lon": 0.0, "type": "electric_scooter", "lon": -76.98000083333334}, {"rental_uris": {"android": "https://dc.lft.to/lastmile_qr_scan", "ios": "https://dc.lft.to/lastmile_qr_scan"}, "fusion_lat": 0.0, "is_reserved": 0, "lat": 38.919251333333335, "name": "e826adafb7bb572bf1de71f6ee215597", "bike_id": "e826adafb7bb572bf1de71f6ee215597", "is_disabled": 0, "fusion_lon": 0.0, "type": "electric_scooter", "lon": -77.07272283333333}, {"rental_uris": {"android": "https://dc.lft.to/lastmile_qr_scan", "ios": "https://dc.lft.to/lastmile_qr_scan"}, "fusion_lat": 0.0, "is_reserved": 0, "lat": 38.9110495, "name": "06671717134c0e3f78c8c75a6852791d", "bike_id": "06671717134c0e3f78c8c75a6852791d", "is_disabled": 0, "fusion_lon": 0.0, "type": "electric_scooter", "lon": -77.021843}, {"rental_uris": {"android": "https://dc.lft.to/lastmile_qr_scan", "ios": "https://dc.lft.to/lastmile_qr_scan"}, "fusion_lat": 0.0, "is_reserved": 0, "lat": 38.921547333333336, "name": "afbc42b47c69c6e0d5f6f35deb3de00a", "bike_id": "afbc42b47c69c6e0d5f6f35deb3de00a", "is_disabled": 0, "fusion_lon": 0.0, "type": "electric_scooter", "lon": -77.02095616666666}, {"rental_uris": {"android": "https://dc.lft.to/lastmile_qr_scan", "ios": "https://dc.lft.to/lastmile_qr_scan"}, "fusion_lat": 0.0, "is_reserved": 0, "lat": 38.907283666666665, "name": "de8bccbb221e3e926880ea12aa2ba432", "bike_id": "de8bccbb221e3e926880ea12aa2ba432", "is_disabled": 0, "fusion_lon": 0.0, "type": "electric_scooter", "lon": -77.03271816666667}, {"rental_uris": {"android": "https://dc.lft.to/lastmile_qr_scan", "ios": "https://dc.lft.to/lastmile_qr_scan"}, "fusion_lat": 0.0, "is_reserved": 0, "lat": 38.925175833333334, "name": "728874f2d57e09aa4b619287f9296d8f", "bike_id": "728874f2d57e09aa4b619287f9296d8f", "is_disabled": 0, "fusion_lon": 0.0, "type": "electric_scooter", "lon": -77.02317683333334}, {"rental_uris": {"android": "https://dc.lft.to/lastmile_qr_scan", "ios": "https://dc.lft.to/lastmile_qr_scan"}, "fusion_lat": 0.0, "is_reserved": 0, "lat": 38.87677933333333, "name": "51963a257e527b3a6f84f598731a590d", "bike_id": "51963a257e527b3a6f84f598731a590d", "is_disabled": 0, "fusion_lon": 0.0, "type": "electric_scooter", "lon": -77.00707166666666}, {"rental_uris": {"android": "https://dc.lft.to/lastmile_qr_scan", "ios": "https://dc.lft.to/lastmile_qr_scan"}, "fusion_lat": 0.0, "is_reserved": 0, "lat": 38.920749, "name": "1ca3bade65a6f0dad9950112530a9923", "bike_id": "1ca3bade65a6f0dad9950112530a9923", "is_disabled": 0, "fusion_lon": 0.0, "type": "electric_scooter", "lon": -77.0231675}, {"rental_uris": {"android": "https://dc.lft.to/lastmile_qr_scan", "ios": "https://dc.lft.to/lastmile_qr_scan"}, "fusion_lat": 0.0, "is_reserved": 0, "lat": 38.9086875, "name": "b316fb8bee3f2e85fc66f3609d63e5b0", "bike_id": "b316fb8bee3f2e85fc66f3609d63e5b0", "is_disabled": 0, "fusion_lon": 0.0, "type": "electric_scooter", "lon": -77.0236025}, {"rental_uris": {"android": "https://dc.lft.to/lastmile_qr_scan", "ios": "https://dc.lft.to/lastmile_qr_scan"},