{"data": {"bikes": [{"is_disabled": 0, "fusion_lat": 0.0, "lat": 38.927990666666666, "type": "electric_scooter", "lon": -77.02725216666667, "is_reserved": 0, "fusion_lon": 0.0, "bike_id": "5be2ded25f327a50cefdc245871792ab", "name": "5be2ded25f327a50cefdc245871792ab", "rental_uris": {"ios": "https://dc.lft.to/lastmile_qr_scan", "android": "https://dc.lft.to/lastmile_qr_scan"}}, {"is_disabled": 0, "fusion_lat": 0.0, "lat": 38.91705316666667, "type": "electric_scooter", "lon": -77.03103666666667, "is_reserved": 0, "fusion_lon": 0.0, "bike_id": "ae6668db98bed523964d40cc49f682b8", "name": "ae6668db98bed523964d40cc49f682b8", "rental_uris": {"ios": "https://dc.lft.to/lastmile_qr_scan", "android": "https://dc.lft.to/lastmile_qr_scan"}}, {"is_disabled": 0, "fusion_lat": 0.0, "lat": 38.88576, "type": "electric_scooter", "lon": -77.01542283333333, "is_reserved": 0, "fusion_lon": 0.0, "bike_id": "65c3845576e0ba485531b8eca4161b08", "name": "65c3845576e0ba485531b8eca4161b08", "rental_uris": {"ios": "https://dc.lft.to/lastmile_qr_scan", "android": "https://dc.lft.to/lastmile_qr_scan"}}, {"is_disabled": 0, "fusion_lat": 0.0, "lat": 38.928446666666666, "type": "electric_scooter", "lon": -77.05502666666666, "is_reserved": 0, "fusion_lon": 0.0, "bike_id": "6e3ecc0615437fc2ec659d82cf05a819", "name": "6e3ecc0615437fc2ec659d82cf05a819", "rental_uris": {"ios": "https://dc.lft.to/lastmile_qr_scan", "android": "https://dc.lft.to/lastmile_qr_scan"}}, {"is_disabled": 0, "fusion_lat": 0.0, "lat": 38.900025, "type": "electric_scooter", "lon": -77.0335985, "is_reserved": 0, "fusion_lon": 0.0, "bike_id": "45a95aadcfe00eec557773ce5b55df4b", "name": "45a95aadcfe00eec557773ce5b55df4b", "rental_uris": {"ios": "https://dc.lft.to/lastmile_qr_scan", "android": "https://dc.lft.to/lastmile_qr_scan"}}, {"is_disabled": 0, "fusion_lat": 0.0, "lat": 38.88447683333333, "type": "electric_scooter", "lon": -77.02560583333333, "is_reserved": 0, "fusion_lon": 0.0, "bike_id": "91552f20e88cb15241798160c2f55131", "name": "91552f20e88cb15241798160c2f55131", "rental_uris": {"ios": "https://dc.lft.to/lastmile_qr_scan", "android": "https://dc.lft.to/lastmile_qr_scan"}}, {"is_disabled": 0, "fusion_lat": 0.0, "lat": 38.916439, "type": "electric_scooter", "lon": -77.0322345, "is_reserved": 0, "fusion_lon": 0.0, "bike_id": "0b4e939076b480db0966457e1860d3c5", "name": "0b4e939076b480db0966457e1860d3c5", "rental_uris": {"ios": "https://dc.lft.to/lastmile_qr_scan", "android": "https://dc.lft.to/lastmile_qr_scan"}}, {"is_disabled": 0, "fusion_lat": 0.0, "lat": 38.92173566666666, "type": "electric_scooter", "lon": -77.0423115, "is_reserved": 0, "fusion_lon": 0.0, "bike_id": "c2fe3a271c1a352300234cc11f98fc9a", "name": "c2fe3a271c1a352300234cc11f98fc9a", "rental_uris": {"ios": "https://dc.lft.to/lastmile_qr_scan", "android": "https://dc.lft.to/lastmile_qr_scan"}}, {"is_disabled": 0, "fusion_lat": 0.0, "lat": 38.924882, "type": "electric_scooter", "lon": -77.02843233333333, "is_reserved": 0, "fusion_lon": 0.0, "bike_id": "8d869af5d163f84c430e5eee41e68b97", "name": "8d869af5d163f84c430e5eee41e68b97", "rental_uris": {"ios": "https://dc.lft.to/lastmile_qr_scan", "android": "https://dc.lft.to/lastmile_qr_scan"}}, {"is_disabled": 0, "fusion_lat": 0.0, "lat": 38.920142, "type": "electric_scooter", "lon": -77.07119966666667, "is_reserved": 0, "fusion_lon": 0.0, "bike_id": "3770a4a9c1a8eadb2cd4fba567b731b1", "name": "3770a4a9c1a8eadb2cd4fba567b731b1", "rental_uris": {"ios": "https://dc.lft.to/lastmile_qr_scan", "android": "https://dc.lft.to/lastmile_qr_scan"}}, {"is_disabled": 0, "fusion_lat": 0.0, "lat": 38.918876, "type": "electric_scooter", "lon": -77.03542233333333, "is_reserved": 0, "fusion_lon": 0.0, "bike_id": "47f1774b79d470ff8e65c0bbc0229989", "name": "47f1774b79d470ff8e65c0bbc0229989", "rental_uris": {"ios": "https://dc.lft.to/lastmile_qr_scan", "android": "https://dc.lft.to/lastmile_qr_scan"}}, {"is_disabled": 0, "fusion_lat": 0.0, "lat": 38.9257665, "type": "electric_scooter", "lon": -77.03923916666666, "is_reserved": 0, "fusion_lon": 0.0, "bike_id": "7d8aab10bb249489c297b468a52842e2", "name": "7d8aab10bb249489c297b468a52842e2", "rental_uris": {"ios": "https://dc.lft.to/lastmile_qr_scan", "android": "https://dc.lft.to/lastmile_qr_scan"}}, {"is_disabled": 0, "fusion_lat": 0.0, "lat": 38.876374166666665, "type": "electric_scooter", "lon": -77.01642416666667, "is_reserved": 0, "fusion_lon": 0.0, "bike_id": "e86306fe4663bfb0821bd73e6ba2fd68", "name": "e86306fe4663bfb0821bd73e6ba2fd68", "rental_uris": {"ios": "https://dc.lft.to/lastmile_qr_scan", "android": "https://dc.lft.to/lastmile_qr_scan"}}, {"is_disabled": 0, "fusion_lat": 0.0, "lat": 38.94052116666667, "type": "electric_scooter", "lon": -77.092717, "is_reserved": 0, "fusion_lon": 0.0, "bike_id": "074e4db825b868a6872dc3a46b97984b", "name": "074e4db825b868a6872dc3a46b97984b", "rental_uris": {"ios": "https://dc.lft.to/lastmile_qr_scan", "android": "https://dc.lft.to/lastmile_qr_scan"}}, {"is_disabled": 0, "fusion_lat": 0.0, "lat": 38.90144733333333, "type": "electric_scooter", "lon": -77.01808933333334, "is_reserved": 0, "fusion_lon": 0.0, "bike_id": "ae1895a0926f7fa75c37fb407a3b7b8d", "name": "ae1895a0926f7fa75c37fb407a3b7b8d", "rental_uris": {"ios": "https://dc.lft.to/lastmile_qr_scan", "android": "https://dc.lft.to/lastmile_qr_scan"}}, {"is_disabled": 0, "fusion_lat": 0.0, "lat": 38.916722, "type": "electric_scooter", "lon": -77.00664983333333, "is_reserved": 0, "fusion_lon": 0.0, "bike_id": "31b4f7dbc5de71bcd46b9c95b4658380", "name": "31b4f7dbc5de71bcd46b9c95b4658380", "rental_uris": {"ios": "https://dc.lft.to/lastmile_qr_scan", "android": "https://dc.lft.to/lastmile_qr_scan"}}, {"is_disabled": 0, "fusion_lat": 0.0, "lat": 38.842937166666665, "type": "electric_scooter", "lon": -76.99951316666667, "is_reserved": 0, "fusion_lon": 0.0, "bike_id": "bb76724ce59006c11c6dc3511a6190c6", "name": "bb76724ce59006c11c6dc3511a6190c6", "rental_uris": {"ios": "https://dc.lft.to/lastmile_qr_scan", "android": "https://dc.lft.to/lastmile_qr_scan"}}, {"is_disabled": 0, "fusion_lat": 0.0, "lat": 38.9737095, "type": "electric_scooter", "lon": -77.01861766666667, "is_reserved": 0, "fusion_lon": 0.0, "bike_id": "97bf8d961d99c9137a6e26fb0acb3f97", "name": "97bf8d961d99c9137a6e26fb0acb3f97", "rental_uris": {"ios": "https://dc.lft.to/lastmile_qr_scan", "android": "https://dc.lft.to/lastmile_qr_scan"}}, {"is_disabled": 0, "fusion_lat": 0.0, "lat": 38.914713, "type": "electric_scooter", "lon": -77.03873483333334, "is_reserved": 0, "fusion_lon": 0.0, "bike_id": "c7882350682f0caea87f8d00e9f32a75", "name": "c7882350682f0caea87f8d00e9f32a75", "rental_uris": {"ios": "https://dc.lft.to/lastmile_qr_scan", "android": "https://dc.lft.to/lastmile_qr_scan"}}, {"is_disabled": 0, "fusion_lat": 0.0, "lat": 38.919879333333334, "type": "electric_scooter", "lon": -77.04162183333334, "is_reserved": 0, "fusion_lon": 0.0, "bike_id": "8de6536df5d2a0e3e9a79646b6fdaacd", "name": "8de6536df5d2a0e3e9a79646b6fdaacd", "rental_uris": {"ios": "https://dc.lft.to/lastmile_qr_scan", "android": "https://dc.lft.to/lastmile_qr_scan"}}, {"is_disabled": 0, "fusion_lat": 0.0, "lat": 38.86706383333333, "type": "electric_scooter", "lon": -76.98726816666667, "is_reserved": 0, "fusion_lon": 0.0, "bike_id": "38a7b37d147e246a1cbe117df1e00b02", "name": "38a7b37d147e246a1cbe117df1e00b02", "rental_uris": {"ios": "https://dc.lft.to/lastmile_qr_scan", "android": "https://dc.lft.to/lastmile_qr_scan"}}, {"is_disabled": 0, "fusion_lat": 0.0, "lat": 38.902706, "type": "electric_scooter", "lon": -77.017342, "is_reserved": 0, "fusion_lon": 0.0, "bike_id": "35ad70f3bd923ef21d15718dcf654ad4", "name": "35ad70f3bd923ef21d15718dcf654ad4", "rental_uris": {"ios": "https://dc.lft.to/lastmile_qr_scan", "android": "https://dc.lft.to/lastmile_qr_scan"}}, {"is_disabled": 0, "fusion_lat": 0.0, "lat": 38.910478166666664, "type": "electric_scooter", "lon": -77.01000216666667, "is_reserved": 0, "fusion_lon": 0.0, "bike_id": "a7679cf3a23b799be5c87f09dd519d63", "name": "a7679cf3a23b799be5c87f09dd519d63", "rental_uris": {"ios": "https://dc.lft.to/lastmile_qr_scan", "android": "https://dc.lft.to/lastmile_qr_scan"}}, {"is_disabled": 0, "fusion_lat": 0.0, "lat": 38.89823066666666, "type": "electric_scooter", "lon": -77.0315285, "is_reserved": 0, "fusion_lon": 0.0, "bike_id": "ffc5032ec669de4c71f4cab6b162cb26", "name": "ffc5032ec669de4c71f4cab6b162cb26", "rental_uris": {"ios": "https://dc.lft.to/lastmile_qr_scan", "android": "https://dc.lft.to/lastmile_qr_scan"}}, {"is_disabled": 0, "fusion_lat": 0.0, "lat": 38.86980416666667, "type": "electric_bike", "lon": -76.95988483333333, "is_reserved": 0, "fusion_lon": 0.0, "bike_id": "df2bf5aebf400b1eebb6c15f3074754c", "name": "df2bf5aebf400b1eebb6c15f3074754c", "rental_uris": {"ios": "https://dc.lft.to/lastmile_qr_scan", "android": "https://dc.lft.to/lastmile_qr_scan"}}, {"is_disabled": 0, "fusion_lat": 0.0, "lat": 38.879019, "type": "electric_scooter", "lon": -77.00568333333334, "is_reserved": 0, "fusion_lon": 0.0, "bike_id": "88d49afc575476bb88ff36b9f917479f", "name": "88d49afc575476bb88ff36b9f917479f", "rental_uris": {"ios": "https://dc.lft.to/lastmile_qr_scan", "android": "https://dc.lft.to/lastmile_qr_scan"}}, {"is_disabled": 0, "fusion_lat": 0.0, "lat": 38.884946, "type": "electric_scooter", "lon": -77.00711083333333, "is_reserved": 0, "fusion_lon": 0.0, "bike_id": "5e44bab218c488ff164f91daeffa464a", "name": "5e44bab218c488ff164f91daeffa464a", "rental_uris": {"ios": "https://dc.lft.to/lastmile_qr_scan", "android": "https://dc.lft.to/lastmile_qr_scan"}}, {"is_disabled": 0, "fusion_lat": 0.0, "lat": 38.806197, "type": "electric_bike", "lon": -77.0634645, "is_reserved": 0, "fusion_lon": 0.0, "bike_id": "276504e93cbc0769c63e6dac5cd87715", "name": "276504e93cbc0769c63e6dac5cd87715", "rental_uris": {"ios": "https://dc.lft.to/lastmile_qr_scan", "android": "https://dc.lft.to/lastmile_qr_scan"}}, {"is_disabled": 0, "fusion_lat": 0.0, "lat": 38.881832, "type": "electric_scooter", "lon": -77.02076783333334, "is_reserved": 0, "fusion_lon": 0.0, "bike_id": "ccaa86dde3a5f8937429827d152ecad4", "name": "ccaa86dde3a5f8937429827d152ecad4", "rental_uris": {"ios": "https://dc.lft.to/lastmile_qr_scan", "android": "https://dc.lft.to/lastmile_qr_scan"}}, {"is_disabled": 0, "fusion_lat": 0.0, "lat": 38.93241116666667, "type": "electric_scooter", "lon": -77.03279233333333, "is_reserved": 0, "fusion_lon": 0.0, "bike_id": "b651fb6dfba5a0907ec4565f272f4383", "name": "b651fb6dfba5a0907ec4565f272f4383", "rental_uris": {"ios": "https://dc.lft.to/lastmile_qr_scan", "android": "https://dc.lft.to/lastmile_qr_scan"}}, {"is_disabled": 0, "fusion_lat": 0.0, "lat": 38.9850595, "type": "electric_bike", "lon": -76.98201366666666, "is_reserved": 0, "fusion_lon": 0.0, "bike_id": "126f4ca5067f1cfaf04d41d8b6c84493", "name": "126f4ca5067f1cfaf04d41d8b6c84493", "rental_uris": {"ios": "https://dc.lft.to/lastmile_qr_scan", "android": "https://dc.lft.to/lastmile_qr_scan"}}, {"is_disabled": 0, "fusion_lat": 0.0, "lat": 38.94168033333333, "type": "electric_scooter", "lon": -77.02533916666667, "is_reserved": 0, "fusion_lon": 0.0, "bike_id": "3621ae249b83fc5f56f4fde069fd4650", "name": "3621ae249b83fc5f56f4fde069fd4650", "rental_uris": {"ios": "https://dc.lft.to/lastmile_qr_scan", "android": "https://dc.lft.to/lastmile_qr_scan"}}, {"is_disabled": 0, "fusion_lat": 0.0, "lat": 38.921042, "type": "electric_scooter", "lon": -77.02506866666667, "is_reserved": 0, "fusion_lon": 0.0, "bike_id": "138f064638e97e6dee61aa6afd3b9834", "name": "138f064638e97e6dee61aa6afd3b9834", "rental_uris": {"ios": "https://dc.lft.to/lastmile_qr_scan", "android": "https://dc.lft.to/lastmile_qr_scan"}}, {"is_disabled": 0, "fusion_lat": 0.0, "lat": 38.9248715, "type": "electric_scooter", "lon": -77.0263115, "is_reserved": 0, "fusion_lon": 0.0, "bike_id": "8ae7e11f39c1a750f5d567c9475104fb", "name": "8ae7e11f39c1a750f5d567c9475104fb", "rental_uris": {"ios": "https://dc.lft.to/lastmile_qr_scan", "android": "https://dc.lft.to/lastmile_qr_scan"}}, {"is_disabled": 0, "fusion_lat": 0.0, "lat": 38.860600833333336, "type": "electric_scooter", "lon": -76.98422316666667, "is_reserved": 0, "fusion_lon": 0.0, "bike_id": "3ad32bd99b84ede75d850dbca4790fe8", "name": "3ad32bd99b84ede75d850dbca4790fe8", "rental_uris": {"ios": "https://dc.lft.to/lastmile_qr_scan", "android": "https://dc.lft.to/lastmile_qr_scan"}}, {"is_disabled": 0, "fusion_lat": 0.0, "lat": 38.822679666666666, "type": "electric_bike", "lon": -77.05811433333334, "is_reserved": 0, "fusion_lon": 0.0, "bike_id": "23a0ed3913a71bf678e2bb0f72808db8", "name": "23a0ed3913a71bf678e2bb0f72808db8", "rental_uris": {"ios": "https://dc.lft.to/lastmile_qr_scan", "android": "https://dc.lft.to/lastmile_qr_scan"}}, {"is_disabled": 0, "fusion_lat": 0.0, "lat": 38.907917833333336, "type": "electric_scooter", "lon": -77.03670283333334, "is_reserved": 0, "fusion_lon": 0.0, "bike_id": "45cbfd3649eec5edb6a6513d03250f63", "name": "45cbfd3649eec5edb6a6513d03250f63", "rental_uris": {"ios": "https://dc.lft.to/lastmile_qr_scan", "android": "https://dc.lft.to/lastmile_qr_scan"}}, {"is_disabled": 0, "fusion_lat": 0.0, "lat": 38.930228666666665, "type": "electric_scooter", "lon": -77.02089383333333, "is_reserved": 0, "fusion_lon": 0.0, "bike_id": "e88031cbdf8856163860c5c2eb28f6b2", "name": "e88031cbdf8856163860c5c2eb28f6b2", "rental_uris": {"ios": "https://dc.lft.to/lastmile_qr_scan", "android": "https://dc.lft.to/lastmile_qr_scan"}}, {"is_disabled": 0, "fusion_lat": 0.0, "lat": 38.88134316666667, "type": "electric_bike", "lon": -76.98093483333334, "is_reserved": 0, "fusion_lon": 0.0, "bike_id": "1a9a58b0c5d4a8951980b00df4622f1b", "name": "1a9a58b0c5d4a8951980b00df4622f1b", "rental_uris": {"ios": "https://dc.lft.to/lastmile_qr_scan", "android": "https://dc.lft.to/lastmile_qr_scan"}}, {"is_disabled": 0, "fusion_lat": 0.0, "lat": 38.93561533333333, "type": "electric_scooter", "lon": -77.029655, "is_reserved": 0, "fusion_lon": 0.0, "bike_id": "d96d95230d9399bf69a3bec5999ac82b", "name": "d96d95230d9399bf69a3bec5999ac82b", "rental_uris": {"ios": "https://dc.lft.to/lastmile_qr_scan", "android": "https://dc.lft.to/lastmile_qr_scan"}}, {"is_disabled": 0, "fusion_lat": 0.0, "lat": 38.916948833333336, "type": "electric_scooter", "lon": -77.02415, "is_reserved": 0, "fusion_lon": 0.0, "bike_id": "43bab160e563363c38684a281b2a26c8", "name": "43bab160e563363c38684a281b2a26c8", "rental_uris": {"ios": "https://dc.lft.to/lastmile_qr_scan", "android": "https://dc.lft.to/lastmile_qr_scan"}}, {"is_disabled": 0, "fusion_lat": 0.0, "lat": 38.89899466666667, "type": "electric_scooter", "lon": -76.933014, "is_reserved": 0, "fusion_lon": 0.0, "bike_id": "87efdd4d042b37447bb7117ce77f0cdc", "name": "87efdd4d042b37447bb7117ce77f0cdc", "rental_uris": {"ios": "https://dc.lft.to/lastmile_qr_scan", "android": "https://dc.lft.to/lastmile_qr_scan"}}, {"is_disabled": 0, "fusion_lat": 0.0, "lat": 38.919883, "type": "electric_scooter", "lon": -77.04183433333333, "is_reserved": 0, "fusion_lon": 0.0, "bike_id": "adfa7843630f54b7a44a2eda97a16959", "name": "adfa7843630f54b7a44a2eda97a16959", "rental_uris": {"ios": "https://dc.lft.to/lastmile_qr_scan", "android": "https://dc.lft.to/lastmile_qr_scan"}}, {"is_disabled": 0, "fusion_lat": 0.0, "lat": 38.91571783333333, "type": "electric_scooter", "lon": -77.01194166666667, "is_reserved": 0, "fusion_lon": 0.0, "bike_id": "5cc1a78781acbde05e0edc690afac67f", "name": "5cc1a78781acbde05e0edc690afac67f", "rental_uris": {"ios": "https://dc.lft.to/lastmile_qr_scan", "android": "https://dc.lft.to/lastmile_qr_scan"}}, {"is_disabled": 0, "fusion_lat": 0.0, "lat": 38.90003516666667, "type": "electric_scooter", "lon": -77.05249283333333, "is_reserved": 0, "fusion_lon": 0.0, "bike_id": "87c74c452c409153970b367091bfbae3", "name": "87c74c452c409153970b367091bfbae3", "rental_uris": {"ios": "https://dc.lft.to/lastmile_qr_scan", "android": "https://dc.lft.to/lastmile_qr_scan"}}, {"is_disabled": 0, "fusion_lat": 0.0, "lat": 38.86659566666667, "type": "electric_scooter", "lon": -76.990144, "is_reserved": 0, "fusion_lon": 0.0, "bike_id": "927de7a7405762b72de874fad05a7caf", "name": "927de7a7405762b72de874fad05a7caf", "rental_uris": {"ios": "https://dc.lft.to/lastmile_qr_scan", "android": "https://dc.lft.to/lastmile_qr_scan"}}, {"is_disabled": 0, "fusion_lat": 0.0, "lat": 38.91742566666667, "type": "electric_scooter", "lon": -77.02697466666666, "is_reserved": 0, "fusion_lon": 0.0, "bike_id": "96671eb4d658c355ba35a2a9c7807a12", "name": "96671eb4d658c355ba35a2a9c7807a12", "rental_uris": {"ios": "https://dc.lft.to/lastmile_qr_scan", "android": "https://dc.lft.to/lastmile_qr_scan"}}, {"is_disabled": 0, "fusion_lat": 0.0, "lat": 38.83987916666667, "type": "electric_bike", "lon": -77.00564316666667, "is_reserved": 0, "fusion_lon": 0.0, "bike_id": "b83b0f50e05fb2d105e1be9485b49e91", "name": "b83b0f50e05fb2d105e1be9485b49e91", "rental_uris": {"ios": "https://dc.lft.to/lastmile_qr_scan", "android": "https://dc.lft.to/lastmile_qr_scan"}}, {"is_disabled": 0, "fusion_lat": 0.0, "lat": 38.9178285, "type": "electric_scooter", "lon": -77.02416366666667, "is_reserved": 0, "fusion_lon": 0.0, "bike_id": "991d5ba0b912cb84e7532549f6805dde", "name": "991d5ba0b912cb84e7532549f6805dde", "rental_uris": {"ios": "https://dc.lft.to/lastmile_qr_scan", "android": "https://dc.lft.to/lastmile_qr_scan"}}, {"is_disabled": 0, "fusion_lat": 0.0, "lat": 38.90383583333333, "type": "electric_scooter", "lon": -77.05336583333333, "is_reserved": 0, "fusion_lon": 0.0, "bike_id": "c1e3e670660c0c79f7b65aaf7fd69dc2", "name": "c1e3e670660c0c79f7b65aaf7fd69dc2", "rental_uris": {"ios": "https://dc.lft.to/lastmile_qr_scan", "android": "https://dc.lft.to/lastmile_qr_scan"}}, {"is_disabled": 0, "fusion_lat": 0.0, "lat": 38.90347383333334, "type": "electric_scooter", "lon": -77.06578583333334, "is_reserved": 0, "fusion_lon": 0.0, "bike_id": "9ee2aed9d9abbab26d19b1f1e7775a6b", "name": "9ee2aed9d9abbab26d19b1f1e7775a6b", "rental_uris": {"ios": "https://dc.lft.to/lastmile_qr_scan", "android": "https://dc.lft.to/lastmile_qr_scan"}}, {"is_disabled": 0, "fusion_lat": 0.0, "lat": 38.926777666666666, "type": "electric_scooter", "lon": -77.015594, "is_reserved": 0, "fusion_lon": 0.0, "bike_id": "86599559c64f3bff77f875cd6f081f94", "name": "86599559c64f3bff77f875cd6f081f94", "rental_uris": {"ios": "https://dc.lft.to/lastmile_qr_scan", "android": "https://dc.lft.to/lastmile_qr_scan"}}, {"is_disabled": 0, "fusion_lat": 0.0, "lat": 38.90915783333333, "type": "electric_scooter", "lon": -76.99267583333334, "is_reserved": 0, "fusion_lon": 0.0, "bike_id": "21f689aecc7420bae184029aa29f6c49", "name": "21f689aecc7420bae184029aa29f6c49", "rental_uris": {"ios": "https://dc.lft.to/lastmile_qr_scan", "android": "https://dc.lft.to/lastmile_qr_scan"}}, {"is_disabled": 0, "fusion_lat": 0.0, "lat": 38.918025666666665, "type": "electric_scooter", "lon": -77.0342275, "is_reserved": 0, "fusion_lon": 0.0, "bike_id": "1d4589b74eb7939271cf9d44e660b914", "name": "1d4589b74eb7939271cf9d44e660b914", "rental_uris": {"ios": "https://dc.lft.to/lastmile_qr_scan", "android": "https://dc.lft.to/lastmile_qr_scan"}}, {"is_disabled": 0, "fusion_lat": 0.0, "lat": 38.91729333333333, "type": "electric_scooter", "lon": -77.03664066666667, "is_reserved": 0, "fusion_lon": 0.0, "bike_id": "e0e1739a1a8622a5037dfb1b0302c1cc", "name": "e0e1739a1a8622a5037dfb1b0302c1cc", "rental_uris": {"ios": "https://dc.lft.to/lastmile_qr_scan", "android": "https://dc.lft.to/lastmile_qr_scan"}}, {"is_disabled": 0, "fusion_lat": 0.0, "lat": 38.91731333333333, "type": "electric_scooter", "lon": -77.03663083333333, "is_reserved": 0, "fusion_lon": 0.0, "bike_id": "315f5c95ecf3dfc100cc5ebfdb7207bf", "name": "315f5c95ecf3dfc100cc5ebfdb7207bf", "rental_uris": {"ios": "https://dc.lft.to/lastmile_qr_scan", "android": "https://dc.lft.to/lastmile_qr_scan"}}, {"is_disabled": 0, "fusion_lat": 0.0, "lat": 38.90849016666667, "type": "electric_scooter", "lon": -77.03291166666666, "is_reserved": 0, "fusion_lon": 0.0, "bike_id": "92809c46bb0c73fd86647a0463b5cdf3", "name": "92809c46bb0c73fd86647a0463b5cdf3", "rental_uris": {"ios": "https://dc.lft.to/lastmile_qr_scan", "android": "https://dc.lft.to/lastmile_qr_scan"}}, {"is_disabled": 0, "fusion_lat": 0.0, "lat": 38.845746, "type": "electric_bike", "lon": -77.09621083333333, "is_reserved": 0, "fusion_lon": 0.0, "bike_id": "7730a46cddfc12b63ed943802f04a3b7", "name": "7730a46cddfc12b63ed943802f04a3b7", "rental_uris": {"ios": "https://dc.lft.to/lastmile_qr_scan", "android": "https://dc.lft.to/lastmile_qr_scan"}}, {"is_disabled": 0, "fusion_lat": 0.0, "lat": 38.92412066666667, "type": "electric_bike", "lon": -77.20816266666667, "is_reserved": 0, "fusion_lon": 0.0, "bike_id": "8d24fdeadba8cf095cf0fe2e6becac78", "name": "8d24fdeadba8cf095cf0fe2e6becac78", "rental_uris": {"ios": "https://dc.lft.to/lastmile_qr_scan", "android": "https://dc.lft.to/lastmile_qr_scan"}}, {"is_disabled": 0, "fusion_lat": 0.0, "lat": 38.90153, "type": "electric_scooter", "lon": -77.041924, "is_reserved": 0, "fusion_lon": 0.0, "bike_id": "ff0cd93548744b4e7dc2c88438bca2d5", "name": "ff0cd93548744b4e7dc2c88438bca2d5", "rental_uris": {"ios": "https://dc.lft.to/lastmile_qr_scan", "android": "https://dc.lft.to/lastmile_qr_scan"}}, {"is_disabled": 0, "fusion_lat": 0.0, "lat": 38.871642333333334, "type": "electric_scooter", "lon": -77.013463, "is_reserved": 0, "fusion_lon": 0.0, "bike_id": "21ff6c496680d2aa3643b397996e7c32", "name": "21ff6c496680d2aa3643b397996e7c32", "rental_uris": {"ios": "https://dc.lft.to/lastmile_qr_scan", "android": "https://dc.lft.to/lastmile_qr_scan"}}, {"is_disabled": 0, "fusion_lat": 0.0, "lat": 38.927962, "type": "electric_scooter", "lon": -77.02719766666667, "is_reserved": 0, "fusion_lon": 0.0, "bike_id": "69a54fa0698df9c3e1f1609017f66a9b", "name": "69a54fa0698df9c3e1f1609017f66a9b", "rental_uris": {"ios": "https://dc.lft.to/lastmile_qr_scan", "android": "https://dc.lft.to/lastmile_qr_scan"}}, {"is_disabled": 0, "fusion_lat": 0.0, "lat": 38.937216, "type": "electric_scooter", "lon": -77.03268083333333, "is_reserved": 0, "fusion_lon": 0.0, "bike_id": "d731c6b971952625b99b055826d9a5f7", "name": "d731c6b971952625b99b055826d9a5f7", "rental_uris": {"ios": "https://dc.lft.to/lastmile_qr_scan", "android": "https://dc.lft.to/lastmile_qr_scan"}}, {"is_disabled": 0, "fusion_lat": 0.0, "lat": 38.921307166666665, "type": "electric_scooter", "lon": -77.04430133333334, "is_reserved": 0, "fusion_lon": 0.0, "bike_id": "9c70f4f4736fed6bd709d2cea4af9797", "name": "9c70f4f4736fed6bd709d2cea4af9797", "rental_uris": {"ios": "https://dc.lft.to/lastmile_qr_scan", "android": "https://dc.lft.to/lastmile_qr_scan"}}, {"is_disabled": 0, "fusion_lat": 0.0, "lat": 38.8634535, "type": "electric_scooter", "lon": -76.9900305, "is_reserved": 0, "fusion_lon": 0.0, "bike_id": "3cefef302f67a07a9d0c2b6e9725906f", "name": "3cefef302f67a07a9d0c2b6e9725906f", "rental_uris": {"ios": "https://dc.lft.to/lastmile_qr_scan", "android": "https://dc.lft.to/lastmile_qr_scan"}}, {"is_disabled": 0, "fusion_lat": 0.0, "lat": 38.89829983333333, "type": "electric_scooter", "lon": -77.03278633333333, "is_reserved": 0, "fusion_lon": 0.0, "bike_id": "2b2b003d51d6402f1c96f0ae7da8c008", "name": "2b2b003d51d6402f1c96f0ae7da8c008", "rental_uris": {"ios": "https://dc.lft.to/lastmile_qr_scan", "android": "https://dc.lft.to/lastmile_qr_scan"}}, {"is_disabled": 0, "fusion_lat": 0.0, "lat": 38.906025666666665, "type": "electric_scooter", "lon": -77.0131655, "is_reserved": 0, "fusion_lon": 0.0, "bike_id": "c203e2d313561f952b2de14f9a29cba3", "name": "c203e2d313561f952b2de14f9a29cba3", "rental_uris": {"ios": "https://dc.lft.to/lastmile_qr_scan", "android": "https://dc.lft.to/lastmile_qr_scan"}}, {"is_disabled": 0, "fusion_lat": 0.0, "lat": 38.92495066666667, "type": "electric_scooter", "lon": -77.057516, "is_reserved": 0, "fusion_lon": 0.0, "bike_id": "8a575583c32f990030f7bff864c3618f", "name": "8a575583c32f990030f7bff864c3618f", "rental_uris": {"ios": "https://dc.lft.to/lastmile_qr_scan", "android": "https://dc.lft.to/lastmile_qr_scan"}}, {"is_disabled": 0, "fusion_lat": 0.0, "lat": 38.907248833333334, "type": "electric_scooter", "lon": -77.02501033333333, "is_reserved": 0, "fusion_lon": 0.0, "bike_id": "fd470b65b70eba0d227ce85a3e9ca661", "name": "fd470b65b70eba0d227ce85a3e9ca661", "rental_uris": {"ios": "https://dc.lft.to/lastmile_qr_scan", "android": "https://dc.lft.to/lastmile_qr_scan"}}, {"is_disabled": 0, "fusion_lat": 0.0, "lat": 38.899217666666665, "type": "electric_scooter", "lon": -76.93380083333334, "is_reserved": 0, "fusion_lon": 0.0, "bike_id": "4cbe8ff86baebe6a9ddfcfbba3743760", "name": "4cbe8ff86baebe6a9ddfcfbba3743760", "rental_uris": {"ios": "https://dc.lft.to/lastmile_qr_scan", "android": "https://dc.lft.to/lastmile_qr_scan"}}, {"is_disabled": 0, "fusion_lat": 0.0, "lat": 38.90331716666667, "type": "electric_scooter", "lon": -77.0659555, "is_reserved": 0, "fusion_lon": 0.0, "bike_id": "7a5802c13f4d3a192adefe281e8d1c09", "name": "7a5802c13f4d3a192adefe281e8d1c09", "rental_uris": {"ios": "https://dc.lft.to/lastmile_qr_scan", "android": "https://dc.lft.to/lastmile_qr_scan"}}, {"is_disabled": 0, "fusion_lat": 0.0, "lat": 38.842931666666665, "type": "electric_scooter", "lon": -76.99949616666666, "is_reserved": 0, "fusion_lon": 0.0, "bike_id": "0b6a9e7791e0af7380f3c21af14881c3", "name": "0b6a9e7791e0af7380f3c21af14881c3", "rental_uris": {"ios": "https://dc.lft.to/lastmile_qr_scan", "android": "https://dc.lft.to/lastmile_qr_scan"}}, {"is_disabled": 0, "fusion_lat": 0.0, "lat": 38.95557483333333, "type": "electric_bike", "lon": -76.935491, "is_reserved": 0, "fusion_lon": 0.0, "bike_id": "d1bf047c29bbadb82e7ecc9d6adc7606", "name": "d1bf047c29bbadb82e7ecc9d6adc7606", "rental_uris": {"ios": "https://dc.lft.to/lastmile_qr_scan", "android": "https://dc.lft.to/lastmile_qr_scan"}}, {"is_disabled": 0, "fusion_lat": 0.0, "lat": 38.919074333333334, "type": "electric_scooter", "lon": -77.04107383333333, "is_reserved": 0, "fusion_lon": 0.0, "bike_id": "221312ff5b234bd0aa78c66c99bf4e92", "name": "221312ff5b234bd0aa78c66c99bf4e92", "rental_uris": {"ios": "https://dc.lft.to/lastmile_qr_scan", "android": "https://dc.lft.to/lastmile_qr_scan"}}, {"is_disabled": 0, "fusion_lat": 0.0, "lat": 38.93402316666667, "type": "electric_scooter", "lon": -77.02059616666666, "is_reserved": 0, "fusion_lon": 0.0, "bike_id": "8bf509156fed0481747c322f63b19771", "name": "8bf509156fed0481747c322f63b19771", "rental_uris": {"ios": "https://dc.lft.to/lastmile_qr_scan", "android": "https://dc.lft.to/lastmile_qr_scan"}}, {"is_disabled": 0, "fusion_lat": 0.0, "lat": 38.933141, "type": "electric_scooter", "lon": -77.0328795, "is_reserved": 0, "fusion_lon": 0.0, "bike_id": "969ba6bf9c4add40be11a57100f2ccc7", "name": "969ba6bf9c4add40be11a57100f2ccc7", "rental_uris": {"ios": "https://dc.lft.to/lastmile_qr_scan", "android": "https://dc.lft.to/lastmile_qr_scan"}}, {"is_disabled": 0, "fusion_lat": 0.0, "lat": 38.96156083333333, "type": "electric_scooter", "lon": -76.99772, "is_reserved": 0, "fusion_lon": 0.0, "bike_id": "28a8817831ae0ad31a7910fe72e2af29", "name": "28a8817831ae0ad31a7910fe72e2af29", "rental_uris": {"ios": "https://dc.lft.to/lastmile_qr_scan", "android": "https://dc.lft.to/lastmile_qr_scan"}}, {"is_disabled": 0, "fusion_lat": 0.0, "lat": 38.94045716666667, "type": "electric_scooter", "lon": -77.02979566666667, "is_reserved": 0, "fusion_lon": 0.0, "bike_id": "8fa173ccdd01e198c9cf5b9494d48e48", "name": "8fa173ccdd01e198c9cf5b9494d48e48", "rental_uris": {"ios": "https://dc.lft.to/lastmile_qr_scan", "android": "https://dc.lft.to/lastmile_qr_scan"}}, {"is_disabled": 0, "fusion_lat": 0.0, "lat": 38.92261716666667, "type": "electric_scooter", "lon": -77.04130733333334, "is_reserved": 0, "fusion_lon": 0.0, "bike_id": "977f2471772b18960a3b0e2b1e11b40f", "name": "977f2471772b18960a3b0e2b1e11b40f", "rental_uris": {"ios": "https://dc.lft.to/lastmile_qr_scan", "android": "https://dc.lft.to/lastmile_qr_scan"}}, {"is_disabled": 0, "fusion_lat": 0.0, "lat": 38.898892000000004, "type": "electric_scooter", "lon": -76.93172133333333, "is_reserved": 0, "fusion_lon": 0.0, "bike_id": "7859684f8be10b81760368a77d6f1702", "name": "7859684f8be10b81760368a77d6f1702", "rental_uris": {"ios": "https://dc.lft.to/lastmile_qr_scan", "android": "https://dc.lft.to/lastmile_qr_scan"}}, {"is_disabled": 0, "fusion_lat": 0.0, "lat": 38.91479733333333, "type": "electric_scooter", "lon": -77.009451, "is_reserved": 0, "fusion_lon": 0.0, "bike_id": "c8ce2b99e35a79c680d0a30cd45b984a", "name": "c8ce2b99e35a79c680d0a30cd45b984a", "rental_uris": {"ios": "https://dc.lft.to/lastmile_qr_scan", "android": "https://dc.lft.to/lastmile_qr_scan"}}, {"is_disabled": 0, "fusion_lat": 0.0, "lat": 38.93868483333333, "type": "electric_scooter", "lon": -77.02488616666666, "is_reserved": 0, "fusion_lon": 0.0, "bike_id": "63a84a400d1e415c5a9e400a4615fda1", "name": "63a84a400d1e415c5a9e400a4615fda1", "rental_uris": {"ios": "https://dc.lft.to/lastmile_qr_scan", "android": "https://dc.lft.to/lastmile_qr_scan"}}, {"is_disabled": 0, "fusion_lat": 0.0, "lat": 38.90847633333333, "type": "electric_scooter", "lon": -77.04471316666667, "is_reserved": 0, "fusion_lon": 0.0, "bike_id": "935682cef8ae9b1bbb3dd49db8b97f0e", "name": "935682cef8ae9b1bbb3dd49db8b97f0e", "rental_uris": {"ios": "https://dc.lft.to/lastmile_qr_scan", "android": "https://dc.lft.to/lastmile_qr_scan"}}, {"is_disabled": 0, "fusion_lat": 0.0, "lat": 38.872288166666664, "type": "electric_scooter", "lon": -77.0120825, "is_reserved": 0, "fusion_lon": 0.0, "bike_id": "59cd1e532e2c1d2faf9ee76366ba73bd", "name": "59cd1e532e2c1d2faf9ee76366ba73bd", "rental_uris": {"ios": "https://dc.lft.to/lastmile_qr_scan", "android": "https://dc.lft.to/lastmile_qr_scan"}}, {"is_disabled": 0, "fusion_lat": 0.0, "lat": 38.853213333333336, "type": "electric_scooter", "lon": -76.980031, "is_reserved": 0, "fusion_lon": 0.0, "bike_id": "fe8f293525663204aa89cf8fd3bc2091", "name": "fe8f293525663204aa89cf8fd3bc2091", "rental_uris": {"ios": "https://dc.lft.to/lastmile_qr_scan", "android": "https://dc.lft.to/lastmile_qr_scan"}}, {"is_disabled": 0, "fusion_lat": 0.0, "lat": 38.8960805, "type": "electric_scooter", "lon": -77.04239466666667, "is_reserved": 0, "fusion_lon": 0.0, "bike_id": "53e2983c4b30150759cddacaf1e85b19", "name": "53e2983c4b30150759cddacaf1e85b19", "rental_uris": {"ios": "https://dc.lft.to/lastmile_qr_scan", "android": "https://dc.lft.to/lastmile_qr_scan"}}, {"is_disabled": 0, "fusion_lat": 0.0, "lat": 38.89900816666667, "type": "electric_scooter", "lon": -77.00363233333333, "is_reserved": 0, "fusion_lon": 0.0, "bike_id": "1575c6ef1d817cb8209092cc12bfbf9d", "name": "1575c6ef1d817cb8209092cc12bfbf9d", "rental_uris": {"ios": "https://dc.lft.to/lastmile_qr_scan", "android": "https://dc.lft.to/lastmile_qr_scan"}}, {"is_disabled": 0, "fusion_lat": 0.0, "lat": 38.9057665, "type": "electric_scooter", "lon": -77.02207483333333, "is_reserved": 0, "fusion_lon": 0.0, "bike_id": "fc69a40331d852a1d17b6926b8c85779", "name": "fc69a40331d852a1d17b6926b8c85779", "rental_uris": {"ios": "https://dc.lft.to/lastmile_qr_scan", "android": "https://dc.lft.to/lastmile_qr_scan"}}, {"is_disabled": 0, "fusion_lat": 0.0, "lat": 38.915488833333335, "type": "electric_scooter", "lon": -77.04157966666666, "is_reserved": 0, "fusion_lon": 0.0, "bike_id": "c7ae6abf8385ffbb216469c88d68c3d3", "name": "c7ae6abf8385ffbb216469c88d68c3d3", "rental_uris": {"ios": "https://dc.lft.to/lastmile_qr_scan", "android": "https://dc.lft.to/lastmile_qr_scan"}}, {"is_disabled": 0, "fusion_lat": 0.0, "lat": 38.84429466666667, "type": "electric_scooter", "lon": -76.997783, "is_reserved": 0, "fusion_lon": 0.0, "bike_id": "ab436d41ccfd9f236e8931df97fb269d", "name": "ab436d41ccfd9f236e8931df97fb269d", "rental_uris": {"ios": "https://dc.lft.to/lastmile_qr_scan", "android": "https://dc.lft.to/lastmile_qr_scan"}}, {"is_disabled": 0, "fusion_lat": 0.0, "lat": 38.80224583333333, "type": "electric_bike", "lon": -77.0791525, "is_reserved": 0, "fusion_lon": 0.0, "bike_id": "5baed7b39b706e1a01fcb897660a7c8f", "name": "5baed7b39b706e1a01fcb897660a7c8f", "rental_uris": {"ios": "https://dc.lft.to/lastmile_qr_scan", "android": "https://dc.lft.to/lastmile_qr_scan"}}, {"is_disabled": 0, "fusion_lat": 0.0, "lat": 38.882700666666665, "type": "electric_scooter", "lon": -76.99544983333334, "is_reserved": 0, "fusion_lon": 0.0, "bike_id": "f193f2aef450c6fac6f25e5490b9c3ad", "name": "f193f2aef450c6fac6f25e5490b9c3ad", "rental_uris": {"ios": "https://dc.lft.to/lastmile_qr_scan", "android": "https://dc.lft.to/lastmile_qr_scan"}}, {"is_disabled": 0, "fusion_lat": 0.0, "lat": 38.866201833333335, "type": "electric_scooter", "lon": -76.98650483333333, "is_reserved": 0, "fusion_lon": 0.0, "bike_id": "e140e43b65ab19f679e2911f433f3212", "name": "e140e43b65ab19f679e2911f433f3212", "rental_uris": {"ios": "https://dc.lft.to/lastmile_qr_scan", "android": "https://dc.lft.to/lastmile_qr_scan"}}, {"is_disabled": 0, "fusion_lat": 0.0, "lat": 38.907684, "type": "electric_scooter", "lon": -77.020648, "is_reserved": 0, "fusion_lon": 0.0, "bike_id": "2139d64529be26573dba45caf04420e9", "name": "2139d64529be26573dba45caf04420e9", "rental_uris": {"ios": "https://dc.lft.to/lastmile_qr_scan", "android": "https://dc.lft.to/lastmile_qr_scan"}}, {"is_disabled": 0, "fusion_lat": 0.0, "lat": 38.94411733333333, "type": "electric_scooter", "lon": -77.05515366666667, "is_reserved": 0, "fusion_lon": 0.0, "bike_id": "aba06f9c38e98032bfe25755435ae41e", "name": "aba06f9c38e98032bfe25755435ae41e", "rental_uris": {"ios": "https://dc.lft.to/lastmile_qr_scan", "android": "https://dc.lft.to/lastmile_qr_scan"}}, {"is_disabled": 0, "fusion_lat": 0.0, "lat": 38.91565833333333, "type": "electric_scooter", "lon": -77.032067, "is_reserved": 0, "fusion_lon": 0.0, "bike_id": "ebacb2958fd3ce02da08a85b4aaa6375", "name": "ebacb2958fd3ce02da08a85b4aaa6375", "rental_uris": {"ios": "https://dc.lft.to/lastmile_qr_scan", "android": "https://dc.lft.to/lastmile_qr_scan"}}, {"is_disabled": 0, "fusion_lat": 0.0, "lat": 38.862550166666665, "type": "electric_scooter", "lon": -76.9870215, "is_reserved": 0, "fusion_lon": 0.0, "bike_id": "ab210684712173e213ce46070b3ec260", "name": "ab210684712173e213ce46070b3ec260", "rental_uris": {"ios": "https://dc.lft.to/lastmile_qr_scan", "android": "https://dc.lft.to/lastmile_qr_scan"}}, {"is_disabled": 0, "fusion_lat": 0.0, "lat": 38.901985833333335, "type": "electric_scooter", "lon": -77.023726, "is_reserved": 0, "fusion_lon": 0.0, "bike_id": "4e5658380dd22b5fd3008bb6292493f3", "name": "4e5658380dd22b5fd3008bb6292493f3", "rental_uris": {"ios": "https://dc.lft.to/lastmile_qr_scan", "android": "https://dc.lft.to/lastmile_qr_scan"}}, {"is_disabled": 0, "fusion_lat": 0.0, "lat": 38.906886166666666, "type": "electric_bike", "lon": -76.95185916666667, "is_reserved": 0, "fusion_lon": 0.0, "bike_id": "0360b081b7656c0dba5cca9346e3cfa5", "name": "0360b081b7656c0dba5cca9346e3cfa5", "rental_uris": {"ios": "https://dc.lft.to/lastmile_qr_scan", "android": "https://dc.lft.to/lastmile_qr_scan"}}, {"is_disabled": 0, "fusion_lat": 0.0, "lat": 38.906942, "type": "electric_scooter", "lon": -77.06331216666666, "is_reserved": 0, "fusion_lon": 0.0, "bike_id": "4b5964ebc2fb35f8f2469bb5ea1675d2", "name": "4b5964ebc2fb35f8f2469bb5ea1675d2", "rental_uris": {"ios": "https://dc.lft.to/lastmile_qr_scan", "android": "https://dc.lft.to/lastmile_qr_scan"}}, {"is_disabled": 0, "fusion_lat": 0.0, "lat": 38.90624866666667, "type": "electric_scooter", "lon": -77.04639033333333, "is_reserved": 0, "fusion_lon": 0.0, "bike_id": "d53b616b3ccb6c0eefb83880577c9621", "name": "d53b616b3ccb6c0eefb83880577c9621", "rental_uris": {"ios": "https://dc.lft.to/lastmile_qr_scan", "android": "https://dc.lft.to/lastmile_qr_scan"}}, {"is_disabled": 0, "fusion_lat": 0.0, "lat": 38.88993966666666, "type": "electric_scooter", "lon": -76.99513583333334, "is_reserved": 0, "fusion_lon": 0.0, "bike_id": "32b582af42be45e0da3c2bca39d1f6ad", "name": "32b582af42be45e0da3c2bca39d1f6ad", "rental_uris": {"ios": "https://dc.lft.to/lastmile_qr_scan", "android": "https://dc.lft.to/lastmile_qr_scan"}}, {"is_disabled": 0, "fusion_lat": 0.0, "lat": 38.8662455, "type": "electric_scooter", "lon": -76.98664, "is_reserved": 0, "fusion_lon": 0.0, "bike_id": "a5f544d9cb30e1195b805d29bfe637dd", "name": "a5f544d9cb30e1195b805d29bfe637dd", "rental_uris": {"ios": "https://dc.lft.to/lastmile_qr_scan", "android": "https://dc.lft.to/lastmile_qr_scan"}}, {"is_disabled": 0, "fusion_lat": 0.0, "lat": 38.8459175, "type": "electric_bike", "lon": -77.07679783333333, "is_reserved": 0, "fusion_lon": 0.0, "bike_id": "ed412bca72cd93b139813cd62d63a01d", "name": "ed412bca72cd93b139813cd62d63a01d", "rental_uris": {"ios": "https://dc.lft.to/lastmile_qr_scan", "android": "https://dc.lft.to/lastmile_qr_scan"}}, {"is_disabled": 0, "fusion_lat": 0.0, "lat": 38.93545066666667, "type": "electric_scooter", "lon": -77.07270066666666, "is_reserved": 0, "fusion_lon": 0.0, "bike_id": "24c75dd34f148e8573503907baa4b1cb", "name": "24c75dd34f148e8573503907baa4b1cb", "rental_uris": {"ios": "https://dc.lft.to/lastmile_qr_scan", "android": "https://dc.lft.to/lastmile_qr_scan"}}, {"is_disabled": 0, "fusion_lat": 0.0, "lat": 38.9404845, "type": "electric_scooter", "lon": -77.02891866666667, "is_reserved": 0, "fusion_lon": 0.0, "bike_id": "597b4f97ca59b3fd8461411472ec6a89", "name": "597b4f97ca59b3fd8461411472ec6a89", "rental_uris": {"ios": "https://dc.lft.to/lastmile_qr_scan", "android": "https://dc.lft.to/lastmile_qr_scan"}}, {"is_disabled": 0, "fusion_lat": 0.0, "lat": 38.89555033333333, "type": "electric_scooter", "lon": -77.00918033333333, "is_reserved": 0, "fusion_lon": 0.0, "bike_id": "cac370c188e85a24ea62bdbf4c38cc7e", "name": "cac370c188e85a24ea62bdbf4c38cc7e", "rental_uris": {"ios": "https://dc.lft.to/lastmile_qr_scan", "android": "https://dc.lft.to/lastmile_qr_scan"}}, {"is_disabled": 0, "fusion_lat": 0.0, "lat": 38.92827483333333, "type": "electric_scooter", "lon": -77.02254783333333, "is_reserved": 0, "fusion_lon": 0.0, "bike_id": "e4ba3c50b776209a2e40688e09c764c6", "name": "e4ba3c50b776209a2e40688e09c764c6", "rental_uris": {"ios": "https://dc.lft.to/lastmile_qr_scan", "android": "https://dc.lft.to/lastmile_qr_scan"}}, {"is_disabled": 0, "fusion_lat": 0.0, "lat": 38.930875666666665, "type": "electric_scooter", "lon": -76.96717983333333, "is_reserved": 0, "fusion_lon": 0.0, "bike_id": "ebcfe36f1015d6e297780948471c8859", "name": "ebcfe36f1015d6e297780948471c8859", "rental_uris": {"ios": "https://dc.lft.to/lastmile_qr_scan", "android": "https://dc.lft.to/lastmile_qr_scan"}}, {"is_disabled": 0, "fusion_lat": 0.0, "lat": 38.918155166666665, "type": "electric_scooter", "lon": -77.0335125, "is_reserved": 0, "fusion_lon": 0.0, "bike_id": "c9f9ca9b8f427d19166edf5e571f5c1b", "name": "c9f9ca9b8f427d19166edf5e571f5c1b", "rental_uris": {"ios": "https://dc.lft.to/lastmile_qr_scan", "android": "https://dc.lft.to/lastmile_qr_scan"}}, {"is_disabled": 0, "fusion_lat": 0.0, "lat": 38.90771133333333, "type": "electric_scooter", "lon": -77.06912483333333, "is_reserved": 0, "fusion_lon": 0.0, "bike_id": "ad07b05900f0462928178fb2667a7c64", "name": "ad07b05900f0462928178fb2667a7c64", "rental_uris": {"ios": "https://dc.lft.to/lastmile_qr_scan", "android": "https://dc.lft.to/lastmile_qr_scan"}}, {"is_disabled": 0, "fusion_lat": 0.0, "lat": 39.03040566666667, "type": "electric_bike", "lon": -77.094765, "is_reserved": 0, "fusion_lon": 0.0, "bike_id": "e02bd5baa2cb443d9eb0fbdd77edc119", "name": "e02bd5baa2cb443d9eb0fbdd77edc119", "rental_uris": {"ios": "https://dc.lft.to/lastmile_qr_scan", "android": "https://dc.lft.to/lastmile_qr_scan"}}, {"is_disabled": 0, "fusion_lat": 0.0, "lat": 38.9157685, "type": "electric_scooter", "lon": -77.03188033333333, "is_reserved": 0, "fusion_lon": 0.0, "bike_id": "d7972cb412ff32634ef44b16b6b37040", "name": "d7972cb412ff32634ef44b16b6b37040", "rental_uris": {"ios": "https://dc.lft.to/lastmile_qr_scan", "android": "https://dc.lft.to/lastmile_qr_scan"}}, {"is_disabled": 0, "fusion_lat": 0.0, "lat": 38.92187116666667, "type": "electric_scooter", "lon": -77.01836733333333, "is_reserved": 0, "fusion_lon": 0.0, "bike_id": "d7b5ced6cb3003ff1a151d764cb1aca7", "name": "d7b5ced6cb3003ff1a151d764cb1aca7", "rental_uris": {"ios": "https://dc.lft.to/lastmile_qr_scan", "android": "https://dc.lft.to/lastmile_qr_scan"}}, {"is_disabled": 0, "fusion_lat": 0.0, "lat": 38.93616033333333, "type": "electric_scooter", "lon": -77.03213466666666, "is_reserved": 0, "fusion_lon": 0.0, "bike_id": "c5adf1ae693564181782859e1452259e", "name": "c5adf1ae693564181782859e1452259e", "rental_uris": {"ios": "https://dc.lft.to/lastmile_qr_scan", "android": "https://dc.lft.to/lastmile_qr_scan"}}, {"is_disabled": 0, "fusion_lat": 0.0, "lat": 39.024319, "type": "electric_bike", "lon": -77.13104183333333, "is_reserved": 0, "fusion_lon": 0.0, "bike_id": "29f91e2b8963c066300573ccd573f8a8", "name": "29f91e2b8963c066300573ccd573f8a8", "rental_uris": {"ios": "https://dc.lft.to/lastmile_qr_scan", "android": "https://dc.lft.to/lastmile_qr_scan"}}, {"is_disabled": 0, "fusion_lat": 0.0, "lat": 38.918261, "type": "electric_scooter", "lon": -77.03840216666667, "is_reserved": 0, "fusion_lon": 0.0, "bike_id": "c30429ed75e2e16a98b5ce4e14ee71fe", "name": "c30429ed75e2e16a98b5ce4e14ee71fe", "rental_uris": {"ios": "https://dc.lft.to/lastmile_qr_scan", "android": "https://dc.lft.to/lastmile_qr_scan"}}, {"is_disabled": 0, "fusion_lat": 0.0, "lat": 38.8939155, "type": "electric_scooter", "lon": -76.998609, "is_reserved": 0, "fusion_lon": 0.0, "bike_id": "79660bae1ad0bf3fffaee794c24f6002", "name": "79660bae1ad0bf3fffaee794c24f6002", "rental_uris": {"ios": "https://dc.lft.to/lastmile_qr_scan", "android": "https://dc.lft.to/lastmile_qr_scan"}}, {"is_disabled": 0, "fusion_lat": 0.0, "lat": 39.000037, "type": "electric_bike", "lon": -76.91058166666667, "is_reserved": 0, "fusion_lon": 0.0, "bike_id": "061abb2e609864139dac868e04e11df9", "name": "061abb2e609864139dac868e04e11df9", "rental_uris": {"ios": "https://dc.lft.to/lastmile_qr_scan", "android": "https://dc.lft.to/lastmile_qr_scan"}}, {"is_disabled": 0, "fusion_lat": 0.0, "lat": 38.9188235, "type": "electric_scooter", "lon": -77.03503666666667, "is_reserved": 0, "fusion_lon": 0.0, "bike_id": "76ae72ebd88ed29d72c390b7ca4f96b8", "name": "76ae72ebd88ed29d72c390b7ca4f96b8", "rental_uris": {"ios": "https://dc.lft.to/lastmile_qr_scan", "android": "https://dc.lft.to/lastmile_qr_scan"}}, {"is_disabled": 0, "fusion_lat": 0.0, "lat": 38.925369, "type": "electric_scooter", "lon": -77.04078166666666, "is_reserved": 0, "fusion_lon": 0.0, "bike_id": "200fdbcf3af6b2518cbc5889149b63dd", "name": "200fdbcf3af6b2518cbc5889149b63dd", "rental_uris": {"ios": "https://dc.lft.to/lastmile_qr_scan", "android": "https://dc.lft.to/lastmile_qr_scan"}}, {"is_disabled": 0, "fusion_lat": 0.0, "lat": 38.90613533333333, "type": "electric_scooter", "lon": -77.06511283333333, "is_reserved": 0, "fusion_lon": 0.0, "bike_id": "c78e4cf063df17684cab41cad94fc5f5", "name": "c78e4cf063df17684cab41cad94fc5f5", "rental_uris": {"ios": "https://dc.lft.to/lastmile_qr_scan", "android": "https://dc.lft.to/lastmile_qr_scan"}}, {"is_disabled": 0, "fusion_lat": 0.0, "lat": 38.8870825, "type": "electric_scooter", "lon": -77.03165283333334, "is_reserved": 0, "fusion_lon": 0.0, "bike_id": "34bc16e8f48c0471b446e737eec8e7a7", "name": "34bc16e8f48c0471b446e737eec8e7a7", "rental_uris": {"ios": "https://dc.lft.to/lastmile_qr_scan", "android": "https://dc.lft.to/lastmile_qr_scan"}}, {"is_disabled": 0, "fusion_lat": 0.0, "lat": 38.93000966666666, "type": "electric_scooter", "lon": -77.0443515, "is_reserved": 0, "fusion_lon": 0.0, "bike_id": "ac7dd9592b0045b45985dba5f4271014", "name": "ac7dd9592b0045b45985dba5f4271014", "rental_uris": {"ios": "https://dc.lft.to/lastmile_qr_scan", "android": "https://dc.lft.to/lastmile_qr_scan"}}, {"is_disabled": 0, "fusion_lat": 0.0, "lat": 38.924608666666664, "type": "electric_scooter", "lon": -77.032758, "is_reserved": 0, "fusion_lon": 0.0, "bike_id": "f99c6f9af7dd8b4558e4b2893e1ad13b", "name": "f99c6f9af7dd8b4558e4b2893e1ad13b", "rental_uris": {"ios": "https://dc.lft.to/lastmile_qr_scan", "android": "https://dc.lft.to/lastmile_qr_scan"}}, {"is_disabled": 0, "fusion_lat": 0.0, "lat": 38.92853133333333, "type": "electric_bike", "lon": -77.10675816666667, "is_reserved": 0, "fusion_lon": 0.0, "bike_id": "89d80c336533444a6264ad59c24ff5d9", "name": "89d80c336533444a6264ad59c24ff5d9", "rental_uris": {"ios": "https://dc.lft.to/lastmile_qr_scan", "android": "https://dc.lft.to/lastmile_qr_scan"}}, {"is_disabled": 0, "fusion_lat": 0.0, "lat": 38.94829166666667, "type": "electric_scooter", "lon": -77.02424816666667, "is_reserved": 0, "fusion_lon": 0.0, "bike_id": "14f8b45a082c1ad7e90e8d67b4a5785d", "name": "14f8b45a082c1ad7e90e8d67b4a5785d", "rental_uris": {"ios": "https://dc.lft.to/lastmile_qr_scan", "android": "https://dc.lft.to/lastmile_qr_scan"}}, {"is_disabled": 0, "fusion_lat": 0.0, "lat": 38.91060566666667, "type": "electric_scooter", "lon": -77.04581433333334, "is_reserved": 0, "fusion_lon": 0.0, "bike_id": "d6fe511119df9dd9cfd62526a3d63736", "name": "d6fe511119df9dd9cfd62526a3d63736", "rental_uris": {"ios": "https://dc.lft.to/lastmile_qr_scan", "android": "https://dc.lft.to/lastmile_qr_scan"}}, {"is_disabled": 0, "fusion_lat": 0.0, "lat": 38.919669166666665, "type": "electric_scooter", "lon": -77.0414995, "is_reserved": 0, "fusion_lon": 0.0, "bike_id": "72c07182c3ecd2bb385f5e879a7e1f8f", "name": "72c07182c3ecd2bb385f5e879a7e1f8f", "rental_uris": {"ios": "https://dc.lft.to/lastmile_qr_scan", "android": "https://dc.lft.to/lastmile_qr_scan"}}, {"is_disabled": 0, "fusion_lat": 0.0, "lat": 38.8074755, "type": "electric_bike", "lon": -77.0942815, "is_reserved": 0, "fusion_lon": 0.0, "bike_id": "a52716bf446009eebfb8cf0f58f469d9", "name": "a52716bf446009eebfb8cf0f58f469d9", "rental_uris": {"ios": "https://dc.lft.to/lastmile_qr_scan", "android": "https://dc.lft.to/lastmile_qr_scan"}}, {"is_disabled": 0, "fusion_lat": 0.0, "lat": 38.89877516666667, "type": "electric_scooter", "lon": -76.93161466666666, "is_reserved": 0, "fusion_lon": 0.0, "bike_id": "59efefd628ae40d63bc7c2d8375a9e72", "name": "59efefd628ae40d63bc7c2d8375a9e72", "rental_uris": {"ios": "https://dc.lft.to/lastmile_qr_scan", "android": "https://dc.lft.to/lastmile_qr_scan"}}, {"is_disabled": 0, "fusion_lat": 0.0, "lat": 38.93421333333333, "type": "electric_scooter", "lon": -77.04408666666667, "is_reserved": 0, "fusion_lon": 0.0, "bike_id": "dbe3856e5b10607243b3ef1977f948a4", "name": "dbe3856e5b10607243b3ef1977f948a4", "rental_uris": {"ios": "https://dc.lft.to/lastmile_qr_scan", "android": "https://dc.lft.to/lastmile_qr_scan"}}, {"is_disabled": 0, "fusion_lat": 0.0, "lat": 38.93144816666667, "type": "electric_scooter", "lon": -77.03093, "is_reserved": 0, "fusion_lon": 0.0, "bike_id": "c1f9bc38c76d52bd6d021c70cfd5690f", "name": "c1f9bc38c76d52bd6d021c70cfd5690f", "rental_uris": {"ios": "https://dc.lft.to/lastmile_qr_scan", "android": "https://dc.lft.to/lastmile_qr_scan"}}, {"is_disabled": 0, "fusion_lat": 0.0, "lat": 38.917138333333334, "type": "electric_scooter", "lon": -77.03415433333333, "is_reserved": 0, "fusion_lon": 0.0, "bike_id": "72907ecc3b95d5adb19f89f429ae57d2", "name": "72907ecc3b95d5adb19f89f429ae57d2", "rental_uris": {"ios": "https://dc.lft.to/lastmile_qr_scan", "android": "https://dc.lft.to/lastmile_qr_scan"}}, {"is_disabled": 0, "fusion_lat": 0.0, "lat": 38.929102, "type": "electric_bike", "lon": -77.023785, "is_reserved": 0, "fusion_lon": 0.0, "bike_id": "572ab2d904ed0cfda669eb528b7f6fc2", "name": "572ab2d904ed0cfda669eb528b7f6fc2", "rental_uris": {"ios": "https://dc.lft.to/lastmile_qr_scan", "android": "https://dc.lft.to/lastmile_qr_scan"}}, {"is_disabled": 0, "fusion_lat": 0.0, "lat": 38.937642333333336, "type": "electric_scooter", "lon": -77.03138166666666, "is_reserved": 0, "fusion_lon": 0.0, "bike_id": "ce0901e056b70dd6afd7f2c438f72fed", "name": "ce0901e056b70dd6afd7f2c438f72fed", "rental_uris": {"ios": "https://dc.lft.to/lastmile_qr_scan", "android": "https://dc.lft.to/lastmile_qr_scan"}}, {"is_disabled": 0, "fusion_lat": 0.0, "lat": 38.908717333333335, "type": "electric_scooter", "lon": -77.034726, "is_reserved": 0, "fusion_lon": 0.0, "bike_id": "5011ea7fef4465d011cd7123a44fda9e", "name": "5011ea7fef4465d011cd7123a44fda9e", "rental_uris": {"ios": "https://dc.lft.to/lastmile_qr_scan", "android": "https://dc.lft.to/lastmile_qr_scan"}}, {"is_disabled": 0, "fusion_lat": 0.0, "lat": 38.91805733333333, "type": "electric_scooter", "lon": -77.03302783333334, "is_reserved": 0, "fusion_lon": 0.0, "bike_id": "95e4c45fed7c79cbc90d704cd0f4cda8", "name": "95e4c45fed7c79cbc90d704cd0f4cda8", "rental_uris": {"ios": "https://dc.lft.to/lastmile_qr_scan", "android": "https://dc.lft.to/lastmile_qr_scan"}}, {"is_disabled": 0, "fusion_lat": 0.0, "lat": 38.92306883333333, "type": "electric_scooter", "lon": -77.03911166666667, "is_reserved": 0, "fusion_lon": 0.0, "bike_id": "e31c83cda4ffb747877533e63314e2d2", "name": "e31c83cda4ffb747877533e63314e2d2", "rental_uris": {"ios": "https://dc.lft.to/lastmile_qr_scan", "android": "https://dc.lft.to/lastmile_qr_scan"}}, {"is_disabled": 0, "fusion_lat": 0.0, "lat": 38.8784585, "type": "electric_scooter", "lon": -77.01965066666666, "is_reserved": 0, "fusion_lon": 0.0, "bike_id": "3d6844efc1658cb4fedb49acde166889", "name": "3d6844efc1658cb4fedb49acde166889", "rental_uris": {"ios": "https://dc.lft.to/lastmile_qr_scan", "android": "https://dc.lft.to/lastmile_qr_scan"}}, {"is_disabled": 0, "fusion_lat": 0.0, "lat": 38.892224666666664, "type": "electric_scooter", "lon": -77.04653366666666, "is_reserved": 0, "fusion_lon": 0.0, "bike_id": "c1754b16b2580f0638da420bfd620091", "name": "c1754b16b2580f0638da420bfd620091", "rental_uris": {"ios": "https://dc.lft.to/lastmile_qr_scan", "android": "https://dc.lft.to/lastmile_qr_scan"}}, {"is_disabled": 0, "fusion_lat": 0.0, "lat": 38.9130035, "type": "electric_scooter", "lon": -77.019658, "is_reserved": 0, "fusion_lon": 0.0, "bike_id": "288a8def39897b322d87b40b005e9789", "name": "288a8def39897b322d87b40b005e9789", "rental_uris": {"ios": "https://dc.lft.to/lastmile_qr_scan", "android": "https://dc.lft.to/lastmile_qr_scan"}}, {"is_disabled": 0, "fusion_lat": 0.0, "lat": 38.916954833333335, "type": "electric_scooter", "lon": -77.0460495, "is_reserved": 0, "fusion_lon": 0.0, "bike_id": "7b2ba8663695f845db768baf905f1bc7", "name": "7b2ba8663695f845db768baf905f1bc7", "rental_uris": {"ios": "https://dc.lft.to/lastmile_qr_scan", "android": "https://dc.lft.to/lastmile_qr_scan"}}, {"is_disabled": 0, "fusion_lat": 0.0, "lat": 38.93988566666667, "type": "electric_scooter", "lon": -77.02887383333334, "is_reserved": 0, "fusion_lon": 0.0, "bike_id": "fb298b5f4b03cc4998d6110b9a2eb674", "name": "fb298b5f4b03cc4998d6110b9a2eb674", "rental_uris": {"ios": "https://dc.lft.to/lastmile_qr_scan", "android": "https://dc.lft.to/lastmile_qr_scan"}}, {"is_disabled": 0, "fusion_lat": 0.0, "lat": 38.9247345, "type": "electric_scooter", "lon": -77.0262875, "is_reserved": 0, "fusion_lon": 0.0, "bike_id": "eddf7b1eca1a86af8a2112fd7f144897", "name": "eddf7b1eca1a86af8a2112fd7f144897", "rental_uris": {"ios": "https://dc.lft.to/lastmile_qr_scan", "android": "https://dc.lft.to/lastmile_qr_scan"}}, {"is_disabled": 0, "fusion_lat": 0.0, "lat": 38.85958, "type": "electric_scooter", "lon": -76.99106716666667, "is_reserved": 0, "fusion_lon": 0.0, "bike_id": "f9316900be4cd1e41e8ee1dd6e53b937", "name": "f9316900be4cd1e41e8ee1dd6e53b937", "rental_uris": {"ios": "https://dc.lft.to/lastmile_qr_scan", "android": "https://dc.lft.to/lastmile_qr_scan"}}, {"is_disabled": 0, "fusion_lat": 0.0, "lat": 38.944498833333334, "type": "electric_scooter", "lon": -77.0635355, "is_reserved": 0, "fusion_lon": 0.0, "bike_id": "4b6ad05084d44f44c099fa145dc719e8", "name": "4b6ad05084d44f44c099fa145dc719e8", "rental_uris": {"ios": "https://dc.lft.to/lastmile_qr_scan", "android": "https://dc.lft.to/lastmile_qr_scan"}}, {"is_disabled": 0, "fusion_lat": 0.0, "lat": 38.933976333333334, "type": "electric_scooter", "lon": -77.03881133333333, "is_reserved": 0, "fusion_lon": 0.0, "bike_id": "42d3ecdd29ef5113fb072064ade1497e", "name": "42d3ecdd29ef5113fb072064ade1497e", "rental_uris": {"ios": "https://dc.lft.to/lastmile_qr_scan", "android": "https://dc.lft.to/lastmile_qr_scan"}}, {"is_disabled": 0, "fusion_lat": 0.0, "lat": 38.93682916666667, "type": "electric_scooter", "lon": -77.03625966666667, "is_reserved": 0, "fusion_lon": 0.0, "bike_id": "33712d3b9ca1959b9200a86c04c2b7a9", "name": "33712d3b9ca1959b9200a86c04c2b7a9", "rental_uris": {"ios": "https://dc.lft.to/lastmile_qr_scan", "android": "https://dc.lft.to/lastmile_qr_scan"}}, {"is_disabled": 0, "fusion_lat": 0.0, "lat": 38.898074333333334, "type": "electric_scooter", "lon": -77.00886566666667, "is_reserved": 0, "fusion_lon": 0.0, "bike_id": "cbaeeb8f63986fe86518b92a77c5a36b", "name": "cbaeeb8f63986fe86518b92a77c5a36b", "rental_uris": {"ios": "https://dc.lft.to/lastmile_qr_scan", "android": "https://dc.lft.to/lastmile_qr_scan"}}, {"is_disabled": 0, "fusion_lat": 0.0, "lat": 38.874702, "type": "electric_scooter", "lon": -77.0093385, "is_reserved": 0, "fusion_lon": 0.0, "bike_id": "935befe7865a970387352e13afbb75b8", "name": "935befe7865a970387352e13afbb75b8", "rental_uris": {"ios": "https://dc.lft.to/lastmile_qr_scan", "android": "https://dc.lft.to/lastmile_qr_scan"}}, {"is_disabled": 0, "fusion_lat": 0.0, "lat": 38.91337383333333, "type": "electric_scooter", "lon": -77.04277516666667, "is_reserved": 0, "fusion_lon": 0.0, "bike_id": "1490abf83ae1617eecf4818908086e8a", "name": "1490abf83ae1617eecf4818908086e8a", "rental_uris": {"ios": "https://dc.lft.to/lastmile_qr_scan", "android": "https://dc.lft.to/lastmile_qr_scan"}}, {"is_disabled": 0, "fusion_lat": 0.0, "lat": 38.917662166666666, "type": "electric_scooter", "lon": -77.02275666666667, "is_reserved": 0, "fusion_lon": 0.0, "bike_id": "b549c665b54998129485b7de1d15cae3", "name": "b549c665b54998129485b7de1d15cae3", "rental_uris": {"ios": "https://dc.lft.to/lastmile_qr_scan", "android": "https://dc.lft.to/lastmile_qr_scan"}}, {"is_disabled": 0, "fusion_lat": 0.0, "lat": 38.90511266666667, "type": "electric_scooter", "lon": -77.0404495, "is_reserved": 0, "fusion_lon": 0.0, "bike_id": "7018a4112733368fab0bafd4b1a5303f", "name": "7018a4112733368fab0bafd4b1a5303f", "rental_uris": {"ios": "https://dc.lft.to/lastmile_qr_scan", "android": "https://dc.lft.to/lastmile_qr_scan"}}, {"is_disabled": 0, "fusion_lat": 0.0, "lat": 38.861867333333336, "type": "electric_scooter", "lon": -76.99460533333334, "is_reserved": 0, "fusion_lon": 0.0, "bike_id": "32ee1a0a7f40936bda8bf47d1ecf52ca", "name": "32ee1a0a7f40936bda8bf47d1ecf52ca", "rental_uris": {"ios": "https://dc.lft.to/lastmile_qr_scan", "android": "https://dc.lft.to/lastmile_qr_scan"}}, {"is_disabled": 0, "fusion_lat": 0.0, "lat": 38.90341816666667, "type": "electric_scooter", "lon": -77.06223216666666, "is_reserved": 0, "fusion_lon": 0.0, "bike_id": "5bc2d26946b5d52d1247eb436464b878", "name": "5bc2d26946b5d52d1247eb436464b878", "rental_uris": {"ios": "https://dc.lft.to/lastmile_qr_scan", "android": "https://dc.lft.to/lastmile_qr_scan"}}, {"is_disabled": 0, "fusion_lat": 0.0, "lat": 38.888667833333336, "type": "electric_bike", "lon": -76.99468433333334, "is_reserved": 0, "fusion_lon": 0.0, "bike_id": "3fbaf85f9322e8dbc309bb6dceb4d126", "name": "3fbaf85f9322e8dbc309bb6dceb4d126", "rental_uris": {"ios": "https://dc.lft.to/lastmile_qr_scan", "android": "https://dc.lft.to/lastmile_qr_scan"}}, {"is_disabled": 0, "fusion_lat": 0.0, "lat": 38.9423765, "type": "electric_scooter", "lon": -77.07233916666667, "is_reserved": 0, "fusion_lon": 0.0, "bike_id": "ebc54bba167c62fa9b0382de8925757e", "name": "ebc54bba167c62fa9b0382de8925757e", "rental_uris": {"ios": "https://dc.lft.to/lastmile_qr_scan", "android": "https://dc.lft.to/lastmile_qr_scan"}}, {"is_disabled": 0, "fusion_lat": 0.0, "lat": 38.93084666666667, "type": "electric_scooter", "lon": -77.0312545, "is_reserved": 0, "fusion_lon": 0.0, "bike_id": "d8c801393ada39ccfd680b38fab6baf8", "name": "d8c801393ada39ccfd680b38fab6baf8", "rental_uris": {"ios": "https://dc.lft.to/lastmile_qr_scan", "android": "https://dc.lft.to/lastmile_qr_scan"}}, {"is_disabled": 0, "fusion_lat": 0.0, "lat": 38.8973715, "type": "electric_scooter", "lon": -77.05566983333334, "is_reserved": 0, "fusion_lon": 0.0, "bike_id": "82653fb313e9f47645d739beb6b050b3", "name": "82653fb313e9f47645d739beb6b050b3", "rental_uris": {"ios": "https://dc.lft.to/lastmile_qr_scan", "android": "https://dc.lft.to/lastmile_qr_scan"}}, {"is_disabled": 0, "fusion_lat": 0.0, "lat": 38.90212733333333, "type": "electric_scooter", "lon": -76.98840533333333, "is_reserved": 0, "fusion_lon": 0.0, "bike_id": "8edc57a18b4d9781b6470b6891e0b88d", "name": "8edc57a18b4d9781b6470b6891e0b88d", "rental_uris": {"ios": "https://dc.lft.to/lastmile_qr_scan", "android": "https://dc.lft.to/lastmile_qr_scan"}}, {"is_disabled": 0, "fusion_lat": 0.0, "lat": 38.8936745, "type": "electric_scooter", "lon": -77.04782383333334, "is_reserved": 0, "fusion_lon": 0.0, "bike_id": "120d2775649355097555575842d22328", "name": "120d2775649355097555575842d22328", "rental_uris": {"ios": "https://dc.lft.to/lastmile_qr_scan", "android": "https://dc.lft.to/lastmile_qr_scan"}}, {"is_disabled": 0, "fusion_lat": 0.0, "lat": 38.9490355, "type": "electric_bike", "lon": -76.9723675, "is_reserved": 0, "fusion_lon": 0.0, "bike_id": "b0194f6b2d2179aef0358ac16e882d34", "name": "b0194f6b2d2179aef0358ac16e882d34", "rental_uris": {"ios": "https://dc.lft.to/lastmile_qr_scan", "android": "https://dc.lft.to/lastmile_qr_scan"}}, {"is_disabled": 0, "fusion_lat": 0.0, "lat": 38.898710666666666, "type": "electric_scooter", "lon": -77.03293533333333, "is_reserved": 0, "fusion_lon": 0.0, "bike_id": "c83238abb13a347a265d518a8914b05a", "name": "c83238abb13a347a265d518a8914b05a", "rental_uris": {"ios": "https://dc.lft.to/lastmile_qr_scan", "android": "https://dc.lft.to/lastmile_qr_scan"}}, {"is_disabled": 0, "fusion_lat": 0.0, "lat": 38.93244933333333, "type": "electric_scooter", "lon": -77.03110966666667, "is_reserved": 0, "fusion_lon": 0.0, "bike_id": "e8fa91b5bbd66d1c7df5f2a427476ee1", "name": "e8fa91b5bbd66d1c7df5f2a427476ee1", "rental_uris": {"ios": "https://dc.lft.to/lastmile_qr_scan", "android": "https://dc.lft.to/lastmile_qr_scan"}}, {"is_disabled": 0, "fusion_lat": 0.0, "lat": 38.89363866666667, "type": "electric_scooter", "lon": -76.94959683333333, "is_reserved": 0, "fusion_lon": 0.0, "bike_id": "8347c86bbefa6db3101c25da016d863d", "name": "8347c86bbefa6db3101c25da016d863d", "rental_uris": {"ios": "https://dc.lft.to/lastmile_qr_scan", "android": "https://dc.lft.to/lastmile_qr_scan"}}, {"is_disabled": 0, "fusion_lat": 0.0, "lat": 38.909744, "type": "electric_scooter", "lon": -77.04058016666667, "is_reserved": 0, "fusion_lon": 0.0, "bike_id": "52c914d5bccaf054ed01a5add9a6c2fa", "name": "52c914d5bccaf054ed01a5add9a6c2fa", "rental_uris": {"ios": "https://dc.lft.to/lastmile_qr_scan", "android": "https://dc.lft.to/lastmile_qr_scan"}}, {"is_disabled": 0, "fusion_lat": 0.0, "lat": 38.927116166666664, "type": "electric_scooter", "lon": -77.02089466666666, "is_reserved": 0, "fusion_lon": 0.0, "bike_id": "a162ffa85b9de8a93d0a9ead49554431", "name": "a162ffa85b9de8a93d0a9ead49554431", "rental_uris": {"ios": "https://dc.lft.to/lastmile_qr_scan", "android": "https://dc.lft.to/lastmile_qr_scan"}}, {"is_disabled": 0, "fusion_lat": 0.0, "lat": 38.87184216666667, "type": "electric_bike", "lon": -77.08400033333334, "is_reserved": 0, "fusion_lon": 0.0, "bike_id": "e33b282881d0b51e86ae14c50fcdfde3", "name": "e33b282881d0b51e86ae14c50fcdfde3", "rental_uris": {"ios": "https://dc.lft.to/lastmile_qr_scan", "android": "https://dc.lft.to/lastmile_qr_scan"}}, {"is_disabled": 0, "fusion_lat": 0.0, "lat": 38.933075, "type": "electric_scooter", "lon": -77.032676, "is_reserved": 0, "fusion_lon": 0.0, "bike_id": "33fd86582d3d69760f7f4394f7dca404", "name": "33fd86582d3d69760f7f4394f7dca404", "rental_uris": {"ios": "https://dc.lft.to/lastmile_qr_scan", "android": "https://dc.lft.to/lastmile_qr_scan"}}, {"is_disabled": 0, "fusion_lat": 0.0, "lat": 38.9285185, "type": "electric_scooter", "lon": -77.054274, "is_reserved": 0, "fusion_lon": 0.0, "bike_id": "5e3662053b85f36179b8a3dfea1f92cc", "name": "5e3662053b85f36179b8a3dfea1f92cc", "rental_uris": {"ios": "https://dc.lft.to/lastmile_qr_scan", "android": "https://dc.lft.to/lastmile_qr_scan"}}, {"is_disabled": 0, "fusion_lat": 0.0, "lat": 38.93243283333334, "type": "electric_scooter", "lon": -77.03264716666666, "is_reserved": 0, "fusion_lon": 0.0, "bike_id": "95e2a8a5a5910c1ce154a7239e3b10e6", "name": "95e2a8a5a5910c1ce154a7239e3b10e6", "rental_uris": {"ios": "https://dc.lft.to/lastmile_qr_scan", "android": "https://dc.lft.to/lastmile_qr_scan"}}, {"is_disabled": 0, "fusion_lat": 0.0, "lat": 38.9329365, "type": "electric_scooter", "lon": -77.03975433333333, "is_reserved": 0, "fusion_lon": 0.0, "bike_id": "b8f905834bc9ae0e28758a8201870bd1", "name": "b8f905834bc9ae0e28758a8201870bd1", "rental_uris": {"ios": "https://dc.lft.to/lastmile_qr_scan", "android": "https://dc.lft.to/lastmile_qr_scan"}}, {"is_disabled": 0, "fusion_lat": 0.0, "lat": 38.86909333333333, "type": "electric_bike", "lon": -77.13176566666667, "is_reserved": 0, "fusion_lon": 0.0, "bike_id": "bf4402fba2114276bad7cf44be9d67d2", "name": "bf4402fba2114276bad7cf44be9d67d2", "rental_uris": {"ios": "https://dc.lft.to/lastmile_qr_scan", "android": "https://dc.lft.to/lastmile_qr_scan"}}, {"is_disabled": 0, "fusion_lat": 0.0, "lat": 38.911185833333334, "type": "electric_scooter", "lon": -77.0484085, "is_reserved": 0, "fusion_lon": 0.0, "bike_id": "2ae99ec476a51276aebb3cbfc5dfa5ea", "name": "2ae99ec476a51276aebb3cbfc5dfa5ea", "rental_uris": {"ios": "https://dc.lft.to/lastmile_qr_scan", "android": "https://dc.lft.to/lastmile_qr_scan"}}, {"is_disabled": 0, "fusion_lat": 0.0, "lat": 38.89627383333333, "type": "electric_scooter", "lon": -76.99851283333334, "is_reserved": 0, "fusion_lon": 0.0, "bike_id": "8d983e2f4ec09ffd9cc5e81da80876d4", "name": "8d983e2f4ec09ffd9cc5e81da80876d4", "rental_uris": {"ios": "https://dc.lft.to/lastmile_qr_scan", "android": "https://dc.lft.to/lastmile_qr_scan"}}, {"is_disabled": 0, "fusion_lat": 0.0, "lat": 38.8922465, "type": "electric_scooter", "lon": -77.04640433333333, "is_reserved": 0, "fusion_lon": 0.0, "bike_id": "6bfeff5dcc47852d504bf39ed033df0f", "name": "6bfeff5dcc47852d504bf39ed033df0f", "rental_uris": {"ios": "https://dc.lft.to/lastmile_qr_scan", "android": "https://dc.lft.to/lastmile_qr_scan"}}, {"is_disabled": 0, "fusion_lat": 0.0, "lat": 38.92909683333333, "type": "electric_scooter", "lon": -77.03179266666666, "is_reserved": 0, "fusion_lon": 0.0, "bike_id": "0c619f7aadf58c80b457d6f8f2c4a1c5", "name": "0c619f7aadf58c80b457d6f8f2c4a1c5", "rental_uris": {"ios": "https://dc.lft.to/lastmile_qr_scan", "android": "https://dc.lft.to/lastmile_qr_scan"}}, {"is_disabled": 0, "fusion_lat": 0.0, "lat": 38.82005316666667, "type": "electric_bike", "lon": -76.99809983333333, "is_reserved": 0, "fusion_lon": 0.0, "bike_id": "96d8fcf4d4232d32f916abecd7bf7a27", "name": "96d8fcf4d4232d32f916abecd7bf7a27", "rental_uris": {"ios": "https://dc.lft.to/lastmile_qr_scan", "android": "https://dc.lft.to/lastmile_qr_scan"}}, {"is_disabled": 0, "fusion_lat": 0.0, "lat": 38.89827366666667, "type": "electric_scooter", "lon": -77.03308833333334, "is_reserved": 0, "fusion_lon": 0.0, "bike_id": "17bbaeb522c086380002ced248e8c712", "name": "17bbaeb522c086380002ced248e8c712", "rental_uris": {"ios": "https://dc.lft.to/lastmile_qr_scan", "android": "https://dc.lft.to/lastmile_qr_scan"}}, {"is_disabled": 0, "fusion_lat": 0.0, "lat": 38.905747166666664, "type": "electric_scooter", "lon": -77.03069483333333, "is_reserved": 0, "fusion_lon": 0.0, "bike_id": "ae61c412f946778f608c0009fed6203e", "name": "ae61c412f946778f608c0009fed6203e", "rental_uris": {"ios": "https://dc.lft.to/lastmile_qr_scan", "android": "https://dc.lft.to/lastmile_qr_scan"}}, {"is_disabled": 0, "fusion_lat": 0.0, "lat": 38.892231833333334, "type": "electric_scooter", "lon": -77.046394, "is_reserved": 0, "fusion_lon": 0.0, "bike_id": "e7e3644bd44014cd04ab2b914b23f7a4", "name": "e7e3644bd44014cd04ab2b914b23f7a4", "rental_uris": {"ios": "https://dc.lft.to/lastmile_qr_scan", "android": "https://dc.lft.to/lastmile_qr_scan"}}, {"is_disabled": 0, "fusion_lat": 0.0, "lat": 38.941533166666666, "type": "electric_scooter", "lon": -77.02979516666667, "is_reserved": 0, "fusion_lon": 0.0, "bike_id": "6edcff32b030aac3faaebfd57e05dfc1", "name": "6edcff32b030aac3faaebfd57e05dfc1", "rental_uris": {"ios": "https://dc.lft.to/lastmile_qr_scan", "android": "https://dc.lft.to/lastmile_qr_scan"}}, {"is_disabled": 0, "fusion_lat": 0.0, "lat": 38.927725, "type": "electric_scooter", "lon": -77.02703483333333, "is_reserved": 0, "fusion_lon": 0.0, "bike_id": "577e25b1d9224e03e0b37492d8a5636a", "name": "577e25b1d9224e03e0b37492d8a5636a", "rental_uris": {"ios": "https://dc.lft.to/lastmile_qr_scan", "android": "https://dc.lft.to/lastmile_qr_scan"}}, {"is_disabled": 0, "fusion_lat": 0.0, "lat": 38.92577766666667, "type": "electric_scooter", "lon": -77.02569316666667, "is_reserved": 0, "fusion_lon": 0.0, "bike_id": "88a9dde4a5c5d05e575efe7e951c0f73", "name": "88a9dde4a5c5d05e575efe7e951c0f73", "rental_uris": {"ios": "https://dc.lft.to/lastmile_qr_scan", "android": "https://dc.lft.to/lastmile_qr_scan"}}, {"is_disabled": 0, "fusion_lat": 0.0, "lat": 38.908124666666666, "type": "electric_scooter", "lon": -76.98406266666667, "is_reserved": 0, "fusion_lon": 0.0, "bike_id": "967584b7e6802d5f168afb486167d6eb", "name": "967584b7e6802d5f168afb486167d6eb", "rental_uris": {"ios": "https://dc.lft.to/lastmile_qr_scan", "android": "https://dc.lft.to/lastmile_qr_scan"}}, {"is_disabled": 0, "fusion_lat": 0.0, "lat": 38.911145166666664, "type": "electric_scooter", "lon": -77.0383015, "is_reserved": 0, "fusion_lon": 0.0, "bike_id": "52f511e5fb723bef8e12bd82dd6199d7", "name": "52f511e5fb723bef8e12bd82dd6199d7", "rental_uris": {"ios": "https://dc.lft.to/lastmile_qr_scan", "android": "https://dc.lft.to/lastmile_qr_scan"}}, {"is_disabled": 0, "fusion_lat": 0.0, "lat": 38.87500816666667, "type": "electric_scooter", "lon": -77.00171333333333, "is_reserved": 0, "fusion_lon": 0.0, "bike_id": "6df53744dbfd055421fac019abccb432", "name": "6df53744dbfd055421fac019abccb432", "rental_uris": {"ios": "https://dc.lft.to/lastmile_qr_scan", "android": "https://dc.lft.to/lastmile_qr_scan"}}, {"is_disabled": 0, "fusion_lat": 0.0, "lat": 38.8921315, "type": "electric_scooter", "lon": -77.03154583333334, "is_reserved": 0, "fusion_lon": 0.0, "bike_id": "7124338365785b1bf16897ff18bac2da", "name": "7124338365785b1bf16897ff18bac2da", "rental_uris": {"ios": "https://dc.lft.to/lastmile_qr_scan", "android": "https://dc.lft.to/lastmile_qr_scan"}}, {"is_disabled": 0, "fusion_lat": 0.0, "lat": 38.905136666666664, "type": "electric_scooter", "lon": -77.06454166666667, "is_reserved": 0, "fusion_lon": 0.0, "bike_id": "0413f990c447b3b946ccac4cb3f0144b", "name": "0413f990c447b3b946ccac4cb3f0144b", "rental_uris": {"ios": "https://dc.lft.to/lastmile_qr_scan", "android": "https://dc.lft.to/lastmile_qr_scan"}}, {"is_disabled": 0, "fusion_lat": 0.0, "lat": 38.92213866666667, "type": "electric_scooter", "lon": -77.04266933333334, "is_reserved": 0, "fusion_lon": 0.0, "bike_id": "c7b851be03796f3d19c989c22e5ed438", "name": "c7b851be03796f3d19c989c22e5ed438", "rental_uris": {"ios": "https://dc.lft.to/lastmile_qr_scan", "android": "https://dc.lft.to/lastmile_qr_scan"}}, {"is_disabled": 0, "fusion_lat": 0.0, "lat": 38.920692333333335, "type": "electric_scooter", "lon": -77.04220933333333, "is_reserved": 0, "fusion_lon": 0.0, "bike_id": "61488fb85c0e83648dbf84612b3050df", "name": "61488fb85c0e83648dbf84612b3050df", "rental_uris": {"ios": "https://dc.lft.to/lastmile_qr_scan", "android": "https://dc.lft.to/lastmile_qr_scan"}}, {"is_disabled": 0, "fusion_lat": 0.0, "lat": 38.914546, "type": "electric_scooter", "lon": -77.03658683333333, "is_reserved": 0, "fusion_lon": 0.0, "bike_id": "39ce6bd0f425d743a78d2d82a4eaf2e3", "name": "39ce6bd0f425d743a78d2d82a4eaf2e3", "rental_uris": {"ios": "https://dc.lft.to/lastmile_qr_scan", "android": "https://dc.lft.to/lastmile_qr_scan"}}, {"is_disabled": 0, "fusion_lat": 0.0, "lat": 38.86512916666667, "type": "electric_bike", "lon": -76.97341566666667, "is_reserved": 0, "fusion_lon": 0.0, "bike_id": "451a1892e0b9e2016477c38dcd14f930", "name": "451a1892e0b9e2016477c38dcd14f930", "rental_uris": {"ios": "https://dc.lft.to/lastmile_qr_scan", "android": "https://dc.lft.to/lastmile_qr_scan"}}, {"is_disabled": 0, "fusion_lat": 0.0, "lat": 38.93946116666667, "type": "electric_scooter", "lon": -77.06108966666666, "is_reserved": 0, "fusion_lon": 0.0, "bike_id": "66b9ee76a3b94d1ba527eef8ae2e8e0a", "name": "66b9ee76a3b94d1ba527eef8ae2e8e0a", "rental_uris": {"ios": "https://dc.lft.to/lastmile_qr_scan", "android": "https://dc.lft.to/lastmile_qr_scan"}}, {"is_disabled": 0, "fusion_lat": 0.0, "lat": 38.90091366666667, "type": "electric_scooter", "lon": -77.05064066666667, "is_reserved": 0, "fusion_lon": 0.0, "bike_id": "8e7a1c92b65a2cad23aadfaf68e089f2", "name": "8e7a1c92b65a2cad23aadfaf68e089f2", "rental_uris": {"ios": "https://dc.lft.to/lastmile_qr_scan", "android": "https://dc.lft.to/lastmile_qr_scan"}}, {"is_disabled": 0, "fusion_lat": 0.0, "lat": 38.892259, "type": "electric_scooter", "lon": -77.048652, "is_reserved": 0, "fusion_lon": 0.0, "bike_id": "9ce5c727b1ba345fdc5169b9bde464d8", "name": "9ce5c727b1ba345fdc5169b9bde464d8", "rental_uris": {"ios": "https://dc.lft.to/lastmile_qr_scan", "android": "https://dc.lft.to/lastmile_qr_scan"}}, {"is_disabled": 0, "fusion_lat": 0.0, "lat": 38.86182066666667, "type": "electric_scooter", "lon": -76.99426233333334, "is_reserved": 0, "fusion_lon": 0.0, "bike_id": "5e1e90a2400b757fad58aa0b6bb71952", "name": "5e1e90a2400b757fad58aa0b6bb71952", "rental_uris": {"ios": "https://dc.lft.to/lastmile_qr_scan", "android": "https://dc.lft.to/lastmile_qr_scan"}}, {"is_disabled": 0, "fusion_lat": 0.0, "lat": 38.86529083333333, "type": "electric_scooter", "lon": -76.990306, "is_reserved": 0, "fusion_lon": 0.0, "bike_id": "26c041366d239ae8206fcd32a4e1a9a6", "name": "26c041366d239ae8206fcd32a4e1a9a6", "rental_uris": {"ios": "https://dc.lft.to/lastmile_qr_scan", "android": "https://dc.lft.to/lastmile_qr_scan"}}, {"is_disabled": 0, "fusion_lat": 0.0, "lat": 38.907295500000004, "type": "electric_scooter", "lon": -77.02314483333333, "is_reserved": 0, "fusion_lon": 0.0, "bike_id": "9084150d082ce7bb1f00f35ad9471fa2", "name": "9084150d082ce7bb1f00f35ad9471fa2", "rental_uris": {"ios": "https://dc.lft.to/lastmile_qr_scan", "android": "https://dc.lft.to/lastmile_qr_scan"}}, {"is_disabled": 0, "fusion_lat": 0.0, "lat": 38.938598666666664, "type": "electric_bike", "lon": -77.026282, "is_reserved": 0, "fusion_lon": 0.0, "bike_id": "fd29a8c772c3690f11f69a777d848fb3", "name": "fd29a8c772c3690f11f69a777d848fb3", "rental_uris": {"ios": "https://dc.lft.to/lastmile_qr_scan", "android": "https://dc.lft.to/lastmile_qr_scan"}}, {"is_disabled": 0, "fusion_lat": 0.0, "lat": 38.897319833333334, "type": "electric_scooter", "lon": -77.04995783333334, "is_reserved": 0, "fusion_lon": 0.0, "bike_id": "ad6aafff7015be56a2dafcb8725eb6e0", "name": "ad6aafff7015be56a2dafcb8725eb6e0", "rental_uris": {"ios": "https://dc.lft.to/lastmile_qr_scan", "android": "https://dc.lft.to/lastmile_qr_scan"}}, {"is_disabled": 0, "fusion_lat": 0.0, "lat": 38.89273216666667, "type": "electric_scooter", "lon": -77.02585416666666, "is_reserved": 0, "fusion_lon": 0.0, "bike_id": "2c4ccd218c5c0dbe9ca3ce275432d972", "name": "2c4ccd218c5c0dbe9ca3ce275432d972", "rental_uris": {"ios": "https://dc.lft.to/lastmile_qr_scan", "android": "https://dc.lft.to/lastmile_qr_scan"}}, {"is_disabled": 0, "fusion_lat": 0.0, "lat": 38.887375666666664, "type": "electric_scooter", "lon": -77.0153485, "is_reserved": 0, "fusion_lon": 0.0, "bike_id": "98b27bb240b60c6991527f566b338d28", "name": "98b27bb240b60c6991527f566b338d28", "rental_uris": {"ios": "https://dc.lft.to/lastmile_qr_scan", "android": "https://dc.lft.to/lastmile_qr_scan"}}, {"is_disabled": 0, "fusion_lat": 0.0, "lat": 38.920259, "type": "electric_scooter", "lon": -77.02800766666667, "is_reserved": 0, "fusion_lon": 0.0, "bike_id": "da8c216cc51e0c4610abf8cadfc6188f", "name": "da8c216cc51e0c4610abf8cadfc6188f", "rental_uris": {"ios": "https://dc.lft.to/lastmile_qr_scan", "android": "https://dc.lft.to/lastmile_qr_scan"}}, {"is_disabled": 0, "fusion_lat": 0.0, "lat": 38.9168135, "type": "electric_scooter", "lon": -77.012206, "is_reserved": 0, "fusion_lon": 0.0, "bike_id": "8e3acf2d02c52be51c9770c49866c14a", "name": "8e3acf2d02c52be51c9770c49866c14a", "rental_uris": {"ios": "https://dc.lft.to/lastmile_qr_scan", "android": "https://dc.lft.to/lastmile_qr_scan"}}, {"is_disabled": 0, "fusion_lat": 0.0, "lat": 38.91409316666667, "type": "electric_scooter", "lon": -77.03987566666666, "is_reserved": 0, "fusion_lon": 0.0, "bike_id": "9d1579ef0008646ac1e75f7a44446198", "name": "9d1579ef0008646ac1e75f7a44446198", "rental_uris": {"ios": "https://dc.lft.to/lastmile_qr_scan", "android": "https://dc.lft.to/lastmile_qr_scan"}}, {"is_disabled": 0, "fusion_lat": 0.0, "lat": 38.88111283333333, "type": "electric_scooter", "lon": -77.01660083333333, "is_reserved": 0, "fusion_lon": 0.0, "bike_id": "b96166591230ce39e5b42f53cd08a847", "name": "b96166591230ce39e5b42f53cd08a847", "rental_uris": {"ios": "https://dc.lft.to/lastmile_qr_scan", "android": "https://dc.lft.to/lastmile_qr_scan"}}, {"is_disabled": 0, "fusion_lat": 0.0, "lat": 38.89221766666667, "type": "electric_bike", "lon": -77.107839, "is_reserved": 0, "fusion_lon": 0.0, "bike_id": "fc4f1a9ae7fad508cde9c786a09d2294", "name": "fc4f1a9ae7fad508cde9c786a09d2294", "rental_uris": {"ios": "https://dc.lft.to/lastmile_qr_scan", "android": "https://dc.lft.to/lastmile_qr_scan"}}, {"is_disabled": 0, "fusion_lat": 0.0, "lat": 38.90589583333333, "type": "electric_scooter", "lon": -76.986198, "is_reserved": 0, "fusion_lon": 0.0, "bike_id": "d4ac647774c7f39d59622a50c316267b", "name": "d4ac647774c7f39d59622a50c316267b", "rental_uris": {"ios": "https://dc.lft.to/lastmile_qr_scan", "android": "https://dc.lft.to/lastmile_qr_scan"}}, {"is_disabled": 0, "fusion_lat": 0.0, "lat": 38.908638333333336, "type": "electric_scooter", "lon": -77.02841483333333, "is_reserved": 0, "fusion_lon": 0.0, "bike_id": "eee00540563427dd29121446f2eee0b7", "name": "eee00540563427dd29121446f2eee0b7", "rental_uris": {"ios": "https://dc.lft.to/lastmile_qr_scan", "android": "https://dc.lft.to/lastmile_qr_scan"}}, {"is_disabled": 0, "fusion_lat": 0.0, "lat": 38.89736766666667, "type": "electric_scooter", "lon": -77.04889633333333, "is_reserved": 0, "fusion_lon": 0.0, "bike_id": "579fc725b602ad35fe2cbcf2e13f2678", "name": "579fc725b602ad35fe2cbcf2e13f2678", "rental_uris": {"ios": "https://dc.lft.to/lastmile_qr_scan", "android": "https://dc.lft.to/lastmile_qr_scan"}}, {"is_disabled": 0, "fusion_lat": 0.0, "lat": 38.90919516666666, "type": "electric_scooter", "lon": -77.08007233333333, "is_reserved": 0, "fusion_lon": 0.0, "bike_id": "0cc620bac1a1c890cc7a6679552cd54b", "name": "0cc620bac1a1c890cc7a6679552cd54b", "rental_uris": {"ios": "https://dc.lft.to/lastmile_qr_scan", "android": "https://dc.lft.to/lastmile_qr_scan"}}, {"is_disabled": 0, "fusion_lat": 0.0, "lat": 38.92127983333334, "type": "electric_scooter", "lon": -77.04573166666667, "is_reserved": 0, "fusion_lon": 0.0, "bike_id": "ac18b8082058ff3845d1e5ca81146b5f", "name": "ac18b8082058ff3845d1e5ca81146b5f", "rental_uris": {"ios": "https://dc.lft.to/lastmile_qr_scan", "android": "https://dc.lft.to/lastmile_qr_scan"}}, {"is_disabled": 0, "fusion_lat": 0.0, "lat": 38.91467166666666, "type": "electric_scooter", "lon": -76.98430483333334, "is_reserved": 0, "fusion_lon": 0.0, "bike_id": "0c9f6998f78233742b124790501fa263", "name": "0c9f6998f78233742b124790501fa263", "rental_uris": {"ios": "https://dc.lft.to/lastmile_qr_scan", "android": "https://dc.lft.to/lastmile_qr_scan"}}, {"is_disabled": 0, "fusion_lat": 0.0, "lat": 38.91963533333333, "type": "electric_scooter", "lon": -77.02712066666666, "is_reserved": 0, "fusion_lon": 0.0, "bike_id": "14377f11227619f4ea44911e4e6e6c6b", "name": "14377f11227619f4ea44911e4e6e6c6b", "rental_uris": {"ios": "https://dc.lft.to/lastmile_qr_scan", "android": "https://dc.lft.to/lastmile_qr_scan"}}, {"is_disabled": 0, "fusion_lat": 0.0, "lat": 38.912702833333334, "type": "electric_scooter", "lon": -77.03376233333333, "is_reserved": 0, "fusion_lon": 0.0, "bike_id": "0af2b59cb97a9d64242eab989a8f2ef2", "name": "0af2b59cb97a9d64242eab989a8f2ef2", "rental_uris": {"ios": "https://dc.lft.to/lastmile_qr_scan", "android": "https://dc.lft.to/lastmile_qr_scan"}}, {"is_disabled": 0, "fusion_lat": 0.0, "lat": 38.838674833333336, "type": "electric_bike", "lon": -76.9969115, "is_reserved": 0, "fusion_lon": 0.0, "bike_id": "31d874a95a9fc8f8b0dc9dd8a998520b", "name": "31d874a95a9fc8f8b0dc9dd8a998520b", "rental_uris": {"ios": "https://dc.lft.to/lastmile_qr_scan", "android": "https://dc.lft.to/lastmile_qr_scan"}}, {"is_disabled": 0, "fusion_lat": 0.0, "lat": 38.866622166666666, "type": "electric_scooter", "lon": -76.98903783333333, "is_reserved": 0, "fusion_lon": 0.0, "bike_id": "1eb1d09aae17d1715403e7e9d6001e61", "name": "1eb1d09aae17d1715403e7e9d6001e61", "rental_uris": {"ios": "https://dc.lft.to/lastmile_qr_scan", "android": "https://dc.lft.to/lastmile_qr_scan"}}, {"is_disabled": 0, "fusion_lat": 0.0, "lat": 38.83809883333333, "type": "electric_bike", "lon": -77.09523816666666, "is_reserved": 0, "fusion_lon": 0.0, "bike_id": "a95a9aab1b92159eb1f1e318c730ee91", "name": "a95a9aab1b92159eb1f1e318c730ee91", "rental_uris": {"ios": "https://dc.lft.to/lastmile_qr_scan", "android": "https://dc.lft.to/lastmile_qr_scan"}}, {"is_disabled": 0, "fusion_lat": 0.0, "lat": 38.876288333333335, "type": "electric_scooter", "lon": -76.96527566666667, "is_reserved": 0, "fusion_lon": 0.0, "bike_id": "8b799eac0e9ec273b0394c8f7c014f5c", "name": "8b799eac0e9ec273b0394c8f7c014f5c", "rental_uris": {"ios": "https://dc.lft.to/lastmile_qr_scan", "android": "https://dc.lft.to/lastmile_qr_scan"}}, {"is_disabled": 0, "fusion_lat": 0.0, "lat": 38.86522683333333, "type": "electric_scooter", "lon": -76.99034216666666, "is_reserved": 0, "fusion_lon": 0.0, "bike_id": "f9c5d4ded83af1293e9bf40c320d128d", "name": "f9c5d4ded83af1293e9bf40c320d128d", "rental_uris": {"ios": "https://dc.lft.to/lastmile_qr_scan", "android": "https://dc.lft.to/lastmile_qr_scan"}}, {"is_disabled": 0, "fusion_lat": 0.0, "lat": 38.946301, "type": "electric_scooter", "lon": -77.018453, "is_reserved": 0, "fusion_lon": 0.0, "bike_id": "9bbba0136254be87fac669e485f7059f", "name": "9bbba0136254be87fac669e485f7059f", "rental_uris": {"ios": "https://dc.lft.to/lastmile_qr_scan", "android": "https://dc.lft.to/lastmile_qr_scan"}}, {"is_disabled": 0, "fusion_lat": 0.0, "lat": 38.925701833333335, "type": "electric_scooter", "lon": -77.0527315, "is_reserved": 0, "fusion_lon": 0.0, "bike_id": "329312c659e608a4a3d2b4a0a2d3af43", "name": "329312c659e608a4a3d2b4a0a2d3af43", "rental_uris": {"ios": "https://dc.lft.to/lastmile_qr_scan", "android": "https://dc.lft.to/lastmile_qr_scan"}}, {"is_disabled": 0, "fusion_lat": 0.0, "lat": 38.897396, "type": "electric_scooter", "lon": -76.938433, "is_reserved": 0, "fusion_lon": 0.0, "bike_id": "9a7a64b03e360a1b03ea82279dc618ec", "name": "9a7a64b03e360a1b03ea82279dc618ec", "rental_uris": {"ios": "https://dc.lft.to/lastmile_qr_scan", "android": "https://dc.lft.to/lastmile_qr_scan"}}, {"is_disabled": 0, "fusion_lat": 0.0, "lat": 38.90262933333333, "type": "electric_scooter", "lon": -77.01741933333334, "is_reserved": 0, "fusion_lon": 0.0, "bike_id": "4f5bce1c36c941426c431662a4c6a4ff", "name": "4f5bce1c36c941426c431662a4c6a4ff", "rental_uris": {"ios": "https://dc.lft.to/lastmile_qr_scan", "android": "https://dc.lft.to/lastmile_qr_scan"}}, {"is_disabled": 0, "fusion_lat": 0.0, "lat": 38.85723633333333, "type": "electric_scooter", "lon": -76.98090166666667, "is_reserved": 0, "fusion_lon": 0.0, "bike_id": "a4493e3a58099edcf94aac89dfa6c14e", "name": "a4493e3a58099edcf94aac89dfa6c14e", "rental_uris": {"ios": "https://dc.lft.to/lastmile_qr_scan", "android": "https://dc.lft.to/lastmile_qr_scan"}}, {"is_disabled": 0, "fusion_lat": 0.0, "lat": 38.912024, "type": "electric_scooter", "lon": -77.01608733333333, "is_reserved": 0, "fusion_lon": 0.0, "bike_id": "953a36998bc9fdca6b01e47f3b26f6e1", "name": "953a36998bc9fdca6b01e47f3b26f6e1", "rental_uris": {"ios": "https://dc.lft.to/lastmile_qr_scan", "android": "https://dc.lft.to/lastmile_qr_scan"}}, {"is_disabled": 0, "fusion_lat": 0.0, "lat": 38.917990833333334, "type": "electric_scooter", "lon": -77.036569, "is_reserved": 0, "fusion_lon": 0.0, "bike_id": "a5309561da7148ef9b0bb5ef17b02319", "name": "a5309561da7148ef9b0bb5ef17b02319", "rental_uris": {"ios": "https://dc.lft.to/lastmile_qr_scan", "android": "https://dc.lft.to/lastmile_qr_scan"}}, {"is_disabled": 0, "fusion_lat": 0.0, "lat": 38.92124916666667, "type": "electric_scooter", "lon": -77.01209733333333, "is_reserved": 0, "fusion_lon": 0.0, "bike_id": "af4d2a782f2164aafcd9f6fdea6a1f56", "name": "af4d2a782f2164aafcd9f6fdea6a1f56", "rental_uris": {"ios": "https://dc.lft.to/lastmile_qr_scan", "android": "https://dc.lft.to/lastmile_qr_scan"}}, {"is_disabled": 0, "fusion_lat": 0.0, "lat": 38.8762965, "type": "electric_scooter", "lon": -76.96524616666666, "is_reserved": 0, "fusion_lon": 0.0, "bike_id": "3aee867bfa583c6e27cdce083b95c590", "name": "3aee867bfa583c6e27cdce083b95c590", "rental_uris": {"ios": "https://dc.lft.to/lastmile_qr_scan", "android": "https://dc.lft.to/lastmile_qr_scan"}}, {"is_disabled": 0, "fusion_lat": 0.0, "lat": 38.94174983333333, "type": "electric_scooter", "lon": -77.02501883333333, "is_reserved": 0, "fusion_lon": 0.0, "bike_id": "a6ba9690af94bffebc9fa9ce1b51162f", "name": "a6ba9690af94bffebc9fa9ce1b51162f", "rental_uris": {"ios": "https://dc.lft.to/lastmile_qr_scan", "android": "https://dc.lft.to/lastmile_qr_scan"}}, {"is_disabled": 0, "fusion_lat": 0.0, "lat": 38.90274216666667, "type": "electric_scooter", "lon": -77.01968733333334, "is_reserved": 0, "fusion_lon": 0.0, "bike_id": "420b17148fe68cdfc2febc3fbc8f855c", "name": "420b17148fe68cdfc2febc3fbc8f855c", "rental_uris": {"ios": "https://dc.lft.to/lastmile_qr_scan", "android": "https://dc.lft.to/lastmile_qr_scan"}}, {"is_disabled": 0, "fusion_lat": 0.0, "lat": 38.90267166666667, "type": "electric_scooter", "lon": -77.0335465, "is_reserved": 0, "fusion_lon": 0.0, "bike_id": "43ce704d2e35730d8c328f492af6c463", "name": "43ce704d2e35730d8c328f492af6c463", "rental_uris": {"ios": "https://dc.lft.to/lastmile_qr_scan", "android": "https://dc.lft.to/lastmile_qr_scan"}}, {"is_disabled": 0, "fusion_lat": 0.0, "lat": 38.8429555, "type": "electric_scooter", "lon": -76.99947616666667, "is_reserved": 0, "fusion_lon": 0.0, "bike_id": "aa4a58f4737dd90dfe640deaa543fa70", "name": "aa4a58f4737dd90dfe640deaa543fa70", "rental_uris": {"ios": "https://dc.lft.to/lastmile_qr_scan", "android": "https://dc.lft.to/lastmile_qr_scan"}}, {"is_disabled": 0, "fusion_lat": 0.0, "lat": 38.9331705, "type": "electric_scooter", "lon": -77.03284533333333, "is_reserved": 0, "fusion_lon": 0.0, "bike_id": "12939f3a2be7704a278a02b8b4419980", "name": "12939f3a2be7704a278a02b8b4419980", "rental_uris": {"ios": "https://dc.lft.to/lastmile_qr_scan", "android": "https://dc.lft.to/lastmile_qr_scan"}}, {"is_disabled": 0, "fusion_lat": 0.0, "lat": 38.82875533333333, "type": "electric_bike", "lon": -77.11220900000001, "is_reserved": 0, "fusion_lon": 0.0, "bike_id": "dc7ce5cfe986008d5e7e8a7bb9c42efa", "name": "dc7ce5cfe986008d5e7e8a7bb9c42efa", "rental_uris": {"ios": "https://dc.lft.to/lastmile_qr_scan", "android": "https://dc.lft.to/lastmile_qr_scan"}}, {"is_disabled": 0, "fusion_lat": 0.0, "lat": 38.9025985, "type": "electric_scooter", "lon": -77.02648533333333, "is_reserved": 0, "fusion_lon": 0.0, "bike_id": "3934a01b32302711354c33137e76654e", "name": "3934a01b32302711354c33137e76654e", "rental_uris": {"ios": "https://dc.lft.to/lastmile_qr_scan", "android": "https://dc.lft.to/lastmile_qr_scan"}}, {"is_disabled": 0, "fusion_lat": 0.0, "lat": 38.900952333333336, "type": "electric_scooter", "lon": -76.98340883333333, "is_reserved": 0, "fusion_lon": 0.0, "bike_id": "6b72be456ffcab769deecb6b77445629", "name": "6b72be456ffcab769deecb6b77445629", "rental_uris": {"ios": "https://dc.lft.to/lastmile_qr_scan", "android": "https://dc.lft.to/lastmile_qr_scan"}}, {"is_disabled": 0, "fusion_lat": 0.0, "lat": 38.87654966666667, "type": "electric_scooter", "lon": -77.00411983333333, "is_reserved": 0, "fusion_lon": 0.0, "bike_id": "aad0c757f0a6f20cc5ed585c01419f4b", "name": "aad0c757f0a6f20cc5ed585c01419f4b", "rental_uris": {"ios": "https://dc.lft.to/lastmile_qr_scan", "android": "https://dc.lft.to/lastmile_qr_scan"}}, {"is_disabled": 0, "fusion_lat": 0.0, "lat": 38.91422683333333, "type": "electric_scooter", "lon": -77.04533266666667, "is_reserved": 0, "fusion_lon": 0.0, "bike_id": "97c5284a5411b118d7cc0a19684d2537", "name": "97c5284a5411b118d7cc0a19684d2537", "rental_uris": {"ios": "https://dc.lft.to/lastmile_qr_scan", "android": "https://dc.lft.to/lastmile_qr_scan"}}, {"is_disabled": 0, "fusion_lat": 0.0, "lat": 38.89248766666667, "type": "electric_scooter", "lon": -77.03959083333334, "is_reserved": 0, "fusion_lon": 0.0, "bike_id": "7e686394adf3761883d44f964920ccb2", "name": "7e686394adf3761883d44f964920ccb2", "rental_uris": {"ios": "https://dc.lft.to/lastmile_qr_scan", "android": "https://dc.lft.to/lastmile_qr_scan"}}, {"is_disabled": 0, "fusion_lat": 0.0, "lat": 38.91053333333333, "type": "electric_scooter", "lon": -77.02191983333333, "is_reserved": 0, "fusion_lon": 0.0, "bike_id": "4efcd1649684c71241c620c7fa62bf0a", "name": "4efcd1649684c71241c620c7fa62bf0a", "rental_uris": {"ios": "https://dc.lft.to/lastmile_qr_scan", "android": "https://dc.lft.to/lastmile_qr_scan"}}, {"is_disabled": 0, "fusion_lat": 0.0, "lat": 38.90582583333333, "type": "electric_scooter", "lon": -77.03972983333334, "is_reserved": 0, "fusion_lon": 0.0, "bike_id": "324269e7073323646a39ca15ebde703c", "name": "324269e7073323646a39ca15ebde703c", "rental_uris": {"ios": "https://dc.lft.to/lastmile_qr_scan", "android": "https://dc.lft.to/lastmile_qr_scan"}}, {"is_disabled": 0, "fusion_lat": 0.0, "lat": 38.9176305, "type": "electric_scooter", "lon": -77.03996316666667, "is_reserved": 0, "fusion_lon": 0.0, "bike_id": "fe75b25fd0dc1d09b12d421c150aa89f", "name": "fe75b25fd0dc1d09b12d421c150aa89f", "rental_uris": {"ios": "https://dc.lft.to/lastmile_qr_scan", "android": "https://dc.lft.to/lastmile_qr_scan"}}, {"is_disabled": 0, "fusion_lat": 0.0, "lat": 38.99073816666667, "type": "electric_bike", "lon": -76.8746945, "is_reserved": 0, "fusion_lon": 0.0, "bike_id": "489aa4c60615864bcf0fd6d901b348bf", "name": "489aa4c60615864bcf0fd6d901b348bf", "rental_uris": {"ios": "https://dc.lft.to/lastmile_qr_scan", "android": "https://dc.lft.to/lastmile_qr_scan"}}, {"is_disabled": 0, "fusion_lat": 0.0, "lat": 38.90346433333333, "type": "electric_scooter", "lon": -77.04332766666667, "is_reserved": 0, "fusion_lon": 0.0, "bike_id": "1b8433deb166e3625526c0586953299e", "name": "1b8433deb166e3625526c0586953299e", "rental_uris": {"ios": "https://dc.lft.to/lastmile_qr_scan", "android": "https://dc.lft.to/lastmile_qr_scan"}}, {"is_disabled": 0, "fusion_lat": 0.0, "lat": 38.88388233333333, "type": "electric_scooter", "lon": -77.015379, "is_reserved": 0, "fusion_lon": 0.0, "bike_id": "1622d564aa480ed53fda3c7d7543687e", "name": "1622d564aa480ed53fda3c7d7543687e", "rental_uris": {"ios": "https://dc.lft.to/lastmile_qr_scan", "android": "https://dc.lft.to/lastmile_qr_scan"}}, {"is_disabled": 0, "fusion_lat": 0.0, "lat": 38.936345333333335, "type": "electric_scooter", "lon": -77.03662383333334, "is_reserved": 0, "fusion_lon": 0.0, "bike_id": "6d18c04905e0ea912c23cf7cb6f1f4e7", "name": "6d18c04905e0ea912c23cf7cb6f1f4e7", "rental_uris": {"ios": "https://dc.lft.to/lastmile_qr_scan", "android": "https://dc.lft.to/lastmile_qr_scan"}}, {"is_disabled": 0, "fusion_lat": 0.0, "lat": 38.86392166666667, "type": "electric_bike", "lon": -76.98986416666666, "is_reserved": 0, "fusion_lon": 0.0, "bike_id": "36bd8f87fde74732a7aa3b61b295aaf6", "name": "36bd8f87fde74732a7aa3b61b295aaf6", "rental_uris": {"ios": "https://dc.lft.to/lastmile_qr_scan", "android": "https://dc.lft.to/lastmile_qr_scan"}}, {"is_disabled": 0, "fusion_lat": 0.0, "lat": 38.91336416666667, "type": "electric_scooter", "lon": -77.03011333333333, "is_reserved": 0, "fusion_lon": 0.0, "bike_id": "face4a0c99c02feada48d01d32d98959", "name": "face4a0c99c02feada48d01d32d98959", "rental_uris": {"ios": "https://dc.lft.to/lastmile_qr_scan", "android": "https://dc.lft.to/lastmile_qr_scan"}}, {"is_disabled": 0, "fusion_lat": 0.0, "lat": 38.94170116666667, "type": "electric_scooter", "lon": -77.04132516666667, "is_reserved": 0, "fusion_lon": 0.0, "bike_id": "be846da6cc7f1be9ed6eebdff9d8d915", "name": "be846da6cc7f1be9ed6eebdff9d8d915", "rental_uris": {"ios": "https://dc.lft.to/lastmile_qr_scan", "android": "https://dc.lft.to/lastmile_qr_scan"}}, {"is_disabled": 0, "fusion_lat": 0.0, "lat": 38.90699866666667, "type": "electric_scooter", "lon": -77.04208, "is_reserved": 0, "fusion_lon": 0.0, "bike_id": "0f008eafbfbb7459bbe97f530aa2cf03", "name": "0f008eafbfbb7459bbe97f530aa2cf03", "rental_uris": {"ios": "https://dc.lft.to/lastmile_qr_scan", "android": "https://dc.lft.to/lastmile_qr_scan"}}, {"is_disabled": 0, "fusion_lat": 0.0, "lat": 38.90686816666667, "type": "electric_scooter", "lon": -77.0635295, "is_reserved": 0, "fusion_lon": 0.0, "bike_id": "8edff5845b5ed7f40ef5a081b871ab62", "name": "8edff5845b5ed7f40ef5a081b871ab62", "rental_uris": {"ios": "https://dc.lft.to/lastmile_qr_scan", "android": "https://dc.lft.to/lastmile_qr_scan"}}, {"is_disabled": 0, "fusion_lat": 0.0, "lat": 38.96510083333333, "type": "electric_bike", "lon": -77.02824783333334, "is_reserved": 0, "fusion_lon": 0.0, "bike_id": "6b46ec8de3123cd6cee5b37e96949cc9", "name": "6b46ec8de3123cd6cee5b37e96949cc9", "rental_uris": {"ios": "https://dc.lft.to/lastmile_qr_scan", "android": "https://dc.lft.to/lastmile_qr_scan"}}, {"is_disabled": 0, "fusion_lat": 0.0, "lat": 38.9331905, "type": "electric_scooter", "lon": -77.03285666666666, "is_reserved": 0, "fusion_lon": 0.0, "bike_id": "e066b925b076a56d8f169c74e528dbf4", "name": "e066b925b076a56d8f169c74e528dbf4", "rental_uris": {"ios": "https://dc.lft.to/lastmile_qr_scan", "android": "https://dc.lft.to/lastmile_qr_scan"}}, {"is_disabled": 0, "fusion_lat": 0.0, "lat": 38.925511, "type": "electric_scooter", "lon": -77.05297133333333, "is_reserved": 0, "fusion_lon": 0.0, "bike_id": "68033463c94cebba624a81c437a267f8", "name": "68033463c94cebba624a81c437a267f8", "rental_uris": {"ios": "https://dc.lft.to/lastmile_qr_scan", "android": "https://dc.lft.to/lastmile_qr_scan"}}, {"is_disabled": 0, "fusion_lat": 0.0, "lat": 38.951955166666664, "type": "electric_bike", "lon": -76.96720583333334, "is_reserved": 0, "fusion_lon": 0.0, "bike_id": "7b851d48d5b393779a221712d5ab7000", "name": "7b851d48d5b393779a221712d5ab7000", "rental_uris": {"ios": "https://dc.lft.to/lastmile_qr_scan", "android": "https://dc.lft.to/lastmile_qr_scan"}}, {"is_disabled": 0, "fusion_lat": 0.0, "lat": 38.9037245, "type": "electric_scooter", "lon": -77.011063, "is_reserved": 0, "fusion_lon": 0.0, "bike_id": "d484bc8d75e83e6abb785040b752456e", "name": "d484bc8d75e83e6abb785040b752456e", "rental_uris": {"ios": "https://dc.lft.to/lastmile_qr_scan", "android": "https://dc.lft.to/lastmile_qr_scan"}}, {"is_disabled": 0, "fusion_lat": 0.0, "lat": 38.90347833333333, "type": "electric_scooter", "lon": -76.9756095, "is_reserved": 0, "fusion_lon": 0.0, "bike_id": "912fce255942895647e6518b43aecdbc", "name": "912fce255942895647e6518b43aecdbc", "rental_uris": {"ios": "https://dc.lft.to/lastmile_qr_scan", "android": "https://dc.lft.to/lastmile_qr_scan"}}, {"is_disabled": 0, "fusion_lat": 0.0, "lat": 38.998159, "type": "electric_bike", "lon": -76.88371783333334, "is_reserved": 0, "fusion_lon": 0.0, "bike_id": "dc74a702f1249e0257ecb21c332f8b16", "name": "dc74a702f1249e0257ecb21c332f8b16", "rental_uris": {"ios": "https://dc.lft.to/lastmile_qr_scan", "android": "https://dc.lft.to/lastmile_qr_scan"}}, {"is_disabled": 0, "fusion_lat": 0.0, "lat": 38.90366016666667, "type": "electric_scooter", "lon": -77.03659516666667, "is_reserved": 0, "fusion_lon": 0.0, "bike_id": "e45cbf868129bcf63229ced5082181c9", "name": "e45cbf868129bcf63229ced5082181c9", "rental_uris": {"ios": "https://dc.lft.to/lastmile_qr_scan", "android": "https://dc.lft.to/lastmile_qr_scan"}}, {"is_disabled": 0, "fusion_lat": 0.0, "lat": 38.935128166666665, "type": "electric_scooter", "lon": -77.03297183333333, "is_reserved": 0, "fusion_lon": 0.0, "bike_id": "c11be8165f4020e61b9746e3ff529a51", "name": "c11be8165f4020e61b9746e3ff529a51", "rental_uris": {"ios": "https://dc.lft.to/lastmile_qr_scan", "android": "https://dc.lft.to/lastmile_qr_scan"}}, {"is_disabled": 0, "fusion_lat": 0.0, "lat": 38.918272, "type": "electric_scooter", "lon": -77.0353415, "is_reserved": 0, "fusion_lon": 0.0, "bike_id": "ad0f37e9ce8414aba9c9873c4cfc4c1f", "name": "ad0f37e9ce8414aba9c9873c4cfc4c1f", "rental_uris": {"ios": "https://dc.lft.to/lastmile_qr_scan", "android": "https://dc.lft.to/lastmile_qr_scan"}}, {"is_disabled": 0, "fusion_lat": 0.0, "lat": 38.900668, "type": "electric_scooter", "lon": -77.01284433333333, "is_reserved": 0, "fusion_lon": 0.0, "bike_id": "217bf2dbd84f671b288d04ccde62e219", "name": "217bf2dbd84f671b288d04ccde62e219", "rental_uris": {"ios": "https://dc.lft.to/lastmile_qr_scan", "android": "https://dc.lft.to/lastmile_qr_scan"}}, {"is_disabled": 0, "fusion_lat": 0.0, "lat": 38.8860775, "type": "electric_scooter", "lon": -77.0450995, "is_reserved": 0, "fusion_lon": 0.0, "bike_id": "8f39b6c433936c66ac559e45159a26e7", "name": "8f39b6c433936c66ac559e45159a26e7", "rental_uris": {"ios": "https://dc.lft.to/lastmile_qr_scan", "android": "https://dc.lft.to/lastmile_qr_scan"}}, {"is_disabled": 0, "fusion_lat": 0.0, "lat": 38.9242225, "type": "electric_scooter", "lon": -77.0563935, "is_reserved": 0, "fusion_lon": 0.0, "bike_id": "17d781ec72ed0e34b66802e3c2f0456e", "name": "17d781ec72ed0e34b66802e3c2f0456e", "rental_uris": {"ios": "https://dc.lft.to/lastmile_qr_scan", "android": "https://dc.lft.to/lastmile_qr_scan"}}, {"is_disabled": 0, "fusion_lat": 0.0, "lat": 38.8960855, "type": "electric_scooter", "lon": -77.03170666666666, "is_reserved": 0, "fusion_lon": 0.0, "bike_id": "4959daf27c7522bd7997f51f12b17bcd", "name": "4959daf27c7522bd7997f51f12b17bcd", "rental_uris": {"ios": "https://dc.lft.to/lastmile_qr_scan", "android": "https://dc.lft.to/lastmile_qr_scan"}}, {"is_disabled": 0, "fusion_lat": 0.0, "lat": 38.95633866666667, "type": "electric_scooter", "lon": -77.033078, "is_reserved": 0, "fusion_lon": 0.0, "bike_id": "cebe62c9e58eb1c8cdaf21667dc2ed04", "name": "cebe62c9e58eb1c8cdaf21667dc2ed04", "rental_uris": {"ios": "https://dc.lft.to/lastmile_qr_scan", "android": "https://dc.lft.to/lastmile_qr_scan"}}, {"is_disabled": 0, "fusion_lat": 0.0, "lat": 38.926798166666664, "type": "electric_scooter", "lon": -77.030453, "is_reserved": 0, "fusion_lon": 0.0, "bike_id": "989c82fd58e3c753d3cc36b288a381e4", "name": "989c82fd58e3c753d3cc36b288a381e4", "rental_uris": {"ios": "https://dc.lft.to/lastmile_qr_scan", "android": "https://dc.lft.to/lastmile_qr_scan"}}, {"is_disabled": 0, "fusion_lat": 0.0, "lat": 38.901192, "type": "electric_scooter", "lon": -77.02176333333334, "is_reserved": 0, "fusion_lon": 0.0, "bike_id": "edc3fbcd7d30761a0b8affe44e7a5890", "name": "edc3fbcd7d30761a0b8affe44e7a5890", "rental_uris": {"ios": "https://dc.lft.to/lastmile_qr_scan", "android": "https://dc.lft.to/lastmile_qr_scan"}}, {"is_disabled": 0, "fusion_lat": 0.0, "lat": 38.9359705, "type": "electric_scooter", "lon": -77.038024, "is_reserved": 0, "fusion_lon": 0.0, "bike_id": "6db621b03ab8454ee79d9609c728af6d", "name": "6db621b03ab8454ee79d9609c728af6d", "rental_uris": {"ios": "https://dc.lft.to/lastmile_qr_scan", "android": "https://dc.lft.to/lastmile_qr_scan"}}, {"is_disabled": 0, "fusion_lat": 0.0, "lat": 38.917845, "type": "electric_scooter", "lon": -77.02308866666667, "is_reserved": 0, "fusion_lon": 0.0, "bike_id": "d63d3dfa115c07e1843e5f5b6d71e274", "name": "d63d3dfa115c07e1843e5f5b6d71e274", "rental_uris": {"ios": "https://dc.lft.to/lastmile_qr_scan", "android": "https://dc.lft.to/lastmile_qr_scan"}}, {"is_disabled": 0, "fusion_lat": 0.0, "lat": 38.902902833333336, "type": "electric_scooter", "lon": -77.0385665, "is_reserved": 0, "fusion_lon": 0.0, "bike_id": "ba15ec609b5b52ab4e9c6935c1050981", "name": "ba15ec609b5b52ab4e9c6935c1050981", "rental_uris": {"ios": "https://dc.lft.to/lastmile_qr_scan", "android": "https://dc.lft.to/lastmile_qr_scan"}}, {"is_disabled": 0, "fusion_lat": 0.0, "lat": 38.845895, "type": "electric_scooter", "lon": -76.98163283333334, "is_reserved": 0, "fusion_lon": 0.0, "bike_id": "e40616cd49d1e2500077150fc11b334a", "name": "e40616cd49d1e2500077150fc11b334a", "rental_uris": {"ios": "https://dc.lft.to/lastmile_qr_scan", "android": "https://dc.lft.to/lastmile_qr_scan"}}, {"is_disabled": 0, "fusion_lat": 0.0, "lat": 38.9218815, "type": "electric_scooter", "lon": -77.04705433333334, "is_reserved": 0, "fusion_lon": 0.0, "bike_id": "4d475993c300df84fddf56190b37d963", "name": "4d475993c300df84fddf56190b37d963", "rental_uris": {"ios": "https://dc.lft.to/lastmile_qr_scan", "android": "https://dc.lft.to/lastmile_qr_scan"}}, {"is_disabled": 0, "fusion_lat": 0.0, "lat": 38.901281166666664, "type": "electric_scooter", "lon": -77.04357466666667, "is_reserved": 0, "fusion_lon": 0.0, "bike_id": "e97bcab6448d15f5db31f8efc0fec77f", "name": "e97bcab6448d15f5db31f8efc0fec77f", "rental_uris": {"ios": "https://dc.lft.to/lastmile_qr_scan", "android": "https://dc.lft.to/lastmile_qr_scan"}}, {"is_disabled": 0, "fusion_lat": 0.0, "lat": 38.92448016666667, "type": "electric_bike", "lon": -76.99667383333333, "is_reserved": 0, "fusion_lon": 0.0, "bike_id": "ed7fb743b194efaadecaf30685faefb2", "name": "ed7fb743b194efaadecaf30685faefb2", "rental_uris": {"ios": "https://dc.lft.to/lastmile_qr_scan", "android": "https://dc.lft.to/lastmile_qr_scan"}}, {"is_disabled": 0, "fusion_lat": 0.0, "lat": 38.912459166666665, "type": "electric_scooter", "lon": -77.0162375, "is_reserved": 0, "fusion_lon": 0.0, "bike_id": "daa4cabf49c798e8bb74f9c8fb4c1380", "name": "daa4cabf49c798e8bb74f9c8fb4c1380", "rental_uris": {"ios": "https://dc.lft.to/lastmile_qr_scan", "android": "https://dc.lft.to/lastmile_qr_scan"}}, {"is_disabled": 0, "fusion_lat": 0.0, "lat": 38.92258616666667, "type": "electric_scooter", "lon": -77.04254816666666, "is_reserved": 0, "fusion_lon": 0.0, "bike_id": "0175a36cc9cf3d06dbdab6a52baeab88", "name": "0175a36cc9cf3d06dbdab6a52baeab88", "rental_uris": {"ios": "https://dc.lft.to/lastmile_qr_scan", "android": "https://dc.lft.to/lastmile_qr_scan"}}, {"is_disabled": 0, "fusion_lat": 0.0, "lat": 38.92765583333333, "type": "electric_scooter", "lon": -77.005885, "is_reserved": 0, "fusion_lon": 0.0, "bike_id": "5c48d41193f786e69e1c9530e1b40e74", "name": "5c48d41193f786e69e1c9530e1b40e74", "rental_uris": {"ios": "https://dc.lft.to/lastmile_qr_scan", "android": "https://dc.lft.to/lastmile_qr_scan"}}, {"is_disabled": 0, "fusion_lat": 0.0, "lat": 38.906168666666666, "type": "electric_scooter", "lon": -77.03987266666667, "is_reserved": 0, "fusion_lon": 0.0, "bike_id": "5eef8a02c92fb57539458cfb8c41118d", "name": "5eef8a02c92fb57539458cfb8c41118d", "rental_uris": {"ios": "https://dc.lft.to/lastmile_qr_scan", "android": "https://dc.lft.to/lastmile_qr_scan"}},