{"data": {"bikes": [{"lon": -77.04171133333334, "lat": 38.91901633333333, "name": "c4789aa509e596d1efbc34ceb6e99d22", "fusion_lat": 0.0, "fusion_lon": 0.0, "rental_uris": {"android": "https://dc.lft.to/lastmile_qr_scan", "ios": "https://dc.lft.to/lastmile_qr_scan"}, "is_reserved": 0, "is_disabled": 0, "type": "electric_scooter", "bike_id": "c4789aa509e596d1efbc34ceb6e99d22"}, {"lon": -77.03356316666667, "lat": 38.899649833333335, "name": "3dad08fb6b2acae17cd64b5a04cd751d", "fusion_lat": 0.0, "fusion_lon": 0.0, "rental_uris": {"android": "https://dc.lft.to/lastmile_qr_scan", "ios": "https://dc.lft.to/lastmile_qr_scan"}, "is_reserved": 0, "is_disabled": 0, "type": "electric_scooter", "bike_id": "3dad08fb6b2acae17cd64b5a04cd751d"}, {"lon": -77.0471175, "lat": 38.918693166666664, "name": "02d09c01cb4b521a04a3ded63d78faa0", "fusion_lat": 0.0, "fusion_lon": 0.0, "rental_uris": {"android": "https://dc.lft.to/lastmile_qr_scan", "ios": "https://dc.lft.to/lastmile_qr_scan"}, "is_reserved": 0, "is_disabled": 0, "type": "electric_scooter", "bike_id": "02d09c01cb4b521a04a3ded63d78faa0"}, {"lon": -77.02793916666667, "lat": 38.930733833333335, "name": "2c760de384cba371b96158ccaa105223", "fusion_lat": 0.0, "fusion_lon": 0.0, "rental_uris": {"android": "https://dc.lft.to/lastmile_qr_scan", "ios": "https://dc.lft.to/lastmile_qr_scan"}, "is_reserved": 0, "is_disabled": 0, "type": "electric_scooter", "bike_id": "2c760de384cba371b96158ccaa105223"}, {"lon": -77.01017833333333, "lat": 38.918041333333335, "name": "d5148a7d6e7d266509d3af45d13369fe", "fusion_lat": 0.0, "fusion_lon": 0.0, "rental_uris": {"android": "https://dc.lft.to/lastmile_qr_scan", "ios": "https://dc.lft.to/lastmile_qr_scan"}, "is_reserved": 0, "is_disabled": 0, "type": "electric_scooter", "bike_id": "d5148a7d6e7d266509d3af45d13369fe"}, {"lon": -76.98447216666666, "lat": 38.899598166666664, "name": "770f389dce5d2b43576a231e0f05fcf8", "fusion_lat": 0.0, "fusion_lon": 0.0, "rental_uris": {"android": "https://dc.lft.to/lastmile_qr_scan", "ios": "https://dc.lft.to/lastmile_qr_scan"}, "is_reserved": 0, "is_disabled": 0, "type": "electric_scooter", "bike_id": "770f389dce5d2b43576a231e0f05fcf8"}, {"lon": -76.989961, "lat": 38.90391016666667, "name": "12a73fcc371bbbbbf635a60be7dcd602", "fusion_lat": 0.0, "fusion_lon": 0.0, "rental_uris": {"android": "https://dc.lft.to/lastmile_qr_scan", "ios": "https://dc.lft.to/lastmile_qr_scan"}, "is_reserved": 0, "is_disabled": 0, "type": "electric_scooter", "bike_id": "12a73fcc371bbbbbf635a60be7dcd602"}, {"lon": -77.0289085, "lat": 38.900361333333336, "name": "d4dde4a1289d75497749892cc476bf20", "fusion_lat": 0.0, "fusion_lon": 0.0, "rental_uris": {"android": "https://dc.lft.to/lastmile_qr_scan", "ios": "https://dc.lft.to/lastmile_qr_scan"}, "is_reserved": 0, "is_disabled": 0, "type": "electric_scooter", "bike_id": "d4dde4a1289d75497749892cc476bf20"}, {"lon": -77.0346535, "lat": 38.902858, "name": "0d3a56d225f5d95c11b02a53108cabf7", "fusion_lat": 0.0, "fusion_lon": 0.0, "rental_uris": {"android": "https://dc.lft.to/lastmile_qr_scan", "ios": "https://dc.lft.to/lastmile_qr_scan"}, "is_reserved": 0, "is_disabled": 0, "type": "electric_scooter", "bike_id": "0d3a56d225f5d95c11b02a53108cabf7"}, {"lon": -77.02944466666666, "lat": 38.9050295, "name": "489505b2e35798c7a2c3b793b143b86a", "fusion_lat": 0.0, "fusion_lon": 0.0, "rental_uris": {"android": "https://dc.lft.to/lastmile_qr_scan", "ios": "https://dc.lft.to/lastmile_qr_scan"}, "is_reserved": 0, "is_disabled": 0, "type": "electric_scooter", "bike_id": "489505b2e35798c7a2c3b793b143b86a"}, {"lon": -76.97340883333334, "lat": 38.904810499999996, "name": "4d4c326593a09fa56f1e75a0c6de10d7", "fusion_lat": 0.0, "fusion_lon": 0.0, "rental_uris": {"android": "https://dc.lft.to/lastmile_qr_scan", "ios": "https://dc.lft.to/lastmile_qr_scan"}, "is_reserved": 0, "is_disabled": 0, "type": "electric_scooter", "bike_id": "4d4c326593a09fa56f1e75a0c6de10d7"}, {"lon": -77.0110815, "lat": 38.96307216666666, "name": "f2a1427eab11a11cc5c5db36898996e1", "fusion_lat": 0.0, "fusion_lon": 0.0, "rental_uris": {"android": "https://dc.lft.to/lastmile_qr_scan", "ios": "https://dc.lft.to/lastmile_qr_scan"}, "is_reserved": 0, "is_disabled": 0, "type": "electric_bike", "bike_id": "f2a1427eab11a11cc5c5db36898996e1"}, {"lon": -77.02423066666667, "lat": 38.92605866666667, "name": "5d2ed86dfe153b38e6d05f3ae5d84f0f", "fusion_lat": 0.0, "fusion_lon": 0.0, "rental_uris": {"android": "https://dc.lft.to/lastmile_qr_scan", "ios": "https://dc.lft.to/lastmile_qr_scan"}, "is_reserved": 0, "is_disabled": 0, "type": "electric_bike", "bike_id": "5d2ed86dfe153b38e6d05f3ae5d84f0f"}, {"lon": -77.03843966666666, "lat": 38.915414, "name": "29a10fd397c9021df77d44a86c21f7d8", "fusion_lat": 0.0, "fusion_lon": 0.0, "rental_uris": {"android": "https://dc.lft.to/lastmile_qr_scan", "ios": "https://dc.lft.to/lastmile_qr_scan"}, "is_reserved": 0, "is_disabled": 0, "type": "electric_scooter", "bike_id": "29a10fd397c9021df77d44a86c21f7d8"}, {"lon": -77.00136066666667, "lat": 38.904072666666664, "name": "8485eb337bdb19014449c0b4b774a9c0", "fusion_lat": 0.0, "fusion_lon": 0.0, "rental_uris": {"android": "https://dc.lft.to/lastmile_qr_scan", "ios": "https://dc.lft.to/lastmile_qr_scan"}, "is_reserved": 0, "is_disabled": 0, "type": "electric_scooter", "bike_id": "8485eb337bdb19014449c0b4b774a9c0"}, {"lon": -77.02214383333333, "lat": 38.9057455, "name": "e29e6d9f5e6e3e262c2e0827587a5d8e", "fusion_lat": 0.0, "fusion_lon": 0.0, "rental_uris": {"android": "https://dc.lft.to/lastmile_qr_scan", "ios": "https://dc.lft.to/lastmile_qr_scan"}, "is_reserved": 0, "is_disabled": 0, "type": "electric_scooter", "bike_id": "e29e6d9f5e6e3e262c2e0827587a5d8e"}, {"lon": -77.108945, "lat": 38.83042583333334, "name": "2e1dc703505413c34cf586fbf5d4ed79", "fusion_lat": 0.0, "fusion_lon": 0.0, "rental_uris": {"android": "https://dc.lft.to/lastmile_qr_scan", "ios": "https://dc.lft.to/lastmile_qr_scan"}, "is_reserved": 0, "is_disabled": 0, "type": "electric_bike", "bike_id": "2e1dc703505413c34cf586fbf5d4ed79"}, {"lon": -77.02962466666666, "lat": 38.906453666666664, "name": "69bd007f6a2e96f6304378504b6b0e46", "fusion_lat": 0.0, "fusion_lon": 0.0, "rental_uris": {"android": "https://dc.lft.to/lastmile_qr_scan", "ios": "https://dc.lft.to/lastmile_qr_scan"}, "is_reserved": 0, "is_disabled": 0, "type": "electric_scooter", "bike_id": "69bd007f6a2e96f6304378504b6b0e46"}, {"lon": -76.95030533333333, "lat": 38.89184683333333, "name": "94d663303fd4f926a2fec47a6f7e001a", "fusion_lat": 0.0, "fusion_lon": 0.0, "rental_uris": {"android": "https://dc.lft.to/lastmile_qr_scan", "ios": "https://dc.lft.to/lastmile_qr_scan"}, "is_reserved": 0, "is_disabled": 0, "type": "electric_bike", "bike_id": "94d663303fd4f926a2fec47a6f7e001a"}, {"lon": -77.03281033333333, "lat": 38.9379645, "name": "38453ed69b5d83192139848743d3ca75", "fusion_lat": 0.0, "fusion_lon": 0.0, "rental_uris": {"android": "https://dc.lft.to/lastmile_qr_scan", "ios": "https://dc.lft.to/lastmile_qr_scan"}, "is_reserved": 0, "is_disabled": 0, "type": "electric_scooter", "bike_id": "38453ed69b5d83192139848743d3ca75"}, {"lon": -77.00377666666667, "lat": 38.894727833333334, "name": "1951bb309c629cbc3bf849e2b0c98673", "fusion_lat": 0.0, "fusion_lon": 0.0, "rental_uris": {"android": "https://dc.lft.to/lastmile_qr_scan", "ios": "https://dc.lft.to/lastmile_qr_scan"}, "is_reserved": 0, "is_disabled": 0, "type": "electric_bike", "bike_id": "1951bb309c629cbc3bf849e2b0c98673"}, {"lon": -77.03134416666667, "lat": 38.904495, "name": "89c8a300c7d89ce26c9217e35030fb24", "fusion_lat": 0.0, "fusion_lon": 0.0, "rental_uris": {"android": "https://dc.lft.to/lastmile_qr_scan", "ios": "https://dc.lft.to/lastmile_qr_scan"}, "is_reserved": 0, "is_disabled": 0, "type": "electric_scooter", "bike_id": "89c8a300c7d89ce26c9217e35030fb24"}, {"lon": -77.01835783333334, "lat": 38.913383833333334, "name": "df08160179e7400dd04f46d6ebdbd21c", "fusion_lat": 0.0, "fusion_lon": 0.0, "rental_uris": {"android": "https://dc.lft.to/lastmile_qr_scan", "ios": "https://dc.lft.to/lastmile_qr_scan"}, "is_reserved": 0, "is_disabled": 0, "type": "electric_scooter", "bike_id": "df08160179e7400dd04f46d6ebdbd21c"}, {"lon": -77.03868783333333, "lat": 38.909759333333334, "name": "5b64f53c35d2c5afcbb8460a718f8002", "fusion_lat": 0.0, "fusion_lon": 0.0, "rental_uris": {"android": "https://dc.lft.to/lastmile_qr_scan", "ios": "https://dc.lft.to/lastmile_qr_scan"}, "is_reserved": 0, "is_disabled": 0, "type": "electric_scooter", "bike_id": "5b64f53c35d2c5afcbb8460a718f8002"}, {"lon": -76.93619633333333, "lat": 38.9705885, "name": "865b323613701eca0e75fead3914d3ba", "fusion_lat": 0.0, "fusion_lon": 0.0, "rental_uris": {"android": "https://dc.lft.to/lastmile_qr_scan", "ios": "https://dc.lft.to/lastmile_qr_scan"}, "is_reserved": 0, "is_disabled": 0, "type": "electric_bike", "bike_id": "865b323613701eca0e75fead3914d3ba"}, {"lon": -77.03641166666667, "lat": 38.912676, "name": "dd002294f0cde17de5fc3faa11b26ced", "fusion_lat": 0.0, "fusion_lon": 0.0, "rental_uris": {"android": "https://dc.lft.to/lastmile_qr_scan", "ios": "https://dc.lft.to/lastmile_qr_scan"}, "is_reserved": 0, "is_disabled": 0, "type": "electric_scooter", "bike_id": "dd002294f0cde17de5fc3faa11b26ced"}, {"lon": -77.03446383333333, "lat": 38.90738566666667, "name": "b0ed763b6cb2957141b5a251fbbdb8a9", "fusion_lat": 0.0, "fusion_lon": 0.0, "rental_uris": {"android": "https://dc.lft.to/lastmile_qr_scan", "ios": "https://dc.lft.to/lastmile_qr_scan"}, "is_reserved": 0, "is_disabled": 0, "type": "electric_scooter", "bike_id": "b0ed763b6cb2957141b5a251fbbdb8a9"}, {"lon": -77.0766305, "lat": 38.90623883333333, "name": "4a363e120a19ad1fc2d11f8776014e3c", "fusion_lat": 0.0, "fusion_lon": 0.0, "rental_uris": {"android": "https://dc.lft.to/lastmile_qr_scan", "ios": "https://dc.lft.to/lastmile_qr_scan"}, "is_reserved": 0, "is_disabled": 0, "type": "electric_scooter", "bike_id": "4a363e120a19ad1fc2d11f8776014e3c"}, {"lon": -76.985601, "lat": 38.86894, "name": "37b9b713b136f4d4b5b35fa73503a07b", "fusion_lat": 0.0, "fusion_lon": 0.0, "rental_uris": {"android": "https://dc.lft.to/lastmile_qr_scan", "ios": "https://dc.lft.to/lastmile_qr_scan"}, "is_reserved": 0, "is_disabled": 0, "type": "electric_bike", "bike_id": "37b9b713b136f4d4b5b35fa73503a07b"}, {"lon": -77.04222133333333, "lat": 38.91104083333333, "name": "10db8d4114a28208784d958c3a3bda21", "fusion_lat": 0.0, "fusion_lon": 0.0, "rental_uris": {"android": "https://dc.lft.to/lastmile_qr_scan", "ios": "https://dc.lft.to/lastmile_qr_scan"}, "is_reserved": 0, "is_disabled": 0, "type": "electric_scooter", "bike_id": "10db8d4114a28208784d958c3a3bda21"}, {"lon": -77.0220075, "lat": 38.91131216666667, "name": "20155ca33db9d25cd02e5097a7c2fdac", "fusion_lat": 0.0, "fusion_lon": 0.0, "rental_uris": {"android": "https://dc.lft.to/lastmile_qr_scan", "ios": "https://dc.lft.to/lastmile_qr_scan"}, "is_reserved": 0, "is_disabled": 0, "type": "electric_scooter", "bike_id": "20155ca33db9d25cd02e5097a7c2fdac"}, {"lon": -77.031756, "lat": 38.89394333333333, "name": "29fb3a352e2a3bf24bd7cb183ab76d40", "fusion_lat": 0.0, "fusion_lon": 0.0, "rental_uris": {"android": "https://dc.lft.to/lastmile_qr_scan", "ios": "https://dc.lft.to/lastmile_qr_scan"}, "is_reserved": 0, "is_disabled": 0, "type": "electric_scooter", "bike_id": "29fb3a352e2a3bf24bd7cb183ab76d40"}, {"lon": -76.99064383333334, "lat": 38.904022166666664, "name": "b27d05f850379d0d2f60af29b4991aaf", "fusion_lat": 0.0, "fusion_lon": 0.0, "rental_uris": {"android": "https://dc.lft.to/lastmile_qr_scan", "ios": "https://dc.lft.to/lastmile_qr_scan"}, "is_reserved": 0, "is_disabled": 0, "type": "electric_scooter", "bike_id": "b27d05f850379d0d2f60af29b4991aaf"}, {"lon": -77.02199516666667, "lat": 38.9168895, "name": "5166b3ca4d000f957874630db622aa6f", "fusion_lat": 0.0, "fusion_lon": 0.0, "rental_uris": {"android": "https://dc.lft.to/lastmile_qr_scan", "ios": "https://dc.lft.to/lastmile_qr_scan"}, "is_reserved": 0, "is_disabled": 0, "type": "electric_scooter", "bike_id": "5166b3ca4d000f957874630db622aa6f"}, {"lon": -77.03365133333334, "lat": 38.921491833333334, "name": "70e25d6d3ff16bc36ab026e1776810a2", "fusion_lat": 0.0, "fusion_lon": 0.0, "rental_uris": {"android": "https://dc.lft.to/lastmile_qr_scan", "ios": "https://dc.lft.to/lastmile_qr_scan"}, "is_reserved": 0, "is_disabled": 0, "type": "electric_scooter", "bike_id": "70e25d6d3ff16bc36ab026e1776810a2"}, {"lon": -76.9812305, "lat": 38.8919645, "name": "e4c96c9a1a4ada0d27850930ff4dc3f5", "fusion_lat": 0.0, "fusion_lon": 0.0, "rental_uris": {"android": "https://dc.lft.to/lastmile_qr_scan", "ios": "https://dc.lft.to/lastmile_qr_scan"}, "is_reserved": 0, "is_disabled": 0, "type": "electric_scooter", "bike_id": "e4c96c9a1a4ada0d27850930ff4dc3f5"}, {"lon": -76.95520316666666, "lat": 38.8905475, "name": "9d661af33dc8322f4bc32cc8d3906d6c", "fusion_lat": 0.0, "fusion_lon": 0.0, "rental_uris": {"android": "https://dc.lft.to/lastmile_qr_scan", "ios": "https://dc.lft.to/lastmile_qr_scan"}, "is_reserved": 0, "is_disabled": 0, "type": "electric_scooter", "bike_id": "9d661af33dc8322f4bc32cc8d3906d6c"}, {"lon": -77.03265533333334, "lat": 38.93074333333333, "name": "717a89caba234803550ebd3c8f36cc09", "fusion_lat": 0.0, "fusion_lon": 0.0, "rental_uris": {"android": "https://dc.lft.to/lastmile_qr_scan", "ios": "https://dc.lft.to/lastmile_qr_scan"}, "is_reserved": 0, "is_disabled": 0, "type": "electric_scooter", "bike_id": "717a89caba234803550ebd3c8f36cc09"}, {"lon": -77.03218683333333, "lat": 38.9140745, "name": "1ce494abee45ed75b4c6bf5ff77070cd", "fusion_lat": 0.0, "fusion_lon": 0.0, "rental_uris": {"android": "https://dc.lft.to/lastmile_qr_scan", "ios": "https://dc.lft.to/lastmile_qr_scan"}, "is_reserved": 0, "is_disabled": 0, "type": "electric_scooter", "bike_id": "1ce494abee45ed75b4c6bf5ff77070cd"}, {"lon": -77.03175866666666, "lat": 38.9190615, "name": "3bdf135280ddf8e8f13d79c913d864b5", "fusion_lat": 0.0, "fusion_lon": 0.0, "rental_uris": {"android": "https://dc.lft.to/lastmile_qr_scan", "ios": "https://dc.lft.to/lastmile_qr_scan"}, "is_reserved": 0, "is_disabled": 0, "type": "electric_scooter", "bike_id": "3bdf135280ddf8e8f13d79c913d864b5"}, {"lon": -77.01074516666667, "lat": 38.87121283333333, "name": "60bac821a3417b77b3154b8c7cce6af3", "fusion_lat": 0.0, "fusion_lon": 0.0, "rental_uris": {"android": "https://dc.lft.to/lastmile_qr_scan", "ios": "https://dc.lft.to/lastmile_qr_scan"}, "is_reserved": 0, "is_disabled": 0, "type": "electric_scooter", "bike_id": "60bac821a3417b77b3154b8c7cce6af3"}, {"lon": -76.98780116666667, "lat": 38.900286666666666, "name": "90e8dd2948cea86c1a61a77f5c8620fe", "fusion_lat": 0.0, "fusion_lon": 0.0, "rental_uris": {"android": "https://dc.lft.to/lastmile_qr_scan", "ios": "https://dc.lft.to/lastmile_qr_scan"}, "is_reserved": 0, "is_disabled": 0, "type": "electric_scooter", "bike_id": "90e8dd2948cea86c1a61a77f5c8620fe"}, {"lon": -76.98599916666667, "lat": 38.86097683333333, "name": "184d3a778d3002c39d66c27c8796975c", "fusion_lat": 0.0, "fusion_lon": 0.0, "rental_uris": {"android": "https://dc.lft.to/lastmile_qr_scan", "ios": "https://dc.lft.to/lastmile_qr_scan"}, "is_reserved": 0, "is_disabled": 0, "type": "electric_scooter", "bike_id": "184d3a778d3002c39d66c27c8796975c"}, {"lon": -77.00145616666667, "lat": 38.900257833333335, "name": "6b963ac7eed3cd34ed8a120dd0cafdb7", "fusion_lat": 0.0, "fusion_lon": 0.0, "rental_uris": {"android": "https://dc.lft.to/lastmile_qr_scan", "ios": "https://dc.lft.to/lastmile_qr_scan"}, "is_reserved": 0, "is_disabled": 0, "type": "electric_scooter", "bike_id": "6b963ac7eed3cd34ed8a120dd0cafdb7"}, {"lon": -76.97561316666666, "lat": 38.904411833333334, "name": "f3c76cda9c8b39bc93eaac9279912ffb", "fusion_lat": 0.0, "fusion_lon": 0.0, "rental_uris": {"android": "https://dc.lft.to/lastmile_qr_scan", "ios": "https://dc.lft.to/lastmile_qr_scan"}, "is_reserved": 0, "is_disabled": 0, "type": "electric_scooter", "bike_id": "f3c76cda9c8b39bc93eaac9279912ffb"}, {"lon": -77.04591916666666, "lat": 38.91929733333333, "name": "0b40e0381e4697be35addec84cb3bb0f", "fusion_lat": 0.0, "fusion_lon": 0.0, "rental_uris": {"android": "https://dc.lft.to/lastmile_qr_scan", "ios": "https://dc.lft.to/lastmile_qr_scan"}, "is_reserved": 0, "is_disabled": 0, "type": "electric_scooter", "bike_id": "0b40e0381e4697be35addec84cb3bb0f"}, {"lon": -76.98373816666667, "lat": 38.860324166666665, "name": "54fd110eae29d4903d0526f4875d3de9", "fusion_lat": 0.0, "fusion_lon": 0.0, "rental_uris": {"android": "https://dc.lft.to/lastmile_qr_scan", "ios": "https://dc.lft.to/lastmile_qr_scan"}, "is_reserved": 0, "is_disabled": 0, "type": "electric_scooter", "bike_id": "54fd110eae29d4903d0526f4875d3de9"}, {"lon": -77.038356, "lat": 38.9155745, "name": "0d6eba013dfcad9ce8347eff68e77a9b", "fusion_lat": 0.0, "fusion_lon": 0.0, "rental_uris": {"android": "https://dc.lft.to/lastmile_qr_scan", "ios": "https://dc.lft.to/lastmile_qr_scan"}, "is_reserved": 0, "is_disabled": 0, "type": "electric_scooter", "bike_id": "0d6eba013dfcad9ce8347eff68e77a9b"}, {"lon": -77.08366083333334, "lat": 38.80844883333333, "name": "05bd06577ab9088f485e27e37deb1ae9", "fusion_lat": 0.0, "fusion_lon": 0.0, "rental_uris": {"android": "https://dc.lft.to/lastmile_qr_scan", "ios": "https://dc.lft.to/lastmile_qr_scan"}, "is_reserved": 0, "is_disabled": 0, "type": "electric_bike", "bike_id": "05bd06577ab9088f485e27e37deb1ae9"}, {"lon": -76.98228083333333, "lat": 38.916486166666665, "name": "1dfb166b780bb61d5fdf91aac87123b2", "fusion_lat": 0.0, "fusion_lon": 0.0, "rental_uris": {"android": "https://dc.lft.to/lastmile_qr_scan", "ios": "https://dc.lft.to/lastmile_qr_scan"}, "is_reserved": 0, "is_disabled": 0, "type": "electric_scooter", "bike_id": "1dfb166b780bb61d5fdf91aac87123b2"}, {"lon": -76.97503516666667, "lat": 38.919351666666664, "name": "e87a691fca7f2fcbbd350460cc2ab311", "fusion_lat": 0.0, "fusion_lon": 0.0, "rental_uris": {"android": "https://dc.lft.to/lastmile_qr_scan", "ios": "https://dc.lft.to/lastmile_qr_scan"}, "is_reserved": 0, "is_disabled": 0, "type": "electric_bike", "bike_id": "e87a691fca7f2fcbbd350460cc2ab311"}, {"lon": -77.01759716666666, "lat": 38.90251, "name": "af6e260730698f42f5d4974dc5fa5772", "fusion_lat": 0.0, "fusion_lon": 0.0, "rental_uris": {"android": "https://dc.lft.to/lastmile_qr_scan", "ios": "https://dc.lft.to/lastmile_qr_scan"}, "is_reserved": 0, "is_disabled": 0, "type": "electric_scooter", "bike_id": "af6e260730698f42f5d4974dc5fa5772"}, {"lon": -76.9885, "lat": 38.90012633333333, "name": "1fa9998e3e204c116b0412c62cbc9afd", "fusion_lat": 0.0, "fusion_lon": 0.0, "rental_uris": {"android": "https://dc.lft.to/lastmile_qr_scan", "ios": "https://dc.lft.to/lastmile_qr_scan"}, "is_reserved": 0, "is_disabled": 0, "type": "electric_scooter", "bike_id": "1fa9998e3e204c116b0412c62cbc9afd"}, {"lon": -77.03846083333333, "lat": 38.9121245, "name": "f1d5c908878468d380c9deadf67bd06d", "fusion_lat": 0.0, "fusion_lon": 0.0, "rental_uris": {"android": "https://dc.lft.to/lastmile_qr_scan", "ios": "https://dc.lft.to/lastmile_qr_scan"}, "is_reserved": 0, "is_disabled": 0, "type": "electric_scooter", "bike_id": "f1d5c908878468d380c9deadf67bd06d"}, {"lon": -76.96520583333333, "lat": 38.874796333333336, "name": "b13db6b41203f93feea3e606e95f0a76", "fusion_lat": 0.0, "fusion_lon": 0.0, "rental_uris": {"android": "https://dc.lft.to/lastmile_qr_scan", "ios": "https://dc.lft.to/lastmile_qr_scan"}, "is_reserved": 0, "is_disabled": 0, "type": "electric_scooter", "bike_id": "b13db6b41203f93feea3e606e95f0a76"}, {"lon": -77.02711316666667, "lat": 38.9499695, "name": "8db360b295cb09c0fe1a68ae84b70d0a", "fusion_lat": 0.0, "fusion_lon": 0.0, "rental_uris": {"android": "https://dc.lft.to/lastmile_qr_scan", "ios": "https://dc.lft.to/lastmile_qr_scan"}, "is_reserved": 0, "is_disabled": 0, "type": "electric_scooter", "bike_id": "8db360b295cb09c0fe1a68ae84b70d0a"}, {"lon": -77.03866583333334, "lat": 38.917110666666666, "name": "3e74f318ddd98008605a83a074c5f16b", "fusion_lat": 0.0, "fusion_lon": 0.0, "rental_uris": {"android": "https://dc.lft.to/lastmile_qr_scan", "ios": "https://dc.lft.to/lastmile_qr_scan"}, "is_reserved": 0, "is_disabled": 0, "type": "electric_scooter", "bike_id": "3e74f318ddd98008605a83a074c5f16b"}, {"lon": -77.03264516666667, "lat": 38.93339616666667, "name": "d12cec32f7a1ad4a1df942fd8d0bcf38", "fusion_lat": 0.0, "fusion_lon": 0.0, "rental_uris": {"android": "https://dc.lft.to/lastmile_qr_scan", "ios": "https://dc.lft.to/lastmile_qr_scan"}, "is_reserved": 0, "is_disabled": 0, "type": "electric_scooter", "bike_id": "d12cec32f7a1ad4a1df942fd8d0bcf38"}, {"lon": -77.014516, "lat": 38.912008166666666, "name": "9a9e0e258274a0a766c6bfe095e7fd11", "fusion_lat": 0.0, "fusion_lon": 0.0, "rental_uris": {"android": "https://dc.lft.to/lastmile_qr_scan", "ios": "https://dc.lft.to/lastmile_qr_scan"}, "is_reserved": 0, "is_disabled": 0, "type": "electric_scooter", "bike_id": "9a9e0e258274a0a766c6bfe095e7fd11"}, {"lon": -77.018058, "lat": 38.914360333333335, "name": "9f27a2067b3f1666b6a1d763b775b389", "fusion_lat": 0.0, "fusion_lon": 0.0, "rental_uris": {"android": "https://dc.lft.to/lastmile_qr_scan", "ios": "https://dc.lft.to/lastmile_qr_scan"}, "is_reserved": 0, "is_disabled": 0, "type": "electric_scooter", "bike_id": "9f27a2067b3f1666b6a1d763b775b389"}, {"lon": -77.0350195, "lat": 38.9215065, "name": "9ae7afc029c2a040e26fd0a337140099", "fusion_lat": 0.0, "fusion_lon": 0.0, "rental_uris": {"android": "https://dc.lft.to/lastmile_qr_scan", "ios": "https://dc.lft.to/lastmile_qr_scan"}, "is_reserved": 0, "is_disabled": 0, "type": "electric_scooter", "bike_id": "9ae7afc029c2a040e26fd0a337140099"}, {"lon": -77.01351783333334, "lat": 38.91947433333333, "name": "c5cc1b369af97543ebe914db62e816ff", "fusion_lat": 0.0, "fusion_lon": 0.0, "rental_uris": {"android": "https://dc.lft.to/lastmile_qr_scan", "ios": "https://dc.lft.to/lastmile_qr_scan"}, "is_reserved": 0, "is_disabled": 0, "type": "electric_scooter", "bike_id": "c5cc1b369af97543ebe914db62e816ff"}, {"lon": -77.0124425, "lat": 38.908665, "name": "ab9807f9463e246031f6f8ce98c69afd", "fusion_lat": 0.0, "fusion_lon": 0.0, "rental_uris": {"android": "https://dc.lft.to/lastmile_qr_scan", "ios": "https://dc.lft.to/lastmile_qr_scan"}, "is_reserved": 0, "is_disabled": 0, "type": "electric_scooter", "bike_id": "ab9807f9463e246031f6f8ce98c69afd"}, {"lon": -76.99426816666667, "lat": 38.922736666666665, "name": "6b8e89b97eb140fc7f6d8a06f39510de", "fusion_lat": 0.0, "fusion_lon": 0.0, "rental_uris": {"android": "https://dc.lft.to/lastmile_qr_scan", "ios": "https://dc.lft.to/lastmile_qr_scan"}, "is_reserved": 0, "is_disabled": 0, "type": "electric_scooter", "bike_id": "6b8e89b97eb140fc7f6d8a06f39510de"}, {"lon": -77.02606983333334, "lat": 38.902592166666665, "name": "3de0af9953d8ea5c1607145e84b5d65c", "fusion_lat": 0.0, "fusion_lon": 0.0, "rental_uris": {"android": "https://dc.lft.to/lastmile_qr_scan", "ios": "https://dc.lft.to/lastmile_qr_scan"}, "is_reserved": 0, "is_disabled": 0, "type": "electric_scooter", "bike_id": "3de0af9953d8ea5c1607145e84b5d65c"}, {"lon": -77.02720166666667, "lat": 38.89224516666667, "name": "e1ed3636fae704dbdedf5de52780db79", "fusion_lat": 0.0, "fusion_lon": 0.0, "rental_uris": {"android": "https://dc.lft.to/lastmile_qr_scan", "ios": "https://dc.lft.to/lastmile_qr_scan"}, "is_reserved": 0, "is_disabled": 0, "type": "electric_scooter", "bike_id": "e1ed3636fae704dbdedf5de52780db79"}, {"lon": -77.02833266666667, "lat": 38.9247315, "name": "6473ce0db2cc2cbf3a9dc96a8236e313", "fusion_lat": 0.0, "fusion_lon": 0.0, "rental_uris": {"android": "https://dc.lft.to/lastmile_qr_scan", "ios": "https://dc.lft.to/lastmile_qr_scan"}, "is_reserved": 0, "is_disabled": 0, "type": "electric_scooter", "bike_id": "6473ce0db2cc2cbf3a9dc96a8236e313"}, {"lon": -77.03439466666667, "lat": 38.91809633333333, "name": "b3de3acc7d3047012bedba6b2909f497", "fusion_lat": 0.0, "fusion_lon": 0.0, "rental_uris": {"android": "https://dc.lft.to/lastmile_qr_scan", "ios": "https://dc.lft.to/lastmile_qr_scan"}, "is_reserved": 0, "is_disabled": 0, "type": "electric_scooter", "bike_id": "b3de3acc7d3047012bedba6b2909f497"}, {"lon": -77.08213166666667, "lat": 38.935524666666666, "name": "a8d1ba407a1eaebc17fb7a1adc743d65", "fusion_lat": 0.0, "fusion_lon": 0.0, "rental_uris": {"android": "https://dc.lft.to/lastmile_qr_scan", "ios": "https://dc.lft.to/lastmile_qr_scan"}, "is_reserved": 0, "is_disabled": 0, "type": "electric_scooter", "bike_id": "a8d1ba407a1eaebc17fb7a1adc743d65"}, {"lon": -77.03922766666666, "lat": 38.91840716666667, "name": "de5d07b7d0919d60b9c3841f2e1b6512", "fusion_lat": 0.0, "fusion_lon": 0.0, "rental_uris": {"android": "https://dc.lft.to/lastmile_qr_scan", "ios": "https://dc.lft.to/lastmile_qr_scan"}, "is_reserved": 0, "is_disabled": 0, "type": "electric_scooter", "bike_id": "de5d07b7d0919d60b9c3841f2e1b6512"}, {"lon": -77.03435533333334, "lat": 38.918073, "name": "faadbc8adbd21bb893ce6e7bed1f1d86", "fusion_lat": 0.0, "fusion_lon": 0.0, "rental_uris": {"android": "https://dc.lft.to/lastmile_qr_scan", "ios": "https://dc.lft.to/lastmile_qr_scan"}, "is_reserved": 0, "is_disabled": 0, "type": "electric_scooter", "bike_id": "faadbc8adbd21bb893ce6e7bed1f1d86"}, {"lon": -77.02809733333333, "lat": 38.9445725, "name": "85c60c69c03a3e163ea94c2ab2ba375d", "fusion_lat": 0.0, "fusion_lon": 0.0, "rental_uris": {"android": "https://dc.lft.to/lastmile_qr_scan", "ios": "https://dc.lft.to/lastmile_qr_scan"}, "is_reserved": 0, "is_disabled": 0, "type": "electric_scooter", "bike_id": "85c60c69c03a3e163ea94c2ab2ba375d"}, {"lon": -77.00112433333334, "lat": 38.894331666666666, "name": "acb100ca5a52a3895de67d2874dab6c8", "fusion_lat": 0.0, "fusion_lon": 0.0, "rental_uris": {"android": "https://dc.lft.to/lastmile_qr_scan", "ios": "https://dc.lft.to/lastmile_qr_scan"}, "is_reserved": 0, "is_disabled": 0, "type": "electric_scooter", "bike_id": "acb100ca5a52a3895de67d2874dab6c8"}, {"lon": -77.04998833333333, "lat": 38.8922825, "name": "8db9d7a060db12f167437a7ef369cb65", "fusion_lat": 0.0, "fusion_lon": 0.0, "rental_uris": {"android": "https://dc.lft.to/lastmile_qr_scan", "ios": "https://dc.lft.to/lastmile_qr_scan"}, "is_reserved": 0, "is_disabled": 0, "type": "electric_scooter", "bike_id": "8db9d7a060db12f167437a7ef369cb65"}, {"lon": -76.96103933333333, "lat": 38.949616166666665, "name": "518511d8e710b81d8e147e1231949e5a", "fusion_lat": 0.0, "fusion_lon": 0.0, "rental_uris": {"android": "https://dc.lft.to/lastmile_qr_scan", "ios": "https://dc.lft.to/lastmile_qr_scan"}, "is_reserved": 0, "is_disabled": 0, "type": "electric_bike", "bike_id": "518511d8e710b81d8e147e1231949e5a"}, {"lon": -77.04693166666667, "lat": 38.92108183333333, "name": "1d099034b6b85113ded4c57609c20f93", "fusion_lat": 0.0, "fusion_lon": 0.0, "rental_uris": {"android": "https://dc.lft.to/lastmile_qr_scan", "ios": "https://dc.lft.to/lastmile_qr_scan"}, "is_reserved": 0, "is_disabled": 0, "type": "electric_scooter", "bike_id": "1d099034b6b85113ded4c57609c20f93"}, {"lon": -77.0386615, "lat": 38.90969033333333, "name": "f82da297f740970be536b5372a447906", "fusion_lat": 0.0, "fusion_lon": 0.0, "rental_uris": {"android": "https://dc.lft.to/lastmile_qr_scan", "ios": "https://dc.lft.to/lastmile_qr_scan"}, "is_reserved": 0, "is_disabled": 0, "type": "electric_scooter", "bike_id": "f82da297f740970be536b5372a447906"}, {"lon": -77.03085316666666, "lat": 38.9099305, "name": "57a59ef610766c121366e0c705f7e3e1", "fusion_lat": 0.0, "fusion_lon": 0.0, "rental_uris": {"android": "https://dc.lft.to/lastmile_qr_scan", "ios": "https://dc.lft.to/lastmile_qr_scan"}, "is_reserved": 0, "is_disabled": 0, "type": "electric_scooter", "bike_id": "57a59ef610766c121366e0c705f7e3e1"}, {"lon": -77.01982283333334, "lat": 38.904786, "name": "0b4535f0a8141ff29829b171d0c097d9", "fusion_lat": 0.0, "fusion_lon": 0.0, "rental_uris": {"android": "https://dc.lft.to/lastmile_qr_scan", "ios": "https://dc.lft.to/lastmile_qr_scan"}, "is_reserved": 0, "is_disabled": 0, "type": "electric_scooter", "bike_id": "0b4535f0a8141ff29829b171d0c097d9"}, {"lon": -77.0370165, "lat": 38.91688466666667, "name": "354031999bed33f2d9feea8a7f1a2252", "fusion_lat": 0.0, "fusion_lon": 0.0, "rental_uris": {"android": "https://dc.lft.to/lastmile_qr_scan", "ios": "https://dc.lft.to/lastmile_qr_scan"}, "is_reserved": 0, "is_disabled": 0, "type": "electric_scooter", "bike_id": "354031999bed33f2d9feea8a7f1a2252"}, {"lon": -77.03521983333333, "lat": 38.92733716666667, "name": "de48c9ef27641adea47156ddbeda1457", "fusion_lat": 0.0, "fusion_lon": 0.0, "rental_uris": {"android": "https://dc.lft.to/lastmile_qr_scan", "ios": "https://dc.lft.to/lastmile_qr_scan"}, "is_reserved": 0, "is_disabled": 0, "type": "electric_scooter", "bike_id": "de48c9ef27641adea47156ddbeda1457"}, {"lon": -77.02117383333334, "lat": 38.93699566666667, "name": "465f364dba9242149d8fcf77a2f5122e", "fusion_lat": 0.0, "fusion_lon": 0.0, "rental_uris": {"android": "https://dc.lft.to/lastmile_qr_scan", "ios": "https://dc.lft.to/lastmile_qr_scan"}, "is_reserved": 0, "is_disabled": 0, "type": "electric_scooter", "bike_id": "465f364dba9242149d8fcf77a2f5122e"}, {"lon": -77.0261675, "lat": 38.89296483333333, "name": "ba3baabaab584ea9d14a5f9ce59aed3d", "fusion_lat": 0.0, "fusion_lon": 0.0, "rental_uris": {"android": "https://dc.lft.to/lastmile_qr_scan", "ios": "https://dc.lft.to/lastmile_qr_scan"}, "is_reserved": 0, "is_disabled": 0, "type": "electric_scooter", "bike_id": "ba3baabaab584ea9d14a5f9ce59aed3d"}, {"lon": -77.03700283333333, "lat": 38.92641166666667, "name": "f4f7651e793c833e96b75d91eaf75ebc", "fusion_lat": 0.0, "fusion_lon": 0.0, "rental_uris": {"android": "https://dc.lft.to/lastmile_qr_scan", "ios": "https://dc.lft.to/lastmile_qr_scan"}, "is_reserved": 0, "is_disabled": 0, "type": "electric_scooter", "bike_id": "f4f7651e793c833e96b75d91eaf75ebc"}, {"lon": -77.040369, "lat": 38.9230635, "name": "7265f86e867ac88069939af337693514", "fusion_lat": 0.0, "fusion_lon": 0.0, "rental_uris": {"android": "https://dc.lft.to/lastmile_qr_scan", "ios": "https://dc.lft.to/lastmile_qr_scan"}, "is_reserved": 0, "is_disabled": 0, "type": "electric_scooter", "bike_id": "7265f86e867ac88069939af337693514"}, {"lon": -77.00837333333334, "lat": 38.91556833333333, "name": "a5bbc7579f663fd3209c214b66028b44", "fusion_lat": 0.0, "fusion_lon": 0.0, "rental_uris": {"android": "https://dc.lft.to/lastmile_qr_scan", "ios": "https://dc.lft.to/lastmile_qr_scan"}, "is_reserved": 0, "is_disabled": 0, "type": "electric_scooter", "bike_id": "a5bbc7579f663fd3209c214b66028b44"}, {"lon": -76.905358, "lat": 38.89734283333333, "name": "f940d04b8201e97cc85c5bb1764f3984", "fusion_lat": 0.0, "fusion_lon": 0.0, "rental_uris": {"android": "https://dc.lft.to/lastmile_qr_scan", "ios": "https://dc.lft.to/lastmile_qr_scan"}, "is_reserved": 0, "is_disabled": 0, "type": "electric_bike", "bike_id": "f940d04b8201e97cc85c5bb1764f3984"}, {"lon": -77.026336, "lat": 38.91553316666667, "name": "7f4ca29cf074bde1d3e653da1532af41", "fusion_lat": 0.0, "fusion_lon": 0.0, "rental_uris": {"android": "https://dc.lft.to/lastmile_qr_scan", "ios": "https://dc.lft.to/lastmile_qr_scan"}, "is_reserved": 0, "is_disabled": 0, "type": "electric_scooter", "bike_id": "7f4ca29cf074bde1d3e653da1532af41"}, {"lon": -76.990242, "lat": 38.864069, "name": "ab18f72c7d8ec1f1e4cfed6849f2d747", "fusion_lat": 0.0, "fusion_lon": 0.0, "rental_uris": {"android": "https://dc.lft.to/lastmile_qr_scan", "ios": "https://dc.lft.to/lastmile_qr_scan"}, "is_reserved": 0, "is_disabled": 0, "type": "electric_scooter", "bike_id": "ab18f72c7d8ec1f1e4cfed6849f2d747"}, {"lon": -77.07934783333333, "lat": 38.948716, "name": "38a29a227b0b86ac04da180f0908019d", "fusion_lat": 0.0, "fusion_lon": 0.0, "rental_uris": {"android": "https://dc.lft.to/lastmile_qr_scan", "ios": "https://dc.lft.to/lastmile_qr_scan"}, "is_reserved": 0, "is_disabled": 0, "type": "electric_scooter", "bike_id": "38a29a227b0b86ac04da180f0908019d"}, {"lon": -77.003406, "lat": 38.903609333333335, "name": "f9eefd7d4ce6aa4b52037e6dd4564640", "fusion_lat": 0.0, "fusion_lon": 0.0, "rental_uris": {"android": "https://dc.lft.to/lastmile_qr_scan", "ios": "https://dc.lft.to/lastmile_qr_scan"}, "is_reserved": 0, "is_disabled": 0, "type": "electric_scooter", "bike_id": "f9eefd7d4ce6aa4b52037e6dd4564640"}, {"lon": -77.01339483333334, "lat": 38.87590216666667, "name": "630bcaf8a253a094f49dc8c77a5e0995", "fusion_lat": 0.0, "fusion_lon": 0.0, "rental_uris": {"android": "https://dc.lft.to/lastmile_qr_scan", "ios": "https://dc.lft.to/lastmile_qr_scan"}, "is_reserved": 0, "is_disabled": 0, "type": "electric_scooter", "bike_id": "630bcaf8a253a094f49dc8c77a5e0995"}, {"lon": -76.92998716666666, "lat": 38.887967333333336, "name": "4abb0bf355bcf43475b404a76b97d7ea", "fusion_lat": 0.0, "fusion_lon": 0.0, "rental_uris": {"android": "https://dc.lft.to/lastmile_qr_scan", "ios": "https://dc.lft.to/lastmile_qr_scan"}, "is_reserved": 0, "is_disabled": 0, "type": "electric_bike", "bike_id": "4abb0bf355bcf43475b404a76b97d7ea"}, {"lon": -77.06923983333333, "lat": 38.94283333333333, "name": "c3d62ad85c1776d43771eacc4a55a4a3", "fusion_lat": 0.0, "fusion_lon": 0.0, "rental_uris": {"android": "https://dc.lft.to/lastmile_qr_scan", "ios": "https://dc.lft.to/lastmile_qr_scan"}, "is_reserved": 0, "is_disabled": 0, "type": "electric_bike", "bike_id": "c3d62ad85c1776d43771eacc4a55a4a3"}, {"lon": -77.0396, "lat": 38.919927666666666, "name": "1419a9f8ddd25c17e50e236bd5629879", "fusion_lat": 0.0, "fusion_lon": 0.0, "rental_uris": {"android": "https://dc.lft.to/lastmile_qr_scan", "ios": "https://dc.lft.to/lastmile_qr_scan"}, "is_reserved": 0, "is_disabled": 0, "type": "electric_scooter", "bike_id": "1419a9f8ddd25c17e50e236bd5629879"}, {"lon": -76.987815, "lat": 38.90026983333333, "name": "0f49528168ef855384202f8cb3cdb0b0", "fusion_lat": 0.0, "fusion_lon": 0.0, "rental_uris": {"android": "https://dc.lft.to/lastmile_qr_scan", "ios": "https://dc.lft.to/lastmile_qr_scan"}, "is_reserved": 0, "is_disabled": 0, "type": "electric_scooter", "bike_id": "0f49528168ef855384202f8cb3cdb0b0"}, {"lon": -77.0496225, "lat": 38.91258033333333, "name": "e1b3407b2cc24a68dff778a6b80b98d7", "fusion_lat": 0.0, "fusion_lon": 0.0, "rental_uris": {"android": "https://dc.lft.to/lastmile_qr_scan", "ios": "https://dc.lft.to/lastmile_qr_scan"}, "is_reserved": 0, "is_disabled": 0, "type": "electric_scooter", "bike_id": "e1b3407b2cc24a68dff778a6b80b98d7"}, {"lon": -77.0017595, "lat": 38.90766816666667, "name": "c0886d1694efce0bfc8b5bd337b424fc", "fusion_lat": 0.0, "fusion_lon": 0.0, "rental_uris": {"android": "https://dc.lft.to/lastmile_qr_scan", "ios": "https://dc.lft.to/lastmile_qr_scan"}, "is_reserved": 0, "is_disabled": 0, "type": "electric_scooter", "bike_id": "c0886d1694efce0bfc8b5bd337b424fc"}, {"lon": -76.96106516666667, "lat": 38.928651333333335, "name": "0a33595b3c8d1a232f5ef21a083f040c", "fusion_lat": 0.0, "fusion_lon": 0.0, "rental_uris": {"android": "https://dc.lft.to/lastmile_qr_scan", "ios": "https://dc.lft.to/lastmile_qr_scan"}, "is_reserved": 0, "is_disabled": 0, "type": "electric_bike", "bike_id": "0a33595b3c8d1a232f5ef21a083f040c"}, {"lon": -77.00314516666667, "lat": 38.9012375, "name": "65b33dd3bea5ce33721be5ac25ebfa2d", "fusion_lat": 0.0, "fusion_lon": 0.0, "rental_uris": {"android": "https://dc.lft.to/lastmile_qr_scan", "ios": "https://dc.lft.to/lastmile_qr_scan"}, "is_reserved": 0, "is_disabled": 0, "type": "electric_scooter", "bike_id": "65b33dd3bea5ce33721be5ac25ebfa2d"}, {"lon": -77.0373085, "lat": 38.931872166666665, "name": "c9c69d330f483e1370c585a743a788a0", "fusion_lat": 0.0, "fusion_lon": 0.0, "rental_uris": {"android": "https://dc.lft.to/lastmile_qr_scan", "ios": "https://dc.lft.to/lastmile_qr_scan"}, "is_reserved": 0, "is_disabled": 0, "type": "electric_bike", "bike_id": "c9c69d330f483e1370c585a743a788a0"}, {"lon": -77.03644783333333, "lat": 38.902854166666664, "name": "2f87379cc5185fb7af88d40f0af66c8f", "fusion_lat": 0.0, "fusion_lon": 0.0, "rental_uris": {"android": "https://dc.lft.to/lastmile_qr_scan", "ios": "https://dc.lft.to/lastmile_qr_scan"}, "is_reserved": 0, "is_disabled": 0, "type": "electric_scooter", "bike_id": "2f87379cc5185fb7af88d40f0af66c8f"}, {"lon": -77.01183133333333, "lat": 38.90032866666667, "name": "6d635e0bb7a5a9f917c5ea59399246ea", "fusion_lat": 0.0, "fusion_lon": 0.0, "rental_uris": {"android": "https://dc.lft.to/lastmile_qr_scan", "ios": "https://dc.lft.to/lastmile_qr_scan"}, "is_reserved": 0, "is_disabled": 0, "type": "electric_scooter", "bike_id": "6d635e0bb7a5a9f917c5ea59399246ea"}, {"lon": -77.0040275, "lat": 38.87941683333333, "name": "57b9863688fcec13ec576848dc102e7c", "fusion_lat": 0.0, "fusion_lon": 0.0, "rental_uris": {"android": "https://dc.lft.to/lastmile_qr_scan", "ios": "https://dc.lft.to/lastmile_qr_scan"}, "is_reserved": 0, "is_disabled": 0, "type": "electric_scooter", "bike_id": "57b9863688fcec13ec576848dc102e7c"}, {"lon": -76.99941216666667, "lat": 38.8804915, "name": "79532dffce76ec41b55c7ea77db1488c", "fusion_lat": 0.0, "fusion_lon": 0.0, "rental_uris": {"android": "https://dc.lft.to/lastmile_qr_scan", "ios": "https://dc.lft.to/lastmile_qr_scan"}, "is_reserved": 0, "is_disabled": 0, "type": "electric_scooter", "bike_id": "79532dffce76ec41b55c7ea77db1488c"}, {"lon": -77.03201433333334, "lat": 38.93862883333333, "name": "87c2e005372668b1b5fe02ca2c009409", "fusion_lat": 0.0, "fusion_lon": 0.0, "rental_uris": {"android": "https://dc.lft.to/lastmile_qr_scan", "ios": "https://dc.lft.to/lastmile_qr_scan"}, "is_reserved": 0, "is_disabled": 0, "type": "electric_scooter", "bike_id": "87c2e005372668b1b5fe02ca2c009409"}, {"lon": -77.02372466666667, "lat": 38.9205115, "name": "c87ec6ee08adaca2bd1c95b8a2223fa6", "fusion_lat": 0.0, "fusion_lon": 0.0, "rental_uris": {"android": "https://dc.lft.to/lastmile_qr_scan", "ios": "https://dc.lft.to/lastmile_qr_scan"}, "is_reserved": 0, "is_disabled": 0, "type": "electric_scooter", "bike_id": "c87ec6ee08adaca2bd1c95b8a2223fa6"}, {"lon": -77.01246333333333, "lat": 38.87198466666667, "name": "8ea6c8f0212b4881b7ba7ec0673b1e9b", "fusion_lat": 0.0, "fusion_lon": 0.0, "rental_uris": {"android": "https://dc.lft.to/lastmile_qr_scan", "ios": "https://dc.lft.to/lastmile_qr_scan"}, "is_reserved": 0, "is_disabled": 0, "type": "electric_scooter", "bike_id": "8ea6c8f0212b4881b7ba7ec0673b1e9b"}, {"lon": -77.04510316666666, "lat": 38.90783183333333, "name": "b99c2f556f7f3b9c808b222317d34e86", "fusion_lat": 0.0, "fusion_lon": 0.0, "rental_uris": {"android": "https://dc.lft.to/lastmile_qr_scan", "ios": "https://dc.lft.to/lastmile_qr_scan"}, "is_reserved": 0, "is_disabled": 0, "type": "electric_scooter", "bike_id": "b99c2f556f7f3b9c808b222317d34e86"}, {"lon": -77.0055665, "lat": 38.911824833333334, "name": "780ffab820d45dc39c1780682cea01c5", "fusion_lat": 0.0, "fusion_lon": 0.0, "rental_uris": {"android": "https://dc.lft.to/lastmile_qr_scan", "ios": "https://dc.lft.to/lastmile_qr_scan"}, "is_reserved": 0, "is_disabled": 0, "type": "electric_scooter", "bike_id": "780ffab820d45dc39c1780682cea01c5"}, {"lon": -77.0269885, "lat": 38.90845066666667, "name": "57ba4747f38d73a8365a89f4c1d29cfd", "fusion_lat": 0.0, "fusion_lon": 0.0, "rental_uris": {"android": "https://dc.lft.to/lastmile_qr_scan", "ios": "https://dc.lft.to/lastmile_qr_scan"}, "is_reserved": 0, "is_disabled": 0, "type": "electric_scooter", "bike_id": "57ba4747f38d73a8365a89f4c1d29cfd"}, {"lon": -77.0193925, "lat": 38.9492745, "name": "ab9e9d878200dfceab511b1f032e6c17", "fusion_lat": 0.0, "fusion_lon": 0.0, "rental_uris": {"android": "https://dc.lft.to/lastmile_qr_scan", "ios": "https://dc.lft.to/lastmile_qr_scan"}, "is_reserved": 0, "is_disabled": 0, "type": "electric_scooter", "bike_id": "ab9e9d878200dfceab511b1f032e6c17"}, {"lon": -77.04372483333333, "lat": 38.925751166666664, "name": "0daaeeb3ac6add695493755f6ec03cf9", "fusion_lat": 0.0, "fusion_lon": 0.0, "rental_uris": {"android": "https://dc.lft.to/lastmile_qr_scan", "ios": "https://dc.lft.to/lastmile_qr_scan"}, "is_reserved": 0, "is_disabled": 0, "type": "electric_scooter", "bike_id": "0daaeeb3ac6add695493755f6ec03cf9"}, {"lon": -77.03274366666666, "lat": 38.93078283333333, "name": "162955236969a573e4e3bcbbdfc7e4b5", "fusion_lat": 0.0, "fusion_lon": 0.0, "rental_uris": {"android": "https://dc.lft.to/lastmile_qr_scan", "ios": "https://dc.lft.to/lastmile_qr_scan"}, "is_reserved": 0, "is_disabled": 0, "type": "electric_scooter", "bike_id": "162955236969a573e4e3bcbbdfc7e4b5"}, {"lon": -77.02134266666667, "lat": 38.935680833333336, "name": "460c7173b7ed8c7c25daa1017be67f5b", "fusion_lat": 0.0, "fusion_lon": 0.0, "rental_uris": {"android": "https://dc.lft.to/lastmile_qr_scan", "ios": "https://dc.lft.to/lastmile_qr_scan"}, "is_reserved": 0, "is_disabled": 0, "type": "electric_scooter", "bike_id": "460c7173b7ed8c7c25daa1017be67f5b"}, {"lon": -77.048503, "lat": 38.909733, "name": "ac56c23b1bad20fb3b46edb4ee89f5ab", "fusion_lat": 0.0, "fusion_lon": 0.0, "rental_uris": {"android": "https://dc.lft.to/lastmile_qr_scan", "ios": "https://dc.lft.to/lastmile_qr_scan"}, "is_reserved": 0, "is_disabled": 0, "type": "electric_bike", "bike_id": "ac56c23b1bad20fb3b46edb4ee89f5ab"}, {"lon": -77.03379116666666, "lat": 38.909765666666665, "name": "acc71adfe58bb11ffffb08ebe2aa2687", "fusion_lat": 0.0, "fusion_lon": 0.0, "rental_uris": {"android": "https://dc.lft.to/lastmile_qr_scan", "ios": "https://dc.lft.to/lastmile_qr_scan"}, "is_reserved": 0, "is_disabled": 0, "type": "electric_scooter", "bike_id": "acc71adfe58bb11ffffb08ebe2aa2687"}, {"lon": -76.99950866666667, "lat": 38.84290283333333, "name": "f7acf6a440c3e1359ebd12f3ee210d4c", "fusion_lat": 0.0, "fusion_lon": 0.0, "rental_uris": {"android": "https://dc.lft.to/lastmile_qr_scan", "ios": "https://dc.lft.to/lastmile_qr_scan"}, "is_reserved": 0, "is_disabled": 0, "type": "electric_scooter", "bike_id": "f7acf6a440c3e1359ebd12f3ee210d4c"}, {"lon": -77.0380975, "lat": 38.9205875, "name": "acf02de70509c0267af26d99a1940561", "fusion_lat": 0.0, "fusion_lon": 0.0, "rental_uris": {"android": "https://dc.lft.to/lastmile_qr_scan", "ios": "https://dc.lft.to/lastmile_qr_scan"}, "is_reserved": 0, "is_disabled": 0, "type": "electric_scooter", "bike_id": "acf02de70509c0267af26d99a1940561"}, {"lon": -77.0333375, "lat": 38.89855333333333, "name": "d08ea05f56ef36030e073499f12e6589", "fusion_lat": 0.0, "fusion_lon": 0.0, "rental_uris": {"android": "https://dc.lft.to/lastmile_qr_scan", "ios": "https://dc.lft.to/lastmile_qr_scan"}, "is_reserved": 0, "is_disabled": 0, "type": "electric_scooter", "bike_id": "d08ea05f56ef36030e073499f12e6589"}, {"lon": -76.987553, "lat": 38.8450015, "name": "1ea051c97317a07c89130d356671513b", "fusion_lat": 0.0, "fusion_lon": 0.0, "rental_uris": {"android": "https://dc.lft.to/lastmile_qr_scan", "ios": "https://dc.lft.to/lastmile_qr_scan"}, "is_reserved": 0, "is_disabled": 0, "type": "electric_scooter", "bike_id": "1ea051c97317a07c89130d356671513b"}, {"lon": -77.03632566666667, "lat": 38.92918133333333, "name": "d7e3300bd9c666aec0fac57a3b770c5f", "fusion_lat": 0.0, "fusion_lon": 0.0, "rental_uris": {"android": "https://dc.lft.to/lastmile_qr_scan", "ios": "https://dc.lft.to/lastmile_qr_scan"}, "is_reserved": 0, "is_disabled": 0, "type": "electric_scooter", "bike_id": "d7e3300bd9c666aec0fac57a3b770c5f"}, {"lon": -77.03659183333333, "lat": 38.9117585, "name": "0a194468f630718e5d00836551b1ff83", "fusion_lat": 0.0, "fusion_lon": 0.0, "rental_uris": {"android": "https://dc.lft.to/lastmile_qr_scan", "ios": "https://dc.lft.to/lastmile_qr_scan"}, "is_reserved": 0, "is_disabled": 0, "type": "electric_scooter", "bike_id": "0a194468f630718e5d00836551b1ff83"}, {"lon": -77.026331, "lat": 38.89220916666667, "name": "f09f9327096367f75da953364a7c349d", "fusion_lat": 0.0, "fusion_lon": 0.0, "rental_uris": {"android": "https://dc.lft.to/lastmile_qr_scan", "ios": "https://dc.lft.to/lastmile_qr_scan"}, "is_reserved": 0, "is_disabled": 0, "type": "electric_scooter", "bike_id": "f09f9327096367f75da953364a7c349d"}, {"lon": -77.135959, "lat": 39.0534675, "name": "0aad812cac4d19b9cd9f9fbbf1aad440", "fusion_lat": 0.0, "fusion_lon": 0.0, "rental_uris": {"android": "https://dc.lft.to/lastmile_qr_scan", "ios": "https://dc.lft.to/lastmile_qr_scan"}, "is_reserved": 0, "is_disabled": 0, "type": "electric_bike", "bike_id": "0aad812cac4d19b9cd9f9fbbf1aad440"}, {"lon": -77.03473216666667, "lat": 38.92871366666667, "name": "f4448e66bf8b587dca403d569f976db7", "fusion_lat": 0.0, "fusion_lon": 0.0, "rental_uris": {"android": "https://dc.lft.to/lastmile_qr_scan", "ios": "https://dc.lft.to/lastmile_qr_scan"}, "is_reserved": 0, "is_disabled": 0, "type": "electric_scooter", "bike_id": "f4448e66bf8b587dca403d569f976db7"}, {"lon": -77.0642265, "lat": 38.84331783333333, "name": "416d7c64a464c901f7f7838750b90992", "fusion_lat": 0.0, "fusion_lon": 0.0, "rental_uris": {"android": "https://dc.lft.to/lastmile_qr_scan", "ios": "https://dc.lft.to/lastmile_qr_scan"}, "is_reserved": 0, "is_disabled": 0, "type": "electric_bike", "bike_id": "416d7c64a464c901f7f7838750b90992"}, {"lon": -77.02373366666667, "lat": 38.90195283333333, "name": "81ef382a0cb75513768f9501334a9680", "fusion_lat": 0.0, "fusion_lon": 0.0, "rental_uris": {"android": "https://dc.lft.to/lastmile_qr_scan", "ios": "https://dc.lft.to/lastmile_qr_scan"}, "is_reserved": 0, "is_disabled": 0, "type": "electric_scooter", "bike_id": "81ef382a0cb75513768f9501334a9680"}, {"lon": -77.01439266666667, "lat": 38.87777233333333, "name": "a2f978e1373a7eee9f0cf794d66735b9", "fusion_lat": 0.0, "fusion_lon": 0.0, "rental_uris": {"android": "https://dc.lft.to/lastmile_qr_scan", "ios": "https://dc.lft.to/lastmile_qr_scan"}, "is_reserved": 0, "is_disabled": 0, "type": "electric_scooter", "bike_id": "a2f978e1373a7eee9f0cf794d66735b9"}, {"lon": -76.94853583333334, "lat": 38.882978, "name": "b2bbb66738cd49723836ac6d7a489b06", "fusion_lat": 0.0, "fusion_lon": 0.0, "rental_uris": {"android": "https://dc.lft.to/lastmile_qr_scan", "ios": "https://dc.lft.to/lastmile_qr_scan"}, "is_reserved": 0, "is_disabled": 0, "type": "electric_scooter", "bike_id": "b2bbb66738cd49723836ac6d7a489b06"}, {"lon": -76.95404166666667, "lat": 38.89156166666667, "name": "3be87a1bf972fdb2d44b5a8a51191ed3", "fusion_lat": 0.0, "fusion_lon": 0.0, "rental_uris": {"android": "https://dc.lft.to/lastmile_qr_scan", "ios": "https://dc.lft.to/lastmile_qr_scan"}, "is_reserved": 0, "is_disabled": 0, "type": "electric_scooter", "bike_id": "3be87a1bf972fdb2d44b5a8a51191ed3"}, {"lon": -77.043723, "lat": 38.90390766666667, "name": "976ff894c7e3791635ea3d3178cb1e56", "fusion_lat": 0.0, "fusion_lon": 0.0, "rental_uris": {"android": "https://dc.lft.to/lastmile_qr_scan", "ios": "https://dc.lft.to/lastmile_qr_scan"}, "is_reserved": 0, "is_disabled": 0, "type": "electric_scooter", "bike_id": "976ff894c7e3791635ea3d3178cb1e56"}, {"lon": -77.0318095, "lat": 38.919127833333334, "name": "5a6fb15d07dd90637fe59bf3557fa0a4", "fusion_lat": 0.0, "fusion_lon": 0.0, "rental_uris": {"android": "https://dc.lft.to/lastmile_qr_scan", "ios": "https://dc.lft.to/lastmile_qr_scan"}, "is_reserved": 0, "is_disabled": 0, "type": "electric_scooter", "bike_id": "5a6fb15d07dd90637fe59bf3557fa0a4"}, {"lon": -77.0344735, "lat": 38.90736783333333, "name": "5c0c70ef5e6b9d59fda2edb888ea95d8", "fusion_lat": 0.0, "fusion_lon": 0.0, "rental_uris": {"android": "https://dc.lft.to/lastmile_qr_scan", "ios": "https://dc.lft.to/lastmile_qr_scan"}, "is_reserved": 0, "is_disabled": 0, "type": "electric_scooter", "bike_id": "5c0c70ef5e6b9d59fda2edb888ea95d8"}, {"lon": -77.07274916666667, "lat": 38.90920216666667, "name": "27aaa65585edad1d46c3f12e32debdca", "fusion_lat": 0.0, "fusion_lon": 0.0, "rental_uris": {"android": "https://dc.lft.to/lastmile_qr_scan", "ios": "https://dc.lft.to/lastmile_qr_scan"}, "is_reserved": 0, "is_disabled": 0, "type": "electric_scooter", "bike_id": "27aaa65585edad1d46c3f12e32debdca"}, {"lon": -77.00212066666667, "lat": 38.902206666666665, "name": "56fa9bb9229080b82d072a5b32776bda", "fusion_lat": 0.0, "fusion_lon": 0.0, "rental_uris": {"android": "https://dc.lft.to/lastmile_qr_scan", "ios": "https://dc.lft.to/lastmile_qr_scan"}, "is_reserved": 0, "is_disabled": 0, "type": "electric_scooter", "bike_id": "56fa9bb9229080b82d072a5b32776bda"}, {"lon": -77.03212183333333, "lat": 38.9089565, "name": "61e95567fe33320e43b6a68911dfb305", "fusion_lat": 0.0, "fusion_lon": 0.0, "rental_uris": {"android": "https://dc.lft.to/lastmile_qr_scan", "ios": "https://dc.lft.to/lastmile_qr_scan"}, "is_reserved": 0, "is_disabled": 0, "type": "electric_bike", "bike_id": "61e95567fe33320e43b6a68911dfb305"}, {"lon": -77.05756866666667, "lat": 38.92500866666666, "name": "09d26d582e34e03fff7457d4380295d7", "fusion_lat": 0.0, "fusion_lon": 0.0, "rental_uris": {"android": "https://dc.lft.to/lastmile_qr_scan", "ios": "https://dc.lft.to/lastmile_qr_scan"}, "is_reserved": 0, "is_disabled": 0, "type": "electric_bike", "bike_id": "09d26d582e34e03fff7457d4380295d7"}, {"lon": -76.91654983333333, "lat": 38.868580333333334, "name": "76eed119d27d150b7abc39c3bf24fc2c", "fusion_lat": 0.0, "fusion_lon": 0.0, "rental_uris": {"android": "https://dc.lft.to/lastmile_qr_scan", "ios": "https://dc.lft.to/lastmile_qr_scan"}, "is_reserved": 0, "is_disabled": 0, "type": "electric_bike", "bike_id": "76eed119d27d150b7abc39c3bf24fc2c"}, {"lon": -77.01746683333333, "lat": 38.902631, "name": "4a1d9ec1ba72acb21e20c142e3f4de3e", "fusion_lat": 0.0, "fusion_lon": 0.0, "rental_uris": {"android": "https://dc.lft.to/lastmile_qr_scan", "ios": "https://dc.lft.to/lastmile_qr_scan"}, "is_reserved": 0, "is_disabled": 0, "type": "electric_scooter", "bike_id": "4a1d9ec1ba72acb21e20c142e3f4de3e"}, {"lon": -77.10766833333334, "lat": 38.89228966666667, "name": "cd8ff9c1568db4b26d5e880b469be7dd", "fusion_lat": 0.0, "fusion_lon": 0.0, "rental_uris": {"android": "https://dc.lft.to/lastmile_qr_scan", "ios": "https://dc.lft.to/lastmile_qr_scan"}, "is_reserved": 0, "is_disabled": 0, "type": "electric_bike", "bike_id": "cd8ff9c1568db4b26d5e880b469be7dd"}, {"lon": -77.02696316666666, "lat": 38.915152166666665, "name": "8bdc8daba0884c8efab9d6e94eb2f428", "fusion_lat": 0.0, "fusion_lon": 0.0, "rental_uris": {"android": "https://dc.lft.to/lastmile_qr_scan", "ios": "https://dc.lft.to/lastmile_qr_scan"}, "is_reserved": 0, "is_disabled": 0, "type": "electric_scooter", "bike_id": "8bdc8daba0884c8efab9d6e94eb2f428"}, {"lon": -77.02178083333334, "lat": 38.8970745, "name": "0aa29a343318c9dc9cefb35b499ad558", "fusion_lat": 0.0, "fusion_lon": 0.0, "rental_uris": {"android": "https://dc.lft.to/lastmile_qr_scan", "ios": "https://dc.lft.to/lastmile_qr_scan"}, "is_reserved": 0, "is_disabled": 0, "type": "electric_scooter", "bike_id": "0aa29a343318c9dc9cefb35b499ad558"}, {"lon": -77.02941, "lat": 38.94276216666667, "name": "2b32ed43301a6eafa12213150f61c05d", "fusion_lat": 0.0, "fusion_lon": 0.0, "rental_uris": {"android": "https://dc.lft.to/lastmile_qr_scan", "ios": "https://dc.lft.to/lastmile_qr_scan"}, "is_reserved": 0, "is_disabled": 0, "type": "electric_scooter", "bike_id": "2b32ed43301a6eafa12213150f61c05d"}, {"lon": -77.12900666666667, "lat": 38.8637625, "name": "438475c5e7f622e869b4938af25e5f65", "fusion_lat": 0.0, "fusion_lon": 0.0, "rental_uris": {"android": "https://dc.lft.to/lastmile_qr_scan", "ios": "https://dc.lft.to/lastmile_qr_scan"}, "is_reserved": 0, "is_disabled": 0, "type": "electric_bike", "bike_id": "438475c5e7f622e869b4938af25e5f65"}, {"lon": -77.00553566666666, "lat": 38.8753425, "name": "b107be345eb625d177a741ca8037fa88", "fusion_lat": 0.0, "fusion_lon": 0.0, "rental_uris": {"android": "https://dc.lft.to/lastmile_qr_scan", "ios": "https://dc.lft.to/lastmile_qr_scan"}, "is_reserved": 0, "is_disabled": 0, "type": "electric_scooter", "bike_id": "b107be345eb625d177a741ca8037fa88"}, {"lon": -77.03387883333333, "lat": 38.886596833333336, "name": "2cd453f1ff4418f69281339c91acad4c", "fusion_lat": 0.0, "fusion_lon": 0.0, "rental_uris": {"android": "https://dc.lft.to/lastmile_qr_scan", "ios": "https://dc.lft.to/lastmile_qr_scan"}, "is_reserved": 0, "is_disabled": 0, "type": "electric_scooter", "bike_id": "2cd453f1ff4418f69281339c91acad4c"}, {"lon": -77.02396733333333, "lat": 38.9309565, "name": "be74e171e351902c43f5faf18735dc24", "fusion_lat": 0.0, "fusion_lon": 0.0, "rental_uris": {"android": "https://dc.lft.to/lastmile_qr_scan", "ios": "https://dc.lft.to/lastmile_qr_scan"}, "is_reserved": 0, "is_disabled": 0, "type": "electric_scooter", "bike_id": "be74e171e351902c43f5faf18735dc24"}, {"lon": -77.04494466666667, "lat": 38.900506, "name": "d83d1b32fe5dfcd6e48b3054ebabc7df", "fusion_lat": 0.0, "fusion_lon": 0.0, "rental_uris": {"android": "https://dc.lft.to/lastmile_qr_scan", "ios": "https://dc.lft.to/lastmile_qr_scan"}, "is_reserved": 0, "is_disabled": 0, "type": "electric_scooter", "bike_id": "d83d1b32fe5dfcd6e48b3054ebabc7df"}, {"lon": -77.03512466666666, "lat": 38.918768666666665, "name": "feb2e900c8fedf69322f8adb62005470", "fusion_lat": 0.0, "fusion_lon": 0.0, "rental_uris": {"android": "https://dc.lft.to/lastmile_qr_scan", "ios": "https://dc.lft.to/lastmile_qr_scan"}, "is_reserved": 0, "is_disabled": 0, "type": "electric_scooter", "bike_id": "feb2e900c8fedf69322f8adb62005470"}, {"lon": -77.06023033333334, "lat": 38.93941933333333, "name": "0f26974abdec0eaf410035d2b72a82be", "fusion_lat": 0.0, "fusion_lon": 0.0, "rental_uris": {"android": "https://dc.lft.to/lastmile_qr_scan", "ios": "https://dc.lft.to/lastmile_qr_scan"}, "is_reserved": 0, "is_disabled": 0, "type": "electric_scooter", "bike_id": "0f26974abdec0eaf410035d2b72a82be"}, {"lon": -77.0505005, "lat": 38.924087166666666, "name": "2ef86ba443e3bdb92307e514d0b9a3cf", "fusion_lat": 0.0, "fusion_lon": 0.0, "rental_uris": {"android": "https://dc.lft.to/lastmile_qr_scan", "ios": "https://dc.lft.to/lastmile_qr_scan"}, "is_reserved": 0, "is_disabled": 0, "type": "electric_scooter", "bike_id": "2ef86ba443e3bdb92307e514d0b9a3cf"}, {"lon": -76.94122116666666, "lat": 38.90794916666667, "name": "badd414c53eba10ff00fff77f3d8ec2f", "fusion_lat": 0.0, "fusion_lon": 0.0, "rental_uris": {"android": "https://dc.lft.to/lastmile_qr_scan", "ios": "https://dc.lft.to/lastmile_qr_scan"}, "is_reserved": 0, "is_disabled": 0, "type": "electric_scooter", "bike_id": "badd414c53eba10ff00fff77f3d8ec2f"}, {"lon": -77.1274305, "lat": 38.888195833333334, "name": "e8961b2f0e51711a3d0ff307fccd9f26", "fusion_lat": 0.0, "fusion_lon": 0.0, "rental_uris": {"android": "https://dc.lft.to/lastmile_qr_scan", "ios": "https://dc.lft.to/lastmile_qr_scan"}, "is_reserved": 0, "is_disabled": 0, "type": "electric_bike", "bike_id": "e8961b2f0e51711a3d0ff307fccd9f26"}, {"lon": -77.03829983333334, "lat": 38.911085, "name": "1685450f5b1740b99bff730eb05284bd", "fusion_lat": 0.0, "fusion_lon": 0.0, "rental_uris": {"android": "https://dc.lft.to/lastmile_qr_scan", "ios": "https://dc.lft.to/lastmile_qr_scan"}, "is_reserved": 0, "is_disabled": 0, "type": "electric_scooter", "bike_id": "1685450f5b1740b99bff730eb05284bd"}, {"lon": -77.02886266666667, "lat": 38.90367116666667, "name": "6a995a21ca2fb329be355167ad88b478", "fusion_lat": 0.0, "fusion_lon": 0.0, "rental_uris": {"android": "https://dc.lft.to/lastmile_qr_scan", "ios": "https://dc.lft.to/lastmile_qr_scan"}, "is_reserved": 0, "is_disabled": 0, "type": "electric_scooter", "bike_id": "6a995a21ca2fb329be355167ad88b478"}, {"lon": -77.04658666666667, "lat": 38.90425966666667, "name": "40fe02bb2aec7856cd3a5b75f383fc36", "fusion_lat": 0.0, "fusion_lon": 0.0, "rental_uris": {"android": "https://dc.lft.to/lastmile_qr_scan", "ios": "https://dc.lft.to/lastmile_qr_scan"}, "is_reserved": 0, "is_disabled": 0, "type": "electric_scooter", "bike_id": "40fe02bb2aec7856cd3a5b75f383fc36"}, {"lon": -77.01781083333333, "lat": 38.898481, "name": "fa678505a2dc70e185ca79a49eddb401", "fusion_lat": 0.0, "fusion_lon": 0.0, "rental_uris": {"android": "https://dc.lft.to/lastmile_qr_scan", "ios": "https://dc.lft.to/lastmile_qr_scan"}, "is_reserved": 0, "is_disabled": 0, "type": "electric_scooter", "bike_id": "fa678505a2dc70e185ca79a49eddb401"}, {"lon": -76.99958366666667, "lat": 38.90864466666667, "name": "944ec1424385ac7c670e6d73d27d98d7", "fusion_lat": 0.0, "fusion_lon": 0.0, "rental_uris": {"android": "https://dc.lft.to/lastmile_qr_scan", "ios": "https://dc.lft.to/lastmile_qr_scan"}, "is_reserved": 0, "is_disabled": 0, "type": "electric_scooter", "bike_id": "944ec1424385ac7c670e6d73d27d98d7"}, {"lon": -77.044339, "lat": 38.92326933333333, "name": "a2265af611ba86f47270e0008725989f", "fusion_lat": 0.0, "fusion_lon": 0.0, "rental_uris": {"android": "https://dc.lft.to/lastmile_qr_scan", "ios": "https://dc.lft.to/lastmile_qr_scan"}, "is_reserved": 0, "is_disabled": 0, "type": "electric_scooter", "bike_id": "a2265af611ba86f47270e0008725989f"}, {"lon": -76.93659616666666, "lat": 38.902856166666666, "name": "17741e533f2801917f4d25778c7c0209", "fusion_lat": 0.0, "fusion_lon": 0.0, "rental_uris": {"android": "https://dc.lft.to/lastmile_qr_scan", "ios": "https://dc.lft.to/lastmile_qr_scan"}, "is_reserved": 0, "is_disabled": 0, "type": "electric_scooter", "bike_id": "17741e533f2801917f4d25778c7c0209"}, {"lon": -77.02538066666666, "lat": 38.924055, "name": "6e397fb10e5b240ad20d71a2fac15666", "fusion_lat": 0.0, "fusion_lon": 0.0, "rental_uris": {"android": "https://dc.lft.to/lastmile_qr_scan", "ios": "https://dc.lft.to/lastmile_qr_scan"}, "is_reserved": 0, "is_disabled": 0, "type": "electric_scooter", "bike_id": "6e397fb10e5b240ad20d71a2fac15666"}, {"lon": -77.02391883333334, "lat": 38.88735716666667, "name": "c05e03358f0d47986dea3f415d42bce8", "fusion_lat": 0.0, "fusion_lon": 0.0, "rental_uris": {"android": "https://dc.lft.to/lastmile_qr_scan", "ios": "https://dc.lft.to/lastmile_qr_scan"}, "is_reserved": 0, "is_disabled": 0, "type": "electric_scooter", "bike_id": "c05e03358f0d47986dea3f415d42bce8"}, {"lon": -77.06162233333333, "lat": 38.94226366666667, "name": "303fb10394ea637c26f92903924e9780", "fusion_lat": 0.0, "fusion_lon": 0.0, "rental_uris": {"android": "https://dc.lft.to/lastmile_qr_scan", "ios": "https://dc.lft.to/lastmile_qr_scan"}, "is_reserved": 0, "is_disabled": 0, "type": "electric_scooter", "bike_id": "303fb10394ea637c26f92903924e9780"}, {"lon": -76.931594, "lat": 38.898776, "name": "227ad710655b3bd218df3b8b13229127", "fusion_lat": 0.0, "fusion_lon": 0.0, "rental_uris": {"android": "https://dc.lft.to/lastmile_qr_scan", "ios": "https://dc.lft.to/lastmile_qr_scan"}, "is_reserved": 0, "is_disabled": 0, "type": "electric_scooter", "bike_id": "227ad710655b3bd218df3b8b13229127"}, {"lon": -77.03465433333334, "lat": 38.91466633333334, "name": "5ac0e120ecbaa82530e4bca3b30e08bb", "fusion_lat": 0.0, "fusion_lon": 0.0, "rental_uris": {"android": "https://dc.lft.to/lastmile_qr_scan", "ios": "https://dc.lft.to/lastmile_qr_scan"}, "is_reserved": 0, "is_disabled": 0, "type": "electric_scooter", "bike_id": "5ac0e120ecbaa82530e4bca3b30e08bb"}, {"lon": -77.04177883333334, "lat": 38.918554666666665, "name": "3e0dbd2eef97f6b3855d1577339ea9fe", "fusion_lat": 0.0, "fusion_lon": 0.0, "rental_uris": {"android": "https://dc.lft.to/lastmile_qr_scan", "ios": "https://dc.lft.to/lastmile_qr_scan"}, "is_reserved": 0, "is_disabled": 0, "type": "electric_scooter", "bike_id": "3e0dbd2eef97f6b3855d1577339ea9fe"}, {"lon": -77.01733033333333, "lat": 38.907186, "name": "39d0e65830f113e2d3294e608bf1307a", "fusion_lat": 0.0, "fusion_lon": 0.0, "rental_uris": {"android": "https://dc.lft.to/lastmile_qr_scan", "ios": "https://dc.lft.to/lastmile_qr_scan"}, "is_reserved": 0, "is_disabled": 0, "type": "electric_scooter", "bike_id": "39d0e65830f113e2d3294e608bf1307a"}, {"lon": -76.98772516666666, "lat": 38.91172616666667, "name": "2fa895db4b040c7f2270531eb624f70b", "fusion_lat": 0.0, "fusion_lon": 0.0, "rental_uris": {"android": "https://dc.lft.to/lastmile_qr_scan", "ios": "https://dc.lft.to/lastmile_qr_scan"}, "is_reserved": 0, "is_disabled": 0, "type": "electric_scooter", "bike_id": "2fa895db4b040c7f2270531eb624f70b"}, {"lon": -77.03941916666666, "lat": 38.9081415, "name": "130f685f3d866e9b113e3a13d420138d", "fusion_lat": 0.0, "fusion_lon": 0.0, "rental_uris": {"android": "https://dc.lft.to/lastmile_qr_scan", "ios": "https://dc.lft.to/lastmile_qr_scan"}, "is_reserved": 0, "is_disabled": 0, "type": "electric_scooter", "bike_id": "130f685f3d866e9b113e3a13d420138d"}, {"lon": -76.94665433333333, "lat": 38.8986815, "name": "4c60056d9748963b2f94548af7f7bdac", "fusion_lat": 0.0, "fusion_lon": 0.0, "rental_uris": {"android": "https://dc.lft.to/lastmile_qr_scan", "ios": "https://dc.lft.to/lastmile_qr_scan"}, "is_reserved": 0, "is_disabled": 0, "type": "electric_scooter", "bike_id": "4c60056d9748963b2f94548af7f7bdac"}, {"lon": -77.02212866666666, "lat": 38.905751, "name": "9faa2096923843718e7a8312576cac1f", "fusion_lat": 0.0, "fusion_lon": 0.0, "rental_uris": {"android": "https://dc.lft.to/lastmile_qr_scan", "ios": "https://dc.lft.to/lastmile_qr_scan"}, "is_reserved": 0, "is_disabled": 0, "type": "electric_scooter", "bike_id": "9faa2096923843718e7a8312576cac1f"}, {"lon": -77.0279305, "lat": 38.93081266666667, "name": "db16780404e7e3fefbcac2d6d09f7272", "fusion_lat": 0.0, "fusion_lon": 0.0, "rental_uris": {"android": "https://dc.lft.to/lastmile_qr_scan", "ios": "https://dc.lft.to/lastmile_qr_scan"}, "is_reserved": 0, "is_disabled": 0, "type": "electric_scooter", "bike_id": "db16780404e7e3fefbcac2d6d09f7272"}, {"lon": -77.0020085, "lat": 38.914335, "name": "408b8da92fc113c3ac7c40489839ea90", "fusion_lat": 0.0, "fusion_lon": 0.0, "rental_uris": {"android": "https://dc.lft.to/lastmile_qr_scan", "ios": "https://dc.lft.to/lastmile_qr_scan"}, "is_reserved": 0, "is_disabled": 0, "type": "electric_scooter", "bike_id": "408b8da92fc113c3ac7c40489839ea90"}, {"lon": -77.04689283333333, "lat": 38.921314833333334, "name": "4e69a9e83acf2af4368ef1e468d7ecf8", "fusion_lat": 0.0, "fusion_lon": 0.0, "rental_uris": {"android": "https://dc.lft.to/lastmile_qr_scan", "ios": "https://dc.lft.to/lastmile_qr_scan"}, "is_reserved": 0, "is_disabled": 0, "type": "electric_scooter", "bike_id": "4e69a9e83acf2af4368ef1e468d7ecf8"}, {"lon": -77.04740533333333, "lat": 38.9125825, "name": "2eefb37213db66452f4270f1581eda42", "fusion_lat": 0.0, "fusion_lon": 0.0, "rental_uris": {"android": "https://dc.lft.to/lastmile_qr_scan", "ios": "https://dc.lft.to/lastmile_qr_scan"}, "is_reserved": 0, "is_disabled": 0, "type": "electric_scooter", "bike_id": "2eefb37213db66452f4270f1581eda42"}, {"lon": -77.0236995, "lat": 38.901961166666666, "name": "4360fb18de6589aad7ba5e4b33dfda5e", "fusion_lat": 0.0, "fusion_lon": 0.0, "rental_uris": {"android": "https://dc.lft.to/lastmile_qr_scan", "ios": "https://dc.lft.to/lastmile_qr_scan"}, "is_reserved": 0, "is_disabled": 0, "type": "electric_scooter", "bike_id": "4360fb18de6589aad7ba5e4b33dfda5e"}, {"lon": -77.03490233333333, "lat": 38.9373995, "name": "2ea4fd446b3d565790b10fead766ea1c", "fusion_lat": 0.0, "fusion_lon": 0.0, "rental_uris": {"android": "https://dc.lft.to/lastmile_qr_scan", "ios": "https://dc.lft.to/lastmile_qr_scan"}, "is_reserved": 0, "is_disabled": 0, "type": "electric_scooter", "bike_id": "2ea4fd446b3d565790b10fead766ea1c"}, {"lon": -77.03189633333334, "lat": 38.892489833333336, "name": "7cc551e72c437d57cf897d1c5af9d439", "fusion_lat": 0.0, "fusion_lon": 0.0, "rental_uris": {"android": "https://dc.lft.to/lastmile_qr_scan", "ios": "https://dc.lft.to/lastmile_qr_scan"}, "is_reserved": 0, "is_disabled": 0, "type": "electric_scooter", "bike_id": "7cc551e72c437d57cf897d1c5af9d439"}, {"lon": -77.04542416666666, "lat": 38.89479433333333, "name": "aa4e393c202f419487db283684b425fe", "fusion_lat": 0.0, "fusion_lon": 0.0, "rental_uris": {"android": "https://dc.lft.to/lastmile_qr_scan", "ios": "https://dc.lft.to/lastmile_qr_scan"}, "is_reserved": 0, "is_disabled": 0, "type": "electric_scooter", "bike_id": "aa4e393c202f419487db283684b425fe"}, {"lon": -77.0334055, "lat": 38.898376999999996, "name": "84d3aa4ffda9b7f7df32ad06e3ef2260", "fusion_lat": 0.0, "fusion_lon": 0.0, "rental_uris": {"android": "https://dc.lft.to/lastmile_qr_scan", "ios": "https://dc.lft.to/lastmile_qr_scan"}, "is_reserved": 0, "is_disabled": 0, "type": "electric_scooter", "bike_id": "84d3aa4ffda9b7f7df32ad06e3ef2260"}, {"lon": -76.94771333333334, "lat": 38.8962945, "name": "4f9f57019cefb61ea2fa3fab4f5c6d5f", "fusion_lat": 0.0, "fusion_lon": 0.0, "rental_uris": {"android": "https://dc.lft.to/lastmile_qr_scan", "ios": "https://dc.lft.to/lastmile_qr_scan"}, "is_reserved": 0, "is_disabled": 0, "type": "electric_bike", "bike_id": "4f9f57019cefb61ea2fa3fab4f5c6d5f"}, {"lon": -76.999629, "lat": 38.908616333333335, "name": "80cbb7c070524ac4594db43744247f4e", "fusion_lat": 0.0, "fusion_lon": 0.0, "rental_uris": {"android": "https://dc.lft.to/lastmile_qr_scan", "ios": "https://dc.lft.to/lastmile_qr_scan"}, "is_reserved": 0, "is_disabled": 0, "type": "electric_scooter", "bike_id": "80cbb7c070524ac4594db43744247f4e"}, {"lon": -76.99083766666666, "lat": 38.8428755, "name": "94f1118ea467496346978a8480197bc2", "fusion_lat": 0.0, "fusion_lon": 0.0, "rental_uris": {"android": "https://dc.lft.to/lastmile_qr_scan", "ios": "https://dc.lft.to/lastmile_qr_scan"}, "is_reserved": 0, "is_disabled": 0, "type": "electric_scooter", "bike_id": "94f1118ea467496346978a8480197bc2"}, {"lon": -77.01900083333334, "lat": 38.93916266666667, "name": "2c020bc6261a311f1818de06faad0ea2", "fusion_lat": 0.0, "fusion_lon": 0.0, "rental_uris": {"android": "https://dc.lft.to/lastmile_qr_scan", "ios": "https://dc.lft.to/lastmile_qr_scan"}, "is_reserved": 0, "is_disabled": 0, "type": "electric_scooter", "bike_id": "2c020bc6261a311f1818de06faad0ea2"}, {"lon": -77.0297205, "lat": 38.916805833333335, "name": "828e1a94e7404575c6f34cb7ffedb203", "fusion_lat": 0.0, "fusion_lon": 0.0, "rental_uris": {"android": "https://dc.lft.to/lastmile_qr_scan", "ios": "https://dc.lft.to/lastmile_qr_scan"}, "is_reserved": 0, "is_disabled": 0, "type": "electric_scooter", "bike_id": "828e1a94e7404575c6f34cb7ffedb203"}, {"lon": -76.98608566666667, "lat": 38.9257265, "name": "c69b5a5a145d63ad622e8fc14ea35e29", "fusion_lat": 0.0, "fusion_lon": 0.0, "rental_uris": {"android": "https://dc.lft.to/lastmile_qr_scan", "ios": "https://dc.lft.to/lastmile_qr_scan"}, "is_reserved": 0, "is_disabled": 0, "type": "electric_bike", "bike_id": "c69b5a5a145d63ad622e8fc14ea35e29"}, {"lon": -76.9702075, "lat": 38.920336166666665, "name": "04b24375ccdbca7afac013bb3d4888a3", "fusion_lat": 0.0, "fusion_lon": 0.0, "rental_uris": {"android": "https://dc.lft.to/lastmile_qr_scan", "ios": "https://dc.lft.to/lastmile_qr_scan"}, "is_reserved": 0, "is_disabled": 0, "type": "electric_scooter", "bike_id": "04b24375ccdbca7afac013bb3d4888a3"}, {"lon": -76.98697366666667, "lat": 38.907017, "name": "095495a7e407961986f87c71e5cff04b", "fusion_lat": 0.0, "fusion_lon": 0.0, "rental_uris": {"android": "https://dc.lft.to/lastmile_qr_scan", "ios": "https://dc.lft.to/lastmile_qr_scan"}, "is_reserved": 0, "is_disabled": 0, "type": "electric_scooter", "bike_id": "095495a7e407961986f87c71e5cff04b"}, {"lon": -77.03749066666667, "lat": 38.9220915, "name": "6fa63cf294b18231122eca04942c5a53", "fusion_lat": 0.0, "fusion_lon": 0.0, "rental_uris": {"android": "https://dc.lft.to/lastmile_qr_scan", "ios": "https://dc.lft.to/lastmile_qr_scan"}, "is_reserved": 0, "is_disabled": 0, "type": "electric_scooter", "bike_id": "6fa63cf294b18231122eca04942c5a53"}, {"lon": -77.05931716666667, "lat": 38.93669283333333, "name": "f51ed8904a7a630cfe5e69f8b97bc750", "fusion_lat": 0.0, "fusion_lon": 0.0, "rental_uris": {"android": "https://dc.lft.to/lastmile_qr_scan", "ios": "https://dc.lft.to/lastmile_qr_scan"}, "is_reserved": 0, "is_disabled": 0, "type": "electric_scooter", "bike_id": "f51ed8904a7a630cfe5e69f8b97bc750"}, {"lon": -77.04489466666666, "lat": 38.900139, "name": "f7f93968a73615f721fdbca892af4779", "fusion_lat": 0.0, "fusion_lon": 0.0, "rental_uris": {"android": "https://dc.lft.to/lastmile_qr_scan", "ios": "https://dc.lft.to/lastmile_qr_scan"}, "is_reserved": 0, "is_disabled": 0, "type": "electric_scooter", "bike_id": "f7f93968a73615f721fdbca892af4779"}, {"lon": -77.0282895, "lat": 38.8874215, "name": "488df3d3854d1db73a33c9867e5180e2", "fusion_lat": 0.0, "fusion_lon": 0.0, "rental_uris": {"android": "https://dc.lft.to/lastmile_qr_scan", "ios": "https://dc.lft.to/lastmile_qr_scan"}, "is_reserved": 0, "is_disabled": 0, "type": "electric_scooter", "bike_id": "488df3d3854d1db73a33c9867e5180e2"}, {"lon": -77.06758866666667, "lat": 38.94969016666667, "name": "55a0fcbc57adafedb4f8163f05e225b7", "fusion_lat": 0.0, "fusion_lon": 0.0, "rental_uris": {"android": "https://dc.lft.to/lastmile_qr_scan", "ios": "https://dc.lft.to/lastmile_qr_scan"}, "is_reserved": 0, "is_disabled": 0, "type": "electric_scooter", "bike_id": "55a0fcbc57adafedb4f8163f05e225b7"}, {"lon": -77.042442, "lat": 38.92221933333333, "name": "ec0843eb054eb7d25f89f095650603f3", "fusion_lat": 0.0, "fusion_lon": 0.0, "rental_uris": {"android": "https://dc.lft.to/lastmile_qr_scan", "ios": "https://dc.lft.to/lastmile_qr_scan"}, "is_reserved": 0, "is_disabled": 0, "type": "electric_scooter", "bike_id": "ec0843eb054eb7d25f89f095650603f3"}, {"lon": -76.991198, "lat": 38.900117, "name": "6becf24f4df53113c795ee893672fa17", "fusion_lat": 0.0, "fusion_lon": 0.0, "rental_uris": {"android": "https://dc.lft.to/lastmile_qr_scan", "ios": "https://dc.lft.to/lastmile_qr_scan"}, "is_reserved": 0, "is_disabled": 0, "type": "electric_scooter", "bike_id": "6becf24f4df53113c795ee893672fa17"}, {"lon": -77.0144395, "lat": 38.8766885, "name": "6c2e08f04329c1066fbd234a4428ac50", "fusion_lat": 0.0, "fusion_lon": 0.0, "rental_uris": {"android": "https://dc.lft.to/lastmile_qr_scan", "ios": "https://dc.lft.to/lastmile_qr_scan"}, "is_reserved": 0, "is_disabled": 0, "type": "electric_bike", "bike_id": "6c2e08f04329c1066fbd234a4428ac50"}, {"lon": -76.97219283333334, "lat": 38.844781166666664, "name": "32612e06b9796fe32b6f89878158af7b", "fusion_lat": 0.0, "fusion_lon": 0.0, "rental_uris": {"android": "https://dc.lft.to/lastmile_qr_scan", "ios": "https://dc.lft.to/lastmile_qr_scan"}, "is_reserved": 0, "is_disabled": 0, "type": "electric_bike", "bike_id": "32612e06b9796fe32b6f89878158af7b"}, {"lon": -77.01827533333334, "lat": 38.91980083333333, "name": "183cc11c416b4bff5a3cabf6e38e5121", "fusion_lat": 0.0, "fusion_lon": 0.0, "rental_uris": {"android": "https://dc.lft.to/lastmile_qr_scan", "ios": "https://dc.lft.to/lastmile_qr_scan"}, "is_reserved": 0, "is_disabled": 0, "type": "electric_scooter", "bike_id": "183cc11c416b4bff5a3cabf6e38e5121"}, {"lon": -77.02234216666666, "lat": 38.92221, "name": "dbdd994be9e9916447f073ffa0f38519", "fusion_lat": 0.0, "fusion_lon": 0.0, "rental_uris": {"android": "https://dc.lft.to/lastmile_qr_scan", "ios": "https://dc.lft.to/lastmile_qr_scan"}, "is_reserved": 0, "is_disabled": 0, "type": "electric_bike", "bike_id": "dbdd994be9e9916447f073ffa0f38519"}, {"lon": -77.03635466666667, "lat": 38.92419816666666, "name": "f7053bd2b97cfda6a8561784d769b79a", "fusion_lat": 0.0, "fusion_lon": 0.0, "rental_uris": {"android": "https://dc.lft.to/lastmile_qr_scan", "ios": "https://dc.lft.to/lastmile_qr_scan"}, "is_reserved": 0, "is_disabled": 0, "type": "electric_scooter", "bike_id": "f7053bd2b97cfda6a8561784d769b79a"}, {"lon": -76.96879633333333, "lat": 38.84595216666666, "name": "ed0bd8fcf82b32d0dfc8c5fbf7e3dacb", "fusion_lat": 0.0, "fusion_lon": 0.0, "rental_uris": {"android": "https://dc.lft.to/lastmile_qr_scan", "ios": "https://dc.lft.to/lastmile_qr_scan"}, "is_reserved": 0, "is_disabled": 0, "type": "electric_bike", "bike_id": "ed0bd8fcf82b32d0dfc8c5fbf7e3dacb"}, {"lon": -77.00730516666667, "lat": 38.95973866666667, "name": "6b780804f992574acbab0a6508d5f72f", "fusion_lat": 0.0, "fusion_lon": 0.0, "rental_uris": {"android": "https://dc.lft.to/lastmile_qr_scan", "ios": "https://dc.lft.to/lastmile_qr_scan"}, "is_reserved": 0, "is_disabled": 0, "type": "electric_scooter", "bike_id": "6b780804f992574acbab0a6508d5f72f"}, {"lon": -77.01311983333333, "lat": 38.90056, "name": "693f6f52b7dcf96f95d199a8d6bfa3d2", "fusion_lat": 0.0, "fusion_lon": 0.0, "rental_uris": {"android": "https://dc.lft.to/lastmile_qr_scan", "ios": "https://dc.lft.to/lastmile_qr_scan"}, "is_reserved": 0, "is_disabled": 0, "type": "electric_scooter", "bike_id": "693f6f52b7dcf96f95d199a8d6bfa3d2"}, {"lon": -77.02164116666667, "lat": 38.886351166666664, "name": "df371564a3df9e96a66d61e494f2bce0", "fusion_lat": 0.0, "fusion_lon": 0.0, "rental_uris": {"android": "https://dc.lft.to/lastmile_qr_scan", "ios": "https://dc.lft.to/lastmile_qr_scan"}, "is_reserved": 0, "is_disabled": 0, "type": "electric_scooter", "bike_id": "df371564a3df9e96a66d61e494f2bce0"}, {"lon": -77.07164433333334, "lat": 38.914569166666666, "name": "ab4d5ef642296521e39bc7c492e8010b", "fusion_lat": 0.0, "fusion_lon": 0.0, "rental_uris": {"android": "https://dc.lft.to/lastmile_qr_scan", "ios": "https://dc.lft.to/lastmile_qr_scan"}, "is_reserved": 0, "is_disabled": 0, "type": "electric_scooter", "bike_id": "ab4d5ef642296521e39bc7c492e8010b"}, {"lon": -76.99632533333333, "lat": 38.84619983333333, "name": "2cc78761d9562014023e2d587806fcad", "fusion_lat": 0.0, "fusion_lon": 0.0, "rental_uris": {"android": "https://dc.lft.to/lastmile_qr_scan", "ios": "https://dc.lft.to/lastmile_qr_scan"}, "is_reserved": 0, "is_disabled": 0, "type": "electric_scooter", "bike_id": "2cc78761d9562014023e2d587806fcad"}, {"lon": -77.02862983333333, "lat": 38.897464166666666, "name": "b0aa1cd00bd8175f0ccd094569a97f6d", "fusion_lat": 0.0, "fusion_lon": 0.0, "rental_uris": {"android": "https://dc.lft.to/lastmile_qr_scan", "ios": "https://dc.lft.to/lastmile_qr_scan"}, "is_reserved": 0, "is_disabled": 0, "type": "electric_scooter", "bike_id": "b0aa1cd00bd8175f0ccd094569a97f6d"}, {"lon": -77.04251883333333, "lat": 38.922323, "name": "80d9d3b67d8d0a52ba7de6278c7bac7c", "fusion_lat": 0.0, "fusion_lon": 0.0, "rental_uris": {"android": "https://dc.lft.to/lastmile_qr_scan", "ios": "https://dc.lft.to/lastmile_qr_scan"}, "is_reserved": 0, "is_disabled": 0, "type": "electric_scooter", "bike_id": "80d9d3b67d8d0a52ba7de6278c7bac7c"}, {"lon": -76.94292966666667, "lat": 38.954066166666664, "name": "7aade1ff3ffaebb4b0b212e83e3ab786", "fusion_lat": 0.0, "fusion_lon": 0.0, "rental_uris": {"android": "https://dc.lft.to/lastmile_qr_scan", "ios": "https://dc.lft.to/lastmile_qr_scan"}, "is_reserved": 0, "is_disabled": 0, "type": "electric_bike", "bike_id": "7aade1ff3ffaebb4b0b212e83e3ab786"}, {"lon": -77.0417385, "lat": 38.9146, "name": "729957fdc19c5bc31a8f5019a645b633", "fusion_lat": 0.0, "fusion_lon": 0.0, "rental_uris": {"android": "https://dc.lft.to/lastmile_qr_scan", "ios": "https://dc.lft.to/lastmile_qr_scan"}, "is_reserved": 0, "is_disabled": 0, "type": "electric_scooter", "bike_id": "729957fdc19c5bc31a8f5019a645b633"}, {"lon": -77.0405955, "lat": 38.91767516666667, "name": "6bdc8e24d2b430a2da51207dad63beee", "fusion_lat": 0.0, "fusion_lon": 0.0, "rental_uris": {"android": "https://dc.lft.to/lastmile_qr_scan", "ios": "https://dc.lft.to/lastmile_qr_scan"}, "is_reserved": 0, "is_disabled": 0, "type": "electric_scooter", "bike_id": "6bdc8e24d2b430a2da51207dad63beee"}, {"lon": -76.9978055, "lat": 38.84426466666667, "name": "a56f7cdb0832937207c27b29ecb7a22e", "fusion_lat": 0.0, "fusion_lon": 0.0, "rental_uris": {"android": "https://dc.lft.to/lastmile_qr_scan", "ios": "https://dc.lft.to/lastmile_qr_scan"}, "is_reserved": 0, "is_disabled": 0, "type": "electric_scooter", "bike_id": "a56f7cdb0832937207c27b29ecb7a22e"}, {"lon": -77.02822316666666, "lat": 38.96504383333333, "name": "371f5970f64c1a700f5d8d80b9fe6b78", "fusion_lat": 0.0, "fusion_lon": 0.0, "rental_uris": {"android": "https://dc.lft.to/lastmile_qr_scan", "ios": "https://dc.lft.to/lastmile_qr_scan"}, "is_reserved": 0, "is_disabled": 0, "type": "electric_bike", "bike_id": "371f5970f64c1a700f5d8d80b9fe6b78"}, {"lon": -77.02404733333333, "lat": 38.9110365, "name": "71f0857bb2ef36542a5c0d724c86f99a", "fusion_lat": 0.0, "fusion_lon": 0.0, "rental_uris": {"android": "https://dc.lft.to/lastmile_qr_scan", "ios": "https://dc.lft.to/lastmile_qr_scan"}, "is_reserved": 0, "is_disabled": 0, "type": "electric_scooter", "bike_id": "71f0857bb2ef36542a5c0d724c86f99a"}, {"lon": -77.01371816666666, "lat": 38.928612333333334, "name": "b6aa0cbd6818ae86de3a03e4e875b02a", "fusion_lat": 0.0, "fusion_lon": 0.0, "rental_uris": {"android": "https://dc.lft.to/lastmile_qr_scan", "ios": "https://dc.lft.to/lastmile_qr_scan"}, "is_reserved": 0, "is_disabled": 0, "type": "electric_scooter", "bike_id": "b6aa0cbd6818ae86de3a03e4e875b02a"}, {"lon": -77.01698583333334, "lat": 38.9201115, "name": "24576cc909ffea583d2609f48c5957ef", "fusion_lat": 0.0, "fusion_lon": 0.0, "rental_uris": {"android": "https://dc.lft.to/lastmile_qr_scan", "ios": "https://dc.lft.to/lastmile_qr_scan"}, "is_reserved": 0, "is_disabled": 0, "type": "electric_scooter", "bike_id": "24576cc909ffea583d2609f48c5957ef"}, {"lon": -77.0500635, "lat": 38.892301, "name": "86ab7dc8809c62098afdeced45f7d92e", "fusion_lat": 0.0, "fusion_lon": 0.0, "rental_uris": {"android": "https://dc.lft.to/lastmile_qr_scan", "ios": "https://dc.lft.to/lastmile_qr_scan"}, "is_reserved": 0, "is_disabled": 0, "type": "electric_scooter", "bike_id": "86ab7dc8809c62098afdeced45f7d92e"}, {"lon": -77.0014415, "lat": 38.90017183333333, "name": "b1422a496b6b52d7f726ca21b55ddabe", "fusion_lat": 0.0, "fusion_lon": 0.0, "rental_uris": {"android": "https://dc.lft.to/lastmile_qr_scan", "ios": "https://dc.lft.to/lastmile_qr_scan"}, "is_reserved": 0, "is_disabled": 0, "type": "electric_scooter", "bike_id": "b1422a496b6b52d7f726ca21b55ddabe"}, {"lon": -77.03663083333333, "lat": 38.917263166666665, "name": "031d4ef3146ca5d6627b1e0a75ddc062", "fusion_lat": 0.0, "fusion_lon": 0.0, "rental_uris": {"android": "https://dc.lft.to/lastmile_qr_scan", "ios": "https://dc.lft.to/lastmile_qr_scan"}, "is_reserved": 0, "is_disabled": 0, "type": "electric_scooter", "bike_id": "031d4ef3146ca5d6627b1e0a75ddc062"}, {"lon": -77.03910383333333, "lat": 38.92173983333333, "name": "76c9d4e93b6bf1cf2ae34e28b82ab977", "fusion_lat": 0.0, "fusion_lon": 0.0, "rental_uris": {"android": "https://dc.lft.to/lastmile_qr_scan", "ios": "https://dc.lft.to/lastmile_qr_scan"}, "is_reserved": 0, "is_disabled": 0, "type": "electric_scooter", "bike_id": "76c9d4e93b6bf1cf2ae34e28b82ab977"}, {"lon": -77.0844165, "lat": 38.9117525, "name": "57041851de8529ec8e73df48c3f80caa", "fusion_lat": 0.0, "fusion_lon": 0.0, "rental_uris": {"android": "https://dc.lft.to/lastmile_qr_scan", "ios": "https://dc.lft.to/lastmile_qr_scan"}, "is_reserved": 0, "is_disabled": 0, "type": "electric_scooter", "bike_id": "57041851de8529ec8e73df48c3f80caa"}, {"lon": -77.01293066666666, "lat": 38.930268, "name": "24b66ed43a3e5806b740da82d665db30", "fusion_lat": 0.0, "fusion_lon": 0.0, "rental_uris": {"android": "https://dc.lft.to/lastmile_qr_scan", "ios": "https://dc.lft.to/lastmile_qr_scan"}, "is_reserved": 0, "is_disabled": 0, "type": "electric_scooter", "bike_id": "24b66ed43a3e5806b740da82d665db30"}, {"lon": -77.0269425, "lat": 38.91271366666667, "name": "60f26d655731eab1a0b1bd25d041cc59", "fusion_lat": 0.0, "fusion_lon": 0.0, "rental_uris": {"android": "https://dc.lft.to/lastmile_qr_scan", "ios": "https://dc.lft.to/lastmile_qr_scan"}, "is_reserved": 0, "is_disabled": 0, "type": "electric_scooter", "bike_id": "60f26d655731eab1a0b1bd25d041cc59"}, {"lon": -77.03640683333333, "lat": 38.91790433333333, "name": "de649e86ebbe9b536419e3b18b6e335c", "fusion_lat": 0.0, "fusion_lon": 0.0, "rental_uris": {"android": "https://dc.lft.to/lastmile_qr_scan", "ios": "https://dc.lft.to/lastmile_qr_scan"}, "is_reserved": 0, "is_disabled": 0, "type": "electric_scooter", "bike_id": "de649e86ebbe9b536419e3b18b6e335c"}, {"lon": -77.00663333333334, "lat": 38.8746775, "name": "f896b92ccef1d730b6014dd94666c9dd", "fusion_lat": 0.0, "fusion_lon": 0.0, "rental_uris": {"android": "https://dc.lft.to/lastmile_qr_scan", "ios": "https://dc.lft.to/lastmile_qr_scan"}, "is_reserved": 0, "is_disabled": 0, "type": "electric_scooter", "bike_id": "f896b92ccef1d730b6014dd94666c9dd"}, {"lon": -76.9896505, "lat": 38.90245216666667, "name": "144e0575d075bdc6d2ee10de838690b6", "fusion_lat": 0.0, "fusion_lon": 0.0, "rental_uris": {"android": "https://dc.lft.to/lastmile_qr_scan", "ios": "https://dc.lft.to/lastmile_qr_scan"}, "is_reserved": 0, "is_disabled": 0, "type": "electric_scooter", "bike_id": "144e0575d075bdc6d2ee10de838690b6"}, {"lon": -77.04817516666667, "lat": 38.90074533333333, "name": "b4b1350ea0a1b5d6ef9670ef23abcfc5", "fusion_lat": 0.0, "fusion_lon": 0.0, "rental_uris": {"android": "https://dc.lft.to/lastmile_qr_scan", "ios": "https://dc.lft.to/lastmile_qr_scan"}, "is_reserved": 0, "is_disabled": 0, "type": "electric_scooter", "bike_id": "b4b1350ea0a1b5d6ef9670ef23abcfc5"}, {"lon": -77.038386, "lat": 38.91232183333334, "name": "a300ac5c34ec8aa282000ee0b9318ce9", "fusion_lat": 0.0, "fusion_lon": 0.0, "rental_uris": {"android": "https://dc.lft.to/lastmile_qr_scan", "ios": "https://dc.lft.to/lastmile_qr_scan"}, "is_reserved": 0, "is_disabled": 0, "type": "electric_scooter", "bike_id": "a300ac5c34ec8aa282000ee0b9318ce9"}, {"lon": -77.05228533333333, "lat": 38.92509866666666, "name": "6e22bd3dd9e7b4d25a23e35c3c547a48", "fusion_lat": 0.0, "fusion_lon": 0.0, "rental_uris": {"android": "https://dc.lft.to/lastmile_qr_scan", "ios": "https://dc.lft.to/lastmile_qr_scan"}, "is_reserved": 0, "is_disabled": 0, "type": "electric_scooter", "bike_id": "6e22bd3dd9e7b4d25a23e35c3c547a48"}, {"lon": -77.04992833333333, "lat": 38.901259, "name": "7fd028010611f0fa2c059e443304c546", "fusion_lat": 0.0, "fusion_lon": 0.0, "rental_uris": {"android": "https://dc.lft.to/lastmile_qr_scan", "ios": "https://dc.lft.to/lastmile_qr_scan"}, "is_reserved": 0, "is_disabled": 0, "type": "electric_scooter", "bike_id": "7fd028010611f0fa2c059e443304c546"}, {"lon": -76.93533266666667, "lat": 38.8967955, "name": "f49e43a249bb40f1b6fcb3d04663caaf", "fusion_lat": 0.0, "fusion_lon": 0.0, "rental_uris": {"android": "https://dc.lft.to/lastmile_qr_scan", "ios": "https://dc.lft.to/lastmile_qr_scan"}, "is_reserved": 0, "is_disabled": 0, "type": "electric_scooter", "bike_id": "f49e43a249bb40f1b6fcb3d04663caaf"}, {"lon": -77.00600066666667, "lat": 38.87458633333333, "name": "0bbcfb02c945e13605ec38d1f1d0608b", "fusion_lat": 0.0, "fusion_lon": 0.0, "rental_uris": {"android": "https://dc.lft.to/lastmile_qr_scan", "ios": "https://dc.lft.to/lastmile_qr_scan"}, "is_reserved": 0, "is_disabled": 0, "type": "electric_scooter", "bike_id": "0bbcfb02c945e13605ec38d1f1d0608b"}, {"lon": -77.14124216666667, "lat": 38.816014333333335, "name": "9e3e9523677b3397be0388d1852535b1", "fusion_lat": 0.0, "fusion_lon": 0.0, "rental_uris": {"android": "https://dc.lft.to/lastmile_qr_scan", "ios": "https://dc.lft.to/lastmile_qr_scan"}, "is_reserved": 0, "is_disabled": 0, "type": "electric_bike", "bike_id": "9e3e9523677b3397be0388d1852535b1"}, {"lon": -77.01796716666666, "lat": 38.90643, "name": "6870329ed0865353177be926c750fbb4", "fusion_lat": 0.0, "fusion_lon": 0.0, "rental_uris": {"android": "https://dc.lft.to/lastmile_qr_scan", "ios": "https://dc.lft.to/lastmile_qr_scan"}, "is_reserved": 0, "is_disabled": 0, "type": "electric_scooter", "bike_id": "6870329ed0865353177be926c750fbb4"}, {"lon": -77.02190733333333, "lat": 38.91131566666667, "name": "a7cf0648ff1485e278f7307c93c805aa", "fusion_lat": 0.0, "fusion_lon": 0.0, "rental_uris": {"android": "https://dc.lft.to/lastmile_qr_scan", "ios": "https://dc.lft.to/lastmile_qr_scan"}, "is_reserved": 0, "is_disabled": 0, "type": "electric_scooter", "bike_id": "a7cf0648ff1485e278f7307c93c805aa"}, {"lon": -77.023505, "lat": 38.93321483333333, "name": "fb6a1b0b9f7a2f99aa2ac3c7544089dc", "fusion_lat": 0.0, "fusion_lon": 0.0, "rental_uris": {"android": "https://dc.lft.to/lastmile_qr_scan", "ios": "https://dc.lft.to/lastmile_qr_scan"}, "is_reserved": 0, "is_disabled": 0, "type": "electric_scooter", "bike_id": "fb6a1b0b9f7a2f99aa2ac3c7544089dc"}, {"lon": -77.06270116666667, "lat": 38.90587516666667, "name": "e69200db5ec1d45fcc599f778673dd7a", "fusion_lat": 0.0, "fusion_lon": 0.0, "rental_uris": {"android": "https://dc.lft.to/lastmile_qr_scan", "ios": "https://dc.lft.to/lastmile_qr_scan"}, "is_reserved": 0, "is_disabled": 0, "type": "electric_scooter", "bike_id": "e69200db5ec1d45fcc599f778673dd7a"}, {"lon": -77.03158533333334, "lat": 38.8973375, "name": "3e8647bf16d38edbe186b840b4226061", "fusion_lat": 0.0, "fusion_lon": 0.0, "rental_uris": {"android": "https://dc.lft.to/lastmile_qr_scan", "ios": "https://dc.lft.to/lastmile_qr_scan"}, "is_reserved": 0, "is_disabled": 0, "type": "electric_scooter", "bike_id": "3e8647bf16d38edbe186b840b4226061"}, {"lon": -77.130952, "lat": 38.86162016666667, "name": "00dc31ca991b59ce4e717a93830dc763", "fusion_lat": 0.0, "fusion_lon": 0.0, "rental_uris": {"android": "https://dc.lft.to/lastmile_qr_scan", "ios": "https://dc.lft.to/lastmile_qr_scan"}, "is_reserved": 0, "is_disabled": 0, "type": "electric_bike", "bike_id": "00dc31ca991b59ce4e717a93830dc763"}, {"lon": -76.98306283333334, "lat": 38.868925833333336, "name": "364ae56f168eca7eea10384452b1fe11", "fusion_lat": 0.0, "fusion_lon": 0.0, "rental_uris": {"android": "https://dc.lft.to/lastmile_qr_scan", "ios": "https://dc.lft.to/lastmile_qr_scan"}, "is_reserved": 0, "is_disabled": 0, "type": "electric_scooter", "bike_id": "364ae56f168eca7eea10384452b1fe11"}, {"lon": -77.00675833333334, "lat": 38.8770625, "name": "983935450a6e1c1d1a1f3b641ed4a4ed", "fusion_lat": 0.0, "fusion_lon": 0.0, "rental_uris": {"android": "https://dc.lft.to/lastmile_qr_scan", "ios": "https://dc.lft.to/lastmile_qr_scan"}, "is_reserved": 0, "is_disabled": 0, "type": "electric_scooter", "bike_id": "983935450a6e1c1d1a1f3b641ed4a4ed"}, {"lon": -77.00204233333334, "lat": 38.90239166666667, "name": "7ea79aa5ca99360fc62c2fbbcaf29cf1", "fusion_lat": 0.0, "fusion_lon": 0.0, "rental_uris": {"android": "https://dc.lft.to/lastmile_qr_scan", "ios": "https://dc.lft.to/lastmile_qr_scan"}, "is_reserved": 0, "is_disabled": 0, "type": "electric_scooter", "bike_id": "7ea79aa5ca99360fc62c2fbbcaf29cf1"}, {"lon": -77.03826033333333, "lat": 38.9313055, "name": "0cc7fdc394f0b3153e982a9882fe51ef", "fusion_lat": 0.0, "fusion_lon": 0.0, "rental_uris": {"android": "https://dc.lft.to/lastmile_qr_scan", "ios": "https://dc.lft.to/lastmile_qr_scan"}, "is_reserved": 0, "is_disabled": 0, "type": "electric_scooter", "bike_id": "0cc7fdc394f0b3153e982a9882fe51ef"}, {"lon": -77.03407616666667, "lat": 38.91923416666667, "name": "902b23ca0680f93a134239d3ecbcbc49", "fusion_lat": 0.0, "fusion_lon": 0.0, "rental_uris": {"android": "https://dc.lft.to/lastmile_qr_scan", "ios": "https://dc.lft.to/lastmile_qr_scan"}, "is_reserved": 0, "is_disabled": 0, "type": "electric_scooter", "bike_id": "902b23ca0680f93a134239d3ecbcbc49"}, {"lon": -77.03831783333334, "lat": 38.91118816666667, "name": "4d2064483195b6a81d6706da2fe08ebe", "fusion_lat": 0.0, "fusion_lon": 0.0, "rental_uris": {"android": "https://dc.lft.to/lastmile_qr_scan", "ios": "https://dc.lft.to/lastmile_qr_scan"}, "is_reserved": 0, "is_disabled": 0, "type": "electric_scooter", "bike_id": "4d2064483195b6a81d6706da2fe08ebe"}, {"lon": -77.035144, "lat": 38.922417, "name": "f53d58a1d66770dd93539e8f27fc4d01", "fusion_lat": 0.0, "fusion_lon": 0.0, "rental_uris": {"android": "https://dc.lft.to/lastmile_qr_scan", "ios": "https://dc.lft.to/lastmile_qr_scan"}, "is_reserved": 0, "is_disabled": 0, "type": "electric_scooter", "bike_id": "f53d58a1d66770dd93539e8f27fc4d01"}, {"lon": -77.03213233333334, "lat": 38.921686666666666, "name": "9d4d4d7c02ad7e896831d3a51dcca96a", "fusion_lat": 0.0, "fusion_lon": 0.0, "rental_uris": {"android": "https://dc.lft.to/lastmile_qr_scan", "ios": "https://dc.lft.to/lastmile_qr_scan"}, "is_reserved": 0, "is_disabled": 0, "type": "electric_scooter", "bike_id": "9d4d4d7c02ad7e896831d3a51dcca96a"}, {"lon": -77.03448783333333, "lat": 38.91820466666667, "name": "6c072bc67d9bb537fd6b32e4f5765b1a", "fusion_lat": 0.0, "fusion_lon": 0.0, "rental_uris": {"android": "https://dc.lft.to/lastmile_qr_scan", "ios": "https://dc.lft.to/lastmile_qr_scan"}, "is_reserved": 0, "is_disabled": 0, "type": "electric_scooter", "bike_id": "6c072bc67d9bb537fd6b32e4f5765b1a"}, {"lon": -77.0246305, "lat": 38.938538, "name": "b61db73e360c1794f519f66946f9ee17", "fusion_lat": 0.0, "fusion_lon": 0.0, "rental_uris": {"android": "https://dc.lft.to/lastmile_qr_scan", "ios": "https://dc.lft.to/lastmile_qr_scan"}, "is_reserved": 0, "is_disabled": 0, "type": "electric_scooter", "bike_id": "b61db73e360c1794f519f66946f9ee17"}, {"lon": -76.99910983333334, "lat": 38.90947933333333, "name": "1b58c15dab04c9a7c72a71ca84ef1042", "fusion_lat": 0.0, "fusion_lon": 0.0, "rental_uris": {"android": "https://dc.lft.to/lastmile_qr_scan", "ios": "https://dc.lft.to/lastmile_qr_scan"}, "is_reserved": 0, "is_disabled": 0, "type": "electric_scooter", "bike_id": "1b58c15dab04c9a7c72a71ca84ef1042"}, {"lon": -77.0385365, "lat": 38.93237366666666, "name": "e1be682c10e449a79d072b3233013a2b", "fusion_lat": 0.0, "fusion_lon": 0.0, "rental_uris": {"android": "https://dc.lft.to/lastmile_qr_scan", "ios": "https://dc.lft.to/lastmile_qr_scan"}, "is_reserved": 0, "is_disabled": 0, "type": "electric_scooter", "bike_id": "e1be682c10e449a79d072b3233013a2b"}, {"lon": -77.02207883333334, "lat": 38.91553583333334, "name": "fcd9a0759035d36efdfcc879df2147f3", "fusion_lat": 0.0, "fusion_lon": 0.0, "rental_uris": {"android": "https://dc.lft.to/lastmile_qr_scan", "ios": "https://dc.lft.to/lastmile_qr_scan"}, "is_reserved": 0, "is_disabled": 0, "type": "electric_scooter", "bike_id": "fcd9a0759035d36efdfcc879df2147f3"}, {"lon": -77.0602985, "lat": 38.93952633333333, "name": "2b7facadb75ac870d82e1a7c602aab97", "fusion_lat": 0.0, "fusion_lon": 0.0, "rental_uris": {"android": "https://dc.lft.to/lastmile_qr_scan", "ios": "https://dc.lft.to/lastmile_qr_scan"}, "is_reserved": 0, "is_disabled": 0, "type": "electric_scooter", "bike_id": "2b7facadb75ac870d82e1a7c602aab97"}, {"lon": -77.0243415, "lat": 38.92043016666667, "name": "14bdc2ec5a5ed3584b4649d64dea21e9", "fusion_lat": 0.0, "fusion_lon": 0.0, "rental_uris": {"android": "https://dc.lft.to/lastmile_qr_scan", "ios": "https://dc.lft.to/lastmile_qr_scan"}, "is_reserved": 0, "is_disabled": 0, "type": "electric_scooter", "bike_id": "14bdc2ec5a5ed3584b4649d64dea21e9"}, {"lon": -76.93343683333333, "lat": 38.89906083333333, "name": "6a5439f8d54364c46c7f8d8f838a2f7e", "fusion_lat": 0.0, "fusion_lon": 0.0, "rental_uris": {"android": "https://dc.lft.to/lastmile_qr_scan", "ios": "https://dc.lft.to/lastmile_qr_scan"}, "is_reserved": 0, "is_disabled": 0, "type": "electric_scooter", "bike_id": "6a5439f8d54364c46c7f8d8f838a2f7e"}, {"lon": -77.07350283333334, "lat": 38.911041833333336, "name": "de69a290296cc8e24deac2520e5a962d", "fusion_lat": 0.0, "fusion_lon": 0.0, "rental_uris": {"android": "https://dc.lft.to/lastmile_qr_scan", "ios": "https://dc.lft.to/lastmile_qr_scan"}, "is_reserved": 0, "is_disabled": 0, "type": "electric_scooter", "bike_id": "de69a290296cc8e24deac2520e5a962d"}, {"lon": -77.00711516666667, "lat": 38.9047545, "name": "886943b95352ee2922d93d7e97d5c92a", "fusion_lat": 0.0, "fusion_lon": 0.0, "rental_uris": {"android": "https://dc.lft.to/lastmile_qr_scan", "ios": "https://dc.lft.to/lastmile_qr_scan"}, "is_reserved": 0, "is_disabled": 0, "type": "electric_scooter", "bike_id": "886943b95352ee2922d93d7e97d5c92a"}, {"lon": -77.051378, "lat": 38.904464, "name": "b743606fd09004020dcf5216f09ee873", "fusion_lat": 0.0, "fusion_lon": 0.0, "rental_uris": {"android": "https://dc.lft.to/lastmile_qr_scan", "ios": "https://dc.lft.to/lastmile_qr_scan"}, "is_reserved": 0, "is_disabled": 0, "type": "electric_scooter", "bike_id": "b743606fd09004020dcf5216f09ee873"}, {"lon": -77.0318375, "lat": 38.9191995, "name": "e5e4d12512e46735254fb416db57bb4a", "fusion_lat": 0.0, "fusion_lon": 0.0, "rental_uris": {"android": "https://dc.lft.to/lastmile_qr_scan", "ios": "https://dc.lft.to/lastmile_qr_scan"}, "is_reserved": 0, "is_disabled": 0, "type": "electric_scooter", "bike_id": "e5e4d12512e46735254fb416db57bb4a"}, {"lon": -76.985424, "lat": 38.8799865, "name": "d5c111f4bec056a4d9cae1efa9dfa6dc", "fusion_lat": 0.0, "fusion_lon": 0.0, "rental_uris": {"android": "https://dc.lft.to/lastmile_qr_scan", "ios": "https://dc.lft.to/lastmile_qr_scan"}, "is_reserved": 0, "is_disabled": 0, "type": "electric_scooter", "bike_id": "d5c111f4bec056a4d9cae1efa9dfa6dc"}, {"lon": -77.03444583333334, "lat": 38.905776333333336, "name": "c30b90c2668d9b9c0ad887fe02323caa", "fusion_lat": 0.0, "fusion_lon": 0.0, "rental_uris": {"android": "https://dc.lft.to/lastmile_qr_scan", "ios": "https://dc.lft.to/lastmile_qr_scan"}, "is_reserved": 0, "is_disabled": 0, "type": "electric_scooter", "bike_id": "c30b90c2668d9b9c0ad887fe02323caa"}, {"lon": -77.0283385, "lat": 38.89232166666667, "name": "39a5e54cb9b1b6c474f4226054ff0f90", "fusion_lat": 0.0, "fusion_lon": 0.0, "rental_uris": {"android": "https://dc.lft.to/lastmile_qr_scan", "ios": "https://dc.lft.to/lastmile_qr_scan"}, "is_reserved": 0, "is_disabled": 0, "type": "electric_scooter", "bike_id": "39a5e54cb9b1b6c474f4226054ff0f90"}, {"lon": -76.987859, "lat": 38.845346666666664, "name": "3146490f3d5535ada63bf8bb95286ef3", "fusion_lat": 0.0, "fusion_lon": 0.0, "rental_uris": {"android": "https://dc.lft.to/lastmile_qr_scan", "ios": "https://dc.lft.to/lastmile_qr_scan"}, "is_reserved": 0, "is_disabled": 0, "type": "electric_bike", "bike_id": "3146490f3d5535ada63bf8bb95286ef3"}, {"lon": -76.91594933333333, "lat": 38.880088, "name": "432c16b176d110ef38f24cde608f1a35", "fusion_lat": 0.0, "fusion_lon": 0.0, "rental_uris": {"android": "https://dc.lft.to/lastmile_qr_scan", "ios": "https://dc.lft.to/lastmile_qr_scan"}, "is_reserved": 0, "is_disabled": 0, "type": "electric_bike", "bike_id": "432c16b176d110ef38f24cde608f1a35"}, {"lon": -77.04820083333334, "lat": 38.91330816666667, "name": "bad03d484391a120548f1d99bb9b1536", "fusion_lat": 0.0, "fusion_lon": 0.0, "rental_uris": {"android": "https://dc.lft.to/lastmile_qr_scan", "ios": "https://dc.lft.to/lastmile_qr_scan"}, "is_reserved": 0, "is_disabled": 0, "type": "electric_scooter", "bike_id": "bad03d484391a120548f1d99bb9b1536"}, {"lon": -77.04182766666666, "lat": 38.91404216666667, "name": "57fa3a689f81b7b62a90bd38d1a48753", "fusion_lat": 0.0, "fusion_lon": 0.0, "rental_uris": {"android": "https://dc.lft.to/lastmile_qr_scan", "ios": "https://dc.lft.to/lastmile_qr_scan"}, "is_reserved": 0, "is_disabled": 0, "type": "electric_scooter", "bike_id": "57fa3a689f81b7b62a90bd38d1a48753"}, {"lon": -77.05727866666666, "lat": 38.933658, "name": "64e5b4b66a71e01c16c3b32b5b558478", "fusion_lat": 0.0, "fusion_lon": 0.0, "rental_uris": {"android": "https://dc.lft.to/lastmile_qr_scan", "ios": "https://dc.lft.to/lastmile_qr_scan"}, "is_reserved": 0, "is_disabled": 0, "type": "electric_scooter", "bike_id": "64e5b4b66a71e01c16c3b32b5b558478"}, {"lon": -77.0214395, "lat": 38.903155166666664, "name": "713f7c8b0be95a30f947bf62a5bbd8cd", "fusion_lat": 0.0, "fusion_lon": 0.0, "rental_uris": {"android": "https://dc.lft.to/lastmile_qr_scan", "ios": "https://dc.lft.to/lastmile_qr_scan"}, "is_reserved": 0, "is_disabled": 0, "type": "electric_scooter", "bike_id": "713f7c8b0be95a30f947bf62a5bbd8cd"}, {"lon": -76.90816566666666, "lat": 38.99452383333333, "name": "732186f15ef6de74a9fd35bc2f7fc4d8", "fusion_lat": 0.0, "fusion_lon": 0.0, "rental_uris": {"android": "https://dc.lft.to/lastmile_qr_scan", "ios": "https://dc.lft.to/lastmile_qr_scan"}, "is_reserved": 0, "is_disabled": 0, "type": "electric_bike", "bike_id": "732186f15ef6de74a9fd35bc2f7fc4d8"}, {"lon": -76.98430266666666, "lat": 38.914281833333334, "name": "b65c36490f80111aab8b1be0e3e04295", "fusion_lat": 0.0, "fusion_lon": 0.0, "rental_uris": {"android": "https://dc.lft.to/lastmile_qr_scan", "ios": "https://dc.lft.to/lastmile_qr_scan"}, "is_reserved": 0, "is_disabled": 0, "type": "electric_scooter", "bike_id": "b65c36490f80111aab8b1be0e3e04295"}, {"lon": -77.02374583333334, "lat": 38.92658866666667, "name": "46b53ca781dfe03c3969dd17a877b5a5", "fusion_lat": 0.0, "fusion_lon": 0.0, "rental_uris": {"android": "https://dc.lft.to/lastmile_qr_scan", "ios": "https://dc.lft.to/lastmile_qr_scan"}, "is_reserved": 0, "is_disabled": 0, "type": "electric_bike", "bike_id": "46b53ca781dfe03c3969dd17a877b5a5"}, {"lon": -77.06526833333334, "lat": 38.9347035, "name": "d13631d58d6a929b46db63871d761b4d", "fusion_lat": 0.0, "fusion_lon": 0.0, "rental_uris": {"android": "https://dc.lft.to/lastmile_qr_scan", "ios": "https://dc.lft.to/lastmile_qr_scan"}, "is_reserved": 0, "is_disabled": 0, "type": "electric_scooter", "bike_id": "d13631d58d6a929b46db63871d761b4d"}, {"lon": -77.0320495, "lat": 38.929859666666665, "name": "f1f76639eb1355a1f3fc4f5516c6248a", "fusion_lat": 0.0, "fusion_lon": 0.0, "rental_uris": {"android": "https://dc.lft.to/lastmile_qr_scan", "ios": "https://dc.lft.to/lastmile_qr_scan"}, "is_reserved": 0, "is_disabled": 0, "type": "electric_scooter", "bike_id": "f1f76639eb1355a1f3fc4f5516c6248a"}, {"lon": -77.03260133333333, "lat": 38.91405266666666, "name": "7aecc61a0d62ab9bdda346863d570ccb", "fusion_lat": 0.0, "fusion_lon": 0.0, "rental_uris": {"android": "https://dc.lft.to/lastmile_qr_scan", "ios": "https://dc.lft.to/lastmile_qr_scan"}, "is_reserved": 0, "is_disabled": 0, "type": "electric_scooter", "bike_id": "7aecc61a0d62ab9bdda346863d570ccb"}, {"lon": -77.03476866666666, "lat": 38.907318333333336, "name": "f028c88308e62f7806aacc8a2646d870", "fusion_lat": 0.0, "fusion_lon": 0.0, "rental_uris": {"android": "https://dc.lft.to/lastmile_qr_scan", "ios": "https://dc.lft.to/lastmile_qr_scan"}, "is_reserved": 0, "is_disabled": 0, "type": "electric_scooter", "bike_id": "f028c88308e62f7806aacc8a2646d870"}, {"lon": -77.06753, "lat": 38.947857166666665, "name": "243f0a38f1b712577b61d21e38ad5e37", "fusion_lat": 0.0, "fusion_lon": 0.0, "rental_uris": {"android": "https://dc.lft.to/lastmile_qr_scan", "ios": "https://dc.lft.to/lastmile_qr_scan"}, "is_reserved": 0, "is_disabled": 0, "type": "electric_scooter", "bike_id": "243f0a38f1b712577b61d21e38ad5e37"}, {"lon": -77.038377, "lat": 38.91190116666667, "name": "c678dcd74a01e6c30405cfca45eec9d3", "fusion_lat": 0.0, "fusion_lon": 0.0, "rental_uris": {"android": "https://dc.lft.to/lastmile_qr_scan", "ios": "https://dc.lft.to/lastmile_qr_scan"}, "is_reserved": 0, "is_disabled": 0, "type": "electric_scooter", "bike_id": "c678dcd74a01e6c30405cfca45eec9d3"}, {"lon": -77.02516366666667, "lat": 38.9192545, "name": "65259718c6e75be12f0269951f776a43", "fusion_lat": 0.0, "fusion_lon": 0.0, "rental_uris": {"android": "https://dc.lft.to/lastmile_qr_scan", "ios": "https://dc.lft.to/lastmile_qr_scan"}, "is_reserved": 0, "is_disabled": 0, "type": "electric_scooter", "bike_id": "65259718c6e75be12f0269951f776a43"}, {"lon": -77.00133483333333, "lat": 38.92550033333333, "name": "1f1cac4c954c33e49362e0335e068095", "fusion_lat": 0.0, "fusion_lon": 0.0, "rental_uris": {"android": "https://dc.lft.to/lastmile_qr_scan", "ios": "https://dc.lft.to/lastmile_qr_scan"}, "is_reserved": 0, "is_disabled": 0, "type": "electric_bike", "bike_id": "1f1cac4c954c33e49362e0335e068095"}, {"lon": -76.994853, "lat": 38.9009585, "name": "0680b29ebc1066b6c52db8c95f9f2f78", "fusion_lat": 0.0, "fusion_lon": 0.0, "rental_uris": {"android": "https://dc.lft.to/lastmile_qr_scan", "ios": "https://dc.lft.to/lastmile_qr_scan"}, "is_reserved": 0, "is_disabled": 0, "type": "electric_scooter", "bike_id": "0680b29ebc1066b6c52db8c95f9f2f78"}, {"lon": -76.98534333333333, "lat": 38.88388533333333, "name": "19806a451f02d8fea31cb415bd6cb9b1", "fusion_lat": 0.0, "fusion_lon": 0.0, "rental_uris": {"android": "https://dc.lft.to/lastmile_qr_scan", "ios": "https://dc.lft.to/lastmile_qr_scan"}, "is_reserved": 0, "is_disabled": 0, "type": "electric_scooter", "bike_id": "19806a451f02d8fea31cb415bd6cb9b1"},