{"data": {"bikes": [{"is_disabled": 0, "fusion_lat": 0.0, "lat": 38.8778535, "type": "electric_bike", "lon": -77.00744866666666, "is_reserved": 0, "fusion_lon": 0.0, "bike_id": "ab38aa26d4b3a2aee70e0ad6e3e15de9", "name": "ab38aa26d4b3a2aee70e0ad6e3e15de9", "rental_uris": {"ios": "https://dc.lft.to/lastmile_qr_scan", "android": "https://dc.lft.to/lastmile_qr_scan"}}, {"is_disabled": 0, "fusion_lat": 0.0, "lat": 38.89843183333333, "type": "electric_scooter", "lon": -76.94477266666667, "is_reserved": 0, "fusion_lon": 0.0, "bike_id": "8a29d20972ceeda7db3dd1a5dda7e48e", "name": "8a29d20972ceeda7db3dd1a5dda7e48e", "rental_uris": {"ios": "https://dc.lft.to/lastmile_qr_scan", "android": "https://dc.lft.to/lastmile_qr_scan"}}, {"is_disabled": 0, "fusion_lat": 0.0, "lat": 38.9168495, "type": "electric_scooter", "lon": -77.0294015, "is_reserved": 0, "fusion_lon": 0.0, "bike_id": "a1b8f91b750fecaaa1e38dd899175238", "name": "a1b8f91b750fecaaa1e38dd899175238", "rental_uris": {"ios": "https://dc.lft.to/lastmile_qr_scan", "android": "https://dc.lft.to/lastmile_qr_scan"}}, {"is_disabled": 0, "fusion_lat": 0.0, "lat": 38.8628575, "type": "electric_scooter", "lon": -76.992351, "is_reserved": 0, "fusion_lon": 0.0, "bike_id": "03d361137740d276519489d1e8f29740", "name": "03d361137740d276519489d1e8f29740", "rental_uris": {"ios": "https://dc.lft.to/lastmile_qr_scan", "android": "https://dc.lft.to/lastmile_qr_scan"}}, {"is_disabled": 0, "fusion_lat": 0.0, "lat": 38.919979166666664, "type": "electric_scooter", "lon": -77.03161816666666, "is_reserved": 0, "fusion_lon": 0.0, "bike_id": "fc36b2f09eb71094b13fa2a8ee5962c1", "name": "fc36b2f09eb71094b13fa2a8ee5962c1", "rental_uris": {"ios": "https://dc.lft.to/lastmile_qr_scan", "android": "https://dc.lft.to/lastmile_qr_scan"}}, {"is_disabled": 0, "fusion_lat": 0.0, "lat": 38.90270566666667, "type": "electric_scooter", "lon": -77.04271883333334, "is_reserved": 0, "fusion_lon": 0.0, "bike_id": "caef2ba1c04473e4aa6e78a604ece267", "name": "caef2ba1c04473e4aa6e78a604ece267", "rental_uris": {"ios": "https://dc.lft.to/lastmile_qr_scan", "android": "https://dc.lft.to/lastmile_qr_scan"}}, {"is_disabled": 0, "fusion_lat": 0.0, "lat": 39.094421, "type": "electric_bike", "lon": -77.1346025, "is_reserved": 0, "fusion_lon": 0.0, "bike_id": "79cb5667d4a8401c14f36b31b29b8fd4", "name": "79cb5667d4a8401c14f36b31b29b8fd4", "rental_uris": {"ios": "https://dc.lft.to/lastmile_qr_scan", "android": "https://dc.lft.to/lastmile_qr_scan"}}, {"is_disabled": 0, "fusion_lat": 0.0, "lat": 38.93084183333333, "type": "electric_scooter", "lon": -77.03778866666667, "is_reserved": 0, "fusion_lon": 0.0, "bike_id": "2eee64c2b7e13e39a2c75271b29c7b53", "name": "2eee64c2b7e13e39a2c75271b29c7b53", "rental_uris": {"ios": "https://dc.lft.to/lastmile_qr_scan", "android": "https://dc.lft.to/lastmile_qr_scan"}}, {"is_disabled": 0, "fusion_lat": 0.0, "lat": 38.92667516666667, "type": "electric_bike", "lon": -77.008144, "is_reserved": 0, "fusion_lon": 0.0, "bike_id": "29471eec6a57762016021ae5d321630b", "name": "29471eec6a57762016021ae5d321630b", "rental_uris": {"ios": "https://dc.lft.to/lastmile_qr_scan", "android": "https://dc.lft.to/lastmile_qr_scan"}}, {"is_disabled": 0, "fusion_lat": 0.0, "lat": 38.9270305, "type": "electric_scooter", "lon": -77.02416216666667, "is_reserved": 0, "fusion_lon": 0.0, "bike_id": "b789c9ede2080bae7ad896608c72f6ab", "name": "b789c9ede2080bae7ad896608c72f6ab", "rental_uris": {"ios": "https://dc.lft.to/lastmile_qr_scan", "android": "https://dc.lft.to/lastmile_qr_scan"}}, {"is_disabled": 0, "fusion_lat": 0.0, "lat": 38.887088, "type": "electric_scooter", "lon": -77.01369333333334, "is_reserved": 0, "fusion_lon": 0.0, "bike_id": "5a0d7901224eedc649bef3b7e52da8aa", "name": "5a0d7901224eedc649bef3b7e52da8aa", "rental_uris": {"ios": "https://dc.lft.to/lastmile_qr_scan", "android": "https://dc.lft.to/lastmile_qr_scan"}}, {"is_disabled": 0, "fusion_lat": 0.0, "lat": 38.872643833333335, "type": "electric_bike", "lon": -76.97906833333333, "is_reserved": 0, "fusion_lon": 0.0, "bike_id": "9f84309e854cb3684d5f65e4cd1834dc", "name": "9f84309e854cb3684d5f65e4cd1834dc", "rental_uris": {"ios": "https://dc.lft.to/lastmile_qr_scan", "android": "https://dc.lft.to/lastmile_qr_scan"}}, {"is_disabled": 0, "fusion_lat": 0.0, "lat": 38.9217075, "type": "electric_scooter", "lon": -77.04013, "is_reserved": 0, "fusion_lon": 0.0, "bike_id": "4888e0d0310598193d13abf01cd36521", "name": "4888e0d0310598193d13abf01cd36521", "rental_uris": {"ios": "https://dc.lft.to/lastmile_qr_scan", "android": "https://dc.lft.to/lastmile_qr_scan"}}, {"is_disabled": 0, "fusion_lat": 0.0, "lat": 38.855185666666664, "type": "electric_bike", "lon": -76.98436483333333, "is_reserved": 0, "fusion_lon": 0.0, "bike_id": "55037c5d7810db618802d2fcea7390fe", "name": "55037c5d7810db618802d2fcea7390fe", "rental_uris": {"ios": "https://dc.lft.to/lastmile_qr_scan", "android": "https://dc.lft.to/lastmile_qr_scan"}}, {"is_disabled": 0, "fusion_lat": 0.0, "lat": 38.912699, "type": "electric_scooter", "lon": -77.022606, "is_reserved": 0, "fusion_lon": 0.0, "bike_id": "ea20b72dd894f026f001c8df302eba78", "name": "ea20b72dd894f026f001c8df302eba78", "rental_uris": {"ios": "https://dc.lft.to/lastmile_qr_scan", "android": "https://dc.lft.to/lastmile_qr_scan"}}, {"is_disabled": 0, "fusion_lat": 0.0, "lat": 38.89834966666667, "type": "electric_scooter", "lon": -77.007403, "is_reserved": 0, "fusion_lon": 0.0, "bike_id": "61c88357e9a3f6d36ae75edd73136b99", "name": "61c88357e9a3f6d36ae75edd73136b99", "rental_uris": {"ios": "https://dc.lft.to/lastmile_qr_scan", "android": "https://dc.lft.to/lastmile_qr_scan"}}, {"is_disabled": 0, "fusion_lat": 0.0, "lat": 38.892914, "type": "electric_scooter", "lon": -76.99840066666667, "is_reserved": 0, "fusion_lon": 0.0, "bike_id": "378b3a7fad9f87a2b5d486c7d2151587", "name": "378b3a7fad9f87a2b5d486c7d2151587", "rental_uris": {"ios": "https://dc.lft.to/lastmile_qr_scan", "android": "https://dc.lft.to/lastmile_qr_scan"}}, {"is_disabled": 0, "fusion_lat": 0.0, "lat": 38.897535, "type": "electric_scooter", "lon": -77.00780416666667, "is_reserved": 0, "fusion_lon": 0.0, "bike_id": "9452bf348155f929aa9994748e1d0dca", "name": "9452bf348155f929aa9994748e1d0dca", "rental_uris": {"ios": "https://dc.lft.to/lastmile_qr_scan", "android": "https://dc.lft.to/lastmile_qr_scan"}}, {"is_disabled": 0, "fusion_lat": 0.0, "lat": 38.9579585, "type": "electric_bike", "lon": -77.00198083333333, "is_reserved": 0, "fusion_lon": 0.0, "bike_id": "d6eae865d1ef90e5a00f433d40e0cbf4", "name": "d6eae865d1ef90e5a00f433d40e0cbf4", "rental_uris": {"ios": "https://dc.lft.to/lastmile_qr_scan", "android": "https://dc.lft.to/lastmile_qr_scan"}}, {"is_disabled": 0, "fusion_lat": 0.0, "lat": 38.90219033333333, "type": "electric_scooter", "lon": -77.041563, "is_reserved": 0, "fusion_lon": 0.0, "bike_id": "7f0f5ce36ab71559ad72b66d99a9e162", "name": "7f0f5ce36ab71559ad72b66d99a9e162", "rental_uris": {"ios": "https://dc.lft.to/lastmile_qr_scan", "android": "https://dc.lft.to/lastmile_qr_scan"}}, {"is_disabled": 0, "fusion_lat": 0.0, "lat": 38.93434666666667, "type": "electric_scooter", "lon": -77.03994766666666, "is_reserved": 0, "fusion_lon": 0.0, "bike_id": "99189568ce428df03d67ca65520b576c", "name": "99189568ce428df03d67ca65520b576c", "rental_uris": {"ios": "https://dc.lft.to/lastmile_qr_scan", "android": "https://dc.lft.to/lastmile_qr_scan"}}, {"is_disabled": 0, "fusion_lat": 0.0, "lat": 38.91600283333333, "type": "electric_scooter", "lon": -77.01180833333333, "is_reserved": 0, "fusion_lon": 0.0, "bike_id": "ce025f770a99ae32eb527c3d36a15ca5", "name": "ce025f770a99ae32eb527c3d36a15ca5", "rental_uris": {"ios": "https://dc.lft.to/lastmile_qr_scan", "android": "https://dc.lft.to/lastmile_qr_scan"}}, {"is_disabled": 0, "fusion_lat": 0.0, "lat": 38.947202, "type": "electric_scooter", "lon": -77.0333815, "is_reserved": 0, "fusion_lon": 0.0, "bike_id": "0f40b74eb9f355571989d28de252f2ce", "name": "0f40b74eb9f355571989d28de252f2ce", "rental_uris": {"ios": "https://dc.lft.to/lastmile_qr_scan", "android": "https://dc.lft.to/lastmile_qr_scan"}}, {"is_disabled": 0, "fusion_lat": 0.0, "lat": 38.917635, "type": "electric_scooter", "lon": -77.040397, "is_reserved": 0, "fusion_lon": 0.0, "bike_id": "fe762af4375ed70d617401205dbd256b", "name": "fe762af4375ed70d617401205dbd256b", "rental_uris": {"ios": "https://dc.lft.to/lastmile_qr_scan", "android": "https://dc.lft.to/lastmile_qr_scan"}}, {"is_disabled": 0, "fusion_lat": 0.0, "lat": 38.93713566666667, "type": "electric_scooter", "lon": -77.02929566666667, "is_reserved": 0, "fusion_lon": 0.0, "bike_id": "f6ab545066774300fad68b953f7050dc", "name": "f6ab545066774300fad68b953f7050dc", "rental_uris": {"ios": "https://dc.lft.to/lastmile_qr_scan", "android": "https://dc.lft.to/lastmile_qr_scan"}}, {"is_disabled": 0, "fusion_lat": 0.0, "lat": 38.83720783333333, "type": "electric_bike", "lon": -76.99764483333334, "is_reserved": 0, "fusion_lon": 0.0, "bike_id": "a4598cf2becc7117f60d45997a6f8983", "name": "a4598cf2becc7117f60d45997a6f8983", "rental_uris": {"ios": "https://dc.lft.to/lastmile_qr_scan", "android": "https://dc.lft.to/lastmile_qr_scan"}}, {"is_disabled": 0, "fusion_lat": 0.0, "lat": 38.90502333333333, "type": "electric_scooter", "lon": -77.02586466666666, "is_reserved": 0, "fusion_lon": 0.0, "bike_id": "31dce33bf884d139a8a1a91fbae7be08", "name": "31dce33bf884d139a8a1a91fbae7be08", "rental_uris": {"ios": "https://dc.lft.to/lastmile_qr_scan", "android": "https://dc.lft.to/lastmile_qr_scan"}}, {"is_disabled": 0, "fusion_lat": 0.0, "lat": 38.884961833333335, "type": "electric_scooter", "lon": -77.0034405, "is_reserved": 0, "fusion_lon": 0.0, "bike_id": "2eb8786a6ff232bbec885a64ef4dab76", "name": "2eb8786a6ff232bbec885a64ef4dab76", "rental_uris": {"ios": "https://dc.lft.to/lastmile_qr_scan", "android": "https://dc.lft.to/lastmile_qr_scan"}}, {"is_disabled": 0, "fusion_lat": 0.0, "lat": 38.928526833333336, "type": "electric_scooter", "lon": -77.01403933333333, "is_reserved": 0, "fusion_lon": 0.0, "bike_id": "b0a989b1000dc59bfa57d0e1daa05d71", "name": "b0a989b1000dc59bfa57d0e1daa05d71", "rental_uris": {"ios": "https://dc.lft.to/lastmile_qr_scan", "android": "https://dc.lft.to/lastmile_qr_scan"}}, {"is_disabled": 0, "fusion_lat": 0.0, "lat": 38.889967166666665, "type": "electric_scooter", "lon": -76.95568016666667, "is_reserved": 0, "fusion_lon": 0.0, "bike_id": "62f65f44d06475a9192504cd1076a406", "name": "62f65f44d06475a9192504cd1076a406", "rental_uris": {"ios": "https://dc.lft.to/lastmile_qr_scan", "android": "https://dc.lft.to/lastmile_qr_scan"}}, {"is_disabled": 0, "fusion_lat": 0.0, "lat": 38.887374333333334, "type": "electric_scooter", "lon": -77.0032415, "is_reserved": 0, "fusion_lon": 0.0, "bike_id": "654e981521b0279950f3d80a7ac66cbd", "name": "654e981521b0279950f3d80a7ac66cbd", "rental_uris": {"ios": "https://dc.lft.to/lastmile_qr_scan", "android": "https://dc.lft.to/lastmile_qr_scan"}}, {"is_disabled": 0, "fusion_lat": 0.0, "lat": 38.808966833333336, "type": "electric_bike", "lon": -77.08681166666666, "is_reserved": 0, "fusion_lon": 0.0, "bike_id": "563ad998e5dd0b4814bf8a444b7fc5b3", "name": "563ad998e5dd0b4814bf8a444b7fc5b3", "rental_uris": {"ios": "https://dc.lft.to/lastmile_qr_scan", "android": "https://dc.lft.to/lastmile_qr_scan"}}, {"is_disabled": 0, "fusion_lat": 0.0, "lat": 38.954000666666666, "type": "electric_scooter", "lon": -77.027433, "is_reserved": 0, "fusion_lon": 0.0, "bike_id": "b0aa453ed9ea65447ed595e222a1564f", "name": "b0aa453ed9ea65447ed595e222a1564f", "rental_uris": {"ios": "https://dc.lft.to/lastmile_qr_scan", "android": "https://dc.lft.to/lastmile_qr_scan"}}, {"is_disabled": 0, "fusion_lat": 0.0, "lat": 38.93588783333333, "type": "electric_scooter", "lon": -77.0374845, "is_reserved": 0, "fusion_lon": 0.0, "bike_id": "81ae80a94c0410b674f6da226d50b782", "name": "81ae80a94c0410b674f6da226d50b782", "rental_uris": {"ios": "https://dc.lft.to/lastmile_qr_scan", "android": "https://dc.lft.to/lastmile_qr_scan"}}, {"is_disabled": 0, "fusion_lat": 0.0, "lat": 38.96019716666667, "type": "electric_bike", "lon": -77.01722166666667, "is_reserved": 0, "fusion_lon": 0.0, "bike_id": "a16a4a4cc1c4dffa4a742645c98af0c4", "name": "a16a4a4cc1c4dffa4a742645c98af0c4", "rental_uris": {"ios": "https://dc.lft.to/lastmile_qr_scan", "android": "https://dc.lft.to/lastmile_qr_scan"}}, {"is_disabled": 0, "fusion_lat": 0.0, "lat": 38.93535333333333, "type": "electric_scooter", "lon": -77.02371933333333, "is_reserved": 0, "fusion_lon": 0.0, "bike_id": "358413f5c298c3c1d244d3e17076d3cc", "name": "358413f5c298c3c1d244d3e17076d3cc", "rental_uris": {"ios": "https://dc.lft.to/lastmile_qr_scan", "android": "https://dc.lft.to/lastmile_qr_scan"}}, {"is_disabled": 0, "fusion_lat": 0.0, "lat": 38.956407166666665, "type": "electric_scooter", "lon": -76.99796466666666, "is_reserved": 0, "fusion_lon": 0.0, "bike_id": "ace1e8b59cc72a5472ec3580ffd60f28", "name": "ace1e8b59cc72a5472ec3580ffd60f28", "rental_uris": {"ios": "https://dc.lft.to/lastmile_qr_scan", "android": "https://dc.lft.to/lastmile_qr_scan"}}, {"is_disabled": 0, "fusion_lat": 0.0, "lat": 38.911050333333336, "type": "electric_scooter", "lon": -77.0420755, "is_reserved": 0, "fusion_lon": 0.0, "bike_id": "2d31f2973a337ae05b787944c76180ec", "name": "2d31f2973a337ae05b787944c76180ec", "rental_uris": {"ios": "https://dc.lft.to/lastmile_qr_scan", "android": "https://dc.lft.to/lastmile_qr_scan"}}, {"is_disabled": 0, "fusion_lat": 0.0, "lat": 38.879649666666666, "type": "electric_scooter", "lon": -76.9853375, "is_reserved": 0, "fusion_lon": 0.0, "bike_id": "2d8fce36048dce308c015286e822f6f6", "name": "2d8fce36048dce308c015286e822f6f6", "rental_uris": {"ios": "https://dc.lft.to/lastmile_qr_scan", "android": "https://dc.lft.to/lastmile_qr_scan"}}, {"is_disabled": 0, "fusion_lat": 0.0, "lat": 38.8823785, "type": "electric_scooter", "lon": -76.99084266666667, "is_reserved": 0, "fusion_lon": 0.0, "bike_id": "e23d74be68798b1e10a5733a19d0bb77", "name": "e23d74be68798b1e10a5733a19d0bb77", "rental_uris": {"ios": "https://dc.lft.to/lastmile_qr_scan", "android": "https://dc.lft.to/lastmile_qr_scan"}}, {"is_disabled": 0, "fusion_lat": 0.0, "lat": 38.90859533333333, "type": "electric_bike", "lon": -77.08073716666667, "is_reserved": 0, "fusion_lon": 0.0, "bike_id": "96246d720cc82a01c56c1f626c6a1acd", "name": "96246d720cc82a01c56c1f626c6a1acd", "rental_uris": {"ios": "https://dc.lft.to/lastmile_qr_scan", "android": "https://dc.lft.to/lastmile_qr_scan"}}, {"is_disabled": 0, "fusion_lat": 0.0, "lat": 38.88759783333333, "type": "electric_scooter", "lon": -77.0200105, "is_reserved": 0, "fusion_lon": 0.0, "bike_id": "9e469e773d64c32adfb9a7c28312819b", "name": "9e469e773d64c32adfb9a7c28312819b", "rental_uris": {"ios": "https://dc.lft.to/lastmile_qr_scan", "android": "https://dc.lft.to/lastmile_qr_scan"}}, {"is_disabled": 0, "fusion_lat": 0.0, "lat": 38.99150733333333, "type": "electric_scooter", "lon": -77.04736933333334, "is_reserved": 0, "fusion_lon": 0.0, "bike_id": "c70bf8e1e0e3e6bed18a31f1074f9504", "name": "c70bf8e1e0e3e6bed18a31f1074f9504", "rental_uris": {"ios": "https://dc.lft.to/lastmile_qr_scan", "android": "https://dc.lft.to/lastmile_qr_scan"}}, {"is_disabled": 0, "fusion_lat": 0.0, "lat": 38.919856833333334, "type": "electric_scooter", "lon": -76.97305583333333, "is_reserved": 0, "fusion_lon": 0.0, "bike_id": "599c67b94a9938c601d0c896ffe65b4b", "name": "599c67b94a9938c601d0c896ffe65b4b", "rental_uris": {"ios": "https://dc.lft.to/lastmile_qr_scan", "android": "https://dc.lft.to/lastmile_qr_scan"}}, {"is_disabled": 0, "fusion_lat": 0.0, "lat": 38.9041535, "type": "electric_scooter", "lon": -77.053216, "is_reserved": 0, "fusion_lon": 0.0, "bike_id": "5d64b9108f175a0d81c2d397c3ce61cf", "name": "5d64b9108f175a0d81c2d397c3ce61cf", "rental_uris": {"ios": "https://dc.lft.to/lastmile_qr_scan", "android": "https://dc.lft.to/lastmile_qr_scan"}}, {"is_disabled": 0, "fusion_lat": 0.0, "lat": 38.90374966666667, "type": "electric_scooter", "lon": -77.04483533333334, "is_reserved": 0, "fusion_lon": 0.0, "bike_id": "3a7f25e52d8cba11989ba93476752777", "name": "3a7f25e52d8cba11989ba93476752777", "rental_uris": {"ios": "https://dc.lft.to/lastmile_qr_scan", "android": "https://dc.lft.to/lastmile_qr_scan"}}, {"is_disabled": 0, "fusion_lat": 0.0, "lat": 38.88337766666667, "type": "electric_scooter", "lon": -77.03145483333333, "is_reserved": 0, "fusion_lon": 0.0, "bike_id": "bb42002b989afe70a3da302cb4dffb46", "name": "bb42002b989afe70a3da302cb4dffb46", "rental_uris": {"ios": "https://dc.lft.to/lastmile_qr_scan", "android": "https://dc.lft.to/lastmile_qr_scan"}}, {"is_disabled": 0, "fusion_lat": 0.0, "lat": 38.90561366666667, "type": "electric_scooter", "lon": -77.02478316666667, "is_reserved": 0, "fusion_lon": 0.0, "bike_id": "f62209f51b39257c751eb4d0e21aa400", "name": "f62209f51b39257c751eb4d0e21aa400", "rental_uris": {"ios": "https://dc.lft.to/lastmile_qr_scan", "android": "https://dc.lft.to/lastmile_qr_scan"}}, {"is_disabled": 0, "fusion_lat": 0.0, "lat": 38.8992185, "type": "electric_scooter", "lon": -77.04062883333333, "is_reserved": 0, "fusion_lon": 0.0, "bike_id": "b1d39fe19979523924bec3a6f79b6bb5", "name": "b1d39fe19979523924bec3a6f79b6bb5", "rental_uris": {"ios": "https://dc.lft.to/lastmile_qr_scan", "android": "https://dc.lft.to/lastmile_qr_scan"}}, {"is_disabled": 0, "fusion_lat": 0.0, "lat": 38.936837, "type": "electric_scooter", "lon": -77.0362485, "is_reserved": 0, "fusion_lon": 0.0, "bike_id": "d31ae82a6ea62b3fbdaef2258f8f51f3", "name": "d31ae82a6ea62b3fbdaef2258f8f51f3", "rental_uris": {"ios": "https://dc.lft.to/lastmile_qr_scan", "android": "https://dc.lft.to/lastmile_qr_scan"}}, {"is_disabled": 0, "fusion_lat": 0.0, "lat": 38.91012666666666, "type": "electric_scooter", "lon": -76.99389066666667, "is_reserved": 0, "fusion_lon": 0.0, "bike_id": "eeac4e10e8e1f3dcbdf2cc1ec94e2c5e", "name": "eeac4e10e8e1f3dcbdf2cc1ec94e2c5e", "rental_uris": {"ios": "https://dc.lft.to/lastmile_qr_scan", "android": "https://dc.lft.to/lastmile_qr_scan"}}, {"is_disabled": 0, "fusion_lat": 0.0, "lat": 38.9234075, "type": "electric_scooter", "lon": -77.01902466666667, "is_reserved": 0, "fusion_lon": 0.0, "bike_id": "e0d5f4b6934bc602ff1dafad42aa6bce", "name": "e0d5f4b6934bc602ff1dafad42aa6bce", "rental_uris": {"ios": "https://dc.lft.to/lastmile_qr_scan", "android": "https://dc.lft.to/lastmile_qr_scan"}}, {"is_disabled": 0, "fusion_lat": 0.0, "lat": 38.913421666666665, "type": "electric_scooter", "lon": -77.00224683333333, "is_reserved": 0, "fusion_lon": 0.0, "bike_id": "455b02c719839c4c8afe31bbcbee9350", "name": "455b02c719839c4c8afe31bbcbee9350", "rental_uris": {"ios": "https://dc.lft.to/lastmile_qr_scan", "android": "https://dc.lft.to/lastmile_qr_scan"}}, {"is_disabled": 0, "fusion_lat": 0.0, "lat": 38.8708905, "type": "electric_scooter", "lon": -77.01201066666667, "is_reserved": 0, "fusion_lon": 0.0, "bike_id": "dd77ebb62c1172850300afeb6eb26ff1", "name": "dd77ebb62c1172850300afeb6eb26ff1", "rental_uris": {"ios": "https://dc.lft.to/lastmile_qr_scan", "android": "https://dc.lft.to/lastmile_qr_scan"}}, {"is_disabled": 0, "fusion_lat": 0.0, "lat": 38.902405333333334, "type": "electric_bike", "lon": -77.04560733333334, "is_reserved": 0, "fusion_lon": 0.0, "bike_id": "e9a76b10aa46c58833b17c2eaf923b74", "name": "e9a76b10aa46c58833b17c2eaf923b74", "rental_uris": {"ios": "https://dc.lft.to/lastmile_qr_scan", "android": "https://dc.lft.to/lastmile_qr_scan"}}, {"is_disabled": 0, "fusion_lat": 0.0, "lat": 38.90809483333334, "type": "electric_scooter", "lon": -77.043224, "is_reserved": 0, "fusion_lon": 0.0, "bike_id": "c8fe857c9227d22c2c1f58e85ed49797", "name": "c8fe857c9227d22c2c1f58e85ed49797", "rental_uris": {"ios": "https://dc.lft.to/lastmile_qr_scan", "android": "https://dc.lft.to/lastmile_qr_scan"}}, {"is_disabled": 0, "fusion_lat": 0.0, "lat": 38.9126575, "type": "electric_scooter", "lon": -77.03079966666667, "is_reserved": 0, "fusion_lon": 0.0, "bike_id": "d74a3aaf774e9d9be9906feebfbce95d", "name": "d74a3aaf774e9d9be9906feebfbce95d", "rental_uris": {"ios": "https://dc.lft.to/lastmile_qr_scan", "android": "https://dc.lft.to/lastmile_qr_scan"}}, {"is_disabled": 0, "fusion_lat": 0.0, "lat": 38.907653, "type": "electric_scooter", "lon": -77.04343033333333, "is_reserved": 0, "fusion_lon": 0.0, "bike_id": "e2f15026b6603284ece2cda867125a7d", "name": "e2f15026b6603284ece2cda867125a7d", "rental_uris": {"ios": "https://dc.lft.to/lastmile_qr_scan", "android": "https://dc.lft.to/lastmile_qr_scan"}}, {"is_disabled": 0, "fusion_lat": 0.0, "lat": 38.861050166666665, "type": "electric_scooter", "lon": -76.983585, "is_reserved": 0, "fusion_lon": 0.0, "bike_id": "666e8b87df27755f7098613776614b71", "name": "666e8b87df27755f7098613776614b71", "rental_uris": {"ios": "https://dc.lft.to/lastmile_qr_scan", "android": "https://dc.lft.to/lastmile_qr_scan"}}, {"is_disabled": 0, "fusion_lat": 0.0, "lat": 38.9027615, "type": "electric_scooter", "lon": -77.0337695, "is_reserved": 0, "fusion_lon": 0.0, "bike_id": "a6feac2d901c74ccc27e46fd76929b34", "name": "a6feac2d901c74ccc27e46fd76929b34", "rental_uris": {"ios": "https://dc.lft.to/lastmile_qr_scan", "android": "https://dc.lft.to/lastmile_qr_scan"}}, {"is_disabled": 0, "fusion_lat": 0.0, "lat": 38.90814233333333, "type": "electric_scooter", "lon": -77.04342383333334, "is_reserved": 0, "fusion_lon": 0.0, "bike_id": "93ad1d367d99007c4353780fb21f79d1", "name": "93ad1d367d99007c4353780fb21f79d1", "rental_uris": {"ios": "https://dc.lft.to/lastmile_qr_scan", "android": "https://dc.lft.to/lastmile_qr_scan"}}, {"is_disabled": 0, "fusion_lat": 0.0, "lat": 38.9217295, "type": "electric_scooter", "lon": -77.03203766666667, "is_reserved": 0, "fusion_lon": 0.0, "bike_id": "729d218eb0a5cc185523f7efddf5da7b", "name": "729d218eb0a5cc185523f7efddf5da7b", "rental_uris": {"ios": "https://dc.lft.to/lastmile_qr_scan", "android": "https://dc.lft.to/lastmile_qr_scan"}}, {"is_disabled": 0, "fusion_lat": 0.0, "lat": 38.89328883333334, "type": "electric_scooter", "lon": -76.92990816666666, "is_reserved": 0, "fusion_lon": 0.0, "bike_id": "bd244ba191339b29f3b19b7d613110ed", "name": "bd244ba191339b29f3b19b7d613110ed", "rental_uris": {"ios": "https://dc.lft.to/lastmile_qr_scan", "android": "https://dc.lft.to/lastmile_qr_scan"}}, {"is_disabled": 0, "fusion_lat": 0.0, "lat": 38.90521066666667, "type": "electric_scooter", "lon": -76.98832283333333, "is_reserved": 0, "fusion_lon": 0.0, "bike_id": "5a353779f1b81d2e9adbf5d5633be411", "name": "5a353779f1b81d2e9adbf5d5633be411", "rental_uris": {"ios": "https://dc.lft.to/lastmile_qr_scan", "android": "https://dc.lft.to/lastmile_qr_scan"}}, {"is_disabled": 0, "fusion_lat": 0.0, "lat": 38.9051295, "type": "electric_scooter", "lon": -77.05139866666667, "is_reserved": 0, "fusion_lon": 0.0, "bike_id": "3aa81c7fff6ee92b3bddb19e6c8b0fb4", "name": "3aa81c7fff6ee92b3bddb19e6c8b0fb4", "rental_uris": {"ios": "https://dc.lft.to/lastmile_qr_scan", "android": "https://dc.lft.to/lastmile_qr_scan"}}, {"is_disabled": 0, "fusion_lat": 0.0, "lat": 38.873896333333334, "type": "electric_scooter", "lon": -77.00086166666667, "is_reserved": 0, "fusion_lon": 0.0, "bike_id": "98d702166fcd5892ab08325eeba307dc", "name": "98d702166fcd5892ab08325eeba307dc", "rental_uris": {"ios": "https://dc.lft.to/lastmile_qr_scan", "android": "https://dc.lft.to/lastmile_qr_scan"}}, {"is_disabled": 0, "fusion_lat": 0.0, "lat": 38.902869333333335, "type": "electric_scooter", "lon": -77.05146366666666, "is_reserved": 0, "fusion_lon": 0.0, "bike_id": "1b7dc7f3598ddb4ca9937a198e7fa55f", "name": "1b7dc7f3598ddb4ca9937a198e7fa55f", "rental_uris": {"ios": "https://dc.lft.to/lastmile_qr_scan", "android": "https://dc.lft.to/lastmile_qr_scan"}}, {"is_disabled": 0, "fusion_lat": 0.0, "lat": 38.916978666666665, "type": "electric_scooter", "lon": -77.02894966666666, "is_reserved": 0, "fusion_lon": 0.0, "bike_id": "021b1efc346360f91aac8f1121bc6210", "name": "021b1efc346360f91aac8f1121bc6210", "rental_uris": {"ios": "https://dc.lft.to/lastmile_qr_scan", "android": "https://dc.lft.to/lastmile_qr_scan"}}, {"is_disabled": 0, "fusion_lat": 0.0, "lat": 38.917842, "type": "electric_scooter", "lon": -77.023069, "is_reserved": 0, "fusion_lon": 0.0, "bike_id": "f63ccbc5b3f20f5f24fc342a8b5d6311", "name": "f63ccbc5b3f20f5f24fc342a8b5d6311", "rental_uris": {"ios": "https://dc.lft.to/lastmile_qr_scan", "android": "https://dc.lft.to/lastmile_qr_scan"}}, {"is_disabled": 0, "fusion_lat": 0.0, "lat": 38.90404816666667, "type": "electric_scooter", "lon": -77.0320755, "is_reserved": 0, "fusion_lon": 0.0, "bike_id": "c417d11d9554f3ea7c54004f5c604ce0", "name": "c417d11d9554f3ea7c54004f5c604ce0", "rental_uris": {"ios": "https://dc.lft.to/lastmile_qr_scan", "android": "https://dc.lft.to/lastmile_qr_scan"}}, {"is_disabled": 0, "fusion_lat": 0.0, "lat": 38.8762965, "type": "electric_scooter", "lon": -76.96521966666667, "is_reserved": 0, "fusion_lon": 0.0, "bike_id": "627b060a70a137b938d933c03ceb3c8e", "name": "627b060a70a137b938d933c03ceb3c8e", "rental_uris": {"ios": "https://dc.lft.to/lastmile_qr_scan", "android": "https://dc.lft.to/lastmile_qr_scan"}}, {"is_disabled": 0, "fusion_lat": 0.0, "lat": 38.884480833333335, "type": "electric_scooter", "lon": -76.950947, "is_reserved": 0, "fusion_lon": 0.0, "bike_id": "2a98670ba456b413f01d9a110e475203", "name": "2a98670ba456b413f01d9a110e475203", "rental_uris": {"ios": "https://dc.lft.to/lastmile_qr_scan", "android": "https://dc.lft.to/lastmile_qr_scan"}}, {"is_disabled": 0, "fusion_lat": 0.0, "lat": 38.896832833333335, "type": "electric_scooter", "lon": -76.99627016666666, "is_reserved": 0, "fusion_lon": 0.0, "bike_id": "923d1ffb1003f254979a38b874a9f54e", "name": "923d1ffb1003f254979a38b874a9f54e", "rental_uris": {"ios": "https://dc.lft.to/lastmile_qr_scan", "android": "https://dc.lft.to/lastmile_qr_scan"}}, {"is_disabled": 0, "fusion_lat": 0.0, "lat": 38.9286455, "type": "electric_scooter", "lon": -77.01378233333334, "is_reserved": 0, "fusion_lon": 0.0, "bike_id": "f0c1558ce37095f0828c6068b872156d", "name": "f0c1558ce37095f0828c6068b872156d", "rental_uris": {"ios": "https://dc.lft.to/lastmile_qr_scan", "android": "https://dc.lft.to/lastmile_qr_scan"}}, {"is_disabled": 0, "fusion_lat": 0.0, "lat": 38.89221216666667, "type": "electric_scooter", "lon": -77.04193566666666, "is_reserved": 0, "fusion_lon": 0.0, "bike_id": "681aba3fecaa893ac3b53ea2a5b9d80a", "name": "681aba3fecaa893ac3b53ea2a5b9d80a", "rental_uris": {"ios": "https://dc.lft.to/lastmile_qr_scan", "android": "https://dc.lft.to/lastmile_qr_scan"}}, {"is_disabled": 0, "fusion_lat": 0.0, "lat": 38.91573133333333, "type": "electric_scooter", "lon": -77.03043716666667, "is_reserved": 0, "fusion_lon": 0.0, "bike_id": "cc49a01275b5f400f710d5051a2a5573", "name": "cc49a01275b5f400f710d5051a2a5573", "rental_uris": {"ios": "https://dc.lft.to/lastmile_qr_scan", "android": "https://dc.lft.to/lastmile_qr_scan"}}, {"is_disabled": 0, "fusion_lat": 0.0, "lat": 38.90076216666667, "type": "electric_scooter", "lon": -77.03925783333334, "is_reserved": 0, "fusion_lon": 0.0, "bike_id": "42f20352512cc414a93d897d0fc16e4d", "name": "42f20352512cc414a93d897d0fc16e4d", "rental_uris": {"ios": "https://dc.lft.to/lastmile_qr_scan", "android": "https://dc.lft.to/lastmile_qr_scan"}}, {"is_disabled": 0, "fusion_lat": 0.0, "lat": 38.899156166666664, "type": "electric_scooter", "lon": -76.933802, "is_reserved": 0, "fusion_lon": 0.0, "bike_id": "83db7249c8e23b2ee5bd71adca7131c8", "name": "83db7249c8e23b2ee5bd71adca7131c8", "rental_uris": {"ios": "https://dc.lft.to/lastmile_qr_scan", "android": "https://dc.lft.to/lastmile_qr_scan"}}, {"is_disabled": 0, "fusion_lat": 0.0, "lat": 38.894997333333336, "type": "electric_scooter", "lon": -77.02270416666667, "is_reserved": 0, "fusion_lon": 0.0, "bike_id": "37c5a64d5c639d466ec1e2cfbfaf6621", "name": "37c5a64d5c639d466ec1e2cfbfaf6621", "rental_uris": {"ios": "https://dc.lft.to/lastmile_qr_scan", "android": "https://dc.lft.to/lastmile_qr_scan"}}, {"is_disabled": 0, "fusion_lat": 0.0, "lat": 38.91759883333334, "type": "electric_scooter", "lon": -77.03661083333333, "is_reserved": 0, "fusion_lon": 0.0, "bike_id": "e561dd40907d3cf08b8537e0bd96d2a0", "name": "e561dd40907d3cf08b8537e0bd96d2a0", "rental_uris": {"ios": "https://dc.lft.to/lastmile_qr_scan", "android": "https://dc.lft.to/lastmile_qr_scan"}}, {"is_disabled": 0, "fusion_lat": 0.0, "lat": 38.87086883333333, "type": "electric_bike", "lon": -77.012021, "is_reserved": 0, "fusion_lon": 0.0, "bike_id": "b5f410e48b14c458483d8a7c1c53233f", "name": "b5f410e48b14c458483d8a7c1c53233f", "rental_uris": {"ios": "https://dc.lft.to/lastmile_qr_scan", "android": "https://dc.lft.to/lastmile_qr_scan"}}, {"is_disabled": 0, "fusion_lat": 0.0, "lat": 38.92240433333333, "type": "electric_scooter", "lon": -77.03082666666667, "is_reserved": 0, "fusion_lon": 0.0, "bike_id": "d7dbcaa9084e4ba734f36a1ed0cc8b54", "name": "d7dbcaa9084e4ba734f36a1ed0cc8b54", "rental_uris": {"ios": "https://dc.lft.to/lastmile_qr_scan", "android": "https://dc.lft.to/lastmile_qr_scan"}}, {"is_disabled": 0, "fusion_lat": 0.0, "lat": 38.8952965, "type": "electric_scooter", "lon": -77.048512, "is_reserved": 0, "fusion_lon": 0.0, "bike_id": "eea355af7e662aaacbb915e988c2073c", "name": "eea355af7e662aaacbb915e988c2073c", "rental_uris": {"ios": "https://dc.lft.to/lastmile_qr_scan", "android": "https://dc.lft.to/lastmile_qr_scan"}}, {"is_disabled": 0, "fusion_lat": 0.0, "lat": 38.958881166666664, "type": "electric_bike", "lon": -76.92482116666666, "is_reserved": 0, "fusion_lon": 0.0, "bike_id": "eaf05ed65c8e0c2a47da4c3f37d51142", "name": "eaf05ed65c8e0c2a47da4c3f37d51142", "rental_uris": {"ios": "https://dc.lft.to/lastmile_qr_scan", "android": "https://dc.lft.to/lastmile_qr_scan"}}, {"is_disabled": 0, "fusion_lat": 0.0, "lat": 38.90569416666666, "type": "electric_scooter", "lon": -76.9815415, "is_reserved": 0, "fusion_lon": 0.0, "bike_id": "314eae610c0c010d59b09bc9bb3669db", "name": "314eae610c0c010d59b09bc9bb3669db", "rental_uris": {"ios": "https://dc.lft.to/lastmile_qr_scan", "android": "https://dc.lft.to/lastmile_qr_scan"}}, {"is_disabled": 0, "fusion_lat": 0.0, "lat": 38.91031233333333, "type": "electric_scooter", "lon": -77.04391666666666, "is_reserved": 0, "fusion_lon": 0.0, "bike_id": "6f7280b3ed09546e7a9d7590b87de272", "name": "6f7280b3ed09546e7a9d7590b87de272", "rental_uris": {"ios": "https://dc.lft.to/lastmile_qr_scan", "android": "https://dc.lft.to/lastmile_qr_scan"}}, {"is_disabled": 0, "fusion_lat": 0.0, "lat": 38.90564083333334, "type": "electric_scooter", "lon": -77.04344566666667, "is_reserved": 0, "fusion_lon": 0.0, "bike_id": "c6a537f7c4d6c78d59848878b6bcc0eb", "name": "c6a537f7c4d6c78d59848878b6bcc0eb", "rental_uris": {"ios": "https://dc.lft.to/lastmile_qr_scan", "android": "https://dc.lft.to/lastmile_qr_scan"}}, {"is_disabled": 0, "fusion_lat": 0.0, "lat": 38.9303885, "type": "electric_scooter", "lon": -77.0321695, "is_reserved": 0, "fusion_lon": 0.0, "bike_id": "e0b546d036fb64e47dc20d0a4a4c157d", "name": "e0b546d036fb64e47dc20d0a4a4c157d", "rental_uris": {"ios": "https://dc.lft.to/lastmile_qr_scan", "android": "https://dc.lft.to/lastmile_qr_scan"}}, {"is_disabled": 0, "fusion_lat": 0.0, "lat": 38.875494, "type": "electric_scooter", "lon": -76.96487233333333, "is_reserved": 0, "fusion_lon": 0.0, "bike_id": "bb919b6ab6ff541e2fba488127cf3087", "name": "bb919b6ab6ff541e2fba488127cf3087", "rental_uris": {"ios": "https://dc.lft.to/lastmile_qr_scan", "android": "https://dc.lft.to/lastmile_qr_scan"}}, {"is_disabled": 0, "fusion_lat": 0.0, "lat": 38.89046483333333, "type": "electric_scooter", "lon": -76.94075966666666, "is_reserved": 0, "fusion_lon": 0.0, "bike_id": "a1e0f4fa36e6923fab984fff959b341c", "name": "a1e0f4fa36e6923fab984fff959b341c", "rental_uris": {"ios": "https://dc.lft.to/lastmile_qr_scan", "android": "https://dc.lft.to/lastmile_qr_scan"}}, {"is_disabled": 0, "fusion_lat": 0.0, "lat": 38.90794733333333, "type": "electric_scooter", "lon": -77.03478116666666, "is_reserved": 0, "fusion_lon": 0.0, "bike_id": "766745f8177c8569eeb431a4af6a7996", "name": "766745f8177c8569eeb431a4af6a7996", "rental_uris": {"ios": "https://dc.lft.to/lastmile_qr_scan", "android": "https://dc.lft.to/lastmile_qr_scan"}}, {"is_disabled": 0, "fusion_lat": 0.0, "lat": 38.90819233333333, "type": "electric_scooter", "lon": -77.04337683333334, "is_reserved": 0, "fusion_lon": 0.0, "bike_id": "4425568cf1ea162ed30f6146e8367302", "name": "4425568cf1ea162ed30f6146e8367302", "rental_uris": {"ios": "https://dc.lft.to/lastmile_qr_scan", "android": "https://dc.lft.to/lastmile_qr_scan"}}, {"is_disabled": 0, "fusion_lat": 0.0, "lat": 38.902642666666665, "type": "electric_scooter", "lon": -77.017115, "is_reserved": 0, "fusion_lon": 0.0, "bike_id": "e48b16acfcc5838b362233732bf91866", "name": "e48b16acfcc5838b362233732bf91866", "rental_uris": {"ios": "https://dc.lft.to/lastmile_qr_scan", "android": "https://dc.lft.to/lastmile_qr_scan"}}, {"is_disabled": 0, "fusion_lat": 0.0, "lat": 38.9159245, "type": "electric_scooter", "lon": -77.04524233333333, "is_reserved": 0, "fusion_lon": 0.0, "bike_id": "158e19d5ce23a24c35b1f4275fe6b0cd", "name": "158e19d5ce23a24c35b1f4275fe6b0cd", "rental_uris": {"ios": "https://dc.lft.to/lastmile_qr_scan", "android": "https://dc.lft.to/lastmile_qr_scan"}}, {"is_disabled": 0, "fusion_lat": 0.0, "lat": 38.906681, "type": "electric_scooter", "lon": -76.98780733333334, "is_reserved": 0, "fusion_lon": 0.0, "bike_id": "31261da297befc90157fae18b31263be", "name": "31261da297befc90157fae18b31263be", "rental_uris": {"ios": "https://dc.lft.to/lastmile_qr_scan", "android": "https://dc.lft.to/lastmile_qr_scan"}}, {"is_disabled": 0, "fusion_lat": 0.0, "lat": 38.9056675, "type": "electric_scooter", "lon": -77.04509, "is_reserved": 0, "fusion_lon": 0.0, "bike_id": "6605a1176f9bca89034a8845f6eec352", "name": "6605a1176f9bca89034a8845f6eec352", "rental_uris": {"ios": "https://dc.lft.to/lastmile_qr_scan", "android": "https://dc.lft.to/lastmile_qr_scan"}}, {"is_disabled": 0, "fusion_lat": 0.0, "lat": 38.92463383333333, "type": "electric_scooter", "lon": -77.03773033333333, "is_reserved": 0, "fusion_lon": 0.0, "bike_id": "d1948e87122fd0e5340f8204132d50a8", "name": "d1948e87122fd0e5340f8204132d50a8", "rental_uris": {"ios": "https://dc.lft.to/lastmile_qr_scan", "android": "https://dc.lft.to/lastmile_qr_scan"}}, {"is_disabled": 0, "fusion_lat": 0.0, "lat": 38.900031, "type": "electric_scooter", "lon": -77.05246616666666, "is_reserved": 0, "fusion_lon": 0.0, "bike_id": "6204f685a6a1f7a82e8031727d736ab8", "name": "6204f685a6a1f7a82e8031727d736ab8", "rental_uris": {"ios": "https://dc.lft.to/lastmile_qr_scan", "android": "https://dc.lft.to/lastmile_qr_scan"}}, {"is_disabled": 0, "fusion_lat": 0.0, "lat": 38.8616615, "type": "electric_bike", "lon": -77.130927, "is_reserved": 0, "fusion_lon": 0.0, "bike_id": "0e89ddd7c76bbd4d5e1f5bc9db775094", "name": "0e89ddd7c76bbd4d5e1f5bc9db775094", "rental_uris": {"ios": "https://dc.lft.to/lastmile_qr_scan", "android": "https://dc.lft.to/lastmile_qr_scan"}}, {"is_disabled": 0, "fusion_lat": 0.0, "lat": 38.9197975, "type": "electric_scooter", "lon": -77.04167916666667, "is_reserved": 0, "fusion_lon": 0.0, "bike_id": "3001870baa38e7651159a467bffc13c6", "name": "3001870baa38e7651159a467bffc13c6", "rental_uris": {"ios": "https://dc.lft.to/lastmile_qr_scan", "android": "https://dc.lft.to/lastmile_qr_scan"}}, {"is_disabled": 0, "fusion_lat": 0.0, "lat": 38.90373833333334, "type": "electric_scooter", "lon": -77.04165433333333, "is_reserved": 0, "fusion_lon": 0.0, "bike_id": "d1188a56757469cef885a486c61f36ee", "name": "d1188a56757469cef885a486c61f36ee", "rental_uris": {"ios": "https://dc.lft.to/lastmile_qr_scan", "android": "https://dc.lft.to/lastmile_qr_scan"}}, {"is_disabled": 0, "fusion_lat": 0.0, "lat": 38.96701816666667, "type": "electric_bike", "lon": -77.102179, "is_reserved": 0, "fusion_lon": 0.0, "bike_id": "33f6033302663767e6d7e307fa1e157b", "name": "33f6033302663767e6d7e307fa1e157b", "rental_uris": {"ios": "https://dc.lft.to/lastmile_qr_scan", "android": "https://dc.lft.to/lastmile_qr_scan"}}, {"is_disabled": 0, "fusion_lat": 0.0, "lat": 38.90576733333333, "type": "electric_scooter", "lon": -77.02205283333333, "is_reserved": 0, "fusion_lon": 0.0, "bike_id": "8a08662036eae02a7126ab8d50193241", "name": "8a08662036eae02a7126ab8d50193241", "rental_uris": {"ios": "https://dc.lft.to/lastmile_qr_scan", "android": "https://dc.lft.to/lastmile_qr_scan"}}, {"is_disabled": 0, "fusion_lat": 0.0, "lat": 38.932279, "type": "electric_bike", "lon": -76.974192, "is_reserved": 0, "fusion_lon": 0.0, "bike_id": "2b38753629a7b9a67df5ae7a52fd8f65", "name": "2b38753629a7b9a67df5ae7a52fd8f65", "rental_uris": {"ios": "https://dc.lft.to/lastmile_qr_scan", "android": "https://dc.lft.to/lastmile_qr_scan"}}, {"is_disabled": 0, "fusion_lat": 0.0, "lat": 38.921102833333336, "type": "electric_scooter", "lon": -77.04217166666666, "is_reserved": 0, "fusion_lon": 0.0, "bike_id": "23ef582ee6ec820a045fa74fd0d2782d", "name": "23ef582ee6ec820a045fa74fd0d2782d", "rental_uris": {"ios": "https://dc.lft.to/lastmile_qr_scan", "android": "https://dc.lft.to/lastmile_qr_scan"}}, {"is_disabled": 0, "fusion_lat": 0.0, "lat": 38.904751166666664, "type": "electric_scooter", "lon": -77.05308133333334, "is_reserved": 0, "fusion_lon": 0.0, "bike_id": "6dc4accb7cb033c97570519c7930d7ff", "name": "6dc4accb7cb033c97570519c7930d7ff", "rental_uris": {"ios": "https://dc.lft.to/lastmile_qr_scan", "android": "https://dc.lft.to/lastmile_qr_scan"}}, {"is_disabled": 0, "fusion_lat": 0.0, "lat": 38.91400933333333, "type": "electric_scooter", "lon": -77.02044133333334, "is_reserved": 0, "fusion_lon": 0.0, "bike_id": "d5fa20db0ac3695ea907dca2e21c46a2", "name": "d5fa20db0ac3695ea907dca2e21c46a2", "rental_uris": {"ios": "https://dc.lft.to/lastmile_qr_scan", "android": "https://dc.lft.to/lastmile_qr_scan"}}, {"is_disabled": 0, "fusion_lat": 0.0, "lat": 38.889274, "type": "electric_scooter", "lon": -76.973731, "is_reserved": 0, "fusion_lon": 0.0, "bike_id": "cdceb169f8c30b9d141224fdcc91d5a4", "name": "cdceb169f8c30b9d141224fdcc91d5a4", "rental_uris": {"ios": "https://dc.lft.to/lastmile_qr_scan", "android": "https://dc.lft.to/lastmile_qr_scan"}}, {"is_disabled": 0, "fusion_lat": 0.0, "lat": 38.89754, "type": "electric_scooter", "lon": -77.0270985, "is_reserved": 0, "fusion_lon": 0.0, "bike_id": "243c3c5d865a2e725440388c91955dae", "name": "243c3c5d865a2e725440388c91955dae", "rental_uris": {"ios": "https://dc.lft.to/lastmile_qr_scan", "android": "https://dc.lft.to/lastmile_qr_scan"}}, {"is_disabled": 0, "fusion_lat": 0.0, "lat": 38.901916166666666, "type": "electric_scooter", "lon": -77.02158233333333, "is_reserved": 0, "fusion_lon": 0.0, "bike_id": "a625fd0c188a0043db48bf164e5918aa", "name": "a625fd0c188a0043db48bf164e5918aa", "rental_uris": {"ios": "https://dc.lft.to/lastmile_qr_scan", "android": "https://dc.lft.to/lastmile_qr_scan"}}, {"is_disabled": 0, "fusion_lat": 0.0, "lat": 38.892205, "type": "electric_scooter", "lon": -77.0221875, "is_reserved": 0, "fusion_lon": 0.0, "bike_id": "bec91fb64ffb93d0d6cd90114f789b91", "name": "bec91fb64ffb93d0d6cd90114f789b91", "rental_uris": {"ios": "https://dc.lft.to/lastmile_qr_scan", "android": "https://dc.lft.to/lastmile_qr_scan"}}, {"is_disabled": 0, "fusion_lat": 0.0, "lat": 38.90029466666667, "type": "electric_scooter", "lon": -76.99864533333333, "is_reserved": 0, "fusion_lon": 0.0, "bike_id": "2eb8ba81e96d82b056d497b5685afeeb", "name": "2eb8ba81e96d82b056d497b5685afeeb", "rental_uris": {"ios": "https://dc.lft.to/lastmile_qr_scan", "android": "https://dc.lft.to/lastmile_qr_scan"}}, {"is_disabled": 0, "fusion_lat": 0.0, "lat": 38.9034495, "type": "electric_scooter", "lon": -77.06578116666667, "is_reserved": 0, "fusion_lon": 0.0, "bike_id": "dca61f622ad2a5b12e6b259f19f8c2e2", "name": "dca61f622ad2a5b12e6b259f19f8c2e2", "rental_uris": {"ios": "https://dc.lft.to/lastmile_qr_scan", "android": "https://dc.lft.to/lastmile_qr_scan"}}, {"is_disabled": 0, "fusion_lat": 0.0, "lat": 38.924092, "type": "electric_bike", "lon": -77.208172, "is_reserved": 0, "fusion_lon": 0.0, "bike_id": "0faef3b5b96efff021d54f9ede95117c", "name": "0faef3b5b96efff021d54f9ede95117c", "rental_uris": {"ios": "https://dc.lft.to/lastmile_qr_scan", "android": "https://dc.lft.to/lastmile_qr_scan"}}, {"is_disabled": 0, "fusion_lat": 0.0, "lat": 38.9034775, "type": "electric_scooter", "lon": -77.040155, "is_reserved": 0, "fusion_lon": 0.0, "bike_id": "2e29f7515738ab50f8e6b15d104b7bf3", "name": "2e29f7515738ab50f8e6b15d104b7bf3", "rental_uris": {"ios": "https://dc.lft.to/lastmile_qr_scan", "android": "https://dc.lft.to/lastmile_qr_scan"}}, {"is_disabled": 0, "fusion_lat": 0.0, "lat": 38.909198833333335, "type": "electric_scooter", "lon": -76.99274583333333, "is_reserved": 0, "fusion_lon": 0.0, "bike_id": "ab23adc0c5170046a73625a51d0f8bfc", "name": "ab23adc0c5170046a73625a51d0f8bfc", "rental_uris": {"ios": "https://dc.lft.to/lastmile_qr_scan", "android": "https://dc.lft.to/lastmile_qr_scan"}}, {"is_disabled": 0, "fusion_lat": 0.0, "lat": 38.91788316666667, "type": "electric_scooter", "lon": -77.03432633333334, "is_reserved": 0, "fusion_lon": 0.0, "bike_id": "3d4a2eab68a0211e6942b2da5df8a027", "name": "3d4a2eab68a0211e6942b2da5df8a027", "rental_uris": {"ios": "https://dc.lft.to/lastmile_qr_scan", "android": "https://dc.lft.to/lastmile_qr_scan"}}, {"is_disabled": 0, "fusion_lat": 0.0, "lat": 38.917273, "type": "electric_scooter", "lon": -77.03659466666667, "is_reserved": 0, "fusion_lon": 0.0, "bike_id": "85d597cf595e36d17e6d205538b795be", "name": "85d597cf595e36d17e6d205538b795be", "rental_uris": {"ios": "https://dc.lft.to/lastmile_qr_scan", "android": "https://dc.lft.to/lastmile_qr_scan"}}, {"is_disabled": 0, "fusion_lat": 0.0, "lat": 38.91732066666667, "type": "electric_scooter", "lon": -77.03653116666666, "is_reserved": 0, "fusion_lon": 0.0, "bike_id": "ef1413f21474bee334f080bcd8a172b8", "name": "ef1413f21474bee334f080bcd8a172b8", "rental_uris": {"ios": "https://dc.lft.to/lastmile_qr_scan", "android": "https://dc.lft.to/lastmile_qr_scan"}}, {"is_disabled": 0, "fusion_lat": 0.0, "lat": 38.908426, "type": "electric_scooter", "lon": -77.03299, "is_reserved": 0, "fusion_lon": 0.0, "bike_id": "6ce264e91997110ea0cc8070af0bb3ef", "name": "6ce264e91997110ea0cc8070af0bb3ef", "rental_uris": {"ios": "https://dc.lft.to/lastmile_qr_scan", "android": "https://dc.lft.to/lastmile_qr_scan"}}, {"is_disabled": 0, "fusion_lat": 0.0, "lat": 38.901401166666666, "type": "electric_scooter", "lon": -77.04177183333333, "is_reserved": 0, "fusion_lon": 0.0, "bike_id": "1cf05f0a6394f238282f96c28df6ace7", "name": "1cf05f0a6394f238282f96c28df6ace7", "rental_uris": {"ios": "https://dc.lft.to/lastmile_qr_scan", "android": "https://dc.lft.to/lastmile_qr_scan"}}, {"is_disabled": 0, "fusion_lat": 0.0, "lat": 38.8716055, "type": "electric_scooter", "lon": -77.01352766666666, "is_reserved": 0, "fusion_lon": 0.0, "bike_id": "13b5ec01982c815d4b4989edfc6fb68a", "name": "13b5ec01982c815d4b4989edfc6fb68a", "rental_uris": {"ios": "https://dc.lft.to/lastmile_qr_scan", "android": "https://dc.lft.to/lastmile_qr_scan"}}, {"is_disabled": 0, "fusion_lat": 0.0, "lat": 38.84572766666667, "type": "electric_bike", "lon": -77.09626483333334, "is_reserved": 0, "fusion_lon": 0.0, "bike_id": "612602e08778361e62279705db961695", "name": "612602e08778361e62279705db961695", "rental_uris": {"ios": "https://dc.lft.to/lastmile_qr_scan", "android": "https://dc.lft.to/lastmile_qr_scan"}}, {"is_disabled": 0, "fusion_lat": 0.0, "lat": 38.90358483333333, "type": "electric_scooter", "lon": -77.0449925, "is_reserved": 0, "fusion_lon": 0.0, "bike_id": "9c12b1bbbd00d39cf3a0d920acd6bf7d", "name": "9c12b1bbbd00d39cf3a0d920acd6bf7d", "rental_uris": {"ios": "https://dc.lft.to/lastmile_qr_scan", "android": "https://dc.lft.to/lastmile_qr_scan"}}, {"is_disabled": 0, "fusion_lat": 0.0, "lat": 38.91703116666667, "type": "electric_scooter", "lon": -77.00712483333334, "is_reserved": 0, "fusion_lon": 0.0, "bike_id": "a805a4f4ac5a70d13b2b012dbbbf2703", "name": "a805a4f4ac5a70d13b2b012dbbbf2703", "rental_uris": {"ios": "https://dc.lft.to/lastmile_qr_scan", "android": "https://dc.lft.to/lastmile_qr_scan"}}, {"is_disabled": 0, "fusion_lat": 0.0, "lat": 38.909299833333336, "type": "electric_scooter", "lon": -76.9991765, "is_reserved": 0, "fusion_lon": 0.0, "bike_id": "e026f5836f192419d05bc7c6c0e736fc", "name": "e026f5836f192419d05bc7c6c0e736fc", "rental_uris": {"ios": "https://dc.lft.to/lastmile_qr_scan", "android": "https://dc.lft.to/lastmile_qr_scan"}}, {"is_disabled": 0, "fusion_lat": 0.0, "lat": 38.923814, "type": "electric_scooter", "lon": -77.00062833333334, "is_reserved": 0, "fusion_lon": 0.0, "bike_id": "3af2181d12792e9d75c8a982af60e3d3", "name": "3af2181d12792e9d75c8a982af60e3d3", "rental_uris": {"ios": "https://dc.lft.to/lastmile_qr_scan", "android": "https://dc.lft.to/lastmile_qr_scan"}}, {"is_disabled": 0, "fusion_lat": 0.0, "lat": 38.9056845, "type": "electric_scooter", "lon": -77.02982333333334, "is_reserved": 0, "fusion_lon": 0.0, "bike_id": "1be684ecfabd3660d5371d6913008c55", "name": "1be684ecfabd3660d5371d6913008c55", "rental_uris": {"ios": "https://dc.lft.to/lastmile_qr_scan", "android": "https://dc.lft.to/lastmile_qr_scan"}}, {"is_disabled": 0, "fusion_lat": 0.0, "lat": 38.923658333333336, "type": "electric_scooter", "lon": -77.0191225, "is_reserved": 0, "fusion_lon": 0.0, "bike_id": "207abc17a51485751d80b029f8cf530b", "name": "207abc17a51485751d80b029f8cf530b", "rental_uris": {"ios": "https://dc.lft.to/lastmile_qr_scan", "android": "https://dc.lft.to/lastmile_qr_scan"}}, {"is_disabled": 0, "fusion_lat": 0.0, "lat": 38.93086866666667, "type": "electric_scooter", "lon": -77.07796083333334, "is_reserved": 0, "fusion_lon": 0.0, "bike_id": "71a9ed7ecd5051df959f83b1057767fc", "name": "71a9ed7ecd5051df959f83b1057767fc", "rental_uris": {"ios": "https://dc.lft.to/lastmile_qr_scan", "android": "https://dc.lft.to/lastmile_qr_scan"}}, {"is_disabled": 0, "fusion_lat": 0.0, "lat": 38.927367333333336, "type": "electric_bike", "lon": -76.99357816666667, "is_reserved": 0, "fusion_lon": 0.0, "bike_id": "cfc6906fe6fb4cfacef8125b786d4859", "name": "cfc6906fe6fb4cfacef8125b786d4859", "rental_uris": {"ios": "https://dc.lft.to/lastmile_qr_scan", "android": "https://dc.lft.to/lastmile_qr_scan"}}, {"is_disabled": 0, "fusion_lat": 0.0, "lat": 38.89844383333333, "type": "electric_scooter", "lon": -77.039575, "is_reserved": 0, "fusion_lon": 0.0, "bike_id": "2b330370620e03c3c40fb06075a96c6e", "name": "2b330370620e03c3c40fb06075a96c6e", "rental_uris": {"ios": "https://dc.lft.to/lastmile_qr_scan", "android": "https://dc.lft.to/lastmile_qr_scan"}}, {"is_disabled": 0, "fusion_lat": 0.0, "lat": 38.949237, "type": "electric_scooter", "lon": -77.01933066666666, "is_reserved": 0, "fusion_lon": 0.0, "bike_id": "24b82cb4770aa4eb6f54c73511cc7965", "name": "24b82cb4770aa4eb6f54c73511cc7965", "rental_uris": {"ios": "https://dc.lft.to/lastmile_qr_scan", "android": "https://dc.lft.to/lastmile_qr_scan"}}, {"is_disabled": 0, "fusion_lat": 0.0, "lat": 38.95636233333333, "type": "electric_scooter", "lon": -77.03298366666667, "is_reserved": 0, "fusion_lon": 0.0, "bike_id": "cd189bb24ba7f81cf40a4cef9dd90fbc", "name": "cd189bb24ba7f81cf40a4cef9dd90fbc", "rental_uris": {"ios": "https://dc.lft.to/lastmile_qr_scan", "android": "https://dc.lft.to/lastmile_qr_scan"}}, {"is_disabled": 0, "fusion_lat": 0.0, "lat": 38.930228, "type": "electric_scooter", "lon": -77.01271616666666, "is_reserved": 0, "fusion_lon": 0.0, "bike_id": "0054ca181a6630c8f9020a2864ea88ca", "name": "0054ca181a6630c8f9020a2864ea88ca", "rental_uris": {"ios": "https://dc.lft.to/lastmile_qr_scan", "android": "https://dc.lft.to/lastmile_qr_scan"}}, {"is_disabled": 0, "fusion_lat": 0.0, "lat": 38.86444916666667, "type": "electric_bike", "lon": -76.94530066666667, "is_reserved": 0, "fusion_lon": 0.0, "bike_id": "a5fb29e8e7188ebd3e2bf1d20cb4c76f", "name": "a5fb29e8e7188ebd3e2bf1d20cb4c76f", "rental_uris": {"ios": "https://dc.lft.to/lastmile_qr_scan", "android": "https://dc.lft.to/lastmile_qr_scan"}}, {"is_disabled": 0, "fusion_lat": 0.0, "lat": 38.87146633333333, "type": "electric_bike", "lon": -76.93696983333334, "is_reserved": 0, "fusion_lon": 0.0, "bike_id": "3872639823714085dd684ba7fea1a0b6", "name": "3872639823714085dd684ba7fea1a0b6", "rental_uris": {"ios": "https://dc.lft.to/lastmile_qr_scan", "android": "https://dc.lft.to/lastmile_qr_scan"}}, {"is_disabled": 0, "fusion_lat": 0.0, "lat": 38.9166515, "type": "electric_scooter", "lon": -77.04153633333334, "is_reserved": 0, "fusion_lon": 0.0, "bike_id": "f4f31dda523d6b9a3265d0ef5e7cd868", "name": "f4f31dda523d6b9a3265d0ef5e7cd868", "rental_uris": {"ios": "https://dc.lft.to/lastmile_qr_scan", "android": "https://dc.lft.to/lastmile_qr_scan"}}, {"is_disabled": 0, "fusion_lat": 0.0, "lat": 38.89803966666667, "type": "electric_scooter", "lon": -76.99157133333334, "is_reserved": 0, "fusion_lon": 0.0, "bike_id": "27c720226d84892b2120ba5b0592e315", "name": "27c720226d84892b2120ba5b0592e315", "rental_uris": {"ios": "https://dc.lft.to/lastmile_qr_scan", "android": "https://dc.lft.to/lastmile_qr_scan"}}, {"is_disabled": 0, "fusion_lat": 0.0, "lat": 38.88679666666667, "type": "electric_scooter", "lon": -77.00203116666667, "is_reserved": 0, "fusion_lon": 0.0, "bike_id": "32370b7d9634531fee461b5e785b3c52", "name": "32370b7d9634531fee461b5e785b3c52", "rental_uris": {"ios": "https://dc.lft.to/lastmile_qr_scan", "android": "https://dc.lft.to/lastmile_qr_scan"}}, {"is_disabled": 0, "fusion_lat": 0.0, "lat": 38.9094515, "type": "electric_scooter", "lon": -77.04665283333334, "is_reserved": 0, "fusion_lon": 0.0, "bike_id": "7fc32f8bef942a2689a329ab2aa512a6", "name": "7fc32f8bef942a2689a329ab2aa512a6", "rental_uris": {"ios": "https://dc.lft.to/lastmile_qr_scan", "android": "https://dc.lft.to/lastmile_qr_scan"}}, {"is_disabled": 0, "fusion_lat": 0.0, "lat": 38.908063166666665, "type": "electric_scooter", "lon": -77.03386983333333, "is_reserved": 0, "fusion_lon": 0.0, "bike_id": "b6f49f53539c8236ae0f753158d15505", "name": "b6f49f53539c8236ae0f753158d15505", "rental_uris": {"ios": "https://dc.lft.to/lastmile_qr_scan", "android": "https://dc.lft.to/lastmile_qr_scan"}}, {"is_disabled": 0, "fusion_lat": 0.0, "lat": 38.906423833333335, "type": "electric_scooter", "lon": -77.01134983333333, "is_reserved": 0, "fusion_lon": 0.0, "bike_id": "0f6565d87f2aae502361b6f505decc50", "name": "0f6565d87f2aae502361b6f505decc50", "rental_uris": {"ios": "https://dc.lft.to/lastmile_qr_scan", "android": "https://dc.lft.to/lastmile_qr_scan"}}, {"is_disabled": 0, "fusion_lat": 0.0, "lat": 38.904743833333335, "type": "electric_scooter", "lon": -77.05328283333333, "is_reserved": 0, "fusion_lon": 0.0, "bike_id": "9a47be504586319acd815770977dbdff", "name": "9a47be504586319acd815770977dbdff", "rental_uris": {"ios": "https://dc.lft.to/lastmile_qr_scan", "android": "https://dc.lft.to/lastmile_qr_scan"}}, {"is_disabled": 0, "fusion_lat": 0.0, "lat": 38.844239, "type": "electric_scooter", "lon": -76.99775216666667, "is_reserved": 0, "fusion_lon": 0.0, "bike_id": "92b35d05299d370e4928e61d5e99bc5f", "name": "92b35d05299d370e4928e61d5e99bc5f", "rental_uris": {"ios": "https://dc.lft.to/lastmile_qr_scan", "android": "https://dc.lft.to/lastmile_qr_scan"}}, {"is_disabled": 0, "fusion_lat": 0.0, "lat": 38.8960735, "type": "electric_scooter", "lon": -77.0449785, "is_reserved": 0, "fusion_lon": 0.0, "bike_id": "f46ced79685d0c72768fe525dceba09a", "name": "f46ced79685d0c72768fe525dceba09a", "rental_uris": {"ios": "https://dc.lft.to/lastmile_qr_scan", "android": "https://dc.lft.to/lastmile_qr_scan"}}, {"is_disabled": 0, "fusion_lat": 0.0, "lat": 38.854410666666666, "type": "electric_bike", "lon": -76.90976166666667, "is_reserved": 0, "fusion_lon": 0.0, "bike_id": "933e729013fe01296aafa7beb946c24c", "name": "933e729013fe01296aafa7beb946c24c", "rental_uris": {"ios": "https://dc.lft.to/lastmile_qr_scan", "android": "https://dc.lft.to/lastmile_qr_scan"}}, {"is_disabled": 0, "fusion_lat": 0.0, "lat": 38.892213, "type": "electric_scooter", "lon": -77.0485985, "is_reserved": 0, "fusion_lon": 0.0, "bike_id": "9842242ae0b0831c50f345e76b63e19a", "name": "9842242ae0b0831c50f345e76b63e19a", "rental_uris": {"ios": "https://dc.lft.to/lastmile_qr_scan", "android": "https://dc.lft.to/lastmile_qr_scan"}}, {"is_disabled": 0, "fusion_lat": 0.0, "lat": 38.911149, "type": "electric_scooter", "lon": -77.03839633333334, "is_reserved": 0, "fusion_lon": 0.0, "bike_id": "c0465526051db1d3507dca1320896d49", "name": "c0465526051db1d3507dca1320896d49", "rental_uris": {"ios": "https://dc.lft.to/lastmile_qr_scan", "android": "https://dc.lft.to/lastmile_qr_scan"}}, {"is_disabled": 0, "fusion_lat": 0.0, "lat": 38.877439833333334, "type": "electric_bike", "lon": -76.98051283333334, "is_reserved": 0, "fusion_lon": 0.0, "bike_id": "da7d49eda715c708b85e5ca2661fa245", "name": "da7d49eda715c708b85e5ca2661fa245", "rental_uris": {"ios": "https://dc.lft.to/lastmile_qr_scan", "android": "https://dc.lft.to/lastmile_qr_scan"}}, {"is_disabled": 0, "fusion_lat": 0.0, "lat": 38.934247166666665, "type": "electric_scooter", "lon": -77.0284355, "is_reserved": 0, "fusion_lon": 0.0, "bike_id": "6b6370cc09c4d890c7bc411c2e36c2a5", "name": "6b6370cc09c4d890c7bc411c2e36c2a5", "rental_uris": {"ios": "https://dc.lft.to/lastmile_qr_scan", "android": "https://dc.lft.to/lastmile_qr_scan"}}, {"is_disabled": 0, "fusion_lat": 0.0, "lat": 38.926035166666665, "type": "electric_scooter", "lon": -77.05687433333334, "is_reserved": 0, "fusion_lon": 0.0, "bike_id": "f5df9e861045bcab6c2de00c84b52e1a", "name": "f5df9e861045bcab6c2de00c84b52e1a", "rental_uris": {"ios": "https://dc.lft.to/lastmile_qr_scan", "android": "https://dc.lft.to/lastmile_qr_scan"}}, {"is_disabled": 0, "fusion_lat": 0.0, "lat": 38.882047666666665, "type": "electric_scooter", "lon": -76.99944983333333, "is_reserved": 0, "fusion_lon": 0.0, "bike_id": "14b04c68a1741d4aea3937f8c7f677f5", "name": "14b04c68a1741d4aea3937f8c7f677f5", "rental_uris": {"ios": "https://dc.lft.to/lastmile_qr_scan", "android": "https://dc.lft.to/lastmile_qr_scan"}}, {"is_disabled": 0, "fusion_lat": 0.0, "lat": 38.903537166666666, "type": "electric_scooter", "lon": -77.00334833333334, "is_reserved": 0, "fusion_lon": 0.0, "bike_id": "e6c82d5705ebae64dc2677df2f26b8a8", "name": "e6c82d5705ebae64dc2677df2f26b8a8", "rental_uris": {"ios": "https://dc.lft.to/lastmile_qr_scan", "android": "https://dc.lft.to/lastmile_qr_scan"}}, {"is_disabled": 0, "fusion_lat": 0.0, "lat": 38.8105295, "type": "electric_bike", "lon": -77.0851275, "is_reserved": 0, "fusion_lon": 0.0, "bike_id": "4ac6a7db735c24cadf23bd954ee74e00", "name": "4ac6a7db735c24cadf23bd954ee74e00", "rental_uris": {"ios": "https://dc.lft.to/lastmile_qr_scan", "android": "https://dc.lft.to/lastmile_qr_scan"}}, {"is_disabled": 0, "fusion_lat": 0.0, "lat": 38.9155755, "type": "electric_scooter", "lon": -77.0096465, "is_reserved": 0, "fusion_lon": 0.0, "bike_id": "55504d6348aa675e9ffb2968ab73f9f7", "name": "55504d6348aa675e9ffb2968ab73f9f7", "rental_uris": {"ios": "https://dc.lft.to/lastmile_qr_scan", "android": "https://dc.lft.to/lastmile_qr_scan"}}, {"is_disabled": 0, "fusion_lat": 0.0, "lat": 38.908214666666666, "type": "electric_scooter", "lon": -77.04312966666667, "is_reserved": 0, "fusion_lon": 0.0, "bike_id": "756aab2e825edad200d3e27d79329bb5", "name": "756aab2e825edad200d3e27d79329bb5", "rental_uris": {"ios": "https://dc.lft.to/lastmile_qr_scan", "android": "https://dc.lft.to/lastmile_qr_scan"}}, {"is_disabled": 0, "fusion_lat": 0.0, "lat": 38.9386665, "type": "electric_bike", "lon": -77.02622233333334, "is_reserved": 0, "fusion_lon": 0.0, "bike_id": "da01dd31234f0d05f900be0973eadb06", "name": "da01dd31234f0d05f900be0973eadb06", "rental_uris": {"ios": "https://dc.lft.to/lastmile_qr_scan", "android": "https://dc.lft.to/lastmile_qr_scan"}}, {"is_disabled": 0, "fusion_lat": 0.0, "lat": 38.90051366666667, "type": "electric_scooter", "lon": -77.0509295, "is_reserved": 0, "fusion_lon": 0.0, "bike_id": "8282aadf0f962d3d72d9475e5e18ec41", "name": "8282aadf0f962d3d72d9475e5e18ec41", "rental_uris": {"ios": "https://dc.lft.to/lastmile_qr_scan", "android": "https://dc.lft.to/lastmile_qr_scan"}}, {"is_disabled": 0, "fusion_lat": 0.0, "lat": 38.93945883333333, "type": "electric_scooter", "lon": -77.0611215, "is_reserved": 0, "fusion_lon": 0.0, "bike_id": "3d5bba76d46a28d26b4aa48bc51a7771", "name": "3d5bba76d46a28d26b4aa48bc51a7771", "rental_uris": {"ios": "https://dc.lft.to/lastmile_qr_scan", "android": "https://dc.lft.to/lastmile_qr_scan"}}, {"is_disabled": 0, "fusion_lat": 0.0, "lat": 38.861825833333334, "type": "electric_scooter", "lon": -76.9942435, "is_reserved": 0, "fusion_lon": 0.0, "bike_id": "b2213e84935a63080f5e3d13f93424e1", "name": "b2213e84935a63080f5e3d13f93424e1", "rental_uris": {"ios": "https://dc.lft.to/lastmile_qr_scan", "android": "https://dc.lft.to/lastmile_qr_scan"}}, {"is_disabled": 0, "fusion_lat": 0.0, "lat": 38.865147666666665, "type": "electric_bike", "lon": -76.97345816666666, "is_reserved": 0, "fusion_lon": 0.0, "bike_id": "ae27fc57724ae9e490b28f3fa96c96f8", "name": "ae27fc57724ae9e490b28f3fa96c96f8", "rental_uris": {"ios": "https://dc.lft.to/lastmile_qr_scan", "android": "https://dc.lft.to/lastmile_qr_scan"}}, {"is_disabled": 0, "fusion_lat": 0.0, "lat": 38.892221, "type": "electric_scooter", "lon": -77.04866983333334, "is_reserved": 0, "fusion_lon": 0.0, "bike_id": "916ec56319b4f91a84d9a1266637642c", "name": "916ec56319b4f91a84d9a1266637642c", "rental_uris": {"ios": "https://dc.lft.to/lastmile_qr_scan", "android": "https://dc.lft.to/lastmile_qr_scan"}}, {"is_disabled": 0, "fusion_lat": 0.0, "lat": 38.86524566666667, "type": "electric_scooter", "lon": -76.99033816666666, "is_reserved": 0, "fusion_lon": 0.0, "bike_id": "58a75aee1793ed5c5adf08b43879acb4", "name": "58a75aee1793ed5c5adf08b43879acb4", "rental_uris": {"ios": "https://dc.lft.to/lastmile_qr_scan", "android": "https://dc.lft.to/lastmile_qr_scan"}}, {"is_disabled": 0, "fusion_lat": 0.0, "lat": 38.90726133333333, "type": "electric_scooter", "lon": -77.02327583333333, "is_reserved": 0, "fusion_lon": 0.0, "bike_id": "d4a7bfb5a52df1ddc3cf5cba1fdd0e9d", "name": "d4a7bfb5a52df1ddc3cf5cba1fdd0e9d", "rental_uris": {"ios": "https://dc.lft.to/lastmile_qr_scan", "android": "https://dc.lft.to/lastmile_qr_scan"}}, {"is_disabled": 0, "fusion_lat": 0.0, "lat": 38.903806333333335, "type": "electric_scooter", "lon": -77.02645733333334, "is_reserved": 0, "fusion_lon": 0.0, "bike_id": "4892b1955c70ee24359d277e66de2723", "name": "4892b1955c70ee24359d277e66de2723", "rental_uris": {"ios": "https://dc.lft.to/lastmile_qr_scan", "android": "https://dc.lft.to/lastmile_qr_scan"}}, {"is_disabled": 0, "fusion_lat": 0.0, "lat": 38.8927135, "type": "electric_scooter", "lon": -77.02617266666667, "is_reserved": 0, "fusion_lon": 0.0, "bike_id": "8b027fd128d139d9b58fddde5304242f", "name": "8b027fd128d139d9b58fddde5304242f", "rental_uris": {"ios": "https://dc.lft.to/lastmile_qr_scan", "android": "https://dc.lft.to/lastmile_qr_scan"}}, {"is_disabled": 0, "fusion_lat": 0.0, "lat": 38.884077166666664, "type": "electric_scooter", "lon": -77.030492, "is_reserved": 0, "fusion_lon": 0.0, "bike_id": "3025325a100b8c8e2a01af5e105f29f4", "name": "3025325a100b8c8e2a01af5e105f29f4", "rental_uris": {"ios": "https://dc.lft.to/lastmile_qr_scan", "android": "https://dc.lft.to/lastmile_qr_scan"}}, {"is_disabled": 0, "fusion_lat": 0.0, "lat": 38.929437, "type": "electric_bike", "lon": -77.04396016666666, "is_reserved": 0, "fusion_lon": 0.0, "bike_id": "0e3780071381a470102f6b36da9bc6f5", "name": "0e3780071381a470102f6b36da9bc6f5", "rental_uris": {"ios": "https://dc.lft.to/lastmile_qr_scan", "android": "https://dc.lft.to/lastmile_qr_scan"}}, {"is_disabled": 0, "fusion_lat": 0.0, "lat": 38.929554, "type": "electric_bike", "lon": -77.03768016666666, "is_reserved": 0, "fusion_lon": 0.0, "bike_id": "91ccd09810809bef9af6592c7a2d49d9", "name": "91ccd09810809bef9af6592c7a2d49d9", "rental_uris": {"ios": "https://dc.lft.to/lastmile_qr_scan", "android": "https://dc.lft.to/lastmile_qr_scan"}}, {"is_disabled": 0, "fusion_lat": 0.0, "lat": 38.9836605, "type": "electric_scooter", "lon": -77.02644383333333, "is_reserved": 0, "fusion_lon": 0.0, "bike_id": "034fbd422d49def722565774bc5409b5", "name": "034fbd422d49def722565774bc5409b5", "rental_uris": {"ios": "https://dc.lft.to/lastmile_qr_scan", "android": "https://dc.lft.to/lastmile_qr_scan"}}, {"is_disabled": 0, "fusion_lat": 0.0, "lat": 38.940552333333336, "type": "electric_bike", "lon": -76.95382916666667, "is_reserved": 0, "fusion_lon": 0.0, "bike_id": "1f61c85f109addbabd6d2fecaf7aef21", "name": "1f61c85f109addbabd6d2fecaf7aef21", "rental_uris": {"ios": "https://dc.lft.to/lastmile_qr_scan", "android": "https://dc.lft.to/lastmile_qr_scan"}}, {"is_disabled": 0, "fusion_lat": 0.0, "lat": 38.928589833333334, "type": "electric_bike", "lon": -77.22218266666667, "is_reserved": 0, "fusion_lon": 0.0, "bike_id": "2a9df379342a9bda973998511e95279d", "name": "2a9df379342a9bda973998511e95279d", "rental_uris": {"ios": "https://dc.lft.to/lastmile_qr_scan", "android": "https://dc.lft.to/lastmile_qr_scan"}}, {"is_disabled": 0, "fusion_lat": 0.0, "lat": 38.92847416666667, "type": "electric_bike", "lon": -77.02057883333333, "is_reserved": 0, "fusion_lon": 0.0, "bike_id": "279a88d9c3bfa347aafb553cd15ee82a", "name": "279a88d9c3bfa347aafb553cd15ee82a", "rental_uris": {"ios": "https://dc.lft.to/lastmile_qr_scan", "android": "https://dc.lft.to/lastmile_qr_scan"}}, {"is_disabled": 0, "fusion_lat": 0.0, "lat": 39.088555666666664, "type": "electric_bike", "lon": -77.17833283333333, "is_reserved": 0, "fusion_lon": 0.0, "bike_id": "ea3c2ddd3fb750beff0e6f9ed2fa42cc", "name": "ea3c2ddd3fb750beff0e6f9ed2fa42cc", "rental_uris": {"ios": "https://dc.lft.to/lastmile_qr_scan", "android": "https://dc.lft.to/lastmile_qr_scan"}}, {"is_disabled": 0, "fusion_lat": 0.0, "lat": 38.92323016666667, "type": "electric_scooter", "lon": -77.04507066666666, "is_reserved": 0, "fusion_lon": 0.0, "bike_id": "3282ccadc6772c02040ffebe5f198dac", "name": "3282ccadc6772c02040ffebe5f198dac", "rental_uris": {"ios": "https://dc.lft.to/lastmile_qr_scan", "android": "https://dc.lft.to/lastmile_qr_scan"}}, {"is_disabled": 0, "fusion_lat": 0.0, "lat": 38.90504766666667, "type": "electric_scooter", "lon": -77.04328966666667, "is_reserved": 0, "fusion_lon": 0.0, "bike_id": "eb32cbf3aa8af45b574a9f0a83c13ffc", "name": "eb32cbf3aa8af45b574a9f0a83c13ffc", "rental_uris": {"ios": "https://dc.lft.to/lastmile_qr_scan", "android": "https://dc.lft.to/lastmile_qr_scan"}}, {"is_disabled": 0, "fusion_lat": 0.0, "lat": 38.89959666666667, "type": "electric_bike", "lon": -77.0550035, "is_reserved": 0, "fusion_lon": 0.0, "bike_id": "5a1db1155a7509fb1451cbcdc2e9a8e6", "name": "5a1db1155a7509fb1451cbcdc2e9a8e6", "rental_uris": {"ios": "https://dc.lft.to/lastmile_qr_scan", "android": "https://dc.lft.to/lastmile_qr_scan"}}, {"is_disabled": 0, "fusion_lat": 0.0, "lat": 38.915484, "type": "electric_scooter", "lon": -77.03839866666667, "is_reserved": 0, "fusion_lon": 0.0, "bike_id": "b2df6693a060a3d4a352a8857baa52f1", "name": "b2df6693a060a3d4a352a8857baa52f1", "rental_uris": {"ios": "https://dc.lft.to/lastmile_qr_scan", "android": "https://dc.lft.to/lastmile_qr_scan"}}, {"is_disabled": 0, "fusion_lat": 0.0, "lat": 38.911146333333335, "type": "electric_scooter", "lon": -77.0481255, "is_reserved": 0, "fusion_lon": 0.0, "bike_id": "566ff464750098b473545919cf9dd059", "name": "566ff464750098b473545919cf9dd059", "rental_uris": {"ios": "https://dc.lft.to/lastmile_qr_scan", "android": "https://dc.lft.to/lastmile_qr_scan"}}, {"is_disabled": 0, "fusion_lat": 0.0, "lat": 38.93244966666666, "type": "electric_scooter", "lon": -77.03864833333333, "is_reserved": 0, "fusion_lon": 0.0, "bike_id": "59fcd2fdc20711c8074262618cdf10c4", "name": "59fcd2fdc20711c8074262618cdf10c4", "rental_uris": {"ios": "https://dc.lft.to/lastmile_qr_scan", "android": "https://dc.lft.to/lastmile_qr_scan"}}, {"is_disabled": 0, "fusion_lat": 0.0, "lat": 38.922108333333334, "type": "electric_scooter", "lon": -77.03291466666667, "is_reserved": 0, "fusion_lon": 0.0, "bike_id": "119a01df70751ca03fb96f36f4ff8e28", "name": "119a01df70751ca03fb96f36f4ff8e28", "rental_uris": {"ios": "https://dc.lft.to/lastmile_qr_scan", "android": "https://dc.lft.to/lastmile_qr_scan"}}, {"is_disabled": 0, "fusion_lat": 0.0, "lat": 38.901568833333336, "type": "electric_scooter", "lon": -76.976278, "is_reserved": 0, "fusion_lon": 0.0, "bike_id": "71b528551dd0641e49ae778e05f8b5e3", "name": "71b528551dd0641e49ae778e05f8b5e3", "rental_uris": {"ios": "https://dc.lft.to/lastmile_qr_scan", "android": "https://dc.lft.to/lastmile_qr_scan"}}, {"is_disabled": 0, "fusion_lat": 0.0, "lat": 38.919195333333334, "type": "electric_scooter", "lon": -77.03183416666667, "is_reserved": 0, "fusion_lon": 0.0, "bike_id": "803db195ca1c1e63d93d831ce3426c2f", "name": "803db195ca1c1e63d93d831ce3426c2f", "rental_uris": {"ios": "https://dc.lft.to/lastmile_qr_scan", "android": "https://dc.lft.to/lastmile_qr_scan"}}, {"is_disabled": 0, "fusion_lat": 0.0, "lat": 38.88723983333333, "type": "electric_scooter", "lon": -77.03216483333334, "is_reserved": 0, "fusion_lon": 0.0, "bike_id": "78d2677f7048a8d7f650708af852010d", "name": "78d2677f7048a8d7f650708af852010d", "rental_uris": {"ios": "https://dc.lft.to/lastmile_qr_scan", "android": "https://dc.lft.to/lastmile_qr_scan"}}, {"is_disabled": 0, "fusion_lat": 0.0, "lat": 38.9575395, "type": "electric_scooter", "lon": -77.02061216666667, "is_reserved": 0, "fusion_lon": 0.0, "bike_id": "2627b4fda2a92a7a9bfcdb290148d3a9", "name": "2627b4fda2a92a7a9bfcdb290148d3a9", "rental_uris": {"ios": "https://dc.lft.to/lastmile_qr_scan", "android": "https://dc.lft.to/lastmile_qr_scan"}}, {"is_disabled": 0, "fusion_lat": 0.0, "lat": 38.90068483333334, "type": "electric_scooter", "lon": -76.9983485, "is_reserved": 0, "fusion_lon": 0.0, "bike_id": "b00516804c37a3f1a8302a09796d5679", "name": "b00516804c37a3f1a8302a09796d5679", "rental_uris": {"ios": "https://dc.lft.to/lastmile_qr_scan", "android": "https://dc.lft.to/lastmile_qr_scan"}}, {"is_disabled": 0, "fusion_lat": 0.0, "lat": 38.89373483333333, "type": "electric_scooter", "lon": -76.949973, "is_reserved": 0, "fusion_lon": 0.0, "bike_id": "0c4ab1fe808054bbee7608098a6d6112", "name": "0c4ab1fe808054bbee7608098a6d6112", "rental_uris": {"ios": "https://dc.lft.to/lastmile_qr_scan", "android": "https://dc.lft.to/lastmile_qr_scan"}}, {"is_disabled": 0, "fusion_lat": 0.0, "lat": 38.9033255, "type": "electric_scooter", "lon": -77.03825633333334, "is_reserved": 0, "fusion_lon": 0.0, "bike_id": "43f4837954d2105ef7f9cc2b92b80294", "name": "43f4837954d2105ef7f9cc2b92b80294", "rental_uris": {"ios": "https://dc.lft.to/lastmile_qr_scan", "android": "https://dc.lft.to/lastmile_qr_scan"}}, {"is_disabled": 0, "fusion_lat": 0.0, "lat": 38.8818255, "type": "electric_scooter", "lon": -77.02805333333333, "is_reserved": 0, "fusion_lon": 0.0, "bike_id": "bfd5fbdc9d6e9762fbacf89b0d06abb4", "name": "bfd5fbdc9d6e9762fbacf89b0d06abb4", "rental_uris": {"ios": "https://dc.lft.to/lastmile_qr_scan", "android": "https://dc.lft.to/lastmile_qr_scan"}}, {"is_disabled": 0, "fusion_lat": 0.0, "lat": 38.9732165, "type": "electric_bike", "lon": -77.0214435, "is_reserved": 0, "fusion_lon": 0.0, "bike_id": "6653d14dfa122c5a11664e8587febde0", "name": "6653d14dfa122c5a11664e8587febde0", "rental_uris": {"ios": "https://dc.lft.to/lastmile_qr_scan", "android": "https://dc.lft.to/lastmile_qr_scan"}}, {"is_disabled": 0, "fusion_lat": 0.0, "lat": 38.92547666666667, "type": "electric_scooter", "lon": -76.98122216666667, "is_reserved": 0, "fusion_lon": 0.0, "bike_id": "8ff7d70468fc9e199eb8c795c6484320", "name": "8ff7d70468fc9e199eb8c795c6484320", "rental_uris": {"ios": "https://dc.lft.to/lastmile_qr_scan", "android": "https://dc.lft.to/lastmile_qr_scan"}}, {"is_disabled": 0, "fusion_lat": 0.0, "lat": 38.95888866666667, "type": "electric_bike", "lon": -76.92489, "is_reserved": 0, "fusion_lon": 0.0, "bike_id": "3b3fbc257a5a7125656abb3ec794de93", "name": "3b3fbc257a5a7125656abb3ec794de93", "rental_uris": {"ios": "https://dc.lft.to/lastmile_qr_scan", "android": "https://dc.lft.to/lastmile_qr_scan"}}, {"is_disabled": 0, "fusion_lat": 0.0, "lat": 38.935061833333336, "type": "electric_scooter", "lon": -77.0240625, "is_reserved": 0, "fusion_lon": 0.0, "bike_id": "4b97149e6d57144ee4d138579505bfb0", "name": "4b97149e6d57144ee4d138579505bfb0", "rental_uris": {"ios": "https://dc.lft.to/lastmile_qr_scan", "android": "https://dc.lft.to/lastmile_qr_scan"}}, {"is_disabled": 0, "fusion_lat": 0.0, "lat": 38.9573515, "type": "electric_scooter", "lon": -77.02384516666666, "is_reserved": 0, "fusion_lon": 0.0, "bike_id": "bc3effc775d06be596aff61b44d041c3", "name": "bc3effc775d06be596aff61b44d041c3", "rental_uris": {"ios": "https://dc.lft.to/lastmile_qr_scan", "android": "https://dc.lft.to/lastmile_qr_scan"}}, {"is_disabled": 0, "fusion_lat": 0.0, "lat": 38.90052516666667, "type": "electric_scooter", "lon": -77.01722516666666, "is_reserved": 0, "fusion_lon": 0.0, "bike_id": "c00ccba06a6ebef0ec9713ad9ad304b0", "name": "c00ccba06a6ebef0ec9713ad9ad304b0", "rental_uris": {"ios": "https://dc.lft.to/lastmile_qr_scan", "android": "https://dc.lft.to/lastmile_qr_scan"}}, {"is_disabled": 0, "fusion_lat": 0.0, "lat": 38.89799266666667, "type": "electric_scooter", "lon": -77.03344166666666, "is_reserved": 0, "fusion_lon": 0.0, "bike_id": "be3c3bfdbb4d648a94f6090531dd63d1", "name": "be3c3bfdbb4d648a94f6090531dd63d1", "rental_uris": {"ios": "https://dc.lft.to/lastmile_qr_scan", "android": "https://dc.lft.to/lastmile_qr_scan"}}, {"is_disabled": 0, "fusion_lat": 0.0, "lat": 38.88589616666667, "type": "electric_scooter", "lon": -77.00060383333333, "is_reserved": 0, "fusion_lon": 0.0, "bike_id": "9c4e58bc48b52917274a0a7ad41e6a50", "name": "9c4e58bc48b52917274a0a7ad41e6a50", "rental_uris": {"ios": "https://dc.lft.to/lastmile_qr_scan", "android": "https://dc.lft.to/lastmile_qr_scan"}}, {"is_disabled": 0, "fusion_lat": 0.0, "lat": 38.912631166666664, "type": "electric_scooter", "lon": -77.042262, "is_reserved": 0, "fusion_lon": 0.0, "bike_id": "8a52bb5cb5f6093f2adc07d808c5c1f1", "name": "8a52bb5cb5f6093f2adc07d808c5c1f1", "rental_uris": {"ios": "https://dc.lft.to/lastmile_qr_scan", "android": "https://dc.lft.to/lastmile_qr_scan"}}, {"is_disabled": 0, "fusion_lat": 0.0, "lat": 38.92164666666667, "type": "electric_scooter", "lon": -76.99453766666667, "is_reserved": 0, "fusion_lon": 0.0, "bike_id": "39df95ef2d7bc08cf7e033bfecc22aaf", "name": "39df95ef2d7bc08cf7e033bfecc22aaf", "rental_uris": {"ios": "https://dc.lft.to/lastmile_qr_scan", "android": "https://dc.lft.to/lastmile_qr_scan"}}, {"is_disabled": 0, "fusion_lat": 0.0, "lat": 38.9138365, "type": "electric_scooter", "lon": -77.0170255, "is_reserved": 0, "fusion_lon": 0.0, "bike_id": "95e04a6f08b58deb04ecc89c92e49917", "name": "95e04a6f08b58deb04ecc89c92e49917", "rental_uris": {"ios": "https://dc.lft.to/lastmile_qr_scan", "android": "https://dc.lft.to/lastmile_qr_scan"}}, {"is_disabled": 0, "fusion_lat": 0.0, "lat": 38.918063, "type": "electric_scooter", "lon": -77.03714366666667, "is_reserved": 0, "fusion_lon": 0.0, "bike_id": "c8f09dcf72e56b1887bffd7e83cb48a7", "name": "c8f09dcf72e56b1887bffd7e83cb48a7", "rental_uris": {"ios": "https://dc.lft.to/lastmile_qr_scan", "android": "https://dc.lft.to/lastmile_qr_scan"}}, {"is_disabled": 0, "fusion_lat": 0.0, "lat": 38.90064433333333, "type": "electric_bike", "lon": -77.044991, "is_reserved": 0, "fusion_lon": 0.0, "bike_id": "e34c9acc5f02dc33506ed781587cded0", "name": "e34c9acc5f02dc33506ed781587cded0", "rental_uris": {"ios": "https://dc.lft.to/lastmile_qr_scan", "android": "https://dc.lft.to/lastmile_qr_scan"}}, {"is_disabled": 0, "fusion_lat": 0.0, "lat": 38.9025985, "type": "electric_scooter", "lon": -77.03442183333334, "is_reserved": 0, "fusion_lon": 0.0, "bike_id": "3199a8bbe66345f4326ee45648cf353b", "name": "3199a8bbe66345f4326ee45648cf353b", "rental_uris": {"ios": "https://dc.lft.to/lastmile_qr_scan", "android": "https://dc.lft.to/lastmile_qr_scan"}}, {"is_disabled": 0, "fusion_lat": 0.0, "lat": 38.8823315, "type": "electric_scooter", "lon": -76.92653933333334, "is_reserved": 0, "fusion_lon": 0.0, "bike_id": "96d16ff456cc19cbee79ebb34a6b3b01", "name": "96d16ff456cc19cbee79ebb34a6b3b01", "rental_uris": {"ios": "https://dc.lft.to/lastmile_qr_scan", "android": "https://dc.lft.to/lastmile_qr_scan"}}, {"is_disabled": 0, "fusion_lat": 0.0, "lat": 38.9342955, "type": "electric_scooter", "lon": -77.03450083333334, "is_reserved": 0, "fusion_lon": 0.0, "bike_id": "3b9e6b96b1cde6441c7f8292d7af850c", "name": "3b9e6b96b1cde6441c7f8292d7af850c", "rental_uris": {"ios": "https://dc.lft.to/lastmile_qr_scan", "android": "https://dc.lft.to/lastmile_qr_scan"}}, {"is_disabled": 0, "fusion_lat": 0.0, "lat": 38.918246, "type": "electric_scooter", "lon": -77.03646016666667, "is_reserved": 0, "fusion_lon": 0.0, "bike_id": "08547a855586bba7cea08e80781b0d5c", "name": "08547a855586bba7cea08e80781b0d5c", "rental_uris": {"ios": "https://dc.lft.to/lastmile_qr_scan", "android": "https://dc.lft.to/lastmile_qr_scan"}}, {"is_disabled": 0, "fusion_lat": 0.0, "lat": 38.839351666666666, "type": "electric_bike", "lon": -77.07896933333333, "is_reserved": 0, "fusion_lon": 0.0, "bike_id": "acf4a7999c4f50c165eb55131c86c1b0", "name": "acf4a7999c4f50c165eb55131c86c1b0", "rental_uris": {"ios": "https://dc.lft.to/lastmile_qr_scan", "android": "https://dc.lft.to/lastmile_qr_scan"}}, {"is_disabled": 0, "fusion_lat": 0.0, "lat": 38.90749, "type": "electric_scooter", "lon": -77.02398983333333, "is_reserved": 0, "fusion_lon": 0.0, "bike_id": "5881dea5ed2795a99b8ea24be6f54350", "name": "5881dea5ed2795a99b8ea24be6f54350", "rental_uris": {"ios": "https://dc.lft.to/lastmile_qr_scan", "android": "https://dc.lft.to/lastmile_qr_scan"}}, {"is_disabled": 0, "fusion_lat": 0.0, "lat": 38.961733833333334, "type": "electric_bike", "lon": -76.99588616666666, "is_reserved": 0, "fusion_lon": 0.0, "bike_id": "1df3508bda196ff75cd73cb68af284c0", "name": "1df3508bda196ff75cd73cb68af284c0", "rental_uris": {"ios": "https://dc.lft.to/lastmile_qr_scan", "android": "https://dc.lft.to/lastmile_qr_scan"}}, {"is_disabled": 0, "fusion_lat": 0.0, "lat": 38.8843275, "type": "electric_scooter", "lon": -76.95757466666667, "is_reserved": 0, "fusion_lon": 0.0, "bike_id": "ed06c42b5017a53e1935d8c947a1af15", "name": "ed06c42b5017a53e1935d8c947a1af15", "rental_uris": {"ios": "https://dc.lft.to/lastmile_qr_scan", "android": "https://dc.lft.to/lastmile_qr_scan"}}, {"is_disabled": 0, "fusion_lat": 0.0, "lat": 38.89375783333333, "type": "electric_scooter", "lon": -76.9499425, "is_reserved": 0, "fusion_lon": 0.0, "bike_id": "ed61bcebd75909d75d8d882114e26e98", "name": "ed61bcebd75909d75d8d882114e26e98", "rental_uris": {"ios": "https://dc.lft.to/lastmile_qr_scan", "android": "https://dc.lft.to/lastmile_qr_scan"}}, {"is_disabled": 0, "fusion_lat": 0.0, "lat": 38.893378, "type": "electric_scooter", "lon": -77.01203333333333, "is_reserved": 0, "fusion_lon": 0.0, "bike_id": "c35239d475d3e1c1b98c8d90cd38e7b0", "name": "c35239d475d3e1c1b98c8d90cd38e7b0", "rental_uris": {"ios": "https://dc.lft.to/lastmile_qr_scan", "android": "https://dc.lft.to/lastmile_qr_scan"}}, {"is_disabled": 0, "fusion_lat": 0.0, "lat": 38.9382525, "type": "electric_scooter", "lon": -77.02457516666666, "is_reserved": 0, "fusion_lon": 0.0, "bike_id": "0e4713d5aed3ddbd4aea4b628769b4f9", "name": "0e4713d5aed3ddbd4aea4b628769b4f9", "rental_uris": {"ios": "https://dc.lft.to/lastmile_qr_scan", "android": "https://dc.lft.to/lastmile_qr_scan"}}, {"is_disabled": 0, "fusion_lat": 0.0, "lat": 38.90756416666667, "type": "electric_scooter", "lon": -77.00105133333334, "is_reserved": 0, "fusion_lon": 0.0, "bike_id": "1125b29229850dfca8f8c575eda96ce3", "name": "1125b29229850dfca8f8c575eda96ce3", "rental_uris": {"ios": "https://dc.lft.to/lastmile_qr_scan", "android": "https://dc.lft.to/lastmile_qr_scan"}}, {"is_disabled": 0, "fusion_lat": 0.0, "lat": 38.92496233333333, "type": "electric_scooter", "lon": -77.00882516666667, "is_reserved": 0, "fusion_lon": 0.0, "bike_id": "8a6dbd5def96c95378acaec588e1e09f", "name": "8a6dbd5def96c95378acaec588e1e09f", "rental_uris": {"ios": "https://dc.lft.to/lastmile_qr_scan", "android": "https://dc.lft.to/lastmile_qr_scan"}}, {"is_disabled": 0, "fusion_lat": 0.0, "lat": 38.9155075, "type": "electric_scooter", "lon": -77.01995183333334, "is_reserved": 0, "fusion_lon": 0.0, "bike_id": "9c7cc397b08cbe60c8813d34222f6655", "name": "9c7cc397b08cbe60c8813d34222f6655", "rental_uris": {"ios": "https://dc.lft.to/lastmile_qr_scan", "android": "https://dc.lft.to/lastmile_qr_scan"}}, {"is_disabled": 0, "fusion_lat": 0.0, "lat": 38.898078, "type": "electric_scooter", "lon": -77.03336016666667, "is_reserved": 0, "fusion_lon": 0.0, "bike_id": "72b06c37150e04824106256b73d6900c", "name": "72b06c37150e04824106256b73d6900c", "rental_uris": {"ios": "https://dc.lft.to/lastmile_qr_scan", "android": "https://dc.lft.to/lastmile_qr_scan"}}, {"is_disabled": 0, "fusion_lat": 0.0, "lat": 38.9490165, "type": "electric_bike", "lon": -76.97234616666667, "is_reserved": 0, "fusion_lon": 0.0, "bike_id": "ec6be55d5d33c4e543edcfd2268c1c67", "name": "ec6be55d5d33c4e543edcfd2268c1c67", "rental_uris": {"ios": "https://dc.lft.to/lastmile_qr_scan", "android": "https://dc.lft.to/lastmile_qr_scan"}}, {"is_disabled": 0, "fusion_lat": 0.0, "lat": 38.93078283333333, "type": "electric_scooter", "lon": -77.03129516666667, "is_reserved": 0, "fusion_lon": 0.0, "bike_id": "7fb8c1d7247f58588ccc42a64141c70e", "name": "7fb8c1d7247f58588ccc42a64141c70e", "rental_uris": {"ios": "https://dc.lft.to/lastmile_qr_scan", "android": "https://dc.lft.to/lastmile_qr_scan"}}, {"is_disabled": 0, "fusion_lat": 0.0, "lat": 38.893678666666666, "type": "electric_scooter", "lon": -77.0477845, "is_reserved": 0, "fusion_lon": 0.0, "bike_id": "7eba4f7778e7e48e6d68dcf474e893eb", "name": "7eba4f7778e7e48e6d68dcf474e893eb", "rental_uris": {"ios": "https://dc.lft.to/lastmile_qr_scan", "android": "https://dc.lft.to/lastmile_qr_scan"}}, {"is_disabled": 0, "fusion_lat": 0.0, "lat": 38.88868316666667, "type": "electric_bike", "lon": -76.99466416666667, "is_reserved": 0, "fusion_lon": 0.0, "bike_id": "8f0a1a1ff5ea48aa8062effa6e37dcc6", "name": "8f0a1a1ff5ea48aa8062effa6e37dcc6", "rental_uris": {"ios": "https://dc.lft.to/lastmile_qr_scan", "android": "https://dc.lft.to/lastmile_qr_scan"}}, {"is_disabled": 0, "fusion_lat": 0.0, "lat": 38.94236633333333, "type": "electric_scooter", "lon": -77.072382, "is_reserved": 0, "fusion_lon": 0.0, "bike_id": "ffae811dab846ab0165454e59efff359", "name": "ffae811dab846ab0165454e59efff359", "rental_uris": {"ios": "https://dc.lft.to/lastmile_qr_scan", "android": "https://dc.lft.to/lastmile_qr_scan"}}, {"is_disabled": 0, "fusion_lat": 0.0, "lat": 38.906723666666664, "type": "electric_scooter", "lon": -77.03822416666667, "is_reserved": 0, "fusion_lon": 0.0, "bike_id": "a54bc609944cfd34a2493e854880633b", "name": "a54bc609944cfd34a2493e854880633b", "rental_uris": {"ios": "https://dc.lft.to/lastmile_qr_scan", "android": "https://dc.lft.to/lastmile_qr_scan"}}, {"is_disabled": 0, "fusion_lat": 0.0, "lat": 38.92078733333334, "type": "electric_scooter", "lon": -77.0238785, "is_reserved": 0, "fusion_lon": 0.0, "bike_id": "0571807518e497a5eecf15b174fc02e5", "name": "0571807518e497a5eecf15b174fc02e5", "rental_uris": {"ios": "https://dc.lft.to/lastmile_qr_scan", "android": "https://dc.lft.to/lastmile_qr_scan"}}, {"is_disabled": 0, "fusion_lat": 0.0, "lat": 38.90495683333333, "type": "electric_scooter", "lon": -77.06275083333334, "is_reserved": 0, "fusion_lon": 0.0, "bike_id": "a59af1f207b558e65b4deab654a26ac3", "name": "a59af1f207b558e65b4deab654a26ac3", "rental_uris": {"ios": "https://dc.lft.to/lastmile_qr_scan", "android": "https://dc.lft.to/lastmile_qr_scan"}}, {"is_disabled": 0, "fusion_lat": 0.0, "lat": 38.924572833333336, "type": "electric_scooter", "lon": -77.03282966666667, "is_reserved": 0, "fusion_lon": 0.0, "bike_id": "a0ce20272ac93297598d24c0e9e1f800", "name": "a0ce20272ac93297598d24c0e9e1f800", "rental_uris": {"ios": "https://dc.lft.to/lastmile_qr_scan", "android": "https://dc.lft.to/lastmile_qr_scan"}}, {"is_disabled": 0, "fusion_lat": 0.0, "lat": 38.896025, "type": "electric_scooter", "lon": -77.02812633333333, "is_reserved": 0, "fusion_lon": 0.0, "bike_id": "01cd202ec01ce99ac9f08981b9d0bf7e", "name": "01cd202ec01ce99ac9f08981b9d0bf7e", "rental_uris": {"ios": "https://dc.lft.to/lastmile_qr_scan", "android": "https://dc.lft.to/lastmile_qr_scan"}}, {"is_disabled": 0, "fusion_lat": 0.0, "lat": 38.8627915, "type": "electric_scooter", "lon": -76.99225916666667, "is_reserved": 0, "fusion_lon": 0.0, "bike_id": "0630358836df7a06fe4da8c84f2f9a5e", "name": "0630358836df7a06fe4da8c84f2f9a5e", "rental_uris": {"ios": "https://dc.lft.to/lastmile_qr_scan", "android": "https://dc.lft.to/lastmile_qr_scan"}}, {"is_disabled": 0, "fusion_lat": 0.0, "lat": 38.941712833333334, "type": "electric_scooter", "lon": -77.0234695, "is_reserved": 0, "fusion_lon": 0.0, "bike_id": "f49f2ee43df4058227348cdaa25d994b", "name": "f49f2ee43df4058227348cdaa25d994b", "rental_uris": {"ios": "https://dc.lft.to/lastmile_qr_scan", "android": "https://dc.lft.to/lastmile_qr_scan"}}, {"is_disabled": 0, "fusion_lat": 0.0, "lat": 38.94174183333333, "type": "electric_scooter", "lon": -77.0253015, "is_reserved": 0, "fusion_lon": 0.0, "bike_id": "f4aeccc4d51b23dcd6217e7d5ad556a5", "name": "f4aeccc4d51b23dcd6217e7d5ad556a5", "rental_uris": {"ios": "https://dc.lft.to/lastmile_qr_scan", "android": "https://dc.lft.to/lastmile_qr_scan"}}, {"is_disabled": 0, "fusion_lat": 0.0, "lat": 38.923798, "type": "electric_scooter", "lon": -77.025562, "is_reserved": 0, "fusion_lon": 0.0, "bike_id": "bd5c74e647851cd235b40501da4ba016", "name": "bd5c74e647851cd235b40501da4ba016", "rental_uris": {"ios": "https://dc.lft.to/lastmile_qr_scan", "android": "https://dc.lft.to/lastmile_qr_scan"}}, {"is_disabled": 0, "fusion_lat": 0.0, "lat": 38.90966216666666, "type": "electric_scooter", "lon": -77.0143905, "is_reserved": 0, "fusion_lon": 0.0, "bike_id": "1888d1e01376316629dadd9e29a5e326", "name": "1888d1e01376316629dadd9e29a5e326", "rental_uris": {"ios": "https://dc.lft.to/lastmile_qr_scan", "android": "https://dc.lft.to/lastmile_qr_scan"}}, {"is_disabled": 0, "fusion_lat": 0.0, "lat": 38.93054216666667, "type": "electric_scooter", "lon": -77.04190533333333, "is_reserved": 0, "fusion_lon": 0.0, "bike_id": "806812dbdbf517d72e6721c3b8540554", "name": "806812dbdbf517d72e6721c3b8540554", "rental_uris": {"ios": "https://dc.lft.to/lastmile_qr_scan", "android": "https://dc.lft.to/lastmile_qr_scan"}}, {"is_disabled": 0, "fusion_lat": 0.0, "lat": 38.9009675, "type": "electric_scooter", "lon": -77.05138766666667, "is_reserved": 0, "fusion_lon": 0.0, "bike_id": "9e5f6119c4ba51ccf1495bc1e50e69c9", "name": "9e5f6119c4ba51ccf1495bc1e50e69c9", "rental_uris": {"ios": "https://dc.lft.to/lastmile_qr_scan", "android": "https://dc.lft.to/lastmile_qr_scan"}}, {"is_disabled": 0, "fusion_lat": 0.0, "lat": 38.9204755, "type": "electric_scooter", "lon": -77.03373083333334, "is_reserved": 0, "fusion_lon": 0.0, "bike_id": "2ed80c7b25e3838014445d07e74a29aa", "name": "2ed80c7b25e3838014445d07e74a29aa", "rental_uris": {"ios": "https://dc.lft.to/lastmile_qr_scan", "android": "https://dc.lft.to/lastmile_qr_scan"}}, {"is_disabled": 0, "fusion_lat": 0.0, "lat": 38.920388333333335, "type": "electric_scooter", "lon": -77.04183116666667, "is_reserved": 0, "fusion_lon": 0.0, "bike_id": "8344723dd3c49f229c2e5a94a0ce352c", "name": "8344723dd3c49f229c2e5a94a0ce352c", "rental_uris": {"ios": "https://dc.lft.to/lastmile_qr_scan", "android": "https://dc.lft.to/lastmile_qr_scan"}}, {"is_disabled": 0, "fusion_lat": 0.0, "lat": 38.941856, "type": "electric_scooter", "lon": -77.03088483333333, "is_reserved": 0, "fusion_lon": 0.0, "bike_id": "d928d0c330050006ae47dc35a00b0711", "name": "d928d0c330050006ae47dc35a00b0711", "rental_uris": {"ios": "https://dc.lft.to/lastmile_qr_scan", "android": "https://dc.lft.to/lastmile_qr_scan"}}, {"is_disabled": 0, "fusion_lat": 0.0, "lat": 38.874803, "type": "electric_scooter", "lon": -77.00936816666666, "is_reserved": 0, "fusion_lon": 0.0, "bike_id": "4a9af927415b682d64b51adea9f2d36e", "name": "4a9af927415b682d64b51adea9f2d36e", "rental_uris": {"ios": "https://dc.lft.to/lastmile_qr_scan", "android": "https://dc.lft.to/lastmile_qr_scan"}}, {"is_disabled": 0, "fusion_lat": 0.0, "lat": 38.89044, "type": "electric_scooter", "lon": -76.937481, "is_reserved": 0, "fusion_lon": 0.0, "bike_id": "4189c2d429358f83d1c47322b4f49444", "name": "4189c2d429358f83d1c47322b4f49444", "rental_uris": {"ios": "https://dc.lft.to/lastmile_qr_scan", "android": "https://dc.lft.to/lastmile_qr_scan"}}, {"is_disabled": 0, "fusion_lat": 0.0, "lat": 38.89905983333333, "type": "electric_scooter", "lon": -76.933572, "is_reserved": 0, "fusion_lon": 0.0, "bike_id": "c13bd2cd5710dd99dd2b607fab7bbc67", "name": "c13bd2cd5710dd99dd2b607fab7bbc67", "rental_uris": {"ios": "https://dc.lft.to/lastmile_qr_scan", "android": "https://dc.lft.to/lastmile_qr_scan"}}, {"is_disabled": 0, "fusion_lat": 0.0, "lat": 38.917174, "type": "electric_scooter", "lon": -77.03836716666666, "is_reserved": 0, "fusion_lon": 0.0, "bike_id": "49a7f87d8c75bd06337b759dfa2c023b", "name": "49a7f87d8c75bd06337b759dfa2c023b", "rental_uris": {"ios": "https://dc.lft.to/lastmile_qr_scan", "android": "https://dc.lft.to/lastmile_qr_scan"}}, {"is_disabled": 0, "fusion_lat": 0.0, "lat": 38.90257833333333, "type": "electric_scooter", "lon": -77.0172135, "is_reserved": 0, "fusion_lon": 0.0, "bike_id": "ae72272d49a5d7303fa8dde43358bbf4", "name": "ae72272d49a5d7303fa8dde43358bbf4", "rental_uris": {"ios": "https://dc.lft.to/lastmile_qr_scan", "android": "https://dc.lft.to/lastmile_qr_scan"}}, {"is_disabled": 0, "fusion_lat": 0.0, "lat": 38.907073833333335, "type": "electric_scooter", "lon": -77.0320225, "is_reserved": 0, "fusion_lon": 0.0, "bike_id": "7d51c7505b7f726f32d8b9d5d1a3fc9e", "name": "7d51c7505b7f726f32d8b9d5d1a3fc9e", "rental_uris": {"ios": "https://dc.lft.to/lastmile_qr_scan", "android": "https://dc.lft.to/lastmile_qr_scan"}}, {"is_disabled": 0, "fusion_lat": 0.0, "lat": 38.858041666666665, "type": "electric_scooter", "lon": -76.98654883333333, "is_reserved": 0, "fusion_lon": 0.0, "bike_id": "fe90c844a7255d006911c5da0b88916c", "name": "fe90c844a7255d006911c5da0b88916c", "rental_uris": {"ios": "https://dc.lft.to/lastmile_qr_scan", "android": "https://dc.lft.to/lastmile_qr_scan"}}, {"is_disabled": 0, "fusion_lat": 0.0, "lat": 38.93038766666667, "type": "electric_scooter", "lon": -77.03211233333333, "is_reserved": 0, "fusion_lon": 0.0, "bike_id": "26aa297f2d3106e687ef702cc72ea29c", "name": "26aa297f2d3106e687ef702cc72ea29c", "rental_uris": {"ios": "https://dc.lft.to/lastmile_qr_scan", "android": "https://dc.lft.to/lastmile_qr_scan"}}, {"is_disabled": 0, "fusion_lat": 0.0, "lat": 38.89010966666667, "type": "electric_scooter", "lon": -76.93742533333334, "is_reserved": 0, "fusion_lon": 0.0, "bike_id": "42c9ed3be92cf9124ca1267bd408b83b", "name": "42c9ed3be92cf9124ca1267bd408b83b", "rental_uris": {"ios": "https://dc.lft.to/lastmile_qr_scan", "android": "https://dc.lft.to/lastmile_qr_scan"}}, {"is_disabled": 0, "fusion_lat": 0.0, "lat": 38.90869383333333, "type": "electric_scooter", "lon": -77.08585483333333, "is_reserved": 0, "fusion_lon": 0.0, "bike_id": "2c4edb9c5d772c0ff77490729c96381c", "name": "2c4edb9c5d772c0ff77490729c96381c", "rental_uris": {"ios": "https://dc.lft.to/lastmile_qr_scan", "android": "https://dc.lft.to/lastmile_qr_scan"}}, {"is_disabled": 0, "fusion_lat": 0.0, "lat": 38.901339666666665, "type": "electric_scooter", "lon": -77.04032316666667, "is_reserved": 0, "fusion_lon": 0.0, "bike_id": "fbf8302087c34adcb59010596223f33f", "name": "fbf8302087c34adcb59010596223f33f", "rental_uris": {"ios": "https://dc.lft.to/lastmile_qr_scan", "android": "https://dc.lft.to/lastmile_qr_scan"}}, {"is_disabled": 0, "fusion_lat": 0.0, "lat": 38.91694366666667, "type": "electric_scooter", "lon": -77.03121, "is_reserved": 0, "fusion_lon": 0.0, "bike_id": "8e5a6cd742a0ff7e51840f346a40fede", "name": "8e5a6cd742a0ff7e51840f346a40fede", "rental_uris": {"ios": "https://dc.lft.to/lastmile_qr_scan", "android": "https://dc.lft.to/lastmile_qr_scan"}}, {"is_disabled": 0, "fusion_lat": 0.0, "lat": 38.89243466666667, "type": "electric_scooter", "lon": -77.03949383333334, "is_reserved": 0, "fusion_lon": 0.0, "bike_id": "aa54e9b09a75f3b6f0b4acddb4f102b7", "name": "aa54e9b09a75f3b6f0b4acddb4f102b7", "rental_uris": {"ios": "https://dc.lft.to/lastmile_qr_scan", "android": "https://dc.lft.to/lastmile_qr_scan"}}, {"is_disabled": 0, "fusion_lat": 0.0, "lat": 38.89534866666666, "type": "electric_scooter", "lon": -76.94889, "is_reserved": 0, "fusion_lon": 0.0, "bike_id": "5413dc13b0ff58c6fdf5aa5ea6032f3f", "name": "5413dc13b0ff58c6fdf5aa5ea6032f3f", "rental_uris": {"ios": "https://dc.lft.to/lastmile_qr_scan", "android": "https://dc.lft.to/lastmile_qr_scan"}}, {"is_disabled": 0, "fusion_lat": 0.0, "lat": 38.8616395, "type": "electric_bike", "lon": -76.95065666666666, "is_reserved": 0, "fusion_lon": 0.0, "bike_id": "98986ed9236b9e18e2c3440823f93ec5", "name": "98986ed9236b9e18e2c3440823f93ec5", "rental_uris": {"ios": "https://dc.lft.to/lastmile_qr_scan", "android": "https://dc.lft.to/lastmile_qr_scan"}}, {"is_disabled": 0, "fusion_lat": 0.0, "lat": 38.956506, "type": "electric_bike", "lon": -77.02257, "is_reserved": 0, "fusion_lon": 0.0, "bike_id": "a55f2f9e63a9c002fd6d1606dae1f845", "name": "a55f2f9e63a9c002fd6d1606dae1f845", "rental_uris": {"ios": "https://dc.lft.to/lastmile_qr_scan", "android": "https://dc.lft.to/lastmile_qr_scan"}}, {"is_disabled": 0, "fusion_lat": 0.0, "lat": 38.9539895, "type": "electric_scooter", "lon": -77.02742233333333, "is_reserved": 0, "fusion_lon": 0.0, "bike_id": "9eec038aaf5a59ed89e2c204f7af0476", "name": "9eec038aaf5a59ed89e2c204f7af0476", "rental_uris": {"ios": "https://dc.lft.to/lastmile_qr_scan", "android": "https://dc.lft.to/lastmile_qr_scan"}}, {"is_disabled": 0, "fusion_lat": 0.0, "lat": 38.923727666666665, "type": "electric_scooter", "lon": -77.0353525, "is_reserved": 0, "fusion_lon": 0.0, "bike_id": "69d2add4a243ff067129564261c67de1", "name": "69d2add4a243ff067129564261c67de1", "rental_uris": {"ios": "https://dc.lft.to/lastmile_qr_scan", "android": "https://dc.lft.to/lastmile_qr_scan"}}, {"is_disabled": 0, "fusion_lat": 0.0, "lat": 38.9284885, "type": "electric_scooter", "lon": -77.05429366666667, "is_reserved": 0, "fusion_lon": 0.0, "bike_id": "fa07fb64cba7bf7e1f9d614acb1b936e", "name": "fa07fb64cba7bf7e1f9d614acb1b936e", "rental_uris": {"ios": "https://dc.lft.to/lastmile_qr_scan", "android": "https://dc.lft.to/lastmile_qr_scan"}}, {"is_disabled": 0, "fusion_lat": 0.0, "lat": 38.89604466666667, "type": "electric_scooter", "lon": -77.0479, "is_reserved": 0, "fusion_lon": 0.0, "bike_id": "4737a0552ac022c3ffc6ae1a7be6ee49", "name": "4737a0552ac022c3ffc6ae1a7be6ee49", "rental_uris": {"ios": "https://dc.lft.to/lastmile_qr_scan", "android": "https://dc.lft.to/lastmile_qr_scan"}}, {"is_disabled": 0, "fusion_lat": 0.0, "lat": 38.92322266666667, "type": "electric_scooter", "lon": -77.04754933333334, "is_reserved": 0, "fusion_lon": 0.0, "bike_id": "26f558cae5d7ee2aa1b1431c890aadf9", "name": "26f558cae5d7ee2aa1b1431c890aadf9", "rental_uris": {"ios": "https://dc.lft.to/lastmile_qr_scan", "android": "https://dc.lft.to/lastmile_qr_scan"}}, {"is_disabled": 0, "fusion_lat": 0.0, "lat": 38.909729666666664, "type": "electric_scooter", "lon": -77.04874983333333, "is_reserved": 0, "fusion_lon": 0.0, "bike_id": "a2d42cfd634c892fc0487abab1818c8f", "name": "a2d42cfd634c892fc0487abab1818c8f", "rental_uris": {"ios": "https://dc.lft.to/lastmile_qr_scan", "android": "https://dc.lft.to/lastmile_qr_scan"}}, {"is_disabled": 0, "fusion_lat": 0.0, "lat": 38.92333, "type": "electric_scooter", "lon": -77.05677516666667, "is_reserved": 0, "fusion_lon": 0.0, "bike_id": "f719a807ee578d496c0ed764b48b4509", "name": "f719a807ee578d496c0ed764b48b4509", "rental_uris": {"ios": "https://dc.lft.to/lastmile_qr_scan", "android": "https://dc.lft.to/lastmile_qr_scan"}}, {"is_disabled": 0, "fusion_lat": 0.0, "lat": 38.9244505, "type": "electric_scooter", "lon": -77.04117466666666, "is_reserved": 0, "fusion_lon": 0.0, "bike_id": "e3bbe68c3279ad973e11176e5daf02f5", "name": "e3bbe68c3279ad973e11176e5daf02f5", "rental_uris": {"ios": "https://dc.lft.to/lastmile_qr_scan", "android": "https://dc.lft.to/lastmile_qr_scan"}}, {"is_disabled": 0, "fusion_lat": 0.0, "lat": 38.903260833333334, "type": "electric_scooter", "lon": -77.0432435, "is_reserved": 0, "fusion_lon": 0.0, "bike_id": "454aaf2ae0c71fccd42c430082e85363", "name": "454aaf2ae0c71fccd42c430082e85363", "rental_uris": {"ios": "https://dc.lft.to/lastmile_qr_scan", "android": "https://dc.lft.to/lastmile_qr_scan"}}, {"is_disabled": 0, "fusion_lat": 0.0, "lat": 38.986503166666665, "type": "electric_bike", "lon": -77.05638083333334, "is_reserved": 0, "fusion_lon": 0.0, "bike_id": "21682a817a6ac303528df9f8b78db800", "name": "21682a817a6ac303528df9f8b78db800", "rental_uris": {"ios": "https://dc.lft.to/lastmile_qr_scan", "android": "https://dc.lft.to/lastmile_qr_scan"}}, {"is_disabled": 0, "fusion_lat": 0.0, "lat": 38.84422933333333, "type": "electric_scooter", "lon": -76.997737, "is_reserved": 0, "fusion_lon": 0.0, "bike_id": "162fe0e27187e7658e0c3c743a44e63a", "name": "162fe0e27187e7658e0c3c743a44e63a", "rental_uris": {"ios": "https://dc.lft.to/lastmile_qr_scan", "android": "https://dc.lft.to/lastmile_qr_scan"}}, {"is_disabled": 0, "fusion_lat": 0.0, "lat": 38.86920416666667, "type": "electric_scooter", "lon": -76.98305133333334, "is_reserved": 0, "fusion_lon": 0.0, "bike_id": "5a8d92096a8d0af8103fee7be2ad672c", "name": "5a8d92096a8d0af8103fee7be2ad672c", "rental_uris": {"ios": "https://dc.lft.to/lastmile_qr_scan", "android": "https://dc.lft.to/lastmile_qr_scan"}}, {"is_disabled": 0, "fusion_lat": 0.0, "lat": 38.88503033333333, "type": "electric_scooter", "lon": -77.0056435, "is_reserved": 0, "fusion_lon": 0.0, "bike_id": "eb5c807d7bbffec4dbfe28da5ec142e2", "name": "eb5c807d7bbffec4dbfe28da5ec142e2", "rental_uris": {"ios": "https://dc.lft.to/lastmile_qr_scan", "android": "https://dc.lft.to/lastmile_qr_scan"}}, {"is_disabled": 0, "fusion_lat": 0.0, "lat": 38.904476, "type": "electric_scooter", "lon": -77.03256433333334, "is_reserved": 0, "fusion_lon": 0.0, "bike_id": "16d4c7fcd0a4a9becf29905b348b9d7b", "name": "16d4c7fcd0a4a9becf29905b348b9d7b", "rental_uris": {"ios": "https://dc.lft.to/lastmile_qr_scan", "android": "https://dc.lft.to/lastmile_qr_scan"}}, {"is_disabled": 0, "fusion_lat": 0.0, "lat": 38.91171516666667, "type": "electric_scooter", "lon": -77.06824766666666, "is_reserved": 0, "fusion_lon": 0.0, "bike_id": "3338bc5e6495ce94dedc27332f2e3be6", "name": "3338bc5e6495ce94dedc27332f2e3be6", "rental_uris": {"ios": "https://dc.lft.to/lastmile_qr_scan", "android": "https://dc.lft.to/lastmile_qr_scan"}}, {"is_disabled": 0, "fusion_lat": 0.0, "lat": 38.87951183333333, "type": "electric_scooter", "lon": -77.00496916666667, "is_reserved": 0, "fusion_lon": 0.0, "bike_id": "16d3e68828ba02106d9587a4ced62f4c", "name": "16d3e68828ba02106d9587a4ced62f4c", "rental_uris": {"ios": "https://dc.lft.to/lastmile_qr_scan", "android": "https://dc.lft.to/lastmile_qr_scan"}}, {"is_disabled": 0, "fusion_lat": 0.0, "lat": 38.926016833333335, "type": "electric_scooter", "lon": -77.0045835, "is_reserved": 0, "fusion_lon": 0.0, "bike_id": "df4423e907d46a5c0234532c8a9fb911", "name": "df4423e907d46a5c0234532c8a9fb911", "rental_uris": {"ios": "https://dc.lft.to/lastmile_qr_scan", "android": "https://dc.lft.to/lastmile_qr_scan"}}, {"is_disabled": 0, "fusion_lat": 0.0, "lat": 38.970878166666665, "type": "electric_bike", "lon": -77.06958366666667, "is_reserved": 0, "fusion_lon": 0.0, "bike_id": "83327b1cd1ad435e3f10a2c644262db2", "name": "83327b1cd1ad435e3f10a2c644262db2", "rental_uris": {"ios": "https://dc.lft.to/lastmile_qr_scan", "android": "https://dc.lft.to/lastmile_qr_scan"}}, {"is_disabled": 0, "fusion_lat": 0.0, "lat": 38.90041566666667, "type": "electric_scooter", "lon": -77.002167, "is_reserved": 0, "fusion_lon": 0.0, "bike_id": "0c6b08f4e421f3601ea353a3c1e7784c", "name": "0c6b08f4e421f3601ea353a3c1e7784c", "rental_uris": {"ios": "https://dc.lft.to/lastmile_qr_scan", "android": "https://dc.lft.to/lastmile_qr_scan"}}, {"is_disabled": 0, "fusion_lat": 0.0, "lat": 38.9155335, "type": "electric_scooter", "lon": -77.04868666666667, "is_reserved": 0, "fusion_lon": 0.0, "bike_id": "597e5a912742d6297aaa21c7c6dea1be", "name": "597e5a912742d6297aaa21c7c6dea1be", "rental_uris": {"ios": "https://dc.lft.to/lastmile_qr_scan", "android": "https://dc.lft.to/lastmile_qr_scan"}}, {"is_disabled": 0, "fusion_lat": 0.0, "lat": 38.885135, "type": "electric_scooter", "lon": -77.01545133333333, "is_reserved": 0, "fusion_lon": 0.0, "bike_id": "8919c45a30918dd6f852c527394468df", "name": "8919c45a30918dd6f852c527394468df", "rental_uris": {"ios": "https://dc.lft.to/lastmile_qr_scan", "android": "https://dc.lft.to/lastmile_qr_scan"}}, {"is_disabled": 0, "fusion_lat": 0.0, "lat": 38.92364933333333, "type": "electric_bike", "lon": -77.22321183333334, "is_reserved": 0, "fusion_lon": 0.0, "bike_id": "b9f83c3a68a7828efa020cf657e6f13c", "name": "b9f83c3a68a7828efa020cf657e6f13c", "rental_uris": {"ios": "https://dc.lft.to/lastmile_qr_scan", "android": "https://dc.lft.to/lastmile_qr_scan"}}, {"is_disabled": 0, "fusion_lat": 0.0, "lat": 38.90308783333333, "type": "electric_scooter", "lon": -76.97804183333334, "is_reserved": 0, "fusion_lon": 0.0, "bike_id": "e658d90701233ac2f071e69fe9210e46", "name": "e658d90701233ac2f071e69fe9210e46", "rental_uris": {"ios": "https://dc.lft.to/lastmile_qr_scan", "android": "https://dc.lft.to/lastmile_qr_scan"}}, {"is_disabled": 0, "fusion_lat": 0.0, "lat": 38.867121, "type": "electric_bike", "lon": -76.98949516666667, "is_reserved": 0, "fusion_lon": 0.0, "bike_id": "b7531515acee729fafb2be8444427f3e", "name": "b7531515acee729fafb2be8444427f3e", "rental_uris": {"ios": "https://dc.lft.to/lastmile_qr_scan", "android": "https://dc.lft.to/lastmile_qr_scan"}}, {"is_disabled": 0, "fusion_lat": 0.0, "lat": 38.9250695, "type": "electric_scooter", "lon": -77.03886816666666, "is_reserved": 0, "fusion_lon": 0.0, "bike_id": "e2bf58b4c13bf1e4e1381da155c5ef63", "name": "e2bf58b4c13bf1e4e1381da155c5ef63", "rental_uris": {"ios": "https://dc.lft.to/lastmile_qr_scan", "android": "https://dc.lft.to/lastmile_qr_scan"}}, {"is_disabled": 0, "fusion_lat": 0.0, "lat": 38.898733, "type": "electric_scooter", "lon": -76.93181266666667, "is_reserved": 0, "fusion_lon": 0.0, "bike_id": "1386db20493133b629910abf64d4d211", "name": "1386db20493133b629910abf64d4d211", "rental_uris": {"ios": "https://dc.lft.to/lastmile_qr_scan", "android": "https://dc.lft.to/lastmile_qr_scan"}}, {"is_disabled": 0, "fusion_lat": 0.0, "lat": 38.89991283333333, "type": "electric_scooter", "lon": -77.02675716666667, "is_reserved": 0, "fusion_lon": 0.0, "bike_id": "9a0408ff0456edc876e81375e08be48c", "name": "9a0408ff0456edc876e81375e08be48c", "rental_uris": {"ios": "https://dc.lft.to/lastmile_qr_scan", "android": "https://dc.lft.to/lastmile_qr_scan"}}, {"is_disabled": 0, "fusion_lat": 0.0, "lat": 38.909768, "type": "electric_scooter", "lon": -77.04869166666667, "is_reserved": 0, "fusion_lon": 0.0, "bike_id": "c2c8ac8e8d4b3e428964f9ddc01ffaad", "name": "c2c8ac8e8d4b3e428964f9ddc01ffaad", "rental_uris": {"ios": "https://dc.lft.to/lastmile_qr_scan", "android": "https://dc.lft.to/lastmile_qr_scan"}},