{"data": {"bikes": [{"fusion_lon": 0.0, "fusion_lat": 0.0, "rental_uris": {"android": "https://dc.lft.to/lastmile_qr_scan", "ios": "https://dc.lft.to/lastmile_qr_scan"}, "is_disabled": 0, "type": "electric_scooter", "is_reserved": 0, "name": "1045c804fbe239ec330a63806aafbc76", "lon": -77.0319465, "bike_id": "1045c804fbe239ec330a63806aafbc76", "lat": 38.9185345}, {"fusion_lon": 0.0, "fusion_lat": 0.0, "rental_uris": {"android": "https://dc.lft.to/lastmile_qr_scan", "ios": "https://dc.lft.to/lastmile_qr_scan"}, "is_disabled": 0, "type": "electric_scooter", "is_reserved": 0, "name": "efe4ee174e93994afdbab49e14f44400", "lon": -76.97714366666666, "bike_id": "efe4ee174e93994afdbab49e14f44400", "lat": 38.885197833333336}, {"fusion_lon": 0.0, "fusion_lat": 0.0, "rental_uris": {"android": "https://dc.lft.to/lastmile_qr_scan", "ios": "https://dc.lft.to/lastmile_qr_scan"}, "is_disabled": 0, "type": "electric_scooter", "is_reserved": 0, "name": "10e1324490e1a987e506ef500468219b", "lon": -77.055003, "bike_id": "10e1324490e1a987e506ef500468219b", "lat": 38.929810333333336}, {"fusion_lon": 0.0, "fusion_lat": 0.0, "rental_uris": {"android": "https://dc.lft.to/lastmile_qr_scan", "ios": "https://dc.lft.to/lastmile_qr_scan"}, "is_disabled": 0, "type": "electric_scooter", "is_reserved": 0, "name": "242fed269136b6fc5f122c687be9cc99", "lon": -77.02210916666667, "bike_id": "242fed269136b6fc5f122c687be9cc99", "lat": 38.920556166666664}, {"fusion_lon": 0.0, "fusion_lat": 0.0, "rental_uris": {"android": "https://dc.lft.to/lastmile_qr_scan", "ios": "https://dc.lft.to/lastmile_qr_scan"}, "is_disabled": 0, "type": "electric_scooter", "is_reserved": 0, "name": "a88f2d056631dc23dbe512e1a19fcc83", "lon": -77.02376283333334, "bike_id": "a88f2d056631dc23dbe512e1a19fcc83", "lat": 38.9021175}, {"fusion_lon": 0.0, "fusion_lat": 0.0, "rental_uris": {"android": "https://dc.lft.to/lastmile_qr_scan", "ios": "https://dc.lft.to/lastmile_qr_scan"}, "is_disabled": 0, "type": "electric_scooter", "is_reserved": 0, "name": "b4cf96085ef0bc4ed133fcacf920f342", "lon": -77.022897, "bike_id": "b4cf96085ef0bc4ed133fcacf920f342", "lat": 38.9148355}, {"fusion_lon": 0.0, "fusion_lat": 0.0, "rental_uris": {"android": "https://dc.lft.to/lastmile_qr_scan", "ios": "https://dc.lft.to/lastmile_qr_scan"}, "is_disabled": 0, "type": "electric_scooter", "is_reserved": 0, "name": "795b9171cd9012c5a598792287cab5ab", "lon": -76.93941383333333, "bike_id": "795b9171cd9012c5a598792287cab5ab", "lat": 38.908618833333335}, {"fusion_lon": 0.0, "fusion_lat": 0.0, "rental_uris": {"android": "https://dc.lft.to/lastmile_qr_scan", "ios": "https://dc.lft.to/lastmile_qr_scan"}, "is_disabled": 0, "type": "electric_scooter", "is_reserved": 0, "name": "40699f1462255bccc1e9a97bb953e2bb", "lon": -77.02278466666667, "bike_id": "40699f1462255bccc1e9a97bb953e2bb", "lat": 38.926579833333335}, {"fusion_lon": 0.0, "fusion_lat": 0.0, "rental_uris": {"android": "https://dc.lft.to/lastmile_qr_scan", "ios": "https://dc.lft.to/lastmile_qr_scan"}, "is_disabled": 0, "type": "electric_scooter", "is_reserved": 0, "name": "38d4c74a84eb4b06251242d9ee706906", "lon": -77.00715616666666, "bike_id": "38d4c74a84eb4b06251242d9ee706906", "lat": 38.90491883333333}, {"fusion_lon": 0.0, "fusion_lat": 0.0, "rental_uris": {"android": "https://dc.lft.to/lastmile_qr_scan", "ios": "https://dc.lft.to/lastmile_qr_scan"}, "is_disabled": 0, "type": "electric_scooter", "is_reserved": 0, "name": "8f3cbd028a03e375247c6cddb20e393c", "lon": -77.0392845, "bike_id": "8f3cbd028a03e375247c6cddb20e393c", "lat": 38.899059}, {"fusion_lon": 0.0, "fusion_lat": 0.0, "rental_uris": {"android": "https://dc.lft.to/lastmile_qr_scan", "ios": "https://dc.lft.to/lastmile_qr_scan"}, "is_disabled": 0, "type": "electric_scooter", "is_reserved": 0, "name": "8f2c5034633cc9963640a72f8da529bd", "lon": -76.98826433333333, "bike_id": "8f2c5034633cc9963640a72f8da529bd", "lat": 38.89070666666667}, {"fusion_lon": 0.0, "fusion_lat": 0.0, "rental_uris": {"android": "https://dc.lft.to/lastmile_qr_scan", "ios": "https://dc.lft.to/lastmile_qr_scan"}, "is_disabled": 0, "type": "electric_scooter", "is_reserved": 0, "name": "96ee384bb736d77b6f5a9124141efd51", "lon": -77.005976, "bike_id": "96ee384bb736d77b6f5a9124141efd51", "lat": 38.8718345}, {"fusion_lon": 0.0, "fusion_lat": 0.0, "rental_uris": {"android": "https://dc.lft.to/lastmile_qr_scan", "ios": "https://dc.lft.to/lastmile_qr_scan"}, "is_disabled": 0, "type": "electric_scooter", "is_reserved": 0, "name": "d55e33bb83e48c9a44c7960232008097", "lon": -77.03151233333334, "bike_id": "d55e33bb83e48c9a44c7960232008097", "lat": 38.94179666666667}, {"fusion_lon": 0.0, "fusion_lat": 0.0, "rental_uris": {"android": "https://dc.lft.to/lastmile_qr_scan", "ios": "https://dc.lft.to/lastmile_qr_scan"}, "is_disabled": 0, "type": "electric_bike", "is_reserved": 0, "name": "6cb941b5f3875249c85e38cd5f32bd72", "lon": -77.09626933333334, "bike_id": "6cb941b5f3875249c85e38cd5f32bd72", "lat": 38.952482333333336}, {"fusion_lon": 0.0, "fusion_lat": 0.0, "rental_uris": {"android": "https://dc.lft.to/lastmile_qr_scan", "ios": "https://dc.lft.to/lastmile_qr_scan"}, "is_disabled": 0, "type": "electric_bike", "is_reserved": 0, "name": "a444ac15b8599de7d25a0fa8364a5006", "lon": -77.03561266666667, "bike_id": "a444ac15b8599de7d25a0fa8364a5006", "lat": 38.96466233333334}, {"fusion_lon": 0.0, "fusion_lat": 0.0, "rental_uris": {"android": "https://dc.lft.to/lastmile_qr_scan", "ios": "https://dc.lft.to/lastmile_qr_scan"}, "is_disabled": 0, "type": "electric_bike", "is_reserved": 0, "name": "ca34c9692588525e9bbbd700b25aaf0c", "lon": -77.06359833333333, "bike_id": "ca34c9692588525e9bbbd700b25aaf0c", "lat": 38.84291233333333}, {"fusion_lon": 0.0, "fusion_lat": 0.0, "rental_uris": {"android": "https://dc.lft.to/lastmile_qr_scan", "ios": "https://dc.lft.to/lastmile_qr_scan"}, "is_disabled": 0, "type": "electric_bike", "is_reserved": 0, "name": "ad275cfceff2c04fb58fe79cbfd1cd8a", "lon": -77.05704483333334, "bike_id": "ad275cfceff2c04fb58fe79cbfd1cd8a", "lat": 38.905568333333335}, {"fusion_lon": 0.0, "fusion_lat": 0.0, "rental_uris": {"android": "https://dc.lft.to/lastmile_qr_scan", "ios": "https://dc.lft.to/lastmile_qr_scan"}, "is_disabled": 0, "type": "electric_bike", "is_reserved": 0, "name": "256d83452f37473b28a0053948402672", "lon": -77.0021785, "bike_id": "256d83452f37473b28a0053948402672", "lat": 38.93606183333333}, {"fusion_lon": 0.0, "fusion_lat": 0.0, "rental_uris": {"android": "https://dc.lft.to/lastmile_qr_scan", "ios": "https://dc.lft.to/lastmile_qr_scan"}, "is_disabled": 0, "type": "electric_bike", "is_reserved": 0, "name": "e5cc3b92b6c084a874e1785547441929", "lon": -77.04229183333334, "bike_id": "e5cc3b92b6c084a874e1785547441929", "lat": 38.9140515}, {"fusion_lon": 0.0, "fusion_lat": 0.0, "rental_uris": {"android": "https://dc.lft.to/lastmile_qr_scan", "ios": "https://dc.lft.to/lastmile_qr_scan"}, "is_disabled": 0, "type": "electric_scooter", "is_reserved": 0, "name": "e3a4cbaf0313e0e544cf6f338f9e2fda", "lon": -77.03955066666667, "bike_id": "e3a4cbaf0313e0e544cf6f338f9e2fda", "lat": 38.902434}, {"fusion_lon": 0.0, "fusion_lat": 0.0, "rental_uris": {"android": "https://dc.lft.to/lastmile_qr_scan", "ios": "https://dc.lft.to/lastmile_qr_scan"}, "is_disabled": 0, "type": "electric_scooter", "is_reserved": 0, "name": "110fbafb0d1d032fdede8955db1b1538", "lon": -77.0213855, "bike_id": "110fbafb0d1d032fdede8955db1b1538", "lat": 38.92408866666667}, {"fusion_lon": 0.0, "fusion_lat": 0.0, "rental_uris": {"android": "https://dc.lft.to/lastmile_qr_scan", "ios": "https://dc.lft.to/lastmile_qr_scan"}, "is_disabled": 0, "type": "electric_scooter", "is_reserved": 0, "name": "20af5fea35625a1c6c0ffa6a952e611f", "lon": -77.00514833333334, "bike_id": "20af5fea35625a1c6c0ffa6a952e611f", "lat": 38.905468166666665}, {"fusion_lon": 0.0, "fusion_lat": 0.0, "rental_uris": {"android": "https://dc.lft.to/lastmile_qr_scan", "ios": "https://dc.lft.to/lastmile_qr_scan"}, "is_disabled": 0, "type": "electric_bike", "is_reserved": 0, "name": "9c6ef191d049f851f353c30c88f5a0c8", "lon": -77.0765895, "bike_id": "9c6ef191d049f851f353c30c88f5a0c8", "lat": 38.80975933333333}, {"fusion_lon": 0.0, "fusion_lat": 0.0, "rental_uris": {"android": "https://dc.lft.to/lastmile_qr_scan", "ios": "https://dc.lft.to/lastmile_qr_scan"}, "is_disabled": 0, "type": "electric_scooter", "is_reserved": 0, "name": "14697885064c6dc740aa322eb6e9b7c8", "lon": -77.02640666666667, "bike_id": "14697885064c6dc740aa322eb6e9b7c8", "lat": 38.899629833333336}, {"fusion_lon": 0.0, "fusion_lat": 0.0, "rental_uris": {"android": "https://dc.lft.to/lastmile_qr_scan", "ios": "https://dc.lft.to/lastmile_qr_scan"}, "is_disabled": 0, "type": "electric_scooter", "is_reserved": 0, "name": "814d4bb3c1289e38aa145ea9fedfb258", "lon": -77.04787783333333, "bike_id": "814d4bb3c1289e38aa145ea9fedfb258", "lat": 38.899150166666665}, {"fusion_lon": 0.0, "fusion_lat": 0.0, "rental_uris": {"android": "https://dc.lft.to/lastmile_qr_scan", "ios": "https://dc.lft.to/lastmile_qr_scan"}, "is_disabled": 0, "type": "electric_scooter", "is_reserved": 0, "name": "150052ce4a97b4c28f41e580d1e7a994", "lon": -77.02835833333333, "bike_id": "150052ce4a97b4c28f41e580d1e7a994", "lat": 38.89636983333333}, {"fusion_lon": 0.0, "fusion_lat": 0.0, "rental_uris": {"android": "https://dc.lft.to/lastmile_qr_scan", "ios": "https://dc.lft.to/lastmile_qr_scan"}, "is_disabled": 0, "type": "electric_scooter", "is_reserved": 0, "name": "482874d9472f14eecda9ecf1b3b0248b", "lon": -77.0020085, "bike_id": "482874d9472f14eecda9ecf1b3b0248b", "lat": 38.90239416666667}, {"fusion_lon": 0.0, "fusion_lat": 0.0, "rental_uris": {"android": "https://dc.lft.to/lastmile_qr_scan", "ios": "https://dc.lft.to/lastmile_qr_scan"}, "is_disabled": 0, "type": "electric_scooter", "is_reserved": 0, "name": "9ca5c32592ebe9490bc0a24f89950f26", "lon": -77.06013283333333, "bike_id": "9ca5c32592ebe9490bc0a24f89950f26", "lat": 38.903582666666665}, {"fusion_lon": 0.0, "fusion_lat": 0.0, "rental_uris": {"android": "https://dc.lft.to/lastmile_qr_scan", "ios": "https://dc.lft.to/lastmile_qr_scan"}, "is_disabled": 0, "type": "electric_scooter", "is_reserved": 0, "name": "1bfe933b99cb0d7bb003182bb61a7997", "lon": -77.01271616666666, "bike_id": "1bfe933b99cb0d7bb003182bb61a7997", "lat": 38.89819833333333}, {"fusion_lon": 0.0, "fusion_lat": 0.0, "rental_uris": {"android": "https://dc.lft.to/lastmile_qr_scan", "ios": "https://dc.lft.to/lastmile_qr_scan"}, "is_disabled": 0, "type": "electric_scooter", "is_reserved": 0, "name": "ab6b0f3ee10311262e65b252539b36ba", "lon": -77.04051916666667, "bike_id": "ab6b0f3ee10311262e65b252539b36ba", "lat": 38.90872233333333}, {"fusion_lon": 0.0, "fusion_lat": 0.0, "rental_uris": {"android": "https://dc.lft.to/lastmile_qr_scan", "ios": "https://dc.lft.to/lastmile_qr_scan"}, "is_disabled": 0, "type": "electric_scooter", "is_reserved": 0, "name": "b957af8a7c9a7a4fb8d197de18f808d2", "lon": -77.02650516666667, "bike_id": "b957af8a7c9a7a4fb8d197de18f808d2", "lat": 38.90410816666667}, {"fusion_lon": 0.0, "fusion_lat": 0.0, "rental_uris": {"android": "https://dc.lft.to/lastmile_qr_scan", "ios": "https://dc.lft.to/lastmile_qr_scan"}, "is_disabled": 0, "type": "electric_scooter", "is_reserved": 0, "name": "74ddb30ea78bca3d61a0cb5214c4bbb1", "lon": -77.03847616666667, "bike_id": "74ddb30ea78bca3d61a0cb5214c4bbb1", "lat": 38.9265185}, {"fusion_lon": 0.0, "fusion_lat": 0.0, "rental_uris": {"android": "https://dc.lft.to/lastmile_qr_scan", "ios": "https://dc.lft.to/lastmile_qr_scan"}, "is_disabled": 0, "type": "electric_scooter", "is_reserved": 0, "name": "be6ad0e588186a3f843054b66f3d4149", "lon": -77.02502616666666, "bike_id": "be6ad0e588186a3f843054b66f3d4149", "lat": 38.918038}, {"fusion_lon": 0.0, "fusion_lat": 0.0, "rental_uris": {"android": "https://dc.lft.to/lastmile_qr_scan", "ios": "https://dc.lft.to/lastmile_qr_scan"}, "is_disabled": 0, "type": "electric_bike", "is_reserved": 0, "name": "5eb10edce9032aed959af1a7fc76d67e", "lon": -76.997034, "bike_id": "5eb10edce9032aed959af1a7fc76d67e", "lat": 38.838620166666665}, {"fusion_lon": 0.0, "fusion_lat": 0.0, "rental_uris": {"android": "https://dc.lft.to/lastmile_qr_scan", "ios": "https://dc.lft.to/lastmile_qr_scan"}, "is_disabled": 0, "type": "electric_scooter", "is_reserved": 0, "name": "040acc5b10d849fca8899d1600af3236", "lon": -77.0224585, "bike_id": "040acc5b10d849fca8899d1600af3236", "lat": 38.924336}, {"fusion_lon": 0.0, "fusion_lat": 0.0, "rental_uris": {"android": "https://dc.lft.to/lastmile_qr_scan", "ios": "https://dc.lft.to/lastmile_qr_scan"}, "is_disabled": 0, "type": "electric_bike", "is_reserved": 0, "name": "083a2b5704ef9a5f4bdc105eca92d3f6", "lon": -76.95127383333333, "bike_id": "083a2b5704ef9a5f4bdc105eca92d3f6", "lat": 38.951888833333335}, {"fusion_lon": 0.0, "fusion_lat": 0.0, "rental_uris": {"android": "https://dc.lft.to/lastmile_qr_scan", "ios": "https://dc.lft.to/lastmile_qr_scan"}, "is_disabled": 0, "type": "electric_scooter", "is_reserved": 0, "name": "c8c9aa433ed525e355ff71ddb67a15ae", "lon": -77.02406133333334, "bike_id": "c8c9aa433ed525e355ff71ddb67a15ae", "lat": 38.915965666666665}, {"fusion_lon": 0.0, "fusion_lat": 0.0, "rental_uris": {"android": "https://dc.lft.to/lastmile_qr_scan", "ios": "https://dc.lft.to/lastmile_qr_scan"}, "is_disabled": 0, "type": "electric_scooter", "is_reserved": 0, "name": "d6ca11dc047d79ead9df91349364c858", "lon": -77.04484933333333, "bike_id": "d6ca11dc047d79ead9df91349364c858", "lat": 38.89851516666667}, {"fusion_lon": 0.0, "fusion_lat": 0.0, "rental_uris": {"android": "https://dc.lft.to/lastmile_qr_scan", "ios": "https://dc.lft.to/lastmile_qr_scan"}, "is_disabled": 0, "type": "electric_scooter", "is_reserved": 0, "name": "d33394e5793c44ad2190bac2c14a3a82", "lon": -77.07170333333333, "bike_id": "d33394e5793c44ad2190bac2c14a3a82", "lat": 38.906865833333335}, {"fusion_lon": 0.0, "fusion_lat": 0.0, "rental_uris": {"android": "https://dc.lft.to/lastmile_qr_scan", "ios": "https://dc.lft.to/lastmile_qr_scan"}, "is_disabled": 0, "type": "electric_scooter", "is_reserved": 0, "name": "87ffd397b1ad6fb7e637bfbb01629d77", "lon": -77.02817966666667, "bike_id": "87ffd397b1ad6fb7e637bfbb01629d77", "lat": 38.932933166666665}, {"fusion_lon": 0.0, "fusion_lat": 0.0, "rental_uris": {"android": "https://dc.lft.to/lastmile_qr_scan", "ios": "https://dc.lft.to/lastmile_qr_scan"}, "is_disabled": 0, "type": "electric_scooter", "is_reserved": 0, "name": "8bcc22670f866136890832bca3236e8c", "lon": -76.985251, "bike_id": "8bcc22670f866136890832bca3236e8c", "lat": 38.866724}, {"fusion_lon": 0.0, "fusion_lat": 0.0, "rental_uris": {"android": "https://dc.lft.to/lastmile_qr_scan", "ios": "https://dc.lft.to/lastmile_qr_scan"}, "is_disabled": 0, "type": "electric_scooter", "is_reserved": 0, "name": "27ef64cdee1efe99478a7fc52f8899c7", "lon": -77.02193466666667, "bike_id": "27ef64cdee1efe99478a7fc52f8899c7", "lat": 38.8973365}, {"fusion_lon": 0.0, "fusion_lat": 0.0, "rental_uris": {"android": "https://dc.lft.to/lastmile_qr_scan", "ios": "https://dc.lft.to/lastmile_qr_scan"}, "is_disabled": 0, "type": "electric_scooter", "is_reserved": 0, "name": "70638c091030ae01207d3c6aed52ddd6", "lon": -77.02503983333334, "bike_id": "70638c091030ae01207d3c6aed52ddd6", "lat": 38.93964616666667}, {"fusion_lon": 0.0, "fusion_lat": 0.0, "rental_uris": {"android": "https://dc.lft.to/lastmile_qr_scan", "ios": "https://dc.lft.to/lastmile_qr_scan"}, "is_disabled": 0, "type": "electric_scooter", "is_reserved": 0, "name": "5bb7df4712de9894809761c5972eefa5", "lon": -77.02813033333334, "bike_id": "5bb7df4712de9894809761c5972eefa5", "lat": 38.925815}, {"fusion_lon": 0.0, "fusion_lat": 0.0, "rental_uris": {"android": "https://dc.lft.to/lastmile_qr_scan", "ios": "https://dc.lft.to/lastmile_qr_scan"}, "is_disabled": 0, "type": "electric_scooter", "is_reserved": 0, "name": "90e0848f22dc1efb39fa88fe25543924", "lon": -77.00150383333333, "bike_id": "90e0848f22dc1efb39fa88fe25543924", "lat": 38.8675015}, {"fusion_lon": 0.0, "fusion_lat": 0.0, "rental_uris": {"android": "https://dc.lft.to/lastmile_qr_scan", "ios": "https://dc.lft.to/lastmile_qr_scan"}, "is_disabled": 0, "type": "electric_scooter", "is_reserved": 0, "name": "a559cbd33cb53b9143c876eefcd7fb22", "lon": -77.03193483333334, "bike_id": "a559cbd33cb53b9143c876eefcd7fb22", "lat": 38.89231383333333}, {"fusion_lon": 0.0, "fusion_lat": 0.0, "rental_uris": {"android": "https://dc.lft.to/lastmile_qr_scan", "ios": "https://dc.lft.to/lastmile_qr_scan"}, "is_disabled": 0, "type": "electric_scooter", "is_reserved": 0, "name": "7cda17378ba9f2b6f78d9f23ec14cd3e", "lon": -77.03226433333333, "bike_id": "7cda17378ba9f2b6f78d9f23ec14cd3e", "lat": 38.9164}, {"fusion_lon": 0.0, "fusion_lat": 0.0, "rental_uris": {"android": "https://dc.lft.to/lastmile_qr_scan", "ios": "https://dc.lft.to/lastmile_qr_scan"}, "is_disabled": 0, "type": "electric_bike", "is_reserved": 0, "name": "bfe747bd19ff6631ef42d6e2ef96cbea", "lon": -76.95063466666667, "bike_id": "bfe747bd19ff6631ef42d6e2ef96cbea", "lat": 39.08505233333333}, {"fusion_lon": 0.0, "fusion_lat": 0.0, "rental_uris": {"android": "https://dc.lft.to/lastmile_qr_scan", "ios": "https://dc.lft.to/lastmile_qr_scan"}, "is_disabled": 0, "type": "electric_scooter", "is_reserved": 0, "name": "14123f9f41f590c150695cb55b766e5d", "lon": -77.02225033333333, "bike_id": "14123f9f41f590c150695cb55b766e5d", "lat": 38.9247665}, {"fusion_lon": 0.0, "fusion_lat": 0.0, "rental_uris": {"android": "https://dc.lft.to/lastmile_qr_scan", "ios": "https://dc.lft.to/lastmile_qr_scan"}, "is_disabled": 0, "type": "electric_scooter", "is_reserved": 0, "name": "3c9cae17bab2a180a3b55bbed8b85046", "lon": -77.003247, "bike_id": "3c9cae17bab2a180a3b55bbed8b85046", "lat": 38.88740133333334}, {"fusion_lon": 0.0, "fusion_lat": 0.0, "rental_uris": {"android": "https://dc.lft.to/lastmile_qr_scan", "ios": "https://dc.lft.to/lastmile_qr_scan"}, "is_disabled": 0, "type": "electric_scooter", "is_reserved": 0, "name": "70ab31eaf51cae79635020fec71afd27", "lon": -76.991144, "bike_id": "70ab31eaf51cae79635020fec71afd27", "lat": 38.90022066666667}, {"fusion_lon": 0.0, "fusion_lat": 0.0, "rental_uris": {"android": "https://dc.lft.to/lastmile_qr_scan", "ios": "https://dc.lft.to/lastmile_qr_scan"}, "is_disabled": 0, "type": "electric_scooter", "is_reserved": 0, "name": "f46b1c2403c433348f08157af882a9c8", "lon": -77.02247366666667, "bike_id": "f46b1c2403c433348f08157af882a9c8", "lat": 38.935735333333334}, {"fusion_lon": 0.0, "fusion_lat": 0.0, "rental_uris": {"android": "https://dc.lft.to/lastmile_qr_scan", "ios": "https://dc.lft.to/lastmile_qr_scan"}, "is_disabled": 0, "type": "electric_scooter", "is_reserved": 0, "name": "d38f213a6ac00a09f5af8bd691d35d82", "lon": -76.96112116666667, "bike_id": "d38f213a6ac00a09f5af8bd691d35d82", "lat": 38.892026666666666}, {"fusion_lon": 0.0, "fusion_lat": 0.0, "rental_uris": {"android": "https://dc.lft.to/lastmile_qr_scan", "ios": "https://dc.lft.to/lastmile_qr_scan"}, "is_disabled": 0, "type": "electric_scooter", "is_reserved": 0, "name": "6af48cba76407c0cfc54d6f190dee323", "lon": -77.03774683333333, "bike_id": "6af48cba76407c0cfc54d6f190dee323", "lat": 38.916904833333334}, {"fusion_lon": 0.0, "fusion_lat": 0.0, "rental_uris": {"android": "https://dc.lft.to/lastmile_qr_scan", "ios": "https://dc.lft.to/lastmile_qr_scan"}, "is_disabled": 0, "type": "electric_scooter", "is_reserved": 0, "name": "b25e64027805afba1be5651fa64f8235", "lon": -77.02818516666666, "bike_id": "b25e64027805afba1be5651fa64f8235", "lat": 38.90699933333333}, {"fusion_lon": 0.0, "fusion_lat": 0.0, "rental_uris": {"android": "https://dc.lft.to/lastmile_qr_scan", "ios": "https://dc.lft.to/lastmile_qr_scan"}, "is_disabled": 0, "type": "electric_scooter", "is_reserved": 0, "name": "038ec2d62281e50e3990f8c40e632d22", "lon": -76.99065466666667, "bike_id": "038ec2d62281e50e3990f8c40e632d22", "lat": 38.85625816666666}, {"fusion_lon": 0.0, "fusion_lat": 0.0, "rental_uris": {"android": "https://dc.lft.to/lastmile_qr_scan", "ios": "https://dc.lft.to/lastmile_qr_scan"}, "is_disabled": 0, "type": "electric_scooter", "is_reserved": 0, "name": "d3e52b54a7206e4b87c7e53162fbeeab", "lon": -76.99895283333333, "bike_id": "d3e52b54a7206e4b87c7e53162fbeeab", "lat": 38.907262833333334}, {"fusion_lon": 0.0, "fusion_lat": 0.0, "rental_uris": {"android": "https://dc.lft.to/lastmile_qr_scan", "ios": "https://dc.lft.to/lastmile_qr_scan"}, "is_disabled": 0, "type": "electric_scooter", "is_reserved": 0, "name": "0c7552d420a154b390cc2530df475ad9", "lon": -77.0254445, "bike_id": "0c7552d420a154b390cc2530df475ad9", "lat": 38.922537}, {"fusion_lon": 0.0, "fusion_lat": 0.0, "rental_uris": {"android": "https://dc.lft.to/lastmile_qr_scan", "ios": "https://dc.lft.to/lastmile_qr_scan"}, "is_disabled": 0, "type": "electric_bike", "is_reserved": 0, "name": "c71b7c459e775d49ca3fd15a5c19fc61", "lon": -77.03949616666667, "bike_id": "c71b7c459e775d49ca3fd15a5c19fc61", "lat": 38.93097383333333}, {"fusion_lon": 0.0, "fusion_lat": 0.0, "rental_uris": {"android": "https://dc.lft.to/lastmile_qr_scan", "ios": "https://dc.lft.to/lastmile_qr_scan"}, "is_disabled": 0, "type": "electric_scooter", "is_reserved": 0, "name": "2f942bdab3a12110b6ddb64323224d60", "lon": -76.98602783333334, "bike_id": "2f942bdab3a12110b6ddb64323224d60", "lat": 38.90652433333333}, {"fusion_lon": 0.0, "fusion_lat": 0.0, "rental_uris": {"android": "https://dc.lft.to/lastmile_qr_scan", "ios": "https://dc.lft.to/lastmile_qr_scan"}, "is_disabled": 0, "type": "electric_scooter", "is_reserved": 0, "name": "16f52876d6d8e3210b684eb17d94fbb3", "lon": -77.04002516666667, "bike_id": "16f52876d6d8e3210b684eb17d94fbb3", "lat": 38.918014166666666}, {"fusion_lon": 0.0, "fusion_lat": 0.0, "rental_uris": {"android": "https://dc.lft.to/lastmile_qr_scan", "ios": "https://dc.lft.to/lastmile_qr_scan"}, "is_disabled": 0, "type": "electric_scooter", "is_reserved": 0, "name": "78ab4ec70c684024d35cbb7faf694903", "lon": -77.01889016666667, "bike_id": "78ab4ec70c684024d35cbb7faf694903", "lat": 38.874789}, {"fusion_lon": 0.0, "fusion_lat": 0.0, "rental_uris": {"android": "https://dc.lft.to/lastmile_qr_scan", "ios": "https://dc.lft.to/lastmile_qr_scan"}, "is_disabled": 0, "type": "electric_bike", "is_reserved": 0, "name": "3eb8befa878748220e9eecc131e1d57e", "lon": -76.997897, "bike_id": "3eb8befa878748220e9eecc131e1d57e", "lat": 38.997991166666665}, {"fusion_lon": 0.0, "fusion_lat": 0.0, "rental_uris": {"android": "https://dc.lft.to/lastmile_qr_scan", "ios": "https://dc.lft.to/lastmile_qr_scan"}, "is_disabled": 0, "type": "electric_scooter", "is_reserved": 0, "name": "0265802b8074d4fcd76b2736568cdb6d", "lon": -77.0212605, "bike_id": "0265802b8074d4fcd76b2736568cdb6d", "lat": 38.9278405}, {"fusion_lon": 0.0, "fusion_lat": 0.0, "rental_uris": {"android": "https://dc.lft.to/lastmile_qr_scan", "ios": "https://dc.lft.to/lastmile_qr_scan"}, "is_disabled": 0, "type": "electric_scooter", "is_reserved": 0, "name": "4930c716ba5c6084f8f16c96f43dcab1", "lon": -77.0028415, "bike_id": "4930c716ba5c6084f8f16c96f43dcab1", "lat": 38.89352016666667}, {"fusion_lon": 0.0, "fusion_lat": 0.0, "rental_uris": {"android": "https://dc.lft.to/lastmile_qr_scan", "ios": "https://dc.lft.to/lastmile_qr_scan"}, "is_disabled": 0, "type": "electric_scooter", "is_reserved": 0, "name": "12ced4ebddc4269fd1b12d64e5a1d00e", "lon": -77.01671833333333, "bike_id": "12ced4ebddc4269fd1b12d64e5a1d00e", "lat": 38.920432166666664}, {"fusion_lon": 0.0, "fusion_lat": 0.0, "rental_uris": {"android": "https://dc.lft.to/lastmile_qr_scan", "ios": "https://dc.lft.to/lastmile_qr_scan"}, "is_disabled": 0, "type": "electric_scooter", "is_reserved": 0, "name": "d263f91719ee5d15bce93711bba6774d", "lon": -77.02345, "bike_id": "d263f91719ee5d15bce93711bba6774d", "lat": 38.929118833333334}, {"fusion_lon": 0.0, "fusion_lat": 0.0, "rental_uris": {"android": "https://dc.lft.to/lastmile_qr_scan", "ios": "https://dc.lft.to/lastmile_qr_scan"}, "is_disabled": 0, "type": "electric_scooter", "is_reserved": 0, "name": "1cbf43722ea7f8a2762ff525ce48120e", "lon": -77.03566283333333, "bike_id": "1cbf43722ea7f8a2762ff525ce48120e", "lat": 38.904741666666666}, {"fusion_lon": 0.0, "fusion_lat": 0.0, "rental_uris": {"android": "https://dc.lft.to/lastmile_qr_scan", "ios": "https://dc.lft.to/lastmile_qr_scan"}, "is_disabled": 0, "type": "electric_scooter", "is_reserved": 0, "name": "cbd4152a17503f4a1285c4ee540f0e1d", "lon": -77.06269933333333, "bike_id": "cbd4152a17503f4a1285c4ee540f0e1d", "lat": 38.920975}, {"fusion_lon": 0.0, "fusion_lat": 0.0, "rental_uris": {"android": "https://dc.lft.to/lastmile_qr_scan", "ios": "https://dc.lft.to/lastmile_qr_scan"}, "is_disabled": 0, "type": "electric_scooter", "is_reserved": 0, "name": "d35fc332ddf88249d1de2ea1d057b0d1", "lon": -77.0246835, "bike_id": "d35fc332ddf88249d1de2ea1d057b0d1", "lat": 38.9063055}, {"fusion_lon": 0.0, "fusion_lat": 0.0, "rental_uris": {"android": "https://dc.lft.to/lastmile_qr_scan", "ios": "https://dc.lft.to/lastmile_qr_scan"}, "is_disabled": 0, "type": "electric_scooter", "is_reserved": 0, "name": "8f34e1954e8f988cfcdfa02afa1ab7ff", "lon": -77.02585016666667, "bike_id": "8f34e1954e8f988cfcdfa02afa1ab7ff", "lat": 38.89967766666667}, {"fusion_lon": 0.0, "fusion_lat": 0.0, "rental_uris": {"android": "https://dc.lft.to/lastmile_qr_scan", "ios": "https://dc.lft.to/lastmile_qr_scan"}, "is_disabled": 0, "type": "electric_scooter", "is_reserved": 0, "name": "da95bb5c2967927db5595f08cbe7739e", "lon": -77.02691833333333, "bike_id": "da95bb5c2967927db5595f08cbe7739e", "lat": 38.9249605}, {"fusion_lon": 0.0, "fusion_lat": 0.0, "rental_uris": {"android": "https://dc.lft.to/lastmile_qr_scan", "ios": "https://dc.lft.to/lastmile_qr_scan"}, "is_disabled": 0, "type": "electric_scooter", "is_reserved": 0, "name": "09d148c7716f5172d732aa8b3b8498d1", "lon": -77.04375833333333, "bike_id": "09d148c7716f5172d732aa8b3b8498d1", "lat": 38.9349755}, {"fusion_lon": 0.0, "fusion_lat": 0.0, "rental_uris": {"android": "https://dc.lft.to/lastmile_qr_scan", "ios": "https://dc.lft.to/lastmile_qr_scan"}, "is_disabled": 0, "type": "electric_scooter", "is_reserved": 0, "name": "d80911502cacd6459c81577747252f7c", "lon": -77.02093266666667, "bike_id": "d80911502cacd6459c81577747252f7c", "lat": 38.917754333333335}, {"fusion_lon": 0.0, "fusion_lat": 0.0, "rental_uris": {"android": "https://dc.lft.to/lastmile_qr_scan", "ios": "https://dc.lft.to/lastmile_qr_scan"}, "is_disabled": 0, "type": "electric_scooter", "is_reserved": 0, "name": "956ccbd1403949ee70f1854998579c68", "lon": -77.07247, "bike_id": "956ccbd1403949ee70f1854998579c68", "lat": 38.93949883333333}, {"fusion_lon": 0.0, "fusion_lat": 0.0, "rental_uris": {"android": "https://dc.lft.to/lastmile_qr_scan", "ios": "https://dc.lft.to/lastmile_qr_scan"}, "is_disabled": 0, "type": "electric_scooter", "is_reserved": 0, "name": "bdeebad14ca1ff310dbb916802c0e91c", "lon": -76.9916475, "bike_id": "bdeebad14ca1ff310dbb916802c0e91c", "lat": 38.90126083333333}, {"fusion_lon": 0.0, "fusion_lat": 0.0, "rental_uris": {"android": "https://dc.lft.to/lastmile_qr_scan", "ios": "https://dc.lft.to/lastmile_qr_scan"}, "is_disabled": 0, "type": "electric_scooter", "is_reserved": 0, "name": "7a3c71cb4132668250eb7443d8c6e518", "lon": -77.0195285, "bike_id": "7a3c71cb4132668250eb7443d8c6e518", "lat": 38.92365266666667}, {"fusion_lon": 0.0, "fusion_lat": 0.0, "rental_uris": {"android": "https://dc.lft.to/lastmile_qr_scan", "ios": "https://dc.lft.to/lastmile_qr_scan"}, "is_disabled": 0, "type": "electric_scooter", "is_reserved": 0, "name": "a1efcaceecda9d264a8845f1d2481dd8", "lon": -77.021289, "bike_id": "a1efcaceecda9d264a8845f1d2481dd8", "lat": 38.9311555}, {"fusion_lon": 0.0, "fusion_lat": 0.0, "rental_uris": {"android": "https://dc.lft.to/lastmile_qr_scan", "ios": "https://dc.lft.to/lastmile_qr_scan"}, "is_disabled": 0, "type": "electric_scooter", "is_reserved": 0, "name": "6704773f8d914904650aabc50e0f7553", "lon": -77.0450015, "bike_id": "6704773f8d914904650aabc50e0f7553", "lat": 38.89254366666667}, {"fusion_lon": 0.0, "fusion_lat": 0.0, "rental_uris": {"android": "https://dc.lft.to/lastmile_qr_scan", "ios": "https://dc.lft.to/lastmile_qr_scan"}, "is_disabled": 0, "type": "electric_scooter", "is_reserved": 0, "name": "6f6a5041a2f13ce6dcb4e79e79e8a9ef", "lon": -77.04939566666667, "bike_id": "6f6a5041a2f13ce6dcb4e79e79e8a9ef", "lat": 38.90332166666666}, {"fusion_lon": 0.0, "fusion_lat": 0.0, "rental_uris": {"android": "https://dc.lft.to/lastmile_qr_scan", "ios": "https://dc.lft.to/lastmile_qr_scan"}, "is_disabled": 0, "type": "electric_bike", "is_reserved": 0, "name": "9b009b184b7e1eb2fec0eba80687dffb", "lon": -76.99308533333334, "bike_id": "9b009b184b7e1eb2fec0eba80687dffb", "lat": 38.94634333333333}, {"fusion_lon": 0.0, "fusion_lat": 0.0, "rental_uris": {"android": "https://dc.lft.to/lastmile_qr_scan", "ios": "https://dc.lft.to/lastmile_qr_scan"}, "is_disabled": 0, "type": "electric_scooter", "is_reserved": 0, "name": "18161580ebf521e39e5a2785f711b891", "lon": -77.04500116666667, "bike_id": "18161580ebf521e39e5a2785f711b891", "lat": 38.899535}, {"fusion_lon": 0.0, "fusion_lat": 0.0, "rental_uris": {"android": "https://dc.lft.to/lastmile_qr_scan", "ios": "https://dc.lft.to/lastmile_qr_scan"}, "is_disabled": 0, "type": "electric_scooter", "is_reserved": 0, "name": "313ad23651a69ae9be0448af52010519", "lon": -77.0213375, "bike_id": "313ad23651a69ae9be0448af52010519", "lat": 38.92334866666667}, {"fusion_lon": 0.0, "fusion_lat": 0.0, "rental_uris": {"android": "https://dc.lft.to/lastmile_qr_scan", "ios": "https://dc.lft.to/lastmile_qr_scan"}, "is_disabled": 0, "type": "electric_scooter", "is_reserved": 0, "name": "2ffe882e16b0034576bf992d55b0d529", "lon": -77.00985766666666, "bike_id": "2ffe882e16b0034576bf992d55b0d529", "lat": 38.87284266666666}, {"fusion_lon": 0.0, "fusion_lat": 0.0, "rental_uris": {"android": "https://dc.lft.to/lastmile_qr_scan", "ios": "https://dc.lft.to/lastmile_qr_scan"}, "is_disabled": 0, "type": "electric_bike", "is_reserved": 0, "name": "7ec3a67c12ccda6f8b8a9f1e804c8c37", "lon": -77.060858, "bike_id": "7ec3a67c12ccda6f8b8a9f1e804c8c37", "lat": 38.804430333333336}, {"fusion_lon": 0.0, "fusion_lat": 0.0, "rental_uris": {"android": "https://dc.lft.to/lastmile_qr_scan", "ios": "https://dc.lft.to/lastmile_qr_scan"}, "is_disabled": 0, "type": "electric_scooter", "is_reserved": 0, "name": "3a30bdb772bf239c0f06edd1436d540c", "lon": -77.04192483333334, "bike_id": "3a30bdb772bf239c0f06edd1436d540c", "lat": 38.9204665}, {"fusion_lon": 0.0, "fusion_lat": 0.0, "rental_uris": {"android": "https://dc.lft.to/lastmile_qr_scan", "ios": "https://dc.lft.to/lastmile_qr_scan"}, "is_disabled": 0, "type": "electric_scooter", "is_reserved": 0, "name": "d1f90af4e9f476556ca00eaa35d05f4c", "lon": -77.06963733333333, "bike_id": "d1f90af4e9f476556ca00eaa35d05f4c", "lat": 38.91834983333333}, {"fusion_lon": 0.0, "fusion_lat": 0.0, "rental_uris": {"android": "https://dc.lft.to/lastmile_qr_scan", "ios": "https://dc.lft.to/lastmile_qr_scan"}, "is_disabled": 0, "type": "electric_scooter", "is_reserved": 0, "name": "3faa2c5894aeea19c7ff57169b924a58", "lon": -77.0320495, "bike_id": "3faa2c5894aeea19c7ff57169b924a58", "lat": 38.921088833333336}, {"fusion_lon": 0.0, "fusion_lat": 0.0, "rental_uris": {"android": "https://dc.lft.to/lastmile_qr_scan", "ios": "https://dc.lft.to/lastmile_qr_scan"}, "is_disabled": 0, "type": "electric_bike", "is_reserved": 0, "name": "ced479a6ab356ce3544a0897dd6f8e2f", "lon": -77.01304166666667, "bike_id": "ced479a6ab356ce3544a0897dd6f8e2f", "lat": 38.88142766666667}, {"fusion_lon": 0.0, "fusion_lat": 0.0, "rental_uris": {"android": "https://dc.lft.to/lastmile_qr_scan", "ios": "https://dc.lft.to/lastmile_qr_scan"}, "is_disabled": 0, "type": "electric_scooter", "is_reserved": 0, "name": "6deb3562dd15ed14e66c5e560a260d51", "lon": -77.04088, "bike_id": "6deb3562dd15ed14e66c5e560a260d51", "lat": 38.9049625}, {"fusion_lon": 0.0, "fusion_lat": 0.0, "rental_uris": {"android": "https://dc.lft.to/lastmile_qr_scan", "ios": "https://dc.lft.to/lastmile_qr_scan"}, "is_disabled": 0, "type": "electric_scooter", "is_reserved": 0, "name": "8b34e3955d99bf2d3d225c557dc97434", "lon": -77.02153983333334, "bike_id": "8b34e3955d99bf2d3d225c557dc97434", "lat": 38.91987233333333}, {"fusion_lon": 0.0, "fusion_lat": 0.0, "rental_uris": {"android": "https://dc.lft.to/lastmile_qr_scan", "ios": "https://dc.lft.to/lastmile_qr_scan"}, "is_disabled": 0, "type": "electric_scooter", "is_reserved": 0, "name": "1957a8134c68b27d046352669a846077", "lon": -77.02496983333333, "bike_id": "1957a8134c68b27d046352669a846077", "lat": 38.917872333333335}, {"fusion_lon": 0.0, "fusion_lat": 0.0, "rental_uris": {"android": "https://dc.lft.to/lastmile_qr_scan", "ios": "https://dc.lft.to/lastmile_qr_scan"}, "is_disabled": 0, "type": "electric_scooter", "is_reserved": 0, "name": "cc741dff2e855fa27b60d54d7dd91e27", "lon": -77.02641333333334, "bike_id": "cc741dff2e855fa27b60d54d7dd91e27", "lat": 38.89956766666667}, {"fusion_lon": 0.0, "fusion_lat": 0.0, "rental_uris": {"android": "https://dc.lft.to/lastmile_qr_scan", "ios": "https://dc.lft.to/lastmile_qr_scan"}, "is_disabled": 0, "type": "electric_scooter", "is_reserved": 0, "name": "c41dec2e8e09f6b110702915cb62abd7", "lon": -77.04602683333333, "bike_id": "c41dec2e8e09f6b110702915cb62abd7", "lat": 38.91528066666667}, {"fusion_lon": 0.0, "fusion_lat": 0.0, "rental_uris": {"android": "https://dc.lft.to/lastmile_qr_scan", "ios": "https://dc.lft.to/lastmile_qr_scan"}, "is_disabled": 0, "type": "electric_scooter", "is_reserved": 0, "name": "77b1ae0c31a9e05bd674fc9782981ef4", "lon": -77.03981216666666, "bike_id": "77b1ae0c31a9e05bd674fc9782981ef4", "lat": 38.90604166666667}, {"fusion_lon": 0.0, "fusion_lat": 0.0, "rental_uris": {"android": "https://dc.lft.to/lastmile_qr_scan", "ios": "https://dc.lft.to/lastmile_qr_scan"}, "is_disabled": 0, "type": "electric_bike", "is_reserved": 0, "name": "688b4e27706cf004156a7c3c9705f88c", "lon": -76.95140516666666, "bike_id": "688b4e27706cf004156a7c3c9705f88c", "lat": 39.08426883333333}, {"fusion_lon": 0.0, "fusion_lat": 0.0, "rental_uris": {"android": "https://dc.lft.to/lastmile_qr_scan", "ios": "https://dc.lft.to/lastmile_qr_scan"}, "is_disabled": 0, "type": "electric_scooter", "is_reserved": 0, "name": "e53861fa90814698b8a0bfe3beeab57f", "lon": -77.07147783333333, "bike_id": "e53861fa90814698b8a0bfe3beeab57f", "lat": 38.9077475}, {"fusion_lon": 0.0, "fusion_lat": 0.0, "rental_uris": {"android": "https://dc.lft.to/lastmile_qr_scan", "ios": "https://dc.lft.to/lastmile_qr_scan"}, "is_disabled": 0, "type": "electric_scooter", "is_reserved": 0, "name": "e8894c58406b799131c48b46d911a5e6", "lon": -77.042991, "bike_id": "e8894c58406b799131c48b46d911a5e6", "lat": 38.92258133333333}, {"fusion_lon": 0.0, "fusion_lat": 0.0, "rental_uris": {"android": "https://dc.lft.to/lastmile_qr_scan", "ios": "https://dc.lft.to/lastmile_qr_scan"}, "is_disabled": 0, "type": "electric_scooter", "is_reserved": 0, "name": "caff29a9d9d089c20bc00e3fb2b34fac", "lon": -77.063759, "bike_id": "caff29a9d9d089c20bc00e3fb2b34fac", "lat": 38.9080815}, {"fusion_lon": 0.0, "fusion_lat": 0.0, "rental_uris": {"android": "https://dc.lft.to/lastmile_qr_scan", "ios": "https://dc.lft.to/lastmile_qr_scan"}, "is_disabled": 0, "type": "electric_scooter", "is_reserved": 0, "name": "341b73deaea55549f4d885dbe5d3a25c", "lon": -76.93602583333333, "bike_id": "341b73deaea55549f4d885dbe5d3a25c", "lat": 38.909446}, {"fusion_lon": 0.0, "fusion_lat": 0.0, "rental_uris": {"android": "https://dc.lft.to/lastmile_qr_scan", "ios": "https://dc.lft.to/lastmile_qr_scan"}, "is_disabled": 0, "type": "electric_scooter", "is_reserved": 0, "name": "caee62e817873c8cbd409cde28a4c278", "lon": -77.02041533333333, "bike_id": "caee62e817873c8cbd409cde28a4c278", "lat": 38.924161833333336}, {"fusion_lon": 0.0, "fusion_lat": 0.0, "rental_uris": {"android": "https://dc.lft.to/lastmile_qr_scan", "ios": "https://dc.lft.to/lastmile_qr_scan"}, "is_disabled": 0, "type": "electric_scooter", "is_reserved": 0, "name": "41768924f8512c8238c0556ba362716b", "lon": -77.0312815, "bike_id": "41768924f8512c8238c0556ba362716b", "lat": 38.920182}, {"fusion_lon": 0.0, "fusion_lat": 0.0, "rental_uris": {"android": "https://dc.lft.to/lastmile_qr_scan", "ios": "https://dc.lft.to/lastmile_qr_scan"}, "is_disabled": 0, "type": "electric_scooter", "is_reserved": 0, "name": "2e3b799ae5f92f59b63ca70b5e845829", "lon": -77.012571, "bike_id": "2e3b799ae5f92f59b63ca70b5e845829", "lat": 38.94329033333333}, {"fusion_lon": 0.0, "fusion_lat": 0.0, "rental_uris": {"android": "https://dc.lft.to/lastmile_qr_scan", "ios": "https://dc.lft.to/lastmile_qr_scan"}, "is_disabled": 0, "type": "electric_scooter", "is_reserved": 0, "name": "ff02f62c8761f91740ead14f33331170", "lon": -77.03192816666666, "bike_id": "ff02f62c8761f91740ead14f33331170", "lat": 38.8995515}, {"fusion_lon": 0.0, "fusion_lat": 0.0, "rental_uris": {"android": "https://dc.lft.to/lastmile_qr_scan", "ios": "https://dc.lft.to/lastmile_qr_scan"}, "is_disabled": 0, "type": "electric_scooter", "is_reserved": 0, "name": "f259e6c8e01e0fb4129e6f73eb25f761", "lon": -77.0221315, "bike_id": "f259e6c8e01e0fb4129e6f73eb25f761", "lat": 38.9247725}, {"fusion_lon": 0.0, "fusion_lat": 0.0, "rental_uris": {"android": "https://dc.lft.to/lastmile_qr_scan", "ios": "https://dc.lft.to/lastmile_qr_scan"}, "is_disabled": 0, "type": "electric_scooter", "is_reserved": 0, "name": "1011b663648d5e49ab568d43aff4040c", "lon": -77.01792383333333, "bike_id": "1011b663648d5e49ab568d43aff4040c", "lat": 38.91916883333333}, {"fusion_lon": 0.0, "fusion_lat": 0.0, "rental_uris": {"android": "https://dc.lft.to/lastmile_qr_scan", "ios": "https://dc.lft.to/lastmile_qr_scan"}, "is_disabled": 0, "type": "electric_scooter", "is_reserved": 0, "name": "eeacc525c2a8ca2bf30a148e807461db", "lon": -77.04870116666666, "bike_id": "eeacc525c2a8ca2bf30a148e807461db", "lat": 38.892206333333334}, {"fusion_lon": 0.0, "fusion_lat": 0.0, "rental_uris": {"android": "https://dc.lft.to/lastmile_qr_scan", "ios": "https://dc.lft.to/lastmile_qr_scan"}, "is_disabled": 0, "type": "electric_scooter", "is_reserved": 0, "name": "7d0aa2afd0f43ad9d37cfb359da76a6d", "lon": -77.01790766666667, "bike_id": "7d0aa2afd0f43ad9d37cfb359da76a6d", "lat": 38.919209333333335}, {"fusion_lon": 0.0, "fusion_lat": 0.0, "rental_uris": {"android": "https://dc.lft.to/lastmile_qr_scan", "ios": "https://dc.lft.to/lastmile_qr_scan"}, "is_disabled": 0, "type": "electric_scooter", "is_reserved": 0, "name": "879351ef3ba219c347db79af08338985", "lon": -77.02383883333333, "bike_id": "879351ef3ba219c347db79af08338985", "lat": 38.952694666666666}, {"fusion_lon": 0.0, "fusion_lat": 0.0, "rental_uris": {"android": "https://dc.lft.to/lastmile_qr_scan", "ios": "https://dc.lft.to/lastmile_qr_scan"}, "is_disabled": 0, "type": "electric_scooter", "is_reserved": 0, "name": "dab014219d54374f70748320ced84a92", "lon": -77.06280816666667, "bike_id": "dab014219d54374f70748320ced84a92", "lat": 38.90573766666667}, {"fusion_lon": 0.0, "fusion_lat": 0.0, "rental_uris": {"android": "https://dc.lft.to/lastmile_qr_scan", "ios": "https://dc.lft.to/lastmile_qr_scan"}, "is_disabled": 0, "type": "electric_scooter", "is_reserved": 0, "name": "40cce0aabd2599c1cab9178471aa8cf2", "lon": -77.06483966666667, "bike_id": "40cce0aabd2599c1cab9178471aa8cf2", "lat": 38.923835}, {"fusion_lon": 0.0, "fusion_lat": 0.0, "rental_uris": {"android": "https://dc.lft.to/lastmile_qr_scan", "ios": "https://dc.lft.to/lastmile_qr_scan"}, "is_disabled": 0, "type": "electric_scooter", "is_reserved": 0, "name": "fb5489dfa2a92729bd6c199e2a3888d6", "lon": -77.03383516666666, "bike_id": "fb5489dfa2a92729bd6c199e2a3888d6", "lat": 38.921648166666664}, {"fusion_lon": 0.0, "fusion_lat": 0.0, "rental_uris": {"android": "https://dc.lft.to/lastmile_qr_scan", "ios": "https://dc.lft.to/lastmile_qr_scan"}, "is_disabled": 0, "type": "electric_scooter", "is_reserved": 0, "name": "ca2f171bbeff8812511c531272eed0bc", "lon": -77.03303, "bike_id": "ca2f171bbeff8812511c531272eed0bc", "lat": 38.92747966666667}, {"fusion_lon": 0.0, "fusion_lat": 0.0, "rental_uris": {"android": "https://dc.lft.to/lastmile_qr_scan", "ios": "https://dc.lft.to/lastmile_qr_scan"}, "is_disabled": 0, "type": "electric_scooter", "is_reserved": 0, "name": "43b2d36bbdf300f692269d6ba8f1e73a", "lon": -77.00293316666666, "bike_id": "43b2d36bbdf300f692269d6ba8f1e73a", "lat": 38.891902}, {"fusion_lon": 0.0, "fusion_lat": 0.0, "rental_uris": {"android": "https://dc.lft.to/lastmile_qr_scan", "ios": "https://dc.lft.to/lastmile_qr_scan"}, "is_disabled": 0, "type": "electric_scooter", "is_reserved": 0, "name": "7f28f805469ae5c5ae2a684c6fd4a8b2", "lon": -77.03934683333334, "bike_id": "7f28f805469ae5c5ae2a684c6fd4a8b2", "lat": 38.89914066666667}, {"fusion_lon": 0.0, "fusion_lat": 0.0, "rental_uris": {"android": "https://dc.lft.to/lastmile_qr_scan", "ios": "https://dc.lft.to/lastmile_qr_scan"}, "is_disabled": 0, "type": "electric_scooter", "is_reserved": 0, "name": "0fc561b2bf85b129a371136c55ead194", "lon": -77.0547655, "bike_id": "0fc561b2bf85b129a371136c55ead194", "lat": 38.897307166666664}, {"fusion_lon": 0.0, "fusion_lat": 0.0, "rental_uris": {"android": "https://dc.lft.to/lastmile_qr_scan", "ios": "https://dc.lft.to/lastmile_qr_scan"}, "is_disabled": 0, "type": "electric_scooter", "is_reserved": 0, "name": "e275f13385e1f89c3b720e37f5310085", "lon": -77.03152533333333, "bike_id": "e275f13385e1f89c3b720e37f5310085", "lat": 38.92790733333333}, {"fusion_lon": 0.0, "fusion_lat": 0.0, "rental_uris": {"android": "https://dc.lft.to/lastmile_qr_scan", "ios": "https://dc.lft.to/lastmile_qr_scan"}, "is_disabled": 0, "type": "electric_scooter", "is_reserved": 0, "name": "9c0e57f8e02ae754725fce1cf74e10c4", "lon": -77.02495316666666, "bike_id": "9c0e57f8e02ae754725fce1cf74e10c4", "lat": 38.880135833333334}, {"fusion_lon": 0.0, "fusion_lat": 0.0, "rental_uris": {"android": "https://dc.lft.to/lastmile_qr_scan", "ios": "https://dc.lft.to/lastmile_qr_scan"}, "is_disabled": 0, "type": "electric_scooter", "is_reserved": 0, "name": "57d79fb373cf88f386f92b9326f47fac", "lon": -77.03856866666666, "bike_id": "57d79fb373cf88f386f92b9326f47fac", "lat": 38.90386733333333}, {"fusion_lon": 0.0, "fusion_lat": 0.0, "rental_uris": {"android": "https://dc.lft.to/lastmile_qr_scan", "ios": "https://dc.lft.to/lastmile_qr_scan"}, "is_disabled": 0, "type": "electric_scooter", "is_reserved": 0, "name": "474ef802f653dc108abed5bd939af6e7", "lon": -77.03201033333333, "bike_id": "474ef802f653dc108abed5bd939af6e7", "lat": 38.9078385}, {"fusion_lon": 0.0, "fusion_lat": 0.0, "rental_uris": {"android": "https://dc.lft.to/lastmile_qr_scan", "ios": "https://dc.lft.to/lastmile_qr_scan"}, "is_disabled": 0, "type": "electric_scooter", "is_reserved": 0, "name": "04d2628180fd758c488e4cfde67eb870", "lon": -77.017245, "bike_id": "04d2628180fd758c488e4cfde67eb870", "lat": 38.90731266666667}, {"fusion_lon": 0.0, "fusion_lat": 0.0, "rental_uris": {"android": "https://dc.lft.to/lastmile_qr_scan", "ios": "https://dc.lft.to/lastmile_qr_scan"}, "is_disabled": 0, "type": "electric_scooter", "is_reserved": 0, "name": "68523ee2a0ffce8d2d4428280874204d", "lon": -77.04471933333333, "bike_id": "68523ee2a0ffce8d2d4428280874204d", "lat": 38.89425083333333}, {"fusion_lon": 0.0, "fusion_lat": 0.0, "rental_uris": {"android": "https://dc.lft.to/lastmile_qr_scan", "ios": "https://dc.lft.to/lastmile_qr_scan"}, "is_disabled": 0, "type": "electric_scooter", "is_reserved": 0, "name": "4ee5846b9bf1636e70b07a5fe5404441", "lon": -77.04450066666666, "bike_id": "4ee5846b9bf1636e70b07a5fe5404441", "lat": 38.89606833333333}, {"fusion_lon": 0.0, "fusion_lat": 0.0, "rental_uris": {"android": "https://dc.lft.to/lastmile_qr_scan", "ios": "https://dc.lft.to/lastmile_qr_scan"}, "is_disabled": 0, "type": "electric_scooter", "is_reserved": 0, "name": "622b16045c1399d58a47434be6e671d4", "lon": -77.0019635, "bike_id": "622b16045c1399d58a47434be6e671d4", "lat": 38.90033733333333}, {"fusion_lon": 0.0, "fusion_lat": 0.0, "rental_uris": {"android": "https://dc.lft.to/lastmile_qr_scan", "ios": "https://dc.lft.to/lastmile_qr_scan"}, "is_disabled": 0, "type": "electric_scooter", "is_reserved": 0, "name": "24a2e90b5e579c9056b8b2bd54c1ae08", "lon": -77.028489, "bike_id": "24a2e90b5e579c9056b8b2bd54c1ae08", "lat": 38.9419435}, {"fusion_lon": 0.0, "fusion_lat": 0.0, "rental_uris": {"android": "https://dc.lft.to/lastmile_qr_scan", "ios": "https://dc.lft.to/lastmile_qr_scan"}, "is_disabled": 0, "type": "electric_scooter", "is_reserved": 0, "name": "42de9dddad0ecf83fdc53bec5d5a8a8f", "lon": -77.02115283333333, "bike_id": "42de9dddad0ecf83fdc53bec5d5a8a8f", "lat": 38.923591333333334}, {"fusion_lon": 0.0, "fusion_lat": 0.0, "rental_uris": {"android": "https://dc.lft.to/lastmile_qr_scan", "ios": "https://dc.lft.to/lastmile_qr_scan"}, "is_disabled": 0, "type": "electric_scooter", "is_reserved": 0, "name": "73963edc210020f2f8570185885f5fc2", "lon": -77.0215885, "bike_id": "73963edc210020f2f8570185885f5fc2", "lat": 38.9260175}, {"fusion_lon": 0.0, "fusion_lat": 0.0, "rental_uris": {"android": "https://dc.lft.to/lastmile_qr_scan", "ios": "https://dc.lft.to/lastmile_qr_scan"}, "is_disabled": 0, "type": "electric_scooter", "is_reserved": 0, "name": "3559e33ece445a738979dd09fef77cda", "lon": -76.9733105, "bike_id": "3559e33ece445a738979dd09fef77cda", "lat": 38.904099}, {"fusion_lon": 0.0, "fusion_lat": 0.0, "rental_uris": {"android": "https://dc.lft.to/lastmile_qr_scan", "ios": "https://dc.lft.to/lastmile_qr_scan"}, "is_disabled": 0, "type": "electric_scooter", "is_reserved": 0, "name": "e824cc1d914c4542aff1595d7bb5bbea", "lon": -76.986153, "bike_id": "e824cc1d914c4542aff1595d7bb5bbea", "lat": 38.90347966666667}, {"fusion_lon": 0.0, "fusion_lat": 0.0, "rental_uris": {"android": "https://dc.lft.to/lastmile_qr_scan", "ios": "https://dc.lft.to/lastmile_qr_scan"}, "is_disabled": 0, "type": "electric_scooter", "is_reserved": 0, "name": "10941bfa91caee5d68124948d3ee1784", "lon": -77.00535, "bike_id": "10941bfa91caee5d68124948d3ee1784", "lat": 38.875424833333334}, {"fusion_lon": 0.0, "fusion_lat": 0.0, "rental_uris": {"android": "https://dc.lft.to/lastmile_qr_scan", "ios": "https://dc.lft.to/lastmile_qr_scan"}, "is_disabled": 0, "type": "electric_scooter", "is_reserved": 0, "name": "a3c7f3406f2ae3b10ba0bb78b86da68c", "lon": -77.064079, "bike_id": "a3c7f3406f2ae3b10ba0bb78b86da68c", "lat": 38.9443625}, {"fusion_lon": 0.0, "fusion_lat": 0.0, "rental_uris": {"android": "https://dc.lft.to/lastmile_qr_scan", "ios": "https://dc.lft.to/lastmile_qr_scan"}, "is_disabled": 0, "type": "electric_scooter", "is_reserved": 0, "name": "d56dc527556820bed54e177cf9290264", "lon": -77.04011433333334, "bike_id": "d56dc527556820bed54e177cf9290264", "lat": 38.92178283333333}, {"fusion_lon": 0.0, "fusion_lat": 0.0, "rental_uris": {"android": "https://dc.lft.to/lastmile_qr_scan", "ios": "https://dc.lft.to/lastmile_qr_scan"}, "is_disabled": 0, "type": "electric_scooter", "is_reserved": 0, "name": "6895fa762cac1bd6df6ece6392fa3d5f", "lon": -76.98314916666666, "bike_id": "6895fa762cac1bd6df6ece6392fa3d5f", "lat": 38.903145333333335}, {"fusion_lon": 0.0, "fusion_lat": 0.0, "rental_uris": {"android": "https://dc.lft.to/lastmile_qr_scan", "ios": "https://dc.lft.to/lastmile_qr_scan"}, "is_disabled": 0, "type": "electric_scooter", "is_reserved": 0, "name": "f2aad6227f48dd04a35b9f12f2d9d019", "lon": -76.97729216666667, "bike_id": "f2aad6227f48dd04a35b9f12f2d9d019", "lat": 38.8724195}, {"fusion_lon": 0.0, "fusion_lat": 0.0, "rental_uris": {"android": "https://dc.lft.to/lastmile_qr_scan", "ios": "https://dc.lft.to/lastmile_qr_scan"}, "is_disabled": 0, "type": "electric_scooter", "is_reserved": 0, "name": "0fb23e4b9b4be0b60179a6d5216f09b3", "lon": -77.053533, "bike_id": "0fb23e4b9b4be0b60179a6d5216f09b3", "lat": 38.9041685}, {"fusion_lon": 0.0, "fusion_lat": 0.0, "rental_uris": {"android": "https://dc.lft.to/lastmile_qr_scan", "ios": "https://dc.lft.to/lastmile_qr_scan"}, "is_disabled": 0, "type": "electric_scooter", "is_reserved": 0, "name": "ae1794734285a36e25fb7e9cb8859c7a", "lon": -76.99854833333333, "bike_id": "ae1794734285a36e25fb7e9cb8859c7a", "lat": 38.896213333333336}, {"fusion_lon": 0.0, "fusion_lat": 0.0, "rental_uris": {"android": "https://dc.lft.to/lastmile_qr_scan", "ios": "https://dc.lft.to/lastmile_qr_scan"}, "is_disabled": 0, "type": "electric_scooter", "is_reserved": 0, "name": "b3199305bf975188458b56414149bbc5", "lon": -77.029932, "bike_id": "b3199305bf975188458b56414149bbc5", "lat": 38.901381}, {"fusion_lon": 0.0, "fusion_lat": 0.0, "rental_uris": {"android": "https://dc.lft.to/lastmile_qr_scan", "ios": "https://dc.lft.to/lastmile_qr_scan"}, "is_disabled": 0, "type": "electric_scooter", "is_reserved": 0, "name": "9aee47b242349235fcb3ada4757f7acb", "lon": -76.93345183333334, "bike_id": "9aee47b242349235fcb3ada4757f7acb", "lat": 38.8823355}, {"fusion_lon": 0.0, "fusion_lat": 0.0, "rental_uris": {"android": "https://dc.lft.to/lastmile_qr_scan", "ios": "https://dc.lft.to/lastmile_qr_scan"}, "is_disabled": 0, "type": "electric_scooter", "is_reserved": 0, "name": "e41f9fc8a6e3022cdbfd608ab24eb94a", "lon": -77.020655, "bike_id": "e41f9fc8a6e3022cdbfd608ab24eb94a", "lat": 38.893624333333335}, {"fusion_lon": 0.0, "fusion_lat": 0.0, "rental_uris": {"android": "https://dc.lft.to/lastmile_qr_scan", "ios": "https://dc.lft.to/lastmile_qr_scan"}, "is_disabled": 0, "type": "electric_scooter", "is_reserved": 0, "name": "ce25eeeebd139438b8b73e9d6a5dbe16", "lon": -76.93208566666667, "bike_id": "ce25eeeebd139438b8b73e9d6a5dbe16", "lat": 38.8984935}, {"fusion_lon": 0.0, "fusion_lat": 0.0, "rental_uris": {"android": "https://dc.lft.to/lastmile_qr_scan", "ios": "https://dc.lft.to/lastmile_qr_scan"}, "is_disabled": 0, "type": "electric_scooter", "is_reserved": 0, "name": "47319d4b7fd0849daebd1be36ba5ea90", "lon": -77.074355, "bike_id": "47319d4b7fd0849daebd1be36ba5ea90", "lat": 38.935795}, {"fusion_lon": 0.0, "fusion_lat": 0.0, "rental_uris": {"android": "https://dc.lft.to/lastmile_qr_scan", "ios": "https://dc.lft.to/lastmile_qr_scan"}, "is_disabled": 0, "type": "electric_scooter", "is_reserved": 0, "name": "772389ecf78bb189ae69e3e0d4b684c4", "lon": -77.0025615, "bike_id": "772389ecf78bb189ae69e3e0d4b684c4", "lat": 38.91178983333333}, {"fusion_lon": 0.0, "fusion_lat": 0.0, "rental_uris": {"android": "https://dc.lft.to/lastmile_qr_scan", "ios": "https://dc.lft.to/lastmile_qr_scan"}, "is_disabled": 0, "type": "electric_bike", "is_reserved": 0, "name": "188ab2b2731c221e2a4ae4e3cfaa2b45", "lon": -76.94148666666666, "bike_id": "188ab2b2731c221e2a4ae4e3cfaa2b45", "lat": 38.86550066666667}, {"fusion_lon": 0.0, "fusion_lat": 0.0, "rental_uris": {"android": "https://dc.lft.to/lastmile_qr_scan", "ios": "https://dc.lft.to/lastmile_qr_scan"}, "is_disabled": 0, "type": "electric_scooter", "is_reserved": 0, "name": "50a1ef07b71f600903e2d9e76445dae7", "lon": -77.02052216666667, "bike_id": "50a1ef07b71f600903e2d9e76445dae7", "lat": 38.92353466666667}, {"fusion_lon": 0.0, "fusion_lat": 0.0, "rental_uris": {"android": "https://dc.lft.to/lastmile_qr_scan", "ios": "https://dc.lft.to/lastmile_qr_scan"}, "is_disabled": 0, "type": "electric_scooter", "is_reserved": 0, "name": "7241338a52f61710b5f1ce27eb099b43", "lon": -77.07167633333333, "bike_id": "7241338a52f61710b5f1ce27eb099b43", "lat": 38.920079333333334}, {"fusion_lon": 0.0, "fusion_lat": 0.0, "rental_uris": {"android": "https://dc.lft.to/lastmile_qr_scan", "ios": "https://dc.lft.to/lastmile_qr_scan"}, "is_disabled": 0, "type": "electric_scooter", "is_reserved": 0, "name": "cd29216ea55e6f4d6ed7c1008517d039", "lon": -77.020449, "bike_id": "cd29216ea55e6f4d6ed7c1008517d039", "lat": 38.921693}, {"fusion_lon": 0.0, "fusion_lat": 0.0, "rental_uris": {"android": "https://dc.lft.to/lastmile_qr_scan", "ios": "https://dc.lft.to/lastmile_qr_scan"}, "is_disabled": 0, "type": "electric_scooter", "is_reserved": 0, "name": "e7a080aee806732d307e00b800f6379c", "lon": -77.01948783333333, "bike_id": "e7a080aee806732d307e00b800f6379c", "lat": 38.9236265}, {"fusion_lon": 0.0, "fusion_lat": 0.0, "rental_uris": {"android": "https://dc.lft.to/lastmile_qr_scan", "ios": "https://dc.lft.to/lastmile_qr_scan"}, "is_disabled": 0, "type": "electric_scooter", "is_reserved": 0, "name": "ec643e9ec9355346d2e5eea903f72914", "lon": -77.02797133333333, "bike_id": "ec643e9ec9355346d2e5eea903f72914", "lat": 38.91134433333333}, {"fusion_lon": 0.0, "fusion_lat": 0.0, "rental_uris": {"android": "https://dc.lft.to/lastmile_qr_scan", "ios": "https://dc.lft.to/lastmile_qr_scan"}, "is_disabled": 0, "type": "electric_scooter", "is_reserved": 0, "name": "e3dc91665de493279528bf1333bb80b3", "lon": -77.04126033333333, "bike_id": "e3dc91665de493279528bf1333bb80b3", "lat": 38.918881999999996}, {"fusion_lon": 0.0, "fusion_lat": 0.0, "rental_uris": {"android": "https://dc.lft.to/lastmile_qr_scan", "ios": "https://dc.lft.to/lastmile_qr_scan"}, "is_disabled": 0, "type": "electric_scooter", "is_reserved": 0, "name": "470e7836f356162c12424cec6f1d0f84", "lon": -77.0299225, "bike_id": "470e7836f356162c12424cec6f1d0f84", "lat": 38.8993965}, {"fusion_lon": 0.0, "fusion_lat": 0.0, "rental_uris": {"android": "https://dc.lft.to/lastmile_qr_scan", "ios": "https://dc.lft.to/lastmile_qr_scan"}, "is_disabled": 0, "type": "electric_scooter", "is_reserved": 0, "name": "f97f2331ce2602c1b25229b26a4f3677", "lon": -77.01609466666666, "bike_id": "f97f2331ce2602c1b25229b26a4f3677", "lat": 38.91071383333333}, {"fusion_lon": 0.0, "fusion_lat": 0.0, "rental_uris": {"android": "https://dc.lft.to/lastmile_qr_scan", "ios": "https://dc.lft.to/lastmile_qr_scan"}, "is_disabled": 0, "type": "electric_scooter", "is_reserved": 0, "name": "fd9de481b775e766332b736ae772ee40", "lon": -77.02160283333333, "bike_id": "fd9de481b775e766332b736ae772ee40", "lat": 38.9260805}, {"fusion_lon": 0.0, "fusion_lat": 0.0, "rental_uris": {"android": "https://dc.lft.to/lastmile_qr_scan", "ios": "https://dc.lft.to/lastmile_qr_scan"}, "is_disabled": 0, "type": "electric_bike", "is_reserved": 0, "name": "6f051013a84800f77e0420e5963f17af", "lon": -77.053702, "bike_id": "6f051013a84800f77e0420e5963f17af", "lat": 38.820396833333334}, {"fusion_lon": 0.0, "fusion_lat": 0.0, "rental_uris": {"android": "https://dc.lft.to/lastmile_qr_scan", "ios": "https://dc.lft.to/lastmile_qr_scan"}, "is_disabled": 0, "type": "electric_scooter", "is_reserved": 0, "name": "17fe19fc001a443401807f0e04185ff3", "lon": -77.032629, "bike_id": "17fe19fc001a443401807f0e04185ff3", "lat": 38.92759816666667}, {"fusion_lon": 0.0, "fusion_lat": 0.0, "rental_uris": {"android": "https://dc.lft.to/lastmile_qr_scan", "ios": "https://dc.lft.to/lastmile_qr_scan"}, "is_disabled": 0, "type": "electric_scooter", "is_reserved": 0, "name": "63bb35ac077f785245204fabd775dfc1", "lon": -77.00434016666667, "bike_id": "63bb35ac077f785245204fabd775dfc1", "lat": 38.87705483333333}, {"fusion_lon": 0.0, "fusion_lat": 0.0, "rental_uris": {"android": "https://dc.lft.to/lastmile_qr_scan", "ios": "https://dc.lft.to/lastmile_qr_scan"}, "is_disabled": 0, "type": "electric_scooter", "is_reserved": 0, "name": "a5cb9ddb14f5e8d541c0b0b2adf23d75", "lon": -77.02163916666667, "bike_id": "a5cb9ddb14f5e8d541c0b0b2adf23d75", "lat": 38.926082}, {"fusion_lon": 0.0, "fusion_lat": 0.0, "rental_uris": {"android": "https://dc.lft.to/lastmile_qr_scan", "ios": "https://dc.lft.to/lastmile_qr_scan"}, "is_disabled": 0, "type": "electric_scooter", "is_reserved": 0, "name": "96373b4feeb58a250a5e8bcd6bf03790", "lon": -77.06227533333333, "bike_id": "96373b4feeb58a250a5e8bcd6bf03790", "lat": 38.90524116666667}, {"fusion_lon": 0.0, "fusion_lat": 0.0, "rental_uris": {"android": "https://dc.lft.to/lastmile_qr_scan", "ios": "https://dc.lft.to/lastmile_qr_scan"}, "is_disabled": 0, "type": "electric_scooter", "is_reserved": 0, "name": "006ea832668c5d3dc71735fd6fc2d32b", "lon": -77.01953516666667, "bike_id": "006ea832668c5d3dc71735fd6fc2d32b", "lat": 38.923677833333336}, {"fusion_lon": 0.0, "fusion_lat": 0.0, "rental_uris": {"android": "https://dc.lft.to/lastmile_qr_scan", "ios": "https://dc.lft.to/lastmile_qr_scan"}, "is_disabled": 0, "type": "electric_scooter", "is_reserved": 0, "name": "289ef6a1bcb46db9027306990219c6b2", "lon": -77.04034866666667, "bike_id": "289ef6a1bcb46db9027306990219c6b2", "lat": 38.90134483333333}, {"fusion_lon": 0.0, "fusion_lat": 0.0, "rental_uris": {"android": "https://dc.lft.to/lastmile_qr_scan", "ios": "https://dc.lft.to/lastmile_qr_scan"}, "is_disabled": 0, "type": "electric_scooter", "is_reserved": 0, "name": "b6b8e8e5547c8b17f9db11f2b968dc43", "lon": -77.037314, "bike_id": "b6b8e8e5547c8b17f9db11f2b968dc43", "lat": 38.92656516666667}, {"fusion_lon": 0.0, "fusion_lat": 0.0, "rental_uris": {"android": "https://dc.lft.to/lastmile_qr_scan", "ios": "https://dc.lft.to/lastmile_qr_scan"}, "is_disabled": 0, "type": "electric_scooter", "is_reserved": 0, "name": "a3e7e51bdfc7c79ee6f8be6e5f91a67a", "lon": -77.01225583333333, "bike_id": "a3e7e51bdfc7c79ee6f8be6e5f91a67a", "lat": 38.9147525}, {"fusion_lon": 0.0, "fusion_lat": 0.0, "rental_uris": {"android": "https://dc.lft.to/lastmile_qr_scan", "ios": "https://dc.lft.to/lastmile_qr_scan"}, "is_disabled": 0, "type": "electric_scooter", "is_reserved": 0, "name": "90c94a8db97f21396ce10e676f0049d4", "lon": -77.02021083333334, "bike_id": "90c94a8db97f21396ce10e676f0049d4", "lat": 38.92438516666667}, {"fusion_lon": 0.0, "fusion_lat": 0.0, "rental_uris": {"android": "https://dc.lft.to/lastmile_qr_scan", "ios": "https://dc.lft.to/lastmile_qr_scan"}, "is_disabled": 0, "type": "electric_scooter", "is_reserved": 0, "name": "575b4be45c70321a33f6bf79ff50abd4", "lon": -77.04228666666667, "bike_id": "575b4be45c70321a33f6bf79ff50abd4", "lat": 38.9215185}, {"fusion_lon": 0.0, "fusion_lat": 0.0, "rental_uris": {"android": "https://dc.lft.to/lastmile_qr_scan", "ios": "https://dc.lft.to/lastmile_qr_scan"}, "is_disabled": 0, "type": "electric_scooter", "is_reserved": 0, "name": "f6bdaa289f0c5e20dc882e5183be67c9", "lon": -77.02529233333334, "bike_id": "f6bdaa289f0c5e20dc882e5183be67c9", "lat": 38.918132666666665}, {"fusion_lon": 0.0, "fusion_lat": 0.0, "rental_uris": {"android": "https://dc.lft.to/lastmile_qr_scan", "ios": "https://dc.lft.to/lastmile_qr_scan"}, "is_disabled": 0, "type": "electric_scooter", "is_reserved": 0, "name": "6f3dda519b4ab37536f340127c82daa0", "lon": -76.92585166666667, "bike_id": "6f3dda519b4ab37536f340127c82daa0", "lat": 38.89729066666666}, {"fusion_lon": 0.0, "fusion_lat": 0.0, "rental_uris": {"android": "https://dc.lft.to/lastmile_qr_scan", "ios": "https://dc.lft.to/lastmile_qr_scan"}, "is_disabled": 0, "type": "electric_bike", "is_reserved": 0, "name": "b6016a24e7c68541119ac3a37272bd81", "lon": -76.99535033333333, "bike_id": "b6016a24e7c68541119ac3a37272bd81", "lat": 38.884118666666666}, {"fusion_lon": 0.0, "fusion_lat": 0.0, "rental_uris": {"android": "https://dc.lft.to/lastmile_qr_scan", "ios": "https://dc.lft.to/lastmile_qr_scan"}, "is_disabled": 0, "type": "electric_bike", "is_reserved": 0, "name": "216719c721642635c0855f3b5901d391", "lon": -76.98722566666666, "bike_id": "216719c721642635c0855f3b5901d391", "lat": 38.863288833333336}, {"fusion_lon": 0.0, "fusion_lat": 0.0, "rental_uris": {"android": "https://dc.lft.to/lastmile_qr_scan", "ios": "https://dc.lft.to/lastmile_qr_scan"}, "is_disabled": 0, "type": "electric_bike", "is_reserved": 0, "name": "1fbf2ce0d95c41129ea1297b20df2508", "lon": -77.12703216666667, "bike_id": "1fbf2ce0d95c41129ea1297b20df2508", "lat": 38.895773}, {"fusion_lon": 0.0, "fusion_lat": 0.0, "rental_uris": {"android": "https://dc.lft.to/lastmile_qr_scan", "ios": "https://dc.lft.to/lastmile_qr_scan"}, "is_disabled": 0, "type": "electric_bike", "is_reserved": 0, "name": "724615f67f9828f23fe1518a851db3cc", "lon": -76.97568083333333, "bike_id": "724615f67f9828f23fe1518a851db3cc", "lat": 38.87262333333334}, {"fusion_lon": 0.0, "fusion_lat": 0.0, "rental_uris": {"android": "https://dc.lft.to/lastmile_qr_scan", "ios": "https://dc.lft.to/lastmile_qr_scan"}, "is_disabled": 0, "type": "electric_scooter", "is_reserved": 0, "name": "c938f1dc1fe1c4ca8046de1a46ccf475", "lon": -77.00354883333333, "bike_id": "c938f1dc1fe1c4ca8046de1a46ccf475", "lat": 38.917637}, {"fusion_lon": 0.0, "fusion_lat": 0.0, "rental_uris": {"android": "https://dc.lft.to/lastmile_qr_scan", "ios": "https://dc.lft.to/lastmile_qr_scan"}, "is_disabled": 0, "type": "electric_bike", "is_reserved": 0, "name": "68eb4dac82b654e89fa651d5b1415c21", "lon": -76.991038, "bike_id": "68eb4dac82b654e89fa651d5b1415c21", "lat": 38.804785833333334}, {"fusion_lon": 0.0, "fusion_lat": 0.0, "rental_uris": {"android": "https://dc.lft.to/lastmile_qr_scan", "ios": "https://dc.lft.to/lastmile_qr_scan"}, "is_disabled": 0, "type": "electric_scooter", "is_reserved": 0, "name": "d5dd6523f3c451e1247964a124484f37", "lon": -77.03194216666667, "bike_id": "d5dd6523f3c451e1247964a124484f37", "lat": 38.9178075}, {"fusion_lon": 0.0, "fusion_lat": 0.0, "rental_uris": {"android": "https://dc.lft.to/lastmile_qr_scan", "ios": "https://dc.lft.to/lastmile_qr_scan"}, "is_disabled": 0, "type": "electric_scooter", "is_reserved": 0, "name": "27426a89408b04740b65d5d842f1f619", "lon": -77.01855166666667, "bike_id": "27426a89408b04740b65d5d842f1f619", "lat": 38.948857833333335}, {"fusion_lon": 0.0, "fusion_lat": 0.0, "rental_uris": {"android": "https://dc.lft.to/lastmile_qr_scan", "ios": "https://dc.lft.to/lastmile_qr_scan"}, "is_disabled": 0, "type": "electric_scooter", "is_reserved": 0, "name": "d60b1bf96b2db5fdb3393b9af6d5cad1", "lon": -77.044653, "bike_id": "d60b1bf96b2db5fdb3393b9af6d5cad1", "lat": 38.90015183333333}, {"fusion_lon": 0.0, "fusion_lat": 0.0, "rental_uris": {"android": "https://dc.lft.to/lastmile_qr_scan", "ios": "https://dc.lft.to/lastmile_qr_scan"}, "is_disabled": 0, "type": "electric_bike", "is_reserved": 0, "name": "2ad78d8b9483ad1fd138a079a8c0f0a5", "lon": -77.08996833333333, "bike_id": "2ad78d8b9483ad1fd138a079a8c0f0a5", "lat": 38.9090205}, {"fusion_lon": 0.0, "fusion_lat": 0.0, "rental_uris": {"android": "https://dc.lft.to/lastmile_qr_scan", "ios": "https://dc.lft.to/lastmile_qr_scan"}, "is_disabled": 0, "type": "electric_scooter", "is_reserved": 0, "name": "6c079e72ac60c7a3a75af399ec1603fe", "lon": -77.0344855, "bike_id": "6c079e72ac60c7a3a75af399ec1603fe", "lat": 38.90943933333333}, {"fusion_lon": 0.0, "fusion_lat": 0.0, "rental_uris": {"android": "https://dc.lft.to/lastmile_qr_scan", "ios": "https://dc.lft.to/lastmile_qr_scan"}, "is_disabled": 0, "type": "electric_scooter", "is_reserved": 0, "name": "1a4c5da935478efefbbaec1b815ce837", "lon": -77.07135083333333, "bike_id": "1a4c5da935478efefbbaec1b815ce837", "lat": 38.92022766666667}, {"fusion_lon": 0.0, "fusion_lat": 0.0, "rental_uris": {"android": "https://dc.lft.to/lastmile_qr_scan", "ios": "https://dc.lft.to/lastmile_qr_scan"}, "is_disabled": 0, "type": "electric_bike", "is_reserved": 0, "name": "acb221a1c8b8bc857b7f5e72a2be4f96", "lon": -77.09580483333333, "bike_id": "acb221a1c8b8bc857b7f5e72a2be4f96", "lat": 38.99188016666667}, {"fusion_lon": 0.0, "fusion_lat": 0.0, "rental_uris": {"android": "https://dc.lft.to/lastmile_qr_scan", "ios": "https://dc.lft.to/lastmile_qr_scan"}, "is_disabled": 0, "type": "electric_scooter", "is_reserved": 0, "name": "14963c42963fb64e012e074ec641320f", "lon": -77.03210216666666, "bike_id": "14963c42963fb64e012e074ec641320f", "lat": 38.9026655}, {"fusion_lon": 0.0, "fusion_lat": 0.0, "rental_uris": {"android": "https://dc.lft.to/lastmile_qr_scan", "ios": "https://dc.lft.to/lastmile_qr_scan"}, "is_disabled": 0, "type": "electric_bike", "is_reserved": 0, "name": "8006533769012e21b3b5de732a87c467", "lon": -76.99503183333333, "bike_id": "8006533769012e21b3b5de732a87c467", "lat": 38.87985583333333}, {"fusion_lon": 0.0, "fusion_lat": 0.0, "rental_uris": {"android": "https://dc.lft.to/lastmile_qr_scan", "ios": "https://dc.lft.to/lastmile_qr_scan"}, "is_disabled": 0, "type": "electric_scooter", "is_reserved": 0, "name": "615ba1e62f5176dfde8a5ba7ca4e2854", "lon": -77.03283783333333, "bike_id": "615ba1e62f5176dfde8a5ba7ca4e2854", "lat": 38.947480666666664}, {"fusion_lon": 0.0, "fusion_lat": 0.0, "rental_uris": {"android": "https://dc.lft.to/lastmile_qr_scan", "ios": "https://dc.lft.to/lastmile_qr_scan"}, "is_disabled": 0, "type": "electric_scooter", "is_reserved": 0, "name": "d02685f8a1f822e5ec3bb3b6625ecf69", "lon": -77.029366, "bike_id": "d02685f8a1f822e5ec3bb3b6625ecf69", "lat": 38.94266183333333}, {"fusion_lon": 0.0, "fusion_lat": 0.0, "rental_uris": {"android": "https://dc.lft.to/lastmile_qr_scan", "ios": "https://dc.lft.to/lastmile_qr_scan"}, "is_disabled": 0, "type": "electric_scooter", "is_reserved": 0, "name": "00364cc7afb50e75761e3a89cc0a19d9", "lon": -77.034911, "bike_id": "00364cc7afb50e75761e3a89cc0a19d9", "lat": 38.901174}, {"fusion_lon": 0.0, "fusion_lat": 0.0, "rental_uris": {"android": "https://dc.lft.to/lastmile_qr_scan", "ios": "https://dc.lft.to/lastmile_qr_scan"}, "is_disabled": 0, "type": "electric_scooter", "is_reserved": 0, "name": "d7bfdb071c27f54df9655bc90c354b80", "lon": -76.99395133333333, "bike_id": "d7bfdb071c27f54df9655bc90c354b80", "lat": 38.87635733333333}, {"fusion_lon": 0.0, "fusion_lat": 0.0, "rental_uris": {"android": "https://dc.lft.to/lastmile_qr_scan", "ios": "https://dc.lft.to/lastmile_qr_scan"}, "is_disabled": 0, "type": "electric_scooter", "is_reserved": 0, "name": "3e3b9c30b945f6e378c2119b0026ecab", "lon": -77.033541, "bike_id": "3e3b9c30b945f6e378c2119b0026ecab", "lat": 38.909711333333334}, {"fusion_lon": 0.0, "fusion_lat": 0.0, "rental_uris": {"android": "https://dc.lft.to/lastmile_qr_scan", "ios": "https://dc.lft.to/lastmile_qr_scan"}, "is_disabled": 0, "type": "electric_scooter", "is_reserved": 0, "name": "295c99bebe9cb7c8689872158450c4b8", "lon": -77.0282285, "bike_id": "295c99bebe9cb7c8689872158450c4b8", "lat": 38.92231533333333}, {"fusion_lon": 0.0, "fusion_lat": 0.0, "rental_uris": {"android": "https://dc.lft.to/lastmile_qr_scan", "ios": "https://dc.lft.to/lastmile_qr_scan"}, "is_disabled": 0, "type": "electric_scooter", "is_reserved": 0, "name": "8398fafc8a54b5d6afe319ce5569b621", "lon": -77.01230233333334, "bike_id": "8398fafc8a54b5d6afe319ce5569b621", "lat": 38.90006066666667}, {"fusion_lon": 0.0, "fusion_lat": 0.0, "rental_uris": {"android": "https://dc.lft.to/lastmile_qr_scan", "ios": "https://dc.lft.to/lastmile_qr_scan"}, "is_disabled": 0, "type": "electric_scooter", "is_reserved": 0, "name": "11d207a2e5e17fb5d4da538779e39d61", "lon": -77.01920433333333, "bike_id": "11d207a2e5e17fb5d4da538779e39d61", "lat": 38.92178966666667}, {"fusion_lon": 0.0, "fusion_lat": 0.0, "rental_uris": {"android": "https://dc.lft.to/lastmile_qr_scan", "ios": "https://dc.lft.to/lastmile_qr_scan"}, "is_disabled": 0, "type": "electric_scooter", "is_reserved": 0, "name": "dd7c0184781840aac2b3e46ad1c40e70", "lon": -77.02849216666667, "bike_id": "dd7c0184781840aac2b3e46ad1c40e70", "lat": 38.9448975}, {"fusion_lon": 0.0, "fusion_lat": 0.0, "rental_uris": {"android": "https://dc.lft.to/lastmile_qr_scan", "ios": "https://dc.lft.to/lastmile_qr_scan"}, "is_disabled": 0, "type": "electric_bike", "is_reserved": 0, "name": "6111aa4fa1b8bcfc01d076a10f378331", "lon": -76.9811435, "bike_id": "6111aa4fa1b8bcfc01d076a10f378331", "lat": 38.9456745}, {"fusion_lon": 0.0, "fusion_lat": 0.0, "rental_uris": {"android": "https://dc.lft.to/lastmile_qr_scan", "ios": "https://dc.lft.to/lastmile_qr_scan"}, "is_disabled": 0, "type": "electric_scooter", "is_reserved": 0, "name": "97f9ab137952a71317b1cc2192040c63", "lon": -76.93720866666666, "bike_id": "97f9ab137952a71317b1cc2192040c63", "lat": 38.88658133333333}, {"fusion_lon": 0.0, "fusion_lat": 0.0, "rental_uris": {"android": "https://dc.lft.to/lastmile_qr_scan", "ios": "https://dc.lft.to/lastmile_qr_scan"}, "is_disabled": 0, "type": "electric_scooter", "is_reserved": 0, "name": "94bc17bb5fb58957630ed00bbf23384e", "lon": -77.00916933333333, "bike_id": "94bc17bb5fb58957630ed00bbf23384e", "lat": 38.8955415}, {"fusion_lon": 0.0, "fusion_lat": 0.0, "rental_uris": {"android": "https://dc.lft.to/lastmile_qr_scan", "ios": "https://dc.lft.to/lastmile_qr_scan"}, "is_disabled": 0, "type": "electric_scooter", "is_reserved": 0, "name": "4b31738572b3ec8f7359804f9616efb3", "lon": -77.011869, "bike_id": "4b31738572b3ec8f7359804f9616efb3", "lat": 38.897688}, {"fusion_lon": 0.0, "fusion_lat": 0.0, "rental_uris": {"android": "https://dc.lft.to/lastmile_qr_scan", "ios": "https://dc.lft.to/lastmile_qr_scan"}, "is_disabled": 0, "type": "electric_scooter", "is_reserved": 0, "name": "78958c458619127c4f5ecea906eae322", "lon": -77.01950433333333, "bike_id": "78958c458619127c4f5ecea906eae322", "lat": 38.92251916666667}, {"fusion_lon": 0.0, "fusion_lat": 0.0, "rental_uris": {"android": "https://dc.lft.to/lastmile_qr_scan", "ios": "https://dc.lft.to/lastmile_qr_scan"}, "is_disabled": 0, "type": "electric_scooter", "is_reserved": 0, "name": "41098cfe6a635ab1075412625aa0eec6", "lon": -77.04151883333333, "bike_id": "41098cfe6a635ab1075412625aa0eec6", "lat": 38.919277666666666}, {"fusion_lon": 0.0, "fusion_lat": 0.0, "rental_uris": {"android": "https://dc.lft.to/lastmile_qr_scan", "ios": "https://dc.lft.to/lastmile_qr_scan"}, "is_disabled": 0, "type": "electric_scooter", "is_reserved": 0, "name": "996af8c7dcb8e9f9e98e27c10abfde97", "lon": -77.02204416666666, "bike_id": "996af8c7dcb8e9f9e98e27c10abfde97", "lat": 38.90226833333333}, {"fusion_lon": 0.0, "fusion_lat": 0.0, "rental_uris": {"android": "https://dc.lft.to/lastmile_qr_scan", "ios": "https://dc.lft.to/lastmile_qr_scan"}, "is_disabled": 0, "type": "electric_scooter", "is_reserved": 0, "name": "a0f753c4e734d809c709477e77cee617", "lon": -77.0230715, "bike_id": "a0f753c4e734d809c709477e77cee617", "lat": 38.91976433333333}, {"fusion_lon": 0.0, "fusion_lat": 0.0, "rental_uris": {"android": "https://dc.lft.to/lastmile_qr_scan", "ios": "https://dc.lft.to/lastmile_qr_scan"}, "is_disabled": 0, "type": "electric_scooter", "is_reserved": 0, "name": "78d88f2fbf6db3ea44274cdc5674e6b1", "lon": -77.02524033333333, "bike_id": "78d88f2fbf6db3ea44274cdc5674e6b1", "lat": 38.909575333333336}, {"fusion_lon": 0.0, "fusion_lat": 0.0, "rental_uris": {"android": "https://dc.lft.to/lastmile_qr_scan", "ios": "https://dc.lft.to/lastmile_qr_scan"}, "is_disabled": 0, "type": "electric_scooter", "is_reserved": 0, "name": "58a6485a42ace5d4d05395c7ca3eb1a0", "lon": -77.04089533333334, "bike_id": "58a6485a42ace5d4d05395c7ca3eb1a0", "lat": 38.917039}, {"fusion_lon": 0.0, "fusion_lat": 0.0, "rental_uris": {"android": "https://dc.lft.to/lastmile_qr_scan", "ios": "https://dc.lft.to/lastmile_qr_scan"}, "is_disabled": 0, "type": "electric_scooter", "is_reserved": 0, "name": "498cbc37d40ba9519bd04181dfde04cf", "lon": -77.02429416666666, "bike_id": "498cbc37d40ba9519bd04181dfde04cf", "lat": 38.96790216666667}, {"fusion_lon": 0.0, "fusion_lat": 0.0, "rental_uris": {"android": "https://dc.lft.to/lastmile_qr_scan", "ios": "https://dc.lft.to/lastmile_qr_scan"}, "is_disabled": 0, "type": "electric_scooter", "is_reserved": 0, "name": "9a159b62cae515b5dc83bfc00facfa45", "lon": -77.00786983333333, "bike_id": "9a159b62cae515b5dc83bfc00facfa45", "lat": 38.907553}, {"fusion_lon": 0.0, "fusion_lat": 0.0, "rental_uris": {"android": "https://dc.lft.to/lastmile_qr_scan", "ios": "https://dc.lft.to/lastmile_qr_scan"}, "is_disabled": 0, "type": "electric_scooter", "is_reserved": 0, "name": "0376856132adf0536d6502732114d300", "lon": -77.03888216666667, "bike_id": "0376856132adf0536d6502732114d300", "lat": 38.920339166666665}, {"fusion_lon": 0.0, "fusion_lat": 0.0, "rental_uris": {"android": "https://dc.lft.to/lastmile_qr_scan", "ios": "https://dc.lft.to/lastmile_qr_scan"}, "is_disabled": 0, "type": "electric_scooter", "is_reserved": 0, "name": "5fe92a89e2ae4e6f002da00052830513", "lon": -77.0045815, "bike_id": "5fe92a89e2ae4e6f002da00052830513", "lat": 38.92078866666667}, {"fusion_lon": 0.0, "fusion_lat": 0.0, "rental_uris": {"android": "https://dc.lft.to/lastmile_qr_scan", "ios": "https://dc.lft.to/lastmile_qr_scan"}, "is_disabled": 0, "type": "electric_scooter", "is_reserved": 0, "name": "d99be8bb76a58a8baf454ab095305b36", "lon": -77.02391083333333, "bike_id": "d99be8bb76a58a8baf454ab095305b36", "lat": 38.90574016666667}, {"fusion_lon": 0.0, "fusion_lat": 0.0, "rental_uris": {"android": "https://dc.lft.to/lastmile_qr_scan", "ios": "https://dc.lft.to/lastmile_qr_scan"}, "is_disabled": 0, "type": "electric_scooter", "is_reserved": 0, "name": "dc8dcfd1b681e416438ef6af3d275966", "lon": -77.02652, "bike_id": "dc8dcfd1b681e416438ef6af3d275966", "lat": 38.902568333333335}, {"fusion_lon": 0.0, "fusion_lat": 0.0, "rental_uris": {"android": "https://dc.lft.to/lastmile_qr_scan", "ios": "https://dc.lft.to/lastmile_qr_scan"}, "is_disabled": 0, "type": "electric_scooter", "is_reserved": 0, "name": "faab8e5bef53127a1a167233ceca2f10", "lon": -76.9833585, "bike_id": "faab8e5bef53127a1a167233ceca2f10", "lat": 38.8954425}, {"fusion_lon": 0.0, "fusion_lat": 0.0, "rental_uris": {"android": "https://dc.lft.to/lastmile_qr_scan", "ios": "https://dc.lft.to/lastmile_qr_scan"}, "is_disabled": 0, "type": "electric_scooter", "is_reserved": 0, "name": "46932d6c7de9c09813b48c952418b347", "lon": -77.03274483333334, "bike_id": "46932d6c7de9c09813b48c952418b347", "lat": 38.93668866666667}, {"fusion_lon": 0.0, "fusion_lat": 0.0, "rental_uris": {"android": "https://dc.lft.to/lastmile_qr_scan", "ios": "https://dc.lft.to/lastmile_qr_scan"}, "is_disabled": 0, "type": "electric_scooter", "is_reserved": 0, "name": "d4ceb17972c28f6d33e328c4285bac32", "lon": -77.02129866666667, "bike_id": "d4ceb17972c28f6d33e328c4285bac32", "lat": 38.91597016666667}, {"fusion_lon": 0.0, "fusion_lat": 0.0, "rental_uris": {"android": "https://dc.lft.to/lastmile_qr_scan", "ios": "https://dc.lft.to/lastmile_qr_scan"}, "is_disabled": 0, "type": "electric_bike", "is_reserved": 0, "name": "64f2a06090b2671b96853d713a9fa9a4", "lon": -77.04646216666667, "bike_id": "64f2a06090b2671b96853d713a9fa9a4", "lat": 38.81544566666667}, {"fusion_lon": 0.0, "fusion_lat": 0.0, "rental_uris": {"android": "https://dc.lft.to/lastmile_qr_scan", "ios": "https://dc.lft.to/lastmile_qr_scan"}, "is_disabled": 0, "type": "electric_scooter", "is_reserved": 0, "name": "7b41faa2c3f4a857d5fe6e704ed1e316", "lon": -77.02134016666666, "bike_id": "7b41faa2c3f4a857d5fe6e704ed1e316", "lat": 38.9311385}, {"fusion_lon": 0.0, "fusion_lat": 0.0, "rental_uris": {"android": "https://dc.lft.to/lastmile_qr_scan", "ios": "https://dc.lft.to/lastmile_qr_scan"}, "is_disabled": 0, "type": "electric_scooter", "is_reserved": 0, "name": "16f8dcbb14a176b0cba0a5dc90302a5d", "lon": -77.01146, "bike_id": "16f8dcbb14a176b0cba0a5dc90302a5d", "lat": 38.914820666666664}, {"fusion_lon": 0.0, "fusion_lat": 0.0, "rental_uris": {"android": "https://dc.lft.to/lastmile_qr_scan", "ios": "https://dc.lft.to/lastmile_qr_scan"}, "is_disabled": 0, "type": "electric_scooter", "is_reserved": 0, "name": "767dbccc5d6fd48652f2cd6d7ffdc98f", "lon": -77.046767, "bike_id": "767dbccc5d6fd48652f2cd6d7ffdc98f", "lat": 38.893651}, {"fusion_lon": 0.0, "fusion_lat": 0.0, "rental_uris": {"android": "https://dc.lft.to/lastmile_qr_scan", "ios": "https://dc.lft.to/lastmile_qr_scan"}, "is_disabled": 0, "type": "electric_bike", "is_reserved": 0, "name": "5b9bd9a00a8479593fc262d5d36846fe", "lon": -77.01257516666666, "bike_id": "5b9bd9a00a8479593fc262d5d36846fe", "lat": 38.864622}, {"fusion_lon": 0.0, "fusion_lat": 0.0, "rental_uris": {"android": "https://dc.lft.to/lastmile_qr_scan", "ios": "https://dc.lft.to/lastmile_qr_scan"}, "is_disabled": 0, "type": "electric_scooter", "is_reserved": 0, "name": "fcbd923aa39718eea3b512e5944402f1", "lon": -76.98598616666666, "bike_id": "fcbd923aa39718eea3b512e5944402f1", "lat": 38.900298}, {"fusion_lon": 0.0, "fusion_lat": 0.0, "rental_uris": {"android": "https://dc.lft.to/lastmile_qr_scan", "ios": "https://dc.lft.to/lastmile_qr_scan"}, "is_disabled": 0, "type": "electric_scooter", "is_reserved": 0, "name": "a9306c9eff8a119ceb952be4daae6819", "lon": -77.00987733333334, "bike_id": "a9306c9eff8a119ceb952be4daae6819", "lat": 38.89901666666667}, {"fusion_lon": 0.0, "fusion_lat": 0.0, "rental_uris": {"android": "https://dc.lft.to/lastmile_qr_scan", "ios": "https://dc.lft.to/lastmile_qr_scan"}, "is_disabled": 0, "type": "electric_scooter", "is_reserved": 0, "name": "c490ce461870ba79902cd0d0077300cd", "lon": -76.978764, "bike_id": "c490ce461870ba79902cd0d0077300cd", "lat": 38.897148666666666}, {"fusion_lon": 0.0, "fusion_lat": 0.0, "rental_uris": {"android": "https://dc.lft.to/lastmile_qr_scan", "ios": "https://dc.lft.to/lastmile_qr_scan"}, "is_disabled": 0, "type": "electric_scooter", "is_reserved": 0, "name": "78c776f7d0de687c03d69538d51c0c4f", "lon": -77.04494566666666, "bike_id": "78c776f7d0de687c03d69538d51c0c4f", "lat": 38.90010566666667}, {"fusion_lon": 0.0, "fusion_lat": 0.0, "rental_uris": {"android": "https://dc.lft.to/lastmile_qr_scan", "ios": "https://dc.lft.to/lastmile_qr_scan"}, "is_disabled": 0, "type": "electric_scooter", "is_reserved": 0, "name": "78358b4c87a8bd057e49b68ca2aa0730", "lon": -77.0328505, "bike_id": "78358b4c87a8bd057e49b68ca2aa0730", "lat": 38.92262316666667}, {"fusion_lon": 0.0, "fusion_lat": 0.0, "rental_uris": {"android": "https://dc.lft.to/lastmile_qr_scan", "ios": "https://dc.lft.to/lastmile_qr_scan"}, "is_disabled": 0, "type": "electric_scooter", "is_reserved": 0, "name": "f9753c3148a27ccafe5a18605b5537ce", "lon": -77.04870766666667, "bike_id": "f9753c3148a27ccafe5a18605b5537ce", "lat": 38.892171833333336}, {"fusion_lon": 0.0, "fusion_lat": 0.0, "rental_uris": {"android": "https://dc.lft.to/lastmile_qr_scan", "ios": "https://dc.lft.to/lastmile_qr_scan"}, "is_disabled": 0, "type": "electric_scooter", "is_reserved": 0, "name": "3e58463968a278e79ed86c7d30f87602", "lon": -77.0402495, "bike_id": "3e58463968a278e79ed86c7d30f87602", "lat": 38.90023333333333}, {"fusion_lon": 0.0, "fusion_lat": 0.0, "rental_uris": {"android": "https://dc.lft.to/lastmile_qr_scan", "ios": "https://dc.lft.to/lastmile_qr_scan"}, "is_disabled": 0, "type": "electric_scooter", "is_reserved": 0, "name": "51f43c6d4b7e72ea581d15fab59b42d4", "lon": -77.01453583333333, "bike_id": "51f43c6d4b7e72ea581d15fab59b42d4", "lat": 38.879381}, {"fusion_lon": 0.0, "fusion_lat": 0.0, "rental_uris": {"android": "https://dc.lft.to/lastmile_qr_scan", "ios": "https://dc.lft.to/lastmile_qr_scan"}, "is_disabled": 0, "type": "electric_scooter", "is_reserved": 0, "name": "c453770ceefb8c1fb40f8f93052f2f31", "lon": -77.071729, "bike_id": "c453770ceefb8c1fb40f8f93052f2f31", "lat": 38.90693066666667}, {"fusion_lon": 0.0, "fusion_lat": 0.0, "rental_uris": {"android": "https://dc.lft.to/lastmile_qr_scan", "ios": "https://dc.lft.to/lastmile_qr_scan"}, "is_disabled": 0, "type": "electric_scooter", "is_reserved": 0, "name": "77bc02fd00d490744c29d6088ceae9b8", "lon": -77.03208133333334, "bike_id": "77bc02fd00d490744c29d6088ceae9b8", "lat": 38.909232}, {"fusion_lon": 0.0, "fusion_lat": 0.0, "rental_uris": {"android": "https://dc.lft.to/lastmile_qr_scan", "ios": "https://dc.lft.to/lastmile_qr_scan"}, "is_disabled": 0, "type": "electric_scooter", "is_reserved": 0, "name": "864ad86c60edc64a024ea520b36582b6", "lon": -77.003474, "bike_id": "864ad86c60edc64a024ea520b36582b6", "lat": 38.907192333333334}, {"fusion_lon": 0.0, "fusion_lat": 0.0, "rental_uris": {"android": "https://dc.lft.to/lastmile_qr_scan", "ios": "https://dc.lft.to/lastmile_qr_scan"}, "is_disabled": 0, "type": "electric_scooter", "is_reserved": 0, "name": "9929f6169585689aae70d33aa832f4ac", "lon": -77.022303, "bike_id": "9929f6169585689aae70d33aa832f4ac", "lat": 38.91264666666667}, {"fusion_lon": 0.0, "fusion_lat": 0.0, "rental_uris": {"android": "https://dc.lft.to/lastmile_qr_scan", "ios": "https://dc.lft.to/lastmile_qr_scan"}, "is_disabled": 0, "type": "electric_scooter", "is_reserved": 0, "name": "61d7023e0b0d3923acfaa93ea7008a3c", "lon": -77.073435, "bike_id": "61d7023e0b0d3923acfaa93ea7008a3c", "lat": 38.93577}, {"fusion_lon": 0.0, "fusion_lat": 0.0, "rental_uris": {"android": "https://dc.lft.to/lastmile_qr_scan", "ios": "https://dc.lft.to/lastmile_qr_scan"}, "is_disabled": 0, "type": "electric_scooter", "is_reserved": 0, "name": "7566aadfde3a35ad2018b434794272f4", "lon": -77.0640145, "bike_id": "7566aadfde3a35ad2018b434794272f4", "lat": 38.906790666666666}, {"fusion_lon": 0.0, "fusion_lat": 0.0, "rental_uris": {"android": "https://dc.lft.to/lastmile_qr_scan", "ios": "https://dc.lft.to/lastmile_qr_scan"}, "is_disabled": 0, "type": "electric_scooter", "is_reserved": 0, "name": "6691f1c3f69b1e67d117d41cac69365b", "lon": -77.04003966666667, "bike_id": "6691f1c3f69b1e67d117d41cac69365b", "lat": 38.916914166666665}, {"fusion_lon": 0.0, "fusion_lat": 0.0, "rental_uris": {"android": "https://dc.lft.to/lastmile_qr_scan", "ios": "https://dc.lft.to/lastmile_qr_scan"}, "is_disabled": 0, "type": "electric_scooter", "is_reserved": 0, "name": "7a0a265cec7792edc271654ad6e0f389", "lon": -76.99830666666666, "bike_id": "7a0a265cec7792edc271654ad6e0f389", "lat": 38.903604333333334}, {"fusion_lon": 0.0, "fusion_lat": 0.0, "rental_uris": {"android": "https://dc.lft.to/lastmile_qr_scan", "ios": "https://dc.lft.to/lastmile_qr_scan"}, "is_disabled": 0, "type": "electric_scooter", "is_reserved": 0, "name": "9361bf6f71651688b6e2a46ed341849a", "lon": -77.04718383333334, "bike_id": "9361bf6f71651688b6e2a46ed341849a", "lat": 38.899600166666666}, {"fusion_lon": 0.0, "fusion_lat": 0.0, "rental_uris": {"android": "https://dc.lft.to/lastmile_qr_scan", "ios": "https://dc.lft.to/lastmile_qr_scan"}, "is_disabled": 0, "type": "electric_scooter", "is_reserved": 0, "name": "f3ec89529dbe0b5fd94d7109d5dd0737", "lon": -77.02276616666667, "bike_id": "f3ec89529dbe0b5fd94d7109d5dd0737", "lat": 38.90868583333334}, {"fusion_lon": 0.0, "fusion_lat": 0.0, "rental_uris": {"android": "https://dc.lft.to/lastmile_qr_scan", "ios": "https://dc.lft.to/lastmile_qr_scan"}, "is_disabled": 0, "type": "electric_scooter", "is_reserved": 0, "name": "4230349f9446081230724b72c6d79579", "lon": -77.02672483333333, "bike_id": "4230349f9446081230724b72c6d79579", "lat": 38.899723}, {"fusion_lon": 0.0, "fusion_lat": 0.0, "rental_uris": {"android": "https://dc.lft.to/lastmile_qr_scan", "ios": "https://dc.lft.to/lastmile_qr_scan"}, "is_disabled": 0, "type": "electric_scooter", "is_reserved": 0, "name": "8ea9ab7959d88f5e53dc1a82e8ff593e", "lon": -77.02157066666666, "bike_id": "8ea9ab7959d88f5e53dc1a82e8ff593e", "lat": 38.879174}, {"fusion_lon": 0.0, "fusion_lat": 0.0, "rental_uris": {"android": "https://dc.lft.to/lastmile_qr_scan", "ios": "https://dc.lft.to/lastmile_qr_scan"}, "is_disabled": 0, "type": "electric_scooter", "is_reserved": 0, "name": "c9a898524840437ccf9b79d5303209cb", "lon": -77.032355, "bike_id": "c9a898524840437ccf9b79d5303209cb", "lat": 38.92899466666667}, {"fusion_lon": 0.0, "fusion_lat": 0.0, "rental_uris": {"android": "https://dc.lft.to/lastmile_qr_scan", "ios": "https://dc.lft.to/lastmile_qr_scan"}, "is_disabled": 0, "type": "electric_scooter", "is_reserved": 0, "name": "8be4ebb3a10f73c25a7a7aceb109b510", "lon": -77.0270765, "bike_id": "8be4ebb3a10f73c25a7a7aceb109b510", "lat": 38.917735666666665}, {"fusion_lon": 0.0, "fusion_lat": 0.0, "rental_uris": {"android": "https://dc.lft.to/lastmile_qr_scan", "ios": "https://dc.lft.to/lastmile_qr_scan"}, "is_disabled": 0, "type": "electric_scooter", "is_reserved": 0, "name": "0240f77680ba6a55506a6bdc6fa3dc8e", "lon": -77.013644, "bike_id": "0240f77680ba6a55506a6bdc6fa3dc8e", "lat": 38.91327883333334}, {"fusion_lon": 0.0, "fusion_lat": 0.0, "rental_uris": {"android": "https://dc.lft.to/lastmile_qr_scan", "ios": "https://dc.lft.to/lastmile_qr_scan"}, "is_disabled": 0, "type": "electric_scooter", "is_reserved": 0, "name": "9638008c9da8ff703ae8e0d27610ffec", "lon": -76.98486216666667, "bike_id": "9638008c9da8ff703ae8e0d27610ffec", "lat": 38.92030716666667}, {"fusion_lon": 0.0, "fusion_lat": 0.0, "rental_uris": {"android": "https://dc.lft.to/lastmile_qr_scan", "ios": "https://dc.lft.to/lastmile_qr_scan"}, "is_disabled": 0, "type": "electric_scooter", "is_reserved": 0, "name": "f325ce8c485bfcff06d8d21e8f5a6c0b", "lon": -77.02982933333334, "bike_id": "f325ce8c485bfcff06d8d21e8f5a6c0b", "lat": 38.9435325}, {"fusion_lon": 0.0, "fusion_lat": 0.0, "rental_uris": {"android": "https://dc.lft.to/lastmile_qr_scan", "ios": "https://dc.lft.to/lastmile_qr_scan"}, "is_disabled": 0, "type": "electric_scooter", "is_reserved": 0, "name": "46d67565d69ba2cd29807e42c8aacca9", "lon": -77.03782533333333, "bike_id": "46d67565d69ba2cd29807e42c8aacca9", "lat": 38.92776683333334}, {"fusion_lon": 0.0, "fusion_lat": 0.0, "rental_uris": {"android": "https://dc.lft.to/lastmile_qr_scan", "ios": "https://dc.lft.to/lastmile_qr_scan"}, "is_disabled": 0, "type": "electric_scooter", "is_reserved": 0, "name": "0f7086fcc176293c84cdaac611ea3249", "lon": -77.0497445, "bike_id": "0f7086fcc176293c84cdaac611ea3249", "lat": 38.897827}, {"fusion_lon": 0.0, "fusion_lat": 0.0, "rental_uris": {"android": "https://dc.lft.to/lastmile_qr_scan", "ios": "https://dc.lft.to/lastmile_qr_scan"}, "is_disabled": 0, "type": "electric_scooter", "is_reserved": 0, "name": "704767df8abb94380d0ed27dcdf78a8c", "lon": -77.02076183333334, "bike_id": "704767df8abb94380d0ed27dcdf78a8c", "lat": 38.904152}, {"fusion_lon": 0.0, "fusion_lat": 0.0, "rental_uris": {"android": "https://dc.lft.to/lastmile_qr_scan", "ios": "https://dc.lft.to/lastmile_qr_scan"}, "is_disabled": 0, "type": "electric_scooter", "is_reserved": 0, "name": "bafc740e11289a708503bf92f16ac161", "lon": -77.03893283333333, "bike_id": "bafc740e11289a708503bf92f16ac161", "lat": 38.92077183333333}, {"fusion_lon": 0.0, "fusion_lat": 0.0, "rental_uris": {"android": "https://dc.lft.to/lastmile_qr_scan", "ios": "https://dc.lft.to/lastmile_qr_scan"}, "is_disabled": 0, "type": "electric_scooter", "is_reserved": 0, "name": "7a7d1a8788da30570e3ccb0407bfb2ab", "lon": -77.05998516666666, "bike_id": "7a7d1a8788da30570e3ccb0407bfb2ab", "lat": 38.9270905}, {"fusion_lon": 0.0, "fusion_lat": 0.0, "rental_uris": {"android": "https://dc.lft.to/lastmile_qr_scan", "ios": "https://dc.lft.to/lastmile_qr_scan"}, "is_disabled": 0, "type": "electric_scooter", "is_reserved": 0, "name": "d47674a7ee0d1a3086e7401e01749702", "lon": -77.01856933333333, "bike_id": "d47674a7ee0d1a3086e7401e01749702", "lat": 38.973653}, {"fusion_lon": 0.0, "fusion_lat": 0.0, "rental_uris": {"android": "https://dc.lft.to/lastmile_qr_scan", "ios": "https://dc.lft.to/lastmile_qr_scan"}, "is_disabled": 0, "type": "electric_scooter", "is_reserved": 0, "name": "adee3d9d84e2ae3de88ef367ef52a985", "lon": -77.0073695, "bike_id": "adee3d9d84e2ae3de88ef367ef52a985", "lat": 38.876897666666665}, {"fusion_lon": 0.0, "fusion_lat": 0.0, "rental_uris": {"android": "https://dc.lft.to/lastmile_qr_scan", "ios": "https://dc.lft.to/lastmile_qr_scan"}, "is_disabled": 0, "type": "electric_scooter", "is_reserved": 0, "name": "9c18154f5830d5e7ea44b89ead2f6711", "lon": -77.00892, "bike_id": "9c18154f5830d5e7ea44b89ead2f6711", "lat": 38.9232915}, {"fusion_lon": 0.0, "fusion_lat": 0.0, "rental_uris": {"android": "https://dc.lft.to/lastmile_qr_scan", "ios": "https://dc.lft.to/lastmile_qr_scan"}, "is_disabled": 0, "type": "electric_scooter", "is_reserved": 0, "name": "468df6d5dce8cf1957b358ecbb57fea1", "lon": -76.92932666666667, "bike_id": "468df6d5dce8cf1957b358ecbb57fea1", "lat": 38.90095516666667}, {"fusion_lon": 0.0, "fusion_lat": 0.0, "rental_uris": {"android": "https://dc.lft.to/lastmile_qr_scan", "ios": "https://dc.lft.to/lastmile_qr_scan"}, "is_disabled": 0, "type": "electric_scooter", "is_reserved": 0, "name": "40d3b06c06aa6c9311ab380e017bcf1c", "lon": -76.99728316666666, "bike_id": "40d3b06c06aa6c9311ab380e017bcf1c", "lat": 38.900388166666666}, {"fusion_lon": 0.0, "fusion_lat": 0.0, "rental_uris": {"android": "https://dc.lft.to/lastmile_qr_scan", "ios": "https://dc.lft.to/lastmile_qr_scan"}, "is_disabled": 0, "type": "electric_scooter", "is_reserved": 0, "name": "9b93f4adf76788eebd8bb2df9ca410bf", "lon": -77.033779, "bike_id": "9b93f4adf76788eebd8bb2df9ca410bf", "lat": 38.9224185}, {"fusion_lon": 0.0, "fusion_lat": 0.0, "rental_uris": {"android": "https://dc.lft.to/lastmile_qr_scan", "ios": "https://dc.lft.to/lastmile_qr_scan"}, "is_disabled": 0, "type": "electric_scooter", "is_reserved": 0, "name": "e36e975487974d013307e49911a7363c", "lon": -77.05029866666666, "bike_id": "e36e975487974d013307e49911a7363c", "lat": 38.89694983333333}, {"fusion_lon": 0.0, "fusion_lat": 0.0, "rental_uris": {"android": "https://dc.lft.to/lastmile_qr_scan", "ios": "https://dc.lft.to/lastmile_qr_scan"}, "is_disabled": 0, "type": "electric_scooter", "is_reserved": 0, "name": "3fe6f2ab824b803f26e35c853859f011", "lon": -77.04498966666667, "bike_id": "3fe6f2ab824b803f26e35c853859f011", "lat": 38.89942766666667}, {"fusion_lon": 0.0, "fusion_lat": 0.0, "rental_uris": {"android": "https://dc.lft.to/lastmile_qr_scan", "ios": "https://dc.lft.to/lastmile_qr_scan"}, "is_disabled": 0, "type": "electric_scooter", "is_reserved": 0, "name": "b56f2a73a1d5e4947374dc698f752271", "lon": -77.02153016666666, "bike_id": "b56f2a73a1d5e4947374dc698f752271", "lat": 38.902161666666665}, {"fusion_lon": 0.0, "fusion_lat": 0.0, "rental_uris": {"android": "https://dc.lft.to/lastmile_qr_scan", "ios": "https://dc.lft.to/lastmile_qr_scan"}, "is_disabled": 0, "type": "electric_scooter", "is_reserved": 0, "name": "732556c2314a972cc984526600d885f9", "lon": -77.01859016666667, "bike_id": "732556c2314a972cc984526600d885f9", "lat": 38.90965}, {"fusion_lon": 0.0, "fusion_lat": 0.0, "rental_uris": {"android": "https://dc.lft.to/lastmile_qr_scan", "ios": "https://dc.lft.to/lastmile_qr_scan"}, "is_disabled": 0, "type": "electric_scooter", "is_reserved": 0, "name": "831c60a85d5cf9db3f696c8243caf99f", "lon": -77.02251066666666, "bike_id": "831c60a85d5cf9db3f696c8243caf99f", "lat": 38.91412116666667}, {"fusion_lon": 0.0, "fusion_lat": 0.0, "rental_uris": {"android": "https://dc.lft.to/lastmile_qr_scan", "ios": "https://dc.lft.to/lastmile_qr_scan"}, "is_disabled": 0, "type": "electric_scooter", "is_reserved": 0, "name": "f39d278afc1e97fc85bd7c09fe10d220", "lon": -76.93387683333333, "bike_id": "f39d278afc1e97fc85bd7c09fe10d220", "lat": 38.899092}, {"fusion_lon": 0.0, "fusion_lat": 0.0, "rental_uris": {"android": "https://dc.lft.to/lastmile_qr_scan", "ios": "https://dc.lft.to/lastmile_qr_scan"}, "is_disabled": 0, "type": "electric_scooter", "is_reserved": 0, "name": "c5e5e4c98fdb5fde260eb5312340464f", "lon": -77.06406116666666, "bike_id": "c5e5e4c98fdb5fde260eb5312340464f", "lat": 38.908581166666664}, {"fusion_lon": 0.0, "fusion_lat": 0.0, "rental_uris": {"android": "https://dc.lft.to/lastmile_qr_scan", "ios": "https://dc.lft.to/lastmile_qr_scan"}, "is_disabled": 0, "type": "electric_scooter", "is_reserved": 0, "name": "bd867140f7e8cfc475bfa76413db6621", "lon": -77.024639, "bike_id": "bd867140f7e8cfc475bfa76413db6621", "lat": 38.897337}, {"fusion_lon": 0.0, "fusion_lat": 0.0, "rental_uris": {"android": "https://dc.lft.to/lastmile_qr_scan", "ios": "https://dc.lft.to/lastmile_qr_scan"}, "is_disabled": 0, "type": "electric_scooter", "is_reserved": 0, "name": "34e1e8cf306608aadd7fda0e738fa191", "lon": -76.990327, "bike_id": "34e1e8cf306608aadd7fda0e738fa191", "lat": 38.8887375}, {"fusion_lon": 0.0, "fusion_lat": 0.0, "rental_uris": {"android": "https://dc.lft.to/lastmile_qr_scan", "ios": "https://dc.lft.to/lastmile_qr_scan"}, "is_disabled": 0, "type": "electric_scooter", "is_reserved": 0, "name": "4b468a88596d7b1850cd3b4ceff23c87", "lon": -77.03193366666666, "bike_id": "4b468a88596d7b1850cd3b4ceff23c87", "lat": 38.916622333333336}, {"fusion_lon": 0.0, "fusion_lat": 0.0, "rental_uris": {"android": "https://dc.lft.to/lastmile_qr_scan", "ios": "https://dc.lft.to/lastmile_qr_scan"}, "is_disabled": 0, "type": "electric_scooter", "is_reserved": 0, "name": "ce50425a47976c3f393ef91d031d12e6", "lon": -77.04876783333333, "bike_id": "ce50425a47976c3f393ef91d031d12e6", "lat": 38.898597}, {"fusion_lon": 0.0, "fusion_lat": 0.0, "rental_uris": {"android": "https://dc.lft.to/lastmile_qr_scan", "ios": "https://dc.lft.to/lastmile_qr_scan"}, "is_disabled": 0, "type": "electric_scooter", "is_reserved": 0, "name": "227229f6e199266da0fdf1e4401da2d6", "lon": -77.0405135, "bike_id": "227229f6e199266da0fdf1e4401da2d6", "lat": 38.89903916666667}, {"fusion_lon": 0.0, "fusion_lat": 0.0, "rental_uris": {"android": "https://dc.lft.to/lastmile_qr_scan", "ios": "https://dc.lft.to/lastmile_qr_scan"}, "is_disabled": 0, "type": "electric_scooter", "is_reserved": 0, "name": "7a583b7b26d04328d23c0a87c9ffa279", "lon": -77.02266316666666, "bike_id": "7a583b7b26d04328d23c0a87c9ffa279", "lat": 38.89708783333333}, {"fusion_lon": 0.0, "fusion_lat": 0.0, "rental_uris": {"android": "https://dc.lft.to/lastmile_qr_scan", "ios": "https://dc.lft.to/lastmile_qr_scan"}, "is_disabled": 0, "type": "electric_bike", "is_reserved": 0, "name": "9096d48ef62c7aae6db189c6ce34149e", "lon": -77.0816935, "bike_id": "9096d48ef62c7aae6db189c6ce34149e", "lat": 38.90778366666667}, {"fusion_lon": 0.0, "fusion_lat": 0.0, "rental_uris": {"android": "https://dc.lft.to/lastmile_qr_scan", "ios": "https://dc.lft.to/lastmile_qr_scan"}, "is_disabled": 0, "type": "electric_scooter", "is_reserved": 0, "name": "dd734f720314ed0c171fec48cd2d257d", "lon": -77.039309, "bike_id": "dd734f720314ed0c171fec48cd2d257d", "lat": 38.89913083333333}, {"fusion_lon": 0.0, "fusion_lat": 0.0, "rental_uris": {"android": "https://dc.lft.to/lastmile_qr_scan", "ios": "https://dc.lft.to/lastmile_qr_scan"}, "is_disabled": 0, "type": "electric_scooter", "is_reserved": 0, "name": "d55f64151b40691594a13871fc9a3fef", "lon": -76.99595283333333, "bike_id": "d55f64151b40691594a13871fc9a3fef", "lat": 38.88430966666667}, {"fusion_lon": 0.0, "fusion_lat": 0.0, "rental_uris": {"android": "https://dc.lft.to/lastmile_qr_scan", "ios": "https://dc.lft.to/lastmile_qr_scan"}, "is_disabled": 0, "type": "electric_scooter", "is_reserved": 0, "name": "89bf5b0457bfd4489f09f26118608eb5", "lon": -77.02389116666667, "bike_id": "89bf5b0457bfd4489f09f26118608eb5", "lat": 38.926961166666665}, {"fusion_lon": 0.0, "fusion_lat": 0.0, "rental_uris": {"android": "https://dc.lft.to/lastmile_qr_scan", "ios": "https://dc.lft.to/lastmile_qr_scan"}, "is_disabled": 0, "type": "electric_scooter", "is_reserved": 0, "name": "db375564f26c28d9b81c70feef4d9b53", "lon": -77.02190866666666, "bike_id": "db375564f26c28d9b81c70feef4d9b53", "lat": 38.894962666666665}, {"fusion_lon": 0.0, "fusion_lat": 0.0, "rental_uris": {"android": "https://dc.lft.to/lastmile_qr_scan", "ios": "https://dc.lft.to/lastmile_qr_scan"}, "is_disabled": 0, "type": "electric_scooter", "is_reserved": 0, "name": "0a44b49f848927d27149e09af6bf645f", "lon": -77.04548466666667, "bike_id": "0a44b49f848927d27149e09af6bf645f", "lat": 38.900605166666665}, {"fusion_lon": 0.0, "fusion_lat": 0.0, "rental_uris": {"android": "https://dc.lft.to/lastmile_qr_scan", "ios": "https://dc.lft.to/lastmile_qr_scan"}, "is_disabled": 0, "type": "electric_scooter", "is_reserved": 0, "name": "5fe3dfe01c726394a45a4c94d05c8e59", "lon": -77.01630916666667, "bike_id": "5fe3dfe01c726394a45a4c94d05c8e59", "lat": 38.91068166666667}, {"fusion_lon": 0.0, "fusion_lat": 0.0, "rental_uris": {"android": "https://dc.lft.to/lastmile_qr_scan", "ios": "https://dc.lft.to/lastmile_qr_scan"}, "is_disabled": 0, "type": "electric_scooter", "is_reserved": 0, "name": "28623edb8792ce59b38c71949ab7b95b", "lon": -77.028498, "bike_id": "28623edb8792ce59b38c71949ab7b95b", "lat": 38.91694416666667}, {"fusion_lon": 0.0, "fusion_lat": 0.0, "rental_uris": {"android": "https://dc.lft.to/lastmile_qr_scan", "ios": "https://dc.lft.to/lastmile_qr_scan"}, "is_disabled": 0, "type": "electric_scooter", "is_reserved": 0, "name": "dfed0c87227566e68ae9c0cd9366f8db", "lon": -77.009343, "bike_id": "dfed0c87227566e68ae9c0cd9366f8db", "lat": 38.911042}, {"fusion_lon": 0.0, "fusion_lat": 0.0, "rental_uris": {"android": "https://dc.lft.to/lastmile_qr_scan", "ios": "https://dc.lft.to/lastmile_qr_scan"}, "is_disabled": 0, "type": "electric_scooter", "is_reserved": 0, "name": "068e448c91b7d50fa1df7404114fa036", "lon": -77.0219145, "bike_id": "068e448c91b7d50fa1df7404114fa036", "lat": 38.91448966666667}, {"fusion_lon": 0.0, "fusion_lat": 0.0, "rental_uris": {"android": "https://dc.lft.to/lastmile_qr_scan", "ios": "https://dc.lft.to/lastmile_qr_scan"}, "is_disabled": 0, "type": "electric_scooter", "is_reserved": 0, "name": "7e04dade4f7bfbe4bc713a318bbd3385", "lon": -77.04604483333334, "bike_id": "7e04dade4f7bfbe4bc713a318bbd3385", "lat": 38.896131833333335}, {"fusion_lon": 0.0, "fusion_lat": 0.0, "rental_uris": {"android": "https://dc.lft.to/lastmile_qr_scan", "ios": "https://dc.lft.to/lastmile_qr_scan"}, "is_disabled": 0, "type": "electric_scooter", "is_reserved": 0, "name": "297dc39bb55bd52ecff98d839272ad86", "lon": -77.04198733333334, "bike_id": "297dc39bb55bd52ecff98d839272ad86", "lat": 38.8997625}, {"fusion_lon": 0.0, "fusion_lat": 0.0, "rental_uris": {"android": "https://dc.lft.to/lastmile_qr_scan", "ios": "https://dc.lft.to/lastmile_qr_scan"}, "is_disabled": 0, "type": "electric_scooter", "is_reserved": 0, "name": "879db2ab502036272e1f0b0f831f6cf2", "lon": -77.07475566666666, "bike_id": "879db2ab502036272e1f0b0f831f6cf2", "lat": 38.922404}, {"fusion_lon": 0.0, "fusion_lat": 0.0, "rental_uris": {"android": "https://dc.lft.to/lastmile_qr_scan", "ios": "https://dc.lft.to/lastmile_qr_scan"}, "is_disabled": 0, "type": "electric_scooter", "is_reserved": 0, "name": "6d124e330f06fd04ab40014fbafa267c", "lon": -77.0344565, "bike_id": "6d124e330f06fd04ab40014fbafa267c", "lat": 38.92530216666667}, {"fusion_lon": 0.0, "fusion_lat": 0.0, "rental_uris": {"android": "https://dc.lft.to/lastmile_qr_scan", "ios": "https://dc.lft.to/lastmile_qr_scan"}, "is_disabled": 0, "type": "electric_scooter", "is_reserved": 0, "name": "4149ebb162b4c6ce14c867a2d2a2470b", "lon": -77.03202433333334, "bike_id": "4149ebb162b4c6ce14c867a2d2a2470b", "lat": 38.916047}, {"fusion_lon": 0.0, "fusion_lat": 0.0, "rental_uris": {"android": "https://dc.lft.to/lastmile_qr_scan", "ios": "https://dc.lft.to/lastmile_qr_scan"}, "is_disabled": 0, "type": "electric_scooter", "is_reserved": 0, "name": "98da92d66e9eb1481348aceb83da6df7", "lon": -77.01920083333333, "bike_id": "98da92d66e9eb1481348aceb83da6df7", "lat": 38.93255416666667}, {"fusion_lon": 0.0, "fusion_lat": 0.0, "rental_uris": {"android": "https://dc.lft.to/lastmile_qr_scan", "ios": "https://dc.lft.to/lastmile_qr_scan"}, "is_disabled": 0, "type": "electric_scooter", "is_reserved": 0, "name": "506a721f2529280c191cf38ed42f33c4", "lon": -77.03266333333333, "bike_id": "506a721f2529280c191cf38ed42f33c4", "lat": 38.9293265}, {"fusion_lon": 0.0, "fusion_lat": 0.0, "rental_uris": {"android": "https://dc.lft.to/lastmile_qr_scan", "ios": "https://dc.lft.to/lastmile_qr_scan"}, "is_disabled": 0, "type": "electric_scooter", "is_reserved": 0, "name": "866425b6f21c29042cc20afa3b5ca994", "lon": -77.02161466666666, "bike_id": "866425b6f21c29042cc20afa3b5ca994", "lat": 38.924514}, {"fusion_lon": 0.0, "fusion_lat": 0.0, "rental_uris": {"android": "https://dc.lft.to/lastmile_qr_scan", "ios": "https://dc.lft.to/lastmile_qr_scan"}, "is_disabled": 0, "type": "electric_scooter", "is_reserved": 0, "name": "fd27da1e097300a1412c206bf37282f6", "lon": -77.01164816666666, "bike_id": "fd27da1e097300a1412c206bf37282f6", "lat": 38.9063045}, {"fusion_lon": 0.0, "fusion_lat": 0.0, "rental_uris": {"android": "https://dc.lft.to/lastmile_qr_scan", "ios": "https://dc.lft.to/lastmile_qr_scan"}, "is_disabled": 0, "type": "electric_scooter", "is_reserved": 0, "name": "ffe2dfdc8a19b9e74eced28fc356a7ea", "lon": -77.00190666666667, "bike_id": "ffe2dfdc8a19b9e74eced28fc356a7ea", "lat": 38.89483716666667}, {"fusion_lon": 0.0, "fusion_lat": 0.0, "rental_uris": {"android": "https://dc.lft.to/lastmile_qr_scan", "ios": "https://dc.lft.to/lastmile_qr_scan"},