{"data": {"bikes": [{"rental_uris": {"ios": "https://dc.lft.to/lastmile_qr_scan", "android": "https://dc.lft.to/lastmile_qr_scan"}, "fusion_lat": 0.0, "name": "dee3def4bf89059b0763e6bea2ea206d", "bike_id": "dee3def4bf89059b0763e6bea2ea206d", "is_disabled": 0, "type": "electric_scooter", "lat": 38.91116533333334, "lon": -77.04462733333334, "is_reserved": 0, "fusion_lon": 0.0}, {"rental_uris": {"ios": "https://dc.lft.to/lastmile_qr_scan", "android": "https://dc.lft.to/lastmile_qr_scan"}, "fusion_lat": 0.0, "name": "cfd671cfdca2c8e42a0ceb2950445358", "bike_id": "cfd671cfdca2c8e42a0ceb2950445358", "is_disabled": 0, "type": "electric_scooter", "lat": 38.885733, "lon": -76.919116, "is_reserved": 0, "fusion_lon": 0.0}, {"rental_uris": {"ios": "https://dc.lft.to/lastmile_qr_scan", "android": "https://dc.lft.to/lastmile_qr_scan"}, "fusion_lat": 0.0, "name": "f0e89680d1bdaa77e88e3bf11b3d03c5", "bike_id": "f0e89680d1bdaa77e88e3bf11b3d03c5", "is_disabled": 0, "type": "electric_scooter", "lat": 38.901310333333335, "lon": -77.04627883333333, "is_reserved": 0, "fusion_lon": 0.0}, {"rental_uris": {"ios": "https://dc.lft.to/lastmile_qr_scan", "android": "https://dc.lft.to/lastmile_qr_scan"}, "fusion_lat": 0.0, "name": "6367a7f91e7ebb48bb8f40afd06e558a", "bike_id": "6367a7f91e7ebb48bb8f40afd06e558a", "is_disabled": 0, "type": "electric_scooter", "lat": 38.91273433333333, "lon": -77.03645816666666, "is_reserved": 0, "fusion_lon": 0.0}, {"rental_uris": {"ios": "https://dc.lft.to/lastmile_qr_scan", "android": "https://dc.lft.to/lastmile_qr_scan"}, "fusion_lat": 0.0, "name": "584eaea47753055f2c748a628b18e0f4", "bike_id": "584eaea47753055f2c748a628b18e0f4", "is_disabled": 0, "type": "electric_scooter", "lat": 38.915654, "lon": -77.01199516666667, "is_reserved": 0, "fusion_lon": 0.0}, {"rental_uris": {"ios": "https://dc.lft.to/lastmile_qr_scan", "android": "https://dc.lft.to/lastmile_qr_scan"}, "fusion_lat": 0.0, "name": "32db787384251497e926bb4357137304", "bike_id": "32db787384251497e926bb4357137304", "is_disabled": 0, "type": "electric_scooter", "lat": 38.8922335, "lon": -77.03340016666667, "is_reserved": 0, "fusion_lon": 0.0}, {"rental_uris": {"ios": "https://dc.lft.to/lastmile_qr_scan", "android": "https://dc.lft.to/lastmile_qr_scan"}, "fusion_lat": 0.0, "name": "5aba05904929f00f4a32b799d1cf5758", "bike_id": "5aba05904929f00f4a32b799d1cf5758", "is_disabled": 0, "type": "electric_scooter", "lat": 38.918360166666666, "lon": -77.0402485, "is_reserved": 0, "fusion_lon": 0.0}, {"rental_uris": {"ios": "https://dc.lft.to/lastmile_qr_scan", "android": "https://dc.lft.to/lastmile_qr_scan"}, "fusion_lat": 0.0, "name": "8f8058a4d3828feb83df1b47553faed4", "bike_id": "8f8058a4d3828feb83df1b47553faed4", "is_disabled": 0, "type": "electric_scooter", "lat": 38.932424166666664, "lon": -76.995285, "is_reserved": 0, "fusion_lon": 0.0}, {"rental_uris": {"ios": "https://dc.lft.to/lastmile_qr_scan", "android": "https://dc.lft.to/lastmile_qr_scan"}, "fusion_lat": 0.0, "name": "373da6b8ad56e36f834ecc1cf632b5e8", "bike_id": "373da6b8ad56e36f834ecc1cf632b5e8", "is_disabled": 0, "type": "electric_scooter", "lat": 38.916885666666666, "lon": -77.026752, "is_reserved": 0, "fusion_lon": 0.0}, {"rental_uris": {"ios": "https://dc.lft.to/lastmile_qr_scan", "android": "https://dc.lft.to/lastmile_qr_scan"}, "fusion_lat": 0.0, "name": "7e8303a7ab4a050028b15ee9b20c12ca", "bike_id": "7e8303a7ab4a050028b15ee9b20c12ca", "is_disabled": 0, "type": "electric_scooter", "lat": 38.94954283333333, "lon": -77.02723716666667, "is_reserved": 0, "fusion_lon": 0.0}, {"rental_uris": {"ios": "https://dc.lft.to/lastmile_qr_scan", "android": "https://dc.lft.to/lastmile_qr_scan"}, "fusion_lat": 0.0, "name": "178d14bb5aa599b0bed6035635a21171", "bike_id": "178d14bb5aa599b0bed6035635a21171", "is_disabled": 0, "type": "electric_scooter", "lat": 38.90850666666667, "lon": -76.99805666666667, "is_reserved": 0, "fusion_lon": 0.0}, {"rental_uris": {"ios": "https://dc.lft.to/lastmile_qr_scan", "android": "https://dc.lft.to/lastmile_qr_scan"}, "fusion_lat": 0.0, "name": "e15beff42c14eba9080d2793516edbb2", "bike_id": "e15beff42c14eba9080d2793516edbb2", "is_disabled": 0, "type": "electric_scooter", "lat": 38.9067075, "lon": -77.02705616666667, "is_reserved": 0, "fusion_lon": 0.0}, {"rental_uris": {"ios": "https://dc.lft.to/lastmile_qr_scan", "android": "https://dc.lft.to/lastmile_qr_scan"}, "fusion_lat": 0.0, "name": "3b8a27f955175fc7b56e25af8696957a", "bike_id": "3b8a27f955175fc7b56e25af8696957a", "is_disabled": 0, "type": "electric_scooter", "lat": 38.90408733333334, "lon": -77.04038683333333, "is_reserved": 0, "fusion_lon": 0.0}, {"rental_uris": {"ios": "https://dc.lft.to/lastmile_qr_scan", "android": "https://dc.lft.to/lastmile_qr_scan"}, "fusion_lat": 0.0, "name": "d5b8d3819d00be137f0228995c19dee2", "bike_id": "d5b8d3819d00be137f0228995c19dee2", "is_disabled": 0, "type": "electric_scooter", "lat": 38.91679633333333, "lon": -77.02974633333334, "is_reserved": 0, "fusion_lon": 0.0}, {"rental_uris": {"ios": "https://dc.lft.to/lastmile_qr_scan", "android": "https://dc.lft.to/lastmile_qr_scan"}, "fusion_lat": 0.0, "name": "27e99e44cbd5eb2c03670ae92429e565", "bike_id": "27e99e44cbd5eb2c03670ae92429e565", "is_disabled": 0, "type": "electric_scooter", "lat": 38.8871715, "lon": -77.01770916666666, "is_reserved": 0, "fusion_lon": 0.0}, {"rental_uris": {"ios": "https://dc.lft.to/lastmile_qr_scan", "android": "https://dc.lft.to/lastmile_qr_scan"}, "fusion_lat": 0.0, "name": "6379dce856b0987a039bcd1c429c42ed", "bike_id": "6379dce856b0987a039bcd1c429c42ed", "is_disabled": 0, "type": "electric_bike", "lat": 38.95558466666667, "lon": -76.9354515, "is_reserved": 0, "fusion_lon": 0.0}, {"rental_uris": {"ios": "https://dc.lft.to/lastmile_qr_scan", "android": "https://dc.lft.to/lastmile_qr_scan"}, "fusion_lat": 0.0, "name": "143a6dd1255cc9d3395dc460bd8a377b", "bike_id": "143a6dd1255cc9d3395dc460bd8a377b", "is_disabled": 0, "type": "electric_scooter", "lat": 38.912183166666665, "lon": -77.03195233333334, "is_reserved": 0, "fusion_lon": 0.0}, {"rental_uris": {"ios": "https://dc.lft.to/lastmile_qr_scan", "android": "https://dc.lft.to/lastmile_qr_scan"}, "fusion_lat": 0.0, "name": "9c2f8c78c6906f5879d23908c3a7a128", "bike_id": "9c2f8c78c6906f5879d23908c3a7a128", "is_disabled": 0, "type": "electric_bike", "lat": 38.9595885, "lon": -77.03051, "is_reserved": 0, "fusion_lon": 0.0}, {"rental_uris": {"ios": "https://dc.lft.to/lastmile_qr_scan", "android": "https://dc.lft.to/lastmile_qr_scan"}, "fusion_lat": 0.0, "name": "287bf824ed46734a1f22731f1f9431c1", "bike_id": "287bf824ed46734a1f22731f1f9431c1", "is_disabled": 0, "type": "electric_scooter", "lat": 38.899021, "lon": -77.0327705, "is_reserved": 0, "fusion_lon": 0.0}, {"rental_uris": {"ios": "https://dc.lft.to/lastmile_qr_scan", "android": "https://dc.lft.to/lastmile_qr_scan"}, "fusion_lat": 0.0, "name": "6615f6554e88360903ccf573e549d303", "bike_id": "6615f6554e88360903ccf573e549d303", "is_disabled": 0, "type": "electric_scooter", "lat": 38.887434999999996, "lon": -77.03140366666666, "is_reserved": 0, "fusion_lon": 0.0}, {"rental_uris": {"ios": "https://dc.lft.to/lastmile_qr_scan", "android": "https://dc.lft.to/lastmile_qr_scan"}, "fusion_lat": 0.0, "name": "baa29a59fccffb5e08c0db4dc96f1bf6", "bike_id": "baa29a59fccffb5e08c0db4dc96f1bf6", "is_disabled": 0, "type": "electric_scooter", "lat": 38.91841816666667, "lon": -77.03440766666667, "is_reserved": 0, "fusion_lon": 0.0}, {"rental_uris": {"ios": "https://dc.lft.to/lastmile_qr_scan", "android": "https://dc.lft.to/lastmile_qr_scan"}, "fusion_lat": 0.0, "name": "07802183f20a412959b841a22d7ff83a", "bike_id": "07802183f20a412959b841a22d7ff83a", "is_disabled": 0, "type": "electric_scooter", "lat": 38.926777, "lon": -77.03036766666666, "is_reserved": 0, "fusion_lon": 0.0}, {"rental_uris": {"ios": "https://dc.lft.to/lastmile_qr_scan", "android": "https://dc.lft.to/lastmile_qr_scan"}, "fusion_lat": 0.0, "name": "8c94b2105f65a54355ee0b6494dd427a", "bike_id": "8c94b2105f65a54355ee0b6494dd427a", "is_disabled": 0, "type": "electric_scooter", "lat": 38.926522166666665, "lon": -77.03670033333333, "is_reserved": 0, "fusion_lon": 0.0}, {"rental_uris": {"ios": "https://dc.lft.to/lastmile_qr_scan", "android": "https://dc.lft.to/lastmile_qr_scan"}, "fusion_lat": 0.0, "name": "ce8478ae643e55632c343deef95f59e8", "bike_id": "ce8478ae643e55632c343deef95f59e8", "is_disabled": 0, "type": "electric_scooter", "lat": 38.9026315, "lon": -77.04598733333333, "is_reserved": 0, "fusion_lon": 0.0}, {"rental_uris": {"ios": "https://dc.lft.to/lastmile_qr_scan", "android": "https://dc.lft.to/lastmile_qr_scan"}, "fusion_lat": 0.0, "name": "d7eea1b6067f72dc91492234a52942ea", "bike_id": "d7eea1b6067f72dc91492234a52942ea", "is_disabled": 0, "type": "electric_scooter", "lat": 38.9055585, "lon": -77.034427, "is_reserved": 0, "fusion_lon": 0.0}, {"rental_uris": {"ios": "https://dc.lft.to/lastmile_qr_scan", "android": "https://dc.lft.to/lastmile_qr_scan"}, "fusion_lat": 0.0, "name": "d1366e734dd3c27a524cbb845e79d3e9", "bike_id": "d1366e734dd3c27a524cbb845e79d3e9", "is_disabled": 0, "type": "electric_scooter", "lat": 38.92870666666666, "lon": -77.02671116666667, "is_reserved": 0, "fusion_lon": 0.0}, {"rental_uris": {"ios": "https://dc.lft.to/lastmile_qr_scan", "android": "https://dc.lft.to/lastmile_qr_scan"}, "fusion_lat": 0.0, "name": "77bf1343733426e870f92bd7b68a2322", "bike_id": "77bf1343733426e870f92bd7b68a2322", "is_disabled": 0, "type": "electric_bike", "lat": 38.93870783333333, "lon": -77.02555683333334, "is_reserved": 0, "fusion_lon": 0.0}, {"rental_uris": {"ios": "https://dc.lft.to/lastmile_qr_scan", "android": "https://dc.lft.to/lastmile_qr_scan"}, "fusion_lat": 0.0, "name": "00bbf2ac65b04bee25d0102dabb6955e", "bike_id": "00bbf2ac65b04bee25d0102dabb6955e", "is_disabled": 0, "type": "electric_scooter", "lat": 38.892194333333336, "lon": -77.01374833333334, "is_reserved": 0, "fusion_lon": 0.0}, {"rental_uris": {"ios": "https://dc.lft.to/lastmile_qr_scan", "android": "https://dc.lft.to/lastmile_qr_scan"}, "fusion_lat": 0.0, "name": "4d2a9be653bd90a56429aa1e31c96624", "bike_id": "4d2a9be653bd90a56429aa1e31c96624", "is_disabled": 0, "type": "electric_scooter", "lat": 38.920326, "lon": -76.970186, "is_reserved": 0, "fusion_lon": 0.0}, {"rental_uris": {"ios": "https://dc.lft.to/lastmile_qr_scan", "android": "https://dc.lft.to/lastmile_qr_scan"}, "fusion_lat": 0.0, "name": "12fbeadc45b6d81bd598f3021e44b8a6", "bike_id": "12fbeadc45b6d81bd598f3021e44b8a6", "is_disabled": 0, "type": "electric_scooter", "lat": 38.94953916666667, "lon": -77.0272315, "is_reserved": 0, "fusion_lon": 0.0}, {"rental_uris": {"ios": "https://dc.lft.to/lastmile_qr_scan", "android": "https://dc.lft.to/lastmile_qr_scan"}, "fusion_lat": 0.0, "name": "b2c6ac4dc3332e2b205416ff4f501bf4", "bike_id": "b2c6ac4dc3332e2b205416ff4f501bf4", "is_disabled": 0, "type": "electric_scooter", "lat": 38.901188, "lon": -77.03093933333334, "is_reserved": 0, "fusion_lon": 0.0}, {"rental_uris": {"ios": "https://dc.lft.to/lastmile_qr_scan", "android": "https://dc.lft.to/lastmile_qr_scan"}, "fusion_lat": 0.0, "name": "d08513a8360ed7582387e34d54842348", "bike_id": "d08513a8360ed7582387e34d54842348", "is_disabled": 0, "type": "electric_scooter", "lat": 38.91758866666667, "lon": -77.0307795, "is_reserved": 0, "fusion_lon": 0.0}, {"rental_uris": {"ios": "https://dc.lft.to/lastmile_qr_scan", "android": "https://dc.lft.to/lastmile_qr_scan"}, "fusion_lat": 0.0, "name": "d94b506f53886bf5b0955d4240aeaf3f", "bike_id": "d94b506f53886bf5b0955d4240aeaf3f", "is_disabled": 0, "type": "electric_scooter", "lat": 38.892216833333336, "lon": -77.02222133333333, "is_reserved": 0, "fusion_lon": 0.0}, {"rental_uris": {"ios": "https://dc.lft.to/lastmile_qr_scan", "android": "https://dc.lft.to/lastmile_qr_scan"}, "fusion_lat": 0.0, "name": "e745339ff033c1abe5950631cd7a7e2e", "bike_id": "e745339ff033c1abe5950631cd7a7e2e", "is_disabled": 0, "type": "electric_scooter", "lat": 38.923648666666665, "lon": -77.05054583333333, "is_reserved": 0, "fusion_lon": 0.0}, {"rental_uris": {"ios": "https://dc.lft.to/lastmile_qr_scan", "android": "https://dc.lft.to/lastmile_qr_scan"}, "fusion_lat": 0.0, "name": "73401d0933570480f5b668295044a48d", "bike_id": "73401d0933570480f5b668295044a48d", "is_disabled": 0, "type": "electric_scooter", "lat": 38.904038666666665, "lon": -77.02948266666667, "is_reserved": 0, "fusion_lon": 0.0}, {"rental_uris": {"ios": "https://dc.lft.to/lastmile_qr_scan", "android": "https://dc.lft.to/lastmile_qr_scan"}, "fusion_lat": 0.0, "name": "dfec564f214893d60f01bf798b0e7638", "bike_id": "dfec564f214893d60f01bf798b0e7638", "is_disabled": 0, "type": "electric_scooter", "lat": 38.8763535, "lon": -77.00703383333334, "is_reserved": 0, "fusion_lon": 0.0}, {"rental_uris": {"ios": "https://dc.lft.to/lastmile_qr_scan", "android": "https://dc.lft.to/lastmile_qr_scan"}, "fusion_lat": 0.0, "name": "3d29258fc1a02e8268df5e5db86a2477", "bike_id": "3d29258fc1a02e8268df5e5db86a2477", "is_disabled": 0, "type": "electric_scooter", "lat": 38.90980166666667, "lon": -77.03424966666667, "is_reserved": 0, "fusion_lon": 0.0}, {"rental_uris": {"ios": "https://dc.lft.to/lastmile_qr_scan", "android": "https://dc.lft.to/lastmile_qr_scan"}, "fusion_lat": 0.0, "name": "76cd4043908a3fc4cc7cff867a788636", "bike_id": "76cd4043908a3fc4cc7cff867a788636", "is_disabled": 0, "type": "electric_scooter", "lat": 38.919864, "lon": -77.04766416666666, "is_reserved": 0, "fusion_lon": 0.0}, {"rental_uris": {"ios": "https://dc.lft.to/lastmile_qr_scan", "android": "https://dc.lft.to/lastmile_qr_scan"}, "fusion_lat": 0.0, "name": "51cd9c2e6aa319a4114891fe4b678c67", "bike_id": "51cd9c2e6aa319a4114891fe4b678c67", "is_disabled": 0, "type": "electric_scooter", "lat": 38.919175, "lon": -77.03412366666667, "is_reserved": 0, "fusion_lon": 0.0}, {"rental_uris": {"ios": "https://dc.lft.to/lastmile_qr_scan", "android": "https://dc.lft.to/lastmile_qr_scan"}, "fusion_lat": 0.0, "name": "abe65c5002e995b04bad4ee44a848a6f", "bike_id": "abe65c5002e995b04bad4ee44a848a6f", "is_disabled": 0, "type": "electric_scooter", "lat": 38.92474766666667, "lon": -77.03487366666667, "is_reserved": 0, "fusion_lon": 0.0}, {"rental_uris": {"ios": "https://dc.lft.to/lastmile_qr_scan", "android": "https://dc.lft.to/lastmile_qr_scan"}, "fusion_lat": 0.0, "name": "e086cd610a0969d28dd605049bcca88f", "bike_id": "e086cd610a0969d28dd605049bcca88f", "is_disabled": 0, "type": "electric_scooter", "lat": 38.8668365, "lon": -76.98523916666667, "is_reserved": 0, "fusion_lon": 0.0}, {"rental_uris": {"ios": "https://dc.lft.to/lastmile_qr_scan", "android": "https://dc.lft.to/lastmile_qr_scan"}, "fusion_lat": 0.0, "name": "5e92b9bf0e627f072202d3599c34c8f9", "bike_id": "5e92b9bf0e627f072202d3599c34c8f9", "is_disabled": 0, "type": "electric_scooter", "lat": 38.93748633333333, "lon": -77.034536, "is_reserved": 0, "fusion_lon": 0.0}, {"rental_uris": {"ios": "https://dc.lft.to/lastmile_qr_scan", "android": "https://dc.lft.to/lastmile_qr_scan"}, "fusion_lat": 0.0, "name": "7dfc49558a16ca8fb8cdcb0959a18003", "bike_id": "7dfc49558a16ca8fb8cdcb0959a18003", "is_disabled": 0, "type": "electric_scooter", "lat": 38.915535166666665, "lon": -77.031649, "is_reserved": 0, "fusion_lon": 0.0}, {"rental_uris": {"ios": "https://dc.lft.to/lastmile_qr_scan", "android": "https://dc.lft.to/lastmile_qr_scan"}, "fusion_lat": 0.0, "name": "05138e91315be02060cff1ec6cc64f53", "bike_id": "05138e91315be02060cff1ec6cc64f53", "is_disabled": 0, "type": "electric_scooter", "lat": 38.894582, "lon": -77.02262766666666, "is_reserved": 0, "fusion_lon": 0.0}, {"rental_uris": {"ios": "https://dc.lft.to/lastmile_qr_scan", "android": "https://dc.lft.to/lastmile_qr_scan"}, "fusion_lat": 0.0, "name": "3ec8518cc166d30afb41fa50fc201333", "bike_id": "3ec8518cc166d30afb41fa50fc201333", "is_disabled": 0, "type": "electric_scooter", "lat": 38.944469, "lon": -77.0619095, "is_reserved": 0, "fusion_lon": 0.0}, {"rental_uris": {"ios": "https://dc.lft.to/lastmile_qr_scan", "android": "https://dc.lft.to/lastmile_qr_scan"}, "fusion_lat": 0.0, "name": "64f870aea3a3eed6caede3fe76688bd4", "bike_id": "64f870aea3a3eed6caede3fe76688bd4", "is_disabled": 0, "type": "electric_scooter", "lat": 38.91713283333333, "lon": -77.03923366666666, "is_reserved": 0, "fusion_lon": 0.0}, {"rental_uris": {"ios": "https://dc.lft.to/lastmile_qr_scan", "android": "https://dc.lft.to/lastmile_qr_scan"}, "fusion_lat": 0.0, "name": "c95ceef8dac670fe86468b1493caa4a6", "bike_id": "c95ceef8dac670fe86468b1493caa4a6", "is_disabled": 0, "type": "electric_scooter", "lat": 38.86658633333333, "lon": -77.010371, "is_reserved": 0, "fusion_lon": 0.0}, {"rental_uris": {"ios": "https://dc.lft.to/lastmile_qr_scan", "android": "https://dc.lft.to/lastmile_qr_scan"}, "fusion_lat": 0.0, "name": "55f7aaec3921a451f22397602d384d25", "bike_id": "55f7aaec3921a451f22397602d384d25", "is_disabled": 0, "type": "electric_scooter", "lat": 38.89554, "lon": -77.046766, "is_reserved": 0, "fusion_lon": 0.0}, {"rental_uris": {"ios": "https://dc.lft.to/lastmile_qr_scan", "android": "https://dc.lft.to/lastmile_qr_scan"}, "fusion_lat": 0.0, "name": "5ffc6e36ee791742f010c07a3a4a60ad", "bike_id": "5ffc6e36ee791742f010c07a3a4a60ad", "is_disabled": 0, "type": "electric_scooter", "lat": 38.9307145, "lon": -77.0402845, "is_reserved": 0, "fusion_lon": 0.0}, {"rental_uris": {"ios": "https://dc.lft.to/lastmile_qr_scan", "android": "https://dc.lft.to/lastmile_qr_scan"}, "fusion_lat": 0.0, "name": "8b1d22819ff6735fdef4af244b085761", "bike_id": "8b1d22819ff6735fdef4af244b085761", "is_disabled": 0, "type": "electric_scooter", "lat": 38.9229875, "lon": -77.04275833333334, "is_reserved": 0, "fusion_lon": 0.0}, {"rental_uris": {"ios": "https://dc.lft.to/lastmile_qr_scan", "android": "https://dc.lft.to/lastmile_qr_scan"}, "fusion_lat": 0.0, "name": "96f4a1ee213a943b75af102b3052305b", "bike_id": "96f4a1ee213a943b75af102b3052305b", "is_disabled": 0, "type": "electric_scooter", "lat": 38.916153666666666, "lon": -77.02305, "is_reserved": 0, "fusion_lon": 0.0}, {"rental_uris": {"ios": "https://dc.lft.to/lastmile_qr_scan", "android": "https://dc.lft.to/lastmile_qr_scan"}, "fusion_lat": 0.0, "name": "00f25839bcd2298787d2927619174771", "bike_id": "00f25839bcd2298787d2927619174771", "is_disabled": 0, "type": "electric_scooter", "lat": 38.90594516666667, "lon": -77.00586783333334, "is_reserved": 0, "fusion_lon": 0.0}, {"rental_uris": {"ios": "https://dc.lft.to/lastmile_qr_scan", "android": "https://dc.lft.to/lastmile_qr_scan"}, "fusion_lat": 0.0, "name": "aca14d9c33dd46faee9fb46921ec19ed", "bike_id": "aca14d9c33dd46faee9fb46921ec19ed", "is_disabled": 0, "type": "electric_scooter", "lat": 38.9160745, "lon": -77.02306283333333, "is_reserved": 0, "fusion_lon": 0.0}, {"rental_uris": {"ios": "https://dc.lft.to/lastmile_qr_scan", "android": "https://dc.lft.to/lastmile_qr_scan"}, "fusion_lat": 0.0, "name": "3ff9b0f5f62182243af6d1444602f731", "bike_id": "3ff9b0f5f62182243af6d1444602f731", "is_disabled": 0, "type": "electric_scooter", "lat": 38.89924366666666, "lon": -77.03377533333334, "is_reserved": 0, "fusion_lon": 0.0}, {"rental_uris": {"ios": "https://dc.lft.to/lastmile_qr_scan", "android": "https://dc.lft.to/lastmile_qr_scan"}, "fusion_lat": 0.0, "name": "8309bca9bdea0a4b036ca236ec53ec94", "bike_id": "8309bca9bdea0a4b036ca236ec53ec94", "is_disabled": 0, "type": "electric_scooter", "lat": 38.867184333333334, "lon": -76.98703966666666, "is_reserved": 0, "fusion_lon": 0.0}, {"rental_uris": {"ios": "https://dc.lft.to/lastmile_qr_scan", "android": "https://dc.lft.to/lastmile_qr_scan"}, "fusion_lat": 0.0, "name": "33770c87089ffe7f30f0df75725b43fb", "bike_id": "33770c87089ffe7f30f0df75725b43fb", "is_disabled": 0, "type": "electric_scooter", "lat": 38.909789333333336, "lon": -77.031815, "is_reserved": 0, "fusion_lon": 0.0}, {"rental_uris": {"ios": "https://dc.lft.to/lastmile_qr_scan", "android": "https://dc.lft.to/lastmile_qr_scan"}, "fusion_lat": 0.0, "name": "56bb682eaafd516bd8fb9587843c82a5", "bike_id": "56bb682eaafd516bd8fb9587843c82a5", "is_disabled": 0, "type": "electric_scooter", "lat": 38.91563, "lon": -77.0120505, "is_reserved": 0, "fusion_lon": 0.0}, {"rental_uris": {"ios": "https://dc.lft.to/lastmile_qr_scan", "android": "https://dc.lft.to/lastmile_qr_scan"}, "fusion_lat": 0.0, "name": "24c5f9f7cafe079b4a7af62bb1007b62", "bike_id": "24c5f9f7cafe079b4a7af62bb1007b62", "is_disabled": 0, "type": "electric_scooter", "lat": 38.91739183333333, "lon": -77.0239595, "is_reserved": 0, "fusion_lon": 0.0}, {"rental_uris": {"ios": "https://dc.lft.to/lastmile_qr_scan", "android": "https://dc.lft.to/lastmile_qr_scan"}, "fusion_lat": 0.0, "name": "e5fe335a5c2c189d85afbf4ee188e196", "bike_id": "e5fe335a5c2c189d85afbf4ee188e196", "is_disabled": 0, "type": "electric_scooter", "lat": 38.90123366666667, "lon": -77.04312266666666, "is_reserved": 0, "fusion_lon": 0.0}, {"rental_uris": {"ios": "https://dc.lft.to/lastmile_qr_scan", "android": "https://dc.lft.to/lastmile_qr_scan"}, "fusion_lat": 0.0, "name": "31bb5090d9e79540b4dd9aa13f8782e2", "bike_id": "31bb5090d9e79540b4dd9aa13f8782e2", "is_disabled": 0, "type": "electric_scooter", "lat": 38.92129633333333, "lon": -77.0084255, "is_reserved": 0, "fusion_lon": 0.0}, {"rental_uris": {"ios": "https://dc.lft.to/lastmile_qr_scan", "android": "https://dc.lft.to/lastmile_qr_scan"}, "fusion_lat": 0.0, "name": "9dd1713bcf431e6f81c86e4040d02b70", "bike_id": "9dd1713bcf431e6f81c86e4040d02b70", "is_disabled": 0, "type": "electric_scooter", "lat": 38.934859, "lon": -77.07264133333334, "is_reserved": 0, "fusion_lon": 0.0}, {"rental_uris": {"ios": "https://dc.lft.to/lastmile_qr_scan", "android": "https://dc.lft.to/lastmile_qr_scan"}, "fusion_lat": 0.0, "name": "0083a40f43dbae7cac4b587fabf03c90", "bike_id": "0083a40f43dbae7cac4b587fabf03c90", "is_disabled": 0, "type": "electric_scooter", "lat": 38.856743, "lon": -76.981747, "is_reserved": 0, "fusion_lon": 0.0}, {"rental_uris": {"ios": "https://dc.lft.to/lastmile_qr_scan", "android": "https://dc.lft.to/lastmile_qr_scan"}, "fusion_lat": 0.0, "name": "5463f4b6c00a03c334a252253bda51bf", "bike_id": "5463f4b6c00a03c334a252253bda51bf", "is_disabled": 0, "type": "electric_scooter", "lat": 38.89501533333333, "lon": -76.94877516666666, "is_reserved": 0, "fusion_lon": 0.0}, {"rental_uris": {"ios": "https://dc.lft.to/lastmile_qr_scan", "android": "https://dc.lft.to/lastmile_qr_scan"}, "fusion_lat": 0.0, "name": "b8e12ba257e7284658b127ab1d7a24d5", "bike_id": "b8e12ba257e7284658b127ab1d7a24d5", "is_disabled": 0, "type": "electric_scooter", "lat": 38.92661833333333, "lon": -77.014974, "is_reserved": 0, "fusion_lon": 0.0}, {"rental_uris": {"ios": "https://dc.lft.to/lastmile_qr_scan", "android": "https://dc.lft.to/lastmile_qr_scan"}, "fusion_lat": 0.0, "name": "7cf65fe28be9f9e5deec6c0fa05469fa", "bike_id": "7cf65fe28be9f9e5deec6c0fa05469fa", "is_disabled": 0, "type": "electric_scooter", "lat": 38.9293055, "lon": -77.03767483333333, "is_reserved": 0, "fusion_lon": 0.0}, {"rental_uris": {"ios": "https://dc.lft.to/lastmile_qr_scan", "android": "https://dc.lft.to/lastmile_qr_scan"}, "fusion_lat": 0.0, "name": "bd8ed44ce5928a15a461c86624d1aa3f", "bike_id": "bd8ed44ce5928a15a461c86624d1aa3f", "is_disabled": 0, "type": "electric_scooter", "lat": 38.89218183333333, "lon": -77.02225533333333, "is_reserved": 0, "fusion_lon": 0.0}, {"rental_uris": {"ios": "https://dc.lft.to/lastmile_qr_scan", "android": "https://dc.lft.to/lastmile_qr_scan"}, "fusion_lat": 0.0, "name": "af5680d215e4e7a8c0850ede52395071", "bike_id": "af5680d215e4e7a8c0850ede52395071", "is_disabled": 0, "type": "electric_scooter", "lat": 38.9181205, "lon": -77.02716216666667, "is_reserved": 0, "fusion_lon": 0.0}, {"rental_uris": {"ios": "https://dc.lft.to/lastmile_qr_scan", "android": "https://dc.lft.to/lastmile_qr_scan"}, "fusion_lat": 0.0, "name": "dcc9d9d32db3ad9cb63373c56c902574", "bike_id": "dcc9d9d32db3ad9cb63373c56c902574", "is_disabled": 0, "type": "electric_bike", "lat": 38.84637933333333, "lon": -76.99132, "is_reserved": 0, "fusion_lon": 0.0}, {"rental_uris": {"ios": "https://dc.lft.to/lastmile_qr_scan", "android": "https://dc.lft.to/lastmile_qr_scan"}, "fusion_lat": 0.0, "name": "bcc667e68b42eaee4dfb2184f8a9da22", "bike_id": "bcc667e68b42eaee4dfb2184f8a9da22", "is_disabled": 0, "type": "electric_scooter", "lat": 38.90680583333334, "lon": -77.02716183333334, "is_reserved": 0, "fusion_lon": 0.0}, {"rental_uris": {"ios": "https://dc.lft.to/lastmile_qr_scan", "android": "https://dc.lft.to/lastmile_qr_scan"}, "fusion_lat": 0.0, "name": "f1f98122c812f57aad3853988a1987ba", "bike_id": "f1f98122c812f57aad3853988a1987ba", "is_disabled": 0, "type": "electric_scooter", "lat": 38.91560883333333, "lon": -77.02214833333333, "is_reserved": 0, "fusion_lon": 0.0}, {"rental_uris": {"ios": "https://dc.lft.to/lastmile_qr_scan", "android": "https://dc.lft.to/lastmile_qr_scan"}, "fusion_lat": 0.0, "name": "3f917b0a03e183bd8af870fe4aedd85b", "bike_id": "3f917b0a03e183bd8af870fe4aedd85b", "is_disabled": 0, "type": "electric_scooter", "lat": 38.918121, "lon": -77.04187633333333, "is_reserved": 0, "fusion_lon": 0.0}, {"rental_uris": {"ios": "https://dc.lft.to/lastmile_qr_scan", "android": "https://dc.lft.to/lastmile_qr_scan"}, "fusion_lat": 0.0, "name": "881b6751364d1e5fd540d5f571e17edb", "bike_id": "881b6751364d1e5fd540d5f571e17edb", "is_disabled": 0, "type": "electric_scooter", "lat": 38.90465616666667, "lon": -77.04873583333334, "is_reserved": 0, "fusion_lon": 0.0}, {"rental_uris": {"ios": "https://dc.lft.to/lastmile_qr_scan", "android": "https://dc.lft.to/lastmile_qr_scan"}, "fusion_lat": 0.0, "name": "bf5523d1542e9606c86ae897140525b4", "bike_id": "bf5523d1542e9606c86ae897140525b4", "is_disabled": 0, "type": "electric_scooter", "lat": 38.9086475, "lon": -77.032369, "is_reserved": 0, "fusion_lon": 0.0}, {"rental_uris": {"ios": "https://dc.lft.to/lastmile_qr_scan", "android": "https://dc.lft.to/lastmile_qr_scan"}, "fusion_lat": 0.0, "name": "57460bba59ff89ce8bcc2ca75edaf013", "bike_id": "57460bba59ff89ce8bcc2ca75edaf013", "is_disabled": 0, "type": "electric_scooter", "lat": 38.901489166666664, "lon": -77.02982533333333, "is_reserved": 0, "fusion_lon": 0.0}, {"rental_uris": {"ios": "https://dc.lft.to/lastmile_qr_scan", "android": "https://dc.lft.to/lastmile_qr_scan"}, "fusion_lat": 0.0, "name": "b7e06e61fd72b49693d96cf8c9ba1a1a", "bike_id": "b7e06e61fd72b49693d96cf8c9ba1a1a", "is_disabled": 0, "type": "electric_scooter", "lat": 38.89682, "lon": -76.9360945, "is_reserved": 0, "fusion_lon": 0.0}, {"rental_uris": {"ios": "https://dc.lft.to/lastmile_qr_scan", "android": "https://dc.lft.to/lastmile_qr_scan"}, "fusion_lat": 0.0, "name": "0c15dcc2e2f8f4f72fb7211171c02582", "bike_id": "0c15dcc2e2f8f4f72fb7211171c02582", "is_disabled": 0, "type": "electric_scooter", "lat": 38.92819016666667, "lon": -77.0262225, "is_reserved": 0, "fusion_lon": 0.0}, {"rental_uris": {"ios": "https://dc.lft.to/lastmile_qr_scan", "android": "https://dc.lft.to/lastmile_qr_scan"}, "fusion_lat": 0.0, "name": "14e1380113ab877f567987bc02a7193e", "bike_id": "14e1380113ab877f567987bc02a7193e", "is_disabled": 0, "type": "electric_scooter", "lat": 38.92490883333333, "lon": -77.0522815, "is_reserved": 0, "fusion_lon": 0.0}, {"rental_uris": {"ios": "https://dc.lft.to/lastmile_qr_scan", "android": "https://dc.lft.to/lastmile_qr_scan"}, "fusion_lat": 0.0, "name": "f0281d6e1dfdbf0e39d7116ca928da9b", "bike_id": "f0281d6e1dfdbf0e39d7116ca928da9b", "is_disabled": 0, "type": "electric_scooter", "lat": 38.91263883333333, "lon": -77.0455155, "is_reserved": 0, "fusion_lon": 0.0}, {"rental_uris": {"ios": "https://dc.lft.to/lastmile_qr_scan", "android": "https://dc.lft.to/lastmile_qr_scan"}, "fusion_lat": 0.0, "name": "1655b17384a969e1e4fe57d97c1705db", "bike_id": "1655b17384a969e1e4fe57d97c1705db", "is_disabled": 0, "type": "electric_scooter", "lat": 38.9482355, "lon": -76.999054, "is_reserved": 0, "fusion_lon": 0.0}, {"rental_uris": {"ios": "https://dc.lft.to/lastmile_qr_scan", "android": "https://dc.lft.to/lastmile_qr_scan"}, "fusion_lat": 0.0, "name": "bd6a751f172044e4789b25a0534cf364", "bike_id": "bd6a751f172044e4789b25a0534cf364", "is_disabled": 0, "type": "electric_scooter", "lat": 38.88743933333333, "lon": -77.02128433333333, "is_reserved": 0, "fusion_lon": 0.0}, {"rental_uris": {"ios": "https://dc.lft.to/lastmile_qr_scan", "android": "https://dc.lft.to/lastmile_qr_scan"}, "fusion_lat": 0.0, "name": "318b93721e001e86e01740844e7517ca", "bike_id": "318b93721e001e86e01740844e7517ca", "is_disabled": 0, "type": "electric_scooter", "lat": 38.90420566666667, "lon": -77.04356683333333, "is_reserved": 0, "fusion_lon": 0.0}, {"rental_uris": {"ios": "https://dc.lft.to/lastmile_qr_scan", "android": "https://dc.lft.to/lastmile_qr_scan"}, "fusion_lat": 0.0, "name": "a04d286acace978094333d08f7451487", "bike_id": "a04d286acace978094333d08f7451487", "is_disabled": 0, "type": "electric_scooter", "lat": 38.91485516666667, "lon": -77.02191316666666, "is_reserved": 0, "fusion_lon": 0.0}, {"rental_uris": {"ios": "https://dc.lft.to/lastmile_qr_scan", "android": "https://dc.lft.to/lastmile_qr_scan"}, "fusion_lat": 0.0, "name": "30dca9c7ddb5e0c60ff1c10c3d439aed", "bike_id": "30dca9c7ddb5e0c60ff1c10c3d439aed", "is_disabled": 0, "type": "electric_scooter", "lat": 38.909721166666664, "lon": -77.04233783333333, "is_reserved": 0, "fusion_lon": 0.0}, {"rental_uris": {"ios": "https://dc.lft.to/lastmile_qr_scan", "android": "https://dc.lft.to/lastmile_qr_scan"}, "fusion_lat": 0.0, "name": "ac1147a2c48c0bd2da0236f354d440d2", "bike_id": "ac1147a2c48c0bd2da0236f354d440d2", "is_disabled": 0, "type": "electric_scooter", "lat": 38.902182, "lon": -77.06061566666666, "is_reserved": 0, "fusion_lon": 0.0}, {"rental_uris": {"ios": "https://dc.lft.to/lastmile_qr_scan", "android": "https://dc.lft.to/lastmile_qr_scan"}, "fusion_lat": 0.0, "name": "a0bdbe4ae615eae57a43c1b35e33f07e", "bike_id": "a0bdbe4ae615eae57a43c1b35e33f07e", "is_disabled": 0, "type": "electric_scooter", "lat": 38.9279805, "lon": -77.01417566666667, "is_reserved": 0, "fusion_lon": 0.0}, {"rental_uris": {"ios": "https://dc.lft.to/lastmile_qr_scan", "android": "https://dc.lft.to/lastmile_qr_scan"}, "fusion_lat": 0.0, "name": "9f38494a9f3b7433a3961261cc0b06a8", "bike_id": "9f38494a9f3b7433a3961261cc0b06a8", "is_disabled": 0, "type": "electric_scooter", "lat": 38.86214066666667, "lon": -76.99481583333333, "is_reserved": 0, "fusion_lon": 0.0}, {"rental_uris": {"ios": "https://dc.lft.to/lastmile_qr_scan", "android": "https://dc.lft.to/lastmile_qr_scan"}, "fusion_lat": 0.0, "name": "b9bedc1447e1e9c73e3cd4e6cacb249f", "bike_id": "b9bedc1447e1e9c73e3cd4e6cacb249f", "is_disabled": 0, "type": "electric_scooter", "lat": 38.91675683333333, "lon": -77.02325283333333, "is_reserved": 0, "fusion_lon": 0.0}, {"rental_uris": {"ios": "https://dc.lft.to/lastmile_qr_scan", "android": "https://dc.lft.to/lastmile_qr_scan"}, "fusion_lat": 0.0, "name": "d27fdbc5d62eda7bad135448e4fc6a8d", "bike_id": "d27fdbc5d62eda7bad135448e4fc6a8d", "is_disabled": 0, "type": "electric_scooter", "lat": 38.870939, "lon": -76.968692, "is_reserved": 0, "fusion_lon": 0.0}, {"rental_uris": {"ios": "https://dc.lft.to/lastmile_qr_scan", "android": "https://dc.lft.to/lastmile_qr_scan"}, "fusion_lat": 0.0, "name": "963fd064d9f9bbfc9eb07c90e313208c", "bike_id": "963fd064d9f9bbfc9eb07c90e313208c", "is_disabled": 0, "type": "electric_scooter", "lat": 38.92617216666667, "lon": -77.03799833333333, "is_reserved": 0, "fusion_lon": 0.0}, {"rental_uris": {"ios": "https://dc.lft.to/lastmile_qr_scan", "android": "https://dc.lft.to/lastmile_qr_scan"}, "fusion_lat": 0.0, "name": "34d020932db6741eb2bb872d4552e112", "bike_id": "34d020932db6741eb2bb872d4552e112", "is_disabled": 0, "type": "electric_scooter", "lat": 38.88434516666667, "lon": -76.9959195, "is_reserved": 0, "fusion_lon": 0.0}, {"rental_uris": {"ios": "https://dc.lft.to/lastmile_qr_scan", "android": "https://dc.lft.to/lastmile_qr_scan"}, "fusion_lat": 0.0, "name": "0d29953af0ee960b7e421278e8e0a905", "bike_id": "0d29953af0ee960b7e421278e8e0a905", "is_disabled": 0, "type": "electric_bike", "lat": 38.871502666666665, "lon": -76.936498, "is_reserved": 0, "fusion_lon": 0.0}, {"rental_uris": {"ios": "https://dc.lft.to/lastmile_qr_scan", "android": "https://dc.lft.to/lastmile_qr_scan"}, "fusion_lat": 0.0, "name": "5b48b6ed6c4fed4bebaef7dabbba3444", "bike_id": "5b48b6ed6c4fed4bebaef7dabbba3444", "is_disabled": 0, "type": "electric_scooter", "lat": 38.91815183333333, "lon": -77.04513716666666, "is_reserved": 0, "fusion_lon": 0.0}, {"rental_uris": {"ios": "https://dc.lft.to/lastmile_qr_scan", "android": "https://dc.lft.to/lastmile_qr_scan"}, "fusion_lat": 0.0, "name": "c6655f1d92045fa567f894b011d06cdb", "bike_id": "c6655f1d92045fa567f894b011d06cdb", "is_disabled": 0, "type": "electric_scooter", "lat": 38.906645833333336, "lon": -77.027083, "is_reserved": 0, "fusion_lon": 0.0}, {"rental_uris": {"ios": "https://dc.lft.to/lastmile_qr_scan", "android": "https://dc.lft.to/lastmile_qr_scan"}, "fusion_lat": 0.0, "name": "b43f272e5e645f47c8ef575820ca9050", "bike_id": "b43f272e5e645f47c8ef575820ca9050", "is_disabled": 0, "type": "electric_scooter", "lat": 38.892201, "lon": -77.02777133333333, "is_reserved": 0, "fusion_lon": 0.0}, {"rental_uris": {"ios": "https://dc.lft.to/lastmile_qr_scan", "android": "https://dc.lft.to/lastmile_qr_scan"}, "fusion_lat": 0.0, "name": "7e2eb49e463dde8e899520fecc29fe09", "bike_id": "7e2eb49e463dde8e899520fecc29fe09", "is_disabled": 0, "type": "electric_scooter", "lat": 38.887568, "lon": -77.03371466666667, "is_reserved": 0, "fusion_lon": 0.0}, {"rental_uris": {"ios": "https://dc.lft.to/lastmile_qr_scan", "android": "https://dc.lft.to/lastmile_qr_scan"}, "fusion_lat": 0.0, "name": "876f413b387aa5b5ed72bc7207fa4b84", "bike_id": "876f413b387aa5b5ed72bc7207fa4b84", "is_disabled": 0, "type": "electric_scooter", "lat": 38.932503, "lon": -77.03847633333334, "is_reserved": 0, "fusion_lon": 0.0}, {"rental_uris": {"ios": "https://dc.lft.to/lastmile_qr_scan", "android": "https://dc.lft.to/lastmile_qr_scan"}, "fusion_lat": 0.0, "name": "55b86212a2618f5ca54595c4a839fdcc", "bike_id": "55b86212a2618f5ca54595c4a839fdcc", "is_disabled": 0, "type": "electric_scooter", "lat": 38.921124166666665, "lon": -77.0437175, "is_reserved": 0, "fusion_lon": 0.0}, {"rental_uris": {"ios": "https://dc.lft.to/lastmile_qr_scan", "android": "https://dc.lft.to/lastmile_qr_scan"}, "fusion_lat": 0.0, "name": "0058cd32655bc70218058ec8e0a3b4ea", "bike_id": "0058cd32655bc70218058ec8e0a3b4ea", "is_disabled": 0, "type": "electric_scooter", "lat": 38.873868, "lon": -76.96605516666666, "is_reserved": 0, "fusion_lon": 0.0}, {"rental_uris": {"ios": "https://dc.lft.to/lastmile_qr_scan", "android": "https://dc.lft.to/lastmile_qr_scan"}, "fusion_lat": 0.0, "name": "09fc16009389c3f75fd2693a6b22da33", "bike_id": "09fc16009389c3f75fd2693a6b22da33", "is_disabled": 0, "type": "electric_scooter", "lat": 38.892399166666664, "lon": -77.04657866666666, "is_reserved": 0, "fusion_lon": 0.0}, {"rental_uris": {"ios": "https://dc.lft.to/lastmile_qr_scan", "android": "https://dc.lft.to/lastmile_qr_scan"}, "fusion_lat": 0.0, "name": "391bfe6546222ce2cd0e3a6ce400a648", "bike_id": "391bfe6546222ce2cd0e3a6ce400a648", "is_disabled": 0, "type": "electric_scooter", "lat": 38.90790966666667, "lon": -77.0318645, "is_reserved": 0, "fusion_lon": 0.0}, {"rental_uris": {"ios": "https://dc.lft.to/lastmile_qr_scan", "android": "https://dc.lft.to/lastmile_qr_scan"}, "fusion_lat": 0.0, "name": "d56b67bd670215fb02ff6b33b42fd4ec", "bike_id": "d56b67bd670215fb02ff6b33b42fd4ec", "is_disabled": 0, "type": "electric_scooter", "lat": 38.91684733333334, "lon": -77.0296405, "is_reserved": 0, "fusion_lon": 0.0}, {"rental_uris": {"ios": "https://dc.lft.to/lastmile_qr_scan", "android": "https://dc.lft.to/lastmile_qr_scan"}, "fusion_lat": 0.0, "name": "abe85d2fc79faaec9044452c6fe1b348", "bike_id": "abe85d2fc79faaec9044452c6fe1b348", "is_disabled": 0, "type": "electric_scooter", "lat": 38.9250925, "lon": -77.00223516666667, "is_reserved": 0, "fusion_lon": 0.0}, {"rental_uris": {"ios": "https://dc.lft.to/lastmile_qr_scan", "android": "https://dc.lft.to/lastmile_qr_scan"}, "fusion_lat": 0.0, "name": "4b374082228baa31c2dc1fbf906940d7", "bike_id": "4b374082228baa31c2dc1fbf906940d7", "is_disabled": 0, "type": "electric_scooter", "lat": 38.904274, "lon": -77.034423, "is_reserved": 0, "fusion_lon": 0.0}, {"rental_uris": {"ios": "https://dc.lft.to/lastmile_qr_scan", "android": "https://dc.lft.to/lastmile_qr_scan"}, "fusion_lat": 0.0, "name": "b1f9b31cc6afadbdee6303e44357a8a5", "bike_id": "b1f9b31cc6afadbdee6303e44357a8a5", "is_disabled": 0, "type": "electric_scooter", "lat": 38.892195, "lon": -77.02653816666667, "is_reserved": 0, "fusion_lon": 0.0}, {"rental_uris": {"ios": "https://dc.lft.to/lastmile_qr_scan", "android": "https://dc.lft.to/lastmile_qr_scan"}, "fusion_lat": 0.0, "name": "9fe926c61dd0736a0ea2dea0029445a7", "bike_id": "9fe926c61dd0736a0ea2dea0029445a7", "is_disabled": 0, "type": "electric_scooter", "lat": 38.890347, "lon": -76.9375615, "is_reserved": 0, "fusion_lon": 0.0}, {"rental_uris": {"ios": "https://dc.lft.to/lastmile_qr_scan", "android": "https://dc.lft.to/lastmile_qr_scan"}, "fusion_lat": 0.0, "name": "93be9fb924f15a2345d9ae12e4b66110", "bike_id": "93be9fb924f15a2345d9ae12e4b66110", "is_disabled": 0, "type": "electric_scooter", "lat": 38.92973533333333, "lon": -77.03778466666667, "is_reserved": 0, "fusion_lon": 0.0}, {"rental_uris": {"ios": "https://dc.lft.to/lastmile_qr_scan", "android": "https://dc.lft.to/lastmile_qr_scan"}, "fusion_lat": 0.0, "name": "b96a4e760c6f4b5bb8ede9018667b52d", "bike_id": "b96a4e760c6f4b5bb8ede9018667b52d", "is_disabled": 0, "type": "electric_scooter", "lat": 38.93360716666667, "lon": -77.05727916666666, "is_reserved": 0, "fusion_lon": 0.0}, {"rental_uris": {"ios": "https://dc.lft.to/lastmile_qr_scan", "android": "https://dc.lft.to/lastmile_qr_scan"}, "fusion_lat": 0.0, "name": "b9fd0b0572309799a0e9f4b06e921527", "bike_id": "b9fd0b0572309799a0e9f4b06e921527", "is_disabled": 0, "type": "electric_scooter", "lat": 38.91684566666667, "lon": -77.029538, "is_reserved": 0, "fusion_lon": 0.0}, {"rental_uris": {"ios": "https://dc.lft.to/lastmile_qr_scan", "android": "https://dc.lft.to/lastmile_qr_scan"}, "fusion_lat": 0.0, "name": "ec877d2a87e8130b1c2b63b0f4c8ba31", "bike_id": "ec877d2a87e8130b1c2b63b0f4c8ba31", "is_disabled": 0, "type": "electric_scooter", "lat": 38.92099783333333, "lon": -77.03180033333334, "is_reserved": 0, "fusion_lon": 0.0}, {"rental_uris": {"ios": "https://dc.lft.to/lastmile_qr_scan", "android": "https://dc.lft.to/lastmile_qr_scan"}, "fusion_lat": 0.0, "name": "cb93dbcd2afbc1db0375c8b47f6a8517", "bike_id": "cb93dbcd2afbc1db0375c8b47f6a8517", "is_disabled": 0, "type": "electric_scooter", "lat": 38.8922365, "lon": -77.04645116666667, "is_reserved": 0, "fusion_lon": 0.0}, {"rental_uris": {"ios": "https://dc.lft.to/lastmile_qr_scan", "android": "https://dc.lft.to/lastmile_qr_scan"}, "fusion_lat": 0.0, "name": "54a94048e50b1c4b2d74ce6fda8a13de", "bike_id": "54a94048e50b1c4b2d74ce6fda8a13de", "is_disabled": 0, "type": "electric_bike", "lat": 38.9622615, "lon": -77.02625316666666, "is_reserved": 0, "fusion_lon": 0.0}, {"rental_uris": {"ios": "https://dc.lft.to/lastmile_qr_scan", "android": "https://dc.lft.to/lastmile_qr_scan"}, "fusion_lat": 0.0, "name": "89516c9aab440fc64cca4a3059a6fc9d", "bike_id": "89516c9aab440fc64cca4a3059a6fc9d", "is_disabled": 0, "type": "electric_scooter", "lat": 38.92747283333333, "lon": -77.032852, "is_reserved": 0, "fusion_lon": 0.0}, {"rental_uris": {"ios": "https://dc.lft.to/lastmile_qr_scan", "android": "https://dc.lft.to/lastmile_qr_scan"}, "fusion_lat": 0.0, "name": "1b4beb49a5c84ff683fb43e738ddee14", "bike_id": "1b4beb49a5c84ff683fb43e738ddee14", "is_disabled": 0, "type": "electric_scooter", "lat": 38.89035766666667, "lon": -76.951426, "is_reserved": 0, "fusion_lon": 0.0}, {"rental_uris": {"ios": "https://dc.lft.to/lastmile_qr_scan", "android": "https://dc.lft.to/lastmile_qr_scan"}, "fusion_lat": 0.0, "name": "6996888170dd010bc0256b4171350254", "bike_id": "6996888170dd010bc0256b4171350254", "is_disabled": 0, "type": "electric_bike", "lat": 38.95332716666667, "lon": -76.94583583333333, "is_reserved": 0, "fusion_lon": 0.0}, {"rental_uris": {"ios": "https://dc.lft.to/lastmile_qr_scan", "android": "https://dc.lft.to/lastmile_qr_scan"}, "fusion_lat": 0.0, "name": "764ad1ca8b47fea2f9ba1ce497108570", "bike_id": "764ad1ca8b47fea2f9ba1ce497108570", "is_disabled": 0, "type": "electric_scooter", "lat": 38.89826383333333, "lon": -77.03329416666666, "is_reserved": 0, "fusion_lon": 0.0}, {"rental_uris": {"ios": "https://dc.lft.to/lastmile_qr_scan", "android": "https://dc.lft.to/lastmile_qr_scan"}, "fusion_lat": 0.0, "name": "34369a4940b1c3c7ae62d97080ff436d", "bike_id": "34369a4940b1c3c7ae62d97080ff436d", "is_disabled": 0, "type": "electric_scooter", "lat": 38.89759016666667, "lon": -77.03182283333334, "is_reserved": 0, "fusion_lon": 0.0}, {"rental_uris": {"ios": "https://dc.lft.to/lastmile_qr_scan", "android": "https://dc.lft.to/lastmile_qr_scan"}, "fusion_lat": 0.0, "name": "e7af7789c189140f31abd3711f5ca369", "bike_id": "e7af7789c189140f31abd3711f5ca369", "is_disabled": 0, "type": "electric_scooter", "lat": 38.93884333333333, "lon": -77.02488966666667, "is_reserved": 0, "fusion_lon": 0.0}, {"rental_uris": {"ios": "https://dc.lft.to/lastmile_qr_scan", "android": "https://dc.lft.to/lastmile_qr_scan"}, "fusion_lat": 0.0, "name": "a2c9e68572095d43eec197ee4a21805b", "bike_id": "a2c9e68572095d43eec197ee4a21805b", "is_disabled": 0, "type": "electric_bike", "lat": 38.99818916666667, "lon": -76.88373433333334, "is_reserved": 0, "fusion_lon": 0.0}, {"rental_uris": {"ios": "https://dc.lft.to/lastmile_qr_scan", "android": "https://dc.lft.to/lastmile_qr_scan"}, "fusion_lat": 0.0, "name": "5a0801f3830070d929c81443c424db10", "bike_id": "5a0801f3830070d929c81443c424db10", "is_disabled": 0, "type": "electric_scooter", "lat": 38.925657333333334, "lon": -77.037562, "is_reserved": 0, "fusion_lon": 0.0}, {"rental_uris": {"ios": "https://dc.lft.to/lastmile_qr_scan", "android": "https://dc.lft.to/lastmile_qr_scan"}, "fusion_lat": 0.0, "name": "b505bf26edf809bf6aca5e45b4516448", "bike_id": "b505bf26edf809bf6aca5e45b4516448", "is_disabled": 0, "type": "electric_scooter", "lat": 38.8956955, "lon": -76.93036583333334, "is_reserved": 0, "fusion_lon": 0.0}, {"rental_uris": {"ios": "https://dc.lft.to/lastmile_qr_scan", "android": "https://dc.lft.to/lastmile_qr_scan"}, "fusion_lat": 0.0, "name": "1a0b3176bcd273d858d16d739b4d3a16", "bike_id": "1a0b3176bcd273d858d16d739b4d3a16", "is_disabled": 0, "type": "electric_scooter", "lat": 38.920881, "lon": -77.0317325, "is_reserved": 0, "fusion_lon": 0.0}, {"rental_uris": {"ios": "https://dc.lft.to/lastmile_qr_scan", "android": "https://dc.lft.to/lastmile_qr_scan"}, "fusion_lat": 0.0, "name": "727f464f458201c3e37e066839e55afb", "bike_id": "727f464f458201c3e37e066839e55afb", "is_disabled": 0, "type": "electric_bike", "lat": 38.9548645, "lon": -76.990025, "is_reserved": 0, "fusion_lon": 0.0}, {"rental_uris": {"ios": "https://dc.lft.to/lastmile_qr_scan", "android": "https://dc.lft.to/lastmile_qr_scan"}, "fusion_lat": 0.0, "name": "f0766a941b1d5720176811bd06b0a80d", "bike_id": "f0766a941b1d5720176811bd06b0a80d", "is_disabled": 0, "type": "electric_scooter", "lat": 38.8988495, "lon": -76.93177966666667, "is_reserved": 0, "fusion_lon": 0.0}, {"rental_uris": {"ios": "https://dc.lft.to/lastmile_qr_scan", "android": "https://dc.lft.to/lastmile_qr_scan"}, "fusion_lat": 0.0, "name": "21c570c11681202f76a0166cac999396", "bike_id": "21c570c11681202f76a0166cac999396", "is_disabled": 0, "type": "electric_scooter", "lat": 38.907744666666666, "lon": -77.02983016666667, "is_reserved": 0, "fusion_lon": 0.0}, {"rental_uris": {"ios": "https://dc.lft.to/lastmile_qr_scan", "android": "https://dc.lft.to/lastmile_qr_scan"}, "fusion_lat": 0.0, "name": "6f0afc269441a4a3e756dfc4e274ca75", "bike_id": "6f0afc269441a4a3e756dfc4e274ca75", "is_disabled": 0, "type": "electric_scooter", "lat": 38.956241166666665, "lon": -77.024318, "is_reserved": 0, "fusion_lon": 0.0}, {"rental_uris": {"ios": "https://dc.lft.to/lastmile_qr_scan", "android": "https://dc.lft.to/lastmile_qr_scan"}, "fusion_lat": 0.0, "name": "2f304de577d1bbf67d05855682f90604", "bike_id": "2f304de577d1bbf67d05855682f90604", "is_disabled": 0, "type": "electric_scooter", "lat": 38.899551833333334, "lon": -77.03157416666667, "is_reserved": 0, "fusion_lon": 0.0}, {"rental_uris": {"ios": "https://dc.lft.to/lastmile_qr_scan", "android": "https://dc.lft.to/lastmile_qr_scan"}, "fusion_lat": 0.0, "name": "cc43378c3e9ca91e124d5d3d9e43dbc8", "bike_id": "cc43378c3e9ca91e124d5d3d9e43dbc8", "is_disabled": 0, "type": "electric_scooter", "lat": 38.89521083333333, "lon": -77.043343, "is_reserved": 0, "fusion_lon": 0.0}, {"rental_uris": {"ios": "https://dc.lft.to/lastmile_qr_scan", "android": "https://dc.lft.to/lastmile_qr_scan"}, "fusion_lat": 0.0, "name": "d0b92160fce4b075a8e1eab073d5b479", "bike_id": "d0b92160fce4b075a8e1eab073d5b479", "is_disabled": 0, "type": "electric_scooter", "lat": 38.92879533333333, "lon": -77.0730385, "is_reserved": 0, "fusion_lon": 0.0}, {"rental_uris": {"ios": "https://dc.lft.to/lastmile_qr_scan", "android": "https://dc.lft.to/lastmile_qr_scan"}, "fusion_lat": 0.0, "name": "b52c0501e6ee135e663c0aa04670bf91", "bike_id": "b52c0501e6ee135e663c0aa04670bf91", "is_disabled": 0, "type": "electric_bike", "lat": 38.9121865, "lon": -77.01207, "is_reserved": 0, "fusion_lon": 0.0}, {"rental_uris": {"ios": "https://dc.lft.to/lastmile_qr_scan", "android": "https://dc.lft.to/lastmile_qr_scan"}, "fusion_lat": 0.0, "name": "c6f20311c9c898c7d02a5a6d07c1b179", "bike_id": "c6f20311c9c898c7d02a5a6d07c1b179", "is_disabled": 0, "type": "electric_scooter", "lat": 38.91782516666667, "lon": -77.02343883333333, "is_reserved": 0, "fusion_lon": 0.0}, {"rental_uris": {"ios": "https://dc.lft.to/lastmile_qr_scan", "android": "https://dc.lft.to/lastmile_qr_scan"}, "fusion_lat": 0.0, "name": "686140f6f710fe798bca20e13cc0a485", "bike_id": "686140f6f710fe798bca20e13cc0a485", "is_disabled": 0, "type": "electric_scooter", "lat": 38.9174015, "lon": -77.03186833333334, "is_reserved": 0, "fusion_lon": 0.0}, {"rental_uris": {"ios": "https://dc.lft.to/lastmile_qr_scan", "android": "https://dc.lft.to/lastmile_qr_scan"}, "fusion_lat": 0.0, "name": "26822c7ccd10c41788ab215b076a6327", "bike_id": "26822c7ccd10c41788ab215b076a6327", "is_disabled": 0, "type": "electric_scooter", "lat": 38.9155745, "lon": -77.02213283333333, "is_reserved": 0, "fusion_lon": 0.0}, {"rental_uris": {"ios": "https://dc.lft.to/lastmile_qr_scan", "android": "https://dc.lft.to/lastmile_qr_scan"}, "fusion_lat": 0.0, "name": "acda96e9d64a774c5acadc9009d477c5", "bike_id": "acda96e9d64a774c5acadc9009d477c5", "is_disabled": 0, "type": "electric_scooter", "lat": 38.86648233333333, "lon": -76.98888566666666, "is_reserved": 0, "fusion_lon": 0.0}, {"rental_uris": {"ios": "https://dc.lft.to/lastmile_qr_scan", "android": "https://dc.lft.to/lastmile_qr_scan"}, "fusion_lat": 0.0, "name": "7f64c66becb310ac936e7a92a16a64c9", "bike_id": "7f64c66becb310ac936e7a92a16a64c9", "is_disabled": 0, "type": "electric_scooter", "lat": 38.912529, "lon": -77.037503, "is_reserved": 0, "fusion_lon": 0.0}, {"rental_uris": {"ios": "https://dc.lft.to/lastmile_qr_scan", "android": "https://dc.lft.to/lastmile_qr_scan"}, "fusion_lat": 0.0, "name": "d15b3907f75be3f58af616589e71fee6", "bike_id": "d15b3907f75be3f58af616589e71fee6", "is_disabled": 0, "type": "electric_scooter", "lat": 38.93881716666667, "lon": -77.02488033333333, "is_reserved": 0, "fusion_lon": 0.0}, {"rental_uris": {"ios": "https://dc.lft.to/lastmile_qr_scan", "android": "https://dc.lft.to/lastmile_qr_scan"}, "fusion_lat": 0.0, "name": "c0a1238d34a8f84267f51db767e3986d", "bike_id": "c0a1238d34a8f84267f51db767e3986d", "is_disabled": 0, "type": "electric_scooter", "lat": 38.9129925, "lon": -77.04352483333334, "is_reserved": 0, "fusion_lon": 0.0}, {"rental_uris": {"ios": "https://dc.lft.to/lastmile_qr_scan", "android": "https://dc.lft.to/lastmile_qr_scan"}, "fusion_lat": 0.0, "name": "1fcb073f2e2099a58b09d4d28e74852e", "bike_id": "1fcb073f2e2099a58b09d4d28e74852e", "is_disabled": 0, "type": "electric_scooter", "lat": 38.9058105, "lon": -77.006007, "is_reserved": 0, "fusion_lon": 0.0}, {"rental_uris": {"ios": "https://dc.lft.to/lastmile_qr_scan", "android": "https://dc.lft.to/lastmile_qr_scan"}, "fusion_lat": 0.0, "name": "aaf821a48b388c22fbc25f74e3ea2fab", "bike_id": "aaf821a48b388c22fbc25f74e3ea2fab", "is_disabled": 0, "type": "electric_scooter", "lat": 38.903406333333336, "lon": -77.04359533333333, "is_reserved": 0, "fusion_lon": 0.0}, {"rental_uris": {"ios": "https://dc.lft.to/lastmile_qr_scan", "android": "https://dc.lft.to/lastmile_qr_scan"}, "fusion_lat": 0.0, "name": "a7ed9e885d7256b38276e3caf4ff23b5", "bike_id": "a7ed9e885d7256b38276e3caf4ff23b5", "is_disabled": 0, "type": "electric_scooter", "lat": 38.911880333333336, "lon": -77.04459233333333, "is_reserved": 0, "fusion_lon": 0.0}, {"rental_uris": {"ios": "https://dc.lft.to/lastmile_qr_scan", "android": "https://dc.lft.to/lastmile_qr_scan"}, "fusion_lat": 0.0, "name": "de4c8fb745573de940861c83b69c5deb", "bike_id": "de4c8fb745573de940861c83b69c5deb", "is_disabled": 0, "type": "electric_scooter", "lat": 38.899024833333335, "lon": -76.93355133333333, "is_reserved": 0, "fusion_lon": 0.0}, {"rental_uris": {"ios": "https://dc.lft.to/lastmile_qr_scan", "android": "https://dc.lft.to/lastmile_qr_scan"}, "fusion_lat": 0.0, "name": "e44342012c5078261a236d9c0f8e5be2", "bike_id": "e44342012c5078261a236d9c0f8e5be2", "is_disabled": 0, "type": "electric_scooter", "lat": 38.90414783333333, "lon": -77.0533255, "is_reserved": 0, "fusion_lon": 0.0}, {"rental_uris": {"ios": "https://dc.lft.to/lastmile_qr_scan", "android": "https://dc.lft.to/lastmile_qr_scan"}, "fusion_lat": 0.0, "name": "dd1da974bd529592f7dab1528e349090", "bike_id": "dd1da974bd529592f7dab1528e349090", "is_disabled": 0, "type": "electric_scooter", "lat": 38.89880433333333, "lon": -77.03325333333333, "is_reserved": 0, "fusion_lon": 0.0}, {"rental_uris": {"ios": "https://dc.lft.to/lastmile_qr_scan", "android": "https://dc.lft.to/lastmile_qr_scan"}, "fusion_lat": 0.0, "name": "dd9b851d34b8151bb84bb5dada8389e9", "bike_id": "dd9b851d34b8151bb84bb5dada8389e9", "is_disabled": 0, "type": "electric_scooter", "lat": 38.897072, "lon": -77.02777, "is_reserved": 0, "fusion_lon": 0.0}, {"rental_uris": {"ios": "https://dc.lft.to/lastmile_qr_scan", "android": "https://dc.lft.to/lastmile_qr_scan"}, "fusion_lat": 0.0, "name": "217d252a333dc03942fbcb704b157215", "bike_id": "217d252a333dc03942fbcb704b157215", "is_disabled": 0, "type": "electric_scooter", "lat": 38.915657833333334, "lon": -77.020048, "is_reserved": 0, "fusion_lon": 0.0}, {"rental_uris": {"ios": "https://dc.lft.to/lastmile_qr_scan", "android": "https://dc.lft.to/lastmile_qr_scan"}, "fusion_lat": 0.0, "name": "52efb334b70797c0196d92fcb32664a1", "bike_id": "52efb334b70797c0196d92fcb32664a1", "is_disabled": 0, "type": "electric_scooter", "lat": 38.89232116666667, "lon": -77.02802983333333, "is_reserved": 0, "fusion_lon": 0.0}, {"rental_uris": {"ios": "https://dc.lft.to/lastmile_qr_scan", "android": "https://dc.lft.to/lastmile_qr_scan"}, "fusion_lat": 0.0, "name": "1a928c953c49ed3f67617e0d64151853", "bike_id": "1a928c953c49ed3f67617e0d64151853", "is_disabled": 0, "type": "electric_scooter", "lat": 38.840791, "lon": -76.989231, "is_reserved": 0, "fusion_lon": 0.0}, {"rental_uris": {"ios": "https://dc.lft.to/lastmile_qr_scan", "android": "https://dc.lft.to/lastmile_qr_scan"}, "fusion_lat": 0.0, "name": "da6e3edc918e1bc6fc04b04a333cb10c", "bike_id": "da6e3edc918e1bc6fc04b04a333cb10c", "is_disabled": 0, "type": "electric_scooter", "lat": 38.892226666666666, "lon": -77.0432945, "is_reserved": 0, "fusion_lon": 0.0}, {"rental_uris": {"ios": "https://dc.lft.to/lastmile_qr_scan", "android": "https://dc.lft.to/lastmile_qr_scan"}, "fusion_lat": 0.0, "name": "3f4e24130777e1efe1493e1fb126b5bc", "bike_id": "3f4e24130777e1efe1493e1fb126b5bc", "is_disabled": 0, "type": "electric_scooter", "lat": 38.918927, "lon": -77.02468983333333, "is_reserved": 0, "fusion_lon": 0.0}, {"rental_uris": {"ios": "https://dc.lft.to/lastmile_qr_scan", "android": "https://dc.lft.to/lastmile_qr_scan"}, "fusion_lat": 0.0, "name": "05862434f3074beb95ec581721cb5bde", "bike_id": "05862434f3074beb95ec581721cb5bde", "is_disabled": 0, "type": "electric_scooter", "lat": 38.892220333333334, "lon": -77.0333935, "is_reserved": 0, "fusion_lon": 0.0}, {"rental_uris": {"ios": "https://dc.lft.to/lastmile_qr_scan", "android": "https://dc.lft.to/lastmile_qr_scan"}, "fusion_lat": 0.0, "name": "3a6a46e201e2c8a2cb203e6be3a9f38a", "bike_id": "3a6a46e201e2c8a2cb203e6be3a9f38a", "is_disabled": 0, "type": "electric_scooter", "lat": 38.949567, "lon": -77.027226, "is_reserved": 0, "fusion_lon": 0.0}, {"rental_uris": {"ios": "https://dc.lft.to/lastmile_qr_scan", "android": "https://dc.lft.to/lastmile_qr_scan"}, "fusion_lat": 0.0, "name": "35a841cbf0173ac2ea2eb3b70e078f53", "bike_id": "35a841cbf0173ac2ea2eb3b70e078f53", "is_disabled": 0, "type": "electric_scooter", "lat": 38.89220616666667, "lon": -77.01369583333333, "is_reserved": 0, "fusion_lon": 0.0}, {"rental_uris": {"ios": "https://dc.lft.to/lastmile_qr_scan", "android": "https://dc.lft.to/lastmile_qr_scan"}, "fusion_lat": 0.0, "name": "9380acf97b81ac0cc13813208ff641ce", "bike_id": "9380acf97b81ac0cc13813208ff641ce", "is_disabled": 0, "type": "electric_scooter", "lat": 38.951664666666666, "lon": -77.02751483333333, "is_reserved": 0, "fusion_lon": 0.0}, {"rental_uris": {"ios": "https://dc.lft.to/lastmile_qr_scan", "android": "https://dc.lft.to/lastmile_qr_scan"}, "fusion_lat": 0.0, "name": "f15e88662844f0726d5ca7fd66948187", "bike_id": "f15e88662844f0726d5ca7fd66948187", "is_disabled": 0, "type": "electric_scooter", "lat": 38.91556466666667, "lon": -77.038629, "is_reserved": 0, "fusion_lon": 0.0}, {"rental_uris": {"ios": "https://dc.lft.to/lastmile_qr_scan", "android": "https://dc.lft.to/lastmile_qr_scan"}, "fusion_lat": 0.0, "name": "0d514d280e999eda264dfbbcd030d198", "bike_id": "0d514d280e999eda264dfbbcd030d198", "is_disabled": 0, "type": "electric_scooter", "lat": 38.917060166666666, "lon": -77.03728866666667, "is_reserved": 0, "fusion_lon": 0.0}, {"rental_uris": {"ios": "https://dc.lft.to/lastmile_qr_scan", "android": "https://dc.lft.to/lastmile_qr_scan"}, "fusion_lat": 0.0, "name": "e5a93f45b2767a6b4073218bd7c8fde4", "bike_id": "e5a93f45b2767a6b4073218bd7c8fde4", "is_disabled": 0, "type": "electric_scooter", "lat": 38.90734833333333, "lon": -77.027137, "is_reserved": 0, "fusion_lon": 0.0}, {"rental_uris": {"ios": "https://dc.lft.to/lastmile_qr_scan", "android": "https://dc.lft.to/lastmile_qr_scan"}, "fusion_lat": 0.0, "name": "1006f4d05e9c9679eed55538867c6d5e", "bike_id": "1006f4d05e9c9679eed55538867c6d5e", "is_disabled": 0, "type": "electric_scooter", "lat": 38.912207, "lon": -77.04101883333334, "is_reserved": 0, "fusion_lon": 0.0}, {"rental_uris": {"ios": "https://dc.lft.to/lastmile_qr_scan", "android": "https://dc.lft.to/lastmile_qr_scan"}, "fusion_lat": 0.0, "name": "7f5517c7164005e15cb742f6f4f77a4b", "bike_id": "7f5517c7164005e15cb742f6f4f77a4b", "is_disabled": 0, "type": "electric_scooter", "lat": 38.9127455, "lon": -77.0222055, "is_reserved": 0, "fusion_lon": 0.0}, {"rental_uris": {"ios": "https://dc.lft.to/lastmile_qr_scan", "android": "https://dc.lft.to/lastmile_qr_scan"}, "fusion_lat": 0.0, "name": "e588c8180b65e5fd1d7b36acc7726343", "bike_id": "e588c8180b65e5fd1d7b36acc7726343", "is_disabled": 0, "type": "electric_bike", "lat": 39.054559, "lon": -77.11723966666666, "is_reserved": 0, "fusion_lon": 0.0}, {"rental_uris": {"ios": "https://dc.lft.to/lastmile_qr_scan", "android": "https://dc.lft.to/lastmile_qr_scan"}, "fusion_lat": 0.0, "name": "347d558613585368212c901b72dd43ae", "bike_id": "347d558613585368212c901b72dd43ae", "is_disabled": 0, "type": "electric_scooter", "lat": 38.920246666666664, "lon": -77.03655833333333, "is_reserved": 0, "fusion_lon": 0.0}, {"rental_uris": {"ios": "https://dc.lft.to/lastmile_qr_scan", "android": "https://dc.lft.to/lastmile_qr_scan"}, "fusion_lat": 0.0, "name": "60cf0ae9af497358c9d0a459c1c7f2b5", "bike_id": "60cf0ae9af497358c9d0a459c1c7f2b5", "is_disabled": 0, "type": "electric_scooter", "lat": 38.913615666666665, "lon": -77.04501516666667, "is_reserved": 0, "fusion_lon": 0.0}, {"rental_uris": {"ios": "https://dc.lft.to/lastmile_qr_scan", "android": "https://dc.lft.to/lastmile_qr_scan"}, "fusion_lat": 0.0, "name": "7c5c831a77a745216a34dcef0b08be31", "bike_id": "7c5c831a77a745216a34dcef0b08be31", "is_disabled": 0, "type": "electric_scooter", "lat": 38.91575233333333, "lon": -77.04685716666667, "is_reserved": 0, "fusion_lon": 0.0}, {"rental_uris": {"ios": "https://dc.lft.to/lastmile_qr_scan", "android": "https://dc.lft.to/lastmile_qr_scan"}, "fusion_lat": 0.0, "name": "f4b595c1cd93e183272fab9e5f12c80e", "bike_id": "f4b595c1cd93e183272fab9e5f12c80e", "is_disabled": 0, "type": "electric_scooter", "lat": 38.892205833333335, "lon": -77.03223066666666, "is_reserved": 0, "fusion_lon": 0.0}, {"rental_uris": {"ios": "https://dc.lft.to/lastmile_qr_scan", "android": "https://dc.lft.to/lastmile_qr_scan"}, "fusion_lat": 0.0, "name": "d6c21d9196b79a9dcdf984b0e92fbf97", "bike_id": "d6c21d9196b79a9dcdf984b0e92fbf97", "is_disabled": 0, "type": "electric_scooter", "lat": 38.909864, "lon": -77.0444325, "is_reserved": 0, "fusion_lon": 0.0}, {"rental_uris": {"ios": "https://dc.lft.to/lastmile_qr_scan", "android": "https://dc.lft.to/lastmile_qr_scan"}, "fusion_lat": 0.0, "name": "5e522cd911282a33a3f510689c9108ac", "bike_id": "5e522cd911282a33a3f510689c9108ac", "is_disabled": 0, "type": "electric_scooter", "lat": 38.9290355, "lon": -77.03267033333333, "is_reserved": 0, "fusion_lon": 0.0}, {"rental_uris": {"ios": "https://dc.lft.to/lastmile_qr_scan", "android": "https://dc.lft.to/lastmile_qr_scan"}, "fusion_lat": 0.0, "name": "bdc2fb86f8f63e96efb89afc6d287a6f", "bike_id": "bdc2fb86f8f63e96efb89afc6d287a6f", "is_disabled": 0, "type": "electric_scooter", "lat": 38.884378, "lon": -76.9962735, "is_reserved": 0, "fusion_lon": 0.0}, {"rental_uris": {"ios": "https://dc.lft.to/lastmile_qr_scan", "android": "https://dc.lft.to/lastmile_qr_scan"}, "fusion_lat": 0.0, "name": "4a781109edc176256cf8f99b5eed4f1e", "bike_id": "4a781109edc176256cf8f99b5eed4f1e", "is_disabled": 0, "type": "electric_bike", "lat": 38.9613635, "lon": -77.00971616666666, "is_reserved": 0, "fusion_lon": 0.0}, {"rental_uris": {"ios": "https://dc.lft.to/lastmile_qr_scan", "android": "https://dc.lft.to/lastmile_qr_scan"}, "fusion_lat": 0.0, "name": "798a932ec2bedefde24aff5c70abdf5e", "bike_id": "798a932ec2bedefde24aff5c70abdf5e", "is_disabled": 0, "type": "electric_scooter", "lat": 38.91898366666667, "lon": -77.03195083333334, "is_reserved": 0, "fusion_lon": 0.0}, {"rental_uris": {"ios": "https://dc.lft.to/lastmile_qr_scan", "android": "https://dc.lft.to/lastmile_qr_scan"}, "fusion_lat": 0.0, "name": "00e839b6ae22a138b653b1575e6c2f66", "bike_id": "00e839b6ae22a138b653b1575e6c2f66", "is_disabled": 0, "type": "electric_scooter", "lat": 38.925876833333334, "lon": -77.02965133333333, "is_reserved": 0, "fusion_lon": 0.0}, {"rental_uris": {"ios": "https://dc.lft.to/lastmile_qr_scan", "android": "https://dc.lft.to/lastmile_qr_scan"}, "fusion_lat": 0.0, "name": "3dbce1907570971aaab45d99aae71253", "bike_id": "3dbce1907570971aaab45d99aae71253", "is_disabled": 0, "type": "electric_scooter", "lat": 38.9007285, "lon": -77.04907483333334, "is_reserved": 0, "fusion_lon": 0.0}, {"rental_uris": {"ios": "https://dc.lft.to/lastmile_qr_scan", "android": "https://dc.lft.to/lastmile_qr_scan"}, "fusion_lat": 0.0, "name": "b726c818152b019b663d1256f4ac9906", "bike_id": "b726c818152b019b663d1256f4ac9906", "is_disabled": 0, "type": "electric_scooter", "lat": 38.914069166666664, "lon": -77.04459416666667, "is_reserved": 0, "fusion_lon": 0.0}, {"rental_uris": {"ios": "https://dc.lft.to/lastmile_qr_scan", "android": "https://dc.lft.to/lastmile_qr_scan"}, "fusion_lat": 0.0, "name": "68490f2144232329cc05d81c3d446e13", "bike_id": "68490f2144232329cc05d81c3d446e13", "is_disabled": 0, "type": "electric_scooter", "lat": 38.942257833333336, "lon": -77.07682516666667, "is_reserved": 0, "fusion_lon": 0.0}, {"rental_uris": {"ios": "https://dc.lft.to/lastmile_qr_scan", "android": "https://dc.lft.to/lastmile_qr_scan"}, "fusion_lat": 0.0, "name": "20a794264a5f025f0d39727ec43af415", "bike_id": "20a794264a5f025f0d39727ec43af415", "is_disabled": 0, "type": "electric_scooter", "lat": 38.9181625, "lon": -77.03912533333333, "is_reserved": 0, "fusion_lon": 0.0}, {"rental_uris": {"ios": "https://dc.lft.to/lastmile_qr_scan", "android": "https://dc.lft.to/lastmile_qr_scan"}, "fusion_lat": 0.0, "name": "46bfa537d3a10ccdd6a3e3bb0c6a0238", "bike_id": "46bfa537d3a10ccdd6a3e3bb0c6a0238", "is_disabled": 0, "type": "electric_scooter", "lat": 38.882340666666664, "lon": -76.99091733333333, "is_reserved": 0, "fusion_lon": 0.0}, {"rental_uris": {"ios": "https://dc.lft.to/lastmile_qr_scan", "android": "https://dc.lft.to/lastmile_qr_scan"}, "fusion_lat": 0.0, "name": "30ffdae2fb53fc98bd27921f7344acd4", "bike_id": "30ffdae2fb53fc98bd27921f7344acd4", "is_disabled": 0, "type": "electric_scooter", "lat": 38.8923015, "lon": -77.031824, "is_reserved": 0, "fusion_lon": 0.0}, {"rental_uris": {"ios": "https://dc.lft.to/lastmile_qr_scan", "android": "https://dc.lft.to/lastmile_qr_scan"}, "fusion_lat": 0.0, "name": "d95d1e0e41a086bc488755070b9e779b", "bike_id": "d95d1e0e41a086bc488755070b9e779b", "is_disabled": 0, "type": "electric_scooter", "lat": 38.892221666666664, "lon": -77.022258, "is_reserved": 0, "fusion_lon": 0.0}, {"rental_uris": {"ios": "https://dc.lft.to/lastmile_qr_scan", "android": "https://dc.lft.to/lastmile_qr_scan"}, "fusion_lat": 0.0, "name": "ebb4ea3d90815af48119f1a93c48ef4f", "bike_id": "ebb4ea3d90815af48119f1a93c48ef4f", "is_disabled": 0, "type": "electric_scooter", "lat": 38.91415416666667, "lon": -77.04073483333333, "is_reserved": 0, "fusion_lon": 0.0}, {"rental_uris": {"ios": "https://dc.lft.to/lastmile_qr_scan", "android": "https://dc.lft.to/lastmile_qr_scan"}, "fusion_lat": 0.0, "name": "67f0bc30c47accfd6badcbd57f644c7e", "bike_id": "67f0bc30c47accfd6badcbd57f644c7e", "is_disabled": 0, "type": "electric_scooter", "lat": 38.91866383333333, "lon": -77.0404475, "is_reserved": 0, "fusion_lon": 0.0}, {"rental_uris": {"ios": "https://dc.lft.to/lastmile_qr_scan", "android": "https://dc.lft.to/lastmile_qr_scan"}, "fusion_lat": 0.0, "name": "d559fd844a9a405914d28df945b95873", "bike_id": "d559fd844a9a405914d28df945b95873", "is_disabled": 0, "type": "electric_scooter", "lat": 38.94294283333333, "lon": -77.021744, "is_reserved": 0, "fusion_lon": 0.0}, {"rental_uris": {"ios": "https://dc.lft.to/lastmile_qr_scan", "android": "https://dc.lft.to/lastmile_qr_scan"}, "fusion_lat": 0.0, "name": "420d4f5cb823705eb6ae864d0e99cc05", "bike_id": "420d4f5cb823705eb6ae864d0e99cc05", "is_disabled": 0, "type": "electric_scooter", "lat": 38.910155833333334, "lon": -77.03850566666667, "is_reserved": 0, "fusion_lon": 0.0}, {"rental_uris": {"ios": "https://dc.lft.to/lastmile_qr_scan", "android": "https://dc.lft.to/lastmile_qr_scan"}, "fusion_lat": 0.0, "name": "7fb490d08a66f1f231afbfaeceb8073f", "bike_id": "7fb490d08a66f1f231afbfaeceb8073f", "is_disabled": 0, "type": "electric_scooter", "lat": 38.876286, "lon": -76.96526216666666, "is_reserved": 0, "fusion_lon": 0.0}, {"rental_uris": {"ios": "https://dc.lft.to/lastmile_qr_scan", "android": "https://dc.lft.to/lastmile_qr_scan"}, "fusion_lat": 0.0, "name": "3f8a36fb7eb169232b7876396c76e9e0", "bike_id": "3f8a36fb7eb169232b7876396c76e9e0", "is_disabled": 0, "type": "electric_scooter", "lat": 38.906423833333335, "lon": -77.00603333333333, "is_reserved": 0, "fusion_lon": 0.0}, {"rental_uris": {"ios": "https://dc.lft.to/lastmile_qr_scan", "android": "https://dc.lft.to/lastmile_qr_scan"}, "fusion_lat": 0.0, "name": "a235a26c5dfb778a45ef4a2192f95e2b", "bike_id": "a235a26c5dfb778a45ef4a2192f95e2b", "is_disabled": 0, "type": "electric_scooter", "lat": 38.89339783333333, "lon": -76.93142416666667, "is_reserved": 0, "fusion_lon": 0.0}, {"rental_uris": {"ios": "https://dc.lft.to/lastmile_qr_scan", "android": "https://dc.lft.to/lastmile_qr_scan"}, "fusion_lat": 0.0, "name": "050c4a4c4dfab9106c3549050a97613c", "bike_id": "050c4a4c4dfab9106c3549050a97613c", "is_disabled": 0, "type": "electric_scooter", "lat": 38.911713, "lon": -77.03189516666667, "is_reserved": 0, "fusion_lon": 0.0}, {"rental_uris": {"ios": "https://dc.lft.to/lastmile_qr_scan", "android": "https://dc.lft.to/lastmile_qr_scan"}, "fusion_lat": 0.0, "name": "6f90d32104f35b07aa2241d90e6b5dfb", "bike_id": "6f90d32104f35b07aa2241d90e6b5dfb", "is_disabled": 0, "type": "electric_scooter", "lat": 38.90881, "lon": -77.00575566666667, "is_reserved": 0, "fusion_lon": 0.0}, {"rental_uris": {"ios": "https://dc.lft.to/lastmile_qr_scan", "android": "https://dc.lft.to/lastmile_qr_scan"}, "fusion_lat": 0.0, "name": "a417ce2fd659624715e28759a469e6e7", "bike_id": "a417ce2fd659624715e28759a469e6e7", "is_disabled": 0, "type": "electric_scooter", "lat": 38.8544645, "lon": -76.98584233333334, "is_reserved": 0, "fusion_lon": 0.0}, {"rental_uris": {"ios": "https://dc.lft.to/lastmile_qr_scan", "android": "https://dc.lft.to/lastmile_qr_scan"}, "fusion_lat": 0.0, "name": "620a7cd871e921ad2ea9aab0d559f901", "bike_id": "620a7cd871e921ad2ea9aab0d559f901", "is_disabled": 0, "type": "electric_scooter", "lat": 38.901998, "lon": -77.023186, "is_reserved": 0, "fusion_lon": 0.0}, {"rental_uris": {"ios": "https://dc.lft.to/lastmile_qr_scan", "android": "https://dc.lft.to/lastmile_qr_scan"}, "fusion_lat": 0.0, "name": "092a6d5a87c4fa8d6989d6e408a13783", "bike_id": "092a6d5a87c4fa8d6989d6e408a13783", "is_disabled": 0, "type": "electric_bike", "lat": 38.96937066666667, "lon": -77.03346666666667, "is_reserved": 0, "fusion_lon": 0.0}, {"rental_uris": {"ios": "https://dc.lft.to/lastmile_qr_scan", "android": "https://dc.lft.to/lastmile_qr_scan"}, "fusion_lat": 0.0, "name": "4cd5532e2b42e53d1e9a0b8d4a75f19e", "bike_id": "4cd5532e2b42e53d1e9a0b8d4a75f19e", "is_disabled": 0, "type": "electric_scooter", "lat": 38.92413366666667, "lon": -77.02010266666667, "is_reserved": 0, "fusion_lon": 0.0}, {"rental_uris": {"ios": "https://dc.lft.to/lastmile_qr_scan", "android": "https://dc.lft.to/lastmile_qr_scan"}, "fusion_lat": 0.0, "name": "1265d74b89f2ed643242a213176b15a8", "bike_id": "1265d74b89f2ed643242a213176b15a8", "is_disabled": 0, "type": "electric_scooter", "lat": 38.922441, "lon": -77.036666, "is_reserved": 0, "fusion_lon": 0.0}, {"rental_uris": {"ios": "https://dc.lft.to/lastmile_qr_scan", "android": "https://dc.lft.to/lastmile_qr_scan"}, "fusion_lat": 0.0, "name": "9269772f80541065da80cf1f5ea48f81", "bike_id": "9269772f80541065da80cf1f5ea48f81", "is_disabled": 0, "type": "electric_scooter", "lat": 38.954240666666664, "lon": -77.02766083333333, "is_reserved": 0, "fusion_lon": 0.0}, {"rental_uris": {"ios": "https://dc.lft.to/lastmile_qr_scan", "android": "https://dc.lft.to/lastmile_qr_scan"}, "fusion_lat": 0.0, "name": "9f2dcf569dcb85ba5f3afaebf6492c04", "bike_id": "9f2dcf569dcb85ba5f3afaebf6492c04", "is_disabled": 0, "type": "electric_scooter", "lat": 38.88659283333333, "lon": -77.01376833333333, "is_reserved": 0, "fusion_lon": 0.0}, {"rental_uris": {"ios": "https://dc.lft.to/lastmile_qr_scan", "android": "https://dc.lft.to/lastmile_qr_scan"}, "fusion_lat": 0.0, "name": "e053df8875de87d68699317ad5687a3e", "bike_id": "e053df8875de87d68699317ad5687a3e", "is_disabled": 0, "type": "electric_scooter", "lat": 38.92385766666666, "lon": -77.05754366666666, "is_reserved": 0, "fusion_lon": 0.0}, {"rental_uris": {"ios": "https://dc.lft.to/lastmile_qr_scan", "android": "https://dc.lft.to/lastmile_qr_scan"}, "fusion_lat": 0.0, "name": "7b475ede58c0b2c757c90126ca1fe0e0", "bike_id": "7b475ede58c0b2c757c90126ca1fe0e0", "is_disabled": 0, "type": "electric_bike", "lat": 38.962238166666666, "lon": -77.02632283333334, "is_reserved": 0, "fusion_lon": 0.0}, {"rental_uris": {"ios": "https://dc.lft.to/lastmile_qr_scan", "android": "https://dc.lft.to/lastmile_qr_scan"}, "fusion_lat": 0.0, "name": "61c61e31a2e5665aca6ded0948f158b8", "bike_id": "61c61e31a2e5665aca6ded0948f158b8", "is_disabled": 0, "type": "electric_scooter", "lat": 38.893634666666664, "lon": -77.04782166666666, "is_reserved": 0, "fusion_lon": 0.0}, {"rental_uris": {"ios": "https://dc.lft.to/lastmile_qr_scan", "android": "https://dc.lft.to/lastmile_qr_scan"}, "fusion_lat": 0.0, "name": "e8eea46e08c55ed16e20a05b17729ef5", "bike_id": "e8eea46e08c55ed16e20a05b17729ef5", "is_disabled": 0, "type": "electric_scooter", "lat": 38.91741866666667, "lon": -77.02392816666666, "is_reserved": 0, "fusion_lon": 0.0}, {"rental_uris": {"ios": "https://dc.lft.to/lastmile_qr_scan", "android": "https://dc.lft.to/lastmile_qr_scan"}, "fusion_lat": 0.0, "name": "00c2b4ae5d5300635e0842d56f17f876", "bike_id": "00c2b4ae5d5300635e0842d56f17f876", "is_disabled": 0, "type": "electric_scooter", "lat": 38.901610166666664, "lon": -77.02615516666667, "is_reserved": 0, "fusion_lon": 0.0}, {"rental_uris": {"ios": "https://dc.lft.to/lastmile_qr_scan", "android": "https://dc.lft.to/lastmile_qr_scan"}, "fusion_lat": 0.0, "name": "12204c7694e5a7c86e7f5fbf1f8a6304", "bike_id": "12204c7694e5a7c86e7f5fbf1f8a6304", "is_disabled": 0, "type": "electric_scooter", "lat": 38.92969633333333, "lon": -77.0299745, "is_reserved": 0, "fusion_lon": 0.0}, {"rental_uris": {"ios": "https://dc.lft.to/lastmile_qr_scan", "android": "https://dc.lft.to/lastmile_qr_scan"}, "fusion_lat": 0.0, "name": "8338a6377609b50ef53c7515fa9c2379", "bike_id": "8338a6377609b50ef53c7515fa9c2379", "is_disabled": 0, "type": "electric_scooter", "lat": 38.898764166666666, "lon": -77.039716, "is_reserved": 0, "fusion_lon": 0.0}, {"rental_uris": {"ios": "https://dc.lft.to/lastmile_qr_scan", "android": "https://dc.lft.to/lastmile_qr_scan"}, "fusion_lat": 0.0, "name": "b03f3e4f19fa43fa801367118a8c167d", "bike_id": "b03f3e4f19fa43fa801367118a8c167d", "is_disabled": 0, "type": "electric_scooter", "lat": 38.898992166666666, "lon": -77.04041333333333, "is_reserved": 0, "fusion_lon": 0.0}, {"rental_uris": {"ios": "https://dc.lft.to/lastmile_qr_scan", "android": "https://dc.lft.to/lastmile_qr_scan"}, "fusion_lat": 0.0, "name": "d5c1e7ac4acafa4cba61f1f59fcc345b", "bike_id": "d5c1e7ac4acafa4cba61f1f59fcc345b", "is_disabled": 0, "type": "electric_bike", "lat": 38.96203383333334, "lon": -77.03516083333334, "is_reserved": 0, "fusion_lon": 0.0}, {"rental_uris": {"ios": "https://dc.lft.to/lastmile_qr_scan", "android": "https://dc.lft.to/lastmile_qr_scan"}, "fusion_lat": 0.0, "name": "6008bb7e9e2b52f339b17f8ec4fd97d2", "bike_id": "6008bb7e9e2b52f339b17f8ec4fd97d2", "is_disabled": 0, "type": "electric_scooter", "lat": 38.9002575, "lon": -77.00211366666667, "is_reserved": 0, "fusion_lon": 0.0}, {"rental_uris": {"ios": "https://dc.lft.to/lastmile_qr_scan", "android": "https://dc.lft.to/lastmile_qr_scan"}, "fusion_lat": 0.0, "name": "dc4a51c14b7f91e36063eff54d6f7438", "bike_id": "dc4a51c14b7f91e36063eff54d6f7438", "is_disabled": 0, "type": "electric_scooter", "lat": 38.917679, "lon": -77.04174533333334, "is_reserved": 0, "fusion_lon": 0.0}, {"rental_uris": {"ios": "https://dc.lft.to/lastmile_qr_scan", "android": "https://dc.lft.to/lastmile_qr_scan"}, "fusion_lat": 0.0, "name": "e3edba5cf7ae7b439797a1938365bf58", "bike_id": "e3edba5cf7ae7b439797a1938365bf58", "is_disabled": 0, "type": "electric_scooter", "lat": 38.91704466666667, "lon": -77.03209766666667, "is_reserved": 0, "fusion_lon": 0.0}, {"rental_uris": {"ios": "https://dc.lft.to/lastmile_qr_scan", "android": "https://dc.lft.to/lastmile_qr_scan"}, "fusion_lat": 0.0, "name": "aab92bd9581419457226c812f79e74aa", "bike_id": "aab92bd9581419457226c812f79e74aa", "is_disabled": 0, "type": "electric_bike", "lat": 38.81341233333333, "lon": -77.0492365, "is_reserved": 0, "fusion_lon": 0.0}, {"rental_uris": {"ios": "https://dc.lft.to/lastmile_qr_scan", "android": "https://dc.lft.to/lastmile_qr_scan"}, "fusion_lat": 0.0, "name": "a980e8df3bc6a0d5ed04f462274e7892", "bike_id": "a980e8df3bc6a0d5ed04f462274e7892", "is_disabled": 0, "type": "electric_scooter", "lat": 38.9168805, "lon": -77.02815033333333, "is_reserved": 0, "fusion_lon": 0.0}, {"rental_uris": {"ios": "https://dc.lft.to/lastmile_qr_scan", "android": "https://dc.lft.to/lastmile_qr_scan"}, "fusion_lat": 0.0, "name": "f19e627f4b459f94e5620e3d1ae751c8", "bike_id": "f19e627f4b459f94e5620e3d1ae751c8", "is_disabled": 0, "type": "electric_scooter", "lat": 38.9516135, "lon": -77.02753666666666, "is_reserved": 0, "fusion_lon": 0.0}, {"rental_uris": {"ios": "https://dc.lft.to/lastmile_qr_scan", "android": "https://dc.lft.to/lastmile_qr_scan"}, "fusion_lat": 0.0, "name": "3b32d8d1c9dfb4598becbe08b0237635", "bike_id": "3b32d8d1c9dfb4598becbe08b0237635", "is_disabled": 0, "type": "electric_scooter", "lat": 38.904292833333336, "lon": -77.00215333333334, "is_reserved": 0, "fusion_lon": 0.0}, {"rental_uris": {"ios": "https://dc.lft.to/lastmile_qr_scan", "android": "https://dc.lft.to/lastmile_qr_scan"}, "fusion_lat": 0.0, "name": "785f5bc69b9c82ed32b439fa115ea9db", "bike_id": "785f5bc69b9c82ed32b439fa115ea9db", "is_disabled": 0, "type": "electric_scooter", "lat": 38.8956925, "lon": -77.0034655, "is_reserved": 0, "fusion_lon": 0.0}, {"rental_uris": {"ios": "https://dc.lft.to/lastmile_qr_scan", "android": "https://dc.lft.to/lastmile_qr_scan"}, "fusion_lat": 0.0, "name": "cab3fa2ea8571f92b8b50432c6c58e1e", "bike_id": "cab3fa2ea8571f92b8b50432c6c58e1e", "is_disabled": 0, "type": "electric_scooter", "lat": 38.908267, "lon": -77.03546333333334, "is_reserved": 0, "fusion_lon": 0.0}, {"rental_uris": {"ios": "https://dc.lft.to/lastmile_qr_scan", "android": "https://dc.lft.to/lastmile_qr_scan"}, "fusion_lat": 0.0, "name": "87f75305756517b40e91ae2f97bfab42", "bike_id": "87f75305756517b40e91ae2f97bfab42", "is_disabled": 0, "type": "electric_scooter", "lat": 38.903132666666664, "lon": -77.01208816666667, "is_reserved": 0, "fusion_lon": 0.0}, {"rental_uris": {"ios": "https://dc.lft.to/lastmile_qr_scan", "android": "https://dc.lft.to/lastmile_qr_scan"}, "fusion_lat": 0.0, "name": "51cbb7fc2aaa0bb16dbaac1cf813ef55", "bike_id": "51cbb7fc2aaa0bb16dbaac1cf813ef55", "is_disabled": 0, "type": "electric_scooter", "lat": 38.910337, "lon": -77.04258866666666, "is_reserved": 0, "fusion_lon": 0.0}, {"rental_uris": {"ios": "https://dc.lft.to/lastmile_qr_scan", "android": "https://dc.lft.to/lastmile_qr_scan"}, "fusion_lat": 0.0, "name": "cd2533eb291c4e1f29f0be3581ce1644", "bike_id": "cd2533eb291c4e1f29f0be3581ce1644", "is_disabled": 0, "type": "electric_scooter", "lat": 38.864949, "lon": -76.98991466666666, "is_reserved": 0, "fusion_lon": 0.0}, {"rental_uris": {"ios": "https://dc.lft.to/lastmile_qr_scan", "android": "https://dc.lft.to/lastmile_qr_scan"}, "fusion_lat": 0.0, "name": "1985e4548d4a789621e3afa19d131b52", "bike_id": "1985e4548d4a789621e3afa19d131b52", "is_disabled": 0, "type": "electric_scooter", "lat": 38.90860333333333, "lon": -77.00612766666667, "is_reserved": 0, "fusion_lon": 0.0}, {"rental_uris": {"ios": "https://dc.lft.to/lastmile_qr_scan", "android": "https://dc.lft.to/lastmile_qr_scan"}, "fusion_lat": 0.0, "name": "20659f2b9e826a5753e2059239d5fd0b", "bike_id": "20659f2b9e826a5753e2059239d5fd0b", "is_disabled": 0, "type": "electric_scooter", "lat": 38.909729, "lon": -77.03867383333333, "is_reserved": 0, "fusion_lon": 0.0}, {"rental_uris": {"ios": "https://dc.lft.to/lastmile_qr_scan", "android": "https://dc.lft.to/lastmile_qr_scan"}, "fusion_lat": 0.0, "name": "2de111c080a4ecb10677f3cb1290b115", "bike_id": "2de111c080a4ecb10677f3cb1290b115", "is_disabled": 0, "type": "electric_scooter", "lat": 38.930197666666665, "lon": -77.04451033333333, "is_reserved": 0, "fusion_lon": 0.0}, {"rental_uris": {"ios": "https://dc.lft.to/lastmile_qr_scan", "android": "https://dc.lft.to/lastmile_qr_scan"}, "fusion_lat": 0.0, "name": "0788dd4510b46ffb03b69c435b2f4980", "bike_id": "0788dd4510b46ffb03b69c435b2f4980", "is_disabled": 0, "type": "electric_bike", "lat": 38.8287405, "lon": -77.112194, "is_reserved": 0, "fusion_lon": 0.0}, {"rental_uris": {"ios": "https://dc.lft.to/lastmile_qr_scan", "android": "https://dc.lft.to/lastmile_qr_scan"}, "fusion_lat": 0.0, "name": "4d31c7d54e1effe22703f35228db54f5", "bike_id": "4d31c7d54e1effe22703f35228db54f5", "is_disabled": 0, "type": "electric_scooter", "lat": 38.89218233333333, "lon": -77.031658, "is_reserved": 0, "fusion_lon": 0.0}, {"rental_uris": {"ios": "https://dc.lft.to/lastmile_qr_scan", "android": "https://dc.lft.to/lastmile_qr_scan"}, "fusion_lat": 0.0, "name": "59c6d3565409cb65e364075c2316ee8c", "bike_id": "59c6d3565409cb65e364075c2316ee8c", "is_disabled": 0, "type": "electric_scooter", "lat": 38.89974816666667, "lon": -76.93994566666667, "is_reserved": 0, "fusion_lon": 0.0}, {"rental_uris": {"ios": "https://dc.lft.to/lastmile_qr_scan", "android": "https://dc.lft.to/lastmile_qr_scan"}, "fusion_lat": 0.0, "name": "ab09f779fc46e5603d8252895eb301fa", "bike_id": "ab09f779fc46e5603d8252895eb301fa", "is_disabled": 0, "type": "electric_scooter", "lat": 38.95247366666667, "lon": -77.06983783333334, "is_reserved": 0, "fusion_lon": 0.0}, {"rental_uris": {"ios": "https://dc.lft.to/lastmile_qr_scan", "android": "https://dc.lft.to/lastmile_qr_scan"}, "fusion_lat": 0.0, "name": "09872122ee5790488ababc13815e7fe5", "bike_id": "09872122ee5790488ababc13815e7fe5", "is_disabled": 0, "type": "electric_scooter", "lat": 38.8922115, "lon": -77.03162883333333, "is_reserved": 0, "fusion_lon": 0.0}, {"rental_uris": {"ios": "https://dc.lft.to/lastmile_qr_scan", "android": "https://dc.lft.to/lastmile_qr_scan"}, "fusion_lat": 0.0, "name": "ef33459ce903ff71b9e9ec031e707cdd", "bike_id": "ef33459ce903ff71b9e9ec031e707cdd", "is_disabled": 0, "type": "electric_scooter", "lat": 38.95424333333333, "lon": -77.027684, "is_reserved": 0, "fusion_lon": 0.0}, {"rental_uris": {"ios": "https://dc.lft.to/lastmile_qr_scan", "android": "https://dc.lft.to/lastmile_qr_scan"}, "fusion_lat": 0.0, "name": "c84f4f2a58d0b2e69afd5f4f8da3368c", "bike_id": "c84f4f2a58d0b2e69afd5f4f8da3368c", "is_disabled": 0, "type": "electric_scooter", "lat": 38.909756, "lon": -77.03212066666667, "is_reserved": 0, "fusion_lon": 0.0}, {"rental_uris": {"ios": "https://dc.lft.to/lastmile_qr_scan", "android": "https://dc.lft.to/lastmile_qr_scan"}, "fusion_lat": 0.0, "name": "f2fb03fe838db5e559873688f4c0daa4", "bike_id": "f2fb03fe838db5e559873688f4c0daa4", "is_disabled": 0, "type": "electric_scooter", "lat": 38.918155666666664, "lon": -77.03124866666667, "is_reserved": 0, "fusion_lon": 0.0}, {"rental_uris": {"ios": "https://dc.lft.to/lastmile_qr_scan", "android": "https://dc.lft.to/lastmile_qr_scan"}, "fusion_lat": 0.0, "name": "b81ff6be978d5c4f3c099da178b28fe8", "bike_id": "b81ff6be978d5c4f3c099da178b28fe8", "is_disabled": 0, "type": "electric_scooter", "lat": 38.9094505, "lon": -77.05935716666667, "is_reserved": 0, "fusion_lon": 0.0}, {"rental_uris": {"ios": "https://dc.lft.to/lastmile_qr_scan", "android": "https://dc.lft.to/lastmile_qr_scan"}, "fusion_lat": 0.0, "name": "d117348f30dbebab7410a349314a9e6d", "bike_id": "d117348f30dbebab7410a349314a9e6d", "is_disabled": 0, "type": "electric_scooter", "lat": 38.931995666666666, "lon": -77.03855966666667, "is_reserved": 0, "fusion_lon": 0.0}, {"rental_uris": {"ios": "https://dc.lft.to/lastmile_qr_scan", "android": "https://dc.lft.to/lastmile_qr_scan"}, "fusion_lat": 0.0, "name": "5b456ec5bdec1ef2b190f8a75f643cc3", "bike_id": "5b456ec5bdec1ef2b190f8a75f643cc3", "is_disabled": 0, "type": "electric_bike", "lat": 38.9999415, "lon": -76.925036, "is_reserved": 0, "fusion_lon": 0.0}, {"rental_uris": {"ios": "https://dc.lft.to/lastmile_qr_scan", "android": "https://dc.lft.to/lastmile_qr_scan"}, "fusion_lat": 0.0, "name": "5dbba55e48365c71e7bc731351fc2fe5", "bike_id": "5dbba55e48365c71e7bc731351fc2fe5", "is_disabled": 0, "type": "electric_bike", "lat": 38.956322666666665, "lon": -77.03653033333333, "is_reserved": 0, "fusion_lon": 0.0}, {"rental_uris": {"ios": "https://dc.lft.to/lastmile_qr_scan", "android": "https://dc.lft.to/lastmile_qr_scan"}, "fusion_lat": 0.0, "name": "8d09d3fea9fb0326ac6c4f8807800c10", "bike_id": "8d09d3fea9fb0326ac6c4f8807800c10", "is_disabled": 0, "type": "electric_scooter", "lat": 38.90363, "lon": -77.03010333333333, "is_reserved": 0, "fusion_lon": 0.0}, {"rental_uris": {"ios": "https://dc.lft.to/lastmile_qr_scan", "android": "https://dc.lft.to/lastmile_qr_scan"}, "fusion_lat": 0.0, "name": "9c3e4487b9cf9da2fa9c33c93a3d31ea", "bike_id": "9c3e4487b9cf9da2fa9c33c93a3d31ea", "is_disabled": 0, "type": "electric_scooter", "lat": 38.90663466666667, "lon": -77.02699633333333, "is_reserved": 0, "fusion_lon": 0.0}, {"rental_uris": {"ios": "https://dc.lft.to/lastmile_qr_scan", "android": "https://dc.lft.to/lastmile_qr_scan"}, "fusion_lat": 0.0, "name": "4cc5dd31f136c1581c41dde5dbc5ce07", "bike_id": "4cc5dd31f136c1581c41dde5dbc5ce07", "is_disabled": 0, "type": "electric_scooter", "lat": 38.9324505, "lon": -77.02948183333334, "is_reserved": 0, "fusion_lon": 0.0}, {"rental_uris": {"ios": "https://dc.lft.to/lastmile_qr_scan", "android": "https://dc.lft.to/lastmile_qr_scan"}, "fusion_lat": 0.0, "name": "67f5d14e43bd427bdade903543a73981", "bike_id": "67f5d14e43bd427bdade903543a73981", "is_disabled": 0, "type": "electric_bike", "lat": 38.84504666666667, "lon": -76.993551, "is_reserved": 0, "fusion_lon": 0.0}, {"rental_uris": {"ios": "https://dc.lft.to/lastmile_qr_scan", "android": "https://dc.lft.to/lastmile_qr_scan"}, "fusion_lat": 0.0, "name": "3ae1d1a2186e9e1883925883acbdff00", "bike_id": "3ae1d1a2186e9e1883925883acbdff00", "is_disabled": 0, "type": "electric_scooter", "lat": 38.91230083333333, "lon": -77.03198466666667, "is_reserved": 0, "fusion_lon": 0.0}, {"rental_uris": {"ios": "https://dc.lft.to/lastmile_qr_scan", "android": "https://dc.lft.to/lastmile_qr_scan"}, "fusion_lat": 0.0, "name": "927768da18a74005e80b40ab28d9b136", "bike_id": "927768da18a74005e80b40ab28d9b136", "is_disabled": 0, "type": "electric_scooter", "lat": 38.90680666666667, "lon": -77.0271705, "is_reserved": 0, "fusion_lon": 0.0}, {"rental_uris": {"ios": "https://dc.lft.to/lastmile_qr_scan", "android": "https://dc.lft.to/lastmile_qr_scan"}, "fusion_lat": 0.0, "name": "b4ba4c47daa25de606f56961c60d9b1f", "bike_id": "b4ba4c47daa25de606f56961c60d9b1f", "is_disabled": 0, "type": "electric_scooter", "lat": 38.9376445, "lon": -77.031216, "is_reserved": 0, "fusion_lon": 0.0}, {"rental_uris": {"ios": "https://dc.lft.to/lastmile_qr_scan", "android": "https://dc.lft.to/lastmile_qr_scan"}, "fusion_lat": 0.0, "name": "bb69f08a506e23d7cfab379be279bc49", "bike_id": "bb69f08a506e23d7cfab379be279bc49", "is_disabled": 0, "type": "electric_scooter", "lat": 38.925430166666665, "lon": -77.05270716666666, "is_reserved": 0, "fusion_lon": 0.0}, {"rental_uris": {"ios": "https://dc.lft.to/lastmile_qr_scan", "android": "https://dc.lft.to/lastmile_qr_scan"}, "fusion_lat": 0.0, "name": "74f9d6306c1e468eea59083a23381a41", "bike_id": "74f9d6306c1e468eea59083a23381a41", "is_disabled": 0, "type": "electric_scooter", "lat": 38.885304166666664, "lon": -76.998283, "is_reserved": 0, "fusion_lon": 0.0}, {"rental_uris": {"ios": "https://dc.lft.to/lastmile_qr_scan", "android": "https://dc.lft.to/lastmile_qr_scan"}, "fusion_lat": 0.0, "name": "d804478c935affa9ce45050b45290032", "bike_id": "d804478c935affa9ce45050b45290032", "is_disabled": 0, "type": "electric_scooter", "lat": 38.89095983333333, "lon": -77.00048616666666, "is_reserved": 0, "fusion_lon": 0.0}, {"rental_uris": {"ios": "https://dc.lft.to/lastmile_qr_scan", "android": "https://dc.lft.to/lastmile_qr_scan"}, "fusion_lat": 0.0, "name": "8e161b5904f08782ee6c2f967b4f4b65", "bike_id": "8e161b5904f08782ee6c2f967b4f4b65", "is_disabled": 0, "type": "electric_scooter", "lat": 38.91425266666667, "lon": -77.0318205, "is_reserved": 0, "fusion_lon": 0.0}, {"rental_uris": {"ios": "https://dc.lft.to/lastmile_qr_scan", "android": "https://dc.lft.to/lastmile_qr_scan"}, "fusion_lat": 0.0, "name": "4bc3b0d3e5bf07d6542d813189ff6b15", "bike_id": "4bc3b0d3e5bf07d6542d813189ff6b15", "is_disabled": 0, "type": "electric_scooter", "lat": 38.940971833333336, "lon": -77.021085, "is_reserved": 0, "fusion_lon": 0.0}, {"rental_uris": {"ios": "https://dc.lft.to/lastmile_qr_scan", "android": "https://dc.lft.to/lastmile_qr_scan"}, "fusion_lat": 0.0, "name": "dea6fb3878266c9f6c4bff9479533dcc", "bike_id": "dea6fb3878266c9f6c4bff9479533dcc", "is_disabled": 0, "type": "electric_bike", "lat": 38.949011666666664, "lon": -76.972399, "is_reserved": 0, "fusion_lon": 0.0}, {"rental_uris": {"ios": "https://dc.lft.to/lastmile_qr_scan", "android": "https://dc.lft.to/lastmile_qr_scan"}, "fusion_lat": 0.0, "name": "51e782af201385b7ead3a954f6b65c60", "bike_id": "51e782af201385b7ead3a954f6b65c60", "is_disabled": 0, "type": "electric_scooter", "lat": 38.913217333333336, "lon": -77.03186783333334, "is_reserved": 0, "fusion_lon": 0.0}, {"rental_uris": {"ios": "https://dc.lft.to/lastmile_qr_scan", "android": "https://dc.lft.to/lastmile_qr_scan"}, "fusion_lat": 0.0, "name": "2bcd0b9720eda4362fe72fa44a49f0d0", "bike_id": "2bcd0b9720eda4362fe72fa44a49f0d0", "is_disabled": 0, "type": "electric_scooter", "lat": 38.931912, "lon": -77.028321, "is_reserved": 0, "fusion_lon": 0.0}, {"rental_uris": {"ios": "https://dc.lft.to/lastmile_qr_scan", "android": "https://dc.lft.to/lastmile_qr_scan"}, "fusion_lat": 0.0, "name": "c023497c121b083837c21fe4bd2e9ef2", "bike_id": "c023497c121b083837c21fe4bd2e9ef2", "is_disabled": 0, "type": "electric_scooter", "lat": 38.89886166666667, "lon": -77.03275883333333, "is_reserved": 0, "fusion_lon": 0.0}, {"rental_uris": {"ios": "https://dc.lft.to/lastmile_qr_scan", "android": "https://dc.lft.to/lastmile_qr_scan"}, "fusion_lat": 0.0, "name": "f58606c2221d84a5966e4d7d1aac828f", "bike_id": "f58606c2221d84a5966e4d7d1aac828f", "is_disabled": 0, "type": "electric_scooter", "lat": 38.91792383333333, "lon": -77.031938, "is_reserved": 0, "fusion_lon": 0.0}, {"rental_uris": {"ios": "https://dc.lft.to/lastmile_qr_scan", "android": "https://dc.lft.to/lastmile_qr_scan"}, "fusion_lat": 0.0, "name": "c1e9a3393aec6bdfa5f4ef185a841b95", "bike_id": "c1e9a3393aec6bdfa5f4ef185a841b95", "is_disabled": 0, "type": "electric_scooter", "lat": 38.9291385, "lon": -77.03484666666667, "is_reserved": 0, "fusion_lon": 0.0}, {"rental_uris": {"ios": "https://dc.lft.to/lastmile_qr_scan", "android": "https://dc.lft.to/lastmile_qr_scan"}, "fusion_lat": 0.0, "name": "4868e60234a0e376a2e9ce4c01f2238e", "bike_id": "4868e60234a0e376a2e9ce4c01f2238e", "is_disabled": 0, "type": "electric_scooter", "lat": 38.883297666666664, "lon": -77.00929633333334, "is_reserved": 0, "fusion_lon": 0.0}, {"rental_uris": {"ios": "https://dc.lft.to/lastmile_qr_scan", "android": "https://dc.lft.to/lastmile_qr_scan"}, "fusion_lat": 0.0, "name": "6bc380ec14cf57963c70e101c3d0604a", "bike_id": "6bc380ec14cf57963c70e101c3d0604a", "is_disabled": 0, "type": "electric_scooter", "lat": 38.90682816666666, "lon": -77.02695083333333, "is_reserved": 0, "fusion_lon": 0.0}, {"rental_uris": {"ios": "https://dc.lft.to/lastmile_qr_scan", "android": "https://dc.lft.to/lastmile_qr_scan"}, "fusion_lat": 0.0, "name": "b03ee0815b8d78cdaaa6021a04eaf6db", "bike_id": "b03ee0815b8d78cdaaa6021a04eaf6db", "is_disabled": 0, "type": "electric_bike", "lat": 38.79326616666667, "lon": -77.04017583333334, "is_reserved": 0, "fusion_lon": 0.0}, {"rental_uris": {"ios": "https://dc.lft.to/lastmile_qr_scan", "android": "https://dc.lft.to/lastmile_qr_scan"}, "fusion_lat": 0.0, "name": "133eab148bbd998b53a422c6dad1f3e3", "bike_id": "133eab148bbd998b53a422c6dad1f3e3", "is_disabled": 0, "type": "electric_scooter", "lat": 38.8922155, "lon": -77.0262805, "is_reserved": 0, "fusion_lon": 0.0}, {"rental_uris": {"ios": "https://dc.lft.to/lastmile_qr_scan", "android": "https://dc.lft.to/lastmile_qr_scan"}, "fusion_lat": 0.0, "name": "c46f8e5dabfb1f80b0c84d35bd93b500", "bike_id": "c46f8e5dabfb1f80b0c84d35bd93b500", "is_disabled": 0, "type": "electric_scooter", "lat": 38.907821166666665, "lon": -77.0386015, "is_reserved": 0, "fusion_lon": 0.0}, {"rental_uris": {"ios": "https://dc.lft.to/lastmile_qr_scan", "android": "https://dc.lft.to/lastmile_qr_scan"}, "fusion_lat": 0.0, "name": "80b87010859e01eca4ec906deea13f6b", "bike_id": "80b87010859e01eca4ec906deea13f6b", "is_disabled": 0, "type": "electric_scooter", "lat": 38.9279745, "lon": -77.03241983333334, "is_reserved": 0, "fusion_lon": 0.0}, {"rental_uris": {"ios": "https://dc.lft.to/lastmile_qr_scan", "android": "https://dc.lft.to/lastmile_qr_scan"}, "fusion_lat": 0.0, "name": "5d390b095d506b1e1b667cb3933d2129", "bike_id": "5d390b095d506b1e1b667cb3933d2129", "is_disabled": 0, "type": "electric_bike", "lat": 38.838118, "lon": -77.09521633333334, "is_reserved": 0, "fusion_lon": 0.0}, {"rental_uris": {"ios": "https://dc.lft.to/lastmile_qr_scan", "android": "https://dc.lft.to/lastmile_qr_scan"}, "fusion_lat": 0.0, "name": "adb2ce842fe218e2dd5095dda76b1f56", "bike_id": "adb2ce842fe218e2dd5095dda76b1f56", "is_disabled": 0, "type": "electric_scooter", "lat": 38.91694583333334, "lon": -77.03138766666666, "is_reserved": 0, "fusion_lon": 0.0}, {"rental_uris": {"ios": "https://dc.lft.to/lastmile_qr_scan", "android": "https://dc.lft.to/lastmile_qr_scan"}, "fusion_lat": 0.0, "name": "3fc468ceca658ff2dfb219c90caca052", "bike_id": "3fc468ceca658ff2dfb219c90caca052", "is_disabled": 0, "type": "electric_scooter", "lat": 38.900395833333334, "lon": -77.04340516666667, "is_reserved": 0, "fusion_lon": 0.0}, {"rental_uris": {"ios": "https://dc.lft.to/lastmile_qr_scan", "android": "https://dc.lft.to/lastmile_qr_scan"}, "fusion_lat": 0.0, "name": "cfb15509cf811ce85a8c9047e51d24ad", "bike_id": "cfb15509cf811ce85a8c9047e51d24ad", "is_disabled": 0, "type": "electric_scooter", "lat": 38.915532, "lon": -77.022161, "is_reserved": 0, "fusion_lon": 0.0}, {"rental_uris": {"ios": "https://dc.lft.to/lastmile_qr_scan", "android": "https://dc.lft.to/lastmile_qr_scan"}, "fusion_lat": 0.0, "name": "6ba393d20ccffbea8a0139b4da2f9319", "bike_id": "6ba393d20ccffbea8a0139b4da2f9319", "is_disabled": 0, "type": "electric_scooter", "lat": 38.91123, "lon": -77.0320655, "is_reserved": 0, "fusion_lon": 0.0}, {"rental_uris": {"ios": "https://dc.lft.to/lastmile_qr_scan", "android": "https://dc.lft.to/lastmile_qr_scan"}, "fusion_lat": 0.0, "name": "e0e26f797f38405806cfb13618fe559b", "bike_id": "e0e26f797f38405806cfb13618fe559b", "is_disabled": 0, "type": "electric_scooter", "lat": 38.915518666666664, "lon": -77.03874266666666, "is_reserved": 0, "fusion_lon": 0.0}, {"rental_uris": {"ios": "https://dc.lft.to/lastmile_qr_scan", "android": "https://dc.lft.to/lastmile_qr_scan"}, "fusion_lat": 0.0, "name": "a4a123173b2f049038bd01360b393f49", "bike_id": "a4a123173b2f049038bd01360b393f49", "is_disabled": 0, "type": "electric_scooter", "lat": 38.88023883333334, "lon": -76.98825466666666, "is_reserved": 0, "fusion_lon": 0.0}, {"rental_uris": {"ios": "https://dc.lft.to/lastmile_qr_scan", "android": "https://dc.lft.to/lastmile_qr_scan"}, "fusion_lat": 0.0, "name": "a01c152c65a23de3e0859cf59948bc7a", "bike_id": "a01c152c65a23de3e0859cf59948bc7a", "is_disabled": 0, "type": "electric_bike", "lat": 38.9180395, "lon": -77.22338766666667, "is_reserved": 0, "fusion_lon": 0.0}, {"rental_uris": {"ios": "https://dc.lft.to/lastmile_qr_scan", "android": "https://dc.lft.to/lastmile_qr_scan"}, "fusion_lat": 0.0, "name": "83a53ed094ac91be998e534f359f44a2", "bike_id": "83a53ed094ac91be998e534f359f44a2", "is_disabled": 0, "type": "electric_scooter", "lat": 38.88668333333333, "lon": -76.93618766666667, "is_reserved": 0, "fusion_lon": 0.0}, {"rental_uris": {"ios": "https://dc.lft.to/lastmile_qr_scan", "android": "https://dc.lft.to/lastmile_qr_scan"}, "fusion_lat": 0.0, "name": "0ac941f414011030730bbeee279e3408", "bike_id": "0ac941f414011030730bbeee279e3408", "is_disabled": 0, "type": "electric_scooter", "lat": 38.904539166666666, "lon": -77.0485985, "is_reserved": 0, "fusion_lon": 0.0}, {"rental_uris": {"ios": "https://dc.lft.to/lastmile_qr_scan", "android": "https://dc.lft.to/lastmile_qr_scan"}, "fusion_lat": 0.0, "name": "41db8dbfc6a7fda832ed8f8420999216", "bike_id": "41db8dbfc6a7fda832ed8f8420999216", "is_disabled": 0, "type": "electric_scooter", "lat": 38.92233383333333, "lon": -77.02236333333333, "is_reserved": 0, "fusion_lon": 0.0}, {"rental_uris": {"ios": "https://dc.lft.to/lastmile_qr_scan", "android": "https://dc.lft.to/lastmile_qr_scan"}, "fusion_lat": 0.0, "name": "58a5e9b115ef5d11e00f0569ff4b514a", "bike_id": "58a5e9b115ef5d11e00f0569ff4b514a", "is_disabled": 0, "type": "electric_scooter", "lat": 38.92122, "lon": -77.0318165, "is_reserved": 0, "fusion_lon": 0.0}, {"rental_uris": {"ios": "https://dc.lft.to/lastmile_qr_scan", "android": "https://dc.lft.to/lastmile_qr_scan"}, "fusion_lat": 0.0, "name": "ffe5234dca20c4497efda257c7707879", "bike_id": "ffe5234dca20c4497efda257c7707879", "is_disabled": 0, "type": "electric_scooter", "lat": 38.90290483333333, "lon": -77.028074, "is_reserved": 0, "fusion_lon": 0.0}, {"rental_uris": {"ios": "https://dc.lft.to/lastmile_qr_scan", "android": "https://dc.lft.to/lastmile_qr_scan"}, "fusion_lat": 0.0, "name": "d64586b6b1e631a0fa20ed424b264950", "bike_id": "d64586b6b1e631a0fa20ed424b264950", "is_disabled": 0, "type": "electric_scooter", "lat": 38.90061, "lon": -77.05144916666667, "is_reserved": 0, "fusion_lon": 0.0}, {"rental_uris": {"ios": "https://dc.lft.to/lastmile_qr_scan", "android": "https://dc.lft.to/lastmile_qr_scan"}, "fusion_lat": 0.0, "name": "0b4529b05baae04c15996be11e057fe5", "bike_id": "0b4529b05baae04c15996be11e057fe5", "is_disabled": 0, "type": "electric_scooter", "lat": 38.91689483333333, "lon": -77.02971466666666, "is_reserved": 0, "fusion_lon": 0.0}, {"rental_uris": {"ios": "https://dc.lft.to/lastmile_qr_scan", "android": "https://dc.lft.to/lastmile_qr_scan"}, "fusion_lat": 0.0, "name": "8939464e692e3f946e533be946413104", "bike_id": "8939464e692e3f946e533be946413104", "is_disabled": 0, "type": "electric_scooter", "lat": 38.89217516666667, "lon": -77.0321665, "is_reserved": 0, "fusion_lon": 0.0}, {"rental_uris": {"ios": "https://dc.lft.to/lastmile_qr_scan", "android": "https://dc.lft.to/lastmile_qr_scan"}, "fusion_lat": 0.0, "name": "d9bd5f123966bb697898528d909465f1", "bike_id": "d9bd5f123966bb697898528d909465f1", "is_disabled": 0, "type": "electric_scooter", "lat": 38.90294816666667, "lon": -77.0335785, "is_reserved": 0, "fusion_lon": 0.0}, {"rental_uris": {"ios": "https://dc.lft.to/lastmile_qr_scan", "android": "https://dc.lft.to/lastmile_qr_scan"}, "fusion_lat": 0.0, "name": "eec9bc6660d278666c4feb8e0aff2305", "bike_id": "eec9bc6660d278666c4feb8e0aff2305", "is_disabled": 0, "type": "electric_scooter", "lat": 38.8789625, "lon": -76.93521833333334, "is_reserved": 0, "fusion_lon": 0.0}, {"rental_uris": {"ios": "https://dc.lft.to/lastmile_qr_scan", "android": "https://dc.lft.to/lastmile_qr_scan"}, "fusion_lat": 0.0, "name": "de8232a353d74d7d596049907402a46c", "bike_id": "de8232a353d74d7d596049907402a46c", "is_disabled": 0, "type": "electric_scooter", "lat": 38.9233265, "lon": -77.05332666666666, "is_reserved": 0, "fusion_lon": 0.0}, {"rental_uris": {"ios": "https://dc.lft.to/lastmile_qr_scan", "android": "https://dc.lft.to/lastmile_qr_scan"}, "fusion_lat": 0.0, "name": "1310d99fd7f5012df76473f3520f6491", "bike_id": "1310d99fd7f5012df76473f3520f6491", "is_disabled": 0, "type": "electric_scooter", "lat": 38.8989365, "lon": -77.03273583333333, "is_reserved": 0, "fusion_lon": 0.0}, {"rental_uris": {"ios": "https://dc.lft.to/lastmile_qr_scan", "android": "https://dc.lft.to/lastmile_qr_scan"}, "fusion_lat": 0.0, "name": "b22062caa019d1344bc89226dd2ba9d5", "bike_id": "b22062caa019d1344bc89226dd2ba9d5", "is_disabled": 0, "type": "electric_scooter", "lat": 38.91912633333333, "lon": -77.0367805, "is_reserved": 0, "fusion_lon": 0.0}, {"rental_uris": {"ios": "https://dc.lft.to/lastmile_qr_scan", "android": "https://dc.lft.to/lastmile_qr_scan"}, "fusion_lat": 0.0, "name": "fb1280ad947bca8cee758a6dc3407cad", "bike_id": "fb1280ad947bca8cee758a6dc3407cad", "is_disabled": 0, "type": "electric_scooter", "lat": 38.885934666666664, "lon": -77.01765716666667, "is_reserved": 0, "fusion_lon": 0.0}, {"rental_uris": {"ios": "https://dc.lft.to/lastmile_qr_scan", "android": "https://dc.lft.to/lastmile_qr_scan"}, "fusion_lat": 0.0, "name": "ca589079c3d935d98f0e91d24a2ef8a6", "bike_id": "ca589079c3d935d98f0e91d24a2ef8a6", "is_disabled": 0, "type": "electric_scooter", "lat": 38.924407333333335, "lon": -77.02153233333334, "is_reserved": 0, "fusion_lon": 0.0}, {"rental_uris": {"ios": "https://dc.lft.to/lastmile_qr_scan", "android": "https://dc.lft.to/lastmile_qr_scan"}, "fusion_lat": 0.0, "name": "c5d81acbefe4613c093b337802d01d9a", "bike_id": "c5d81acbefe4613c093b337802d01d9a", "is_disabled": 0, "type": "electric_scooter", "lat": 38.885935833333335, "lon": -77.01756333333333, "is_reserved": 0, "fusion_lon": 0.0}, {"rental_uris": {"ios": "https://dc.lft.to/lastmile_qr_scan", "android": "https://dc.lft.to/lastmile_qr_scan"}, "fusion_lat": 0.0, "name": "f22e8504aae082e352b5a600b0b1ad58", "bike_id": "f22e8504aae082e352b5a600b0b1ad58", "is_disabled": 0, "type": "electric_scooter", "lat": 38.89571866666667, "lon": -77.03208966666666, "is_reserved": 0, "fusion_lon": 0.0}, {"rental_uris": {"ios": "https://dc.lft.to/lastmile_qr_scan", "android": "https://dc.lft.to/lastmile_qr_scan"}, "fusion_lat": 0.0, "name": "35e9e0841cfb1257ee293e0282a43d94", "bike_id": "35e9e0841cfb1257ee293e0282a43d94", "is_disabled": 0, "type": "electric_scooter", "lat": 38.9037735, "lon": -77.04512433333333, "is_reserved": 0, "fusion_lon": 0.0}, {"rental_uris": {"ios": "https://dc.lft.to/lastmile_qr_scan", "android": "https://dc.lft.to/lastmile_qr_scan"}, "fusion_lat": 0.0, "name": "a62d20c8c652f1f404be229ecc6c7aa8", "bike_id": "a62d20c8c652f1f404be229ecc6c7aa8", "is_disabled": 0, "type": "electric_scooter", "lat": 38.92075116666667, "lon": -77.036387, "is_reserved": 0, "fusion_lon": 0.0}, {"rental_uris": {"ios": "https://dc.lft.to/lastmile_qr_scan", "android": "https://dc.lft.to/lastmile_qr_scan"}, "fusion_lat": 0.0, "name": "66bd42174f14b894f95601728f1f8a11", "bike_id": "66bd42174f14b894f95601728f1f8a11", "is_disabled": 0, "type": "electric_scooter", "lat": 38.8922065, "lon": -77.042001, "is_reserved": 0, "fusion_lon": 0.0}, {"rental_uris": {"ios": "https://dc.lft.to/lastmile_qr_scan", "android": "https://dc.lft.to/lastmile_qr_scan"}, "fusion_lat": 0.0, "name": "c75ba81b5ce22712b925b359f1449e0b", "bike_id": "c75ba81b5ce22712b925b359f1449e0b", "is_disabled": 0, "type": "electric_scooter", "lat": 38.904181333333334, "lon": -77.06889433333333, "is_reserved": 0, "fusion_lon": 0.0}, {"rental_uris": {"ios": "https://dc.lft.to/lastmile_qr_scan", "android": "https://dc.lft.to/lastmile_qr_scan"}, "fusion_lat": 0.0, "name": "b5206e35722fcddb624a356a289b7ddc", "bike_id": "b5206e35722fcddb624a356a289b7ddc", "is_disabled": 0, "type": "electric_scooter", "lat": 38.90313233333333, "lon": -77.02431216666666, "is_reserved": 0, "fusion_lon": 0.0}, {"rental_uris": {"ios": "https://dc.lft.to/lastmile_qr_scan", "android": "https://dc.lft.to/lastmile_qr_scan"}, "fusion_lat": 0.0, "name": "ed9f8f1e1912c538d1635ab6e1c173f0", "bike_id": "ed9f8f1e1912c538d1635ab6e1c173f0", "is_disabled": 0, "type": "electric_bike", "lat": 39.0629335, "lon": -77.04980983333333, "is_reserved": 0, "fusion_lon": 0.0}, {"rental_uris": {"ios": "https://dc.lft.to/lastmile_qr_scan", "android": "https://dc.lft.to/lastmile_qr_scan"},