{"data": {"bikes": [{"is_disabled": 0, "fusion_lon": 0.0, "fusion_lat": 0.0, "lat": 38.859143, "type": "electric_scooter", "lon": -76.98780766666667, "bike_id": "ebcef90e93a2053fce7b88dc39c66c35", "rental_uris": {"android": "https://dc.lft.to/lastmile_qr_scan", "ios": "https://dc.lft.to/lastmile_qr_scan"}, "name": "ebcef90e93a2053fce7b88dc39c66c35", "is_reserved": 0}, {"is_disabled": 0, "fusion_lon": 0.0, "fusion_lat": 0.0, "lat": 38.92457483333333, "type": "electric_scooter", "lon": -77.05092816666667, "bike_id": "f5d31d1b9ad0456bf72c80f128003fb4", "rental_uris": {"android": "https://dc.lft.to/lastmile_qr_scan", "ios": "https://dc.lft.to/lastmile_qr_scan"}, "name": "f5d31d1b9ad0456bf72c80f128003fb4", "is_reserved": 0}, {"is_disabled": 0, "fusion_lon": 0.0, "fusion_lat": 0.0, "lat": 38.87635066666667, "type": "electric_scooter", "lon": -77.01626116666667, "bike_id": "7342bf6e5f3291fc7a3b2a2e3893d843", "rental_uris": {"android": "https://dc.lft.to/lastmile_qr_scan", "ios": "https://dc.lft.to/lastmile_qr_scan"}, "name": "7342bf6e5f3291fc7a3b2a2e3893d843", "is_reserved": 0}, {"is_disabled": 0, "fusion_lon": 0.0, "fusion_lat": 0.0, "lat": 38.95295766666667, "type": "electric_scooter", "lon": -77.03586216666666, "bike_id": "dd8ba33b66b660bc333ddfe60f928cb8", "rental_uris": {"android": "https://dc.lft.to/lastmile_qr_scan", "ios": "https://dc.lft.to/lastmile_qr_scan"}, "name": "dd8ba33b66b660bc333ddfe60f928cb8", "is_reserved": 0}, {"is_disabled": 0, "fusion_lon": 0.0, "fusion_lat": 0.0, "lat": 38.926011833333334, "type": "electric_scooter", "lon": -77.02153083333333, "bike_id": "5d9887c319dcb003f674668bdfdb9dfd", "rental_uris": {"android": "https://dc.lft.to/lastmile_qr_scan", "ios": "https://dc.lft.to/lastmile_qr_scan"}, "name": "5d9887c319dcb003f674668bdfdb9dfd", "is_reserved": 0}, {"is_disabled": 0, "fusion_lon": 0.0, "fusion_lat": 0.0, "lat": 38.872308833333335, "type": "electric_scooter", "lon": -77.00575016666667, "bike_id": "ca596f71d957ba26f600aaac189dbd35", "rental_uris": {"android": "https://dc.lft.to/lastmile_qr_scan", "ios": "https://dc.lft.to/lastmile_qr_scan"}, "name": "ca596f71d957ba26f600aaac189dbd35", "is_reserved": 0}, {"is_disabled": 0, "fusion_lon": 0.0, "fusion_lat": 0.0, "lat": 38.91485516666667, "type": "electric_scooter", "lon": -77.01864966666666, "bike_id": "cb0b06a28e16f8a84072c8fe57896b07", "rental_uris": {"android": "https://dc.lft.to/lastmile_qr_scan", "ios": "https://dc.lft.to/lastmile_qr_scan"}, "name": "cb0b06a28e16f8a84072c8fe57896b07", "is_reserved": 0}, {"is_disabled": 0, "fusion_lon": 0.0, "fusion_lat": 0.0, "lat": 38.89349816666667, "type": "electric_scooter", "lon": -77.022148, "bike_id": "ddeb10aec91395fee4b584025807eca0", "rental_uris": {"android": "https://dc.lft.to/lastmile_qr_scan", "ios": "https://dc.lft.to/lastmile_qr_scan"}, "name": "ddeb10aec91395fee4b584025807eca0", "is_reserved": 0}, {"is_disabled": 0, "fusion_lon": 0.0, "fusion_lat": 0.0, "lat": 38.9111615, "type": "electric_scooter", "lon": -77.04717, "bike_id": "f1642ceb6b35bde28ee438f9ad2dbaf0", "rental_uris": {"android": "https://dc.lft.to/lastmile_qr_scan", "ios": "https://dc.lft.to/lastmile_qr_scan"}, "name": "f1642ceb6b35bde28ee438f9ad2dbaf0", "is_reserved": 0}, {"is_disabled": 0, "fusion_lon": 0.0, "fusion_lat": 0.0, "lat": 38.929730666666664, "type": "electric_scooter", "lon": -77.034712, "bike_id": "d4218783240587ac0b6adf45ac6f1033", "rental_uris": {"android": "https://dc.lft.to/lastmile_qr_scan", "ios": "https://dc.lft.to/lastmile_qr_scan"}, "name": "d4218783240587ac0b6adf45ac6f1033", "is_reserved": 0}, {"is_disabled": 0, "fusion_lon": 0.0, "fusion_lat": 0.0, "lat": 38.92830333333333, "type": "electric_scooter", "lon": -77.0141255, "bike_id": "56e7255d694c15cbd9b72748d11a649f", "rental_uris": {"android": "https://dc.lft.to/lastmile_qr_scan", "ios": "https://dc.lft.to/lastmile_qr_scan"}, "name": "56e7255d694c15cbd9b72748d11a649f", "is_reserved": 0}, {"is_disabled": 0, "fusion_lon": 0.0, "fusion_lat": 0.0, "lat": 38.91573416666667, "type": "electric_scooter", "lon": -76.98111383333334, "bike_id": "4c9f8e99775f80204bedcd583cb3aa87", "rental_uris": {"android": "https://dc.lft.to/lastmile_qr_scan", "ios": "https://dc.lft.to/lastmile_qr_scan"}, "name": "4c9f8e99775f80204bedcd583cb3aa87", "is_reserved": 0}, {"is_disabled": 0, "fusion_lon": 0.0, "fusion_lat": 0.0, "lat": 38.9016075, "type": "electric_scooter", "lon": -77.05920116666667, "bike_id": "473b9c741cbd8c7d06eb443c86673eb3", "rental_uris": {"android": "https://dc.lft.to/lastmile_qr_scan", "ios": "https://dc.lft.to/lastmile_qr_scan"}, "name": "473b9c741cbd8c7d06eb443c86673eb3", "is_reserved": 0}, {"is_disabled": 0, "fusion_lon": 0.0, "fusion_lat": 0.0, "lat": 38.916303, "type": "electric_scooter", "lon": -77.02561366666667, "bike_id": "b0b9da8dc0f662583ec4be7149a9f318", "rental_uris": {"android": "https://dc.lft.to/lastmile_qr_scan", "ios": "https://dc.lft.to/lastmile_qr_scan"}, "name": "b0b9da8dc0f662583ec4be7149a9f318", "is_reserved": 0}, {"is_disabled": 0, "fusion_lon": 0.0, "fusion_lat": 0.0, "lat": 38.8935195, "type": "electric_scooter", "lon": -76.94946866666666, "bike_id": "0920630b283b8d253204cb0af7203d3d", "rental_uris": {"android": "https://dc.lft.to/lastmile_qr_scan", "ios": "https://dc.lft.to/lastmile_qr_scan"}, "name": "0920630b283b8d253204cb0af7203d3d", "is_reserved": 0}, {"is_disabled": 0, "fusion_lon": 0.0, "fusion_lat": 0.0, "lat": 38.9175775, "type": "electric_scooter", "lon": -77.0049645, "bike_id": "4d9cf9a9df909b3dfaa34cfccc25bf4a", "rental_uris": {"android": "https://dc.lft.to/lastmile_qr_scan", "ios": "https://dc.lft.to/lastmile_qr_scan"}, "name": "4d9cf9a9df909b3dfaa34cfccc25bf4a", "is_reserved": 0}, {"is_disabled": 0, "fusion_lon": 0.0, "fusion_lat": 0.0, "lat": 38.92167533333333, "type": "electric_scooter", "lon": -77.05526766666667, "bike_id": "a0975fd485393e6223bfef4e87e4194d", "rental_uris": {"android": "https://dc.lft.to/lastmile_qr_scan", "ios": "https://dc.lft.to/lastmile_qr_scan"}, "name": "a0975fd485393e6223bfef4e87e4194d", "is_reserved": 0}, {"is_disabled": 0, "fusion_lon": 0.0, "fusion_lat": 0.0, "lat": 38.94918066666666, "type": "electric_scooter", "lon": -77.01858233333333, "bike_id": "5934391acaba347e10fa057c22fc60fe", "rental_uris": {"android": "https://dc.lft.to/lastmile_qr_scan", "ios": "https://dc.lft.to/lastmile_qr_scan"}, "name": "5934391acaba347e10fa057c22fc60fe", "is_reserved": 0}, {"is_disabled": 0, "fusion_lon": 0.0, "fusion_lat": 0.0, "lat": 38.88113666666667, "type": "electric_scooter", "lon": -77.016552, "bike_id": "a8b708dc4a1dc637d9973b0c7a568bbe", "rental_uris": {"android": "https://dc.lft.to/lastmile_qr_scan", "ios": "https://dc.lft.to/lastmile_qr_scan"}, "name": "a8b708dc4a1dc637d9973b0c7a568bbe", "is_reserved": 0}, {"is_disabled": 0, "fusion_lon": 0.0, "fusion_lat": 0.0, "lat": 38.93552316666667, "type": "electric_scooter", "lon": -77.0286355, "bike_id": "56b60283525b213d08e277873a995cce", "rental_uris": {"android": "https://dc.lft.to/lastmile_qr_scan", "ios": "https://dc.lft.to/lastmile_qr_scan"}, "name": "56b60283525b213d08e277873a995cce", "is_reserved": 0}, {"is_disabled": 0, "fusion_lon": 0.0, "fusion_lat": 0.0, "lat": 38.900202, "type": "electric_scooter", "lon": -77.04390766666667, "bike_id": "5be05b0f473f6f88d32ed53b1b6517e7", "rental_uris": {"android": "https://dc.lft.to/lastmile_qr_scan", "ios": "https://dc.lft.to/lastmile_qr_scan"}, "name": "5be05b0f473f6f88d32ed53b1b6517e7", "is_reserved": 0}, {"is_disabled": 0, "fusion_lon": 0.0, "fusion_lat": 0.0, "lat": 38.9148755, "type": "electric_scooter", "lon": -77.03290883333334, "bike_id": "810f18b05826cfa7e72552811aec0186", "rental_uris": {"android": "https://dc.lft.to/lastmile_qr_scan", "ios": "https://dc.lft.to/lastmile_qr_scan"}, "name": "810f18b05826cfa7e72552811aec0186", "is_reserved": 0}, {"is_disabled": 0, "fusion_lon": 0.0, "fusion_lat": 0.0, "lat": 38.9061665, "type": "electric_scooter", "lon": -77.03210116666666, "bike_id": "60b36319100c7746e9b3856cd63f4707", "rental_uris": {"android": "https://dc.lft.to/lastmile_qr_scan", "ios": "https://dc.lft.to/lastmile_qr_scan"}, "name": "60b36319100c7746e9b3856cd63f4707", "is_reserved": 0}, {"is_disabled": 0, "fusion_lon": 0.0, "fusion_lat": 0.0, "lat": 38.9055605, "type": "electric_scooter", "lon": -77.066097, "bike_id": "dbf3dbeec34c3c6793acc556c36efeda", "rental_uris": {"android": "https://dc.lft.to/lastmile_qr_scan", "ios": "https://dc.lft.to/lastmile_qr_scan"}, "name": "dbf3dbeec34c3c6793acc556c36efeda", "is_reserved": 0}, {"is_disabled": 0, "fusion_lon": 0.0, "fusion_lat": 0.0, "lat": 38.900911, "type": "electric_scooter", "lon": -77.0443675, "bike_id": "6f8cc330f9b2e7f23541169188061408", "rental_uris": {"android": "https://dc.lft.to/lastmile_qr_scan", "ios": "https://dc.lft.to/lastmile_qr_scan"}, "name": "6f8cc330f9b2e7f23541169188061408", "is_reserved": 0}, {"is_disabled": 0, "fusion_lon": 0.0, "fusion_lat": 0.0, "lat": 38.912378, "type": "electric_scooter", "lon": -76.98447383333334, "bike_id": "294c5788f5d0a4bd2160f42a19086867", "rental_uris": {"android": "https://dc.lft.to/lastmile_qr_scan", "ios": "https://dc.lft.to/lastmile_qr_scan"}, "name": "294c5788f5d0a4bd2160f42a19086867", "is_reserved": 0}, {"is_disabled": 0, "fusion_lon": 0.0, "fusion_lat": 0.0, "lat": 38.9059485, "type": "electric_scooter", "lon": -77.04201483333334, "bike_id": "4a12baa95ab6c5cade3121875aa709ac", "rental_uris": {"android": "https://dc.lft.to/lastmile_qr_scan", "ios": "https://dc.lft.to/lastmile_qr_scan"}, "name": "4a12baa95ab6c5cade3121875aa709ac", "is_reserved": 0}, {"is_disabled": 0, "fusion_lon": 0.0, "fusion_lat": 0.0, "lat": 38.913256, "type": "electric_scooter", "lon": -77.02711783333334, "bike_id": "431153f5a36019de7fd02f46cd0dce19", "rental_uris": {"android": "https://dc.lft.to/lastmile_qr_scan", "ios": "https://dc.lft.to/lastmile_qr_scan"}, "name": "431153f5a36019de7fd02f46cd0dce19", "is_reserved": 0}, {"is_disabled": 0, "fusion_lon": 0.0, "fusion_lat": 0.0, "lat": 38.9427095, "type": "electric_scooter", "lon": -77.03258066666666, "bike_id": "73b6f903176d4acefef42ceff8145c82", "rental_uris": {"android": "https://dc.lft.to/lastmile_qr_scan", "ios": "https://dc.lft.to/lastmile_qr_scan"}, "name": "73b6f903176d4acefef42ceff8145c82", "is_reserved": 0}, {"is_disabled": 0, "fusion_lon": 0.0, "fusion_lat": 0.0, "lat": 38.912676166666664, "type": "electric_scooter", "lon": -77.02239416666667, "bike_id": "feb38ad2d784ea1565aec9c5565e4008", "rental_uris": {"android": "https://dc.lft.to/lastmile_qr_scan", "ios": "https://dc.lft.to/lastmile_qr_scan"}, "name": "feb38ad2d784ea1565aec9c5565e4008", "is_reserved": 0}, {"is_disabled": 0, "fusion_lon": 0.0, "fusion_lat": 0.0, "lat": 38.91551, "type": "electric_scooter", "lon": -77.02950366666667, "bike_id": "4bd5014d1af1802fdb339a1d721813d8", "rental_uris": {"android": "https://dc.lft.to/lastmile_qr_scan", "ios": "https://dc.lft.to/lastmile_qr_scan"}, "name": "4bd5014d1af1802fdb339a1d721813d8", "is_reserved": 0}, {"is_disabled": 0, "fusion_lon": 0.0, "fusion_lat": 0.0, "lat": 38.87638666666667, "type": "electric_scooter", "lon": -77.01577483333334, "bike_id": "3f1009aa46858b865e852bd8d4ced018", "rental_uris": {"android": "https://dc.lft.to/lastmile_qr_scan", "ios": "https://dc.lft.to/lastmile_qr_scan"}, "name": "3f1009aa46858b865e852bd8d4ced018", "is_reserved": 0}, {"is_disabled": 0, "fusion_lon": 0.0, "fusion_lat": 0.0, "lat": 39.02995966666667, "type": "electric_bike", "lon": -77.106513, "bike_id": "35df8510b6a8634d5bb7282aa1dbdf8c", "rental_uris": {"android": "https://dc.lft.to/lastmile_qr_scan", "ios": "https://dc.lft.to/lastmile_qr_scan"}, "name": "35df8510b6a8634d5bb7282aa1dbdf8c", "is_reserved": 0}, {"is_disabled": 0, "fusion_lon": 0.0, "fusion_lat": 0.0, "lat": 38.9087575, "type": "electric_bike", "lon": -77.043338, "bike_id": "052571b6d44fd59f55d9a35480cfe9f9", "rental_uris": {"android": "https://dc.lft.to/lastmile_qr_scan", "ios": "https://dc.lft.to/lastmile_qr_scan"}, "name": "052571b6d44fd59f55d9a35480cfe9f9", "is_reserved": 0}, {"is_disabled": 0, "fusion_lon": 0.0, "fusion_lat": 0.0, "lat": 38.900164833333335, "type": "electric_scooter", "lon": -77.00473333333333, "bike_id": "6ad78625ef64748ff5fc269d62ac86f7", "rental_uris": {"android": "https://dc.lft.to/lastmile_qr_scan", "ios": "https://dc.lft.to/lastmile_qr_scan"}, "name": "6ad78625ef64748ff5fc269d62ac86f7", "is_reserved": 0}, {"is_disabled": 0, "fusion_lon": 0.0, "fusion_lat": 0.0, "lat": 38.952023, "type": "electric_scooter", "lon": -77.0273525, "bike_id": "4e3cb5d30c920854aaca574a41e84a66", "rental_uris": {"android": "https://dc.lft.to/lastmile_qr_scan", "ios": "https://dc.lft.to/lastmile_qr_scan"}, "name": "4e3cb5d30c920854aaca574a41e84a66", "is_reserved": 0}, {"is_disabled": 0, "fusion_lon": 0.0, "fusion_lat": 0.0, "lat": 38.8990805, "type": "electric_scooter", "lon": -76.93390633333334, "bike_id": "9ea9789bd9fa62d2294c109cd4087090", "rental_uris": {"android": "https://dc.lft.to/lastmile_qr_scan", "ios": "https://dc.lft.to/lastmile_qr_scan"}, "name": "9ea9789bd9fa62d2294c109cd4087090", "is_reserved": 0}, {"is_disabled": 0, "fusion_lon": 0.0, "fusion_lat": 0.0, "lat": 38.96445533333333, "type": "electric_bike", "lon": -76.97722916666666, "bike_id": "7daac2f0541539e91cc6edb83d21dbf8", "rental_uris": {"android": "https://dc.lft.to/lastmile_qr_scan", "ios": "https://dc.lft.to/lastmile_qr_scan"}, "name": "7daac2f0541539e91cc6edb83d21dbf8", "is_reserved": 0}, {"is_disabled": 0, "fusion_lon": 0.0, "fusion_lat": 0.0, "lat": 38.850915666666666, "type": "electric_bike", "lon": -76.95696466666666, "bike_id": "95da06169347d04c0d540fe37f41b197", "rental_uris": {"android": "https://dc.lft.to/lastmile_qr_scan", "ios": "https://dc.lft.to/lastmile_qr_scan"}, "name": "95da06169347d04c0d540fe37f41b197", "is_reserved": 0}, {"is_disabled": 0, "fusion_lon": 0.0, "fusion_lat": 0.0, "lat": 38.95201933333333, "type": "electric_scooter", "lon": -77.0273145, "bike_id": "ecaf1f86e33ece94e719518efc3ab041", "rental_uris": {"android": "https://dc.lft.to/lastmile_qr_scan", "ios": "https://dc.lft.to/lastmile_qr_scan"}, "name": "ecaf1f86e33ece94e719518efc3ab041", "is_reserved": 0}, {"is_disabled": 0, "fusion_lon": 0.0, "fusion_lat": 0.0, "lat": 38.887546, "type": "electric_scooter", "lon": -77.0022675, "bike_id": "994e89c81b9a78b2e54635f9cb3a7e70", "rental_uris": {"android": "https://dc.lft.to/lastmile_qr_scan", "ios": "https://dc.lft.to/lastmile_qr_scan"}, "name": "994e89c81b9a78b2e54635f9cb3a7e70", "is_reserved": 0}, {"is_disabled": 0, "fusion_lon": 0.0, "fusion_lat": 0.0, "lat": 38.89332266666667, "type": "electric_bike", "lon": -77.124049, "bike_id": "261a46a7555359f727cfa39fbb50fe18", "rental_uris": {"android": "https://dc.lft.to/lastmile_qr_scan", "ios": "https://dc.lft.to/lastmile_qr_scan"}, "name": "261a46a7555359f727cfa39fbb50fe18", "is_reserved": 0}, {"is_disabled": 0, "fusion_lon": 0.0, "fusion_lat": 0.0, "lat": 38.898780333333335, "type": "electric_scooter", "lon": -76.93163716666666, "bike_id": "c944f44998b22a7db9f20466462195e5", "rental_uris": {"android": "https://dc.lft.to/lastmile_qr_scan", "ios": "https://dc.lft.to/lastmile_qr_scan"}, "name": "c944f44998b22a7db9f20466462195e5", "is_reserved": 0}, {"is_disabled": 0, "fusion_lon": 0.0, "fusion_lat": 0.0, "lat": 38.9522465, "type": "electric_scooter", "lon": -77.027618, "bike_id": "f58e5e9a21ecfe0526ac44bd9a4bb456", "rental_uris": {"android": "https://dc.lft.to/lastmile_qr_scan", "ios": "https://dc.lft.to/lastmile_qr_scan"}, "name": "f58e5e9a21ecfe0526ac44bd9a4bb456", "is_reserved": 0}, {"is_disabled": 0, "fusion_lon": 0.0, "fusion_lat": 0.0, "lat": 38.90530233333333, "type": "electric_scooter", "lon": -77.05764416666666, "bike_id": "795c09e34c503342de6741104ee9e6e8", "rental_uris": {"android": "https://dc.lft.to/lastmile_qr_scan", "ios": "https://dc.lft.to/lastmile_qr_scan"}, "name": "795c09e34c503342de6741104ee9e6e8", "is_reserved": 0}, {"is_disabled": 0, "fusion_lon": 0.0, "fusion_lat": 0.0, "lat": 38.91803083333333, "type": "electric_scooter", "lon": -77.03555983333334, "bike_id": "47643789226d57bf7ab74adde71958fe", "rental_uris": {"android": "https://dc.lft.to/lastmile_qr_scan", "ios": "https://dc.lft.to/lastmile_qr_scan"}, "name": "47643789226d57bf7ab74adde71958fe", "is_reserved": 0}, {"is_disabled": 0, "fusion_lon": 0.0, "fusion_lat": 0.0, "lat": 38.86052866666667, "type": "electric_scooter", "lon": -76.985166, "bike_id": "2be35f173eaec4fc3517bcdacc02fae8", "rental_uris": {"android": "https://dc.lft.to/lastmile_qr_scan", "ios": "https://dc.lft.to/lastmile_qr_scan"}, "name": "2be35f173eaec4fc3517bcdacc02fae8", "is_reserved": 0}, {"is_disabled": 0, "fusion_lon": 0.0, "fusion_lat": 0.0, "lat": 38.9172055, "type": "electric_scooter", "lon": -77.03664416666666, "bike_id": "f3c594ccae97f7bac0cf083ae1a70382", "rental_uris": {"android": "https://dc.lft.to/lastmile_qr_scan", "ios": "https://dc.lft.to/lastmile_qr_scan"}, "name": "f3c594ccae97f7bac0cf083ae1a70382", "is_reserved": 0}, {"is_disabled": 0, "fusion_lon": 0.0, "fusion_lat": 0.0, "lat": 38.9051125, "type": "electric_scooter", "lon": -77.06372433333334, "bike_id": "a28e595ca04dd7c4d03f4445866602c1", "rental_uris": {"android": "https://dc.lft.to/lastmile_qr_scan", "ios": "https://dc.lft.to/lastmile_qr_scan"}, "name": "a28e595ca04dd7c4d03f4445866602c1", "is_reserved": 0}, {"is_disabled": 0, "fusion_lon": 0.0, "fusion_lat": 0.0, "lat": 38.928726833333336, "type": "electric_scooter", "lon": -77.0413065, "bike_id": "12c63468f94eea563c157794720cc91c", "rental_uris": {"android": "https://dc.lft.to/lastmile_qr_scan", "ios": "https://dc.lft.to/lastmile_qr_scan"}, "name": "12c63468f94eea563c157794720cc91c", "is_reserved": 0}, {"is_disabled": 0, "fusion_lon": 0.0, "fusion_lat": 0.0, "lat": 38.930949166666664, "type": "electric_scooter", "lon": -77.02478966666666, "bike_id": "92a9dea5dd1ae6198c5a2676acf12e2b", "rental_uris": {"android": "https://dc.lft.to/lastmile_qr_scan", "ios": "https://dc.lft.to/lastmile_qr_scan"}, "name": "92a9dea5dd1ae6198c5a2676acf12e2b", "is_reserved": 0}, {"is_disabled": 0, "fusion_lon": 0.0, "fusion_lat": 0.0, "lat": 38.9236875, "type": "electric_scooter", "lon": -77.05023483333333, "bike_id": "4def80390a52586e953314482961ee0c", "rental_uris": {"android": "https://dc.lft.to/lastmile_qr_scan", "ios": "https://dc.lft.to/lastmile_qr_scan"}, "name": "4def80390a52586e953314482961ee0c", "is_reserved": 0}, {"is_disabled": 0, "fusion_lon": 0.0, "fusion_lat": 0.0, "lat": 38.902041, "type": "electric_scooter", "lon": -77.02403716666667, "bike_id": "2e08ac9f47d650563abc3e27c2c4e2dc", "rental_uris": {"android": "https://dc.lft.to/lastmile_qr_scan", "ios": "https://dc.lft.to/lastmile_qr_scan"}, "name": "2e08ac9f47d650563abc3e27c2c4e2dc", "is_reserved": 0}, {"is_disabled": 0, "fusion_lon": 0.0, "fusion_lat": 0.0, "lat": 38.91381533333333, "type": "electric_scooter", "lon": -77.02974083333334, "bike_id": "ae02b6ea6ee599c28792deb5f1685f52", "rental_uris": {"android": "https://dc.lft.to/lastmile_qr_scan", "ios": "https://dc.lft.to/lastmile_qr_scan"}, "name": "ae02b6ea6ee599c28792deb5f1685f52", "is_reserved": 0}, {"is_disabled": 0, "fusion_lon": 0.0, "fusion_lat": 0.0, "lat": 38.91212, "type": "electric_scooter", "lon": -77.038526, "bike_id": "06e904699e692fb2ddd5f2fcc130020f", "rental_uris": {"android": "https://dc.lft.to/lastmile_qr_scan", "ios": "https://dc.lft.to/lastmile_qr_scan"}, "name": "06e904699e692fb2ddd5f2fcc130020f", "is_reserved": 0}, {"is_disabled": 0, "fusion_lon": 0.0, "fusion_lat": 0.0, "lat": 38.89741683333333, "type": "electric_scooter", "lon": -77.05144216666666, "bike_id": "c91b81ed81683f04379fa5be08f842d6", "rental_uris": {"android": "https://dc.lft.to/lastmile_qr_scan", "ios": "https://dc.lft.to/lastmile_qr_scan"}, "name": "c91b81ed81683f04379fa5be08f842d6", "is_reserved": 0}, {"is_disabled": 0, "fusion_lon": 0.0, "fusion_lat": 0.0, "lat": 38.93906483333333, "type": "electric_scooter", "lon": -77.0334515, "bike_id": "e18d2c5436a16b4dbe4c25bc39316f93", "rental_uris": {"android": "https://dc.lft.to/lastmile_qr_scan", "ios": "https://dc.lft.to/lastmile_qr_scan"}, "name": "e18d2c5436a16b4dbe4c25bc39316f93", "is_reserved": 0}, {"is_disabled": 0, "fusion_lon": 0.0, "fusion_lat": 0.0, "lat": 38.8830715, "type": "electric_scooter", "lon": -77.04527266666666, "bike_id": "6cb0b7f4b3c015e865ceb3a81d5307e3", "rental_uris": {"android": "https://dc.lft.to/lastmile_qr_scan", "ios": "https://dc.lft.to/lastmile_qr_scan"}, "name": "6cb0b7f4b3c015e865ceb3a81d5307e3", "is_reserved": 0}, {"is_disabled": 0, "fusion_lon": 0.0, "fusion_lat": 0.0, "lat": 38.921748, "type": "electric_scooter", "lon": -77.04223333333333, "bike_id": "7968e178f38325425995dc48d6debd2d", "rental_uris": {"android": "https://dc.lft.to/lastmile_qr_scan", "ios": "https://dc.lft.to/lastmile_qr_scan"}, "name": "7968e178f38325425995dc48d6debd2d", "is_reserved": 0}, {"is_disabled": 0, "fusion_lon": 0.0, "fusion_lat": 0.0, "lat": 38.914181666666664, "type": "electric_scooter", "lon": -77.02123133333333, "bike_id": "6a4f299d747e7d168b19dd9eea6547cc", "rental_uris": {"android": "https://dc.lft.to/lastmile_qr_scan", "ios": "https://dc.lft.to/lastmile_qr_scan"}, "name": "6a4f299d747e7d168b19dd9eea6547cc", "is_reserved": 0}, {"is_disabled": 0, "fusion_lon": 0.0, "fusion_lat": 0.0, "lat": 38.884874, "type": "electric_scooter", "lon": -77.00727083333334, "bike_id": "43051a1d5a3c0a7fcf64a241a8edf2b1", "rental_uris": {"android": "https://dc.lft.to/lastmile_qr_scan", "ios": "https://dc.lft.to/lastmile_qr_scan"}, "name": "43051a1d5a3c0a7fcf64a241a8edf2b1", "is_reserved": 0}, {"is_disabled": 0, "fusion_lon": 0.0, "fusion_lat": 0.0, "lat": 38.88740416666667, "type": "electric_scooter", "lon": -77.0137605, "bike_id": "859211c8b7418ae2104122b84b4c8bd7", "rental_uris": {"android": "https://dc.lft.to/lastmile_qr_scan", "ios": "https://dc.lft.to/lastmile_qr_scan"}, "name": "859211c8b7418ae2104122b84b4c8bd7", "is_reserved": 0}, {"is_disabled": 0, "fusion_lon": 0.0, "fusion_lat": 0.0, "lat": 38.93958766666667, "type": "electric_scooter", "lon": -77.02748416666667, "bike_id": "e637ace1d23199f7ac0fc5b0bd3affdf", "rental_uris": {"android": "https://dc.lft.to/lastmile_qr_scan", "ios": "https://dc.lft.to/lastmile_qr_scan"}, "name": "e637ace1d23199f7ac0fc5b0bd3affdf", "is_reserved": 0}, {"is_disabled": 0, "fusion_lon": 0.0, "fusion_lat": 0.0, "lat": 38.852026, "type": "electric_bike", "lon": -77.12761266666666, "bike_id": "76a3a51d30c80bba67ac43ad5c579cca", "rental_uris": {"android": "https://dc.lft.to/lastmile_qr_scan", "ios": "https://dc.lft.to/lastmile_qr_scan"}, "name": "76a3a51d30c80bba67ac43ad5c579cca", "is_reserved": 0}, {"is_disabled": 0, "fusion_lon": 0.0, "fusion_lat": 0.0, "lat": 38.88431883333333, "type": "electric_scooter", "lon": -77.029703, "bike_id": "ba58d7e9344eb5f2ccfd2cff8ebe9a5b", "rental_uris": {"android": "https://dc.lft.to/lastmile_qr_scan", "ios": "https://dc.lft.to/lastmile_qr_scan"}, "name": "ba58d7e9344eb5f2ccfd2cff8ebe9a5b", "is_reserved": 0}, {"is_disabled": 0, "fusion_lon": 0.0, "fusion_lat": 0.0, "lat": 38.99930916666667, "type": "electric_bike", "lon": -77.00123166666667, "bike_id": "962bf9af9b688c2f51a816ac97aca00e", "rental_uris": {"android": "https://dc.lft.to/lastmile_qr_scan", "ios": "https://dc.lft.to/lastmile_qr_scan"}, "name": "962bf9af9b688c2f51a816ac97aca00e", "is_reserved": 0}, {"is_disabled": 0, "fusion_lon": 0.0, "fusion_lat": 0.0, "lat": 38.880215, "type": "electric_scooter", "lon": -76.93113783333334, "bike_id": "8f048f7d5f85046f639cd15670f04750", "rental_uris": {"android": "https://dc.lft.to/lastmile_qr_scan", "ios": "https://dc.lft.to/lastmile_qr_scan"}, "name": "8f048f7d5f85046f639cd15670f04750", "is_reserved": 0}, {"is_disabled": 0, "fusion_lon": 0.0, "fusion_lat": 0.0, "lat": 38.89502566666667, "type": "electric_scooter", "lon": -76.94877216666667, "bike_id": "c9116d25383a7eaa2aff55b67e56d5f4", "rental_uris": {"android": "https://dc.lft.to/lastmile_qr_scan", "ios": "https://dc.lft.to/lastmile_qr_scan"}, "name": "c9116d25383a7eaa2aff55b67e56d5f4", "is_reserved": 0}, {"is_disabled": 0, "fusion_lon": 0.0, "fusion_lat": 0.0, "lat": 38.919331, "type": "electric_scooter", "lon": -77.0813435, "bike_id": "95111e0b8a3c16d1104e54af7b6b138f", "rental_uris": {"android": "https://dc.lft.to/lastmile_qr_scan", "ios": "https://dc.lft.to/lastmile_qr_scan"}, "name": "95111e0b8a3c16d1104e54af7b6b138f", "is_reserved": 0}, {"is_disabled": 0, "fusion_lon": 0.0, "fusion_lat": 0.0, "lat": 39.09589716666667, "type": "electric_bike", "lon": -77.147788, "bike_id": "e5d25cba209b70034bc5a686e349bef1", "rental_uris": {"android": "https://dc.lft.to/lastmile_qr_scan", "ios": "https://dc.lft.to/lastmile_qr_scan"}, "name": "e5d25cba209b70034bc5a686e349bef1", "is_reserved": 0}, {"is_disabled": 0, "fusion_lon": 0.0, "fusion_lat": 0.0, "lat": 38.907084, "type": "electric_scooter", "lon": -77.02391183333333, "bike_id": "d72a80e8507526962b38cf76de245cdc", "rental_uris": {"android": "https://dc.lft.to/lastmile_qr_scan", "ios": "https://dc.lft.to/lastmile_qr_scan"}, "name": "d72a80e8507526962b38cf76de245cdc", "is_reserved": 0}, {"is_disabled": 0, "fusion_lon": 0.0, "fusion_lat": 0.0, "lat": 38.915508333333335, "type": "electric_scooter", "lon": -77.0204495, "bike_id": "ccb1ac74207e1d7254d95fa017913921", "rental_uris": {"android": "https://dc.lft.to/lastmile_qr_scan", "ios": "https://dc.lft.to/lastmile_qr_scan"}, "name": "ccb1ac74207e1d7254d95fa017913921", "is_reserved": 0}, {"is_disabled": 0, "fusion_lon": 0.0, "fusion_lat": 0.0, "lat": 38.855702, "type": "electric_bike", "lon": -77.10723933333334, "bike_id": "450aefd7270e26be0d386e8bd494a654", "rental_uris": {"android": "https://dc.lft.to/lastmile_qr_scan", "ios": "https://dc.lft.to/lastmile_qr_scan"}, "name": "450aefd7270e26be0d386e8bd494a654", "is_reserved": 0}, {"is_disabled": 0, "fusion_lon": 0.0, "fusion_lat": 0.0, "lat": 38.91246183333333, "type": "electric_scooter", "lon": -77.04164466666667, "bike_id": "954727eee530a612ec045914b5aec857", "rental_uris": {"android": "https://dc.lft.to/lastmile_qr_scan", "ios": "https://dc.lft.to/lastmile_qr_scan"}, "name": "954727eee530a612ec045914b5aec857", "is_reserved": 0}, {"is_disabled": 0, "fusion_lon": 0.0, "fusion_lat": 0.0, "lat": 38.914016833333335, "type": "electric_scooter", "lon": -77.02664283333333, "bike_id": "dd99e87f3b5c34670fb8a214317f84b3", "rental_uris": {"android": "https://dc.lft.to/lastmile_qr_scan", "ios": "https://dc.lft.to/lastmile_qr_scan"}, "name": "dd99e87f3b5c34670fb8a214317f84b3", "is_reserved": 0}, {"is_disabled": 0, "fusion_lon": 0.0, "fusion_lat": 0.0, "lat": 38.93108866666667, "type": "electric_scooter", "lon": -77.03505316666667, "bike_id": "2da088ef2e8b668dafcff1fbc7305d22", "rental_uris": {"android": "https://dc.lft.to/lastmile_qr_scan", "ios": "https://dc.lft.to/lastmile_qr_scan"}, "name": "2da088ef2e8b668dafcff1fbc7305d22", "is_reserved": 0}, {"is_disabled": 0, "fusion_lon": 0.0, "fusion_lat": 0.0, "lat": 38.8927745, "type": "electric_scooter", "lon": -77.05044933333333, "bike_id": "96cbe0e89c264a0a35167944f392880f", "rental_uris": {"android": "https://dc.lft.to/lastmile_qr_scan", "ios": "https://dc.lft.to/lastmile_qr_scan"}, "name": "96cbe0e89c264a0a35167944f392880f", "is_reserved": 0}, {"is_disabled": 0, "fusion_lon": 0.0, "fusion_lat": 0.0, "lat": 38.86696716666667, "type": "electric_scooter", "lon": -76.98712183333333, "bike_id": "e3844b4b571688e529d489c12967d35c", "rental_uris": {"android": "https://dc.lft.to/lastmile_qr_scan", "ios": "https://dc.lft.to/lastmile_qr_scan"}, "name": "e3844b4b571688e529d489c12967d35c", "is_reserved": 0}, {"is_disabled": 0, "fusion_lon": 0.0, "fusion_lat": 0.0, "lat": 38.903176, "type": "electric_scooter", "lon": -77.036362, "bike_id": "20daac22fae247724daa409a0dfb2c1a", "rental_uris": {"android": "https://dc.lft.to/lastmile_qr_scan", "ios": "https://dc.lft.to/lastmile_qr_scan"}, "name": "20daac22fae247724daa409a0dfb2c1a", "is_reserved": 0}, {"is_disabled": 0, "fusion_lon": 0.0, "fusion_lat": 0.0, "lat": 38.925365, "type": "electric_scooter", "lon": -77.073521, "bike_id": "d2a2b8f263d83cdc295e68c09c96ef90", "rental_uris": {"android": "https://dc.lft.to/lastmile_qr_scan", "ios": "https://dc.lft.to/lastmile_qr_scan"}, "name": "d2a2b8f263d83cdc295e68c09c96ef90", "is_reserved": 0}, {"is_disabled": 0, "fusion_lon": 0.0, "fusion_lat": 0.0, "lat": 38.897604666666666, "type": "electric_scooter", "lon": -77.0248405, "bike_id": "84e4f65d232c85dbcdba12e9404fa401", "rental_uris": {"android": "https://dc.lft.to/lastmile_qr_scan", "ios": "https://dc.lft.to/lastmile_qr_scan"}, "name": "84e4f65d232c85dbcdba12e9404fa401", "is_reserved": 0}, {"is_disabled": 0, "fusion_lon": 0.0, "fusion_lat": 0.0, "lat": 38.9052405, "type": "electric_scooter", "lon": -77.043419, "bike_id": "dd165be6b1a3138eb6f5daa4332f47df", "rental_uris": {"android": "https://dc.lft.to/lastmile_qr_scan", "ios": "https://dc.lft.to/lastmile_qr_scan"}, "name": "dd165be6b1a3138eb6f5daa4332f47df", "is_reserved": 0}, {"is_disabled": 0, "fusion_lon": 0.0, "fusion_lat": 0.0, "lat": 38.894637, "type": "electric_scooter", "lon": -77.02190516666667, "bike_id": "9232c06ef8741b441cb149638bfb8ca4", "rental_uris": {"android": "https://dc.lft.to/lastmile_qr_scan", "ios": "https://dc.lft.to/lastmile_qr_scan"}, "name": "9232c06ef8741b441cb149638bfb8ca4", "is_reserved": 0}, {"is_disabled": 0, "fusion_lon": 0.0, "fusion_lat": 0.0, "lat": 38.9289915, "type": "electric_scooter", "lon": -77.03177583333333, "bike_id": "bb6de1a23f5524e6da2f7453cc91e949", "rental_uris": {"android": "https://dc.lft.to/lastmile_qr_scan", "ios": "https://dc.lft.to/lastmile_qr_scan"}, "name": "bb6de1a23f5524e6da2f7453cc91e949", "is_reserved": 0}, {"is_disabled": 0, "fusion_lon": 0.0, "fusion_lat": 0.0, "lat": 38.9353265, "type": "electric_scooter", "lon": -77.0348165, "bike_id": "91d5709910dab5b95072378b67bd6a94", "rental_uris": {"android": "https://dc.lft.to/lastmile_qr_scan", "ios": "https://dc.lft.to/lastmile_qr_scan"}, "name": "91d5709910dab5b95072378b67bd6a94", "is_reserved": 0}, {"is_disabled": 0, "fusion_lon": 0.0, "fusion_lat": 0.0, "lat": 38.934611833333335, "type": "electric_scooter", "lon": -77.03055666666667, "bike_id": "612daf75b51858efbd8472855d66eb57", "rental_uris": {"android": "https://dc.lft.to/lastmile_qr_scan", "ios": "https://dc.lft.to/lastmile_qr_scan"}, "name": "612daf75b51858efbd8472855d66eb57", "is_reserved": 0}, {"is_disabled": 0, "fusion_lon": 0.0, "fusion_lat": 0.0, "lat": 38.91138933333333, "type": "electric_scooter", "lon": -77.04176683333333, "bike_id": "955d7cdfa597dcfd6be932c9f8fa6d3d", "rental_uris": {"android": "https://dc.lft.to/lastmile_qr_scan", "ios": "https://dc.lft.to/lastmile_qr_scan"}, "name": "955d7cdfa597dcfd6be932c9f8fa6d3d", "is_reserved": 0}, {"is_disabled": 0, "fusion_lon": 0.0, "fusion_lat": 0.0, "lat": 38.94540116666667, "type": "electric_scooter", "lon": -77.02533383333333, "bike_id": "1f46a33c64ee088833868758534fbf56", "rental_uris": {"android": "https://dc.lft.to/lastmile_qr_scan", "ios": "https://dc.lft.to/lastmile_qr_scan"}, "name": "1f46a33c64ee088833868758534fbf56", "is_reserved": 0}, {"is_disabled": 0, "fusion_lon": 0.0, "fusion_lat": 0.0, "lat": 38.9119865, "type": "electric_scooter", "lon": -77.04161333333333, "bike_id": "2591d3b914297a0b9470e207de0ff83a", "rental_uris": {"android": "https://dc.lft.to/lastmile_qr_scan", "ios": "https://dc.lft.to/lastmile_qr_scan"}, "name": "2591d3b914297a0b9470e207de0ff83a", "is_reserved": 0}, {"is_disabled": 0, "fusion_lon": 0.0, "fusion_lat": 0.0, "lat": 38.91715116666666, "type": "electric_scooter", "lon": -77.02604666666667, "bike_id": "6d47e89e47f105758b0e4be6f7fabb14", "rental_uris": {"android": "https://dc.lft.to/lastmile_qr_scan", "ios": "https://dc.lft.to/lastmile_qr_scan"}, "name": "6d47e89e47f105758b0e4be6f7fabb14", "is_reserved": 0}, {"is_disabled": 0, "fusion_lon": 0.0, "fusion_lat": 0.0, "lat": 38.9396565, "type": "electric_scooter", "lon": -77.03016866666667, "bike_id": "ef311e2a50e1a24c1d4964ab51907d07", "rental_uris": {"android": "https://dc.lft.to/lastmile_qr_scan", "ios": "https://dc.lft.to/lastmile_qr_scan"}, "name": "ef311e2a50e1a24c1d4964ab51907d07", "is_reserved": 0}, {"is_disabled": 0, "fusion_lon": 0.0, "fusion_lat": 0.0, "lat": 38.90726433333333, "type": "electric_scooter", "lon": -77.031137, "bike_id": "f7ff0e55810104f49e265d95f838d188", "rental_uris": {"android": "https://dc.lft.to/lastmile_qr_scan", "ios": "https://dc.lft.to/lastmile_qr_scan"}, "name": "f7ff0e55810104f49e265d95f838d188", "is_reserved": 0}, {"is_disabled": 0, "fusion_lon": 0.0, "fusion_lat": 0.0, "lat": 38.908646166666664, "type": "electric_scooter", "lon": -77.06399066666667, "bike_id": "ed5e6f6f710fc9d9b61505ac27978b6d", "rental_uris": {"android": "https://dc.lft.to/lastmile_qr_scan", "ios": "https://dc.lft.to/lastmile_qr_scan"}, "name": "ed5e6f6f710fc9d9b61505ac27978b6d", "is_reserved": 0}, {"is_disabled": 0, "fusion_lon": 0.0, "fusion_lat": 0.0, "lat": 38.916315166666664, "type": "electric_scooter", "lon": -77.03853733333334, "bike_id": "1dc2617daa9bfbab9b1e5875765e88e8", "rental_uris": {"android": "https://dc.lft.to/lastmile_qr_scan", "ios": "https://dc.lft.to/lastmile_qr_scan"}, "name": "1dc2617daa9bfbab9b1e5875765e88e8", "is_reserved": 0}, {"is_disabled": 0, "fusion_lon": 0.0, "fusion_lat": 0.0, "lat": 38.9053225, "type": "electric_scooter", "lon": -77.0617515, "bike_id": "953fed0af36c0d4e5a90197a0f3b506e", "rental_uris": {"android": "https://dc.lft.to/lastmile_qr_scan", "ios": "https://dc.lft.to/lastmile_qr_scan"}, "name": "953fed0af36c0d4e5a90197a0f3b506e", "is_reserved": 0}, {"is_disabled": 0, "fusion_lon": 0.0, "fusion_lat": 0.0, "lat": 38.8837005, "type": "electric_scooter", "lon": -76.92376633333333, "bike_id": "3c55a9bf59164989c7f3ef1bbdfed52d", "rental_uris": {"android": "https://dc.lft.to/lastmile_qr_scan", "ios": "https://dc.lft.to/lastmile_qr_scan"}, "name": "3c55a9bf59164989c7f3ef1bbdfed52d", "is_reserved": 0}, {"is_disabled": 0, "fusion_lon": 0.0, "fusion_lat": 0.0, "lat": 38.913805833333335, "type": "electric_scooter", "lon": -77.02971516666666, "bike_id": "f2cc6feec3dd920b45514fce5250e5fc", "rental_uris": {"android": "https://dc.lft.to/lastmile_qr_scan", "ios": "https://dc.lft.to/lastmile_qr_scan"}, "name": "f2cc6feec3dd920b45514fce5250e5fc", "is_reserved": 0}, {"is_disabled": 0, "fusion_lon": 0.0, "fusion_lat": 0.0, "lat": 38.9212635, "type": "electric_scooter", "lon": -76.9957945, "bike_id": "e866446cfaa169ad2b19f59960493c9f", "rental_uris": {"android": "https://dc.lft.to/lastmile_qr_scan", "ios": "https://dc.lft.to/lastmile_qr_scan"}, "name": "e866446cfaa169ad2b19f59960493c9f", "is_reserved": 0}, {"is_disabled": 0, "fusion_lon": 0.0, "fusion_lat": 0.0, "lat": 38.9130255, "type": "electric_scooter", "lon": -77.03198666666667, "bike_id": "55c155e7e412383df674fd4750157ac1", "rental_uris": {"android": "https://dc.lft.to/lastmile_qr_scan", "ios": "https://dc.lft.to/lastmile_qr_scan"}, "name": "55c155e7e412383df674fd4750157ac1", "is_reserved": 0}, {"is_disabled": 0, "fusion_lon": 0.0, "fusion_lat": 0.0, "lat": 38.899916833333336, "type": "electric_scooter", "lon": -77.0121495, "bike_id": "5cc43800e0f73e1e549b9cf283530e69", "rental_uris": {"android": "https://dc.lft.to/lastmile_qr_scan", "ios": "https://dc.lft.to/lastmile_qr_scan"}, "name": "5cc43800e0f73e1e549b9cf283530e69", "is_reserved": 0}, {"is_disabled": 0, "fusion_lon": 0.0, "fusion_lat": 0.0, "lat": 38.92542183333333, "type": "electric_scooter", "lon": -77.040539, "bike_id": "8df6a52535675c8e6f7369cb594b8e62", "rental_uris": {"android": "https://dc.lft.to/lastmile_qr_scan", "ios": "https://dc.lft.to/lastmile_qr_scan"}, "name": "8df6a52535675c8e6f7369cb594b8e62", "is_reserved": 0}, {"is_disabled": 0, "fusion_lon": 0.0, "fusion_lat": 0.0, "lat": 38.900589833333335, "type": "electric_scooter", "lon": -76.986816, "bike_id": "327e0f88271b5822b8f1eddcc5c3b2d8", "rental_uris": {"android": "https://dc.lft.to/lastmile_qr_scan", "ios": "https://dc.lft.to/lastmile_qr_scan"}, "name": "327e0f88271b5822b8f1eddcc5c3b2d8", "is_reserved": 0}, {"is_disabled": 0, "fusion_lon": 0.0, "fusion_lat": 0.0, "lat": 38.9141605, "type": "electric_scooter", "lon": -77.04249133333333, "bike_id": "2f703dd9b7754779f3cffd4446573c23", "rental_uris": {"android": "https://dc.lft.to/lastmile_qr_scan", "ios": "https://dc.lft.to/lastmile_qr_scan"}, "name": "2f703dd9b7754779f3cffd4446573c23", "is_reserved": 0}, {"is_disabled": 0, "fusion_lon": 0.0, "fusion_lat": 0.0, "lat": 38.957316166666665, "type": "electric_scooter", "lon": -77.02402683333334, "bike_id": "c1392d63210a6050d15d4d466ce0075f", "rental_uris": {"android": "https://dc.lft.to/lastmile_qr_scan", "ios": "https://dc.lft.to/lastmile_qr_scan"}, "name": "c1392d63210a6050d15d4d466ce0075f", "is_reserved": 0}, {"is_disabled": 0, "fusion_lon": 0.0, "fusion_lat": 0.0, "lat": 38.92060716666667, "type": "electric_scooter", "lon": -77.043385, "bike_id": "820e320673525e09dcb478ef1e36a6a5", "rental_uris": {"android": "https://dc.lft.to/lastmile_qr_scan", "ios": "https://dc.lft.to/lastmile_qr_scan"}, "name": "820e320673525e09dcb478ef1e36a6a5", "is_reserved": 0}, {"is_disabled": 0, "fusion_lon": 0.0, "fusion_lat": 0.0, "lat": 38.89742533333333, "type": "electric_scooter", "lon": -77.021696, "bike_id": "7fe743a8f78252b3c47c4dd961c4a883", "rental_uris": {"android": "https://dc.lft.to/lastmile_qr_scan", "ios": "https://dc.lft.to/lastmile_qr_scan"}, "name": "7fe743a8f78252b3c47c4dd961c4a883", "is_reserved": 0}, {"is_disabled": 0, "fusion_lon": 0.0, "fusion_lat": 0.0, "lat": 38.91332633333333, "type": "electric_scooter", "lon": -77.04808016666667, "bike_id": "a998b2c716685a12e0ac9525a724068f", "rental_uris": {"android": "https://dc.lft.to/lastmile_qr_scan", "ios": "https://dc.lft.to/lastmile_qr_scan"}, "name": "a998b2c716685a12e0ac9525a724068f", "is_reserved": 0}, {"is_disabled": 0, "fusion_lon": 0.0, "fusion_lat": 0.0, "lat": 38.94553416666667, "type": "electric_bike", "lon": -77.0512265, "bike_id": "e3b493e67ba66920235338b6acd0f583", "rental_uris": {"android": "https://dc.lft.to/lastmile_qr_scan", "ios": "https://dc.lft.to/lastmile_qr_scan"}, "name": "e3b493e67ba66920235338b6acd0f583", "is_reserved": 0}, {"is_disabled": 0, "fusion_lon": 0.0, "fusion_lat": 0.0, "lat": 38.9108845, "type": "electric_scooter", "lon": -77.016674, "bike_id": "78e9711c2084c78c677d243a920d8916", "rental_uris": {"android": "https://dc.lft.to/lastmile_qr_scan", "ios": "https://dc.lft.to/lastmile_qr_scan"}, "name": "78e9711c2084c78c677d243a920d8916", "is_reserved": 0}, {"is_disabled": 0, "fusion_lon": 0.0, "fusion_lat": 0.0, "lat": 38.90844583333333, "type": "electric_scooter", "lon": -77.02714233333333, "bike_id": "e6115a75d8ef0de51d6cdb5ff8be7188", "rental_uris": {"android": "https://dc.lft.to/lastmile_qr_scan", "ios": "https://dc.lft.to/lastmile_qr_scan"}, "name": "e6115a75d8ef0de51d6cdb5ff8be7188", "is_reserved": 0}, {"is_disabled": 0, "fusion_lon": 0.0, "fusion_lat": 0.0, "lat": 38.90974883333333, "type": "electric_bike", "lon": -77.08827233333334, "bike_id": "a10aef26e266574c7e15df2e9d397c2b", "rental_uris": {"android": "https://dc.lft.to/lastmile_qr_scan", "ios": "https://dc.lft.to/lastmile_qr_scan"}, "name": "a10aef26e266574c7e15df2e9d397c2b", "is_reserved": 0}, {"is_disabled": 0, "fusion_lon": 0.0, "fusion_lat": 0.0, "lat": 38.901062833333334, "type": "electric_scooter", "lon": -77.0317935, "bike_id": "801959e428ebd07e531a69faa1d24a91", "rental_uris": {"android": "https://dc.lft.to/lastmile_qr_scan", "ios": "https://dc.lft.to/lastmile_qr_scan"}, "name": "801959e428ebd07e531a69faa1d24a91", "is_reserved": 0}, {"is_disabled": 0, "fusion_lon": 0.0, "fusion_lat": 0.0, "lat": 38.894969833333334, "type": "electric_scooter", "lon": -77.00211616666667, "bike_id": "beb61e5601dbe3dfccb56e79bab263cd", "rental_uris": {"android": "https://dc.lft.to/lastmile_qr_scan", "ios": "https://dc.lft.to/lastmile_qr_scan"}, "name": "beb61e5601dbe3dfccb56e79bab263cd", "is_reserved": 0}, {"is_disabled": 0, "fusion_lon": 0.0, "fusion_lat": 0.0, "lat": 38.929010166666664, "type": "electric_scooter", "lon": -77.03254133333333, "bike_id": "df919d7579f69a93ef1d28202433dbc1", "rental_uris": {"android": "https://dc.lft.to/lastmile_qr_scan", "ios": "https://dc.lft.to/lastmile_qr_scan"}, "name": "df919d7579f69a93ef1d28202433dbc1", "is_reserved": 0}, {"is_disabled": 0, "fusion_lon": 0.0, "fusion_lat": 0.0, "lat": 38.912855666666665, "type": "electric_scooter", "lon": -77.02305766666667, "bike_id": "0e108b6ed98dfd2e3bd30e8af0bf10ed", "rental_uris": {"android": "https://dc.lft.to/lastmile_qr_scan", "ios": "https://dc.lft.to/lastmile_qr_scan"}, "name": "0e108b6ed98dfd2e3bd30e8af0bf10ed", "is_reserved": 0}, {"is_disabled": 0, "fusion_lon": 0.0, "fusion_lat": 0.0, "lat": 38.913205, "type": "electric_scooter", "lon": -77.03245516666667, "bike_id": "d89b2a1fecc9c3880b89a0c184fb570f", "rental_uris": {"android": "https://dc.lft.to/lastmile_qr_scan", "ios": "https://dc.lft.to/lastmile_qr_scan"}, "name": "d89b2a1fecc9c3880b89a0c184fb570f", "is_reserved": 0}, {"is_disabled": 0, "fusion_lon": 0.0, "fusion_lat": 0.0, "lat": 38.9163255, "type": "electric_scooter", "lon": -77.041096, "bike_id": "08f1d8ae8aa22adb4358878f0665526b", "rental_uris": {"android": "https://dc.lft.to/lastmile_qr_scan", "ios": "https://dc.lft.to/lastmile_qr_scan"}, "name": "08f1d8ae8aa22adb4358878f0665526b", "is_reserved": 0}, {"is_disabled": 0, "fusion_lon": 0.0, "fusion_lat": 0.0, "lat": 38.89250916666667, "type": "electric_scooter", "lon": -76.98842666666667, "bike_id": "2bb0971ce08b9fb3b094cc8fca05c6cb", "rental_uris": {"android": "https://dc.lft.to/lastmile_qr_scan", "ios": "https://dc.lft.to/lastmile_qr_scan"}, "name": "2bb0971ce08b9fb3b094cc8fca05c6cb", "is_reserved": 0}, {"is_disabled": 0, "fusion_lon": 0.0, "fusion_lat": 0.0, "lat": 38.8328815, "type": "electric_scooter", "lon": -77.00823416666667, "bike_id": "185ae3758b3a71edc5755745294c9b4c", "rental_uris": {"android": "https://dc.lft.to/lastmile_qr_scan", "ios": "https://dc.lft.to/lastmile_qr_scan"}, "name": "185ae3758b3a71edc5755745294c9b4c", "is_reserved": 0}, {"is_disabled": 0, "fusion_lon": 0.0, "fusion_lat": 0.0, "lat": 38.96284333333333, "type": "electric_bike", "lon": -77.02878716666666, "bike_id": "cec397ee4f354a294486c18196959dcd", "rental_uris": {"android": "https://dc.lft.to/lastmile_qr_scan", "ios": "https://dc.lft.to/lastmile_qr_scan"}, "name": "cec397ee4f354a294486c18196959dcd", "is_reserved": 0}, {"is_disabled": 0, "fusion_lon": 0.0, "fusion_lat": 0.0, "lat": 38.876369833333335, "type": "electric_scooter", "lon": -77.00383883333333, "bike_id": "2fdd0f3a35d154a835dcc3bf072394f9", "rental_uris": {"android": "https://dc.lft.to/lastmile_qr_scan", "ios": "https://dc.lft.to/lastmile_qr_scan"}, "name": "2fdd0f3a35d154a835dcc3bf072394f9", "is_reserved": 0}, {"is_disabled": 0, "fusion_lon": 0.0, "fusion_lat": 0.0, "lat": 38.91053216666667, "type": "electric_scooter", "lon": -77.05448433333333, "bike_id": "73c08fb309c216ebadc4d77f60c7f5f8", "rental_uris": {"android": "https://dc.lft.to/lastmile_qr_scan", "ios": "https://dc.lft.to/lastmile_qr_scan"}, "name": "73c08fb309c216ebadc4d77f60c7f5f8", "is_reserved": 0}, {"is_disabled": 0, "fusion_lon": 0.0, "fusion_lat": 0.0, "lat": 38.912667, "type": "electric_scooter", "lon": -77.05157316666667, "bike_id": "1aef492538bb71c567a6965a6a414c73", "rental_uris": {"android": "https://dc.lft.to/lastmile_qr_scan", "ios": "https://dc.lft.to/lastmile_qr_scan"}, "name": "1aef492538bb71c567a6965a6a414c73", "is_reserved": 0}, {"is_disabled": 0, "fusion_lon": 0.0, "fusion_lat": 0.0, "lat": 38.94554333333333, "type": "electric_bike", "lon": -76.98743133333333, "bike_id": "324aa8e702c277c90dd0391d08e5a848", "rental_uris": {"android": "https://dc.lft.to/lastmile_qr_scan", "ios": "https://dc.lft.to/lastmile_qr_scan"}, "name": "324aa8e702c277c90dd0391d08e5a848", "is_reserved": 0}, {"is_disabled": 0, "fusion_lon": 0.0, "fusion_lat": 0.0, "lat": 38.898929, "type": "electric_scooter", "lon": -76.9317275, "bike_id": "97e8539c200e5bc0c7b915c307950a17", "rental_uris": {"android": "https://dc.lft.to/lastmile_qr_scan", "ios": "https://dc.lft.to/lastmile_qr_scan"}, "name": "97e8539c200e5bc0c7b915c307950a17", "is_reserved": 0}, {"is_disabled": 0, "fusion_lon": 0.0, "fusion_lat": 0.0, "lat": 38.92033033333333, "type": "electric_scooter", "lon": -77.025886, "bike_id": "fe190e8a1ecd8e8ec364ce188672a0c3", "rental_uris": {"android": "https://dc.lft.to/lastmile_qr_scan", "ios": "https://dc.lft.to/lastmile_qr_scan"}, "name": "fe190e8a1ecd8e8ec364ce188672a0c3", "is_reserved": 0}, {"is_disabled": 0, "fusion_lon": 0.0, "fusion_lat": 0.0, "lat": 38.90877716666667, "type": "electric_scooter", "lon": -77.03447583333333, "bike_id": "6aec4461c588b2a9b577cca6130d5ebe", "rental_uris": {"android": "https://dc.lft.to/lastmile_qr_scan", "ios": "https://dc.lft.to/lastmile_qr_scan"}, "name": "6aec4461c588b2a9b577cca6130d5ebe", "is_reserved": 0}, {"is_disabled": 0, "fusion_lon": 0.0, "fusion_lat": 0.0, "lat": 38.93450816666667, "type": "electric_scooter", "lon": -77.03016966666667, "bike_id": "e0d50d43ce291259ffe42a0b4e19fcf0", "rental_uris": {"android": "https://dc.lft.to/lastmile_qr_scan", "ios": "https://dc.lft.to/lastmile_qr_scan"}, "name": "e0d50d43ce291259ffe42a0b4e19fcf0", "is_reserved": 0}, {"is_disabled": 0, "fusion_lon": 0.0, "fusion_lat": 0.0, "lat": 38.90628533333334, "type": "electric_scooter", "lon": -77.021873, "bike_id": "faa34662a1b12965c96b0f233ddccb04", "rental_uris": {"android": "https://dc.lft.to/lastmile_qr_scan", "ios": "https://dc.lft.to/lastmile_qr_scan"}, "name": "faa34662a1b12965c96b0f233ddccb04", "is_reserved": 0}, {"is_disabled": 0, "fusion_lon": 0.0, "fusion_lat": 0.0, "lat": 38.892267333333336, "type": "electric_scooter", "lon": -77.02208133333333, "bike_id": "a0989d21d4efd6b56fea007d646e7494", "rental_uris": {"android": "https://dc.lft.to/lastmile_qr_scan", "ios": "https://dc.lft.to/lastmile_qr_scan"}, "name": "a0989d21d4efd6b56fea007d646e7494", "is_reserved": 0}, {"is_disabled": 0, "fusion_lon": 0.0, "fusion_lat": 0.0, "lat": 38.920737833333334, "type": "electric_scooter", "lon": -77.018163, "bike_id": "f35fbea9135c5036dcdb18baccb42620", "rental_uris": {"android": "https://dc.lft.to/lastmile_qr_scan", "ios": "https://dc.lft.to/lastmile_qr_scan"}, "name": "f35fbea9135c5036dcdb18baccb42620", "is_reserved": 0}, {"is_disabled": 0, "fusion_lon": 0.0, "fusion_lat": 0.0, "lat": 38.918375166666664, "type": "electric_scooter", "lon": -77.039445, "bike_id": "a8c7127314e0e779a24dc8388a11d74e", "rental_uris": {"android": "https://dc.lft.to/lastmile_qr_scan", "ios": "https://dc.lft.to/lastmile_qr_scan"}, "name": "a8c7127314e0e779a24dc8388a11d74e", "is_reserved": 0}, {"is_disabled": 0, "fusion_lon": 0.0, "fusion_lat": 0.0, "lat": 38.901188833333336, "type": "electric_scooter", "lon": -77.0175225, "bike_id": "291292400cd66bf26c41864b708c95f6", "rental_uris": {"android": "https://dc.lft.to/lastmile_qr_scan", "ios": "https://dc.lft.to/lastmile_qr_scan"}, "name": "291292400cd66bf26c41864b708c95f6", "is_reserved": 0}, {"is_disabled": 0, "fusion_lon": 0.0, "fusion_lat": 0.0, "lat": 38.89723133333333, "type": "electric_scooter", "lon": -77.03349166666666, "bike_id": "b8db3b246e7894e70095930a7b48ecb9", "rental_uris": {"android": "https://dc.lft.to/lastmile_qr_scan", "ios": "https://dc.lft.to/lastmile_qr_scan"}, "name": "b8db3b246e7894e70095930a7b48ecb9", "is_reserved": 0}, {"is_disabled": 0, "fusion_lon": 0.0, "fusion_lat": 0.0, "lat": 38.88978216666667, "type": "electric_scooter", "lon": -76.9875225, "bike_id": "d7898d8fd2362a1319c80b637b1d31cc", "rental_uris": {"android": "https://dc.lft.to/lastmile_qr_scan", "ios": "https://dc.lft.to/lastmile_qr_scan"}, "name": "d7898d8fd2362a1319c80b637b1d31cc", "is_reserved": 0}, {"is_disabled": 0, "fusion_lon": 0.0, "fusion_lat": 0.0, "lat": 38.90135266666667, "type": "electric_scooter", "lon": -77.04349633333334, "bike_id": "5c483c2f22ff98c15b0b16b5fa60ea35", "rental_uris": {"android": "https://dc.lft.to/lastmile_qr_scan", "ios": "https://dc.lft.to/lastmile_qr_scan"}, "name": "5c483c2f22ff98c15b0b16b5fa60ea35", "is_reserved": 0}, {"is_disabled": 0, "fusion_lon": 0.0, "fusion_lat": 0.0, "lat": 38.91866866666667, "type": "electric_bike", "lon": -76.961809, "bike_id": "b3c92eee7e447449339c845a94030811", "rental_uris": {"android": "https://dc.lft.to/lastmile_qr_scan", "ios": "https://dc.lft.to/lastmile_qr_scan"}, "name": "b3c92eee7e447449339c845a94030811", "is_reserved": 0}, {"is_disabled": 0, "fusion_lon": 0.0, "fusion_lat": 0.0, "lat": 38.898819, "type": "electric_scooter", "lon": -76.93161966666666, "bike_id": "480a76114738d976d628c194cf11cc42", "rental_uris": {"android": "https://dc.lft.to/lastmile_qr_scan", "ios": "https://dc.lft.to/lastmile_qr_scan"}, "name": "480a76114738d976d628c194cf11cc42", "is_reserved": 0}, {"is_disabled": 0, "fusion_lon": 0.0, "fusion_lat": 0.0, "lat": 38.89563783333333, "type": "electric_bike", "lon": -76.97624866666666, "bike_id": "514e1339812f4e55e8fb7c740d2abebb", "rental_uris": {"android": "https://dc.lft.to/lastmile_qr_scan", "ios": "https://dc.lft.to/lastmile_qr_scan"}, "name": "514e1339812f4e55e8fb7c740d2abebb", "is_reserved": 0}, {"is_disabled": 0, "fusion_lon": 0.0, "fusion_lat": 0.0, "lat": 38.86584383333334, "type": "electric_scooter", "lon": -76.990305, "bike_id": "f705336675efaef07a6b35ae751f636b", "rental_uris": {"android": "https://dc.lft.to/lastmile_qr_scan", "ios": "https://dc.lft.to/lastmile_qr_scan"}, "name": "f705336675efaef07a6b35ae751f636b", "is_reserved": 0}, {"is_disabled": 0, "fusion_lon": 0.0, "fusion_lat": 0.0, "lat": 38.87824366666667, "type": "electric_bike", "lon": -77.01224333333333, "bike_id": "2e496c1288e9138f2e576cc71dc5d550", "rental_uris": {"android": "https://dc.lft.to/lastmile_qr_scan", "ios": "https://dc.lft.to/lastmile_qr_scan"}, "name": "2e496c1288e9138f2e576cc71dc5d550", "is_reserved": 0}, {"is_disabled": 0, "fusion_lon": 0.0, "fusion_lat": 0.0, "lat": 38.91086216666667, "type": "electric_scooter", "lon": -77.02187883333333, "bike_id": "247fa28b8cd6a22e07c14a8c4a4133fb", "rental_uris": {"android": "https://dc.lft.to/lastmile_qr_scan", "ios": "https://dc.lft.to/lastmile_qr_scan"}, "name": "247fa28b8cd6a22e07c14a8c4a4133fb", "is_reserved": 0}, {"is_disabled": 0, "fusion_lon": 0.0, "fusion_lat": 0.0, "lat": 38.984771, "type": "electric_scooter", "lon": -77.02644933333333, "bike_id": "42f36eb218040d1199c59349120e012e", "rental_uris": {"android": "https://dc.lft.to/lastmile_qr_scan", "ios": "https://dc.lft.to/lastmile_qr_scan"}, "name": "42f36eb218040d1199c59349120e012e", "is_reserved": 0}, {"is_disabled": 0, "fusion_lon": 0.0, "fusion_lat": 0.0, "lat": 38.933193, "type": "electric_scooter", "lon": -77.081948, "bike_id": "41fb24d8f1b3cc983dbd26c8628965f2", "rental_uris": {"android": "https://dc.lft.to/lastmile_qr_scan", "ios": "https://dc.lft.to/lastmile_qr_scan"}, "name": "41fb24d8f1b3cc983dbd26c8628965f2", "is_reserved": 0}, {"is_disabled": 0, "fusion_lon": 0.0, "fusion_lat": 0.0, "lat": 38.8580065, "type": "electric_bike", "lon": -76.98757883333333, "bike_id": "84376918fd50247ee2f536f3eefd1722", "rental_uris": {"android": "https://dc.lft.to/lastmile_qr_scan", "ios": "https://dc.lft.to/lastmile_qr_scan"}, "name": "84376918fd50247ee2f536f3eefd1722", "is_reserved": 0}, {"is_disabled": 0, "fusion_lon": 0.0, "fusion_lat": 0.0, "lat": 38.92106616666667, "type": "electric_scooter", "lon": -77.043749, "bike_id": "e187a81eea87c0e2ac4ca222823e5c52", "rental_uris": {"android": "https://dc.lft.to/lastmile_qr_scan", "ios": "https://dc.lft.to/lastmile_qr_scan"}, "name": "e187a81eea87c0e2ac4ca222823e5c52", "is_reserved": 0}, {"is_disabled": 0, "fusion_lon": 0.0, "fusion_lat": 0.0, "lat": 38.90436, "type": "electric_scooter", "lon": -77.04355933333333, "bike_id": "219f0f25b36c45c749ab236b2df6c35f", "rental_uris": {"android": "https://dc.lft.to/lastmile_qr_scan", "ios": "https://dc.lft.to/lastmile_qr_scan"}, "name": "219f0f25b36c45c749ab236b2df6c35f", "is_reserved": 0}, {"is_disabled": 0, "fusion_lon": 0.0, "fusion_lat": 0.0, "lat": 38.911120833333335, "type": "electric_scooter", "lon": -76.99769216666667, "bike_id": "2b889947f7d15819d62be09c917f75f9", "rental_uris": {"android": "https://dc.lft.to/lastmile_qr_scan", "ios": "https://dc.lft.to/lastmile_qr_scan"}, "name": "2b889947f7d15819d62be09c917f75f9", "is_reserved": 0}, {"is_disabled": 0, "fusion_lon": 0.0, "fusion_lat": 0.0, "lat": 38.902695, "type": "electric_scooter", "lon": -77.03441916666667, "bike_id": "e88a9b21491b943e03ad12052ec523d8", "rental_uris": {"android": "https://dc.lft.to/lastmile_qr_scan", "ios": "https://dc.lft.to/lastmile_qr_scan"}, "name": "e88a9b21491b943e03ad12052ec523d8", "is_reserved": 0}, {"is_disabled": 0, "fusion_lon": 0.0, "fusion_lat": 0.0, "lat": 38.90764883333333, "type": "electric_scooter", "lon": -77.0317885, "bike_id": "3309ebf1cf3a0be75b254f2b90536f72", "rental_uris": {"android": "https://dc.lft.to/lastmile_qr_scan", "ios": "https://dc.lft.to/lastmile_qr_scan"}, "name": "3309ebf1cf3a0be75b254f2b90536f72", "is_reserved": 0}, {"is_disabled": 0, "fusion_lon": 0.0, "fusion_lat": 0.0, "lat": 38.9203865, "type": "electric_scooter", "lon": -77.04187533333334, "bike_id": "fec703f27807cb25f9d855bf06e3efa3", "rental_uris": {"android": "https://dc.lft.to/lastmile_qr_scan", "ios": "https://dc.lft.to/lastmile_qr_scan"}, "name": "fec703f27807cb25f9d855bf06e3efa3", "is_reserved": 0}, {"is_disabled": 0, "fusion_lon": 0.0, "fusion_lat": 0.0, "lat": 38.891641166666666, "type": "electric_scooter", "lon": -77.01544533333333, "bike_id": "46fddee99826e8300ff7a4acc0f1627f", "rental_uris": {"android": "https://dc.lft.to/lastmile_qr_scan", "ios": "https://dc.lft.to/lastmile_qr_scan"}, "name": "46fddee99826e8300ff7a4acc0f1627f", "is_reserved": 0}, {"is_disabled": 0, "fusion_lon": 0.0, "fusion_lat": 0.0, "lat": 38.966439, "type": "electric_bike", "lon": -76.93019633333333, "bike_id": "113a15417e26fe56c5d8cde8c4187539", "rental_uris": {"android": "https://dc.lft.to/lastmile_qr_scan", "ios": "https://dc.lft.to/lastmile_qr_scan"}, "name": "113a15417e26fe56c5d8cde8c4187539", "is_reserved": 0}, {"is_disabled": 0, "fusion_lon": 0.0, "fusion_lat": 0.0, "lat": 38.88658133333333, "type": "electric_scooter", "lon": -77.03387583333334, "bike_id": "9fecc4a34cbf6feb20f3141685c2527c", "rental_uris": {"android": "https://dc.lft.to/lastmile_qr_scan", "ios": "https://dc.lft.to/lastmile_qr_scan"}, "name": "9fecc4a34cbf6feb20f3141685c2527c", "is_reserved": 0}, {"is_disabled": 0, "fusion_lon": 0.0, "fusion_lat": 0.0, "lat": 38.9167065, "type": "electric_scooter", "lon": -77.029568, "bike_id": "ea5e81776394f3b529db6edc2feb6ceb", "rental_uris": {"android": "https://dc.lft.to/lastmile_qr_scan", "ios": "https://dc.lft.to/lastmile_qr_scan"}, "name": "ea5e81776394f3b529db6edc2feb6ceb", "is_reserved": 0}, {"is_disabled": 0, "fusion_lon": 0.0, "fusion_lat": 0.0, "lat": 38.879793666666664, "type": "electric_bike", "lon": -76.91598616666667, "bike_id": "c396233c36a1e629ec61bbc3a200025d", "rental_uris": {"android": "https://dc.lft.to/lastmile_qr_scan", "ios": "https://dc.lft.to/lastmile_qr_scan"}, "name": "c396233c36a1e629ec61bbc3a200025d", "is_reserved": 0}, {"is_disabled": 0, "fusion_lon": 0.0, "fusion_lat": 0.0, "lat": 38.9021115, "type": "electric_scooter", "lon": -77.0241, "bike_id": "f8044576b8aeb7d9f6f940288d851c68", "rental_uris": {"android": "https://dc.lft.to/lastmile_qr_scan", "ios": "https://dc.lft.to/lastmile_qr_scan"}, "name": "f8044576b8aeb7d9f6f940288d851c68", "is_reserved": 0}, {"is_disabled": 0, "fusion_lon": 0.0, "fusion_lat": 0.0, "lat": 38.911507666666665, "type": "electric_scooter", "lon": -77.08788266666667, "bike_id": "2320efa95e2a424e8a1cb45df8f685d3", "rental_uris": {"android": "https://dc.lft.to/lastmile_qr_scan", "ios": "https://dc.lft.to/lastmile_qr_scan"}, "name": "2320efa95e2a424e8a1cb45df8f685d3", "is_reserved": 0}, {"is_disabled": 0, "fusion_lon": 0.0, "fusion_lat": 0.0, "lat": 38.905705833333336, "type": "electric_scooter", "lon": -77.04391183333334, "bike_id": "723fb6b1f5db133e7ffb984d5f494f43", "rental_uris": {"android": "https://dc.lft.to/lastmile_qr_scan", "ios": "https://dc.lft.to/lastmile_qr_scan"}, "name": "723fb6b1f5db133e7ffb984d5f494f43", "is_reserved": 0}, {"is_disabled": 0, "fusion_lon": 0.0, "fusion_lat": 0.0, "lat": 38.954141666666665, "type": "electric_scooter", "lon": -77.02172216666666, "bike_id": "ecaa17f172ad9b048a67cb4d94963e69", "rental_uris": {"android": "https://dc.lft.to/lastmile_qr_scan", "ios": "https://dc.lft.to/lastmile_qr_scan"}, "name": "ecaa17f172ad9b048a67cb4d94963e69", "is_reserved": 0}, {"is_disabled": 0, "fusion_lon": 0.0, "fusion_lat": 0.0, "lat": 38.90075083333333, "type": "electric_scooter", "lon": -77.01818083333333, "bike_id": "8df473ba0d4f16f7548268d4dfe33d83", "rental_uris": {"android": "https://dc.lft.to/lastmile_qr_scan", "ios": "https://dc.lft.to/lastmile_qr_scan"}, "name": "8df473ba0d4f16f7548268d4dfe33d83", "is_reserved": 0}, {"is_disabled": 0, "fusion_lon": 0.0, "fusion_lat": 0.0, "lat": 38.93861583333333, "type": "electric_scooter", "lon": -77.0278365, "bike_id": "0983a27fa960ae8537e6f7dc3817600b", "rental_uris": {"android": "https://dc.lft.to/lastmile_qr_scan", "ios": "https://dc.lft.to/lastmile_qr_scan"}, "name": "0983a27fa960ae8537e6f7dc3817600b", "is_reserved": 0}, {"is_disabled": 0, "fusion_lon": 0.0, "fusion_lat": 0.0, "lat": 38.879174666666664, "type": "electric_scooter", "lon": -76.94485666666667, "bike_id": "ff98a81187d373e304ed2ab9a1287147", "rental_uris": {"android": "https://dc.lft.to/lastmile_qr_scan", "ios": "https://dc.lft.to/lastmile_qr_scan"}, "name": "ff98a81187d373e304ed2ab9a1287147", "is_reserved": 0}, {"is_disabled": 0, "fusion_lon": 0.0, "fusion_lat": 0.0, "lat": 38.89611266666667, "type": "electric_scooter", "lon": -77.02586883333333, "bike_id": "380e4902d1779e6dc80be782bf1fc909", "rental_uris": {"android": "https://dc.lft.to/lastmile_qr_scan", "ios": "https://dc.lft.to/lastmile_qr_scan"}, "name": "380e4902d1779e6dc80be782bf1fc909", "is_reserved": 0}, {"is_disabled": 0, "fusion_lon": 0.0, "fusion_lat": 0.0, "lat": 38.971660666666665, "type": "electric_bike", "lon": -76.98023166666667, "bike_id": "a7eda3342398c518d011914280b1d66e", "rental_uris": {"android": "https://dc.lft.to/lastmile_qr_scan", "ios": "https://dc.lft.to/lastmile_qr_scan"}, "name": "a7eda3342398c518d011914280b1d66e", "is_reserved": 0}, {"is_disabled": 0, "fusion_lon": 0.0, "fusion_lat": 0.0, "lat": 38.87437283333333, "type": "electric_scooter", "lon": -77.00923483333334, "bike_id": "3982ac5b4633d6385c3489a8e30bfb4c", "rental_uris": {"android": "https://dc.lft.to/lastmile_qr_scan", "ios": "https://dc.lft.to/lastmile_qr_scan"}, "name": "3982ac5b4633d6385c3489a8e30bfb4c", "is_reserved": 0}, {"is_disabled": 0, "fusion_lon": 0.0, "fusion_lat": 0.0, "lat": 38.940843666666666, "type": "electric_scooter", "lon": -77.03813016666666, "bike_id": "50b9714e12603160370a796fa1157205", "rental_uris": {"android": "https://dc.lft.to/lastmile_qr_scan", "ios": "https://dc.lft.to/lastmile_qr_scan"}, "name": "50b9714e12603160370a796fa1157205", "is_reserved": 0}, {"is_disabled": 0, "fusion_lon": 0.0, "fusion_lat": 0.0, "lat": 38.938665, "type": "electric_scooter", "lon": -77.032225, "bike_id": "6a044dbb38490c6caa34a424a67bcf89", "rental_uris": {"android": "https://dc.lft.to/lastmile_qr_scan", "ios": "https://dc.lft.to/lastmile_qr_scan"}, "name": "6a044dbb38490c6caa34a424a67bcf89", "is_reserved": 0}, {"is_disabled": 0, "fusion_lon": 0.0, "fusion_lat": 0.0, "lat": 38.8802975, "type": "electric_scooter", "lon": -76.99511283333334, "bike_id": "26ad94f4272b36aeb39cb892aceb34c6", "rental_uris": {"android": "https://dc.lft.to/lastmile_qr_scan", "ios": "https://dc.lft.to/lastmile_qr_scan"}, "name": "26ad94f4272b36aeb39cb892aceb34c6", "is_reserved": 0}, {"is_disabled": 0, "fusion_lon": 0.0, "fusion_lat": 0.0, "lat": 38.911087, "type": "electric_scooter", "lon": -77.04257766666667, "bike_id": "fa605d68efdc3381fe7acb22075384e2", "rental_uris": {"android": "https://dc.lft.to/lastmile_qr_scan", "ios": "https://dc.lft.to/lastmile_qr_scan"}, "name": "fa605d68efdc3381fe7acb22075384e2", "is_reserved": 0}, {"is_disabled": 0, "fusion_lon": 0.0, "fusion_lat": 0.0, "lat": 38.923255833333336, "type": "electric_scooter", "lon": -77.03947783333334, "bike_id": "cf907d63bb21771d04a5ff4b40e9da44", "rental_uris": {"android": "https://dc.lft.to/lastmile_qr_scan", "ios": "https://dc.lft.to/lastmile_qr_scan"}, "name": "cf907d63bb21771d04a5ff4b40e9da44", "is_reserved": 0}, {"is_disabled": 0, "fusion_lon": 0.0, "fusion_lat": 0.0, "lat": 38.9163135, "type": "electric_scooter", "lon": -77.02702283333333, "bike_id": "fec56039f38651ec525348981cd37f8b", "rental_uris": {"android": "https://dc.lft.to/lastmile_qr_scan", "ios": "https://dc.lft.to/lastmile_qr_scan"}, "name": "fec56039f38651ec525348981cd37f8b", "is_reserved": 0}, {"is_disabled": 0, "fusion_lon": 0.0, "fusion_lat": 0.0, "lat": 38.968057333333334, "type": "electric_scooter", "lon": -77.021189, "bike_id": "294a81bac623c0b04474408ed2aa6129", "rental_uris": {"android": "https://dc.lft.to/lastmile_qr_scan", "ios": "https://dc.lft.to/lastmile_qr_scan"}, "name": "294a81bac623c0b04474408ed2aa6129", "is_reserved": 0}, {"is_disabled": 0, "fusion_lon": 0.0, "fusion_lat": 0.0, "lat": 38.89920983333333, "type": "electric_scooter", "lon": -76.9915685, "bike_id": "e1aa37f5b6fbabc92d1e9e98ca4fc18a", "rental_uris": {"android": "https://dc.lft.to/lastmile_qr_scan", "ios": "https://dc.lft.to/lastmile_qr_scan"}, "name": "e1aa37f5b6fbabc92d1e9e98ca4fc18a", "is_reserved": 0}, {"is_disabled": 0, "fusion_lon": 0.0, "fusion_lat": 0.0, "lat": 38.9229195, "type": "electric_scooter", "lon": -77.041463, "bike_id": "70ff7e774542d6d631284d341d880fbb", "rental_uris": {"android": "https://dc.lft.to/lastmile_qr_scan", "ios": "https://dc.lft.to/lastmile_qr_scan"}, "name": "70ff7e774542d6d631284d341d880fbb", "is_reserved": 0}, {"is_disabled": 0, "fusion_lon": 0.0, "fusion_lat": 0.0, "lat": 38.88754483333334, "type": "electric_scooter", "lon": -77.002261, "bike_id": "13d49b865ea7adbfca2a6d12a69a6368", "rental_uris": {"android": "https://dc.lft.to/lastmile_qr_scan", "ios": "https://dc.lft.to/lastmile_qr_scan"}, "name": "13d49b865ea7adbfca2a6d12a69a6368", "is_reserved": 0}, {"is_disabled": 0, "fusion_lon": 0.0, "fusion_lat": 0.0, "lat": 38.91728366666667, "type": "electric_scooter", "lon": -76.99179116666667, "bike_id": "a4e291416a27c2e56180054eb36099c6", "rental_uris": {"android": "https://dc.lft.to/lastmile_qr_scan", "ios": "https://dc.lft.to/lastmile_qr_scan"}, "name": "a4e291416a27c2e56180054eb36099c6", "is_reserved": 0}, {"is_disabled": 0, "fusion_lon": 0.0, "fusion_lat": 0.0, "lat": 38.92619216666667, "type": "electric_scooter", "lon": -76.98201766666666, "bike_id": "eca3686f38a0aacef83f82afdffe7cd4", "rental_uris": {"android": "https://dc.lft.to/lastmile_qr_scan", "ios": "https://dc.lft.to/lastmile_qr_scan"}, "name": "eca3686f38a0aacef83f82afdffe7cd4", "is_reserved": 0}, {"is_disabled": 0, "fusion_lon": 0.0, "fusion_lat": 0.0, "lat": 38.923442666666666, "type": "electric_scooter", "lon": -77.04025, "bike_id": "5a5fc31bd87e8fb4b5d94bc46dd5d9e8", "rental_uris": {"android": "https://dc.lft.to/lastmile_qr_scan", "ios": "https://dc.lft.to/lastmile_qr_scan"}, "name": "5a5fc31bd87e8fb4b5d94bc46dd5d9e8", "is_reserved": 0}, {"is_disabled": 0, "fusion_lon": 0.0, "fusion_lat": 0.0, "lat": 38.875454833333336, "type": "electric_scooter", "lon": -77.0046605, "bike_id": "b00d0d9ea4cd33a49511b9d155ea9595", "rental_uris": {"android": "https://dc.lft.to/lastmile_qr_scan", "ios": "https://dc.lft.to/lastmile_qr_scan"}, "name": "b00d0d9ea4cd33a49511b9d155ea9595", "is_reserved": 0}, {"is_disabled": 0, "fusion_lon": 0.0, "fusion_lat": 0.0, "lat": 38.970519333333336, "type": "electric_bike", "lon": -76.9606315, "bike_id": "94703ffd352016101c86bcb3a7aa3b37", "rental_uris": {"android": "https://dc.lft.to/lastmile_qr_scan", "ios": "https://dc.lft.to/lastmile_qr_scan"}, "name": "94703ffd352016101c86bcb3a7aa3b37", "is_reserved": 0}, {"is_disabled": 0, "fusion_lon": 0.0, "fusion_lat": 0.0, "lat": 38.91115766666667, "type": "electric_scooter", "lon": -77.04364316666667, "bike_id": "c0fdd5570eda1f35313be10b6b0108c5", "rental_uris": {"android": "https://dc.lft.to/lastmile_qr_scan", "ios": "https://dc.lft.to/lastmile_qr_scan"}, "name": "c0fdd5570eda1f35313be10b6b0108c5", "is_reserved": 0}, {"is_disabled": 0, "fusion_lon": 0.0, "fusion_lat": 0.0, "lat": 38.905403, "type": "electric_scooter", "lon": -77.04313733333333, "bike_id": "5b6d1b91215f4cc2886c541f82c3d38c", "rental_uris": {"android": "https://dc.lft.to/lastmile_qr_scan", "ios": "https://dc.lft.to/lastmile_qr_scan"}, "name": "5b6d1b91215f4cc2886c541f82c3d38c", "is_reserved": 0}, {"is_disabled": 0, "fusion_lon": 0.0, "fusion_lat": 0.0, "lat": 38.88761566666667, "type": "electric_scooter", "lon": -76.98913766666666, "bike_id": "e2147b51916440fbea18fa896943c3f4", "rental_uris": {"android": "https://dc.lft.to/lastmile_qr_scan", "ios": "https://dc.lft.to/lastmile_qr_scan"}, "name": "e2147b51916440fbea18fa896943c3f4", "is_reserved": 0}, {"is_disabled": 0, "fusion_lon": 0.0, "fusion_lat": 0.0, "lat": 38.91553616666667, "type": "electric_scooter", "lon": -77.03247316666666, "bike_id": "46b7ff85032d4d9b38b9205aa1ede577", "rental_uris": {"android": "https://dc.lft.to/lastmile_qr_scan", "ios": "https://dc.lft.to/lastmile_qr_scan"}, "name": "46b7ff85032d4d9b38b9205aa1ede577", "is_reserved": 0}, {"is_disabled": 0, "fusion_lon": 0.0, "fusion_lat": 0.0, "lat": 38.901225333333336, "type": "electric_scooter", "lon": -76.98839916666667, "bike_id": "833c56703f55f3e2790fa8903972de4c", "rental_uris": {"android": "https://dc.lft.to/lastmile_qr_scan", "ios": "https://dc.lft.to/lastmile_qr_scan"}, "name": "833c56703f55f3e2790fa8903972de4c", "is_reserved": 0}, {"is_disabled": 0, "fusion_lon": 0.0, "fusion_lat": 0.0, "lat": 38.943017, "type": "electric_scooter", "lon": -77.02761716666667, "bike_id": "0fbbd988cb58c8301a89b908faca7b24", "rental_uris": {"android": "https://dc.lft.to/lastmile_qr_scan", "ios": "https://dc.lft.to/lastmile_qr_scan"}, "name": "0fbbd988cb58c8301a89b908faca7b24", "is_reserved": 0}, {"is_disabled": 0, "fusion_lon": 0.0, "fusion_lat": 0.0, "lat": 38.893700333333335, "type": "electric_scooter", "lon": -77.022768, "bike_id": "2a6b587f01df2c3c77e7d476db06797e", "rental_uris": {"android": "https://dc.lft.to/lastmile_qr_scan", "ios": "https://dc.lft.to/lastmile_qr_scan"}, "name": "2a6b587f01df2c3c77e7d476db06797e", "is_reserved": 0}, {"is_disabled": 0, "fusion_lon": 0.0, "fusion_lat": 0.0, "lat": 38.91935766666667, "type": "electric_bike", "lon": -76.97505066666666, "bike_id": "16b81c6f4944c7906b2a6990dfe09056", "rental_uris": {"android": "https://dc.lft.to/lastmile_qr_scan", "ios": "https://dc.lft.to/lastmile_qr_scan"}, "name": "16b81c6f4944c7906b2a6990dfe09056", "is_reserved": 0}, {"is_disabled": 0, "fusion_lon": 0.0, "fusion_lat": 0.0, "lat": 38.9282585, "type": "electric_scooter", "lon": -77.05441466666667, "bike_id": "ea5718c5ae6fef24ec218e42bed70490", "rental_uris": {"android": "https://dc.lft.to/lastmile_qr_scan", "ios": "https://dc.lft.to/lastmile_qr_scan"}, "name": "ea5718c5ae6fef24ec218e42bed70490", "is_reserved": 0}, {"is_disabled": 0, "fusion_lon": 0.0, "fusion_lat": 0.0, "lat": 38.9211385, "type": "electric_scooter", "lon": -77.04373266666667, "bike_id": "e6f6e83fc30953d0e5db6ca194c1882a", "rental_uris": {"android": "https://dc.lft.to/lastmile_qr_scan", "ios": "https://dc.lft.to/lastmile_qr_scan"}, "name": "e6f6e83fc30953d0e5db6ca194c1882a", "is_reserved": 0}, {"is_disabled": 0, "fusion_lon": 0.0, "fusion_lat": 0.0, "lat": 38.918916, "type": "electric_scooter", "lon": -77.07107283333333, "bike_id": "d127f81029abac845ad43492b203a60f", "rental_uris": {"android": "https://dc.lft.to/lastmile_qr_scan", "ios": "https://dc.lft.to/lastmile_qr_scan"}, "name": "d127f81029abac845ad43492b203a60f", "is_reserved": 0}, {"is_disabled": 0, "fusion_lon": 0.0, "fusion_lat": 0.0, "lat": 38.920654, "type": "electric_scooter", "lon": -77.0436365, "bike_id": "db14ee5e787f603ce71917321b23d5cd", "rental_uris": {"android": "https://dc.lft.to/lastmile_qr_scan", "ios": "https://dc.lft.to/lastmile_qr_scan"}, "name": "db14ee5e787f603ce71917321b23d5cd", "is_reserved": 0}, {"is_disabled": 0, "fusion_lon": 0.0, "fusion_lat": 0.0, "lat": 38.86959266666667, "type": "electric_scooter", "lon": -76.96033166666666, "bike_id": "d61b7934830fc3c38f284c8a737f0506", "rental_uris": {"android": "https://dc.lft.to/lastmile_qr_scan", "ios": "https://dc.lft.to/lastmile_qr_scan"}, "name": "d61b7934830fc3c38f284c8a737f0506", "is_reserved": 0}, {"is_disabled": 0, "fusion_lon": 0.0, "fusion_lat": 0.0, "lat": 38.9343955, "type": "electric_scooter", "lon": -77.072585, "bike_id": "dc9ee834e0a0fd1c3e89c65a1982f310", "rental_uris": {"android": "https://dc.lft.to/lastmile_qr_scan", "ios": "https://dc.lft.to/lastmile_qr_scan"}, "name": "dc9ee834e0a0fd1c3e89c65a1982f310", "is_reserved": 0}, {"is_disabled": 0, "fusion_lon": 0.0, "fusion_lat": 0.0, "lat": 38.89369033333333, "type": "electric_scooter", "lon": -76.9500275, "bike_id": "3bf816049e346dcfe89efd8ca6aace8b", "rental_uris": {"android": "https://dc.lft.to/lastmile_qr_scan", "ios": "https://dc.lft.to/lastmile_qr_scan"}, "name": "3bf816049e346dcfe89efd8ca6aace8b", "is_reserved": 0}, {"is_disabled": 0, "fusion_lon": 0.0, "fusion_lat": 0.0, "lat": 38.92651, "type": "electric_scooter", "lon": -77.03717266666666, "bike_id": "6b2da7dbadd1af95973519e178a96201", "rental_uris": {"android": "https://dc.lft.to/lastmile_qr_scan", "ios": "https://dc.lft.to/lastmile_qr_scan"}, "name": "6b2da7dbadd1af95973519e178a96201", "is_reserved": 0}, {"is_disabled": 0, "fusion_lon": 0.0, "fusion_lat": 0.0, "lat": 38.8921995, "type": "electric_scooter", "lon": -77.02219983333333, "bike_id": "bace576094876de057d62ef1b933730a", "rental_uris": {"android": "https://dc.lft.to/lastmile_qr_scan", "ios": "https://dc.lft.to/lastmile_qr_scan"}, "name": "bace576094876de057d62ef1b933730a", "is_reserved": 0}, {"is_disabled": 0, "fusion_lon": 0.0, "fusion_lat": 0.0, "lat": 38.892204, "type": "electric_scooter", "lon": -77.040192, "bike_id": "b3d74c77553b53cfc4670baaab083d29", "rental_uris": {"android": "https://dc.lft.to/lastmile_qr_scan", "ios": "https://dc.lft.to/lastmile_qr_scan"}, "name": "b3d74c77553b53cfc4670baaab083d29", "is_reserved": 0}, {"is_disabled": 0, "fusion_lon": 0.0, "fusion_lat": 0.0, "lat": 38.9017165, "type": "electric_scooter", "lon": -77.02629633333333, "bike_id": "3e0bde2289d420edb266c24710ab79a9", "rental_uris": {"android": "https://dc.lft.to/lastmile_qr_scan", "ios": "https://dc.lft.to/lastmile_qr_scan"}, "name": "3e0bde2289d420edb266c24710ab79a9", "is_reserved": 0}, {"is_disabled": 0, "fusion_lon": 0.0, "fusion_lat": 0.0, "lat": 38.91028333333333, "type": "electric_scooter", "lon": -77.00766433333334, "bike_id": "8c843867b3c4eb9f5c55cf783c3b5697", "rental_uris": {"android": "https://dc.lft.to/lastmile_qr_scan", "ios": "https://dc.lft.to/lastmile_qr_scan"}, "name": "8c843867b3c4eb9f5c55cf783c3b5697", "is_reserved": 0}, {"is_disabled": 0, "fusion_lon": 0.0, "fusion_lat": 0.0, "lat": 38.895329833333335, "type": "electric_scooter", "lon": -77.02812516666667, "bike_id": "1a24dbebdf61ef15bbdd0698b69c3bf9", "rental_uris": {"android": "https://dc.lft.to/lastmile_qr_scan", "ios": "https://dc.lft.to/lastmile_qr_scan"}, "name": "1a24dbebdf61ef15bbdd0698b69c3bf9", "is_reserved": 0}, {"is_disabled": 0, "fusion_lon": 0.0, "fusion_lat": 0.0, "lat": 38.8858615, "type": "electric_scooter", "lon": -77.01987283333334, "bike_id": "283f6f9c69ddb4381b26c04ef946b6df", "rental_uris": {"android": "https://dc.lft.to/lastmile_qr_scan", "ios": "https://dc.lft.to/lastmile_qr_scan"}, "name": "283f6f9c69ddb4381b26c04ef946b6df", "is_reserved": 0}, {"is_disabled": 0, "fusion_lon": 0.0, "fusion_lat": 0.0, "lat": 38.876198, "type": "electric_scooter", "lon": -76.96536933333333, "bike_id": "76b9e3aff900613172fcaef6bce753b7", "rental_uris": {"android": "https://dc.lft.to/lastmile_qr_scan", "ios": "https://dc.lft.to/lastmile_qr_scan"}, "name": "76b9e3aff900613172fcaef6bce753b7", "is_reserved": 0}, {"is_disabled": 0, "fusion_lon": 0.0, "fusion_lat": 0.0, "lat": 38.876564, "type": "electric_scooter", "lon": -77.00936516666667, "bike_id": "eadfd1772796bd91cd26acaf76968b80", "rental_uris": {"android": "https://dc.lft.to/lastmile_qr_scan", "ios": "https://dc.lft.to/lastmile_qr_scan"}, "name": "eadfd1772796bd91cd26acaf76968b80", "is_reserved": 0}, {"is_disabled": 0, "fusion_lon": 0.0, "fusion_lat": 0.0, "lat": 38.89674466666666, "type": "electric_scooter", "lon": -77.0513485, "bike_id": "c1a95c28c16884b8ffc75a54c0848c69", "rental_uris": {"android": "https://dc.lft.to/lastmile_qr_scan", "ios": "https://dc.lft.to/lastmile_qr_scan"}, "name": "c1a95c28c16884b8ffc75a54c0848c69", "is_reserved": 0}, {"is_disabled": 0, "fusion_lon": 0.0, "fusion_lat": 0.0, "lat": 38.89909166666666, "type": "electric_scooter", "lon": -77.01379733333333, "bike_id": "3bac8061ffdaba76f622f0900419f45c", "rental_uris": {"android": "https://dc.lft.to/lastmile_qr_scan", "ios": "https://dc.lft.to/lastmile_qr_scan"}, "name": "3bac8061ffdaba76f622f0900419f45c", "is_reserved": 0}, {"is_disabled": 0, "fusion_lon": 0.0, "fusion_lat": 0.0, "lat": 38.909706, "type": "electric_scooter", "lon": -77.06768933333333, "bike_id": "f7b365268c1666adff43490db55a8f0d", "rental_uris": {"android": "https://dc.lft.to/lastmile_qr_scan", "ios": "https://dc.lft.to/lastmile_qr_scan"}, "name": "f7b365268c1666adff43490db55a8f0d", "is_reserved": 0}, {"is_disabled": 0, "fusion_lon": 0.0, "fusion_lat": 0.0, "lat": 38.95650633333333, "type": "electric_scooter", "lon": -77.0329455, "bike_id": "038f78767f41126d9d5a6b556b41e0af", "rental_uris": {"android": "https://dc.lft.to/lastmile_qr_scan", "ios": "https://dc.lft.to/lastmile_qr_scan"}, "name": "038f78767f41126d9d5a6b556b41e0af", "is_reserved": 0}, {"is_disabled": 0, "fusion_lon": 0.0, "fusion_lat": 0.0, "lat": 38.962258166666665, "type": "electric_scooter", "lon": -77.02815633333333, "bike_id": "753d693af1604230ec736a2020e5a6e4", "rental_uris": {"android": "https://dc.lft.to/lastmile_qr_scan", "ios": "https://dc.lft.to/lastmile_qr_scan"}, "name": "753d693af1604230ec736a2020e5a6e4", "is_reserved": 0}, {"is_disabled": 0, "fusion_lon": 0.0, "fusion_lat": 0.0, "lat": 38.990880833333335, "type": "electric_bike", "lon": -76.8749375, "bike_id": "146b49bce337f51cc08a113af5960fc1", "rental_uris": {"android": "https://dc.lft.to/lastmile_qr_scan", "ios": "https://dc.lft.to/lastmile_qr_scan"}, "name": "146b49bce337f51cc08a113af5960fc1", "is_reserved": 0}, {"is_disabled": 0, "fusion_lon": 0.0, "fusion_lat": 0.0, "lat": 38.902772666666664, "type": "electric_scooter", "lon": -77.02394533333333, "bike_id": "fed8fe5a3aef7f876d794870169347ca", "rental_uris": {"android": "https://dc.lft.to/lastmile_qr_scan", "ios": "https://dc.lft.to/lastmile_qr_scan"}, "name": "fed8fe5a3aef7f876d794870169347ca", "is_reserved": 0}, {"is_disabled": 0, "fusion_lon": 0.0, "fusion_lat": 0.0, "lat": 38.955561833333334, "type": "electric_scooter", "lon": -77.06989983333334, "bike_id": "b002903b3520115e62830809897ec661", "rental_uris": {"android": "https://dc.lft.to/lastmile_qr_scan", "ios": "https://dc.lft.to/lastmile_qr_scan"}, "name": "b002903b3520115e62830809897ec661", "is_reserved": 0}, {"is_disabled": 0, "fusion_lon": 0.0, "fusion_lat": 0.0, "lat": 38.922632666666665, "type": "electric_scooter", "lon": -77.04297416666667, "bike_id": "a377207d9c0535874fc122c61a560a0a", "rental_uris": {"android": "https://dc.lft.to/lastmile_qr_scan", "ios": "https://dc.lft.to/lastmile_qr_scan"}, "name": "a377207d9c0535874fc122c61a560a0a", "is_reserved": 0}, {"is_disabled": 0, "fusion_lon": 0.0, "fusion_lat": 0.0, "lat": 38.900793666666665, "type": "electric_scooter", "lon": -77.01973916666667, "bike_id": "483c78942678efcbb4310eacf2596d5d", "rental_uris": {"android": "https://dc.lft.to/lastmile_qr_scan", "ios": "https://dc.lft.to/lastmile_qr_scan"}, "name": "483c78942678efcbb4310eacf2596d5d", "is_reserved": 0}, {"is_disabled": 0, "fusion_lon": 0.0, "fusion_lat": 0.0, "lat": 38.90726983333333, "type": "electric_scooter", "lon": -77.04098533333334, "bike_id": "20ee94aca741000de4b15b45d1641be3", "rental_uris": {"android": "https://dc.lft.to/lastmile_qr_scan", "ios": "https://dc.lft.to/lastmile_qr_scan"}, "name": "20ee94aca741000de4b15b45d1641be3", "is_reserved": 0}, {"is_disabled": 0, "fusion_lon": 0.0, "fusion_lat": 0.0, "lat": 38.87658733333333, "type": "electric_scooter", "lon": -77.00909616666667, "bike_id": "01f8620bce7fd699a9ffb671a22fcb03", "rental_uris": {"android": "https://dc.lft.to/lastmile_qr_scan", "ios": "https://dc.lft.to/lastmile_qr_scan"}, "name": "01f8620bce7fd699a9ffb671a22fcb03", "is_reserved": 0}, {"is_disabled": 0, "fusion_lon": 0.0, "fusion_lat": 0.0, "lat": 38.88721433333333, "type": "electric_scooter", "lon": -76.99636133333334, "bike_id": "4383b37c035ea7f8c66620aded68a02a", "rental_uris": {"android": "https://dc.lft.to/lastmile_qr_scan", "ios": "https://dc.lft.to/lastmile_qr_scan"}, "name": "4383b37c035ea7f8c66620aded68a02a", "is_reserved": 0}, {"is_disabled": 0, "fusion_lon": 0.0, "fusion_lat": 0.0, "lat": 38.884221833333335, "type": "electric_scooter", "lon": -76.954077, "bike_id": "f031a015ec113868e736c73bace6cfec", "rental_uris": {"android": "https://dc.lft.to/lastmile_qr_scan", "ios": "https://dc.lft.to/lastmile_qr_scan"}, "name": "f031a015ec113868e736c73bace6cfec", "is_reserved": 0}, {"is_disabled": 0, "fusion_lon": 0.0, "fusion_lat": 0.0, "lat": 38.9149065, "type": "electric_scooter", "lon": -77.03461383333334, "bike_id": "c7f98feabdd5e6831dae085ca23c8d07", "rental_uris": {"android": "https://dc.lft.to/lastmile_qr_scan", "ios": "https://dc.lft.to/lastmile_qr_scan"}, "name": "c7f98feabdd5e6831dae085ca23c8d07", "is_reserved": 0}, {"is_disabled": 0, "fusion_lon": 0.0, "fusion_lat": 0.0, "lat": 38.897295666666665, "type": "electric_scooter", "lon": -77.00445533333334, "bike_id": "e4a7510a2b8ca2c72bb48872081456f9", "rental_uris": {"android": "https://dc.lft.to/lastmile_qr_scan", "ios": "https://dc.lft.to/lastmile_qr_scan"}, "name": "e4a7510a2b8ca2c72bb48872081456f9", "is_reserved": 0}, {"is_disabled": 0, "fusion_lon": 0.0, "fusion_lat": 0.0, "lat": 38.90268616666667, "type": "electric_scooter", "lon": -77.02195816666666, "bike_id": "6ad438a33de21c97c758f4bf9cfa055b", "rental_uris": {"android": "https://dc.lft.to/lastmile_qr_scan", "ios": "https://dc.lft.to/lastmile_qr_scan"}, "name": "6ad438a33de21c97c758f4bf9cfa055b", "is_reserved": 0}, {"is_disabled": 0, "fusion_lon": 0.0, "fusion_lat": 0.0, "lat": 39.088407, "type": "electric_bike", "lon": -77.17805616666666, "bike_id": "d05cd053c8b4834835810e348e5c0913", "rental_uris": {"android": "https://dc.lft.to/lastmile_qr_scan", "ios": "https://dc.lft.to/lastmile_qr_scan"}, "name": "d05cd053c8b4834835810e348e5c0913", "is_reserved": 0}, {"is_disabled": 0, "fusion_lon": 0.0, "fusion_lat": 0.0, "lat": 38.8821475, "type": "electric_scooter", "lon": -76.92706666666666, "bike_id": "ba35ac99dd389cf6965c7532e0b94cfb", "rental_uris": {"android": "https://dc.lft.to/lastmile_qr_scan", "ios": "https://dc.lft.to/lastmile_qr_scan"}, "name": "ba35ac99dd389cf6965c7532e0b94cfb", "is_reserved": 0}, {"is_disabled": 0, "fusion_lon": 0.0, "fusion_lat": 0.0, "lat": 38.89221166666667, "type": "electric_scooter", "lon": -77.04803233333334, "bike_id": "86ef68144f7bc69682fb0f7125d1fbe7", "rental_uris": {"android": "https://dc.lft.to/lastmile_qr_scan", "ios": "https://dc.lft.to/lastmile_qr_scan"}, "name": "86ef68144f7bc69682fb0f7125d1fbe7", "is_reserved": 0}, {"is_disabled": 0, "fusion_lon": 0.0, "fusion_lat": 0.0, "lat": 38.90336466666667, "type": "electric_scooter", "lon": -76.975774, "bike_id": "5a686dc50a03f2fa78255c05aedb69ad", "rental_uris": {"android": "https://dc.lft.to/lastmile_qr_scan", "ios": "https://dc.lft.to/lastmile_qr_scan"}, "name": "5a686dc50a03f2fa78255c05aedb69ad", "is_reserved": 0}, {"is_disabled": 0, "fusion_lon": 0.0, "fusion_lat": 0.0, "lat": 38.9165605, "type": "electric_scooter", "lon": -77.02283383333334, "bike_id": "43116c2dae98ca07deaffaa0d2fbbe74", "rental_uris": {"android": "https://dc.lft.to/lastmile_qr_scan", "ios": "https://dc.lft.to/lastmile_qr_scan"}, "name": "43116c2dae98ca07deaffaa0d2fbbe74", "is_reserved": 0}, {"is_disabled": 0, "fusion_lon": 0.0, "fusion_lat": 0.0, "lat": 38.9322385, "type": "electric_scooter", "lon": -77.03277116666666, "bike_id": "617d462df442c2ef93d8eb55ed73758e", "rental_uris": {"android": "https://dc.lft.to/lastmile_qr_scan", "ios": "https://dc.lft.to/lastmile_qr_scan"}, "name": "617d462df442c2ef93d8eb55ed73758e", "is_reserved": 0}, {"is_disabled": 0, "fusion_lon": 0.0, "fusion_lat": 0.0, "lat": 38.913686, "type": "electric_scooter", "lon": -77.04603716666666, "bike_id": "82d1bb857fc1614e929e3dc47bb187c0", "rental_uris": {"android": "https://dc.lft.to/lastmile_qr_scan", "ios": "https://dc.lft.to/lastmile_qr_scan"}, "name": "82d1bb857fc1614e929e3dc47bb187c0", "is_reserved": 0}, {"is_disabled": 0, "fusion_lon": 0.0, "fusion_lat": 0.0, "lat": 38.9222795, "type": "electric_scooter", "lon": -77.04243266666667, "bike_id": "410e5e4cb78a276ae82465226dc533da", "rental_uris": {"android": "https://dc.lft.to/lastmile_qr_scan", "ios": "https://dc.lft.to/lastmile_qr_scan"}, "name": "410e5e4cb78a276ae82465226dc533da", "is_reserved": 0}, {"is_disabled": 0, "fusion_lon": 0.0, "fusion_lat": 0.0, "lat": 38.949820833333334, "type": "electric_scooter", "lon": -77.02699683333333, "bike_id": "6a45267cf5697844b5ffd76c157a17cd", "rental_uris": {"android": "https://dc.lft.to/lastmile_qr_scan", "ios": "https://dc.lft.to/lastmile_qr_scan"}, "name": "6a45267cf5697844b5ffd76c157a17cd", "is_reserved": 0}, {"is_disabled": 0, "fusion_lon": 0.0, "fusion_lat": 0.0, "lat": 38.910373166666666, "type": "electric_scooter", "lon": -77.04282083333334, "bike_id": "c9920e5aff717435d3fa1727f0b54aab", "rental_uris": {"android": "https://dc.lft.to/lastmile_qr_scan", "ios": "https://dc.lft.to/lastmile_qr_scan"}, "name": "c9920e5aff717435d3fa1727f0b54aab", "is_reserved": 0}, {"is_disabled": 0, "fusion_lon": 0.0, "fusion_lat": 0.0, "lat": 38.918065666666664, "type": "electric_scooter", "lon": -77.0268835, "bike_id": "8275d2d1178cd76399dfabb71f541001", "rental_uris": {"android": "https://dc.lft.to/lastmile_qr_scan", "ios": "https://dc.lft.to/lastmile_qr_scan"}, "name": "8275d2d1178cd76399dfabb71f541001", "is_reserved": 0}, {"is_disabled": 0, "fusion_lon": 0.0, "fusion_lat": 0.0, "lat": 38.907237333333335, "type": "electric_scooter", "lon": -77.02444416666667, "bike_id": "2afdf777484ebba46b90e430a0c01684", "rental_uris": {"android": "https://dc.lft.to/lastmile_qr_scan", "ios": "https://dc.lft.to/lastmile_qr_scan"}, "name": "2afdf777484ebba46b90e430a0c01684", "is_reserved": 0}, {"is_disabled": 0, "fusion_lon": 0.0, "fusion_lat": 0.0, "lat": 38.89519, "type": "electric_scooter", "lon": -77.00327266666666, "bike_id": "688c1f5b9ea054f45e4526e7a4617019", "rental_uris": {"android": "https://dc.lft.to/lastmile_qr_scan", "ios": "https://dc.lft.to/lastmile_qr_scan"}, "name": "688c1f5b9ea054f45e4526e7a4617019", "is_reserved": 0}, {"is_disabled": 0, "fusion_lon": 0.0, "fusion_lat": 0.0, "lat": 38.905105166666665, "type": "electric_scooter", "lon": -77.05040633333333, "bike_id": "5c5469a080ec5489d84e69e5149188c7", "rental_uris": {"android": "https://dc.lft.to/lastmile_qr_scan", "ios": "https://dc.lft.to/lastmile_qr_scan"}, "name": "5c5469a080ec5489d84e69e5149188c7", "is_reserved": 0}, {"is_disabled": 0, "fusion_lon": 0.0, "fusion_lat": 0.0, "lat": 38.944644, "type": "electric_bike", "lon": -77.0433835, "bike_id": "1ece6702b07a930fc1e4156f8fd8efb5", "rental_uris": {"android": "https://dc.lft.to/lastmile_qr_scan", "ios": "https://dc.lft.to/lastmile_qr_scan"}, "name": "1ece6702b07a930fc1e4156f8fd8efb5", "is_reserved": 0}, {"is_disabled": 0, "fusion_lon": 0.0, "fusion_lat": 0.0, "lat": 38.8968555, "type": "electric_scooter", "lon": -77.00494883333333, "bike_id": "44435c944758f4fccd068147bc663f7f", "rental_uris": {"android": "https://dc.lft.to/lastmile_qr_scan", "ios": "https://dc.lft.to/lastmile_qr_scan"}, "name": "44435c944758f4fccd068147bc663f7f", "is_reserved": 0}, {"is_disabled": 0, "fusion_lon": 0.0, "fusion_lat": 0.0, "lat": 38.96617283333333, "type": "electric_bike", "lon": -77.03438233333334, "bike_id": "25b11e48aff0423b59b1b06dc7fc19d9", "rental_uris": {"android": "https://dc.lft.to/lastmile_qr_scan", "ios": "https://dc.lft.to/lastmile_qr_scan"}, "name": "25b11e48aff0423b59b1b06dc7fc19d9", "is_reserved": 0}, {"is_disabled": 0, "fusion_lon": 0.0, "fusion_lat": 0.0, "lat": 38.935071, "type": "electric_bike", "lon": -76.949565, "bike_id": "d58ade491b87537aeb412168ab5311bf", "rental_uris": {"android": "https://dc.lft.to/lastmile_qr_scan", "ios": "https://dc.lft.to/lastmile_qr_scan"}, "name": "d58ade491b87537aeb412168ab5311bf", "is_reserved": 0}, {"is_disabled": 0, "fusion_lon": 0.0, "fusion_lat": 0.0, "lat": 38.90033066666667, "type": "electric_scooter", "lon": -77.002133, "bike_id": "55b4e9a2e560522ce379b389b3a4b52b", "rental_uris": {"android": "https://dc.lft.to/lastmile_qr_scan", "ios": "https://dc.lft.to/lastmile_qr_scan"}, "name": "55b4e9a2e560522ce379b389b3a4b52b", "is_reserved": 0}, {"is_disabled": 0, "fusion_lon": 0.0, "fusion_lat": 0.0, "lat": 38.90790616666666, "type": "electric_scooter", "lon": -77.04982683333333, "bike_id": "0b8c29131151ca81d5c445b0f49ac096", "rental_uris": {"android": "https://dc.lft.to/lastmile_qr_scan", "ios": "https://dc.lft.to/lastmile_qr_scan"}, "name": "0b8c29131151ca81d5c445b0f49ac096", "is_reserved": 0}, {"is_disabled": 0, "fusion_lon": 0.0, "fusion_lat": 0.0, "lat": 39.09941883333333, "type": "electric_bike", "lon": -77.18789616666666, "bike_id": "2d9003a902564562cd062e2d7e6a868d", "rental_uris": {"android": "https://dc.lft.to/lastmile_qr_scan", "ios": "https://dc.lft.to/lastmile_qr_scan"}, "name": "2d9003a902564562cd062e2d7e6a868d", "is_reserved": 0}, {"is_disabled": 0, "fusion_lon": 0.0, "fusion_lat": 0.0, "lat": 38.8381235, "type": "electric_scooter", "lon": -77.00438683333333, "bike_id": "755192211dc18eb059f9407a4c9ce6d7", "rental_uris": {"android": "https://dc.lft.to/lastmile_qr_scan", "ios": "https://dc.lft.to/lastmile_qr_scan"}, "name": "755192211dc18eb059f9407a4c9ce6d7", "is_reserved": 0}, {"is_disabled": 0, "fusion_lon": 0.0, "fusion_lat": 0.0, "lat": 38.917569, "type": "electric_scooter", "lon": -77.02594533333334, "bike_id": "7901196a276fe82084adebb289c78481", "rental_uris": {"android": "https://dc.lft.to/lastmile_qr_scan", "ios": "https://dc.lft.to/lastmile_qr_scan"}, "name": "7901196a276fe82084adebb289c78481", "is_reserved": 0}, {"is_disabled": 0, "fusion_lon": 0.0, "fusion_lat": 0.0, "lat": 38.95345533333333, "type": "electric_scooter", "lon": -77.06908216666666, "bike_id": "7121ee82b32946d7753cd020cf8b518b", "rental_uris": {"android": "https://dc.lft.to/lastmile_qr_scan", "ios": "https://dc.lft.to/lastmile_qr_scan"}, "name": "7121ee82b32946d7753cd020cf8b518b", "is_reserved": 0}, {"is_disabled": 0, "fusion_lon": 0.0, "fusion_lat": 0.0, "lat": 38.92801933333333, "type": "electric_scooter", "lon": -77.05428016666667, "bike_id": "548afd7ad351ba60dcde77c1e867dabd", "rental_uris": {"android": "https://dc.lft.to/lastmile_qr_scan", "ios": "https://dc.lft.to/lastmile_qr_scan"}, "name": "548afd7ad351ba60dcde77c1e867dabd", "is_reserved": 0}, {"is_disabled": 0, "fusion_lon": 0.0, "fusion_lat": 0.0, "lat": 38.92481333333333, "type": "electric_scooter", "lon": -77.03486016666666, "bike_id": "9493589a85d035329534084f608eeeeb", "rental_uris": {"android": "https://dc.lft.to/lastmile_qr_scan", "ios": "https://dc.lft.to/lastmile_qr_scan"}, "name": "9493589a85d035329534084f608eeeeb", "is_reserved": 0}, {"is_disabled": 0, "fusion_lon": 0.0, "fusion_lat": 0.0, "lat": 38.88477866666667, "type": "electric_scooter", "lon": -77.01976316666666, "bike_id": "0d2c5dcd68ffd2db34c14c638575a288", "rental_uris": {"android": "https://dc.lft.to/lastmile_qr_scan", "ios": "https://dc.lft.to/lastmile_qr_scan"}, "name": "0d2c5dcd68ffd2db34c14c638575a288", "is_reserved": 0}, {"is_disabled": 0, "fusion_lon": 0.0, "fusion_lat": 0.0, "lat": 38.92058933333333, "type": "electric_scooter", "lon": -77.02449716666666, "bike_id": "3a8c2fedf977f0e462ad75812295eda4", "rental_uris": {"android": "https://dc.lft.to/lastmile_qr_scan", "ios": "https://dc.lft.to/lastmile_qr_scan"}, "name": "3a8c2fedf977f0e462ad75812295eda4", "is_reserved": 0}, {"is_disabled": 0, "fusion_lon": 0.0, "fusion_lat": 0.0, "lat": 38.90830016666666, "type": "electric_scooter", "lon": -77.03212483333333, "bike_id": "2449daf0fe7933bc48ce4140c3c8b449", "rental_uris": {"android": "https://dc.lft.to/lastmile_qr_scan", "ios": "https://dc.lft.to/lastmile_qr_scan"}, "name": "2449daf0fe7933bc48ce4140c3c8b449", "is_reserved": 0}, {"is_disabled": 0, "fusion_lon": 0.0, "fusion_lat": 0.0, "lat": 38.9058865, "type": "electric_scooter", "lon": -77.03250016666667, "bike_id": "4e27de720015bda6265798b57258ae2d", "rental_uris": {"android": "https://dc.lft.to/lastmile_qr_scan", "ios": "https://dc.lft.to/lastmile_qr_scan"}, "name": "4e27de720015bda6265798b57258ae2d", "is_reserved": 0}, {"is_disabled": 0, "fusion_lon": 0.0, "fusion_lat": 0.0, "lat": 38.8984195, "type": "electric_scooter", "lon": -76.94632666666666, "bike_id": "c10053f2fb8cd972ae16d0e660fb898c", "rental_uris": {"android": "https://dc.lft.to/lastmile_qr_scan", "ios": "https://dc.lft.to/lastmile_qr_scan"}, "name": "c10053f2fb8cd972ae16d0e660fb898c", "is_reserved": 0}, {"is_disabled": 0, "fusion_lon": 0.0, "fusion_lat": 0.0, "lat": 38.9317425, "type": "electric_scooter", "lon": -77.0725505, "bike_id": "120c15bb7163a935427a4f8f69db6449", "rental_uris": {"android": "https://dc.lft.to/lastmile_qr_scan", "ios": "https://dc.lft.to/lastmile_qr_scan"}, "name": "120c15bb7163a935427a4f8f69db6449", "is_reserved": 0}, {"is_disabled": 0, "fusion_lon": 0.0, "fusion_lat": 0.0, "lat": 38.953559166666665, "type": "electric_bike", "lon": -76.98092433333333, "bike_id": "5b038ffe0765b19645e0ae764118dd44", "rental_uris": {"android": "https://dc.lft.to/lastmile_qr_scan", "ios": "https://dc.lft.to/lastmile_qr_scan"}, "name": "5b038ffe0765b19645e0ae764118dd44", "is_reserved": 0}, {"is_disabled": 0, "fusion_lon": 0.0, "fusion_lat": 0.0, "lat": 38.89966616666667, "type": "electric_scooter", "lon": -77.050399, "bike_id": "dcc2b729d9ba50bd7a0df08d2d6b1b29", "rental_uris": {"android": "https://dc.lft.to/lastmile_qr_scan", "ios": "https://dc.lft.to/lastmile_qr_scan"}, "name": "dcc2b729d9ba50bd7a0df08d2d6b1b29", "is_reserved": 0}, {"is_disabled": 0, "fusion_lon": 0.0, "fusion_lat": 0.0, "lat": 38.91521916666667, "type": "electric_scooter", "lon": -77.01848816666667, "bike_id": "5a22afb52ce33f87ff76df2c6cd1db3c", "rental_uris": {"android": "https://dc.lft.to/lastmile_qr_scan", "ios": "https://dc.lft.to/lastmile_qr_scan"}, "name": "5a22afb52ce33f87ff76df2c6cd1db3c", "is_reserved": 0}, {"is_disabled": 0, "fusion_lon": 0.0, "fusion_lat": 0.0, "lat": 38.92746416666667, "type": "electric_scooter", "lon": -77.0335225, "bike_id": "b7182d868814260a1ca3bef98a689c6a", "rental_uris": {"android": "https://dc.lft.to/lastmile_qr_scan", "ios": "https://dc.lft.to/lastmile_qr_scan"}, "name": "b7182d868814260a1ca3bef98a689c6a", "is_reserved": 0}, {"is_disabled": 0, "fusion_lon": 0.0, "fusion_lat": 0.0, "lat": 38.95741066666667, "type": "electric_scooter", "lon": -77.02428916666666, "bike_id": "0c5f1abe28df83d10bfefd1f2ca77f92", "rental_uris": {"android": "https://dc.lft.to/lastmile_qr_scan", "ios": "https://dc.lft.to/lastmile_qr_scan"}, "name": "0c5f1abe28df83d10bfefd1f2ca77f92", "is_reserved": 0}, {"is_disabled": 0, "fusion_lon": 0.0, "fusion_lat": 0.0, "lat": 38.98478083333333, "type": "electric_scooter", "lon": -77.02649466666666, "bike_id": "ac7edafe3f2d03bec597a4d15a079b52", "rental_uris": {"android": "https://dc.lft.to/lastmile_qr_scan", "ios": "https://dc.lft.to/lastmile_qr_scan"}, "name": "ac7edafe3f2d03bec597a4d15a079b52", "is_reserved": 0}, {"is_disabled": 0, "fusion_lon": 0.0, "fusion_lat": 0.0, "lat": 38.88454216666667, "type": "electric_scooter", "lon": -76.95406283333334, "bike_id": "5abc57618621a194bb461cc9472d3225", "rental_uris": {"android": "https://dc.lft.to/lastmile_qr_scan", "ios": "https://dc.lft.to/lastmile_qr_scan"}, "name": "5abc57618621a194bb461cc9472d3225", "is_reserved": 0}, {"is_disabled": 0, "fusion_lon": 0.0, "fusion_lat": 0.0, "lat": 38.89669983333334, "type": "electric_scooter", "lon": -77.02314916666667, "bike_id": "23f1e3d04c90be5e2e7390f4773e4419", "rental_uris": {"android": "https://dc.lft.to/lastmile_qr_scan", "ios": "https://dc.lft.to/lastmile_qr_scan"}, "name": "23f1e3d04c90be5e2e7390f4773e4419", "is_reserved": 0}, {"is_disabled": 0, "fusion_lon": 0.0, "fusion_lat": 0.0, "lat": 38.9293855, "type": "electric_scooter", "lon": -77.0164855, "bike_id": "46029279921a4cc18830060895b68ca2", "rental_uris": {"android": "https://dc.lft.to/lastmile_qr_scan", "ios": "https://dc.lft.to/lastmile_qr_scan"}, "name": "46029279921a4cc18830060895b68ca2", "is_reserved": 0}, {"is_disabled": 0, "fusion_lon": 0.0, "fusion_lat": 0.0, "lat": 38.9400865, "type": "electric_scooter", "lon": -77.0162075, "bike_id": "20f04669594b3ff9c389b1296c4c6afb", "rental_uris": {"android": "https://dc.lft.to/lastmile_qr_scan", "ios": "https://dc.lft.to/lastmile_qr_scan"}, "name": "20f04669594b3ff9c389b1296c4c6afb", "is_reserved": 0}, {"is_disabled": 0, "fusion_lon": 0.0, "fusion_lat": 0.0, "lat": 38.91334766666667, "type": "electric_scooter", "lon": -77.05221283333333, "bike_id": "8ac72213b7de414a3b0410d62cb50a3b", "rental_uris": {"android": "https://dc.lft.to/lastmile_qr_scan", "ios": "https://dc.lft.to/lastmile_qr_scan"}, "name": "8ac72213b7de414a3b0410d62cb50a3b", "is_reserved": 0}, {"is_disabled": 0, "fusion_lon": 0.0, "fusion_lat": 0.0, "lat": 38.867205166666665, "type": "electric_scooter", "lon": -76.97906166666667, "bike_id": "9ed2934810e3c99eab04770566962a71", "rental_uris": {"android": "https://dc.lft.to/lastmile_qr_scan", "ios": "https://dc.lft.to/lastmile_qr_scan"}, "name": "9ed2934810e3c99eab04770566962a71", "is_reserved": 0}, {"is_disabled": 0, "fusion_lon": 0.0, "fusion_lat": 0.0, "lat": 38.93295416666667, "type": "electric_scooter", "lon": -77.02451883333333, "bike_id": "98f015e81f4b883865faffbdfc43e0cb", "rental_uris": {"android": "https://dc.lft.to/lastmile_qr_scan", "ios": "https://dc.lft.to/lastmile_qr_scan"}, "name": "98f015e81f4b883865faffbdfc43e0cb", "is_reserved": 0}, {"is_disabled": 0, "fusion_lon": 0.0, "fusion_lat": 0.0, "lat": 38.909707833333336, "type": "electric_scooter", "lon": -77.0856715, "bike_id": "cbe64e6e1669c2c4213d6eb4145da646", "rental_uris": {"android": "https://dc.lft.to/lastmile_qr_scan", "ios": "https://dc.lft.to/lastmile_qr_scan"}, "name": "cbe64e6e1669c2c4213d6eb4145da646", "is_reserved": 0}, {"is_disabled": 0, "fusion_lon": 0.0, "fusion_lat": 0.0, "lat": 38.926014, "type": "electric_scooter", "lon": -77.0235175, "bike_id": "96617d854b9ba51395a19f36a8f9fb6a", "rental_uris": {"android": "https://dc.lft.to/lastmile_qr_scan", "ios": "https://dc.lft.to/lastmile_qr_scan"}, "name": "96617d854b9ba51395a19f36a8f9fb6a", "is_reserved": 0}, {"is_disabled": 0, "fusion_lon": 0.0, "fusion_lat": 0.0, "lat": 38.897306, "type": "electric_scooter", "lon": -77.0217895, "bike_id": "82271f67282638168442badf79977380", "rental_uris": {"android": "https://dc.lft.to/lastmile_qr_scan", "ios": "https://dc.lft.to/lastmile_qr_scan"}, "name": "82271f67282638168442badf79977380", "is_reserved": 0}, {"is_disabled": 0, "fusion_lon": 0.0, "fusion_lat": 0.0, "lat": 38.897274833333334, "type": "electric_scooter", "lon": -77.02187483333333, "bike_id": "3ca12ccf543173c6437e57f73f60bada", "rental_uris": {"android": "https://dc.lft.to/lastmile_qr_scan", "ios": "https://dc.lft.to/lastmile_qr_scan"}, "name": "3ca12ccf543173c6437e57f73f60bada", "is_reserved": 0}, {"is_disabled": 0, "fusion_lon": 0.0, "fusion_lat": 0.0, "lat": 38.9463275, "type": "electric_scooter", "lon": -77.01938366666667, "bike_id": "bea684fdbf7e3e505d4e27f014ecdfd5", "rental_uris": {"android": "https://dc.lft.to/lastmile_qr_scan", "ios": "https://dc.lft.to/lastmile_qr_scan"}, "name": "bea684fdbf7e3e505d4e27f014ecdfd5", "is_reserved": 0}, {"is_disabled": 0, "fusion_lon": 0.0, "fusion_lat": 0.0, "lat": 38.927507, "type": "electric_scooter", "lon": -77.00592316666666, "bike_id": "d20df523d03f61091d3a4433624b5eb7", "rental_uris": {"android": "https://dc.lft.to/lastmile_qr_scan", "ios": "https://dc.lft.to/lastmile_qr_scan"}, "name": "d20df523d03f61091d3a4433624b5eb7", "is_reserved": 0}, {"is_disabled": 0, "fusion_lon": 0.0, "fusion_lat": 0.0, "lat": 38.9076415, "type": "electric_scooter", "lon": -77.06285633333333, "bike_id": "0ab55ce547660781c2e6c2120c7c8ea0", "rental_uris": {"android": "https://dc.lft.to/lastmile_qr_scan", "ios": "https://dc.lft.to/lastmile_qr_scan"}, "name": "0ab55ce547660781c2e6c2120c7c8ea0", "is_reserved": 0}, {"is_disabled": 0, "fusion_lon": 0.0, "fusion_lat": 0.0, "lat": 38.852078166666665, "type": "electric_bike", "lon": -77.10125366666666, "bike_id": "5752297d9640473495aca491d410f3cb", "rental_uris": {"android": "https://dc.lft.to/lastmile_qr_scan", "ios": "https://dc.lft.to/lastmile_qr_scan"}, "name": "5752297d9640473495aca491d410f3cb", "is_reserved": 0}, {"is_disabled": 0, "fusion_lon": 0.0, "fusion_lat": 0.0, "lat": 38.925533, "type": "electric_scooter", "lon": -77.03789233333333, "bike_id": "d3a0c0ace3e566f4b21cc6088ab0b5ec", "rental_uris": {"android": "https://dc.lft.to/lastmile_qr_scan", "ios": "https://dc.lft.to/lastmile_qr_scan"}, "name": "d3a0c0ace3e566f4b21cc6088ab0b5ec", "is_reserved": 0}, {"is_disabled": 0, "fusion_lon": 0.0, "fusion_lat": 0.0, "lat": 38.908376, "type": "electric_scooter", "lon": -77.04344333333333, "bike_id": "c15dd361a007eade66aa1dd29c836358", "rental_uris": {"android": "https://dc.lft.to/lastmile_qr_scan", "ios": "https://dc.lft.to/lastmile_qr_scan"}, "name": "c15dd361a007eade66aa1dd29c836358", "is_reserved": 0}, {"is_disabled": 0, "fusion_lon": 0.0, "fusion_lat": 0.0, "lat": 38.914859166666666, "type": "electric_scooter", "lon": -77.04166816666667, "bike_id": "57ea75cc14bd37ba36226b87147c56ee", "rental_uris": {"android": "https://dc.lft.to/lastmile_qr_scan", "ios": "https://dc.lft.to/lastmile_qr_scan"}, "name": "57ea75cc14bd37ba36226b87147c56ee", "is_reserved": 0}, {"is_disabled": 0, "fusion_lon": 0.0, "fusion_lat": 0.0, "lat": 38.9194445, "type": "electric_scooter", "lon": -77.024995, "bike_id": "0410d4ef8fe13f85f4da286210065134", "rental_uris": {"android": "https://dc.lft.to/lastmile_qr_scan", "ios": "https://dc.lft.to/lastmile_qr_scan"}, "name": "0410d4ef8fe13f85f4da286210065134", "is_reserved": 0}, {"is_disabled": 0, "fusion_lon": 0.0, "fusion_lat": 0.0, "lat": 38.90479966666667, "type": "electric_scooter", "lon": -76.97329283333333, "bike_id": "83c93000bd03c45be185420e8f37d7ac", "rental_uris": {"android": "https://dc.lft.to/lastmile_qr_scan", "ios": "https://dc.lft.to/lastmile_qr_scan"}, "name": "83c93000bd03c45be185420e8f37d7ac", "is_reserved": 0}, {"is_disabled": 0, "fusion_lon": 0.0, "fusion_lat": 0.0, "lat": 38.878368, "type": "electric_scooter", "lon": -77.02277266666667, "bike_id": "adf5fa9c04a4c2fd0a2d86f93079ee7c", "rental_uris": {"android": "https://dc.lft.to/lastmile_qr_scan", "ios": "https://dc.lft.to/lastmile_qr_scan"}, "name": "adf5fa9c04a4c2fd0a2d86f93079ee7c", "is_reserved": 0}, {"is_disabled": 0, "fusion_lon": 0.0, "fusion_lat": 0.0, "lat": 38.911892333333334, "type": "electric_scooter", "lon": -77.03864216666666, "bike_id": "f74ac838538db0d78504d6e964c32ce0", "rental_uris": {"android": "https://dc.lft.to/lastmile_qr_scan", "ios": "https://dc.lft.to/lastmile_qr_scan"}, "name": "f74ac838538db0d78504d6e964c32ce0", "is_reserved": 0},