{"data": {"bikes": [{"lat": 38.93014266666667, "is_disabled": 0, "type": "electric_bike", "lon": -77.2164685, "bike_id": "47c714f2b981e64079e8afbff4432b46", "fusion_lat": 0.0, "name": "47c714f2b981e64079e8afbff4432b46", "is_reserved": 0, "rental_uris": {"android": "https://dc.lft.to/lastmile_qr_scan", "ios": "https://dc.lft.to/lastmile_qr_scan"}, "fusion_lon": 0.0}, {"lat": 38.947204166666666, "is_disabled": 0, "type": "electric_scooter", "lon": -77.0226385, "bike_id": "90a5cc45fda976e9a4d99ac4b3db8cf9", "fusion_lat": 0.0, "name": "90a5cc45fda976e9a4d99ac4b3db8cf9", "is_reserved": 0, "rental_uris": {"android": "https://dc.lft.to/lastmile_qr_scan", "ios": "https://dc.lft.to/lastmile_qr_scan"}, "fusion_lon": 0.0}, {"lat": 38.91282433333333, "is_disabled": 0, "type": "electric_scooter", "lon": -77.039383, "bike_id": "b27cc069a822e0f72f764429968134a8", "fusion_lat": 0.0, "name": "b27cc069a822e0f72f764429968134a8", "is_reserved": 0, "rental_uris": {"android": "https://dc.lft.to/lastmile_qr_scan", "ios": "https://dc.lft.to/lastmile_qr_scan"}, "fusion_lon": 0.0}, {"lat": 38.936708333333335, "is_disabled": 0, "type": "electric_bike", "lon": -76.952063, "bike_id": "6f45a5f2e8c2cc2f9dbee52f2f03492b", "fusion_lat": 0.0, "name": "6f45a5f2e8c2cc2f9dbee52f2f03492b", "is_reserved": 0, "rental_uris": {"android": "https://dc.lft.to/lastmile_qr_scan", "ios": "https://dc.lft.to/lastmile_qr_scan"}, "fusion_lon": 0.0}, {"lat": 38.895047166666664, "is_disabled": 0, "type": "electric_scooter", "lon": -77.02206266666667, "bike_id": "70246fa8a2536c192009f48b76217444", "fusion_lat": 0.0, "name": "70246fa8a2536c192009f48b76217444", "is_reserved": 0, "rental_uris": {"android": "https://dc.lft.to/lastmile_qr_scan", "ios": "https://dc.lft.to/lastmile_qr_scan"}, "fusion_lon": 0.0}, {"lat": 38.903967333333334, "is_disabled": 0, "type": "electric_scooter", "lon": -77.03451283333334, "bike_id": "3bbed0470608a343ccdb33d3bd18cecb", "fusion_lat": 0.0, "name": "3bbed0470608a343ccdb33d3bd18cecb", "is_reserved": 0, "rental_uris": {"android": "https://dc.lft.to/lastmile_qr_scan", "ios": "https://dc.lft.to/lastmile_qr_scan"}, "fusion_lon": 0.0}, {"lat": 38.90728166666667, "is_disabled": 0, "type": "electric_scooter", "lon": -77.03438533333333, "bike_id": "640b47ba7f91d17c47eef6ec42dae09a", "fusion_lat": 0.0, "name": "640b47ba7f91d17c47eef6ec42dae09a", "is_reserved": 0, "rental_uris": {"android": "https://dc.lft.to/lastmile_qr_scan", "ios": "https://dc.lft.to/lastmile_qr_scan"}, "fusion_lon": 0.0}, {"lat": 38.902195666666664, "is_disabled": 0, "type": "electric_scooter", "lon": -76.94593633333334, "bike_id": "b06493cffd635699fd456dc7b3938d77", "fusion_lat": 0.0, "name": "b06493cffd635699fd456dc7b3938d77", "is_reserved": 0, "rental_uris": {"android": "https://dc.lft.to/lastmile_qr_scan", "ios": "https://dc.lft.to/lastmile_qr_scan"}, "fusion_lon": 0.0}, {"lat": 38.9176405, "is_disabled": 0, "type": "electric_scooter", "lon": -77.0319335, "bike_id": "d253432735bfaf61906a17aa0c75c01c", "fusion_lat": 0.0, "name": "d253432735bfaf61906a17aa0c75c01c", "is_reserved": 0, "rental_uris": {"android": "https://dc.lft.to/lastmile_qr_scan", "ios": "https://dc.lft.to/lastmile_qr_scan"}, "fusion_lon": 0.0}, {"lat": 38.9196715, "is_disabled": 0, "type": "electric_bike", "lon": -76.972621, "bike_id": "dbf7c6968689db141c26dac0948f98f6", "fusion_lat": 0.0, "name": "dbf7c6968689db141c26dac0948f98f6", "is_reserved": 0, "rental_uris": {"android": "https://dc.lft.to/lastmile_qr_scan", "ios": "https://dc.lft.to/lastmile_qr_scan"}, "fusion_lon": 0.0}, {"lat": 38.912075333333334, "is_disabled": 0, "type": "electric_scooter", "lon": -77.02763833333333, "bike_id": "c75b1ac47f2f851ec6d131758c4d11a4", "fusion_lat": 0.0, "name": "c75b1ac47f2f851ec6d131758c4d11a4", "is_reserved": 0, "rental_uris": {"android": "https://dc.lft.to/lastmile_qr_scan", "ios": "https://dc.lft.to/lastmile_qr_scan"}, "fusion_lon": 0.0}, {"lat": 38.9223555, "is_disabled": 0, "type": "electric_scooter", "lon": -77.03346133333334, "bike_id": "1dca5668d930edf3373791edf72a8f2b", "fusion_lat": 0.0, "name": "1dca5668d930edf3373791edf72a8f2b", "is_reserved": 0, "rental_uris": {"android": "https://dc.lft.to/lastmile_qr_scan", "ios": "https://dc.lft.to/lastmile_qr_scan"}, "fusion_lon": 0.0}, {"lat": 38.85190033333333, "is_disabled": 0, "type": "electric_bike", "lon": -76.96110366666667, "bike_id": "ac4e4809b4b285e165fae2b771fa1430", "fusion_lat": 0.0, "name": "ac4e4809b4b285e165fae2b771fa1430", "is_reserved": 0, "rental_uris": {"android": "https://dc.lft.to/lastmile_qr_scan", "ios": "https://dc.lft.to/lastmile_qr_scan"}, "fusion_lon": 0.0}, {"lat": 38.9006985, "is_disabled": 0, "type": "electric_scooter", "lon": -77.00203866666666, "bike_id": "d9d7e14a3607d37361907d380654b66a", "fusion_lat": 0.0, "name": "d9d7e14a3607d37361907d380654b66a", "is_reserved": 0, "rental_uris": {"android": "https://dc.lft.to/lastmile_qr_scan", "ios": "https://dc.lft.to/lastmile_qr_scan"}, "fusion_lon": 0.0}, {"lat": 38.94436783333333, "is_disabled": 0, "type": "electric_scooter", "lon": -77.0150755, "bike_id": "a19c8decf4abca783dc0096e94a356d4", "fusion_lat": 0.0, "name": "a19c8decf4abca783dc0096e94a356d4", "is_reserved": 0, "rental_uris": {"android": "https://dc.lft.to/lastmile_qr_scan", "ios": "https://dc.lft.to/lastmile_qr_scan"}, "fusion_lon": 0.0}, {"lat": 38.94098566666667, "is_disabled": 0, "type": "electric_scooter", "lon": -77.0211115, "bike_id": "bd6d9ed1253201a513ede4c11f670d75", "fusion_lat": 0.0, "name": "bd6d9ed1253201a513ede4c11f670d75", "is_reserved": 0, "rental_uris": {"android": "https://dc.lft.to/lastmile_qr_scan", "ios": "https://dc.lft.to/lastmile_qr_scan"}, "fusion_lon": 0.0}, {"lat": 38.91717533333333, "is_disabled": 0, "type": "electric_scooter", "lon": -77.02943783333333, "bike_id": "8a19fbd37bfd19322af773f5d19370c9", "fusion_lat": 0.0, "name": "8a19fbd37bfd19322af773f5d19370c9", "is_reserved": 0, "rental_uris": {"android": "https://dc.lft.to/lastmile_qr_scan", "ios": "https://dc.lft.to/lastmile_qr_scan"}, "fusion_lon": 0.0}, {"lat": 38.909588666666664, "is_disabled": 0, "type": "electric_scooter", "lon": -77.02377133333333, "bike_id": "1cd3bf79b9bb6f4776325830e577aa1a", "fusion_lat": 0.0, "name": "1cd3bf79b9bb6f4776325830e577aa1a", "is_reserved": 0, "rental_uris": {"android": "https://dc.lft.to/lastmile_qr_scan", "ios": "https://dc.lft.to/lastmile_qr_scan"}, "fusion_lon": 0.0}, {"lat": 38.908329333333334, "is_disabled": 0, "type": "electric_scooter", "lon": -77.03841, "bike_id": "33f2f5eeca6c0d97c2f0217fe0fcb1fc", "fusion_lat": 0.0, "name": "33f2f5eeca6c0d97c2f0217fe0fcb1fc", "is_reserved": 0, "rental_uris": {"android": "https://dc.lft.to/lastmile_qr_scan", "ios": "https://dc.lft.to/lastmile_qr_scan"}, "fusion_lon": 0.0}, {"lat": 38.85511, "is_disabled": 0, "type": "electric_bike", "lon": -77.1201455, "bike_id": "ba76b3354e36ae6c60af91269d5ad7ea", "fusion_lat": 0.0, "name": "ba76b3354e36ae6c60af91269d5ad7ea", "is_reserved": 0, "rental_uris": {"android": "https://dc.lft.to/lastmile_qr_scan", "ios": "https://dc.lft.to/lastmile_qr_scan"}, "fusion_lon": 0.0}, {"lat": 38.90252866666667, "is_disabled": 0, "type": "electric_scooter", "lon": -77.03973016666667, "bike_id": "c09e5d44b30340b556d605b84296c2d8", "fusion_lat": 0.0, "name": "c09e5d44b30340b556d605b84296c2d8", "is_reserved": 0, "rental_uris": {"android": "https://dc.lft.to/lastmile_qr_scan", "ios": "https://dc.lft.to/lastmile_qr_scan"}, "fusion_lon": 0.0}, {"lat": 38.90207066666667, "is_disabled": 0, "type": "electric_scooter", "lon": -77.02674583333334, "bike_id": "a1a164608b6cfc828dcfcf25b73084ea", "fusion_lat": 0.0, "name": "a1a164608b6cfc828dcfcf25b73084ea", "is_reserved": 0, "rental_uris": {"android": "https://dc.lft.to/lastmile_qr_scan", "ios": "https://dc.lft.to/lastmile_qr_scan"}, "fusion_lon": 0.0}, {"lat": 38.9310505, "is_disabled": 0, "type": "electric_bike", "lon": -77.02728733333333, "bike_id": "c3d05eaddfefe18da28be2f2baef560f", "fusion_lat": 0.0, "name": "c3d05eaddfefe18da28be2f2baef560f", "is_reserved": 0, "rental_uris": {"android": "https://dc.lft.to/lastmile_qr_scan", "ios": "https://dc.lft.to/lastmile_qr_scan"}, "fusion_lon": 0.0}, {"lat": 38.870759, "is_disabled": 0, "type": "electric_bike", "lon": -76.978288, "bike_id": "8f3ec5d23d51c79e2756b3842ed0fb1c", "fusion_lat": 0.0, "name": "8f3ec5d23d51c79e2756b3842ed0fb1c", "is_reserved": 0, "rental_uris": {"android": "https://dc.lft.to/lastmile_qr_scan", "ios": "https://dc.lft.to/lastmile_qr_scan"}, "fusion_lon": 0.0}, {"lat": 38.89040833333333, "is_disabled": 0, "type": "electric_scooter", "lon": -76.93751616666667, "bike_id": "0f8a992bc63fe7dff785840012a1e6f4", "fusion_lat": 0.0, "name": "0f8a992bc63fe7dff785840012a1e6f4", "is_reserved": 0, "rental_uris": {"android": "https://dc.lft.to/lastmile_qr_scan", "ios": "https://dc.lft.to/lastmile_qr_scan"}, "fusion_lon": 0.0}, {"lat": 38.928723166666664, "is_disabled": 0, "type": "electric_scooter", "lon": -77.03713166666667, "bike_id": "70684f2f5009e40711b38b89df0e5fe6", "fusion_lat": 0.0, "name": "70684f2f5009e40711b38b89df0e5fe6", "is_reserved": 0, "rental_uris": {"android": "https://dc.lft.to/lastmile_qr_scan", "ios": "https://dc.lft.to/lastmile_qr_scan"}, "fusion_lon": 0.0}, {"lat": 38.932967, "is_disabled": 0, "type": "electric_scooter", "lon": -77.04532316666666, "bike_id": "5197cddf418f8763e770867b904d19a3", "fusion_lat": 0.0, "name": "5197cddf418f8763e770867b904d19a3", "is_reserved": 0, "rental_uris": {"android": "https://dc.lft.to/lastmile_qr_scan", "ios": "https://dc.lft.to/lastmile_qr_scan"}, "fusion_lon": 0.0}, {"lat": 38.91463733333333, "is_disabled": 0, "type": "electric_scooter", "lon": -77.01432066666666, "bike_id": "e45770aee3b367a9ef300cfdb3e19042", "fusion_lat": 0.0, "name": "e45770aee3b367a9ef300cfdb3e19042", "is_reserved": 0, "rental_uris": {"android": "https://dc.lft.to/lastmile_qr_scan", "ios": "https://dc.lft.to/lastmile_qr_scan"}, "fusion_lon": 0.0}, {"lat": 38.90041883333333, "is_disabled": 0, "type": "electric_scooter", "lon": -77.03311583333333, "bike_id": "a4f2d44e7079054aa40f83d00574708e", "fusion_lat": 0.0, "name": "a4f2d44e7079054aa40f83d00574708e", "is_reserved": 0, "rental_uris": {"android": "https://dc.lft.to/lastmile_qr_scan", "ios": "https://dc.lft.to/lastmile_qr_scan"}, "fusion_lon": 0.0}, {"lat": 38.9145125, "is_disabled": 0, "type": "electric_bike", "lon": -76.9726515, "bike_id": "d46314459486dc9dcc0dc44569b4ed4c", "fusion_lat": 0.0, "name": "d46314459486dc9dcc0dc44569b4ed4c", "is_reserved": 0, "rental_uris": {"android": "https://dc.lft.to/lastmile_qr_scan", "ios": "https://dc.lft.to/lastmile_qr_scan"}, "fusion_lon": 0.0}, {"lat": 38.88206616666667, "is_disabled": 0, "type": "electric_scooter", "lon": -76.989253, "bike_id": "7aabf2791ec62ff75317f811fe3796a8", "fusion_lat": 0.0, "name": "7aabf2791ec62ff75317f811fe3796a8", "is_reserved": 0, "rental_uris": {"android": "https://dc.lft.to/lastmile_qr_scan", "ios": "https://dc.lft.to/lastmile_qr_scan"}, "fusion_lon": 0.0}, {"lat": 38.90249433333334, "is_disabled": 0, "type": "electric_scooter", "lon": -77.01764116666666, "bike_id": "fc8b753c2f876fd878438d6dfd0ef42f", "fusion_lat": 0.0, "name": "fc8b753c2f876fd878438d6dfd0ef42f", "is_reserved": 0, "rental_uris": {"android": "https://dc.lft.to/lastmile_qr_scan", "ios": "https://dc.lft.to/lastmile_qr_scan"}, "fusion_lon": 0.0}, {"lat": 38.892228, "is_disabled": 0, "type": "electric_scooter", "lon": -77.0221015, "bike_id": "35dc9da0e30fe4fc1704699990483111", "fusion_lat": 0.0, "name": "35dc9da0e30fe4fc1704699990483111", "is_reserved": 0, "rental_uris": {"android": "https://dc.lft.to/lastmile_qr_scan", "ios": "https://dc.lft.to/lastmile_qr_scan"}, "fusion_lon": 0.0}, {"lat": 38.87867116666666, "is_disabled": 0, "type": "electric_scooter", "lon": -77.01771183333334, "bike_id": "9de99463a6bcf232b90926b48a4cf7e6", "fusion_lat": 0.0, "name": "9de99463a6bcf232b90926b48a4cf7e6", "is_reserved": 0, "rental_uris": {"android": "https://dc.lft.to/lastmile_qr_scan", "ios": "https://dc.lft.to/lastmile_qr_scan"}, "fusion_lon": 0.0}, {"lat": 38.9168505, "is_disabled": 0, "type": "electric_scooter", "lon": -77.0019615, "bike_id": "a6e5924707d4db84209d329e9b7247aa", "fusion_lat": 0.0, "name": "a6e5924707d4db84209d329e9b7247aa", "is_reserved": 0, "rental_uris": {"android": "https://dc.lft.to/lastmile_qr_scan", "ios": "https://dc.lft.to/lastmile_qr_scan"}, "fusion_lon": 0.0}, {"lat": 38.95888816666667, "is_disabled": 0, "type": "electric_bike", "lon": -76.92484383333333, "bike_id": "8642e7cdb0a413485875bfd9adbf292c", "fusion_lat": 0.0, "name": "8642e7cdb0a413485875bfd9adbf292c", "is_reserved": 0, "rental_uris": {"android": "https://dc.lft.to/lastmile_qr_scan", "ios": "https://dc.lft.to/lastmile_qr_scan"}, "fusion_lon": 0.0}, {"lat": 38.96501633333333, "is_disabled": 0, "type": "electric_bike", "lon": -77.02821666666667, "bike_id": "1a268271b1cbe981b2e68b09e3d77b35", "fusion_lat": 0.0, "name": "1a268271b1cbe981b2e68b09e3d77b35", "is_reserved": 0, "rental_uris": {"android": "https://dc.lft.to/lastmile_qr_scan", "ios": "https://dc.lft.to/lastmile_qr_scan"}, "fusion_lon": 0.0}, {"lat": 38.920664, "is_disabled": 0, "type": "electric_scooter", "lon": -77.07889033333333, "bike_id": "0548c9f26d3fbf062e392b1f1fb37dd0", "fusion_lat": 0.0, "name": "0548c9f26d3fbf062e392b1f1fb37dd0", "is_reserved": 0, "rental_uris": {"android": "https://dc.lft.to/lastmile_qr_scan", "ios": "https://dc.lft.to/lastmile_qr_scan"}, "fusion_lon": 0.0}, {"lat": 38.93412433333334, "is_disabled": 0, "type": "electric_scooter", "lon": -77.03289866666667, "bike_id": "179c920c7531bfc3708a0321fdd08987", "fusion_lat": 0.0, "name": "179c920c7531bfc3708a0321fdd08987", "is_reserved": 0, "rental_uris": {"android": "https://dc.lft.to/lastmile_qr_scan", "ios": "https://dc.lft.to/lastmile_qr_scan"}, "fusion_lon": 0.0}, {"lat": 38.883632166666665, "is_disabled": 0, "type": "electric_scooter", "lon": -76.94153616666667, "bike_id": "cfde99c4955a204b86c0c1251181659e", "fusion_lat": 0.0, "name": "cfde99c4955a204b86c0c1251181659e", "is_reserved": 0, "rental_uris": {"android": "https://dc.lft.to/lastmile_qr_scan", "ios": "https://dc.lft.to/lastmile_qr_scan"}, "fusion_lon": 0.0}, {"lat": 38.92532933333333, "is_disabled": 0, "type": "electric_scooter", "lon": -77.02635383333333, "bike_id": "87cfb724ce2e4ca5c0fd03b6509cc26c", "fusion_lat": 0.0, "name": "87cfb724ce2e4ca5c0fd03b6509cc26c", "is_reserved": 0, "rental_uris": {"android": "https://dc.lft.to/lastmile_qr_scan", "ios": "https://dc.lft.to/lastmile_qr_scan"}, "fusion_lon": 0.0}, {"lat": 38.909812, "is_disabled": 0, "type": "electric_scooter", "lon": -77.03178316666667, "bike_id": "f9ad1bdb08ffe74d692c787f3bdce80d", "fusion_lat": 0.0, "name": "f9ad1bdb08ffe74d692c787f3bdce80d", "is_reserved": 0, "rental_uris": {"android": "https://dc.lft.to/lastmile_qr_scan", "ios": "https://dc.lft.to/lastmile_qr_scan"}, "fusion_lon": 0.0}, {"lat": 38.93605683333333, "is_disabled": 0, "type": "electric_scooter", "lon": -77.05860466666667, "bike_id": "203be3094d2f5d15cf4c70e05fa44b73", "fusion_lat": 0.0, "name": "203be3094d2f5d15cf4c70e05fa44b73", "is_reserved": 0, "rental_uris": {"android": "https://dc.lft.to/lastmile_qr_scan", "ios": "https://dc.lft.to/lastmile_qr_scan"}, "fusion_lon": 0.0}, {"lat": 38.9206095, "is_disabled": 0, "type": "electric_scooter", "lon": -77.03176883333333, "bike_id": "6ac884277e8d71fe20d42c87b16fde4d", "fusion_lat": 0.0, "name": "6ac884277e8d71fe20d42c87b16fde4d", "is_reserved": 0, "rental_uris": {"android": "https://dc.lft.to/lastmile_qr_scan", "ios": "https://dc.lft.to/lastmile_qr_scan"}, "fusion_lon": 0.0}, {"lat": 38.93068366666667, "is_disabled": 0, "type": "electric_scooter", "lon": -77.04033183333334, "bike_id": "550009de8439a53d7906fae8892ada65", "fusion_lat": 0.0, "name": "550009de8439a53d7906fae8892ada65", "is_reserved": 0, "rental_uris": {"android": "https://dc.lft.to/lastmile_qr_scan", "ios": "https://dc.lft.to/lastmile_qr_scan"}, "fusion_lon": 0.0}, {"lat": 38.927763, "is_disabled": 0, "type": "electric_scooter", "lon": -77.0278395, "bike_id": "d16d73e48675af003b695eb6b329d816", "fusion_lat": 0.0, "name": "d16d73e48675af003b695eb6b329d816", "is_reserved": 0, "rental_uris": {"android": "https://dc.lft.to/lastmile_qr_scan", "ios": "https://dc.lft.to/lastmile_qr_scan"}, "fusion_lon": 0.0}, {"lat": 38.918461, "is_disabled": 0, "type": "electric_scooter", "lon": -76.9654845, "bike_id": "40cc7e8a41fbb12bd869cf1ceb2df4ca", "fusion_lat": 0.0, "name": "40cc7e8a41fbb12bd869cf1ceb2df4ca", "is_reserved": 0, "rental_uris": {"android": "https://dc.lft.to/lastmile_qr_scan", "ios": "https://dc.lft.to/lastmile_qr_scan"}, "fusion_lon": 0.0}, {"lat": 38.928541833333334, "is_disabled": 0, "type": "electric_scooter", "lon": -77.03660883333333, "bike_id": "30b59b10e6d66c54235df97e1999ab94", "fusion_lat": 0.0, "name": "30b59b10e6d66c54235df97e1999ab94", "is_reserved": 0, "rental_uris": {"android": "https://dc.lft.to/lastmile_qr_scan", "ios": "https://dc.lft.to/lastmile_qr_scan"}, "fusion_lon": 0.0}, {"lat": 38.90133683333333, "is_disabled": 0, "type": "electric_scooter", "lon": -77.04179433333333, "bike_id": "5387890cfd2aa945aa75fc4c05979d99", "fusion_lat": 0.0, "name": "5387890cfd2aa945aa75fc4c05979d99", "is_reserved": 0, "rental_uris": {"android": "https://dc.lft.to/lastmile_qr_scan", "ios": "https://dc.lft.to/lastmile_qr_scan"}, "fusion_lon": 0.0}, {"lat": 38.91757116666667, "is_disabled": 0, "type": "electric_scooter", "lon": -77.02295983333333, "bike_id": "8dbdeb4aa31569176b3b76d6e88e04a1", "fusion_lat": 0.0, "name": "8dbdeb4aa31569176b3b76d6e88e04a1", "is_reserved": 0, "rental_uris": {"android": "https://dc.lft.to/lastmile_qr_scan", "ios": "https://dc.lft.to/lastmile_qr_scan"}, "fusion_lon": 0.0}, {"lat": 38.89764366666667, "is_disabled": 0, "type": "electric_scooter", "lon": -77.02694733333334, "bike_id": "b254c4cfbd63d31890038101e0a44109", "fusion_lat": 0.0, "name": "b254c4cfbd63d31890038101e0a44109", "is_reserved": 0, "rental_uris": {"android": "https://dc.lft.to/lastmile_qr_scan", "ios": "https://dc.lft.to/lastmile_qr_scan"}, "fusion_lon": 0.0}, {"lat": 38.90702866666667, "is_disabled": 0, "type": "electric_scooter", "lon": -76.9869975, "bike_id": "18cb71321d6a8d6093d74a0613d2868c", "fusion_lat": 0.0, "name": "18cb71321d6a8d6093d74a0613d2868c", "is_reserved": 0, "rental_uris": {"android": "https://dc.lft.to/lastmile_qr_scan", "ios": "https://dc.lft.to/lastmile_qr_scan"}, "fusion_lon": 0.0}, {"lat": 38.94630466666667, "is_disabled": 0, "type": "electric_scooter", "lon": -77.01845366666667, "bike_id": "250dbd1f61de832f4515c3a50ffb99be", "fusion_lat": 0.0, "name": "250dbd1f61de832f4515c3a50ffb99be", "is_reserved": 0, "rental_uris": {"android": "https://dc.lft.to/lastmile_qr_scan", "ios": "https://dc.lft.to/lastmile_qr_scan"}, "fusion_lon": 0.0}, {"lat": 38.90966266666667, "is_disabled": 0, "type": "electric_scooter", "lon": -77.03839466666666, "bike_id": "e803cef8fc9f5f4404b23b30cc1711c8", "fusion_lat": 0.0, "name": "e803cef8fc9f5f4404b23b30cc1711c8", "is_reserved": 0, "rental_uris": {"android": "https://dc.lft.to/lastmile_qr_scan", "ios": "https://dc.lft.to/lastmile_qr_scan"}, "fusion_lon": 0.0}, {"lat": 38.90916583333333, "is_disabled": 0, "type": "electric_scooter", "lon": -77.08027666666666, "bike_id": "d50aea541b848d6a0531b04a198b8786", "fusion_lat": 0.0, "name": "d50aea541b848d6a0531b04a198b8786", "is_reserved": 0, "rental_uris": {"android": "https://dc.lft.to/lastmile_qr_scan", "ios": "https://dc.lft.to/lastmile_qr_scan"}, "fusion_lon": 0.0}, {"lat": 38.95186616666667, "is_disabled": 0, "type": "electric_bike", "lon": -76.93547483333333, "bike_id": "01a09278864a47ff9fa975963ddbc485", "fusion_lat": 0.0, "name": "01a09278864a47ff9fa975963ddbc485", "is_reserved": 0, "rental_uris": {"android": "https://dc.lft.to/lastmile_qr_scan", "ios": "https://dc.lft.to/lastmile_qr_scan"}, "fusion_lon": 0.0}, {"lat": 38.867473333333336, "is_disabled": 0, "type": "electric_scooter", "lon": -76.97661866666667, "bike_id": "29e380dd63f91b1bea87ff661c4d16f0", "fusion_lat": 0.0, "name": "29e380dd63f91b1bea87ff661c4d16f0", "is_reserved": 0, "rental_uris": {"android": "https://dc.lft.to/lastmile_qr_scan", "ios": "https://dc.lft.to/lastmile_qr_scan"}, "fusion_lon": 0.0}, {"lat": 38.919905, "is_disabled": 0, "type": "electric_scooter", "lon": -77.03954766666666, "bike_id": "1d034322d8bb5ad7a4025062d2b9b389", "fusion_lat": 0.0, "name": "1d034322d8bb5ad7a4025062d2b9b389", "is_reserved": 0, "rental_uris": {"android": "https://dc.lft.to/lastmile_qr_scan", "ios": "https://dc.lft.to/lastmile_qr_scan"}, "fusion_lon": 0.0}, {"lat": 38.8773265, "is_disabled": 0, "type": "electric_bike", "lon": -77.11849566666666, "bike_id": "44a277e6f68c646ddfb0c2b35e99df5d", "fusion_lat": 0.0, "name": "44a277e6f68c646ddfb0c2b35e99df5d", "is_reserved": 0, "rental_uris": {"android": "https://dc.lft.to/lastmile_qr_scan", "ios": "https://dc.lft.to/lastmile_qr_scan"}, "fusion_lon": 0.0}, {"lat": 38.91052966666667, "is_disabled": 0, "type": "electric_scooter", "lon": -77.05582216666667, "bike_id": "761827de38c10eefae05b2a52387807e", "fusion_lat": 0.0, "name": "761827de38c10eefae05b2a52387807e", "is_reserved": 0, "rental_uris": {"android": "https://dc.lft.to/lastmile_qr_scan", "ios": "https://dc.lft.to/lastmile_qr_scan"}, "fusion_lon": 0.0}, {"lat": 38.901011833333335, "is_disabled": 0, "type": "electric_scooter", "lon": -76.98488416666666, "bike_id": "96b703f7720d1e96b2eedf1aaa7afb00", "fusion_lat": 0.0, "name": "96b703f7720d1e96b2eedf1aaa7afb00", "is_reserved": 0, "rental_uris": {"android": "https://dc.lft.to/lastmile_qr_scan", "ios": "https://dc.lft.to/lastmile_qr_scan"}, "fusion_lon": 0.0}, {"lat": 38.908637666666664, "is_disabled": 0, "type": "electric_scooter", "lon": -77.045876, "bike_id": "6e9e893fe5aac393a0065ab9a0ea4c89", "fusion_lat": 0.0, "name": "6e9e893fe5aac393a0065ab9a0ea4c89", "is_reserved": 0, "rental_uris": {"android": "https://dc.lft.to/lastmile_qr_scan", "ios": "https://dc.lft.to/lastmile_qr_scan"}, "fusion_lon": 0.0}, {"lat": 38.90829816666667, "is_disabled": 0, "type": "electric_scooter", "lon": -77.017951, "bike_id": "e759b468a8cb8c0aa2a93e1de7af0fd9", "fusion_lat": 0.0, "name": "e759b468a8cb8c0aa2a93e1de7af0fd9", "is_reserved": 0, "rental_uris": {"android": "https://dc.lft.to/lastmile_qr_scan", "ios": "https://dc.lft.to/lastmile_qr_scan"}, "fusion_lon": 0.0}, {"lat": 38.9179795, "is_disabled": 0, "type": "electric_scooter", "lon": -77.03172266666667, "bike_id": "d329e8d37991f7d600e2ae8d66d8009c", "fusion_lat": 0.0, "name": "d329e8d37991f7d600e2ae8d66d8009c", "is_reserved": 0, "rental_uris": {"android": "https://dc.lft.to/lastmile_qr_scan", "ios": "https://dc.lft.to/lastmile_qr_scan"}, "fusion_lon": 0.0}, {"lat": 38.83673016666667, "is_disabled": 0, "type": "electric_scooter", "lon": -77.00568833333334, "bike_id": "97bde2cd9267e774404f92abe690b051", "fusion_lat": 0.0, "name": "97bde2cd9267e774404f92abe690b051", "is_reserved": 0, "rental_uris": {"android": "https://dc.lft.to/lastmile_qr_scan", "ios": "https://dc.lft.to/lastmile_qr_scan"}, "fusion_lon": 0.0}, {"lat": 38.91556333333333, "is_disabled": 0, "type": "electric_scooter", "lon": -77.02048066666667, "bike_id": "67bb088eff3640b15e7bad4537456cdc", "fusion_lat": 0.0, "name": "67bb088eff3640b15e7bad4537456cdc", "is_reserved": 0, "rental_uris": {"android": "https://dc.lft.to/lastmile_qr_scan", "ios": "https://dc.lft.to/lastmile_qr_scan"}, "fusion_lon": 0.0}, {"lat": 38.912599166666666, "is_disabled": 0, "type": "electric_scooter", "lon": -77.02211566666666, "bike_id": "1f524d2c5cfb5a375525f03f39771d9c", "fusion_lat": 0.0, "name": "1f524d2c5cfb5a375525f03f39771d9c", "is_reserved": 0, "rental_uris": {"android": "https://dc.lft.to/lastmile_qr_scan", "ios": "https://dc.lft.to/lastmile_qr_scan"}, "fusion_lon": 0.0}, {"lat": 38.900491, "is_disabled": 0, "type": "electric_scooter", "lon": -77.00231383333333, "bike_id": "e894aa65ccedc659e9fb2f89ccdc4885", "fusion_lat": 0.0, "name": "e894aa65ccedc659e9fb2f89ccdc4885", "is_reserved": 0, "rental_uris": {"android": "https://dc.lft.to/lastmile_qr_scan", "ios": "https://dc.lft.to/lastmile_qr_scan"}, "fusion_lon": 0.0}, {"lat": 38.905786, "is_disabled": 0, "type": "electric_scooter", "lon": -77.02969083333333, "bike_id": "ef48efdf348b8e9b47921ae17ad27edf", "fusion_lat": 0.0, "name": "ef48efdf348b8e9b47921ae17ad27edf", "is_reserved": 0, "rental_uris": {"android": "https://dc.lft.to/lastmile_qr_scan", "ios": "https://dc.lft.to/lastmile_qr_scan"}, "fusion_lon": 0.0}, {"lat": 38.9436285, "is_disabled": 0, "type": "electric_bike", "lon": -76.96784016666666, "bike_id": "9f556beb708279275b175073685c4346", "fusion_lat": 0.0, "name": "9f556beb708279275b175073685c4346", "is_reserved": 0, "rental_uris": {"android": "https://dc.lft.to/lastmile_qr_scan", "ios": "https://dc.lft.to/lastmile_qr_scan"}, "fusion_lon": 0.0}, {"lat": 38.90849883333333, "is_disabled": 0, "type": "electric_scooter", "lon": -76.99961333333333, "bike_id": "0d613c95f5170a1fe545c6f49606f40d", "fusion_lat": 0.0, "name": "0d613c95f5170a1fe545c6f49606f40d", "is_reserved": 0, "rental_uris": {"android": "https://dc.lft.to/lastmile_qr_scan", "ios": "https://dc.lft.to/lastmile_qr_scan"}, "fusion_lon": 0.0}, {"lat": 38.904226333333334, "is_disabled": 0, "type": "electric_scooter", "lon": -77.04060166666666, "bike_id": "01f8f26b88acee5ac0a384f114473c55", "fusion_lat": 0.0, "name": "01f8f26b88acee5ac0a384f114473c55", "is_reserved": 0, "rental_uris": {"android": "https://dc.lft.to/lastmile_qr_scan", "ios": "https://dc.lft.to/lastmile_qr_scan"}, "fusion_lon": 0.0}, {"lat": 38.8851365, "is_disabled": 0, "type": "electric_scooter", "lon": -77.00680116666666, "bike_id": "8ba8b949fb1d7e1d56343663cb0cbb4a", "fusion_lat": 0.0, "name": "8ba8b949fb1d7e1d56343663cb0cbb4a", "is_reserved": 0, "rental_uris": {"android": "https://dc.lft.to/lastmile_qr_scan", "ios": "https://dc.lft.to/lastmile_qr_scan"}, "fusion_lon": 0.0}, {"lat": 38.913438, "is_disabled": 0, "type": "electric_scooter", "lon": -77.04886533333334, "bike_id": "a1e8d0466fc91ca24cc309d721c7725a", "fusion_lat": 0.0, "name": "a1e8d0466fc91ca24cc309d721c7725a", "is_reserved": 0, "rental_uris": {"android": "https://dc.lft.to/lastmile_qr_scan", "ios": "https://dc.lft.to/lastmile_qr_scan"}, "fusion_lon": 0.0}, {"lat": 38.9079415, "is_disabled": 0, "type": "electric_scooter", "lon": -77.03797016666667, "bike_id": "20563981826b47ef91110f9a38415d54", "fusion_lat": 0.0, "name": "20563981826b47ef91110f9a38415d54", "is_reserved": 0, "rental_uris": {"android": "https://dc.lft.to/lastmile_qr_scan", "ios": "https://dc.lft.to/lastmile_qr_scan"}, "fusion_lon": 0.0}, {"lat": 39.0305145, "is_disabled": 0, "type": "electric_bike", "lon": -77.09487916666667, "bike_id": "3531e102cbed53e7159315f31e95d198", "fusion_lat": 0.0, "name": "3531e102cbed53e7159315f31e95d198", "is_reserved": 0, "rental_uris": {"android": "https://dc.lft.to/lastmile_qr_scan", "ios": "https://dc.lft.to/lastmile_qr_scan"}, "fusion_lon": 0.0}, {"lat": 38.92747583333333, "is_disabled": 0, "type": "electric_scooter", "lon": -76.99726116666666, "bike_id": "a64c7b3c400cd66d73ca8feb3670f6f2", "fusion_lat": 0.0, "name": "a64c7b3c400cd66d73ca8feb3670f6f2", "is_reserved": 0, "rental_uris": {"android": "https://dc.lft.to/lastmile_qr_scan", "ios": "https://dc.lft.to/lastmile_qr_scan"}, "fusion_lon": 0.0}, {"lat": 38.863623, "is_disabled": 0, "type": "electric_scooter", "lon": -76.99041366666667, "bike_id": "1ad3709fd63849252bcad70352a7ddff", "fusion_lat": 0.0, "name": "1ad3709fd63849252bcad70352a7ddff", "is_reserved": 0, "rental_uris": {"android": "https://dc.lft.to/lastmile_qr_scan", "ios": "https://dc.lft.to/lastmile_qr_scan"}, "fusion_lon": 0.0}, {"lat": 38.913132833333336, "is_disabled": 0, "type": "electric_scooter", "lon": -77.04157016666667, "bike_id": "bfece75f52d72df82052850b4f31eb57", "fusion_lat": 0.0, "name": "bfece75f52d72df82052850b4f31eb57", "is_reserved": 0, "rental_uris": {"android": "https://dc.lft.to/lastmile_qr_scan", "ios": "https://dc.lft.to/lastmile_qr_scan"}, "fusion_lon": 0.0}, {"lat": 38.90501316666667, "is_disabled": 0, "type": "electric_scooter", "lon": -77.0628095, "bike_id": "9e5de0952cc918b034745e91a447cb67", "fusion_lat": 0.0, "name": "9e5de0952cc918b034745e91a447cb67", "is_reserved": 0, "rental_uris": {"android": "https://dc.lft.to/lastmile_qr_scan", "ios": "https://dc.lft.to/lastmile_qr_scan"}, "fusion_lon": 0.0}, {"lat": 38.87573366666667, "is_disabled": 0, "type": "electric_scooter", "lon": -77.02081033333333, "bike_id": "4ee51a07678994d24a19278b58efcca8", "fusion_lat": 0.0, "name": "4ee51a07678994d24a19278b58efcca8", "is_reserved": 0, "rental_uris": {"android": "https://dc.lft.to/lastmile_qr_scan", "ios": "https://dc.lft.to/lastmile_qr_scan"}, "fusion_lon": 0.0}, {"lat": 38.90380283333333, "is_disabled": 0, "type": "electric_scooter", "lon": -77.0292895, "bike_id": "76eb405365273c168ae34c8792746a84", "fusion_lat": 0.0, "name": "76eb405365273c168ae34c8792746a84", "is_reserved": 0, "rental_uris": {"android": "https://dc.lft.to/lastmile_qr_scan", "ios": "https://dc.lft.to/lastmile_qr_scan"}, "fusion_lon": 0.0}, {"lat": 38.91929366666667, "is_disabled": 0, "type": "electric_scooter", "lon": -77.0317835, "bike_id": "24aaa9721e6848dcc1ddde6386acc91b", "fusion_lat": 0.0, "name": "24aaa9721e6848dcc1ddde6386acc91b", "is_reserved": 0, "rental_uris": {"android": "https://dc.lft.to/lastmile_qr_scan", "ios": "https://dc.lft.to/lastmile_qr_scan"}, "fusion_lon": 0.0}, {"lat": 38.909731666666666, "is_disabled": 0, "type": "electric_scooter", "lon": -77.03936166666666, "bike_id": "757077f3973a39f60304eeaf76ec5bab", "fusion_lat": 0.0, "name": "757077f3973a39f60304eeaf76ec5bab", "is_reserved": 0, "rental_uris": {"android": "https://dc.lft.to/lastmile_qr_scan", "ios": "https://dc.lft.to/lastmile_qr_scan"}, "fusion_lon": 0.0}, {"lat": 38.837280166666666, "is_disabled": 0, "type": "electric_bike", "lon": -76.997586, "bike_id": "abd623495307eeb386c83726cc232373", "fusion_lat": 0.0, "name": "abd623495307eeb386c83726cc232373", "is_reserved": 0, "rental_uris": {"android": "https://dc.lft.to/lastmile_qr_scan", "ios": "https://dc.lft.to/lastmile_qr_scan"}, "fusion_lon": 0.0}, {"lat": 38.895503, "is_disabled": 0, "type": "electric_scooter", "lon": -77.00437733333334, "bike_id": "724aa9cf0326bc81d42cede04e97629f", "fusion_lat": 0.0, "name": "724aa9cf0326bc81d42cede04e97629f", "is_reserved": 0, "rental_uris": {"android": "https://dc.lft.to/lastmile_qr_scan", "ios": "https://dc.lft.to/lastmile_qr_scan"}, "fusion_lon": 0.0}, {"lat": 38.9353785, "is_disabled": 0, "type": "electric_scooter", "lon": -77.02344933333333, "bike_id": "0ee75b165d13f5c4785cb549c96a3444", "fusion_lat": 0.0, "name": "0ee75b165d13f5c4785cb549c96a3444", "is_reserved": 0, "rental_uris": {"android": "https://dc.lft.to/lastmile_qr_scan", "ios": "https://dc.lft.to/lastmile_qr_scan"}, "fusion_lon": 0.0}, {"lat": 38.902712, "is_disabled": 0, "type": "electric_scooter", "lon": -77.0034505, "bike_id": "7af0d64c8453878116c556d55d529e00", "fusion_lat": 0.0, "name": "7af0d64c8453878116c556d55d529e00", "is_reserved": 0, "rental_uris": {"android": "https://dc.lft.to/lastmile_qr_scan", "ios": "https://dc.lft.to/lastmile_qr_scan"}, "fusion_lon": 0.0}, {"lat": 38.865084, "is_disabled": 0, "type": "electric_scooter", "lon": -76.99007883333333, "bike_id": "fba79ec52229dd8c7639bc64407164dd", "fusion_lat": 0.0, "name": "fba79ec52229dd8c7639bc64407164dd", "is_reserved": 0, "rental_uris": {"android": "https://dc.lft.to/lastmile_qr_scan", "ios": "https://dc.lft.to/lastmile_qr_scan"}, "fusion_lon": 0.0}, {"lat": 38.916618, "is_disabled": 0, "type": "electric_scooter", "lon": -77.04731116666666, "bike_id": "4059e948bab43fa95299243663e68fd3", "fusion_lat": 0.0, "name": "4059e948bab43fa95299243663e68fd3", "is_reserved": 0, "rental_uris": {"android": "https://dc.lft.to/lastmile_qr_scan", "ios": "https://dc.lft.to/lastmile_qr_scan"}, "fusion_lon": 0.0}, {"lat": 38.929350666666664, "is_disabled": 0, "type": "electric_scooter", "lon": -77.03750433333333, "bike_id": "d311ee378cbab7245e449dbc5d80418e", "fusion_lat": 0.0, "name": "d311ee378cbab7245e449dbc5d80418e", "is_reserved": 0, "rental_uris": {"android": "https://dc.lft.to/lastmile_qr_scan", "ios": "https://dc.lft.to/lastmile_qr_scan"}, "fusion_lon": 0.0}, {"lat": 38.899711, "is_disabled": 0, "type": "electric_scooter", "lon": -77.0206715, "bike_id": "155b3229d74ea662b493cc4bfccfae8b", "fusion_lat": 0.0, "name": "155b3229d74ea662b493cc4bfccfae8b", "is_reserved": 0, "rental_uris": {"android": "https://dc.lft.to/lastmile_qr_scan", "ios": "https://dc.lft.to/lastmile_qr_scan"}, "fusion_lon": 0.0}, {"lat": 38.9177055, "is_disabled": 0, "type": "electric_scooter", "lon": -77.01879966666667, "bike_id": "9c83e465bd22d50788cf32c34a0747e8", "fusion_lat": 0.0, "name": "9c83e465bd22d50788cf32c34a0747e8", "is_reserved": 0, "rental_uris": {"android": "https://dc.lft.to/lastmile_qr_scan", "ios": "https://dc.lft.to/lastmile_qr_scan"}, "fusion_lon": 0.0}, {"lat": 38.91101583333333, "is_disabled": 0, "type": "electric_scooter", "lon": -77.04208233333334, "bike_id": "f390d30645d0b992071037da930e7027", "fusion_lat": 0.0, "name": "f390d30645d0b992071037da930e7027", "is_reserved": 0, "rental_uris": {"android": "https://dc.lft.to/lastmile_qr_scan", "ios": "https://dc.lft.to/lastmile_qr_scan"}, "fusion_lon": 0.0}, {"lat": 38.93645266666667, "is_disabled": 0, "type": "electric_scooter", "lon": -77.02046783333333, "bike_id": "ad1d5c78c7807a2ccfe40d65f81df812", "fusion_lat": 0.0, "name": "ad1d5c78c7807a2ccfe40d65f81df812", "is_reserved": 0, "rental_uris": {"android": "https://dc.lft.to/lastmile_qr_scan", "ios": "https://dc.lft.to/lastmile_qr_scan"}, "fusion_lon": 0.0}, {"lat": 38.85677033333333, "is_disabled": 0, "type": "electric_scooter", "lon": -76.98179266666666, "bike_id": "de25223a7c9eee641c51fad5a66aa9a1", "fusion_lat": 0.0, "name": "de25223a7c9eee641c51fad5a66aa9a1", "is_reserved": 0, "rental_uris": {"android": "https://dc.lft.to/lastmile_qr_scan", "ios": "https://dc.lft.to/lastmile_qr_scan"}, "fusion_lon": 0.0}, {"lat": 38.9180575, "is_disabled": 0, "type": "electric_scooter", "lon": -77.0416405, "bike_id": "aaeb2d9efb08e1841c9ec745b558184f", "fusion_lat": 0.0, "name": "aaeb2d9efb08e1841c9ec745b558184f", "is_reserved": 0, "rental_uris": {"android": "https://dc.lft.to/lastmile_qr_scan", "ios": "https://dc.lft.to/lastmile_qr_scan"}, "fusion_lon": 0.0}, {"lat": 38.917334333333336, "is_disabled": 0, "type": "electric_scooter", "lon": -77.03657183333333, "bike_id": "f9af2168e0e9a91043b53eddf467b987", "fusion_lat": 0.0, "name": "f9af2168e0e9a91043b53eddf467b987", "is_reserved": 0, "rental_uris": {"android": "https://dc.lft.to/lastmile_qr_scan", "ios": "https://dc.lft.to/lastmile_qr_scan"}, "fusion_lon": 0.0}, {"lat": 38.90555483333333, "is_disabled": 0, "type": "electric_scooter", "lon": -77.022028, "bike_id": "7caa2781eb207c42bd41e2e137ddcaf5", "fusion_lat": 0.0, "name": "7caa2781eb207c42bd41e2e137ddcaf5", "is_reserved": 0, "rental_uris": {"android": "https://dc.lft.to/lastmile_qr_scan", "ios": "https://dc.lft.to/lastmile_qr_scan"}, "fusion_lon": 0.0}, {"lat": 38.936894833333334, "is_disabled": 0, "type": "electric_bike", "lon": -77.05647783333333, "bike_id": "242750550971187815e589991b2a3aa3", "fusion_lat": 0.0, "name": "242750550971187815e589991b2a3aa3", "is_reserved": 0, "rental_uris": {"android": "https://dc.lft.to/lastmile_qr_scan", "ios": "https://dc.lft.to/lastmile_qr_scan"}, "fusion_lon": 0.0}, {"lat": 38.92251616666667, "is_disabled": 0, "type": "electric_scooter", "lon": -77.03462916666666, "bike_id": "da8fa336f68cef69b63fbfe7458656e5", "fusion_lat": 0.0, "name": "da8fa336f68cef69b63fbfe7458656e5", "is_reserved": 0, "rental_uris": {"android": "https://dc.lft.to/lastmile_qr_scan", "ios": "https://dc.lft.to/lastmile_qr_scan"}, "fusion_lon": 0.0}, {"lat": 38.981327, "is_disabled": 0, "type": "electric_bike", "lon": -77.007631, "bike_id": "6415dddaacfc1e530755acbcd7c4d8ba", "fusion_lat": 0.0, "name": "6415dddaacfc1e530755acbcd7c4d8ba", "is_reserved": 0, "rental_uris": {"android": "https://dc.lft.to/lastmile_qr_scan", "ios": "https://dc.lft.to/lastmile_qr_scan"}, "fusion_lon": 0.0}, {"lat": 38.912421333333334, "is_disabled": 0, "type": "electric_scooter", "lon": -77.04761, "bike_id": "f0c8450c81dc1317afe453e2cf3cd5e0", "fusion_lat": 0.0, "name": "f0c8450c81dc1317afe453e2cf3cd5e0", "is_reserved": 0, "rental_uris": {"android": "https://dc.lft.to/lastmile_qr_scan", "ios": "https://dc.lft.to/lastmile_qr_scan"}, "fusion_lon": 0.0}, {"lat": 38.93512833333333, "is_disabled": 0, "type": "electric_scooter", "lon": -77.03349266666666, "bike_id": "dcc554a97c08c1aef4d6548d2c8235b6", "fusion_lat": 0.0, "name": "dcc554a97c08c1aef4d6548d2c8235b6", "is_reserved": 0, "rental_uris": {"android": "https://dc.lft.to/lastmile_qr_scan", "ios": "https://dc.lft.to/lastmile_qr_scan"}, "fusion_lon": 0.0}, {"lat": 38.90457133333334, "is_disabled": 0, "type": "electric_scooter", "lon": -77.062871, "bike_id": "ebeb69a33be415a04fc33398dabaa0bc", "fusion_lat": 0.0, "name": "ebeb69a33be415a04fc33398dabaa0bc", "is_reserved": 0, "rental_uris": {"android": "https://dc.lft.to/lastmile_qr_scan", "ios": "https://dc.lft.to/lastmile_qr_scan"}, "fusion_lon": 0.0}, {"lat": 38.9125755, "is_disabled": 0, "type": "electric_scooter", "lon": -77.03872583333333, "bike_id": "0887eff597703a19a3568a0e7166f944", "fusion_lat": 0.0, "name": "0887eff597703a19a3568a0e7166f944", "is_reserved": 0, "rental_uris": {"android": "https://dc.lft.to/lastmile_qr_scan", "ios": "https://dc.lft.to/lastmile_qr_scan"}, "fusion_lon": 0.0}, {"lat": 38.9277365, "is_disabled": 0, "type": "electric_scooter", "lon": -77.0261555, "bike_id": "2d2dc8df6d25358578014d276a224470", "fusion_lat": 0.0, "name": "2d2dc8df6d25358578014d276a224470", "is_reserved": 0, "rental_uris": {"android": "https://dc.lft.to/lastmile_qr_scan", "ios": "https://dc.lft.to/lastmile_qr_scan"}, "fusion_lon": 0.0}, {"lat": 38.922922, "is_disabled": 0, "type": "electric_scooter", "lon": -77.03192766666666, "bike_id": "ea65a52b10c16613c2b4adb6b74a617e", "fusion_lat": 0.0, "name": "ea65a52b10c16613c2b4adb6b74a617e", "is_reserved": 0, "rental_uris": {"android": "https://dc.lft.to/lastmile_qr_scan", "ios": "https://dc.lft.to/lastmile_qr_scan"}, "fusion_lon": 0.0}, {"lat": 38.86508233333333, "is_disabled": 0, "type": "electric_scooter", "lon": -76.99009883333333, "bike_id": "545fdf6024bc649cda897d6f458fbc0e", "fusion_lat": 0.0, "name": "545fdf6024bc649cda897d6f458fbc0e", "is_reserved": 0, "rental_uris": {"android": "https://dc.lft.to/lastmile_qr_scan", "ios": "https://dc.lft.to/lastmile_qr_scan"}, "fusion_lon": 0.0}, {"lat": 38.89220133333333, "is_disabled": 0, "type": "electric_scooter", "lon": -77.02222133333333, "bike_id": "853b3a9151c1e747a5268184bc94fc55", "fusion_lat": 0.0, "name": "853b3a9151c1e747a5268184bc94fc55", "is_reserved": 0, "rental_uris": {"android": "https://dc.lft.to/lastmile_qr_scan", "ios": "https://dc.lft.to/lastmile_qr_scan"}, "fusion_lon": 0.0}, {"lat": 38.87288383333333, "is_disabled": 0, "type": "electric_scooter", "lon": -77.009832, "bike_id": "85aab4b682190454be3cc05d9e9aa964", "fusion_lat": 0.0, "name": "85aab4b682190454be3cc05d9e9aa964", "is_reserved": 0, "rental_uris": {"android": "https://dc.lft.to/lastmile_qr_scan", "ios": "https://dc.lft.to/lastmile_qr_scan"}, "fusion_lon": 0.0}, {"lat": 38.880822333333334, "is_disabled": 0, "type": "electric_bike", "lon": -76.98535333333334, "bike_id": "1c5e30bdc312b582953e50d74b93ccd0", "fusion_lat": 0.0, "name": "1c5e30bdc312b582953e50d74b93ccd0", "is_reserved": 0, "rental_uris": {"android": "https://dc.lft.to/lastmile_qr_scan", "ios": "https://dc.lft.to/lastmile_qr_scan"}, "fusion_lon": 0.0}, {"lat": 38.903748, "is_disabled": 0, "type": "electric_scooter", "lon": -77.0426425, "bike_id": "710e22a316452ff947061bba40e027ef", "fusion_lat": 0.0, "name": "710e22a316452ff947061bba40e027ef", "is_reserved": 0, "rental_uris": {"android": "https://dc.lft.to/lastmile_qr_scan", "ios": "https://dc.lft.to/lastmile_qr_scan"}, "fusion_lon": 0.0}, {"lat": 38.90560716666667, "is_disabled": 0, "type": "electric_scooter", "lon": -76.99879466666667, "bike_id": "5190fe8d44f85b78bdfdd58d20c137ca", "fusion_lat": 0.0, "name": "5190fe8d44f85b78bdfdd58d20c137ca", "is_reserved": 0, "rental_uris": {"android": "https://dc.lft.to/lastmile_qr_scan", "ios": "https://dc.lft.to/lastmile_qr_scan"}, "fusion_lon": 0.0}, {"lat": 38.867108, "is_disabled": 0, "type": "electric_scooter", "lon": -76.987298, "bike_id": "ee6b38885b35720d67ee4e9ec6728112", "fusion_lat": 0.0, "name": "ee6b38885b35720d67ee4e9ec6728112", "is_reserved": 0, "rental_uris": {"android": "https://dc.lft.to/lastmile_qr_scan", "ios": "https://dc.lft.to/lastmile_qr_scan"}, "fusion_lon": 0.0}, {"lat": 38.89219583333333, "is_disabled": 0, "type": "electric_scooter", "lon": -77.02222816666666, "bike_id": "10efd16f42944b30541b44560f3a37d6", "fusion_lat": 0.0, "name": "10efd16f42944b30541b44560f3a37d6", "is_reserved": 0, "rental_uris": {"android": "https://dc.lft.to/lastmile_qr_scan", "ios": "https://dc.lft.to/lastmile_qr_scan"}, "fusion_lon": 0.0}, {"lat": 38.900747833333334, "is_disabled": 0, "type": "electric_scooter", "lon": -77.00206116666666, "bike_id": "e3b8b25bce6ecd6b69bfa525fa645ed3", "fusion_lat": 0.0, "name": "e3b8b25bce6ecd6b69bfa525fa645ed3", "is_reserved": 0, "rental_uris": {"android": "https://dc.lft.to/lastmile_qr_scan", "ios": "https://dc.lft.to/lastmile_qr_scan"}, "fusion_lon": 0.0}, {"lat": 38.872493, "is_disabled": 0, "type": "electric_scooter", "lon": -76.97722816666666, "bike_id": "b98026f49830a6b308ec23a8bba70acc", "fusion_lat": 0.0, "name": "b98026f49830a6b308ec23a8bba70acc", "is_reserved": 0, "rental_uris": {"android": "https://dc.lft.to/lastmile_qr_scan", "ios": "https://dc.lft.to/lastmile_qr_scan"}, "fusion_lon": 0.0}, {"lat": 38.939219666666666, "is_disabled": 0, "type": "electric_scooter", "lon": -77.0279905, "bike_id": "cfacd0695e5e5831309824f8e41d1b0d", "fusion_lat": 0.0, "name": "cfacd0695e5e5831309824f8e41d1b0d", "is_reserved": 0, "rental_uris": {"android": "https://dc.lft.to/lastmile_qr_scan", "ios": "https://dc.lft.to/lastmile_qr_scan"}, "fusion_lon": 0.0}, {"lat": 38.90855166666667, "is_disabled": 0, "type": "electric_scooter", "lon": -77.04768583333333, "bike_id": "ae8593f613c292f9a0140a26f3940284", "fusion_lat": 0.0, "name": "ae8593f613c292f9a0140a26f3940284", "is_reserved": 0, "rental_uris": {"android": "https://dc.lft.to/lastmile_qr_scan", "ios": "https://dc.lft.to/lastmile_qr_scan"}, "fusion_lon": 0.0}, {"lat": 38.88928583333333, "is_disabled": 0, "type": "electric_scooter", "lon": -76.97375133333334, "bike_id": "00be2ac37793965eabfdc34b7ccc9d0e", "fusion_lat": 0.0, "name": "00be2ac37793965eabfdc34b7ccc9d0e", "is_reserved": 0, "rental_uris": {"android": "https://dc.lft.to/lastmile_qr_scan", "ios": "https://dc.lft.to/lastmile_qr_scan"}, "fusion_lon": 0.0}, {"lat": 38.91708666666667, "is_disabled": 0, "type": "electric_scooter", "lon": -77.03354216666666, "bike_id": "492bf4be06eabd1c1710d6159017b396", "fusion_lat": 0.0, "name": "492bf4be06eabd1c1710d6159017b396", "is_reserved": 0, "rental_uris": {"android": "https://dc.lft.to/lastmile_qr_scan", "ios": "https://dc.lft.to/lastmile_qr_scan"}, "fusion_lon": 0.0}, {"lat": 38.944075, "is_disabled": 0, "type": "electric_scooter", "lon": -77.0264885, "bike_id": "22850b53e55b024b04ae06e522c9a80e", "fusion_lat": 0.0, "name": "22850b53e55b024b04ae06e522c9a80e", "is_reserved": 0, "rental_uris": {"android": "https://dc.lft.to/lastmile_qr_scan", "ios": "https://dc.lft.to/lastmile_qr_scan"}, "fusion_lon": 0.0}, {"lat": 38.908985666666666, "is_disabled": 0, "type": "electric_scooter", "lon": -77.03211016666667, "bike_id": "1f4cd70df0e4543015d377ad2cbe0be2", "fusion_lat": 0.0, "name": "1f4cd70df0e4543015d377ad2cbe0be2", "is_reserved": 0, "rental_uris": {"android": "https://dc.lft.to/lastmile_qr_scan", "ios": "https://dc.lft.to/lastmile_qr_scan"}, "fusion_lon": 0.0}, {"lat": 38.9128975, "is_disabled": 0, "type": "electric_bike", "lon": -77.044818, "bike_id": "e3c15c3371bad0653ae78a0f49c1f139", "fusion_lat": 0.0, "name": "e3c15c3371bad0653ae78a0f49c1f139", "is_reserved": 0, "rental_uris": {"android": "https://dc.lft.to/lastmile_qr_scan", "ios": "https://dc.lft.to/lastmile_qr_scan"}, "fusion_lon": 0.0}, {"lat": 38.87088416666667, "is_disabled": 0, "type": "electric_scooter", "lon": -76.96864233333334, "bike_id": "b4e6ccf994f88bca59e53fc1eb26ae9e", "fusion_lat": 0.0, "name": "b4e6ccf994f88bca59e53fc1eb26ae9e", "is_reserved": 0, "rental_uris": {"android": "https://dc.lft.to/lastmile_qr_scan", "ios": "https://dc.lft.to/lastmile_qr_scan"}, "fusion_lon": 0.0}, {"lat": 38.916184, "is_disabled": 0, "type": "electric_bike", "lon": -77.00289716666667, "bike_id": "9935bd9b27f7887bcacb36484c2ac4bc", "fusion_lat": 0.0, "name": "9935bd9b27f7887bcacb36484c2ac4bc", "is_reserved": 0, "rental_uris": {"android": "https://dc.lft.to/lastmile_qr_scan", "ios": "https://dc.lft.to/lastmile_qr_scan"}, "fusion_lon": 0.0}, {"lat": 38.916197, "is_disabled": 0, "type": "electric_scooter", "lon": -77.048628, "bike_id": "c1c7f546bc2437e5c771a7f6e3aeb2cd", "fusion_lat": 0.0, "name": "c1c7f546bc2437e5c771a7f6e3aeb2cd", "is_reserved": 0, "rental_uris": {"android": "https://dc.lft.to/lastmile_qr_scan", "ios": "https://dc.lft.to/lastmile_qr_scan"}, "fusion_lon": 0.0}, {"lat": 38.9142505, "is_disabled": 0, "type": "electric_scooter", "lon": -77.046539, "bike_id": "5a23df83eeb44dad0a037262436e2312", "fusion_lat": 0.0, "name": "5a23df83eeb44dad0a037262436e2312", "is_reserved": 0, "rental_uris": {"android": "https://dc.lft.to/lastmile_qr_scan", "ios": "https://dc.lft.to/lastmile_qr_scan"}, "fusion_lon": 0.0}, {"lat": 38.92470083333333, "is_disabled": 0, "type": "electric_scooter", "lon": -77.0271415, "bike_id": "c957d71cfd94d8158b527f488e0d76ef", "fusion_lat": 0.0, "name": "c957d71cfd94d8158b527f488e0d76ef", "is_reserved": 0, "rental_uris": {"android": "https://dc.lft.to/lastmile_qr_scan", "ios": "https://dc.lft.to/lastmile_qr_scan"}, "fusion_lon": 0.0}, {"lat": 38.900608166666665, "is_disabled": 0, "type": "electric_scooter", "lon": -77.05059866666667, "bike_id": "2c8e61057e73c03841ff0f534f6f19ad", "fusion_lat": 0.0, "name": "2c8e61057e73c03841ff0f534f6f19ad", "is_reserved": 0, "rental_uris": {"android": "https://dc.lft.to/lastmile_qr_scan", "ios": "https://dc.lft.to/lastmile_qr_scan"}, "fusion_lon": 0.0}, {"lat": 38.9286815, "is_disabled": 0, "type": "electric_scooter", "lon": -77.033223, "bike_id": "3e161252bb3567a3e7be9421daac5f5d", "fusion_lat": 0.0, "name": "3e161252bb3567a3e7be9421daac5f5d", "is_reserved": 0, "rental_uris": {"android": "https://dc.lft.to/lastmile_qr_scan", "ios": "https://dc.lft.to/lastmile_qr_scan"}, "fusion_lon": 0.0}, {"lat": 38.906340666666665, "is_disabled": 0, "type": "electric_scooter", "lon": -77.02499083333333, "bike_id": "4e27ecf63df50091c685366703fa1763", "fusion_lat": 0.0, "name": "4e27ecf63df50091c685366703fa1763", "is_reserved": 0, "rental_uris": {"android": "https://dc.lft.to/lastmile_qr_scan", "ios": "https://dc.lft.to/lastmile_qr_scan"}, "fusion_lon": 0.0}, {"lat": 38.912585166666666, "is_disabled": 0, "type": "electric_scooter", "lon": -77.03870366666666, "bike_id": "d44141dee6d0b277ebc300323270453e", "fusion_lat": 0.0, "name": "d44141dee6d0b277ebc300323270453e", "is_reserved": 0, "rental_uris": {"android": "https://dc.lft.to/lastmile_qr_scan", "ios": "https://dc.lft.to/lastmile_qr_scan"}, "fusion_lon": 0.0}, {"lat": 38.87145533333333, "is_disabled": 0, "type": "electric_bike", "lon": -76.9371215, "bike_id": "ad0c9d106133a54ce85bbf90c843936f", "fusion_lat": 0.0, "name": "ad0c9d106133a54ce85bbf90c843936f", "is_reserved": 0, "rental_uris": {"android": "https://dc.lft.to/lastmile_qr_scan", "ios": "https://dc.lft.to/lastmile_qr_scan"}, "fusion_lon": 0.0}, {"lat": 38.916161333333335, "is_disabled": 0, "type": "electric_scooter", "lon": -77.03291666666667, "bike_id": "9ea0ab390c292d6134bb1242fb6b4be5", "fusion_lat": 0.0, "name": "9ea0ab390c292d6134bb1242fb6b4be5", "is_reserved": 0, "rental_uris": {"android": "https://dc.lft.to/lastmile_qr_scan", "ios": "https://dc.lft.to/lastmile_qr_scan"}, "fusion_lon": 0.0}, {"lat": 38.8921745, "is_disabled": 0, "type": "electric_scooter", "lon": -77.03162433333334, "bike_id": "ac4be30778f2c851dd00525dfe3885d7", "fusion_lat": 0.0, "name": "ac4be30778f2c851dd00525dfe3885d7", "is_reserved": 0, "rental_uris": {"android": "https://dc.lft.to/lastmile_qr_scan", "ios": "https://dc.lft.to/lastmile_qr_scan"}, "fusion_lon": 0.0}, {"lat": 38.887387333333336, "is_disabled": 0, "type": "electric_scooter", "lon": -77.022073, "bike_id": "e70642e28d847ee88054228861056033", "fusion_lat": 0.0, "name": "e70642e28d847ee88054228861056033", "is_reserved": 0, "rental_uris": {"android": "https://dc.lft.to/lastmile_qr_scan", "ios": "https://dc.lft.to/lastmile_qr_scan"}, "fusion_lon": 0.0}, {"lat": 38.8682845, "is_disabled": 0, "type": "electric_scooter", "lon": -76.977394, "bike_id": "56f933d6583a9d0810888dfb787876a7", "fusion_lat": 0.0, "name": "56f933d6583a9d0810888dfb787876a7", "is_reserved": 0, "rental_uris": {"android": "https://dc.lft.to/lastmile_qr_scan", "ios": "https://dc.lft.to/lastmile_qr_scan"}, "fusion_lon": 0.0}, {"lat": 38.89222933333333, "is_disabled": 0, "type": "electric_scooter", "lon": -77.04371866666666, "bike_id": "287bb24763b6fb465d11bd2b3439e9e8", "fusion_lat": 0.0, "name": "287bb24763b6fb465d11bd2b3439e9e8", "is_reserved": 0, "rental_uris": {"android": "https://dc.lft.to/lastmile_qr_scan", "ios": "https://dc.lft.to/lastmile_qr_scan"}, "fusion_lon": 0.0}, {"lat": 38.899085, "is_disabled": 0, "type": "electric_scooter", "lon": -76.93349633333334, "bike_id": "c8a0d1aea3167f7d0333250f0b005f36", "fusion_lat": 0.0, "name": "c8a0d1aea3167f7d0333250f0b005f36", "is_reserved": 0, "rental_uris": {"android": "https://dc.lft.to/lastmile_qr_scan", "ios": "https://dc.lft.to/lastmile_qr_scan"}, "fusion_lon": 0.0}, {"lat": 38.90028933333333, "is_disabled": 0, "type": "electric_scooter", "lon": -77.00210866666667, "bike_id": "11f80fa66b827f453e5f962b40db3565", "fusion_lat": 0.0, "name": "11f80fa66b827f453e5f962b40db3565", "is_reserved": 0, "rental_uris": {"android": "https://dc.lft.to/lastmile_qr_scan", "ios": "https://dc.lft.to/lastmile_qr_scan"}, "fusion_lon": 0.0}, {"lat": 38.915554, "is_disabled": 0, "type": "electric_scooter", "lon": -77.05321616666667, "bike_id": "33fc49e4c8e0381e8f2a22a3f7764f47", "fusion_lat": 0.0, "name": "33fc49e4c8e0381e8f2a22a3f7764f47", "is_reserved": 0, "rental_uris": {"android": "https://dc.lft.to/lastmile_qr_scan", "ios": "https://dc.lft.to/lastmile_qr_scan"}, "fusion_lon": 0.0}, {"lat": 38.866570333333335, "is_disabled": 0, "type": "electric_scooter", "lon": -76.9888395, "bike_id": "6f168e45694004afa8a31c893b33ba26", "fusion_lat": 0.0, "name": "6f168e45694004afa8a31c893b33ba26", "is_reserved": 0, "rental_uris": {"android": "https://dc.lft.to/lastmile_qr_scan", "ios": "https://dc.lft.to/lastmile_qr_scan"}, "fusion_lon": 0.0}, {"lat": 38.952782166666665, "is_disabled": 0, "type": "electric_scooter", "lon": -77.06878383333333, "bike_id": "6d1e5f40abb4e07703276a40bd3dcf5c", "fusion_lat": 0.0, "name": "6d1e5f40abb4e07703276a40bd3dcf5c", "is_reserved": 0, "rental_uris": {"android": "https://dc.lft.to/lastmile_qr_scan", "ios": "https://dc.lft.to/lastmile_qr_scan"}, "fusion_lon": 0.0}, {"lat": 38.90861566666667, "is_disabled": 0, "type": "electric_scooter", "lon": -76.99162266666667, "bike_id": "284efe247782d107a8b9c435caec4d23", "fusion_lat": 0.0, "name": "284efe247782d107a8b9c435caec4d23", "is_reserved": 0, "rental_uris": {"android": "https://dc.lft.to/lastmile_qr_scan", "ios": "https://dc.lft.to/lastmile_qr_scan"}, "fusion_lon": 0.0}, {"lat": 38.90583133333333, "is_disabled": 0, "type": "electric_scooter", "lon": -77.034095, "bike_id": "3b8832e525ec77644bc4929ccba639b2", "fusion_lat": 0.0, "name": "3b8832e525ec77644bc4929ccba639b2", "is_reserved": 0, "rental_uris": {"android": "https://dc.lft.to/lastmile_qr_scan", "ios": "https://dc.lft.to/lastmile_qr_scan"}, "fusion_lon": 0.0}, {"lat": 38.917321, "is_disabled": 0, "type": "electric_scooter", "lon": -77.03641766666667, "bike_id": "27dfd67f7c095ccbe016443e1657c623", "fusion_lat": 0.0, "name": "27dfd67f7c095ccbe016443e1657c623", "is_reserved": 0, "rental_uris": {"android": "https://dc.lft.to/lastmile_qr_scan", "ios": "https://dc.lft.to/lastmile_qr_scan"}, "fusion_lon": 0.0}, {"lat": 39.052055, "is_disabled": 0, "type": "electric_bike", "lon": -77.10907016666667, "bike_id": "b430ad97652a7be9c6e59b0525768d05", "fusion_lat": 0.0, "name": "b430ad97652a7be9c6e59b0525768d05", "is_reserved": 0, "rental_uris": {"android": "https://dc.lft.to/lastmile_qr_scan", "ios": "https://dc.lft.to/lastmile_qr_scan"}, "fusion_lon": 0.0}, {"lat": 38.90611466666667, "is_disabled": 0, "type": "electric_scooter", "lon": -77.01880316666667, "bike_id": "48b860504f37589390ed37010aa70438", "fusion_lat": 0.0, "name": "48b860504f37589390ed37010aa70438", "is_reserved": 0, "rental_uris": {"android": "https://dc.lft.to/lastmile_qr_scan", "ios": "https://dc.lft.to/lastmile_qr_scan"}, "fusion_lon": 0.0}, {"lat": 38.919241666666665, "is_disabled": 0, "type": "electric_scooter", "lon": -77.02392533333334, "bike_id": "52b909aee961100e9b00e668bf15da9f", "fusion_lat": 0.0, "name": "52b909aee961100e9b00e668bf15da9f", "is_reserved": 0, "rental_uris": {"android": "https://dc.lft.to/lastmile_qr_scan", "ios": "https://dc.lft.to/lastmile_qr_scan"}, "fusion_lon": 0.0}, {"lat": 38.93890583333334, "is_disabled": 0, "type": "electric_bike", "lon": -76.99506683333334, "bike_id": "3ccdfb3e237695bfa8de8d0539dcfa9e", "fusion_lat": 0.0, "name": "3ccdfb3e237695bfa8de8d0539dcfa9e", "is_reserved": 0, "rental_uris": {"android": "https://dc.lft.to/lastmile_qr_scan", "ios": "https://dc.lft.to/lastmile_qr_scan"}, "fusion_lon": 0.0}, {"lat": 38.859095833333335, "is_disabled": 0, "type": "electric_scooter", "lon": -76.9914995, "bike_id": "094be22d48e76020118453ef1875066e", "fusion_lat": 0.0, "name": "094be22d48e76020118453ef1875066e", "is_reserved": 0, "rental_uris": {"android": "https://dc.lft.to/lastmile_qr_scan", "ios": "https://dc.lft.to/lastmile_qr_scan"}, "fusion_lon": 0.0}, {"lat": 38.917988333333334, "is_disabled": 0, "type": "electric_scooter", "lon": -77.022953, "bike_id": "a8cc1867554bfdc467e4169e9fb67f5c", "fusion_lat": 0.0, "name": "a8cc1867554bfdc467e4169e9fb67f5c", "is_reserved": 0, "rental_uris": {"android": "https://dc.lft.to/lastmile_qr_scan", "ios": "https://dc.lft.to/lastmile_qr_scan"}, "fusion_lon": 0.0}, {"lat": 38.86387333333333, "is_disabled": 0, "type": "electric_bike", "lon": -76.98992966666667, "bike_id": "1a2bdd2183b0d2472d528b0d035cf403", "fusion_lat": 0.0, "name": "1a2bdd2183b0d2472d528b0d035cf403", "is_reserved": 0, "rental_uris": {"android": "https://dc.lft.to/lastmile_qr_scan", "ios": "https://dc.lft.to/lastmile_qr_scan"}, "fusion_lon": 0.0}, {"lat": 38.89218116666667, "is_disabled": 0, "type": "electric_scooter", "lon": -77.0277995, "bike_id": "4b86336feb1bb18875d48c765aa63d15", "fusion_lat": 0.0, "name": "4b86336feb1bb18875d48c765aa63d15", "is_reserved": 0, "rental_uris": {"android": "https://dc.lft.to/lastmile_qr_scan", "ios": "https://dc.lft.to/lastmile_qr_scan"}, "fusion_lon": 0.0}, {"lat": 38.934677666666666, "is_disabled": 0, "type": "electric_scooter", "lon": -77.06197166666666, "bike_id": "ed398d2a0f8f4e1c0125eac6be8aaf7e", "fusion_lat": 0.0, "name": "ed398d2a0f8f4e1c0125eac6be8aaf7e", "is_reserved": 0, "rental_uris": {"android": "https://dc.lft.to/lastmile_qr_scan", "ios": "https://dc.lft.to/lastmile_qr_scan"}, "fusion_lon": 0.0}, {"lat": 38.8875465, "is_disabled": 0, "type": "electric_scooter", "lon": -77.03224733333333, "bike_id": "2186ee729d4d1f531bfc0dcb2676bf75", "fusion_lat": 0.0, "name": "2186ee729d4d1f531bfc0dcb2676bf75", "is_reserved": 0, "rental_uris": {"android": "https://dc.lft.to/lastmile_qr_scan", "ios": "https://dc.lft.to/lastmile_qr_scan"}, "fusion_lon": 0.0}, {"lat": 38.915609, "is_disabled": 0, "type": "electric_scooter", "lon": -77.031719, "bike_id": "5d60fd7b16d80a3dc9234b7d8389c1d9", "fusion_lat": 0.0, "name": "5d60fd7b16d80a3dc9234b7d8389c1d9", "is_reserved": 0, "rental_uris": {"android": "https://dc.lft.to/lastmile_qr_scan", "ios": "https://dc.lft.to/lastmile_qr_scan"}, "fusion_lon": 0.0}, {"lat": 38.95358316666667, "is_disabled": 0, "type": "electric_bike", "lon": -76.98096383333333, "bike_id": "8f688c0c5d1272097d51e390a638709d", "fusion_lat": 0.0, "name": "8f688c0c5d1272097d51e390a638709d", "is_reserved": 0, "rental_uris": {"android": "https://dc.lft.to/lastmile_qr_scan", "ios": "https://dc.lft.to/lastmile_qr_scan"}, "fusion_lon": 0.0}, {"lat": 38.941742, "is_disabled": 0, "type": "electric_scooter", "lon": -77.0413665, "bike_id": "df6d582932f146ef3f4a268b2551f783", "fusion_lat": 0.0, "name": "df6d582932f146ef3f4a268b2551f783", "is_reserved": 0, "rental_uris": {"android": "https://dc.lft.to/lastmile_qr_scan", "ios": "https://dc.lft.to/lastmile_qr_scan"}, "fusion_lon": 0.0}, {"lat": 38.86565566666667, "is_disabled": 0, "type": "electric_scooter", "lon": -76.97400816666666, "bike_id": "ec646bcad765902444e4d77be5068b64", "fusion_lat": 0.0, "name": "ec646bcad765902444e4d77be5068b64", "is_reserved": 0, "rental_uris": {"android": "https://dc.lft.to/lastmile_qr_scan", "ios": "https://dc.lft.to/lastmile_qr_scan"}, "fusion_lon": 0.0}, {"lat": 38.897669666666665, "is_disabled": 0, "type": "electric_scooter", "lon": -77.02698233333334, "bike_id": "30ad426b9aa724d24fe6dc919c7d9f18", "fusion_lat": 0.0, "name": "30ad426b9aa724d24fe6dc919c7d9f18", "is_reserved": 0, "rental_uris": {"android": "https://dc.lft.to/lastmile_qr_scan", "ios": "https://dc.lft.to/lastmile_qr_scan"}, "fusion_lon": 0.0}, {"lat": 38.910986333333334, "is_disabled": 0, "type": "electric_scooter", "lon": -77.03190783333334, "bike_id": "ef00f10daa72a499892ee1da870d8309", "fusion_lat": 0.0, "name": "ef00f10daa72a499892ee1da870d8309", "is_reserved": 0, "rental_uris": {"android": "https://dc.lft.to/lastmile_qr_scan", "ios": "https://dc.lft.to/lastmile_qr_scan"}, "fusion_lon": 0.0}, {"lat": 39.00007983333333, "is_disabled": 0, "type": "electric_bike", "lon": -76.910816, "bike_id": "3af52de0baa32252415bca32212f6ac9", "fusion_lat": 0.0, "name": "3af52de0baa32252415bca32212f6ac9", "is_reserved": 0, "rental_uris": {"android": "https://dc.lft.to/lastmile_qr_scan", "ios": "https://dc.lft.to/lastmile_qr_scan"}, "fusion_lon": 0.0}, {"lat": 38.91817866666667, "is_disabled": 0, "type": "electric_scooter", "lon": -77.02487683333334, "bike_id": "d4d60ba5ddb652334873d3fef34003bc", "fusion_lat": 0.0, "name": "d4d60ba5ddb652334873d3fef34003bc", "is_reserved": 0, "rental_uris": {"android": "https://dc.lft.to/lastmile_qr_scan", "ios": "https://dc.lft.to/lastmile_qr_scan"}, "fusion_lon": 0.0}, {"lat": 38.909469, "is_disabled": 0, "type": "electric_bike", "lon": -77.04850966666666, "bike_id": "c9f123007408d3f04947925d9b47e525", "fusion_lat": 0.0, "name": "c9f123007408d3f04947925d9b47e525", "is_reserved": 0, "rental_uris": {"android": "https://dc.lft.to/lastmile_qr_scan", "ios": "https://dc.lft.to/lastmile_qr_scan"}, "fusion_lon": 0.0}, {"lat": 38.92154883333333, "is_disabled": 0, "type": "electric_scooter", "lon": -77.03517566666666, "bike_id": "e37f5da1e62a89e56313c1269b79c472", "fusion_lat": 0.0, "name": "e37f5da1e62a89e56313c1269b79c472", "is_reserved": 0, "rental_uris": {"android": "https://dc.lft.to/lastmile_qr_scan", "ios": "https://dc.lft.to/lastmile_qr_scan"}, "fusion_lon": 0.0}, {"lat": 38.91319983333333, "is_disabled": 0, "type": "electric_scooter", "lon": -77.03999816666666, "bike_id": "14c169d07bf6bf033019fe78c29379ec", "fusion_lat": 0.0, "name": "14c169d07bf6bf033019fe78c29379ec", "is_reserved": 0, "rental_uris": {"android": "https://dc.lft.to/lastmile_qr_scan", "ios": "https://dc.lft.to/lastmile_qr_scan"}, "fusion_lon": 0.0}, {"lat": 38.92910283333333, "is_disabled": 0, "type": "electric_scooter", "lon": -77.0372755, "bike_id": "6eefc9e9ad01137c171a9b881560038c", "fusion_lat": 0.0, "name": "6eefc9e9ad01137c171a9b881560038c", "is_reserved": 0, "rental_uris": {"android": "https://dc.lft.to/lastmile_qr_scan", "ios": "https://dc.lft.to/lastmile_qr_scan"}, "fusion_lon": 0.0}, {"lat": 38.9227815, "is_disabled": 0, "type": "electric_scooter", "lon": -77.04468166666666, "bike_id": "68d18a5089733a49aa2b4a1b17ddc2cf", "fusion_lat": 0.0, "name": "68d18a5089733a49aa2b4a1b17ddc2cf", "is_reserved": 0, "rental_uris": {"android": "https://dc.lft.to/lastmile_qr_scan", "ios": "https://dc.lft.to/lastmile_qr_scan"}, "fusion_lon": 0.0}, {"lat": 38.906571666666665, "is_disabled": 0, "type": "electric_scooter", "lon": -77.07421983333333, "bike_id": "02d56e1f1c75ba2e136945dd6cdd8b9f", "fusion_lat": 0.0, "name": "02d56e1f1c75ba2e136945dd6cdd8b9f", "is_reserved": 0, "rental_uris": {"android": "https://dc.lft.to/lastmile_qr_scan", "ios": "https://dc.lft.to/lastmile_qr_scan"}, "fusion_lon": 0.0}, {"lat": 38.92396516666667, "is_disabled": 0, "type": "electric_scooter", "lon": -77.03542783333333, "bike_id": "20948413268adabbd83491c57a2031e5", "fusion_lat": 0.0, "name": "20948413268adabbd83491c57a2031e5", "is_reserved": 0, "rental_uris": {"android": "https://dc.lft.to/lastmile_qr_scan", "ios": "https://dc.lft.to/lastmile_qr_scan"}, "fusion_lon": 0.0}, {"lat": 38.91428416666667, "is_disabled": 0, "type": "electric_scooter", "lon": -77.03179833333333, "bike_id": "450e90e80eeb3dec46b3b8807c9231b9", "fusion_lat": 0.0, "name": "450e90e80eeb3dec46b3b8807c9231b9", "is_reserved": 0, "rental_uris": {"android": "https://dc.lft.to/lastmile_qr_scan", "ios": "https://dc.lft.to/lastmile_qr_scan"}, "fusion_lon": 0.0}, {"lat": 38.9052915, "is_disabled": 0, "type": "electric_scooter", "lon": -77.05139433333333, "bike_id": "3dc9e6fb421207504058d14bbcde7878", "fusion_lat": 0.0, "name": "3dc9e6fb421207504058d14bbcde7878", "is_reserved": 0, "rental_uris": {"android": "https://dc.lft.to/lastmile_qr_scan", "ios": "https://dc.lft.to/lastmile_qr_scan"}, "fusion_lon": 0.0}, {"lat": 38.85795933333333, "is_disabled": 0, "type": "electric_scooter", "lon": -76.98692383333334, "bike_id": "459c4327f8d89fcf00a97a7f4aef9719", "fusion_lat": 0.0, "name": "459c4327f8d89fcf00a97a7f4aef9719", "is_reserved": 0, "rental_uris": {"android": "https://dc.lft.to/lastmile_qr_scan", "ios": "https://dc.lft.to/lastmile_qr_scan"}, "fusion_lon": 0.0}, {"lat": 38.880385, "is_disabled": 0, "type": "electric_scooter", "lon": -77.00359233333333, "bike_id": "c5fcee2aeeaa7edd46b1ef6acb0884d4", "fusion_lat": 0.0, "name": "c5fcee2aeeaa7edd46b1ef6acb0884d4", "is_reserved": 0, "rental_uris": {"android": "https://dc.lft.to/lastmile_qr_scan", "ios": "https://dc.lft.to/lastmile_qr_scan"}, "fusion_lon": 0.0}, {"lat": 38.852083, "is_disabled": 0, "type": "electric_bike", "lon": -76.98552066666667, "bike_id": "7050d0ebeeff9a6c9b06897b5a1e5054", "fusion_lat": 0.0, "name": "7050d0ebeeff9a6c9b06897b5a1e5054", "is_reserved": 0, "rental_uris": {"android": "https://dc.lft.to/lastmile_qr_scan", "ios": "https://dc.lft.to/lastmile_qr_scan"}, "fusion_lon": 0.0}, {"lat": 38.91818333333333, "is_disabled": 0, "type": "electric_scooter", "lon": -77.04512433333333, "bike_id": "dd6599bc85c0fd0fd93df96aa94ac764", "fusion_lat": 0.0, "name": "dd6599bc85c0fd0fd93df96aa94ac764", "is_reserved": 0, "rental_uris": {"android": "https://dc.lft.to/lastmile_qr_scan", "ios": "https://dc.lft.to/lastmile_qr_scan"}, "fusion_lon": 0.0}, {"lat": 38.9229195, "is_disabled": 0, "type": "electric_scooter", "lon": -77.042636, "bike_id": "9946751fd6273fd0901cca508fc2102c", "fusion_lat": 0.0, "name": "9946751fd6273fd0901cca508fc2102c", "is_reserved": 0, "rental_uris": {"android": "https://dc.lft.to/lastmile_qr_scan", "ios": "https://dc.lft.to/lastmile_qr_scan"}, "fusion_lon": 0.0}, {"lat": 38.95641916666667, "is_disabled": 0, "type": "electric_bike", "lon": -76.93879233333334, "bike_id": "d30037c687f4f4c5504dcb5b886d3471", "fusion_lat": 0.0, "name": "d30037c687f4f4c5504dcb5b886d3471", "is_reserved": 0, "rental_uris": {"android": "https://dc.lft.to/lastmile_qr_scan", "ios": "https://dc.lft.to/lastmile_qr_scan"}, "fusion_lon": 0.0}, {"lat": 38.9156065, "is_disabled": 0, "type": "electric_scooter", "lon": -77.0217275, "bike_id": "b11648675cd0bc7eeed3fa8c44d08763", "fusion_lat": 0.0, "name": "b11648675cd0bc7eeed3fa8c44d08763", "is_reserved": 0, "rental_uris": {"android": "https://dc.lft.to/lastmile_qr_scan", "ios": "https://dc.lft.to/lastmile_qr_scan"}, "fusion_lon": 0.0}, {"lat": 38.905005833333334, "is_disabled": 0, "type": "electric_scooter", "lon": -77.051289, "bike_id": "2c5c6648a23d483a5b437b996351c711", "fusion_lat": 0.0, "name": "2c5c6648a23d483a5b437b996351c711", "is_reserved": 0, "rental_uris": {"android": "https://dc.lft.to/lastmile_qr_scan", "ios": "https://dc.lft.to/lastmile_qr_scan"}, "fusion_lon": 0.0}, {"lat": 38.926663833333336, "is_disabled": 0, "type": "electric_scooter", "lon": -76.99546783333334, "bike_id": "9f94e9b88e4ac7df50d3a3925ba95ad4", "fusion_lat": 0.0, "name": "9f94e9b88e4ac7df50d3a3925ba95ad4", "is_reserved": 0, "rental_uris": {"android": "https://dc.lft.to/lastmile_qr_scan", "ios": "https://dc.lft.to/lastmile_qr_scan"}, "fusion_lon": 0.0}, {"lat": 38.925715333333336, "is_disabled": 0, "type": "electric_scooter", "lon": -77.05748216666667, "bike_id": "4060647f203c3402f4ecb5993f084643", "fusion_lat": 0.0, "name": "4060647f203c3402f4ecb5993f084643", "is_reserved": 0, "rental_uris": {"android": "https://dc.lft.to/lastmile_qr_scan", "ios": "https://dc.lft.to/lastmile_qr_scan"}, "fusion_lon": 0.0}, {"lat": 38.88673, "is_disabled": 0, "type": "electric_scooter", "lon": -76.98559333333333, "bike_id": "0f28bbdd4be4bd4beb38fb6367150907", "fusion_lat": 0.0, "name": "0f28bbdd4be4bd4beb38fb6367150907", "is_reserved": 0, "rental_uris": {"android": "https://dc.lft.to/lastmile_qr_scan", "ios": "https://dc.lft.to/lastmile_qr_scan"}, "fusion_lon": 0.0}, {"lat": 38.9291135, "is_disabled": 0, "type": "electric_scooter", "lon": -77.02193, "bike_id": "d32842f38b6a862db928721ff9210b41", "fusion_lat": 0.0, "name": "d32842f38b6a862db928721ff9210b41", "is_reserved": 0, "rental_uris": {"android": "https://dc.lft.to/lastmile_qr_scan", "ios": "https://dc.lft.to/lastmile_qr_scan"}, "fusion_lon": 0.0}, {"lat": 38.914635, "is_disabled": 0, "type": "electric_scooter", "lon": -77.04141816666667, "bike_id": "7ab79e9c74ce4e9788c7b3aa4918e1a2", "fusion_lat": 0.0, "name": "7ab79e9c74ce4e9788c7b3aa4918e1a2", "is_reserved": 0, "rental_uris": {"android": "https://dc.lft.to/lastmile_qr_scan", "ios": "https://dc.lft.to/lastmile_qr_scan"}, "fusion_lon": 0.0}, {"lat": 38.8977175, "is_disabled": 0, "type": "electric_bike", "lon": -76.90440483333333, "bike_id": "56d412f9b46bf22ea305c489cda1e896", "fusion_lat": 0.0, "name": "56d412f9b46bf22ea305c489cda1e896", "is_reserved": 0, "rental_uris": {"android": "https://dc.lft.to/lastmile_qr_scan", "ios": "https://dc.lft.to/lastmile_qr_scan"}, "fusion_lon": 0.0}, {"lat": 38.917062333333334, "is_disabled": 0, "type": "electric_scooter", "lon": -77.0095815, "bike_id": "6c20bae3f02363fc345009e525abb5b7", "fusion_lat": 0.0, "name": "6c20bae3f02363fc345009e525abb5b7", "is_reserved": 0, "rental_uris": {"android": "https://dc.lft.to/lastmile_qr_scan", "ios": "https://dc.lft.to/lastmile_qr_scan"}, "fusion_lon": 0.0}, {"lat": 38.929719666666664, "is_disabled": 0, "type": "electric_scooter", "lon": -77.02927833333334, "bike_id": "d03baedaa8369a3a0856c07dff3930df", "fusion_lat": 0.0, "name": "d03baedaa8369a3a0856c07dff3930df", "is_reserved": 0, "rental_uris": {"android": "https://dc.lft.to/lastmile_qr_scan", "ios": "https://dc.lft.to/lastmile_qr_scan"}, "fusion_lon": 0.0}, {"lat": 38.930908333333335, "is_disabled": 0, "type": "electric_scooter", "lon": -77.02353783333334, "bike_id": "12bc50977ea827be991fbf367055d635", "fusion_lat": 0.0, "name": "12bc50977ea827be991fbf367055d635", "is_reserved": 0, "rental_uris": {"android": "https://dc.lft.to/lastmile_qr_scan", "ios": "https://dc.lft.to/lastmile_qr_scan"}, "fusion_lon": 0.0}, {"lat": 38.92126233333333, "is_disabled": 0, "type": "electric_scooter", "lon": -77.036648, "bike_id": "8e65c4f9b44796007ea5d008b07b6936", "fusion_lat": 0.0, "name": "8e65c4f9b44796007ea5d008b07b6936", "is_reserved": 0, "rental_uris": {"android": "https://dc.lft.to/lastmile_qr_scan", "ios": "https://dc.lft.to/lastmile_qr_scan"}, "fusion_lon": 0.0}, {"lat": 38.91122283333333, "is_disabled": 0, "type": "electric_scooter", "lon": -77.03846666666666, "bike_id": "e45a7ffe1f68ceb80b4fa412e0c7826f", "fusion_lat": 0.0, "name": "e45a7ffe1f68ceb80b4fa412e0c7826f", "is_reserved": 0, "rental_uris": {"android": "https://dc.lft.to/lastmile_qr_scan", "ios": "https://dc.lft.to/lastmile_qr_scan"}, "fusion_lon": 0.0}, {"lat": 38.935847833333334, "is_disabled": 0, "type": "electric_bike", "lon": -77.10686083333333, "bike_id": "3cef652dec353372f3ae606789554c46", "fusion_lat": 0.0, "name": "3cef652dec353372f3ae606789554c46", "is_reserved": 0, "rental_uris": {"android": "https://dc.lft.to/lastmile_qr_scan", "ios": "https://dc.lft.to/lastmile_qr_scan"}, "fusion_lon": 0.0}, {"lat": 38.917413, "is_disabled": 0, "type": "electric_scooter", "lon": -77.03186633333334, "bike_id": "62d79b85b47e364e5a567b20544efd74", "fusion_lat": 0.0, "name": "62d79b85b47e364e5a567b20544efd74", "is_reserved": 0, "rental_uris": {"android": "https://dc.lft.to/lastmile_qr_scan", "ios": "https://dc.lft.to/lastmile_qr_scan"}, "fusion_lon": 0.0}, {"lat": 38.89489233333333, "is_disabled": 0, "type": "electric_scooter", "lon": -76.99505516666666, "bike_id": "a6986ab193e44ac188c55c6c307c4778", "fusion_lat": 0.0, "name": "a6986ab193e44ac188c55c6c307c4778", "is_reserved": 0, "rental_uris": {"android": "https://dc.lft.to/lastmile_qr_scan", "ios": "https://dc.lft.to/lastmile_qr_scan"}, "fusion_lon": 0.0}, {"lat": 38.909509166666666, "is_disabled": 0, "type": "electric_scooter", "lon": -77.046505, "bike_id": "aa795388510eeff1a813b4d804c9ee4d", "fusion_lat": 0.0, "name": "aa795388510eeff1a813b4d804c9ee4d", "is_reserved": 0, "rental_uris": {"android": "https://dc.lft.to/lastmile_qr_scan", "ios": "https://dc.lft.to/lastmile_qr_scan"}, "fusion_lon": 0.0}, {"lat": 38.892239833333335, "is_disabled": 0, "type": "electric_scooter", "lon": -77.04512466666667, "bike_id": "7e6c0efcfe828a7c317ab1856b5e9e67", "fusion_lat": 0.0, "name": "7e6c0efcfe828a7c317ab1856b5e9e67", "is_reserved": 0, "rental_uris": {"android": "https://dc.lft.to/lastmile_qr_scan", "ios": "https://dc.lft.to/lastmile_qr_scan"}, "fusion_lon": 0.0}, {"lat": 38.959137, "is_disabled": 0, "type": "electric_scooter", "lon": -77.08068383333334, "bike_id": "0cb34e42fec78393a9a82288ea05e099", "fusion_lat": 0.0, "name": "0cb34e42fec78393a9a82288ea05e099", "is_reserved": 0, "rental_uris": {"android": "https://dc.lft.to/lastmile_qr_scan", "ios": "https://dc.lft.to/lastmile_qr_scan"}, "fusion_lon": 0.0}, {"lat": 38.88111333333333, "is_disabled": 0, "type": "electric_scooter", "lon": -77.01654983333333, "bike_id": "b1cb31bd579a4b175b389f594a5dc637", "fusion_lat": 0.0, "name": "b1cb31bd579a4b175b389f594a5dc637", "is_reserved": 0, "rental_uris": {"android": "https://dc.lft.to/lastmile_qr_scan", "ios": "https://dc.lft.to/lastmile_qr_scan"}, "fusion_lon": 0.0}, {"lat": 38.905303833333335, "is_disabled": 0, "type": "electric_scooter", "lon": -77.02951683333333, "bike_id": "7d96eaee0836185f55340d87fad43218", "fusion_lat": 0.0, "name": "7d96eaee0836185f55340d87fad43218", "is_reserved": 0, "rental_uris": {"android": "https://dc.lft.to/lastmile_qr_scan", "ios": "https://dc.lft.to/lastmile_qr_scan"}, "fusion_lon": 0.0}, {"lat": 38.89395316666667, "is_disabled": 0, "type": "electric_scooter", "lon": -77.022119, "bike_id": "4d237334d2f9912d92efc40850843f89", "fusion_lat": 0.0, "name": "4d237334d2f9912d92efc40850843f89", "is_reserved": 0, "rental_uris": {"android": "https://dc.lft.to/lastmile_qr_scan", "ios": "https://dc.lft.to/lastmile_qr_scan"}, "fusion_lon": 0.0}, {"lat": 38.8715115, "is_disabled": 0, "type": "electric_bike", "lon": -76.93669466666667, "bike_id": "817f86d6bbd70563e18fceb6a8ff4baf", "fusion_lat": 0.0, "name": "817f86d6bbd70563e18fceb6a8ff4baf", "is_reserved": 0, "rental_uris": {"android": "https://dc.lft.to/lastmile_qr_scan", "ios": "https://dc.lft.to/lastmile_qr_scan"}, "fusion_lon": 0.0}, {"lat": 38.8922275, "is_disabled": 0, "type": "electric_scooter", "lon": -77.032143, "bike_id": "67930f17f0b32b2cfebe6cca8e92c032", "fusion_lat": 0.0, "name": "67930f17f0b32b2cfebe6cca8e92c032", "is_reserved": 0, "rental_uris": {"android": "https://dc.lft.to/lastmile_qr_scan", "ios": "https://dc.lft.to/lastmile_qr_scan"}, "fusion_lon": 0.0}, {"lat": 38.8922425, "is_disabled": 0, "type": "electric_scooter", "lon": -77.0420295, "bike_id": "c124375526e9f26d6aba9f13a5ced45a", "fusion_lat": 0.0, "name": "c124375526e9f26d6aba9f13a5ced45a", "is_reserved": 0, "rental_uris": {"android": "https://dc.lft.to/lastmile_qr_scan", "ios": "https://dc.lft.to/lastmile_qr_scan"}, "fusion_lon": 0.0}, {"lat": 38.863655, "is_disabled": 0, "type": "electric_scooter", "lon": -76.9903675, "bike_id": "d2b32fefa6d0b294c1dedd218e90b90a", "fusion_lat": 0.0, "name": "d2b32fefa6d0b294c1dedd218e90b90a", "is_reserved": 0, "rental_uris": {"android": "https://dc.lft.to/lastmile_qr_scan", "ios": "https://dc.lft.to/lastmile_qr_scan"}, "fusion_lon": 0.0}, {"lat": 38.922490833333335, "is_disabled": 0, "type": "electric_scooter", "lon": -77.03083933333333, "bike_id": "757b0578a9bbcd44d5fabb287e2e4e4c", "fusion_lat": 0.0, "name": "757b0578a9bbcd44d5fabb287e2e4e4c", "is_reserved": 0, "rental_uris": {"android": "https://dc.lft.to/lastmile_qr_scan", "ios": "https://dc.lft.to/lastmile_qr_scan"}, "fusion_lon": 0.0}, {"lat": 38.92309916666667, "is_disabled": 0, "type": "electric_scooter", "lon": -77.04217966666667, "bike_id": "ddc7b520c2d8269bdb556b0379dd7b18", "fusion_lat": 0.0, "name": "ddc7b520c2d8269bdb556b0379dd7b18", "is_reserved": 0, "rental_uris": {"android": "https://dc.lft.to/lastmile_qr_scan", "ios": "https://dc.lft.to/lastmile_qr_scan"}, "fusion_lon": 0.0}, {"lat": 38.948347166666665, "is_disabled": 0, "type": "electric_bike", "lon": -77.03889466666666, "bike_id": "19be47457dcdb63e631bd6db893b3618", "fusion_lat": 0.0, "name": "19be47457dcdb63e631bd6db893b3618", "is_reserved": 0, "rental_uris": {"android": "https://dc.lft.to/lastmile_qr_scan", "ios": "https://dc.lft.to/lastmile_qr_scan"}, "fusion_lon": 0.0}, {"lat": 38.932060166666666, "is_disabled": 0, "type": "electric_scooter", "lon": -77.03672866666666, "bike_id": "2cbde257179fbeba631deddfbf6766dc", "fusion_lat": 0.0, "name": "2cbde257179fbeba631deddfbf6766dc", "is_reserved": 0, "rental_uris": {"android": "https://dc.lft.to/lastmile_qr_scan", "ios": "https://dc.lft.to/lastmile_qr_scan"}, "fusion_lon": 0.0}, {"lat": 38.898797333333334, "is_disabled": 0, "type": "electric_scooter", "lon": -77.05338616666667, "bike_id": "69c155ed5f7e751b542e39f261055c96", "fusion_lat": 0.0, "name": "69c155ed5f7e751b542e39f261055c96", "is_reserved": 0, "rental_uris": {"android": "https://dc.lft.to/lastmile_qr_scan", "ios": "https://dc.lft.to/lastmile_qr_scan"}, "fusion_lon": 0.0}, {"lat": 38.922897666666664, "is_disabled": 0, "type": "electric_scooter", "lon": -77.02972166666666, "bike_id": "81db24302cc6a95c96db2d88a7c9a4d0", "fusion_lat": 0.0, "name": "81db24302cc6a95c96db2d88a7c9a4d0", "is_reserved": 0, "rental_uris": {"android": "https://dc.lft.to/lastmile_qr_scan", "ios": "https://dc.lft.to/lastmile_qr_scan"}, "fusion_lon": 0.0}, {"lat": 38.906827, "is_disabled": 0, "type": "electric_scooter", "lon": -77.02713916666667, "bike_id": "f462a258023b52dc083687aabbc88061", "fusion_lat": 0.0, "name": "f462a258023b52dc083687aabbc88061", "is_reserved": 0, "rental_uris": {"android": "https://dc.lft.to/lastmile_qr_scan", "ios": "https://dc.lft.to/lastmile_qr_scan"}, "fusion_lon": 0.0}, {"lat": 38.863467666666665, "is_disabled": 0, "type": "electric_scooter", "lon": -76.9900265, "bike_id": "d632aa53674fa1377e638b25380fbec9", "fusion_lat": 0.0, "name": "d632aa53674fa1377e638b25380fbec9", "is_reserved": 0, "rental_uris": {"android": "https://dc.lft.to/lastmile_qr_scan", "ios": "https://dc.lft.to/lastmile_qr_scan"}, "fusion_lon": 0.0}, {"lat": 38.955619666666664, "is_disabled": 0, "type": "electric_bike", "lon": -76.935379, "bike_id": "068bc89f9584dcd6755c91f2a55552ff", "fusion_lat": 0.0, "name": "068bc89f9584dcd6755c91f2a55552ff", "is_reserved": 0, "rental_uris": {"android": "https://dc.lft.to/lastmile_qr_scan", "ios": "https://dc.lft.to/lastmile_qr_scan"}, "fusion_lon": 0.0}, {"lat": 38.89922383333333, "is_disabled": 0, "type": "electric_scooter", "lon": -76.933736, "bike_id": "eef4aea90c98de3ea0dbda943c4b7ab3", "fusion_lat": 0.0, "name": "eef4aea90c98de3ea0dbda943c4b7ab3", "is_reserved": 0, "rental_uris": {"android": "https://dc.lft.to/lastmile_qr_scan", "ios": "https://dc.lft.to/lastmile_qr_scan"}, "fusion_lon": 0.0}, {"lat": 38.903325, "is_disabled": 0, "type": "electric_scooter", "lon": -76.97595433333333, "bike_id": "5357dcf39ef930548995f7df28ea04a5", "fusion_lat": 0.0, "name": "5357dcf39ef930548995f7df28ea04a5", "is_reserved": 0, "rental_uris": {"android": "https://dc.lft.to/lastmile_qr_scan", "ios": "https://dc.lft.to/lastmile_qr_scan"}, "fusion_lon": 0.0}, {"lat": 38.907618, "is_disabled": 0, "type": "electric_scooter", "lon": -77.0702615, "bike_id": "18f09b0593de1c6111a0c645ce839f72", "fusion_lat": 0.0, "name": "18f09b0593de1c6111a0c645ce839f72", "is_reserved": 0, "rental_uris": {"android": "https://dc.lft.to/lastmile_qr_scan", "ios": "https://dc.lft.to/lastmile_qr_scan"}, "fusion_lon": 0.0}, {"lat": 38.907345, "is_disabled": 0, "type": "electric_scooter", "lon": -76.93545383333333, "bike_id": "96de6fccb96afd50654a9e179f1f829c", "fusion_lat": 0.0, "name": "96de6fccb96afd50654a9e179f1f829c", "is_reserved": 0, "rental_uris": {"android": "https://dc.lft.to/lastmile_qr_scan", "ios": "https://dc.lft.to/lastmile_qr_scan"}, "fusion_lon": 0.0}, {"lat": 38.866595833333335, "is_disabled": 0, "type": "electric_scooter", "lon": -76.98882533333334, "bike_id": "6cd89560a2f735f294d6e0ff3d4eb100", "fusion_lat": 0.0, "name": "6cd89560a2f735f294d6e0ff3d4eb100", "is_reserved": 0, "rental_uris": {"android": "https://dc.lft.to/lastmile_qr_scan", "ios": "https://dc.lft.to/lastmile_qr_scan"}, "fusion_lon": 0.0}, {"lat": 38.91784, "is_disabled": 0, "type": "electric_scooter", "lon": -77.0433425, "bike_id": "15df282f1e3fb0ac6e5f7c2059660606", "fusion_lat": 0.0, "name": "15df282f1e3fb0ac6e5f7c2059660606", "is_reserved": 0, "rental_uris": {"android": "https://dc.lft.to/lastmile_qr_scan", "ios": "https://dc.lft.to/lastmile_qr_scan"}, "fusion_lon": 0.0}, {"lat": 38.923421, "is_disabled": 0, "type": "electric_scooter", "lon": -77.03519416666667, "bike_id": "fa15006d67a1c0f7535a562f52ba9b6e", "fusion_lat": 0.0, "name": "fa15006d67a1c0f7535a562f52ba9b6e", "is_reserved": 0, "rental_uris": {"android": "https://dc.lft.to/lastmile_qr_scan", "ios": "https://dc.lft.to/lastmile_qr_scan"}, "fusion_lon": 0.0}, {"lat": 38.909720666666665, "is_disabled": 0, "type": "electric_scooter", "lon": -77.023787, "bike_id": "5466332070b4a49dcadb3cd415cc6455", "fusion_lat": 0.0, "name": "5466332070b4a49dcadb3cd415cc6455", "is_reserved": 0, "rental_uris": {"android": "https://dc.lft.to/lastmile_qr_scan", "ios": "https://dc.lft.to/lastmile_qr_scan"}, "fusion_lon": 0.0}, {"lat": 38.92572033333333, "is_disabled": 0, "type": "electric_scooter", "lon": -77.05758366666667, "bike_id": "f136a0d830a79eeeda26358ba4d80256", "fusion_lat": 0.0, "name": "f136a0d830a79eeeda26358ba4d80256", "is_reserved": 0, "rental_uris": {"android": "https://dc.lft.to/lastmile_qr_scan", "ios": "https://dc.lft.to/lastmile_qr_scan"}, "fusion_lon": 0.0}, {"lat": 38.806861, "is_disabled": 0, "type": "electric_bike", "lon": -77.08119133333334, "bike_id": "089fd3e22a83b7cb0e191006635fa082", "fusion_lat": 0.0, "name": "089fd3e22a83b7cb0e191006635fa082", "is_reserved": 0, "rental_uris": {"android": "https://dc.lft.to/lastmile_qr_scan", "ios": "https://dc.lft.to/lastmile_qr_scan"}, "fusion_lon": 0.0}, {"lat": 38.954073666666666, "is_disabled": 0, "type": "electric_scooter", "lon": -77.03631416666667, "bike_id": "773943f34beae2283cc7521193981589", "fusion_lat": 0.0, "name": "773943f34beae2283cc7521193981589", "is_reserved": 0, "rental_uris": {"android": "https://dc.lft.to/lastmile_qr_scan", "ios": "https://dc.lft.to/lastmile_qr_scan"}, "fusion_lon": 0.0}, {"lat": 38.899173833333336, "is_disabled": 0, "type": "electric_scooter", "lon": -77.03283466666667, "bike_id": "db091a3483e165a6c2f48def005dfa88", "fusion_lat": 0.0, "name": "db091a3483e165a6c2f48def005dfa88", "is_reserved": 0, "rental_uris": {"android": "https://dc.lft.to/lastmile_qr_scan", "ios": "https://dc.lft.to/lastmile_qr_scan"}, "fusion_lon": 0.0}, {"lat": 38.920901, "is_disabled": 0, "type": "electric_scooter", "lon": -77.0420015, "bike_id": "c6dd41add508e50a5b79ffe11bdd409e", "fusion_lat": 0.0, "name": "c6dd41add508e50a5b79ffe11bdd409e", "is_reserved": 0, "rental_uris": {"android": "https://dc.lft.to/lastmile_qr_scan", "ios": "https://dc.lft.to/lastmile_qr_scan"}, "fusion_lon": 0.0}, {"lat": 38.91217983333333, "is_disabled": 0, "type": "electric_scooter", "lon": -77.0446825, "bike_id": "198fdf674221b1f7c2887de243692767", "fusion_lat": 0.0, "name": "198fdf674221b1f7c2887de243692767", "is_reserved": 0, "rental_uris": {"android": "https://dc.lft.to/lastmile_qr_scan", "ios": "https://dc.lft.to/lastmile_qr_scan"}, "fusion_lon": 0.0}, {"lat": 38.8690515, "is_disabled": 0, "type": "electric_bike", "lon": -77.13183166666667, "bike_id": "be7a93e81e57d6d793884fae6e513ae1", "fusion_lat": 0.0, "name": "be7a93e81e57d6d793884fae6e513ae1", "is_reserved": 0, "rental_uris": {"android": "https://dc.lft.to/lastmile_qr_scan", "ios": "https://dc.lft.to/lastmile_qr_scan"}, "fusion_lon": 0.0}, {"lat": 38.80446883333333, "is_disabled": 0, "type": "electric_bike", "lon": -77.0608875, "bike_id": "d438cee2b4db9b37aba83ebaf508c33f", "fusion_lat": 0.0, "name": "d438cee2b4db9b37aba83ebaf508c33f", "is_reserved": 0, "rental_uris": {"android": "https://dc.lft.to/lastmile_qr_scan", "ios": "https://dc.lft.to/lastmile_qr_scan"}, "fusion_lon": 0.0}, {"lat": 38.90782866666667, "is_disabled": 0, "type": "electric_scooter", "lon": -77.04238633333334, "bike_id": "73b230254529018ce2a6b7bfe48155a8", "fusion_lat": 0.0, "name": "73b230254529018ce2a6b7bfe48155a8", "is_reserved": 0, "rental_uris": {"android": "https://dc.lft.to/lastmile_qr_scan", "ios": "https://dc.lft.to/lastmile_qr_scan"}, "fusion_lon": 0.0}, {"lat": 38.904937333333336, "is_disabled": 0, "type": "electric_scooter", "lon": -77.02809316666666, "bike_id": "4e9baf8bdbffda05ebe2dd12c7c835fa", "fusion_lat": 0.0, "name": "4e9baf8bdbffda05ebe2dd12c7c835fa", "is_reserved": 0, "rental_uris": {"android": "https://dc.lft.to/lastmile_qr_scan", "ios": "https://dc.lft.to/lastmile_qr_scan"}, "fusion_lon": 0.0}, {"lat": 39.0157815, "is_disabled": 0, "type": "electric_bike", "lon": -77.0423825, "bike_id": "848c3560439fba407f3edc49cb37a268", "fusion_lat": 0.0, "name": "848c3560439fba407f3edc49cb37a268", "is_reserved": 0, "rental_uris": {"android": "https://dc.lft.to/lastmile_qr_scan", "ios": "https://dc.lft.to/lastmile_qr_scan"}, "fusion_lon": 0.0}, {"lat": 38.955737166666665, "is_disabled": 0, "type": "electric_scooter", "lon": -77.07008316666666, "bike_id": "b425ae9340e6518676f07509147e78c7", "fusion_lat": 0.0, "name": "b425ae9340e6518676f07509147e78c7", "is_reserved": 0, "rental_uris": {"android": "https://dc.lft.to/lastmile_qr_scan", "ios": "https://dc.lft.to/lastmile_qr_scan"}, "fusion_lon": 0.0}, {"lat": 38.91049266666667, "is_disabled": 0, "type": "electric_scooter", "lon": -77.01509383333334, "bike_id": "1ebec6d567e7ebcf6436fedff2a1efb8", "fusion_lat": 0.0, "name": "1ebec6d567e7ebcf6436fedff2a1efb8", "is_reserved": 0, "rental_uris": {"android": "https://dc.lft.to/lastmile_qr_scan", "ios": "https://dc.lft.to/lastmile_qr_scan"}, "fusion_lon": 0.0}, {"lat": 38.88126416666667, "is_disabled": 0, "type": "electric_scooter", "lon": -77.014095, "bike_id": "899f0aae7814aaf511a963dc4555b108", "fusion_lat": 0.0, "name": "899f0aae7814aaf511a963dc4555b108", "is_reserved": 0, "rental_uris": {"android": "https://dc.lft.to/lastmile_qr_scan", "ios": "https://dc.lft.to/lastmile_qr_scan"}, "fusion_lon": 0.0}, {"lat": 38.95878, "is_disabled": 0, "type": "electric_bike", "lon": -77.0103305, "bike_id": "c735fd236a21bb32022af7f0516866e8", "fusion_lat": 0.0, "name": "c735fd236a21bb32022af7f0516866e8", "is_reserved": 0, "rental_uris": {"android": "https://dc.lft.to/lastmile_qr_scan", "ios": "https://dc.lft.to/lastmile_qr_scan"}, "fusion_lon": 0.0}, {"lat": 38.8971565, "is_disabled": 0, "type": "electric_scooter", "lon": -77.02149283333334, "bike_id": "fed9f270f03f08b830f2f0f4f67aa3b9", "fusion_lat": 0.0, "name": "fed9f270f03f08b830f2f0f4f67aa3b9", "is_reserved": 0, "rental_uris": {"android": "https://dc.lft.to/lastmile_qr_scan", "ios": "https://dc.lft.to/lastmile_qr_scan"}, "fusion_lon": 0.0}, {"lat": 38.92206, "is_disabled": 0, "type": "electric_scooter", "lon": -77.04014166666667, "bike_id": "18626a105d180b1ec051946eee6f47cc", "fusion_lat": 0.0, "name": "18626a105d180b1ec051946eee6f47cc", "is_reserved": 0, "rental_uris": {"android": "https://dc.lft.to/lastmile_qr_scan", "ios": "https://dc.lft.to/lastmile_qr_scan"}, "fusion_lon": 0.0}, {"lat": 38.907261166666665, "is_disabled": 0, "type": "electric_scooter", "lon": -77.02971016666666, "bike_id": "b0c279809c9623491cb53c6d6772ebd5", "fusion_lat": 0.0, "name": "b0c279809c9623491cb53c6d6772ebd5", "is_reserved": 0, "rental_uris": {"android": "https://dc.lft.to/lastmile_qr_scan", "ios": "https://dc.lft.to/lastmile_qr_scan"}, "fusion_lon": 0.0}, {"lat": 38.92071516666667, "is_disabled": 0, "type": "electric_scooter", "lon": -77.03202016666667, "bike_id": "80449f9d922308f4cb7501a231550678", "fusion_lat": 0.0, "name": "80449f9d922308f4cb7501a231550678", "is_reserved": 0, "rental_uris": {"android": "https://dc.lft.to/lastmile_qr_scan", "ios": "https://dc.lft.to/lastmile_qr_scan"}, "fusion_lon": 0.0}, {"lat": 38.90554433333333, "is_disabled": 0, "type": "electric_scooter", "lon": -77.0570735, "bike_id": "b71dc8fb77a276d53be15a9e3bc982ce", "fusion_lat": 0.0, "name": "b71dc8fb77a276d53be15a9e3bc982ce", "is_reserved": 0, "rental_uris": {"android": "https://dc.lft.to/lastmile_qr_scan", "ios": "https://dc.lft.to/lastmile_qr_scan"}, "fusion_lon": 0.0}, {"lat": 38.91413266666667, "is_disabled": 0, "type": "electric_scooter", "lon": -77.02564316666667, "bike_id": "1601a903a636837db263d95d9bd851e7", "fusion_lat": 0.0, "name": "1601a903a636837db263d95d9bd851e7", "is_reserved": 0, "rental_uris": {"android": "https://dc.lft.to/lastmile_qr_scan", "ios": "https://dc.lft.to/lastmile_qr_scan"}, "fusion_lon": 0.0}, {"lat": 38.9060185, "is_disabled": 0, "type": "electric_scooter", "lon": -77.01618466666666, "bike_id": "72b07fd5d405dcc5c6e1f2b9338db418", "fusion_lat": 0.0, "name": "72b07fd5d405dcc5c6e1f2b9338db418", "is_reserved": 0, "rental_uris": {"android": "https://dc.lft.to/lastmile_qr_scan", "ios": "https://dc.lft.to/lastmile_qr_scan"}, "fusion_lon": 0.0}, {"lat": 38.9229075, "is_disabled": 0, "type": "electric_scooter", "lon": -77.02969266666666, "bike_id": "fbcaa8a4d42eb88f8699879fc4d54b85", "fusion_lat": 0.0, "name": "fbcaa8a4d42eb88f8699879fc4d54b85", "is_reserved": 0, "rental_uris": {"android": "https://dc.lft.to/lastmile_qr_scan", "ios": "https://dc.lft.to/lastmile_qr_scan"}, "fusion_lon": 0.0}, {"lat": 38.91818383333333, "is_disabled": 0, "type": "electric_scooter", "lon": -77.03195433333333, "bike_id": "d9aa4e1759b07f0c5e761f2b0c125373", "fusion_lat": 0.0, "name": "d9aa4e1759b07f0c5e761f2b0c125373", "is_reserved": 0, "rental_uris": {"android": "https://dc.lft.to/lastmile_qr_scan", "ios": "https://dc.lft.to/lastmile_qr_scan"}, "fusion_lon": 0.0}, {"lat": 38.893433333333334, "is_disabled": 0, "type": "electric_scooter", "lon": -76.9916235, "bike_id": "36c95bf409cb821c3bd27dbb203c7f26", "fusion_lat": 0.0, "name": "36c95bf409cb821c3bd27dbb203c7f26", "is_reserved": 0, "rental_uris": {"android": "https://dc.lft.to/lastmile_qr_scan", "ios": "https://dc.lft.to/lastmile_qr_scan"}, "fusion_lon": 0.0}, {"lat": 38.901994333333334, "is_disabled": 0, "type": "electric_scooter", "lon": -76.9820995, "bike_id": "6fc58b412d011dadaca14d2897706e7b", "fusion_lat": 0.0, "name": "6fc58b412d011dadaca14d2897706e7b", "is_reserved": 0, "rental_uris": {"android": "https://dc.lft.to/lastmile_qr_scan", "ios": "https://dc.lft.to/lastmile_qr_scan"}, "fusion_lon": 0.0}, {"lat": 38.935308166666665, "is_disabled": 0, "type": "electric_scooter", "lon": -77.07299283333333, "bike_id": "a34b6e0f8db6bd295683dd3b08f4e525", "fusion_lat": 0.0, "name": "a34b6e0f8db6bd295683dd3b08f4e525", "is_reserved": 0, "rental_uris": {"android": "https://dc.lft.to/lastmile_qr_scan", "ios": "https://dc.lft.to/lastmile_qr_scan"}, "fusion_lon": 0.0}, {"lat": 38.92733483333333, "is_disabled": 0, "type": "electric_scooter", "lon": -77.02246183333334, "bike_id": "2407f6e43898c096e3f05df7d924a438", "fusion_lat": 0.0, "name": "2407f6e43898c096e3f05df7d924a438", "is_reserved": 0, "rental_uris": {"android": "https://dc.lft.to/lastmile_qr_scan", "ios": "https://dc.lft.to/lastmile_qr_scan"}, "fusion_lon": 0.0}, {"lat": 38.9002125, "is_disabled": 0, "type": "electric_scooter", "lon": -77.03321666666666, "bike_id": "b7f499814b8d6dce5f382b3a19235e86", "fusion_lat": 0.0, "name": "b7f499814b8d6dce5f382b3a19235e86", "is_reserved": 0, "rental_uris": {"android": "https://dc.lft.to/lastmile_qr_scan", "ios": "https://dc.lft.to/lastmile_qr_scan"}, "fusion_lon": 0.0}, {"lat": 38.892224666666664, "is_disabled": 0, "type": "electric_scooter", "lon": -77.04510366666666, "bike_id": "9e71790aca473bf4f611a5f1223b6f47", "fusion_lat": 0.0, "name": "9e71790aca473bf4f611a5f1223b6f47", "is_reserved": 0, "rental_uris": {"android": "https://dc.lft.to/lastmile_qr_scan", "ios": "https://dc.lft.to/lastmile_qr_scan"}, "fusion_lon": 0.0}, {"lat": 38.907131166666666, "is_disabled": 0, "type": "electric_scooter", "lon": -77.045063, "bike_id": "37f9d163cdce7816f6f89cf7593897d6", "fusion_lat": 0.0, "name": "37f9d163cdce7816f6f89cf7593897d6", "is_reserved": 0, "rental_uris": {"android": "https://dc.lft.to/lastmile_qr_scan", "ios": "https://dc.lft.to/lastmile_qr_scan"}, "fusion_lon": 0.0}, {"lat": 38.9176415, "is_disabled": 0, "type": "electric_scooter", "lon": -77.0319525, "bike_id": "58e45abb944b9059bb7d3f34a8108f1e", "fusion_lat": 0.0, "name": "58e45abb944b9059bb7d3f34a8108f1e", "is_reserved": 0, "rental_uris": {"android": "https://dc.lft.to/lastmile_qr_scan", "ios": "https://dc.lft.to/lastmile_qr_scan"}, "fusion_lon": 0.0}, {"lat": 38.90724, "is_disabled": 0, "type": "electric_scooter", "lon": -77.029685, "bike_id": "b3bdd722b5c6529138c7d0330c7a2d1f", "fusion_lat": 0.0, "name": "b3bdd722b5c6529138c7d0330c7a2d1f", "is_reserved": 0, "rental_uris": {"android": "https://dc.lft.to/lastmile_qr_scan", "ios": "https://dc.lft.to/lastmile_qr_scan"}, "fusion_lon": 0.0}, {"lat": 38.90727316666667, "is_disabled": 0, "type": "electric_scooter", "lon": -77.034385, "bike_id": "464d85479affc62f4f2aae8531d6b584", "fusion_lat": 0.0, "name": "464d85479affc62f4f2aae8531d6b584", "is_reserved": 0, "rental_uris": {"android": "https://dc.lft.to/lastmile_qr_scan", "ios": "https://dc.lft.to/lastmile_qr_scan"}, "fusion_lon": 0.0}, {"lat": 38.917154833333335, "is_disabled": 0, "type": "electric_scooter", "lon": -77.03836483333333, "bike_id": "ec512710c1053cdf98b0882b88eb4743", "fusion_lat": 0.0, "name": "ec512710c1053cdf98b0882b88eb4743", "is_reserved": 0, "rental_uris": {"android": "https://dc.lft.to/lastmile_qr_scan", "ios": "https://dc.lft.to/lastmile_qr_scan"}, "fusion_lon": 0.0}, {"lat": 38.902568333333335, "is_disabled": 0, "type": "electric_scooter", "lon": -77.04365683333333, "bike_id": "c1933976e4ec2db78fa74ced89e15cc8", "fusion_lat": 0.0, "name": "c1933976e4ec2db78fa74ced89e15cc8", "is_reserved": 0, "rental_uris": {"android": "https://dc.lft.to/lastmile_qr_scan", "ios": "https://dc.lft.to/lastmile_qr_scan"}, "fusion_lon": 0.0}, {"lat": 38.931216, "is_disabled": 0, "type": "electric_scooter", "lon": -77.020864, "bike_id": "29a1e756ba18e12ba347f70fef1e1132", "fusion_lat": 0.0, "name": "29a1e756ba18e12ba347f70fef1e1132", "is_reserved": 0, "rental_uris": {"android": "https://dc.lft.to/lastmile_qr_scan", "ios": "https://dc.lft.to/lastmile_qr_scan"}, "fusion_lon": 0.0}, {"lat": 38.933864666666665, "is_disabled": 0, "type": "electric_scooter", "lon": -77.03253183333334, "bike_id": "737b9cd007f24102c9dba2ed9fd3a401", "fusion_lat": 0.0, "name": "737b9cd007f24102c9dba2ed9fd3a401", "is_reserved": 0, "rental_uris": {"android": "https://dc.lft.to/lastmile_qr_scan", "ios": "https://dc.lft.to/lastmile_qr_scan"}, "fusion_lon": 0.0}, {"lat": 38.886002500000004, "is_disabled": 0, "type": "electric_scooter", "lon": -77.02197916666667, "bike_id": "84cd89e21daab2641f04117e249c0e42", "fusion_lat": 0.0, "name": "84cd89e21daab2641f04117e249c0e42", "is_reserved": 0, "rental_uris": {"android": "https://dc.lft.to/lastmile_qr_scan", "ios": "https://dc.lft.to/lastmile_qr_scan"}, "fusion_lon": 0.0}, {"lat": 38.90738483333333, "is_disabled": 0, "type": "electric_scooter", "lon": -77.027153, "bike_id": "4621a185fa24b2605dc36e01f2db5333", "fusion_lat": 0.0, "name": "4621a185fa24b2605dc36e01f2db5333", "is_reserved": 0, "rental_uris": {"android": "https://dc.lft.to/lastmile_qr_scan", "ios": "https://dc.lft.to/lastmile_qr_scan"}, "fusion_lon": 0.0}, {"lat": 38.92776716666667, "is_disabled": 0, "type": "electric_scooter", "lon": -77.02704833333334, "bike_id": "f4e12ae1386125d0e9e84c687d097da0", "fusion_lat": 0.0, "name": "f4e12ae1386125d0e9e84c687d097da0", "is_reserved": 0, "rental_uris": {"android": "https://dc.lft.to/lastmile_qr_scan", "ios": "https://dc.lft.to/lastmile_qr_scan"}, "fusion_lon": 0.0}, {"lat": 38.90386383333333, "is_disabled": 0, "type": "electric_bike", "lon": -77.0164375, "bike_id": "2fe72fd1e9bf087af1cca4e2cfb463ae", "fusion_lat": 0.0, "name": "2fe72fd1e9bf087af1cca4e2cfb463ae", "is_reserved": 0, "rental_uris": {"android": "https://dc.lft.to/lastmile_qr_scan", "ios": "https://dc.lft.to/lastmile_qr_scan"}, "fusion_lon": 0.0}, {"lat": 38.9081505, "is_disabled": 0, "type": "electric_scooter", "lon": -77.0435785, "bike_id": "0da45b69f75897a131516e96842f5dd7", "fusion_lat": 0.0, "name": "0da45b69f75897a131516e96842f5dd7", "is_reserved": 0, "rental_uris": {"android": "https://dc.lft.to/lastmile_qr_scan", "ios": "https://dc.lft.to/lastmile_qr_scan"}, "fusion_lon": 0.0}, {"lat": 38.905608666666666, "is_disabled": 0, "type": "electric_scooter", "lon": -77.01314133333334, "bike_id": "34112b0e91784d984c4b21c44f3e863a", "fusion_lat": 0.0, "name": "34112b0e91784d984c4b21c44f3e863a", "is_reserved": 0, "rental_uris": {"android": "https://dc.lft.to/lastmile_qr_scan", "ios": "https://dc.lft.to/lastmile_qr_scan"}, "fusion_lon": 0.0}, {"lat": 38.884839166666666, "is_disabled": 0, "type": "electric_scooter", "lon": -76.94524, "bike_id": "8473d57334275d9eae97067389048d5a", "fusion_lat": 0.0, "name": "8473d57334275d9eae97067389048d5a", "is_reserved": 0, "rental_uris": {"android": "https://dc.lft.to/lastmile_qr_scan", "ios": "https://dc.lft.to/lastmile_qr_scan"}, "fusion_lon": 0.0}, {"lat": 38.905598499999996, "is_disabled": 0, "type": "electric_scooter", "lon": -77.026936, "bike_id": "828f1f4ed5bde3692822c4ebf55ea455", "fusion_lat": 0.0, "name": "828f1f4ed5bde3692822c4ebf55ea455", "is_reserved": 0, "rental_uris": {"android": "https://dc.lft.to/lastmile_qr_scan", "ios": "https://dc.lft.to/lastmile_qr_scan"}, "fusion_lon": 0.0}, {"lat": 38.922254333333335, "is_disabled": 0, "type": "electric_scooter", "lon": -77.037609, "bike_id": "19682a2da82c87dac820236d0725a6b0", "fusion_lat": 0.0, "name": "19682a2da82c87dac820236d0725a6b0", "is_reserved": 0, "rental_uris": {"android": "https://dc.lft.to/lastmile_qr_scan", "ios": "https://dc.lft.to/lastmile_qr_scan"}, "fusion_lon": 0.0}, {"lat": 38.90272216666666, "is_disabled": 0, "type": "electric_scooter", "lon": -77.05257683333333, "bike_id": "20499c4d003f27455376b4798c60d0aa", "fusion_lat": 0.0, "name": "20499c4d003f27455376b4798c60d0aa", "is_reserved": 0, "rental_uris": {"android": "https://dc.lft.to/lastmile_qr_scan", "ios": "https://dc.lft.to/lastmile_qr_scan"}, "fusion_lon": 0.0}, {"lat": 38.8922345, "is_disabled": 0, "type": "electric_scooter", "lon": -77.048605, "bike_id": "2339b763e4ca21a528e52c334130a2a4", "fusion_lat": 0.0, "name": "2339b763e4ca21a528e52c334130a2a4", "is_reserved": 0, "rental_uris": {"android": "https://dc.lft.to/lastmile_qr_scan", "ios": "https://dc.lft.to/lastmile_qr_scan"}, "fusion_lon": 0.0}, {"lat": 38.91736733333333, "is_disabled": 0, "type": "electric_scooter", "lon": -77.031944, "bike_id": "db5f29e96629799464c0cccb2616ca99", "fusion_lat": 0.0, "name": "db5f29e96629799464c0cccb2616ca99", "is_reserved": 0, "rental_uris": {"android": "https://dc.lft.to/lastmile_qr_scan", "ios": "https://dc.lft.to/lastmile_qr_scan"}, "fusion_lon": 0.0}, {"lat": 38.9073075, "is_disabled": 0, "type": "electric_scooter", "lon": -77.047638, "bike_id": "80945480f7905ddac7ccee2b78e4cf4c", "fusion_lat": 0.0, "name": "80945480f7905ddac7ccee2b78e4cf4c", "is_reserved": 0, "rental_uris": {"android": "https://dc.lft.to/lastmile_qr_scan", "ios": "https://dc.lft.to/lastmile_qr_scan"}, "fusion_lon": 0.0}, {"lat": 38.850319, "is_disabled": 0, "type": "electric_bike", "lon": -77.09804833333334, "bike_id": "867107cf263a46cfdf01116ad1056f74", "fusion_lat": 0.0, "name": "867107cf263a46cfdf01116ad1056f74", "is_reserved": 0, "rental_uris": {"android": "https://dc.lft.to/lastmile_qr_scan", "ios": "https://dc.lft.to/lastmile_qr_scan"}, "fusion_lon": 0.0}, {"lat": 38.9307825, "is_disabled": 0, "type": "electric_scooter", "lon": -77.07763983333334, "bike_id": "883510bb9bf109d11322f8624954e66e", "fusion_lat": 0.0, "name": "883510bb9bf109d11322f8624954e66e", "is_reserved": 0, "rental_uris": {"android": "https://dc.lft.to/lastmile_qr_scan", "ios": "https://dc.lft.to/lastmile_qr_scan"}, "fusion_lon": 0.0}, {"lat": 38.91740016666667, "is_disabled": 0, "type": "electric_scooter", "lon": -77.03194416666666, "bike_id": "5c3192994b17c76ec2ed4f88e541e772", "fusion_lat": 0.0, "name": "5c3192994b17c76ec2ed4f88e541e772", "is_reserved": 0, "rental_uris": {"android": "https://dc.lft.to/lastmile_qr_scan", "ios": "https://dc.lft.to/lastmile_qr_scan"}, "fusion_lon": 0.0}, {"lat": 38.895285333333334, "is_disabled": 0, "type": "electric_scooter", "lon": -76.94889783333333, "bike_id": "1c8b115f085bad63a54f51f49498aa3a", "fusion_lat": 0.0, "name": "1c8b115f085bad63a54f51f49498aa3a", "is_reserved": 0, "rental_uris": {"android": "https://dc.lft.to/lastmile_qr_scan", "ios": "https://dc.lft.to/lastmile_qr_scan"}, "fusion_lon": 0.0}, {"lat": 38.857921, "is_disabled": 0, "type": "electric_bike", "lon": -77.09963866666666, "bike_id": "fa79e0c4b6da49eb17160b0dd41f85ee", "fusion_lat": 0.0, "name": "fa79e0c4b6da49eb17160b0dd41f85ee", "is_reserved": 0, "rental_uris": {"android": "https://dc.lft.to/lastmile_qr_scan", "ios": "https://dc.lft.to/lastmile_qr_scan"}, "fusion_lon": 0.0}, {"lat": 38.93149483333333, "is_disabled": 0, "type": "electric_scooter", "lon": -77.0214035, "bike_id": "fad4d992637dbd11469adee07df49222", "fusion_lat": 0.0, "name": "fad4d992637dbd11469adee07df49222", "is_reserved": 0, "rental_uris": {"android": "https://dc.lft.to/lastmile_qr_scan", "ios": "https://dc.lft.to/lastmile_qr_scan"}, "fusion_lon": 0.0}, {"lat": 38.92078866666667, "is_disabled": 0, "type": "electric_scooter", "lon": -77.02518783333333, "bike_id": "3cb0c7385a9a27e4e3c75b0f14642029", "fusion_lat": 0.0, "name": "3cb0c7385a9a27e4e3c75b0f14642029", "is_reserved": 0, "rental_uris": {"android": "https://dc.lft.to/lastmile_qr_scan", "ios": "https://dc.lft.to/lastmile_qr_scan"}, "fusion_lon": 0.0},