{"data": {"bikes": [{"bike_id": "10524e8d2650e6b9eb20a42ed5629382", "is_reserved": 0, "name": "10524e8d2650e6b9eb20a42ed5629382", "lat": 38.903958833333334, "fusion_lat": 0.0, "lon": -77.03631283333333, "is_disabled": 0, "fusion_lon": 0.0, "rental_uris": {"android": "https://dc.lft.to/lastmile_qr_scan", "ios": "https://dc.lft.to/lastmile_qr_scan"}, "type": "electric_scooter"}, {"bike_id": "b2543fd71399d8e1e34589bb2963970b", "is_reserved": 0, "name": "b2543fd71399d8e1e34589bb2963970b", "lat": 38.902828166666666, "fusion_lat": 0.0, "lon": -77.02385016666666, "is_disabled": 0, "fusion_lon": 0.0, "rental_uris": {"android": "https://dc.lft.to/lastmile_qr_scan", "ios": "https://dc.lft.to/lastmile_qr_scan"}, "type": "electric_scooter"}, {"bike_id": "42d5b76f11619bcd05199af8dc08ab7c", "is_reserved": 0, "name": "42d5b76f11619bcd05199af8dc08ab7c", "lat": 38.92370616666667, "fusion_lat": 0.0, "lon": -77.05176216666666, "is_disabled": 0, "fusion_lon": 0.0, "rental_uris": {"android": "https://dc.lft.to/lastmile_qr_scan", "ios": "https://dc.lft.to/lastmile_qr_scan"}, "type": "electric_scooter"}, {"bike_id": "6558f6f2e875d2e4c0ff5e87e77eb68d", "is_reserved": 0, "name": "6558f6f2e875d2e4c0ff5e87e77eb68d", "lat": 38.909847166666665, "fusion_lat": 0.0, "lon": -77.04848483333333, "is_disabled": 0, "fusion_lon": 0.0, "rental_uris": {"android": "https://dc.lft.to/lastmile_qr_scan", "ios": "https://dc.lft.to/lastmile_qr_scan"}, "type": "electric_scooter"}, {"bike_id": "7642d737015862fc5d92b64aa0d00f87", "is_reserved": 0, "name": "7642d737015862fc5d92b64aa0d00f87", "lat": 38.906075333333334, "fusion_lat": 0.0, "lon": -77.03338883333333, "is_disabled": 0, "fusion_lon": 0.0, "rental_uris": {"android": "https://dc.lft.to/lastmile_qr_scan", "ios": "https://dc.lft.to/lastmile_qr_scan"}, "type": "electric_scooter"}, {"bike_id": "275d5d9a6254c931640430a8dde943ca", "is_reserved": 0, "name": "275d5d9a6254c931640430a8dde943ca", "lat": 38.87422316666667, "fusion_lat": 0.0, "lon": -76.9718095, "is_disabled": 0, "fusion_lon": 0.0, "rental_uris": {"android": "https://dc.lft.to/lastmile_qr_scan", "ios": "https://dc.lft.to/lastmile_qr_scan"}, "type": "electric_scooter"}, {"bike_id": "ee1390afefcc6a5f69bbad0caaa7b98b", "is_reserved": 0, "name": "ee1390afefcc6a5f69bbad0caaa7b98b", "lat": 38.915549666666664, "fusion_lat": 0.0, "lon": -77.005862, "is_disabled": 0, "fusion_lon": 0.0, "rental_uris": {"android": "https://dc.lft.to/lastmile_qr_scan", "ios": "https://dc.lft.to/lastmile_qr_scan"}, "type": "electric_scooter"}, {"bike_id": "9a26c0ddab4e85b642fa96fdf31f2740", "is_reserved": 0, "name": "9a26c0ddab4e85b642fa96fdf31f2740", "lat": 38.918080833333335, "fusion_lat": 0.0, "lon": -77.03181916666666, "is_disabled": 0, "fusion_lon": 0.0, "rental_uris": {"android": "https://dc.lft.to/lastmile_qr_scan", "ios": "https://dc.lft.to/lastmile_qr_scan"}, "type": "electric_scooter"}, {"bike_id": "7b80cf44bd7f6bd664827c81cc94a60e", "is_reserved": 0, "name": "7b80cf44bd7f6bd664827c81cc94a60e", "lat": 38.92414766666667, "fusion_lat": 0.0, "lon": -77.0200605, "is_disabled": 0, "fusion_lon": 0.0, "rental_uris": {"android": "https://dc.lft.to/lastmile_qr_scan", "ios": "https://dc.lft.to/lastmile_qr_scan"}, "type": "electric_scooter"}, {"bike_id": "28b03401aaeb7b98f4ee2f6a37ebc2a0", "is_reserved": 0, "name": "28b03401aaeb7b98f4ee2f6a37ebc2a0", "lat": 38.898399833333336, "fusion_lat": 0.0, "lon": -77.02223116666667, "is_disabled": 0, "fusion_lon": 0.0, "rental_uris": {"android": "https://dc.lft.to/lastmile_qr_scan", "ios": "https://dc.lft.to/lastmile_qr_scan"}, "type": "electric_scooter"}, {"bike_id": "6b07a81e96f12fc23edd2231ba768cff", "is_reserved": 0, "name": "6b07a81e96f12fc23edd2231ba768cff", "lat": 38.923883833333335, "fusion_lat": 0.0, "lon": -77.027434, "is_disabled": 0, "fusion_lon": 0.0, "rental_uris": {"android": "https://dc.lft.to/lastmile_qr_scan", "ios": "https://dc.lft.to/lastmile_qr_scan"}, "type": "electric_scooter"}, {"bike_id": "23ace3449df181ef9bff4579b835d2c7", "is_reserved": 0, "name": "23ace3449df181ef9bff4579b835d2c7", "lat": 38.872596333333334, "fusion_lat": 0.0, "lon": -77.00574616666667, "is_disabled": 0, "fusion_lon": 0.0, "rental_uris": {"android": "https://dc.lft.to/lastmile_qr_scan", "ios": "https://dc.lft.to/lastmile_qr_scan"}, "type": "electric_scooter"}, {"bike_id": "7366db3389f97c668015d240ac91fdfe", "is_reserved": 0, "name": "7366db3389f97c668015d240ac91fdfe", "lat": 38.9101255, "fusion_lat": 0.0, "lon": -77.034448, "is_disabled": 0, "fusion_lon": 0.0, "rental_uris": {"android": "https://dc.lft.to/lastmile_qr_scan", "ios": "https://dc.lft.to/lastmile_qr_scan"}, "type": "electric_scooter"}, {"bike_id": "c9420e33c075085b316ad2585b6dc399", "is_reserved": 0, "name": "c9420e33c075085b316ad2585b6dc399", "lat": 38.9001805, "fusion_lat": 0.0, "lon": -76.99841933333333, "is_disabled": 0, "fusion_lon": 0.0, "rental_uris": {"android": "https://dc.lft.to/lastmile_qr_scan", "ios": "https://dc.lft.to/lastmile_qr_scan"}, "type": "electric_scooter"}, {"bike_id": "7530ae74b23c417c5a243391f9da5e95", "is_reserved": 0, "name": "7530ae74b23c417c5a243391f9da5e95", "lat": 38.866644666666666, "fusion_lat": 0.0, "lon": -76.98901933333333, "is_disabled": 0, "fusion_lon": 0.0, "rental_uris": {"android": "https://dc.lft.to/lastmile_qr_scan", "ios": "https://dc.lft.to/lastmile_qr_scan"}, "type": "electric_scooter"}, {"bike_id": "09980e1429e051dcbc40b5e7250f98c2", "is_reserved": 0, "name": "09980e1429e051dcbc40b5e7250f98c2", "lat": 38.88767983333334, "fusion_lat": 0.0, "lon": -77.02942283333333, "is_disabled": 0, "fusion_lon": 0.0, "rental_uris": {"android": "https://dc.lft.to/lastmile_qr_scan", "ios": "https://dc.lft.to/lastmile_qr_scan"}, "type": "electric_scooter"}, {"bike_id": "7205e99e5d37f38595012a4e66d2b8c4", "is_reserved": 0, "name": "7205e99e5d37f38595012a4e66d2b8c4", "lat": 38.91709183333333, "fusion_lat": 0.0, "lon": -77.02383466666667, "is_disabled": 0, "fusion_lon": 0.0, "rental_uris": {"android": "https://dc.lft.to/lastmile_qr_scan", "ios": "https://dc.lft.to/lastmile_qr_scan"}, "type": "electric_scooter"}, {"bike_id": "a380b095fa5ca1f948963a2c4ad5b72f", "is_reserved": 0, "name": "a380b095fa5ca1f948963a2c4ad5b72f", "lat": 38.900837833333334, "fusion_lat": 0.0, "lon": -77.04918766666667, "is_disabled": 0, "fusion_lon": 0.0, "rental_uris": {"android": "https://dc.lft.to/lastmile_qr_scan", "ios": "https://dc.lft.to/lastmile_qr_scan"}, "type": "electric_scooter"}, {"bike_id": "123254b0433e6f0cabc1f1769788c4f9", "is_reserved": 0, "name": "123254b0433e6f0cabc1f1769788c4f9", "lat": 38.90948316666667, "fusion_lat": 0.0, "lon": -77.03180166666667, "is_disabled": 0, "fusion_lon": 0.0, "rental_uris": {"android": "https://dc.lft.to/lastmile_qr_scan", "ios": "https://dc.lft.to/lastmile_qr_scan"}, "type": "electric_scooter"}, {"bike_id": "a87f604fd0bdf1161472fff776c8587a", "is_reserved": 0, "name": "a87f604fd0bdf1161472fff776c8587a", "lat": 38.9016155, "fusion_lat": 0.0, "lon": -77.05910683333333, "is_disabled": 0, "fusion_lon": 0.0, "rental_uris": {"android": "https://dc.lft.to/lastmile_qr_scan", "ios": "https://dc.lft.to/lastmile_qr_scan"}, "type": "electric_scooter"}, {"bike_id": "fdcd2836a8d2a7ece7f882c807bddc87", "is_reserved": 0, "name": "fdcd2836a8d2a7ece7f882c807bddc87", "lat": 38.920359833333336, "fusion_lat": 0.0, "lon": -77.016716, "is_disabled": 0, "fusion_lon": 0.0, "rental_uris": {"android": "https://dc.lft.to/lastmile_qr_scan", "ios": "https://dc.lft.to/lastmile_qr_scan"}, "type": "electric_scooter"}, {"bike_id": "ca931ab75afb9b32b6ec5c673d38a579", "is_reserved": 0, "name": "ca931ab75afb9b32b6ec5c673d38a579", "lat": 38.87374533333333, "fusion_lat": 0.0, "lon": -77.00059866666666, "is_disabled": 0, "fusion_lon": 0.0, "rental_uris": {"android": "https://dc.lft.to/lastmile_qr_scan", "ios": "https://dc.lft.to/lastmile_qr_scan"}, "type": "electric_scooter"}, {"bike_id": "31f2589654b14df80fd77e9b043d7d01", "is_reserved": 0, "name": "31f2589654b14df80fd77e9b043d7d01", "lat": 38.89495866666667, "fusion_lat": 0.0, "lon": -77.00359133333333, "is_disabled": 0, "fusion_lon": 0.0, "rental_uris": {"android": "https://dc.lft.to/lastmile_qr_scan", "ios": "https://dc.lft.to/lastmile_qr_scan"}, "type": "electric_scooter"}, {"bike_id": "80160c935636953896665480bdc1b227", "is_reserved": 0, "name": "80160c935636953896665480bdc1b227", "lat": 38.942540666666666, "fusion_lat": 0.0, "lon": -77.0363, "is_disabled": 0, "fusion_lon": 0.0, "rental_uris": {"android": "https://dc.lft.to/lastmile_qr_scan", "ios": "https://dc.lft.to/lastmile_qr_scan"}, "type": "electric_scooter"}, {"bike_id": "ac24024edf9c8e518945926374d9b782", "is_reserved": 0, "name": "ac24024edf9c8e518945926374d9b782", "lat": 38.90516066666667, "fusion_lat": 0.0, "lon": -77.059942, "is_disabled": 0, "fusion_lon": 0.0, "rental_uris": {"android": "https://dc.lft.to/lastmile_qr_scan", "ios": "https://dc.lft.to/lastmile_qr_scan"}, "type": "electric_scooter"}, {"bike_id": "886e84132f1287e6ecb89c273e409f06", "is_reserved": 0, "name": "886e84132f1287e6ecb89c273e409f06", "lat": 38.909515999999996, "fusion_lat": 0.0, "lon": -77.0318115, "is_disabled": 0, "fusion_lon": 0.0, "rental_uris": {"android": "https://dc.lft.to/lastmile_qr_scan", "ios": "https://dc.lft.to/lastmile_qr_scan"}, "type": "electric_scooter"}, {"bike_id": "e338c82519891e4b4f2ea9ac9772beee", "is_reserved": 0, "name": "e338c82519891e4b4f2ea9ac9772beee", "lat": 38.92246683333333, "fusion_lat": 0.0, "lon": -77.019298, "is_disabled": 0, "fusion_lon": 0.0, "rental_uris": {"android": "https://dc.lft.to/lastmile_qr_scan", "ios": "https://dc.lft.to/lastmile_qr_scan"}, "type": "electric_scooter"}, {"bike_id": "53cff539c4247fd2dfb9f491940b146a", "is_reserved": 0, "name": "53cff539c4247fd2dfb9f491940b146a", "lat": 38.90269966666666, "fusion_lat": 0.0, "lon": -77.03831466666666, "is_disabled": 0, "fusion_lon": 0.0, "rental_uris": {"android": "https://dc.lft.to/lastmile_qr_scan", "ios": "https://dc.lft.to/lastmile_qr_scan"}, "type": "electric_scooter"}, {"bike_id": "b2e0929a4046220aa4ab98ae7923ad17", "is_reserved": 0, "name": "b2e0929a4046220aa4ab98ae7923ad17", "lat": 38.928251, "fusion_lat": 0.0, "lon": -77.02256033333333, "is_disabled": 0, "fusion_lon": 0.0, "rental_uris": {"android": "https://dc.lft.to/lastmile_qr_scan", "ios": "https://dc.lft.to/lastmile_qr_scan"}, "type": "electric_scooter"}, {"bike_id": "c391a9e4d436928c910378b59c6ab2b2", "is_reserved": 0, "name": "c391a9e4d436928c910378b59c6ab2b2", "lat": 38.90710083333333, "fusion_lat": 0.0, "lon": -77.03201233333333, "is_disabled": 0, "fusion_lon": 0.0, "rental_uris": {"android": "https://dc.lft.to/lastmile_qr_scan", "ios": "https://dc.lft.to/lastmile_qr_scan"}, "type": "electric_scooter"}, {"bike_id": "bed7a707d868a48505f30f04938a6f4c", "is_reserved": 0, "name": "bed7a707d868a48505f30f04938a6f4c", "lat": 38.865146333333335, "fusion_lat": 0.0, "lon": -77.129325, "is_disabled": 0, "fusion_lon": 0.0, "rental_uris": {"android": "https://dc.lft.to/lastmile_qr_scan", "ios": "https://dc.lft.to/lastmile_qr_scan"}, "type": "electric_bike"}, {"bike_id": "4e3a9224fa5778b30abf574d0cc8fa29", "is_reserved": 0, "name": "4e3a9224fa5778b30abf574d0cc8fa29", "lat": 38.91759, "fusion_lat": 0.0, "lon": -77.022913, "is_disabled": 0, "fusion_lon": 0.0, "rental_uris": {"android": "https://dc.lft.to/lastmile_qr_scan", "ios": "https://dc.lft.to/lastmile_qr_scan"}, "type": "electric_scooter"}, {"bike_id": "727528cc53c585ae8412622f228c6f69", "is_reserved": 0, "name": "727528cc53c585ae8412622f228c6f69", "lat": 38.926811, "fusion_lat": 0.0, "lon": -77.0325625, "is_disabled": 0, "fusion_lon": 0.0, "rental_uris": {"android": "https://dc.lft.to/lastmile_qr_scan", "ios": "https://dc.lft.to/lastmile_qr_scan"}, "type": "electric_scooter"}, {"bike_id": "be680ba81491666d5c7074401974013d", "is_reserved": 0, "name": "be680ba81491666d5c7074401974013d", "lat": 38.898195, "fusion_lat": 0.0, "lon": -77.0059335, "is_disabled": 0, "fusion_lon": 0.0, "rental_uris": {"android": "https://dc.lft.to/lastmile_qr_scan", "ios": "https://dc.lft.to/lastmile_qr_scan"}, "type": "electric_bike"}, {"bike_id": "69932be5ffec59f908387819c7dd9a9a", "is_reserved": 0, "name": "69932be5ffec59f908387819c7dd9a9a", "lat": 38.90370633333333, "fusion_lat": 0.0, "lon": -77.03477816666667, "is_disabled": 0, "fusion_lon": 0.0, "rental_uris": {"android": "https://dc.lft.to/lastmile_qr_scan", "ios": "https://dc.lft.to/lastmile_qr_scan"}, "type": "electric_scooter"}, {"bike_id": "d3486710ab9e4e9bde88c09c1756f50e", "is_reserved": 0, "name": "d3486710ab9e4e9bde88c09c1756f50e", "lat": 38.8872995, "fusion_lat": 0.0, "lon": -77.03207316666666, "is_disabled": 0, "fusion_lon": 0.0, "rental_uris": {"android": "https://dc.lft.to/lastmile_qr_scan", "ios": "https://dc.lft.to/lastmile_qr_scan"}, "type": "electric_scooter"}, {"bike_id": "0125ef364a9cb7365dad80b0de9fe3c5", "is_reserved": 0, "name": "0125ef364a9cb7365dad80b0de9fe3c5", "lat": 38.914817666666664, "fusion_lat": 0.0, "lon": -77.02584133333333, "is_disabled": 0, "fusion_lon": 0.0, "rental_uris": {"android": "https://dc.lft.to/lastmile_qr_scan", "ios": "https://dc.lft.to/lastmile_qr_scan"}, "type": "electric_scooter"}, {"bike_id": "1aa288e81941923c24db85307ce2e300", "is_reserved": 0, "name": "1aa288e81941923c24db85307ce2e300", "lat": 38.90367483333333, "fusion_lat": 0.0, "lon": -77.03097533333333, "is_disabled": 0, "fusion_lon": 0.0, "rental_uris": {"android": "https://dc.lft.to/lastmile_qr_scan", "ios": "https://dc.lft.to/lastmile_qr_scan"}, "type": "electric_scooter"}, {"bike_id": "3beb35e9d2b6ead1089eea008632e920", "is_reserved": 0, "name": "3beb35e9d2b6ead1089eea008632e920", "lat": 38.9234255, "fusion_lat": 0.0, "lon": -77.051755, "is_disabled": 0, "fusion_lon": 0.0, "rental_uris": {"android": "https://dc.lft.to/lastmile_qr_scan", "ios": "https://dc.lft.to/lastmile_qr_scan"}, "type": "electric_scooter"}, {"bike_id": "76c54fca29b3503250a522a1d2c93130", "is_reserved": 0, "name": "76c54fca29b3503250a522a1d2c93130", "lat": 38.901002, "fusion_lat": 0.0, "lon": -76.99381566666666, "is_disabled": 0, "fusion_lon": 0.0, "rental_uris": {"android": "https://dc.lft.to/lastmile_qr_scan", "ios": "https://dc.lft.to/lastmile_qr_scan"}, "type": "electric_scooter"}, {"bike_id": "aefceb647a748839d05ec39d1ff1d994", "is_reserved": 0, "name": "aefceb647a748839d05ec39d1ff1d994", "lat": 38.901335333333336, "fusion_lat": 0.0, "lon": -77.04428283333333, "is_disabled": 0, "fusion_lon": 0.0, "rental_uris": {"android": "https://dc.lft.to/lastmile_qr_scan", "ios": "https://dc.lft.to/lastmile_qr_scan"}, "type": "electric_scooter"}, {"bike_id": "28409b6718933d2b8fb6cbac1e1a69dd", "is_reserved": 0, "name": "28409b6718933d2b8fb6cbac1e1a69dd", "lat": 38.905714333333336, "fusion_lat": 0.0, "lon": -77.01700983333333, "is_disabled": 0, "fusion_lon": 0.0, "rental_uris": {"android": "https://dc.lft.to/lastmile_qr_scan", "ios": "https://dc.lft.to/lastmile_qr_scan"}, "type": "electric_scooter"}, {"bike_id": "1a6d45736d58d41c69465de0e723c3b0", "is_reserved": 0, "name": "1a6d45736d58d41c69465de0e723c3b0", "lat": 38.90352583333333, "fusion_lat": 0.0, "lon": -77.005792, "is_disabled": 0, "fusion_lon": 0.0, "rental_uris": {"android": "https://dc.lft.to/lastmile_qr_scan", "ios": "https://dc.lft.to/lastmile_qr_scan"}, "type": "electric_scooter"}, {"bike_id": "7dcc17795556282d4ef5e359e1b0fe68", "is_reserved": 0, "name": "7dcc17795556282d4ef5e359e1b0fe68", "lat": 38.90026733333333, "fusion_lat": 0.0, "lon": -77.016344, "is_disabled": 0, "fusion_lon": 0.0, "rental_uris": {"android": "https://dc.lft.to/lastmile_qr_scan", "ios": "https://dc.lft.to/lastmile_qr_scan"}, "type": "electric_scooter"}, {"bike_id": "96af93617c845f3a43aa5d8725a85b98", "is_reserved": 0, "name": "96af93617c845f3a43aa5d8725a85b98", "lat": 38.90829933333333, "fusion_lat": 0.0, "lon": -76.99693466666666, "is_disabled": 0, "fusion_lon": 0.0, "rental_uris": {"android": "https://dc.lft.to/lastmile_qr_scan", "ios": "https://dc.lft.to/lastmile_qr_scan"}, "type": "electric_scooter"}, {"bike_id": "1513a653dba128f6eaf5ca8144e4826a", "is_reserved": 0, "name": "1513a653dba128f6eaf5ca8144e4826a", "lat": 38.905620166666665, "fusion_lat": 0.0, "lon": -77.02423866666666, "is_disabled": 0, "fusion_lon": 0.0, "rental_uris": {"android": "https://dc.lft.to/lastmile_qr_scan", "ios": "https://dc.lft.to/lastmile_qr_scan"}, "type": "electric_scooter"}, {"bike_id": "81be4290ef7f06c4ef10705f26eb4c89", "is_reserved": 0, "name": "81be4290ef7f06c4ef10705f26eb4c89", "lat": 38.8989075, "fusion_lat": 0.0, "lon": -76.93175333333333, "is_disabled": 0, "fusion_lon": 0.0, "rental_uris": {"android": "https://dc.lft.to/lastmile_qr_scan", "ios": "https://dc.lft.to/lastmile_qr_scan"}, "type": "electric_scooter"}, {"bike_id": "edd6bad6e06527390b4babf34977409c", "is_reserved": 0, "name": "edd6bad6e06527390b4babf34977409c", "lat": 38.89225966666667, "fusion_lat": 0.0, "lon": -77.04091883333334, "is_disabled": 0, "fusion_lon": 0.0, "rental_uris": {"android": "https://dc.lft.to/lastmile_qr_scan", "ios": "https://dc.lft.to/lastmile_qr_scan"}, "type": "electric_scooter"}, {"bike_id": "caca0d289433aa46798f4b72a64fdce6", "is_reserved": 0, "name": "caca0d289433aa46798f4b72a64fdce6", "lat": 38.89223766666667, "fusion_lat": 0.0, "lon": -77.02223366666666, "is_disabled": 0, "fusion_lon": 0.0, "rental_uris": {"android": "https://dc.lft.to/lastmile_qr_scan", "ios": "https://dc.lft.to/lastmile_qr_scan"}, "type": "electric_scooter"}, {"bike_id": "c81b43deea2f19fa8af7f0efc4a53830", "is_reserved": 0, "name": "c81b43deea2f19fa8af7f0efc4a53830", "lat": 38.91689516666667, "fusion_lat": 0.0, "lon": -77.0230315, "is_disabled": 0, "fusion_lon": 0.0, "rental_uris": {"android": "https://dc.lft.to/lastmile_qr_scan", "ios": "https://dc.lft.to/lastmile_qr_scan"}, "type": "electric_scooter"}, {"bike_id": "aafb5016c68a360c1ee50e0be2cf1eb6", "is_reserved": 0, "name": "aafb5016c68a360c1ee50e0be2cf1eb6", "lat": 38.91500333333333, "fusion_lat": 0.0, "lon": -77.0122145, "is_disabled": 0, "fusion_lon": 0.0, "rental_uris": {"android": "https://dc.lft.to/lastmile_qr_scan", "ios": "https://dc.lft.to/lastmile_qr_scan"}, "type": "electric_scooter"}, {"bike_id": "61df5fe6193729aad8f5df3df2008700", "is_reserved": 0, "name": "61df5fe6193729aad8f5df3df2008700", "lat": 39.0360175, "fusion_lat": 0.0, "lon": -77.05554283333333, "is_disabled": 0, "fusion_lon": 0.0, "rental_uris": {"android": "https://dc.lft.to/lastmile_qr_scan", "ios": "https://dc.lft.to/lastmile_qr_scan"}, "type": "electric_bike"}, {"bike_id": "29bca5531f82d82939755f492ede29a9", "is_reserved": 0, "name": "29bca5531f82d82939755f492ede29a9", "lat": 38.93403283333333, "fusion_lat": 0.0, "lon": -77.03987166666667, "is_disabled": 0, "fusion_lon": 0.0, "rental_uris": {"android": "https://dc.lft.to/lastmile_qr_scan", "ios": "https://dc.lft.to/lastmile_qr_scan"}, "type": "electric_scooter"}, {"bike_id": "8650df4bb30768d4a7eb76f856d959b0", "is_reserved": 0, "name": "8650df4bb30768d4a7eb76f856d959b0", "lat": 38.906302, "fusion_lat": 0.0, "lon": -77.00597933333333, "is_disabled": 0, "fusion_lon": 0.0, "rental_uris": {"android": "https://dc.lft.to/lastmile_qr_scan", "ios": "https://dc.lft.to/lastmile_qr_scan"}, "type": "electric_scooter"}, {"bike_id": "646f758558687e479dd9f2e16f576adb", "is_reserved": 0, "name": "646f758558687e479dd9f2e16f576adb", "lat": 38.886235166666665, "fusion_lat": 0.0, "lon": -77.028367, "is_disabled": 0, "fusion_lon": 0.0, "rental_uris": {"android": "https://dc.lft.to/lastmile_qr_scan", "ios": "https://dc.lft.to/lastmile_qr_scan"}, "type": "electric_scooter"}, {"bike_id": "f655c8798f67236fdd8352fbc83ba973", "is_reserved": 0, "name": "f655c8798f67236fdd8352fbc83ba973", "lat": 38.902326333333335, "fusion_lat": 0.0, "lon": -77.03253283333333, "is_disabled": 0, "fusion_lon": 0.0, "rental_uris": {"android": "https://dc.lft.to/lastmile_qr_scan", "ios": "https://dc.lft.to/lastmile_qr_scan"}, "type": "electric_scooter"}, {"bike_id": "fa23057c259a4688b69d694cf24706b7", "is_reserved": 0, "name": "fa23057c259a4688b69d694cf24706b7", "lat": 38.925294666666666, "fusion_lat": 0.0, "lon": -77.04115733333333, "is_disabled": 0, "fusion_lon": 0.0, "rental_uris": {"android": "https://dc.lft.to/lastmile_qr_scan", "ios": "https://dc.lft.to/lastmile_qr_scan"}, "type": "electric_scooter"}, {"bike_id": "c7daea6d945f811ea567b45c5ca99e2f", "is_reserved": 0, "name": "c7daea6d945f811ea567b45c5ca99e2f", "lat": 38.926010833333336, "fusion_lat": 0.0, "lon": -77.02156683333334, "is_disabled": 0, "fusion_lon": 0.0, "rental_uris": {"android": "https://dc.lft.to/lastmile_qr_scan", "ios": "https://dc.lft.to/lastmile_qr_scan"}, "type": "electric_scooter"}, {"bike_id": "c01f7617ff8bab5ae29d3ae43d87cd1d", "is_reserved": 0, "name": "c01f7617ff8bab5ae29d3ae43d87cd1d", "lat": 38.87472233333333, "fusion_lat": 0.0, "lon": -77.00567216666667, "is_disabled": 0, "fusion_lon": 0.0, "rental_uris": {"android": "https://dc.lft.to/lastmile_qr_scan", "ios": "https://dc.lft.to/lastmile_qr_scan"}, "type": "electric_scooter"}, {"bike_id": "f7cbca0308c3a51c406ffb70498a5028", "is_reserved": 0, "name": "f7cbca0308c3a51c406ffb70498a5028", "lat": 38.8768075, "fusion_lat": 0.0, "lon": -77.0028135, "is_disabled": 0, "fusion_lon": 0.0, "rental_uris": {"android": "https://dc.lft.to/lastmile_qr_scan", "ios": "https://dc.lft.to/lastmile_qr_scan"}, "type": "electric_scooter"}, {"bike_id": "49e4619838e48a95e97fc57d47df2441", "is_reserved": 0, "name": "49e4619838e48a95e97fc57d47df2441", "lat": 38.8922135, "fusion_lat": 0.0, "lon": -77.04326416666666, "is_disabled": 0, "fusion_lon": 0.0, "rental_uris": {"android": "https://dc.lft.to/lastmile_qr_scan", "ios": "https://dc.lft.to/lastmile_qr_scan"}, "type": "electric_scooter"}, {"bike_id": "a6e863bc2df1ae75b786d0584627f2bd", "is_reserved": 0, "name": "a6e863bc2df1ae75b786d0584627f2bd", "lat": 38.89753666666667, "fusion_lat": 0.0, "lon": -77.03310683333333, "is_disabled": 0, "fusion_lon": 0.0, "rental_uris": {"android": "https://dc.lft.to/lastmile_qr_scan", "ios": "https://dc.lft.to/lastmile_qr_scan"}, "type": "electric_scooter"}, {"bike_id": "b5077af8ae8a7bb10f735a5a736f547c", "is_reserved": 0, "name": "b5077af8ae8a7bb10f735a5a736f547c", "lat": 38.903415333333335, "fusion_lat": 0.0, "lon": -77.05293166666667, "is_disabled": 0, "fusion_lon": 0.0, "rental_uris": {"android": "https://dc.lft.to/lastmile_qr_scan", "ios": "https://dc.lft.to/lastmile_qr_scan"}, "type": "electric_scooter"}, {"bike_id": "cde81559ab1ade7475ddc6969331c0ce", "is_reserved": 0, "name": "cde81559ab1ade7475ddc6969331c0ce", "lat": 38.912612333333335, "fusion_lat": 0.0, "lon": -77.04555283333333, "is_disabled": 0, "fusion_lon": 0.0, "rental_uris": {"android": "https://dc.lft.to/lastmile_qr_scan", "ios": "https://dc.lft.to/lastmile_qr_scan"}, "type": "electric_scooter"}, {"bike_id": "1f205992b2c180046ae6cd27c437d164", "is_reserved": 0, "name": "1f205992b2c180046ae6cd27c437d164", "lat": 38.96220066666667, "fusion_lat": 0.0, "lon": -77.02800833333333, "is_disabled": 0, "fusion_lon": 0.0, "rental_uris": {"android": "https://dc.lft.to/lastmile_qr_scan", "ios": "https://dc.lft.to/lastmile_qr_scan"}, "type": "electric_bike"}, {"bike_id": "7e90aea848eb2cd92895f10cebf4a939", "is_reserved": 0, "name": "7e90aea848eb2cd92895f10cebf4a939", "lat": 38.909917166666666, "fusion_lat": 0.0, "lon": -76.99471933333334, "is_disabled": 0, "fusion_lon": 0.0, "rental_uris": {"android": "https://dc.lft.to/lastmile_qr_scan", "ios": "https://dc.lft.to/lastmile_qr_scan"}, "type": "electric_scooter"}, {"bike_id": "0a66eb59ecb5617de8c02c962ebc73de", "is_reserved": 0, "name": "0a66eb59ecb5617de8c02c962ebc73de", "lat": 38.908573, "fusion_lat": 0.0, "lon": -77.027222, "is_disabled": 0, "fusion_lon": 0.0, "rental_uris": {"android": "https://dc.lft.to/lastmile_qr_scan", "ios": "https://dc.lft.to/lastmile_qr_scan"}, "type": "electric_scooter"}, {"bike_id": "8cf6979fd621735fbd3376b781880475", "is_reserved": 0, "name": "8cf6979fd621735fbd3376b781880475", "lat": 38.8461315, "fusion_lat": 0.0, "lon": -76.96912316666666, "is_disabled": 0, "fusion_lon": 0.0, "rental_uris": {"android": "https://dc.lft.to/lastmile_qr_scan", "ios": "https://dc.lft.to/lastmile_qr_scan"}, "type": "electric_bike"}, {"bike_id": "b88cad8b786d5517da8278aea203e8eb", "is_reserved": 0, "name": "b88cad8b786d5517da8278aea203e8eb", "lat": 38.88732433333333, "fusion_lat": 0.0, "lon": -77.02386166666666, "is_disabled": 0, "fusion_lon": 0.0, "rental_uris": {"android": "https://dc.lft.to/lastmile_qr_scan", "ios": "https://dc.lft.to/lastmile_qr_scan"}, "type": "electric_scooter"}, {"bike_id": "9cfcaaf66fd1b60f0dff68c4737da736", "is_reserved": 0, "name": "9cfcaaf66fd1b60f0dff68c4737da736", "lat": 38.899515666666666, "fusion_lat": 0.0, "lon": -77.044939, "is_disabled": 0, "fusion_lon": 0.0, "rental_uris": {"android": "https://dc.lft.to/lastmile_qr_scan", "ios": "https://dc.lft.to/lastmile_qr_scan"}, "type": "electric_scooter"}, {"bike_id": "6356c9d260bf2a66ebd23c905f63c252", "is_reserved": 0, "name": "6356c9d260bf2a66ebd23c905f63c252", "lat": 38.916915, "fusion_lat": 0.0, "lon": -77.02287566666666, "is_disabled": 0, "fusion_lon": 0.0, "rental_uris": {"android": "https://dc.lft.to/lastmile_qr_scan", "ios": "https://dc.lft.to/lastmile_qr_scan"}, "type": "electric_scooter"}, {"bike_id": "ac380d9a49656e44f8e3be5bf326e377", "is_reserved": 0, "name": "ac380d9a49656e44f8e3be5bf326e377", "lat": 38.92854883333333, "fusion_lat": 0.0, "lon": -77.03286733333333, "is_disabled": 0, "fusion_lon": 0.0, "rental_uris": {"android": "https://dc.lft.to/lastmile_qr_scan", "ios": "https://dc.lft.to/lastmile_qr_scan"}, "type": "electric_scooter"}, {"bike_id": "939470d222b7a9b3137dc06c1a5f5abb", "is_reserved": 0, "name": "939470d222b7a9b3137dc06c1a5f5abb", "lat": 38.92490683333333, "fusion_lat": 0.0, "lon": -77.02138283333333, "is_disabled": 0, "fusion_lon": 0.0, "rental_uris": {"android": "https://dc.lft.to/lastmile_qr_scan", "ios": "https://dc.lft.to/lastmile_qr_scan"}, "type": "electric_scooter"}, {"bike_id": "22d716129a851edf1ef2961862bd74f1", "is_reserved": 0, "name": "22d716129a851edf1ef2961862bd74f1", "lat": 38.91255566666667, "fusion_lat": 0.0, "lon": -77.007761, "is_disabled": 0, "fusion_lon": 0.0, "rental_uris": {"android": "https://dc.lft.to/lastmile_qr_scan", "ios": "https://dc.lft.to/lastmile_qr_scan"}, "type": "electric_scooter"}, {"bike_id": "9e8ea33d4c06ae321a920f8e6025c388", "is_reserved": 0, "name": "9e8ea33d4c06ae321a920f8e6025c388", "lat": 38.873772833333334, "fusion_lat": 0.0, "lon": -77.00138216666667, "is_disabled": 0, "fusion_lon": 0.0, "rental_uris": {"android": "https://dc.lft.to/lastmile_qr_scan", "ios": "https://dc.lft.to/lastmile_qr_scan"}, "type": "electric_scooter"}, {"bike_id": "7dedf3bde40ec6031ce15eab0e6c8fb9", "is_reserved": 0, "name": "7dedf3bde40ec6031ce15eab0e6c8fb9", "lat": 38.904606333333334, "fusion_lat": 0.0, "lon": -77.05320033333334, "is_disabled": 0, "fusion_lon": 0.0, "rental_uris": {"android": "https://dc.lft.to/lastmile_qr_scan", "ios": "https://dc.lft.to/lastmile_qr_scan"}, "type": "electric_scooter"}, {"bike_id": "b32f8a12087d1cafe91c88f60b0973e9", "is_reserved": 0, "name": "b32f8a12087d1cafe91c88f60b0973e9", "lat": 38.939288166666664, "fusion_lat": 0.0, "lon": -77.02470816666667, "is_disabled": 0, "fusion_lon": 0.0, "rental_uris": {"android": "https://dc.lft.to/lastmile_qr_scan", "ios": "https://dc.lft.to/lastmile_qr_scan"}, "type": "electric_scooter"}, {"bike_id": "897013e6c457cc19b4a7e3bebdd941ab", "is_reserved": 0, "name": "897013e6c457cc19b4a7e3bebdd941ab", "lat": 38.92975033333333, "fusion_lat": 0.0, "lon": -77.02627066666666, "is_disabled": 0, "fusion_lon": 0.0, "rental_uris": {"android": "https://dc.lft.to/lastmile_qr_scan", "ios": "https://dc.lft.to/lastmile_qr_scan"}, "type": "electric_bike"}, {"bike_id": "f36fa3b894f1153b589d1ffea68cba74", "is_reserved": 0, "name": "f36fa3b894f1153b589d1ffea68cba74", "lat": 38.90898766666667, "fusion_lat": 0.0, "lon": -77.07268566666667, "is_disabled": 0, "fusion_lon": 0.0, "rental_uris": {"android": "https://dc.lft.to/lastmile_qr_scan", "ios": "https://dc.lft.to/lastmile_qr_scan"}, "type": "electric_scooter"}, {"bike_id": "52f084446194012a3644b02683400ea9", "is_reserved": 0, "name": "52f084446194012a3644b02683400ea9", "lat": 38.905295, "fusion_lat": 0.0, "lon": -77.04353633333334, "is_disabled": 0, "fusion_lon": 0.0, "rental_uris": {"android": "https://dc.lft.to/lastmile_qr_scan", "ios": "https://dc.lft.to/lastmile_qr_scan"}, "type": "electric_scooter"}, {"bike_id": "8f8037c6b41f674756ff1a91710472a1", "is_reserved": 0, "name": "8f8037c6b41f674756ff1a91710472a1", "lat": 38.904423666666666, "fusion_lat": 0.0, "lon": -77.053255, "is_disabled": 0, "fusion_lon": 0.0, "rental_uris": {"android": "https://dc.lft.to/lastmile_qr_scan", "ios": "https://dc.lft.to/lastmile_qr_scan"}, "type": "electric_scooter"}, {"bike_id": "8a627cfb7a9ae01c7a5649e359ac5a31", "is_reserved": 0, "name": "8a627cfb7a9ae01c7a5649e359ac5a31", "lat": 38.91036183333333, "fusion_lat": 0.0, "lon": -77.04265466666666, "is_disabled": 0, "fusion_lon": 0.0, "rental_uris": {"android": "https://dc.lft.to/lastmile_qr_scan", "ios": "https://dc.lft.to/lastmile_qr_scan"}, "type": "electric_scooter"}, {"bike_id": "53fe52b2c05df63e71e1678176bbef7d", "is_reserved": 0, "name": "53fe52b2c05df63e71e1678176bbef7d", "lat": 38.90577916666667, "fusion_lat": 0.0, "lon": -77.05702716666667, "is_disabled": 0, "fusion_lon": 0.0, "rental_uris": {"android": "https://dc.lft.to/lastmile_qr_scan", "ios": "https://dc.lft.to/lastmile_qr_scan"}, "type": "electric_scooter"}, {"bike_id": "9c31c53b791c94e52f3efc73ea73ec5a", "is_reserved": 0, "name": "9c31c53b791c94e52f3efc73ea73ec5a", "lat": 38.900134, "fusion_lat": 0.0, "lon": -76.9986195, "is_disabled": 0, "fusion_lon": 0.0, "rental_uris": {"android": "https://dc.lft.to/lastmile_qr_scan", "ios": "https://dc.lft.to/lastmile_qr_scan"}, "type": "electric_scooter"}, {"bike_id": "dc7a8727811436a0dc71a7d5467024f6", "is_reserved": 0, "name": "dc7a8727811436a0dc71a7d5467024f6", "lat": 38.881868833333336, "fusion_lat": 0.0, "lon": -77.0035215, "is_disabled": 0, "fusion_lon": 0.0, "rental_uris": {"android": "https://dc.lft.to/lastmile_qr_scan", "ios": "https://dc.lft.to/lastmile_qr_scan"}, "type": "electric_scooter"}, {"bike_id": "84d0eb94665a88c22b479d3b6ec2a192", "is_reserved": 0, "name": "84d0eb94665a88c22b479d3b6ec2a192", "lat": 38.91798, "fusion_lat": 0.0, "lon": -77.02712466666667, "is_disabled": 0, "fusion_lon": 0.0, "rental_uris": {"android": "https://dc.lft.to/lastmile_qr_scan", "ios": "https://dc.lft.to/lastmile_qr_scan"}, "type": "electric_scooter"}, {"bike_id": "52e2685f92870b58019a0bb3086d65e6", "is_reserved": 0, "name": "52e2685f92870b58019a0bb3086d65e6", "lat": 38.908586666666665, "fusion_lat": 0.0, "lon": -76.99794266666666, "is_disabled": 0, "fusion_lon": 0.0, "rental_uris": {"android": "https://dc.lft.to/lastmile_qr_scan", "ios": "https://dc.lft.to/lastmile_qr_scan"}, "type": "electric_scooter"}, {"bike_id": "259cd08c72894c70a9117f3c49bf5795", "is_reserved": 0, "name": "259cd08c72894c70a9117f3c49bf5795", "lat": 38.923710166666666, "fusion_lat": 0.0, "lon": -77.02819516666666, "is_disabled": 0, "fusion_lon": 0.0, "rental_uris": {"android": "https://dc.lft.to/lastmile_qr_scan", "ios": "https://dc.lft.to/lastmile_qr_scan"}, "type": "electric_scooter"}, {"bike_id": "89f0ee7ad1ed3b6e8a3f01a9efc1244a", "is_reserved": 0, "name": "89f0ee7ad1ed3b6e8a3f01a9efc1244a", "lat": 38.9302175, "fusion_lat": 0.0, "lon": -77.03787766666666, "is_disabled": 0, "fusion_lon": 0.0, "rental_uris": {"android": "https://dc.lft.to/lastmile_qr_scan", "ios": "https://dc.lft.to/lastmile_qr_scan"}, "type": "electric_scooter"}, {"bike_id": "b3486df8a0b256d0560ef149ae417c55", "is_reserved": 0, "name": "b3486df8a0b256d0560ef149ae417c55", "lat": 38.92137, "fusion_lat": 0.0, "lon": -77.00940466666667, "is_disabled": 0, "fusion_lon": 0.0, "rental_uris": {"android": "https://dc.lft.to/lastmile_qr_scan", "ios": "https://dc.lft.to/lastmile_qr_scan"}, "type": "electric_scooter"}, {"bike_id": "ae4b087e0f1635a26cb2fdf1b7830d6d", "is_reserved": 0, "name": "ae4b087e0f1635a26cb2fdf1b7830d6d", "lat": 38.90384866666667, "fusion_lat": 0.0, "lon": -77.0330185, "is_disabled": 0, "fusion_lon": 0.0, "rental_uris": {"android": "https://dc.lft.to/lastmile_qr_scan", "ios": "https://dc.lft.to/lastmile_qr_scan"}, "type": "electric_scooter"}, {"bike_id": "0c1820455070189aa99220e7b0fa6c77", "is_reserved": 0, "name": "0c1820455070189aa99220e7b0fa6c77", "lat": 38.8743945, "fusion_lat": 0.0, "lon": -77.0092605, "is_disabled": 0, "fusion_lon": 0.0, "rental_uris": {"android": "https://dc.lft.to/lastmile_qr_scan", "ios": "https://dc.lft.to/lastmile_qr_scan"}, "type": "electric_scooter"}, {"bike_id": "b6d19fe503980aeed18ed0fc8efc1d43", "is_reserved": 0, "name": "b6d19fe503980aeed18ed0fc8efc1d43", "lat": 38.89726683333333, "fusion_lat": 0.0, "lon": -77.01872783333333, "is_disabled": 0, "fusion_lon": 0.0, "rental_uris": {"android": "https://dc.lft.to/lastmile_qr_scan", "ios": "https://dc.lft.to/lastmile_qr_scan"}, "type": "electric_scooter"}, {"bike_id": "1412a16dc0fc19f63fce8b6a61bbb61c", "is_reserved": 0, "name": "1412a16dc0fc19f63fce8b6a61bbb61c", "lat": 38.89233766666667, "fusion_lat": 0.0, "lon": -77.04876383333334, "is_disabled": 0, "fusion_lon": 0.0, "rental_uris": {"android": "https://dc.lft.to/lastmile_qr_scan", "ios": "https://dc.lft.to/lastmile_qr_scan"}, "type": "electric_scooter"}, {"bike_id": "1e90ff072a14260d211dbda65e5395dc", "is_reserved": 0, "name": "1e90ff072a14260d211dbda65e5395dc", "lat": 38.919135833333335, "fusion_lat": 0.0, "lon": -77.03175783333333, "is_disabled": 0, "fusion_lon": 0.0, "rental_uris": {"android": "https://dc.lft.to/lastmile_qr_scan", "ios": "https://dc.lft.to/lastmile_qr_scan"}, "type": "electric_scooter"}, {"bike_id": "56f385a64f6d2e1f6d9d9ca20ecfb2c2", "is_reserved": 0, "name": "56f385a64f6d2e1f6d9d9ca20ecfb2c2", "lat": 38.903831, "fusion_lat": 0.0, "lon": -76.97615733333333, "is_disabled": 0, "fusion_lon": 0.0, "rental_uris": {"android": "https://dc.lft.to/lastmile_qr_scan", "ios": "https://dc.lft.to/lastmile_qr_scan"}, "type": "electric_scooter"}, {"bike_id": "424d83ad9d32aba4e0ce2e889d289a3a", "is_reserved": 0, "name": "424d83ad9d32aba4e0ce2e889d289a3a", "lat": 38.9309235, "fusion_lat": 0.0, "lon": -77.03438866666667, "is_disabled": 0, "fusion_lon": 0.0, "rental_uris": {"android": "https://dc.lft.to/lastmile_qr_scan", "ios": "https://dc.lft.to/lastmile_qr_scan"}, "type": "electric_scooter"}, {"bike_id": "c05867daae7f22af486089a3fb2b3106", "is_reserved": 0, "name": "c05867daae7f22af486089a3fb2b3106", "lat": 38.902551833333334, "fusion_lat": 0.0, "lon": -77.03422583333334, "is_disabled": 0, "fusion_lon": 0.0, "rental_uris": {"android": "https://dc.lft.to/lastmile_qr_scan", "ios": "https://dc.lft.to/lastmile_qr_scan"}, "type": "electric_scooter"}, {"bike_id": "2ee73d5602bebf4e1b0b3038b39257b2", "is_reserved": 0, "name": "2ee73d5602bebf4e1b0b3038b39257b2", "lat": 38.87156616666667, "fusion_lat": 0.0, "lon": -77.131436, "is_disabled": 0, "fusion_lon": 0.0, "rental_uris": {"android": "https://dc.lft.to/lastmile_qr_scan", "ios": "https://dc.lft.to/lastmile_qr_scan"}, "type": "electric_bike"}, {"bike_id": "316e0132a90fad0e0bf18b30f7ab8d2a", "is_reserved": 0, "name": "316e0132a90fad0e0bf18b30f7ab8d2a", "lat": 38.900726, "fusion_lat": 0.0, "lon": -77.023249, "is_disabled": 0, "fusion_lon": 0.0, "rental_uris": {"android": "https://dc.lft.to/lastmile_qr_scan", "ios": "https://dc.lft.to/lastmile_qr_scan"}, "type": "electric_scooter"}, {"bike_id": "d13d0e182845f9ddb7744fd6e230d24b", "is_reserved": 0, "name": "d13d0e182845f9ddb7744fd6e230d24b", "lat": 38.89222316666667, "fusion_lat": 0.0, "lon": -77.04503183333334, "is_disabled": 0, "fusion_lon": 0.0, "rental_uris": {"android": "https://dc.lft.to/lastmile_qr_scan", "ios": "https://dc.lft.to/lastmile_qr_scan"}, "type": "electric_scooter"}, {"bike_id": "2ac04946a6c1890e81bb5b43932073ad", "is_reserved": 0, "name": "2ac04946a6c1890e81bb5b43932073ad", "lat": 38.87551633333333, "fusion_lat": 0.0, "lon": -77.0059705, "is_disabled": 0, "fusion_lon": 0.0, "rental_uris": {"android": "https://dc.lft.to/lastmile_qr_scan", "ios": "https://dc.lft.to/lastmile_qr_scan"}, "type": "electric_scooter"}, {"bike_id": "6450fc35fd88dc784e03f82ca40fe6f8", "is_reserved": 0, "name": "6450fc35fd88dc784e03f82ca40fe6f8", "lat": 38.898422833333335, "fusion_lat": 0.0, "lon": -77.02184316666667, "is_disabled": 0, "fusion_lon": 0.0, "rental_uris": {"android": "https://dc.lft.to/lastmile_qr_scan", "ios": "https://dc.lft.to/lastmile_qr_scan"}, "type": "electric_scooter"}, {"bike_id": "8ed80fc0ec76b58159d9c5f3a61c4ad4", "is_reserved": 0, "name": "8ed80fc0ec76b58159d9c5f3a61c4ad4", "lat": 38.911116666666665, "fusion_lat": 0.0, "lon": -77.045487, "is_disabled": 0, "fusion_lon": 0.0, "rental_uris": {"android": "https://dc.lft.to/lastmile_qr_scan", "ios": "https://dc.lft.to/lastmile_qr_scan"}, "type": "electric_scooter"}, {"bike_id": "1c664be7ea8c7f7908a32cbc851f8daa", "is_reserved": 0, "name": "1c664be7ea8c7f7908a32cbc851f8daa", "lat": 38.91561983333333, "fusion_lat": 0.0, "lon": -77.02179533333333, "is_disabled": 0, "fusion_lon": 0.0, "rental_uris": {"android": "https://dc.lft.to/lastmile_qr_scan", "ios": "https://dc.lft.to/lastmile_qr_scan"}, "type": "electric_scooter"}, {"bike_id": "a181f3d636ad82359ad85bdfa4218ac9", "is_reserved": 0, "name": "a181f3d636ad82359ad85bdfa4218ac9", "lat": 38.905403666666665, "fusion_lat": 0.0, "lon": -77.04501933333333, "is_disabled": 0, "fusion_lon": 0.0, "rental_uris": {"android": "https://dc.lft.to/lastmile_qr_scan", "ios": "https://dc.lft.to/lastmile_qr_scan"}, "type": "electric_scooter"}, {"bike_id": "7bd82b1a715975c36ee9de99d9c13ed7", "is_reserved": 0, "name": "7bd82b1a715975c36ee9de99d9c13ed7", "lat": 38.90250983333333, "fusion_lat": 0.0, "lon": -77.01803633333333, "is_disabled": 0, "fusion_lon": 0.0, "rental_uris": {"android": "https://dc.lft.to/lastmile_qr_scan", "ios": "https://dc.lft.to/lastmile_qr_scan"}, "type": "electric_scooter"}, {"bike_id": "1488fc89344368d2d7e9da074b9b3481", "is_reserved": 0, "name": "1488fc89344368d2d7e9da074b9b3481", "lat": 38.93540466666666, "fusion_lat": 0.0, "lon": -77.0574365, "is_disabled": 0, "fusion_lon": 0.0, "rental_uris": {"android": "https://dc.lft.to/lastmile_qr_scan", "ios": "https://dc.lft.to/lastmile_qr_scan"}, "type": "electric_scooter"}, {"bike_id": "fae2eec3f19a77f979a0313b575a5d13", "is_reserved": 0, "name": "fae2eec3f19a77f979a0313b575a5d13", "lat": 38.916958, "fusion_lat": 0.0, "lon": -77.03387866666667, "is_disabled": 0, "fusion_lon": 0.0, "rental_uris": {"android": "https://dc.lft.to/lastmile_qr_scan", "ios": "https://dc.lft.to/lastmile_qr_scan"}, "type": "electric_scooter"}, {"bike_id": "121bea9aee760773c1b5c7a796f747b8", "is_reserved": 0, "name": "121bea9aee760773c1b5c7a796f747b8", "lat": 38.9324755, "fusion_lat": 0.0, "lon": -77.06647633333333, "is_disabled": 0, "fusion_lon": 0.0, "rental_uris": {"android": "https://dc.lft.to/lastmile_qr_scan", "ios": "https://dc.lft.to/lastmile_qr_scan"}, "type": "electric_scooter"}, {"bike_id": "3a6e4d2c7cbf4cab53536be65298ac1e", "is_reserved": 0, "name": "3a6e4d2c7cbf4cab53536be65298ac1e", "lat": 38.893032, "fusion_lat": 0.0, "lon": -77.01236983333334, "is_disabled": 0, "fusion_lon": 0.0, "rental_uris": {"android": "https://dc.lft.to/lastmile_qr_scan", "ios": "https://dc.lft.to/lastmile_qr_scan"}, "type": "electric_scooter"}, {"bike_id": "8f38df7e5e7a96a6b711651f2c90c977", "is_reserved": 0, "name": "8f38df7e5e7a96a6b711651f2c90c977", "lat": 38.90988733333333, "fusion_lat": 0.0, "lon": -77.04660283333334, "is_disabled": 0, "fusion_lon": 0.0, "rental_uris": {"android": "https://dc.lft.to/lastmile_qr_scan", "ios": "https://dc.lft.to/lastmile_qr_scan"}, "type": "electric_scooter"}, {"bike_id": "dd23f808fbf4e016e7fdfe5c5aee03f3", "is_reserved": 0, "name": "dd23f808fbf4e016e7fdfe5c5aee03f3", "lat": 38.992171, "fusion_lat": 0.0, "lon": -77.03217766666667, "is_disabled": 0, "fusion_lon": 0.0, "rental_uris": {"android": "https://dc.lft.to/lastmile_qr_scan", "ios": "https://dc.lft.to/lastmile_qr_scan"}, "type": "electric_bike"}, {"bike_id": "42a7a50bbc826411e0eacbd4ab14227f", "is_reserved": 0, "name": "42a7a50bbc826411e0eacbd4ab14227f", "lat": 38.899585333333334, "fusion_lat": 0.0, "lon": -76.9262425, "is_disabled": 0, "fusion_lon": 0.0, "rental_uris": {"android": "https://dc.lft.to/lastmile_qr_scan", "ios": "https://dc.lft.to/lastmile_qr_scan"}, "type": "electric_scooter"}, {"bike_id": "057384d189cdbc8004aa283f9273b4a7", "is_reserved": 0, "name": "057384d189cdbc8004aa283f9273b4a7", "lat": 38.89905733333333, "fusion_lat": 0.0, "lon": -77.03214016666666, "is_disabled": 0, "fusion_lon": 0.0, "rental_uris": {"android": "https://dc.lft.to/lastmile_qr_scan", "ios": "https://dc.lft.to/lastmile_qr_scan"}, "type": "electric_bike"}, {"bike_id": "5776005becda753db1da198fd6b9988a", "is_reserved": 0, "name": "5776005becda753db1da198fd6b9988a", "lat": 38.91826783333333, "fusion_lat": 0.0, "lon": -77.0320265, "is_disabled": 0, "fusion_lon": 0.0, "rental_uris": {"android": "https://dc.lft.to/lastmile_qr_scan", "ios": "https://dc.lft.to/lastmile_qr_scan"}, "type": "electric_scooter"}, {"bike_id": "fd95e77757a7dc8c35490fec0dc270ef", "is_reserved": 0, "name": "fd95e77757a7dc8c35490fec0dc270ef", "lat": 38.90231683333333, "fusion_lat": 0.0, "lon": -77.05330283333333, "is_disabled": 0, "fusion_lon": 0.0, "rental_uris": {"android": "https://dc.lft.to/lastmile_qr_scan", "ios": "https://dc.lft.to/lastmile_qr_scan"}, "type": "electric_scooter"}, {"bike_id": "5e431d57d8ab1826cb8475e4656b1e60", "is_reserved": 0, "name": "5e431d57d8ab1826cb8475e4656b1e60", "lat": 38.84296666666667, "fusion_lat": 0.0, "lon": -77.10863583333334, "is_disabled": 0, "fusion_lon": 0.0, "rental_uris": {"android": "https://dc.lft.to/lastmile_qr_scan", "ios": "https://dc.lft.to/lastmile_qr_scan"}, "type": "electric_bike"}, {"bike_id": "41df41689401e3e808f0dcd7183bfbfe", "is_reserved": 0, "name": "41df41689401e3e808f0dcd7183bfbfe", "lat": 38.9421465, "fusion_lat": 0.0, "lon": -76.985566, "is_disabled": 0, "fusion_lon": 0.0, "rental_uris": {"android": "https://dc.lft.to/lastmile_qr_scan", "ios": "https://dc.lft.to/lastmile_qr_scan"}, "type": "electric_scooter"}, {"bike_id": "65250ca891af9c40050a66a539e5b190", "is_reserved": 0, "name": "65250ca891af9c40050a66a539e5b190", "lat": 38.92317883333333, "fusion_lat": 0.0, "lon": -77.0341, "is_disabled": 0, "fusion_lon": 0.0, "rental_uris": {"android": "https://dc.lft.to/lastmile_qr_scan", "ios": "https://dc.lft.to/lastmile_qr_scan"}, "type": "electric_scooter"}, {"bike_id": "d556a6600cb4a21c208169a18c3bfa86", "is_reserved": 0, "name": "d556a6600cb4a21c208169a18c3bfa86", "lat": 38.90380866666667, "fusion_lat": 0.0, "lon": -77.03861333333333, "is_disabled": 0, "fusion_lon": 0.0, "rental_uris": {"android": "https://dc.lft.to/lastmile_qr_scan", "ios": "https://dc.lft.to/lastmile_qr_scan"}, "type": "electric_scooter"}, {"bike_id": "c4c61834e76a9583bc8fc8f3b272661e", "is_reserved": 0, "name": "c4c61834e76a9583bc8fc8f3b272661e", "lat": 38.909768, "fusion_lat": 0.0, "lon": -77.0320945, "is_disabled": 0, "fusion_lon": 0.0, "rental_uris": {"android": "https://dc.lft.to/lastmile_qr_scan", "ios": "https://dc.lft.to/lastmile_qr_scan"}, "type": "electric_scooter"}, {"bike_id": "0c1cb183fbae14f2a7370ba8f0866335", "is_reserved": 0, "name": "0c1cb183fbae14f2a7370ba8f0866335", "lat": 38.94738533333334, "fusion_lat": 0.0, "lon": -77.01617783333333, "is_disabled": 0, "fusion_lon": 0.0, "rental_uris": {"android": "https://dc.lft.to/lastmile_qr_scan", "ios": "https://dc.lft.to/lastmile_qr_scan"}, "type": "electric_scooter"}, {"bike_id": "f5ef0e33f16007cb563a3b57ed322785", "is_reserved": 0, "name": "f5ef0e33f16007cb563a3b57ed322785", "lat": 38.90488033333333, "fusion_lat": 0.0, "lon": -77.00726733333333, "is_disabled": 0, "fusion_lon": 0.0, "rental_uris": {"android": "https://dc.lft.to/lastmile_qr_scan", "ios": "https://dc.lft.to/lastmile_qr_scan"}, "type": "electric_scooter"}, {"bike_id": "8a9659769c28186ec93085a3bbd9683d", "is_reserved": 0, "name": "8a9659769c28186ec93085a3bbd9683d", "lat": 38.934827166666665, "fusion_lat": 0.0, "lon": -77.0271845, "is_disabled": 0, "fusion_lon": 0.0, "rental_uris": {"android": "https://dc.lft.to/lastmile_qr_scan", "ios": "https://dc.lft.to/lastmile_qr_scan"}, "type": "electric_scooter"}, {"bike_id": "38c7bd715d7ce50357d5b4f2a94011ad", "is_reserved": 0, "name": "38c7bd715d7ce50357d5b4f2a94011ad", "lat": 38.8990645, "fusion_lat": 0.0, "lon": -76.94547016666667, "is_disabled": 0, "fusion_lon": 0.0, "rental_uris": {"android": "https://dc.lft.to/lastmile_qr_scan", "ios": "https://dc.lft.to/lastmile_qr_scan"}, "type": "electric_scooter"}, {"bike_id": "3a4a6cfd9bf6370aaa941d824c045a18", "is_reserved": 0, "name": "3a4a6cfd9bf6370aaa941d824c045a18", "lat": 38.9309915, "fusion_lat": 0.0, "lon": -77.02650133333333, "is_disabled": 0, "fusion_lon": 0.0, "rental_uris": {"android": "https://dc.lft.to/lastmile_qr_scan", "ios": "https://dc.lft.to/lastmile_qr_scan"}, "type": "electric_scooter"}, {"bike_id": "07a4ce71325cbe4a4952d4ba6dbae62f", "is_reserved": 0, "name": "07a4ce71325cbe4a4952d4ba6dbae62f", "lat": 38.90692216666667, "fusion_lat": 0.0, "lon": -77.038415, "is_disabled": 0, "fusion_lon": 0.0, "rental_uris": {"android": "https://dc.lft.to/lastmile_qr_scan", "ios": "https://dc.lft.to/lastmile_qr_scan"}, "type": "electric_scooter"}, {"bike_id": "f4648cffaa6dcdbb01e4c9baebe7fdd2", "is_reserved": 0, "name": "f4648cffaa6dcdbb01e4c9baebe7fdd2", "lat": 38.9129455, "fusion_lat": 0.0, "lon": -77.0223315, "is_disabled": 0, "fusion_lon": 0.0, "rental_uris": {"android": "https://dc.lft.to/lastmile_qr_scan", "ios": "https://dc.lft.to/lastmile_qr_scan"}, "type": "electric_scooter"}, {"bike_id": "c67d936b7e3aca95ecc4b187c29a8483", "is_reserved": 0, "name": "c67d936b7e3aca95ecc4b187c29a8483", "lat": 38.832461, "fusion_lat": 0.0, "lon": -77.00724983333333, "is_disabled": 0, "fusion_lon": 0.0, "rental_uris": {"android": "https://dc.lft.to/lastmile_qr_scan", "ios": "https://dc.lft.to/lastmile_qr_scan"}, "type": "electric_bike"}, {"bike_id": "423ba7b77a02880abe616c05a084e888", "is_reserved": 0, "name": "423ba7b77a02880abe616c05a084e888", "lat": 38.91189, "fusion_lat": 0.0, "lon": -77.041152, "is_disabled": 0, "fusion_lon": 0.0, "rental_uris": {"android": "https://dc.lft.to/lastmile_qr_scan", "ios": "https://dc.lft.to/lastmile_qr_scan"}, "type": "electric_scooter"}, {"bike_id": "820a6b887106ac2c69bb0cf5345e7cd6", "is_reserved": 0, "name": "820a6b887106ac2c69bb0cf5345e7cd6", "lat": 38.9074065, "fusion_lat": 0.0, "lon": -77.04161483333333, "is_disabled": 0, "fusion_lon": 0.0, "rental_uris": {"android": "https://dc.lft.to/lastmile_qr_scan", "ios": "https://dc.lft.to/lastmile_qr_scan"}, "type": "electric_scooter"}, {"bike_id": "506b586f43af403c50d1a2441cd49211", "is_reserved": 0, "name": "506b586f43af403c50d1a2441cd49211", "lat": 38.89223166666667, "fusion_lat": 0.0, "lon": -77.04867133333333, "is_disabled": 0, "fusion_lon": 0.0, "rental_uris": {"android": "https://dc.lft.to/lastmile_qr_scan", "ios": "https://dc.lft.to/lastmile_qr_scan"}, "type": "electric_scooter"}, {"bike_id": "71661395d15e68039903fc09bf9b99bc", "is_reserved": 0, "name": "71661395d15e68039903fc09bf9b99bc", "lat": 38.91405816666666, "fusion_lat": 0.0, "lon": -77.00841616666666, "is_disabled": 0, "fusion_lon": 0.0, "rental_uris": {"android": "https://dc.lft.to/lastmile_qr_scan", "ios": "https://dc.lft.to/lastmile_qr_scan"}, "type": "electric_scooter"}, {"bike_id": "526f36d838f385c211a6d018f435d4c5", "is_reserved": 0, "name": "526f36d838f385c211a6d018f435d4c5", "lat": 38.89235633333333, "fusion_lat": 0.0, "lon": -77.02380733333334, "is_disabled": 0, "fusion_lon": 0.0, "rental_uris": {"android": "https://dc.lft.to/lastmile_qr_scan", "ios": "https://dc.lft.to/lastmile_qr_scan"}, "type": "electric_scooter"}, {"bike_id": "27e292ec69c111ca6243108894dc0b58", "is_reserved": 0, "name": "27e292ec69c111ca6243108894dc0b58", "lat": 38.892385166666664, "fusion_lat": 0.0, "lon": -77.0334955, "is_disabled": 0, "fusion_lon": 0.0, "rental_uris": {"android": "https://dc.lft.to/lastmile_qr_scan", "ios": "https://dc.lft.to/lastmile_qr_scan"}, "type": "electric_scooter"}, {"bike_id": "4289fbb4aa325a420ae3ece643f7dca4", "is_reserved": 0, "name": "4289fbb4aa325a420ae3ece643f7dca4", "lat": 38.902335, "fusion_lat": 0.0, "lon": -77.06140883333333, "is_disabled": 0, "fusion_lon": 0.0, "rental_uris": {"android": "https://dc.lft.to/lastmile_qr_scan", "ios": "https://dc.lft.to/lastmile_qr_scan"}, "type": "electric_scooter"}, {"bike_id": "4ad6e5941af4de0f9416b2a6a411f18e", "is_reserved": 0, "name": "4ad6e5941af4de0f9416b2a6a411f18e", "lat": 38.896100833333335, "fusion_lat": 0.0, "lon": -77.026845, "is_disabled": 0, "fusion_lon": 0.0, "rental_uris": {"android": "https://dc.lft.to/lastmile_qr_scan", "ios": "https://dc.lft.to/lastmile_qr_scan"}, "type": "electric_scooter"}, {"bike_id": "1b0ea3a3a57d3151f8f2edb65dc11616", "is_reserved": 0, "name": "1b0ea3a3a57d3151f8f2edb65dc11616", "lat": 38.87207683333333, "fusion_lat": 0.0, "lon": -77.01683533333333, "is_disabled": 0, "fusion_lon": 0.0, "rental_uris": {"android": "https://dc.lft.to/lastmile_qr_scan", "ios": "https://dc.lft.to/lastmile_qr_scan"}, "type": "electric_scooter"}, {"bike_id": "e3eb985f59fd6cd6e7b651faaf5444fe", "is_reserved": 0, "name": "e3eb985f59fd6cd6e7b651faaf5444fe", "lat": 38.86333366666667, "fusion_lat": 0.0, "lon": -76.9872215, "is_disabled": 0, "fusion_lon": 0.0, "rental_uris": {"android": "https://dc.lft.to/lastmile_qr_scan", "ios": "https://dc.lft.to/lastmile_qr_scan"}, "type": "electric_bike"}, {"bike_id": "f9d394564dd3043614970b0ad88465e3", "is_reserved": 0, "name": "f9d394564dd3043614970b0ad88465e3", "lat": 38.921813, "fusion_lat": 0.0, "lon": -77.04181816666667, "is_disabled": 0, "fusion_lon": 0.0, "rental_uris": {"android": "https://dc.lft.to/lastmile_qr_scan", "ios": "https://dc.lft.to/lastmile_qr_scan"}, "type": "electric_scooter"}, {"bike_id": "32f49a9b68b8ae7c3fdf8046159435a7", "is_reserved": 0, "name": "32f49a9b68b8ae7c3fdf8046159435a7", "lat": 38.890327, "fusion_lat": 0.0, "lon": -76.93747533333334, "is_disabled": 0, "fusion_lon": 0.0, "rental_uris": {"android": "https://dc.lft.to/lastmile_qr_scan", "ios": "https://dc.lft.to/lastmile_qr_scan"}, "type": "electric_scooter"}, {"bike_id": "1cd679389a405b7dda1a666428f97736", "is_reserved": 0, "name": "1cd679389a405b7dda1a666428f97736", "lat": 38.91731083333333, "fusion_lat": 0.0, "lon": -77.04174033333334, "is_disabled": 0, "fusion_lon": 0.0, "rental_uris": {"android": "https://dc.lft.to/lastmile_qr_scan", "ios": "https://dc.lft.to/lastmile_qr_scan"}, "type": "electric_scooter"}, {"bike_id": "74215f7f787342a23aeac3ba96e9f662", "is_reserved": 0, "name": "74215f7f787342a23aeac3ba96e9f662", "lat": 38.93258566666667, "fusion_lat": 0.0, "lon": -76.98902166666667, "is_disabled": 0, "fusion_lon": 0.0, "rental_uris": {"android": "https://dc.lft.to/lastmile_qr_scan", "ios": "https://dc.lft.to/lastmile_qr_scan"}, "type": "electric_scooter"}, {"bike_id": "0d6b5ba994b1e9679e26b374eb8b22a0", "is_reserved": 0, "name": "0d6b5ba994b1e9679e26b374eb8b22a0", "lat": 38.91960816666667, "fusion_lat": 0.0, "lon": -77.04171283333334, "is_disabled": 0, "fusion_lon": 0.0, "rental_uris": {"android": "https://dc.lft.to/lastmile_qr_scan", "ios": "https://dc.lft.to/lastmile_qr_scan"}, "type": "electric_scooter"}, {"bike_id": "cbc244c25d18d61eed7e9a2f005547ff", "is_reserved": 0, "name": "cbc244c25d18d61eed7e9a2f005547ff", "lat": 38.90261233333333, "fusion_lat": 0.0, "lon": -77.01859333333333, "is_disabled": 0, "fusion_lon": 0.0, "rental_uris": {"android": "https://dc.lft.to/lastmile_qr_scan", "ios": "https://dc.lft.to/lastmile_qr_scan"}, "type": "electric_scooter"}, {"bike_id": "417a23b4ef6d2fcf2f5e7fd69d675d8f", "is_reserved": 0, "name": "417a23b4ef6d2fcf2f5e7fd69d675d8f", "lat": 38.9084175, "fusion_lat": 0.0, "lon": -77.0634825, "is_disabled": 0, "fusion_lon": 0.0, "rental_uris": {"android": "https://dc.lft.to/lastmile_qr_scan", "ios": "https://dc.lft.to/lastmile_qr_scan"}, "type": "electric_scooter"}, {"bike_id": "5295d7fbeb19e8b0957388bde0657993", "is_reserved": 0, "name": "5295d7fbeb19e8b0957388bde0657993", "lat": 38.898315, "fusion_lat": 0.0, "lon": -77.02965016666667, "is_disabled": 0, "fusion_lon": 0.0, "rental_uris": {"android": "https://dc.lft.to/lastmile_qr_scan", "ios": "https://dc.lft.to/lastmile_qr_scan"}, "type": "electric_scooter"}, {"bike_id": "622908d2eb8562c1ac66a276525ac3fa", "is_reserved": 0, "name": "622908d2eb8562c1ac66a276525ac3fa", "lat": 38.799855666666666, "fusion_lat": 0.0, "lon": -77.12977466666666, "is_disabled": 0, "fusion_lon": 0.0, "rental_uris": {"android": "https://dc.lft.to/lastmile_qr_scan", "ios": "https://dc.lft.to/lastmile_qr_scan"}, "type": "electric_bike"}, {"bike_id": "9e05e6e482b52407b26936a74ee87369", "is_reserved": 0, "name": "9e05e6e482b52407b26936a74ee87369", "lat": 38.9053325, "fusion_lat": 0.0, "lon": -77.056387, "is_disabled": 0, "fusion_lon": 0.0, "rental_uris": {"android": "https://dc.lft.to/lastmile_qr_scan", "ios": "https://dc.lft.to/lastmile_qr_scan"}, "type": "electric_scooter"}, {"bike_id": "406c886209e3025df9c9856a21558a26", "is_reserved": 0, "name": "406c886209e3025df9c9856a21558a26", "lat": 38.90915583333334, "fusion_lat": 0.0, "lon": -77.064165, "is_disabled": 0, "fusion_lon": 0.0, "rental_uris": {"android": "https://dc.lft.to/lastmile_qr_scan", "ios": "https://dc.lft.to/lastmile_qr_scan"}, "type": "electric_scooter"}, {"bike_id": "a68d9eb05ec59ee3cbb65dc2bda3a541", "is_reserved": 0, "name": "a68d9eb05ec59ee3cbb65dc2bda3a541", "lat": 38.90853283333333, "fusion_lat": 0.0, "lon": -77.03834516666667, "is_disabled": 0, "fusion_lon": 0.0, "rental_uris": {"android": "https://dc.lft.to/lastmile_qr_scan", "ios": "https://dc.lft.to/lastmile_qr_scan"}, "type": "electric_scooter"}, {"bike_id": "6faf0feb0a9c5be4845c1d25d8925af8", "is_reserved": 0, "name": "6faf0feb0a9c5be4845c1d25d8925af8", "lat": 38.88655516666667, "fusion_lat": 0.0, "lon": -77.019989, "is_disabled": 0, "fusion_lon": 0.0, "rental_uris": {"android": "https://dc.lft.to/lastmile_qr_scan", "ios": "https://dc.lft.to/lastmile_qr_scan"}, "type": "electric_scooter"}, {"bike_id": "33d6c7e00a4cb2e0cde5c31ca98c6011", "is_reserved": 0, "name": "33d6c7e00a4cb2e0cde5c31ca98c6011", "lat": 38.917005333333336, "fusion_lat": 0.0, "lon": -77.0334665, "is_disabled": 0, "fusion_lon": 0.0, "rental_uris": {"android": "https://dc.lft.to/lastmile_qr_scan", "ios": "https://dc.lft.to/lastmile_qr_scan"}, "type": "electric_scooter"}, {"bike_id": "26cf5df422ae328b95d71464addabcfe", "is_reserved": 0, "name": "26cf5df422ae328b95d71464addabcfe", "lat": 38.95485866666667, "fusion_lat": 0.0, "lon": -77.02665633333334, "is_disabled": 0, "fusion_lon": 0.0, "rental_uris": {"android": "https://dc.lft.to/lastmile_qr_scan", "ios": "https://dc.lft.to/lastmile_qr_scan"}, "type": "electric_bike"}, {"bike_id": "f270647bdb7b9886b7c8fe82754c0a63", "is_reserved": 0, "name": "f270647bdb7b9886b7c8fe82754c0a63", "lat": 38.90957233333334, "fusion_lat": 0.0, "lon": -77.046501, "is_disabled": 0, "fusion_lon": 0.0, "rental_uris": {"android": "https://dc.lft.to/lastmile_qr_scan", "ios": "https://dc.lft.to/lastmile_qr_scan"}, "type": "electric_scooter"}, {"bike_id": "4325167f960b14834846d5bf0a14fd5e", "is_reserved": 0, "name": "4325167f960b14834846d5bf0a14fd5e", "lat": 38.91382083333333, "fusion_lat": 0.0, "lon": -77.046023, "is_disabled": 0, "fusion_lon": 0.0, "rental_uris": {"android": "https://dc.lft.to/lastmile_qr_scan", "ios": "https://dc.lft.to/lastmile_qr_scan"}, "type": "electric_scooter"}, {"bike_id": "0bba59f1b0750dee3d6464e7d7805167", "is_reserved": 0, "name": "0bba59f1b0750dee3d6464e7d7805167", "lat": 38.898369833333334, "fusion_lat": 0.0, "lon": -77.02796416666666, "is_disabled": 0, "fusion_lon": 0.0, "rental_uris": {"android": "https://dc.lft.to/lastmile_qr_scan", "ios": "https://dc.lft.to/lastmile_qr_scan"}, "type": "electric_scooter"}, {"bike_id": "8216349b06c8f360ff04d5590c19243c", "is_reserved": 0, "name": "8216349b06c8f360ff04d5590c19243c", "lat": 38.9103935, "fusion_lat": 0.0, "lon": -77.0341355, "is_disabled": 0, "fusion_lon": 0.0, "rental_uris": {"android": "https://dc.lft.to/lastmile_qr_scan", "ios": "https://dc.lft.to/lastmile_qr_scan"}, "type": "electric_scooter"}, {"bike_id": "d676e6c5ef91ba79ccc4612ec85a69ed", "is_reserved": 0, "name": "d676e6c5ef91ba79ccc4612ec85a69ed", "lat": 38.923850333333334, "fusion_lat": 0.0, "lon": -77.0216925, "is_disabled": 0, "fusion_lon": 0.0, "rental_uris": {"android": "https://dc.lft.to/lastmile_qr_scan", "ios": "https://dc.lft.to/lastmile_qr_scan"}, "type": "electric_scooter"}, {"bike_id": "15d1bde0c674fa42aaaee5be9c8885ef", "is_reserved": 0, "name": "15d1bde0c674fa42aaaee5be9c8885ef", "lat": 38.90734416666667, "fusion_lat": 0.0, "lon": -77.02950016666666, "is_disabled": 0, "fusion_lon": 0.0, "rental_uris": {"android": "https://dc.lft.to/lastmile_qr_scan", "ios": "https://dc.lft.to/lastmile_qr_scan"}, "type": "electric_scooter"}, {"bike_id": "803c4db6e1f69b34c8d8ef3e38254890", "is_reserved": 0, "name": "803c4db6e1f69b34c8d8ef3e38254890", "lat": 38.90022716666667, "fusion_lat": 0.0, "lon": -77.04873833333333, "is_disabled": 0, "fusion_lon": 0.0, "rental_uris": {"android": "https://dc.lft.to/lastmile_qr_scan", "ios": "https://dc.lft.to/lastmile_qr_scan"}, "type": "electric_scooter"}, {"bike_id": "efc4e740609ad9366e6b89c67acdef24", "is_reserved": 0, "name": "efc4e740609ad9366e6b89c67acdef24", "lat": 38.926032666666664, "fusion_lat": 0.0, "lon": -77.02158083333333, "is_disabled": 0, "fusion_lon": 0.0, "rental_uris": {"android": "https://dc.lft.to/lastmile_qr_scan", "ios": "https://dc.lft.to/lastmile_qr_scan"}, "type": "electric_scooter"}, {"bike_id": "5a2ec737c89b7566fa051b28a4c70465", "is_reserved": 0, "name": "5a2ec737c89b7566fa051b28a4c70465", "lat": 38.9171385, "fusion_lat": 0.0, "lon": -76.97649683333333, "is_disabled": 0, "fusion_lon": 0.0, "rental_uris": {"android": "https://dc.lft.to/lastmile_qr_scan", "ios": "https://dc.lft.to/lastmile_qr_scan"}, "type": "electric_scooter"}, {"bike_id": "04d7b842828182da9845fbba828d6d7d", "is_reserved": 0, "name": "04d7b842828182da9845fbba828d6d7d", "lat": 38.9199845, "fusion_lat": 0.0, "lon": -77.032213, "is_disabled": 0, "fusion_lon": 0.0, "rental_uris": {"android": "https://dc.lft.to/lastmile_qr_scan", "ios": "https://dc.lft.to/lastmile_qr_scan"}, "type": "electric_scooter"}, {"bike_id": "03882bd343594b27951b61f76c8d8563", "is_reserved": 0, "name": "03882bd343594b27951b61f76c8d8563", "lat": 38.90379933333333, "fusion_lat": 0.0, "lon": -77.008699, "is_disabled": 0, "fusion_lon": 0.0, "rental_uris": {"android": "https://dc.lft.to/lastmile_qr_scan", "ios": "https://dc.lft.to/lastmile_qr_scan"}, "type": "electric_scooter"}, {"bike_id": "277b2d826be88d4d47379481f1a7ce23", "is_reserved": 0, "name": "277b2d826be88d4d47379481f1a7ce23", "lat": 38.90391066666667, "fusion_lat": 0.0, "lon": -77.06012833333334, "is_disabled": 0, "fusion_lon": 0.0, "rental_uris": {"android": "https://dc.lft.to/lastmile_qr_scan", "ios": "https://dc.lft.to/lastmile_qr_scan"}, "type": "electric_scooter"}, {"bike_id": "0b5b57d9f6805cfcc6392131dcd29c70", "is_reserved": 0, "name": "0b5b57d9f6805cfcc6392131dcd29c70", "lat": 38.91561933333333, "fusion_lat": 0.0, "lon": -77.0217475, "is_disabled": 0, "fusion_lon": 0.0, "rental_uris": {"android": "https://dc.lft.to/lastmile_qr_scan", "ios": "https://dc.lft.to/lastmile_qr_scan"}, "type": "electric_scooter"}, {"bike_id": "ff1ce5a03dbd77a16f957e4267aa089c", "is_reserved": 0, "name": "ff1ce5a03dbd77a16f957e4267aa089c", "lat": 38.90364433333333, "fusion_lat": 0.0, "lon": -77.04010183333334, "is_disabled": 0, "fusion_lon": 0.0, "rental_uris": {"android": "https://dc.lft.to/lastmile_qr_scan", "ios": "https://dc.lft.to/lastmile_qr_scan"}, "type": "electric_scooter"}, {"bike_id": "90c6a526640ca69da1386389a577d7ed", "is_reserved": 0, "name": "90c6a526640ca69da1386389a577d7ed", "lat": 38.88748666666667, "fusion_lat": 0.0, "lon": -77.02131533333333, "is_disabled": 0, "fusion_lon": 0.0, "rental_uris": {"android": "https://dc.lft.to/lastmile_qr_scan", "ios": "https://dc.lft.to/lastmile_qr_scan"}, "type": "electric_scooter"}, {"bike_id": "00c6d048e391541b1cc1819c7a65ab80", "is_reserved": 0, "name": "00c6d048e391541b1cc1819c7a65ab80", "lat": 38.93907266666667, "fusion_lat": 0.0, "lon": -77.02470066666666, "is_disabled": 0, "fusion_lon": 0.0, "rental_uris": {"android": "https://dc.lft.to/lastmile_qr_scan", "ios": "https://dc.lft.to/lastmile_qr_scan"}, "type": "electric_scooter"}, {"bike_id": "53c4d44bd764d61d8ddd1d4d989dd559", "is_reserved": 0, "name": "53c4d44bd764d61d8ddd1d4d989dd559", "lat": 38.9004085, "fusion_lat": 0.0, "lon": -77.00205233333334, "is_disabled": 0, "fusion_lon": 0.0, "rental_uris": {"android": "https://dc.lft.to/lastmile_qr_scan", "ios": "https://dc.lft.to/lastmile_qr_scan"}, "type": "electric_scooter"}, {"bike_id": "ff13c9a615db93574aae024bc319827e", "is_reserved": 0, "name": "ff13c9a615db93574aae024bc319827e", "lat": 38.887255333333336, "fusion_lat": 0.0, "lon": -76.9835985, "is_disabled": 0, "fusion_lon": 0.0, "rental_uris": {"android": "https://dc.lft.to/lastmile_qr_scan", "ios": "https://dc.lft.to/lastmile_qr_scan"}, "type": "electric_scooter"}, {"bike_id": "12ee350a128d274a42c017454d64d10f", "is_reserved": 0, "name": "12ee350a128d274a42c017454d64d10f", "lat": 38.90375, "fusion_lat": 0.0, "lon": -77.05063633333333, "is_disabled": 0, "fusion_lon": 0.0, "rental_uris": {"android": "https://dc.lft.to/lastmile_qr_scan", "ios": "https://dc.lft.to/lastmile_qr_scan"}, "type": "electric_scooter"}, {"bike_id": "773b7068094decd6586829960db56458", "is_reserved": 0, "name": "773b7068094decd6586829960db56458", "lat": 38.899937, "fusion_lat": 0.0, "lon": -77.02396716666667, "is_disabled": 0, "fusion_lon": 0.0, "rental_uris": {"android": "https://dc.lft.to/lastmile_qr_scan", "ios": "https://dc.lft.to/lastmile_qr_scan"}, "type": "electric_scooter"}, {"bike_id": "19abb46b17b5385f4cc0c78d83d7cb30", "is_reserved": 0, "name": "19abb46b17b5385f4cc0c78d83d7cb30", "lat": 38.88738433333333, "fusion_lat": 0.0, "lon": -77.00346183333333, "is_disabled": 0, "fusion_lon": 0.0, "rental_uris": {"android": "https://dc.lft.to/lastmile_qr_scan", "ios": "https://dc.lft.to/lastmile_qr_scan"}, "type": "electric_scooter"}, {"bike_id": "76c8a3b4512bf737a19f5ccb7c6c193b", "is_reserved": 0, "name": "76c8a3b4512bf737a19f5ccb7c6c193b", "lat": 38.90207016666667, "fusion_lat": 0.0, "lon": -77.023512, "is_disabled": 0, "fusion_lon": 0.0, "rental_uris": {"android": "https://dc.lft.to/lastmile_qr_scan", "ios": "https://dc.lft.to/lastmile_qr_scan"}, "type": "electric_scooter"}, {"bike_id": "2011f2124296cd2260021247c6f7fdb8", "is_reserved": 0, "name": "2011f2124296cd2260021247c6f7fdb8", "lat": 38.953566333333335, "fusion_lat": 0.0, "lon": -76.98096966666667, "is_disabled": 0, "fusion_lon": 0.0, "rental_uris": {"android": "https://dc.lft.to/lastmile_qr_scan", "ios": "https://dc.lft.to/lastmile_qr_scan"}, "type": "electric_bike"}, {"bike_id": "9e147d18fb7c296e5e3957271ee0424a", "is_reserved": 0, "name": "9e147d18fb7c296e5e3957271ee0424a", "lat": 38.923416333333336, "fusion_lat": 0.0, "lon": -77.0518185, "is_disabled": 0, "fusion_lon": 0.0, "rental_uris": {"android": "https://dc.lft.to/lastmile_qr_scan", "ios": "https://dc.lft.to/lastmile_qr_scan"}, "type": "electric_scooter"}, {"bike_id": "fd03e074fd9c70642250f67a2dff5dfe", "is_reserved": 0, "name": "fd03e074fd9c70642250f67a2dff5dfe", "lat": 38.90669533333333, "fusion_lat": 0.0, "lon": -77.01062866666666, "is_disabled": 0, "fusion_lon": 0.0, "rental_uris": {"android": "https://dc.lft.to/lastmile_qr_scan", "ios": "https://dc.lft.to/lastmile_qr_scan"}, "type": "electric_scooter"}, {"bike_id": "913197e6a5f071ffeeb027bee4326027", "is_reserved": 0, "name": "913197e6a5f071ffeeb027bee4326027", "lat": 38.89385016666667, "fusion_lat": 0.0, "lon": -76.92302933333333, "is_disabled": 0, "fusion_lon": 0.0, "rental_uris": {"android": "https://dc.lft.to/lastmile_qr_scan", "ios": "https://dc.lft.to/lastmile_qr_scan"}, "type": "electric_scooter"}, {"bike_id": "f7e66b0d15222c21e452748f805fdc8e", "is_reserved": 0, "name": "f7e66b0d15222c21e452748f805fdc8e", "lat": 38.905729, "fusion_lat": 0.0, "lon": -77.005991, "is_disabled": 0, "fusion_lon": 0.0, "rental_uris": {"android": "https://dc.lft.to/lastmile_qr_scan", "ios": "https://dc.lft.to/lastmile_qr_scan"}, "type": "electric_scooter"}, {"bike_id": "43da6919206c92929d0a15a45d6d2998", "is_reserved": 0, "name": "43da6919206c92929d0a15a45d6d2998", "lat": 38.9003055, "fusion_lat": 0.0, "lon": -76.99845083333334, "is_disabled": 0, "fusion_lon": 0.0, "rental_uris": {"android": "https://dc.lft.to/lastmile_qr_scan", "ios": "https://dc.lft.to/lastmile_qr_scan"}, "type": "electric_scooter"}, {"bike_id": "b54dcec05a92a383373a7088b5c71a0a", "is_reserved": 0, "name": "b54dcec05a92a383373a7088b5c71a0a", "lat": 38.895155833333334, "fusion_lat": 0.0, "lon": -77.0036145, "is_disabled": 0, "fusion_lon": 0.0, "rental_uris": {"android": "https://dc.lft.to/lastmile_qr_scan", "ios": "https://dc.lft.to/lastmile_qr_scan"}, "type": "electric_scooter"}, {"bike_id": "0ff546c0974473d581cec36ccfd157db", "is_reserved": 0, "name": "0ff546c0974473d581cec36ccfd157db", "lat": 38.918011666666665, "fusion_lat": 0.0, "lon": -77.027081, "is_disabled": 0, "fusion_lon": 0.0, "rental_uris": {"android": "https://dc.lft.to/lastmile_qr_scan", "ios": "https://dc.lft.to/lastmile_qr_scan"}, "type": "electric_scooter"}, {"bike_id": "cb49e72702590f7be5d7fc3fb102c708", "is_reserved": 0, "name": "cb49e72702590f7be5d7fc3fb102c708", "lat": 38.942746, "fusion_lat": 0.0, "lon": -76.99447166666667, "is_disabled": 0, "fusion_lon": 0.0, "rental_uris": {"android": "https://dc.lft.to/lastmile_qr_scan", "ios": "https://dc.lft.to/lastmile_qr_scan"}, "type": "electric_scooter"}, {"bike_id": "96467504e4d32d3e98c98a03b2ba7d2f", "is_reserved": 0, "name": "96467504e4d32d3e98c98a03b2ba7d2f", "lat": 38.89606916666666, "fusion_lat": 0.0, "lon": -76.9811145, "is_disabled": 0, "fusion_lon": 0.0, "rental_uris": {"android": "https://dc.lft.to/lastmile_qr_scan", "ios": "https://dc.lft.to/lastmile_qr_scan"}, "type": "electric_scooter"}, {"bike_id": "948f89c8af23e275718b6f0cd01efb28", "is_reserved": 0, "name": "948f89c8af23e275718b6f0cd01efb28", "lat": 38.896046, "fusion_lat": 0.0, "lon": -77.02339316666666, "is_disabled": 0, "fusion_lon": 0.0, "rental_uris": {"android": "https://dc.lft.to/lastmile_qr_scan", "ios": "https://dc.lft.to/lastmile_qr_scan"}, "type": "electric_scooter"}, {"bike_id": "b113cf1601078d96cb977e4dc2a21d86", "is_reserved": 0, "name": "b113cf1601078d96cb977e4dc2a21d86", "lat": 38.90047966666667, "fusion_lat": 0.0, "lon": -77.00067766666666, "is_disabled": 0, "fusion_lon": 0.0, "rental_uris": {"android": "https://dc.lft.to/lastmile_qr_scan", "ios": "https://dc.lft.to/lastmile_qr_scan"}, "type": "electric_scooter"}, {"bike_id": "b8ec5fed13d3315565c7d19898cb062a", "is_reserved": 0, "name": "b8ec5fed13d3315565c7d19898cb062a", "lat": 38.928094, "fusion_lat": 0.0, "lon": -77.03641666666667, "is_disabled": 0, "fusion_lon": 0.0, "rental_uris": {"android": "https://dc.lft.to/lastmile_qr_scan", "ios": "https://dc.lft.to/lastmile_qr_scan"}, "type": "electric_scooter"}, {"bike_id": "ad629003848876cb809d7df088be919c", "is_reserved": 0, "name": "ad629003848876cb809d7df088be919c", "lat": 38.90223866666667, "fusion_lat": 0.0, "lon": -77.02378716666666, "is_disabled": 0, "fusion_lon": 0.0, "rental_uris": {"android": "https://dc.lft.to/lastmile_qr_scan", "ios": "https://dc.lft.to/lastmile_qr_scan"}, "type": "electric_scooter"}, {"bike_id": "c9d17f70b050093c518a76dfb218cf34", "is_reserved": 0, "name": "c9d17f70b050093c518a76dfb218cf34", "lat": 38.90038783333333, "fusion_lat": 0.0, "lon": -77.03493533333334, "is_disabled": 0, "fusion_lon": 0.0, "rental_uris": {"android": "https://dc.lft.to/lastmile_qr_scan", "ios": "https://dc.lft.to/lastmile_qr_scan"}, "type": "electric_scooter"}, {"bike_id": "97e289146dfa3cb92fb9b7bba255dfa3", "is_reserved": 0, "name": "97e289146dfa3cb92fb9b7bba255dfa3", "lat": 38.91751766666667, "fusion_lat": 0.0, "lon": -77.0249345, "is_disabled": 0, "fusion_lon": 0.0, "rental_uris": {"android": "https://dc.lft.to/lastmile_qr_scan", "ios": "https://dc.lft.to/lastmile_qr_scan"}, "type": "electric_scooter"}, {"bike_id": "0374caf6516ce7bcd5a4e153541860c4", "is_reserved": 0, "name": "0374caf6516ce7bcd5a4e153541860c4", "lat": 38.9003575, "fusion_lat": 0.0, "lon": -77.03505716666666, "is_disabled": 0, "fusion_lon": 0.0, "rental_uris": {"android": "https://dc.lft.to/lastmile_qr_scan", "ios": "https://dc.lft.to/lastmile_qr_scan"}, "type": "electric_scooter"}, {"bike_id": "65d64861538c341223040dacf4cdc4b0", "is_reserved": 0, "name": "65d64861538c341223040dacf4cdc4b0", "lat": 38.89587933333333, "fusion_lat": 0.0, "lon": -76.98319116666667, "is_disabled": 0, "fusion_lon": 0.0, "rental_uris": {"android": "https://dc.lft.to/lastmile_qr_scan", "ios": "https://dc.lft.to/lastmile_qr_scan"}, "type": "electric_scooter"}, {"bike_id": "6d8d1d5fa052cbf0e19831b61e06564c", "is_reserved": 0, "name": "6d8d1d5fa052cbf0e19831b61e06564c", "lat": 38.925369833333335, "fusion_lat": 0.0, "lon": -77.03488383333334, "is_disabled": 0, "fusion_lon": 0.0, "rental_uris": {"android": "https://dc.lft.to/lastmile_qr_scan", "ios": "https://dc.lft.to/lastmile_qr_scan"}, "type": "electric_scooter"}, {"bike_id": "20acf441b62c0dad0b0913ff17027b1d", "is_reserved": 0, "name": "20acf441b62c0dad0b0913ff17027b1d", "lat": 38.87952516666667, "fusion_lat": 0.0, "lon": -77.006431, "is_disabled": 0, "fusion_lon": 0.0, "rental_uris": {"android": "https://dc.lft.to/lastmile_qr_scan", "ios": "https://dc.lft.to/lastmile_qr_scan"}, "type": "electric_scooter"}, {"bike_id": "0f35b5e8e14963e20d2183a1dafe8cec", "is_reserved": 0, "name": "0f35b5e8e14963e20d2183a1dafe8cec", "lat": 38.9252495, "fusion_lat": 0.0, "lon": -77.025869, "is_disabled": 0, "fusion_lon": 0.0, "rental_uris": {"android": "https://dc.lft.to/lastmile_qr_scan", "ios": "https://dc.lft.to/lastmile_qr_scan"}, "type": "electric_scooter"}, {"bike_id": "fb5345f962667b9e7cf137311387f9bb", "is_reserved": 0, "name": "fb5345f962667b9e7cf137311387f9bb", "lat": 38.9329385, "fusion_lat": 0.0, "lon": -77.028539, "is_disabled": 0, "fusion_lon": 0.0, "rental_uris": {"android": "https://dc.lft.to/lastmile_qr_scan", "ios": "https://dc.lft.to/lastmile_qr_scan"}, "type": "electric_scooter"}, {"bike_id": "2dc736b77a0d931382f5f5a0d9172707", "is_reserved": 0, "name": "2dc736b77a0d931382f5f5a0d9172707", "lat": 38.917116166666666, "fusion_lat": 0.0, "lon": -77.030376, "is_disabled": 0, "fusion_lon": 0.0, "rental_uris": {"android": "https://dc.lft.to/lastmile_qr_scan", "ios": "https://dc.lft.to/lastmile_qr_scan"}, "type": "electric_scooter"}, {"bike_id": "10bfbb3b63af10d3d6a07e5c80227a43", "is_reserved": 0, "name": "10bfbb3b63af10d3d6a07e5c80227a43", "lat": 38.916988, "fusion_lat": 0.0, "lon": -77.03121516666667, "is_disabled": 0, "fusion_lon": 0.0, "rental_uris": {"android": "https://dc.lft.to/lastmile_qr_scan", "ios": "https://dc.lft.to/lastmile_qr_scan"}, "type": "electric_scooter"}, {"bike_id": "fe8489f33e3131b1d818a575a7ecef77", "is_reserved": 0, "name": "fe8489f33e3131b1d818a575a7ecef77", "lat": 38.8993855, "fusion_lat": 0.0, "lon": -77.019985, "is_disabled": 0, "fusion_lon": 0.0, "rental_uris": {"android": "https://dc.lft.to/lastmile_qr_scan", "ios": "https://dc.lft.to/lastmile_qr_scan"}, "type": "electric_scooter"}, {"bike_id": "58109e0a47df0ff675658ac8252f4e70", "is_reserved": 0, "name": "58109e0a47df0ff675658ac8252f4e70", "lat": 38.90410333333333, "fusion_lat": 0.0, "lon": -77.06264433333334, "is_disabled": 0, "fusion_lon": 0.0, "rental_uris": {"android": "https://dc.lft.to/lastmile_qr_scan", "ios": "https://dc.lft.to/lastmile_qr_scan"}, "type": "electric_scooter"}, {"bike_id": "25914c36d7917adc1196b8bfb9ae6521", "is_reserved": 0, "name": "25914c36d7917adc1196b8bfb9ae6521", "lat": 38.84098133333333, "fusion_lat": 0.0, "lon": -77.10697883333333, "is_disabled": 0, "fusion_lon": 0.0, "rental_uris": {"android": "https://dc.lft.to/lastmile_qr_scan", "ios": "https://dc.lft.to/lastmile_qr_scan"}, "type": "electric_bike"}, {"bike_id": "037967c4d92bf6cd64078b0e2a5ab531", "is_reserved": 0, "name": "037967c4d92bf6cd64078b0e2a5ab531", "lat": 38.897194, "fusion_lat": 0.0, "lon": -77.002117, "is_disabled": 0, "fusion_lon": 0.0, "rental_uris": {"android": "https://dc.lft.to/lastmile_qr_scan", "ios": "https://dc.lft.to/lastmile_qr_scan"}, "type": "electric_scooter"}, {"bike_id": "d2162c0749af818c02b6a7823772acc5", "is_reserved": 0, "name": "d2162c0749af818c02b6a7823772acc5", "lat": 38.883118, "fusion_lat": 0.0, "lon": -77.01378916666667, "is_disabled": 0, "fusion_lon": 0.0, "rental_uris": {"android": "https://dc.lft.to/lastmile_qr_scan", "ios": "https://dc.lft.to/lastmile_qr_scan"}, "type": "electric_scooter"}, {"bike_id": "9dbf6d13b580fb7f738ebdac9352b673", "is_reserved": 0, "name": "9dbf6d13b580fb7f738ebdac9352b673", "lat": 38.923439333333334, "fusion_lat": 0.0, "lon": -77.051815, "is_disabled": 0, "fusion_lon": 0.0, "rental_uris": {"android": "https://dc.lft.to/lastmile_qr_scan", "ios": "https://dc.lft.to/lastmile_qr_scan"}, "type": "electric_scooter"}, {"bike_id": "167342cef22e12feb7e94df14d46b74b", "is_reserved": 0, "name": "167342cef22e12feb7e94df14d46b74b", "lat": 38.900077, "fusion_lat": 0.0, "lon": -77.05424083333334, "is_disabled": 0, "fusion_lon": 0.0, "rental_uris": {"android": "https://dc.lft.to/lastmile_qr_scan", "ios": "https://dc.lft.to/lastmile_qr_scan"}, "type": "electric_scooter"}, {"bike_id": "782d05884979015bf2d1246caa9508c8", "is_reserved": 0, "name": "782d05884979015bf2d1246caa9508c8", "lat": 38.9003695, "fusion_lat": 0.0, "lon": -77.00197483333334, "is_disabled": 0, "fusion_lon": 0.0, "rental_uris": {"android": "https://dc.lft.to/lastmile_qr_scan", "ios": "https://dc.lft.to/lastmile_qr_scan"}, "type": "electric_scooter"}, {"bike_id": "cfd00f94001c438341d5577ac86ca944", "is_reserved": 0, "name": "cfd00f94001c438341d5577ac86ca944", "lat": 38.907753666666665, "fusion_lat": 0.0, "lon": -77.0449055, "is_disabled": 0, "fusion_lon": 0.0, "rental_uris": {"android": "https://dc.lft.to/lastmile_qr_scan", "ios": "https://dc.lft.to/lastmile_qr_scan"}, "type": "electric_scooter"}, {"bike_id": "128b03f81f5067ba8a792804f1a543ab", "is_reserved": 0, "name": "128b03f81f5067ba8a792804f1a543ab", "lat": 38.9050665, "fusion_lat": 0.0, "lon": -77.05075883333333, "is_disabled": 0, "fusion_lon": 0.0, "rental_uris": {"android": "https://dc.lft.to/lastmile_qr_scan", "ios": "https://dc.lft.to/lastmile_qr_scan"}, "type": "electric_scooter"}, {"bike_id": "e1a0fe0c2b21a42f8b08062940dc202a", "is_reserved": 0, "name": "e1a0fe0c2b21a42f8b08062940dc202a", "lat": 38.923672833333335, "fusion_lat": 0.0, "lon": -77.02112766666667, "is_disabled": 0, "fusion_lon": 0.0, "rental_uris": {"android": "https://dc.lft.to/lastmile_qr_scan", "ios": "https://dc.lft.to/lastmile_qr_scan"}, "type": "electric_scooter"}, {"bike_id": "cd44e0478a1fd3b3db66cf07c94a5e1a", "is_reserved": 0, "name": "cd44e0478a1fd3b3db66cf07c94a5e1a", "lat": 38.902191, "fusion_lat": 0.0, "lon": -77.016192, "is_disabled": 0, "fusion_lon": 0.0, "rental_uris": {"android": "https://dc.lft.to/lastmile_qr_scan", "ios": "https://dc.lft.to/lastmile_qr_scan"}, "type": "electric_scooter"}, {"bike_id": "7c4d7f1d0ce160c5efc976a31190fc38", "is_reserved": 0, "name": "7c4d7f1d0ce160c5efc976a31190fc38", "lat": 38.87181483333333, "fusion_lat": 0.0, "lon": -77.00609433333334, "is_disabled": 0, "fusion_lon": 0.0, "rental_uris": {"android": "https://dc.lft.to/lastmile_qr_scan", "ios": "https://dc.lft.to/lastmile_qr_scan"}, "type": "electric_scooter"}, {"bike_id": "bb9972a1a886a1a434c68c347eb20991", "is_reserved": 0, "name": "bb9972a1a886a1a434c68c347eb20991", "lat": 38.91684816666667, "fusion_lat": 0.0, "lon": -77.02382366666667, "is_disabled": 0, "fusion_lon": 0.0, "rental_uris": {"android": "https://dc.lft.to/lastmile_qr_scan", "ios": "https://dc.lft.to/lastmile_qr_scan"}, "type": "electric_scooter"}, {"bike_id": "e080ed1480d31dacacdb9fceeb5196a5", "is_reserved": 0, "name": "e080ed1480d31dacacdb9fceeb5196a5", "lat": 38.93243733333333, "fusion_lat": 0.0, "lon": -76.99522433333334, "is_disabled": 0, "fusion_lon": 0.0, "rental_uris": {"android": "https://dc.lft.to/lastmile_qr_scan", "ios": "https://dc.lft.to/lastmile_qr_scan"}, "type": "electric_scooter"}, {"bike_id": "61ab4643fcb4ed4b5e07fa3f7dd71d0c", "is_reserved": 0, "name": "61ab4643fcb4ed4b5e07fa3f7dd71d0c", "lat": 38.92643733333333, "fusion_lat": 0.0, "lon": -77.04136833333334, "is_disabled": 0, "fusion_lon": 0.0, "rental_uris": {"android": "https://dc.lft.to/lastmile_qr_scan", "ios": "https://dc.lft.to/lastmile_qr_scan"}, "type": "electric_scooter"}, {"bike_id": "94c832612f7b783ce28c7152ca2c6783", "is_reserved": 0, "name": "94c832612f7b783ce28c7152ca2c6783", "lat": 38.9180875, "fusion_lat": 0.0, "lon": -77.03179583333333, "is_disabled": 0, "fusion_lon": 0.0, "rental_uris": {"android": "https://dc.lft.to/lastmile_qr_scan", "ios": "https://dc.lft.to/lastmile_qr_scan"}, "type": "electric_scooter"}, {"bike_id": "a4dfdf3b4958d86635cf249abe835100", "is_reserved": 0, "name": "a4dfdf3b4958d86635cf249abe835100", "lat": 38.873824666666664, "fusion_lat": 0.0, "lon": -77.00057933333333, "is_disabled": 0, "fusion_lon": 0.0, "rental_uris": {"android": "https://dc.lft.to/lastmile_qr_scan", "ios": "https://dc.lft.to/lastmile_qr_scan"}, "type": "electric_scooter"}, {"bike_id": "c36e0d46a2d604f20b86417fed9bfb11", "is_reserved": 0, "name": "c36e0d46a2d604f20b86417fed9bfb11", "lat": 38.87458266666667, "fusion_lat": 0.0, "lon": -77.00050716666667, "is_disabled": 0, "fusion_lon": 0.0, "rental_uris": {"android": "https://dc.lft.to/lastmile_qr_scan", "ios": "https://dc.lft.to/lastmile_qr_scan"}, "type": "electric_scooter"}, {"bike_id": "473946ca33f33faa1b1f939779645b16", "is_reserved": 0, "name": "473946ca33f33faa1b1f939779645b16", "lat": 38.931161333333336, "fusion_lat": 0.0, "lon": -77.02098566666666, "is_disabled": 0, "fusion_lon": 0.0, "rental_uris": {"android": "https://dc.lft.to/lastmile_qr_scan", "ios": "https://dc.lft.to/lastmile_qr_scan"}, "type": "electric_scooter"}, {"bike_id": "90e88a7ef011bcf1e03e18720f09bf3d", "is_reserved": 0, "name": "90e88a7ef011bcf1e03e18720f09bf3d", "lat": 38.9102315, "fusion_lat": 0.0, "lon": -77.04258283333333, "is_disabled": 0, "fusion_lon": 0.0, "rental_uris": {"android": "https://dc.lft.to/lastmile_qr_scan", "ios": "https://dc.lft.to/lastmile_qr_scan"}, "type": "electric_scooter"}, {"bike_id": "37682e32aba2dbaeee124f2489842543", "is_reserved": 0, "name": "37682e32aba2dbaeee124f2489842543", "lat": 38.9235065, "fusion_lat": 0.0, "lon": -77.0331545, "is_disabled": 0, "fusion_lon": 0.0, "rental_uris": {"android": "https://dc.lft.to/lastmile_qr_scan", "ios": "https://dc.lft.to/lastmile_qr_scan"}, "type": "electric_scooter"}, {"bike_id": "13383d521b7666036c8ec21cf340c9fb", "is_reserved": 0, "name": "13383d521b7666036c8ec21cf340c9fb", "lat": 38.91020733333333, "fusion_lat": 0.0, "lon": -76.99727966666667, "is_disabled": 0, "fusion_lon": 0.0, "rental_uris": {"android": "https://dc.lft.to/lastmile_qr_scan", "ios": "https://dc.lft.to/lastmile_qr_scan"}, "type": "electric_scooter"}, {"bike_id": "ebe5890f894b525d95a329d4d786413d", "is_reserved": 0, "name": "ebe5890f894b525d95a329d4d786413d", "lat": 38.897482, "fusion_lat": 0.0, "lon": -77.0299575, "is_disabled": 0, "fusion_lon": 0.0, "rental_uris": {"android": "https://dc.lft.to/lastmile_qr_scan", "ios": "https://dc.lft.to/lastmile_qr_scan"}, "type": "electric_scooter"}, {"bike_id": "af6476dd342fea4f3d385f82d0b2a8d8", "is_reserved": 0, "name": "af6476dd342fea4f3d385f82d0b2a8d8", "lat": 38.894736333333334, "fusion_lat": 0.0, "lon": -77.01765816666666, "is_disabled": 0, "fusion_lon": 0.0, "rental_uris": {"android": "https://dc.lft.to/lastmile_qr_scan", "ios": "https://dc.lft.to/lastmile_qr_scan"}, "type": "electric_scooter"}, {"bike_id": "7031a7465b06e900a85b50b442e579fb", "is_reserved": 0, "name": "7031a7465b06e900a85b50b442e579fb", "lat": 38.8947665, "fusion_lat": 0.0, "lon": -77.00311083333334, "is_disabled": 0, "fusion_lon": 0.0, "rental_uris": {"android": "https://dc.lft.to/lastmile_qr_scan", "ios": "https://dc.lft.to/lastmile_qr_scan"}, "type": "electric_scooter"}, {"bike_id": "d8e644508f898495ceafb187173a3b65", "is_reserved": 0, "name": "d8e644508f898495ceafb187173a3b65", "lat": 38.90775816666667, "fusion_lat": 0.0, "lon": -76.99381433333333, "is_disabled": 0, "fusion_lon": 0.0, "rental_uris": {"android": "https://dc.lft.to/lastmile_qr_scan", "ios": "https://dc.lft.to/lastmile_qr_scan"}, "type": "electric_scooter"}, {"bike_id": "12248b1cfa3159e2651a89847488d8b7", "is_reserved": 0, "name": "12248b1cfa3159e2651a89847488d8b7", "lat": 38.89555716666667, "fusion_lat": 0.0, "lon": -76.94873033333333, "is_disabled": 0, "fusion_lon": 0.0, "rental_uris": {"android": "https://dc.lft.to/lastmile_qr_scan", "ios": "https://dc.lft.to/lastmile_qr_scan"}, "type": "electric_scooter"}, {"bike_id": "4f357b988f6035b56a1949915c22f707", "is_reserved": 0, "name": "4f357b988f6035b56a1949915c22f707", "lat": 38.91544566666666, "fusion_lat": 0.0, "lon": -77.03852833333333, "is_disabled": 0, "fusion_lon": 0.0, "rental_uris": {"android": "https://dc.lft.to/lastmile_qr_scan", "ios": "https://dc.lft.to/lastmile_qr_scan"}, "type": "electric_scooter"}, {"bike_id": "7813662adad0c6a5f755652788ae7c27", "is_reserved": 0, "name": "7813662adad0c6a5f755652788ae7c27", "lat": 38.91760933333333, "fusion_lat": 0.0, "lon": -77.06950733333333, "is_disabled": 0, "fusion_lon": 0.0, "rental_uris": {"android": "https://dc.lft.to/lastmile_qr_scan", "ios": "https://dc.lft.to/lastmile_qr_scan"}, "type": "electric_scooter"}, {"bike_id": "585dddb43a5beec8411b462539d7742d", "is_reserved": 0, "name": "585dddb43a5beec8411b462539d7742d", "lat": 38.90574483333333, "fusion_lat": 0.0, "lon": -77.04620883333334, "is_disabled": 0, "fusion_lon": 0.0, "rental_uris": {"android": "https://dc.lft.to/lastmile_qr_scan", "ios": "https://dc.lft.to/lastmile_qr_scan"}, "type": "electric_scooter"}, {"bike_id": "dfe027d75d1409cac54a382fec88bd2e", "is_reserved": 0, "name": "dfe027d75d1409cac54a382fec88bd2e", "lat": 38.920884666666666, "fusion_lat": 0.0, "lon": -77.02534966666667, "is_disabled": 0, "fusion_lon": 0.0, "rental_uris": {"android": "https://dc.lft.to/lastmile_qr_scan", "ios": "https://dc.lft.to/lastmile_qr_scan"}, "type": "electric_scooter"}, {"bike_id": "b6230d3768fb813d5a112566fcdb69d5", "is_reserved": 0, "name": "b6230d3768fb813d5a112566fcdb69d5", "lat": 38.90018533333333, "fusion_lat": 0.0, "lon": -77.01191433333334, "is_disabled": 0, "fusion_lon": 0.0, "rental_uris": {"android": "https://dc.lft.to/lastmile_qr_scan", "ios": "https://dc.lft.to/lastmile_qr_scan"}, "type": "electric_scooter"}, {"bike_id": "0834c25058f1b8f725d64f0a02a56cae", "is_reserved": 0, "name": "0834c25058f1b8f725d64f0a02a56cae", "lat": 38.9985345, "fusion_lat": 0.0, "lon": -77.02691433333334, "is_disabled": 0, "fusion_lon": 0.0, "rental_uris": {"android": "https://dc.lft.to/lastmile_qr_scan", "ios": "https://dc.lft.to/lastmile_qr_scan"}, "type": "electric_bike"}, {"bike_id": "98340a8c0e324e93d493e7f2145f71e9", "is_reserved": 0, "name": "98340a8c0e324e93d493e7f2145f71e9", "lat": 38.91544016666667, "fusion_lat": 0.0, "lon": -77.03854716666666, "is_disabled": 0, "fusion_lon": 0.0, "rental_uris": {"android": "https://dc.lft.to/lastmile_qr_scan", "ios": "https://dc.lft.to/lastmile_qr_scan"}, "type": "electric_scooter"}, {"bike_id": "bb3631ad0a063e04d65322f25f8949b4", "is_reserved": 0, "name": "bb3631ad0a063e04d65322f25f8949b4", "lat": 38.885384, "fusion_lat": 0.0, "lon": -76.97890533333333, "is_disabled": 0, "fusion_lon": 0.0, "rental_uris": {"android": "https://dc.lft.to/lastmile_qr_scan", "ios": "https://dc.lft.to/lastmile_qr_scan"}, "type": "electric_scooter"}, {"bike_id": "38876fabb909c5a4769ba3a0663312c9", "is_reserved": 0, "name": "38876fabb909c5a4769ba3a0663312c9", "lat": 38.88745216666667, "fusion_lat": 0.0, "lon": -77.0178475, "is_disabled": 0, "fusion_lon": 0.0, "rental_uris": {"android": "https://dc.lft.to/lastmile_qr_scan", "ios": "https://dc.lft.to/lastmile_qr_scan"}, "type": "electric_scooter"}, {"bike_id": "f1a53b5cbca1b06b9169bfd53a1627d7", "is_reserved": 0, "name": "f1a53b5cbca1b06b9169bfd53a1627d7", "lat": 38.909683666666666, "fusion_lat": 0.0, "lon": -77.0268635, "is_disabled": 0, "fusion_lon": 0.0, "rental_uris": {"android": "https://dc.lft.to/lastmile_qr_scan", "ios": "https://dc.lft.to/lastmile_qr_scan"}, "type": "electric_scooter"}, {"bike_id": "07a0db1c1dd5127af36dadacbf6b3dae", "is_reserved": 0, "name": "07a0db1c1dd5127af36dadacbf6b3dae", "lat": 38.902887666666665, "fusion_lat": 0.0, "lon": -77.00592233333333, "is_disabled": 0, "fusion_lon": 0.0, "rental_uris": {"android": "https://dc.lft.to/lastmile_qr_scan", "ios": "https://dc.lft.to/lastmile_qr_scan"}, "type": "electric_scooter"}, {"bike_id": "ab87bcfb16e252317a9a6bbd53a0dccb", "is_reserved": 0, "name": "ab87bcfb16e252317a9a6bbd53a0dccb", "lat": 38.86041016666667, "fusion_lat": 0.0, "lon": -77.00348066666666, "is_disabled": 0, "fusion_lon": 0.0, "rental_uris": {"android": "https://dc.lft.to/lastmile_qr_scan", "ios": "https://dc.lft.to/lastmile_qr_scan"}, "type": "electric_scooter"}, {"bike_id": "dd84fc14042b720ee4818b6bb35a47c5", "is_reserved": 0, "name": "dd84fc14042b720ee4818b6bb35a47c5", "lat": 38.887348, "fusion_lat": 0.0, "lon": -77.00324333333333, "is_disabled": 0, "fusion_lon": 0.0, "rental_uris": {"android": "https://dc.lft.to/lastmile_qr_scan", "ios": "https://dc.lft.to/lastmile_qr_scan"}, "type": "electric_scooter"}, {"bike_id": "f5273c9d20aefe02004cd089ddc1e1cb", "is_reserved": 0, "name": "f5273c9d20aefe02004cd089ddc1e1cb", "lat": 38.919969, "fusion_lat": 0.0, "lon": -77.03280683333334, "is_disabled": 0, "fusion_lon": 0.0, "rental_uris": {"android": "https://dc.lft.to/lastmile_qr_scan", "ios": "https://dc.lft.to/lastmile_qr_scan"}, "type": "electric_scooter"}, {"bike_id": "c43665ace77c1b46b8dfaa74af2146a8", "is_reserved": 0, "name": "c43665ace77c1b46b8dfaa74af2146a8", "lat": 38.91565133333334, "fusion_lat": 0.0, "lon": -77.01058516666667, "is_disabled": 0, "fusion_lon": 0.0, "rental_uris": {"android": "https://dc.lft.to/lastmile_qr_scan", "ios": "https://dc.lft.to/lastmile_qr_scan"}, "type": "electric_scooter"}, {"bike_id": "5e74cb18ec30c2ca89cdc143b2c3ddae", "is_reserved": 0, "name": "5e74cb18ec30c2ca89cdc143b2c3ddae", "lat": 38.911868166666665, "fusion_lat": 0.0, "lon": -77.03218633333333, "is_disabled": 0, "fusion_lon": 0.0, "rental_uris": {"android": "https://dc.lft.to/lastmile_qr_scan", "ios": "https://dc.lft.to/lastmile_qr_scan"}, "type": "electric_scooter"}, {"bike_id": "84d13512a37e32f3a880354ffb674743", "is_reserved": 0, "name": "84d13512a37e32f3a880354ffb674743", "lat": 38.93864666666666, "fusion_lat": 0.0, "lon": -77.02652116666667, "is_disabled": 0, "fusion_lon": 0.0, "rental_uris": {"android": "https://dc.lft.to/lastmile_qr_scan", "ios": "https://dc.lft.to/lastmile_qr_scan"}, "type": "electric_scooter"}, {"bike_id": "1c50e657cc41ed9789e82c2f3fcd8859", "is_reserved": 0, "name": "1c50e657cc41ed9789e82c2f3fcd8859", "lat": 38.907729833333335, "fusion_lat": 0.0, "lon": -77.031985, "is_disabled": 0, "fusion_lon": 0.0, "rental_uris": {"android": "https://dc.lft.to/lastmile_qr_scan", "ios": "https://dc.lft.to/lastmile_qr_scan"}, "type": "electric_scooter"}, {"bike_id": "e5b4fcca4db7292ea6b433b872255e0c", "is_reserved": 0, "name": "e5b4fcca4db7292ea6b433b872255e0c", "lat": 38.92871233333334, "fusion_lat": 0.0, "lon": -77.01359233333334, "is_disabled": 0, "fusion_lon": 0.0, "rental_uris": {"android": "https://dc.lft.to/lastmile_qr_scan", "ios": "https://dc.lft.to/lastmile_qr_scan"}, "type": "electric_scooter"}, {"bike_id": "06a28b809b199f5da36eb8b385ee7561", "is_reserved": 0, "name": "06a28b809b199f5da36eb8b385ee7561", "lat": 38.90303466666667, "fusion_lat": 0.0, "lon": -77.05813866666666, "is_disabled": 0, "fusion_lon": 0.0, "rental_uris": {"android": "https://dc.lft.to/lastmile_qr_scan", "ios": "https://dc.lft.to/lastmile_qr_scan"}, "type": "electric_scooter"}, {"bike_id": "cf9a8a613c37e7d7a7afad29e4abf08b", "is_reserved": 0, "name": "cf9a8a613c37e7d7a7afad29e4abf08b", "lat": 38.883713666666665, "fusion_lat": 0.0, "lon": -76.99519266666667, "is_disabled": 0, "fusion_lon": 0.0, "rental_uris": {"android": "https://dc.lft.to/lastmile_qr_scan", "ios": "https://dc.lft.to/lastmile_qr_scan"}, "type": "electric_scooter"}, {"bike_id": "f7e6e166062d15db0291c6461044a557", "is_reserved": 0, "name": "f7e6e166062d15db0291c6461044a557", "lat": 38.94831966666667, "fusion_lat": 0.0, "lon": -77.0999995, "is_disabled": 0, "fusion_lon": 0.0, "rental_uris": {"android": "https://dc.lft.to/lastmile_qr_scan", "ios": "https://dc.lft.to/lastmile_qr_scan"}, "type": "electric_scooter"}, {"bike_id": "fda537ec09cc79613ad91fb1b5f5e14c", "is_reserved": 0, "name": "fda537ec09cc79613ad91fb1b5f5e14c", "lat": 38.892487333333335, "fusion_lat": 0.0, "lon": -77.03956, "is_disabled": 0, "fusion_lon": 0.0, "rental_uris": {"android": "https://dc.lft.to/lastmile_qr_scan", "ios": "https://dc.lft.to/lastmile_qr_scan"}, "type": "electric_scooter"}, {"bike_id": "f6f232396196bd2708e2b6be6851bf20", "is_reserved": 0, "name": "f6f232396196bd2708e2b6be6851bf20", "lat": 38.920173166666665, "fusion_lat": 0.0, "lon": -77.01313783333333, "is_disabled": 0, "fusion_lon": 0.0, "rental_uris": {"android": "https://dc.lft.to/lastmile_qr_scan", "ios": "https://dc.lft.to/lastmile_qr_scan"}, "type": "electric_scooter"}, {"bike_id": "363db3a30e1e2467adc1517b546dc3e5", "is_reserved": 0, "name": "363db3a30e1e2467adc1517b546dc3e5", "lat": 38.923251666666665, "fusion_lat": 0.0, "lon": -77.040308, "is_disabled": 0, "fusion_lon": 0.0, "rental_uris": {"android": "https://dc.lft.to/lastmile_qr_scan", "ios": "https://dc.lft.to/lastmile_qr_scan"}, "type": "electric_scooter"}, {"bike_id": "260215540ff74965560ff6aedb52a405", "is_reserved": 0, "name": "260215540ff74965560ff6aedb52a405", "lat": 38.89364066666667, "fusion_lat": 0.0, "lon": -77.00331516666667, "is_disabled": 0, "fusion_lon": 0.0, "rental_uris": {"android": "https://dc.lft.to/lastmile_qr_scan", "ios": "https://dc.lft.to/lastmile_qr_scan"}, "type": "electric_scooter"}, {"bike_id": "70fd2c974dc4b5b61464fa68041e31ce", "is_reserved": 0, "name": "70fd2c974dc4b5b61464fa68041e31ce", "lat": 38.911228666666666, "fusion_lat": 0.0, "lon": -77.00755233333334, "is_disabled": 0, "fusion_lon": 0.0, "rental_uris": {"android": "https://dc.lft.to/lastmile_qr_scan", "ios": "https://dc.lft.to/lastmile_qr_scan"}, "type": "electric_scooter"}, {"bike_id": "312b699d0b9b1b2caf3f59e357d0a55f", "is_reserved": 0, "name": "312b699d0b9b1b2caf3f59e357d0a55f", "lat": 38.9073305, "fusion_lat": 0.0, "lon": -77.04341466666666, "is_disabled": 0, "fusion_lon": 0.0, "rental_uris": {"android": "https://dc.lft.to/lastmile_qr_scan", "ios": "https://dc.lft.to/lastmile_qr_scan"}, "type": "electric_scooter"}, {"bike_id": "550ac755831a079efe65c3a0dfc61bf5", "is_reserved": 0, "name": "550ac755831a079efe65c3a0dfc61bf5", "lat": 38.90553516666667, "fusion_lat": 0.0, "lon": -77.00529216666666, "is_disabled": 0, "fusion_lon": 0.0, "rental_uris": {"android": "https://dc.lft.to/lastmile_qr_scan", "ios": "https://dc.lft.to/lastmile_qr_scan"}, "type": "electric_scooter"}, {"bike_id": "5aecd4a7cc1780cbc39189e22ea85549", "is_reserved": 0, "name": "5aecd4a7cc1780cbc39189e22ea85549", "lat": 38.93475983333333, "fusion_lat": 0.0, "lon": -77.07255666666667, "is_disabled": 0, "fusion_lon": 0.0, "rental_uris": {"android": "https://dc.lft.to/lastmile_qr_scan", "ios": "https://dc.lft.to/lastmile_qr_scan"}, "type": "electric_scooter"}, {"bike_id": "79c928c59a9ac149e22f492834e4cb6b", "is_reserved": 0, "name": "79c928c59a9ac149e22f492834e4cb6b", "lat": 38.923681, "fusion_lat": 0.0, "lon": -77.03164016666666, "is_disabled": 0, "fusion_lon": 0.0, "rental_uris": {"android": "https://dc.lft.to/lastmile_qr_scan", "ios": "https://dc.lft.to/lastmile_qr_scan"}, "type": "electric_scooter"}, {"bike_id": "933d534d664713ff537b2a18c58e8961", "is_reserved": 0, "name": "933d534d664713ff537b2a18c58e8961", "lat": 38.8874535, "fusion_lat": 0.0, "lon": -77.02570833333333, "is_disabled": 0, "fusion_lon": 0.0, "rental_uris": {"android": "https://dc.lft.to/lastmile_qr_scan", "ios": "https://dc.lft.to/lastmile_qr_scan"}, "type": "electric_scooter"}, {"bike_id": "e75ebcf819cbe1a2ed23dab9bed09edd", "is_reserved": 0, "name": "e75ebcf819cbe1a2ed23dab9bed09edd", "lat": 38.89873216666667, "fusion_lat": 0.0, "lon": -76.93183533333334, "is_disabled": 0, "fusion_lon": 0.0, "rental_uris": {"android": "https://dc.lft.to/lastmile_qr_scan", "ios": "https://dc.lft.to/lastmile_qr_scan"}, "type": "electric_scooter"}, {"bike_id": "97a4c6593005c16ea1a5d57f542e2f92", "is_reserved": 0, "name": "97a4c6593005c16ea1a5d57f542e2f92", "lat": 38.90261266666667, "fusion_lat": 0.0, "lon": -77.01848066666666, "is_disabled": 0, "fusion_lon": 0.0, "rental_uris": {"android": "https://dc.lft.to/lastmile_qr_scan", "ios": "https://dc.lft.to/lastmile_qr_scan"}, "type": "electric_scooter"}, {"bike_id": "59d52099970cdeb1294def7f627cf03b", "is_reserved": 0, "name": "59d52099970cdeb1294def7f627cf03b", "lat": 38.90325833333333, "fusion_lat": 0.0, "lon": -77.01620816666667, "is_disabled": 0, "fusion_lon": 0.0, "rental_uris": {"android": "https://dc.lft.to/lastmile_qr_scan", "ios": "https://dc.lft.to/lastmile_qr_scan"}, "type": "electric_scooter"}, {"bike_id": "f983f2494d835222346eeebad0697581", "is_reserved": 0, "name": "f983f2494d835222346eeebad0697581", "lat": 38.91429016666667, "fusion_lat": 0.0, "lon": -77.03185033333334, "is_disabled": 0, "fusion_lon": 0.0, "rental_uris": {"android": "https://dc.lft.to/lastmile_qr_scan", "ios": "https://dc.lft.to/lastmile_qr_scan"}, "type": "electric_scooter"}, {"bike_id": "b2d2d06e238b2204f93e3a888d2e3382", "is_reserved": 0, "name": "b2d2d06e238b2204f93e3a888d2e3382", "lat": 38.922341833333334, "fusion_lat": 0.0, "lon": -77.023299, "is_disabled": 0, "fusion_lon": 0.0, "rental_uris": {"android": "https://dc.lft.to/lastmile_qr_scan", "ios": "https://dc.lft.to/lastmile_qr_scan"}, "type": "electric_scooter"}, {"bike_id": "27777acf3cfb0efb7be085ae3d8d4e21", "is_reserved": 0, "name": "27777acf3cfb0efb7be085ae3d8d4e21", "lat": 38.90130033333333, "fusion_lat": 0.0, "lon": -77.04999433333333, "is_disabled": 0, "fusion_lon": 0.0, "rental_uris": {"android": "https://dc.lft.to/lastmile_qr_scan", "ios": "https://dc.lft.to/lastmile_qr_scan"}, "type": "electric_scooter"}, {"bike_id": "df89ed0296c871f912d75408dbeaa4df", "is_reserved": 0, "name": "df89ed0296c871f912d75408dbeaa4df", "lat": 38.86460483333333, "fusion_lat": 0.0, "lon": -77.01348683333333, "is_disabled": 0, "fusion_lon": 0.0, "rental_uris": {"android": "https://dc.lft.to/lastmile_qr_scan", "ios": "https://dc.lft.to/lastmile_qr_scan"}, "type": "electric_scooter"}, {"bike_id": "7998edd43a21127b4951ca1ba40f76f6", "is_reserved": 0, "name": "7998edd43a21127b4951ca1ba40f76f6", "lat": 38.921229333333336, "fusion_lat": 0.0, "lon": -77.04427833333334, "is_disabled": 0, "fusion_lon": 0.0, "rental_uris": {"android": "https://dc.lft.to/lastmile_qr_scan", "ios": "https://dc.lft.to/lastmile_qr_scan"}, "type": "electric_scooter"}, {"bike_id": "5efe7aabaea4abc7415f8beabac0feb2", "is_reserved": 0, "name": "5efe7aabaea4abc7415f8beabac0feb2", "lat": 38.90646816666667, "fusion_lat": 0.0, "lon": -77.04156016666667, "is_disabled": 0, "fusion_lon": 0.0, "rental_uris": {"android": "https://dc.lft.to/lastmile_qr_scan", "ios": "https://dc.lft.to/lastmile_qr_scan"}, "type": "electric_scooter"}, {"bike_id": "c17093cd05e577b7927983a8bd09fa59", "is_reserved": 0, "name": "c17093cd05e577b7927983a8bd09fa59", "lat": 38.909558833333335, "fusion_lat": 0.0, "lon": -77.03459983333333, "is_disabled": 0, "fusion_lon": 0.0, "rental_uris": {"android": "https://dc.lft.to/lastmile_qr_scan", "ios": "https://dc.lft.to/lastmile_qr_scan"}, "type": "electric_scooter"}, {"bike_id": "aad0489e9de890f111228f3b8b859d86", "is_reserved": 0, "name": "aad0489e9de890f111228f3b8b859d86", "lat": 38.89608916666667, "fusion_lat": 0.0, "lon": -77.04593783333333, "is_disabled": 0, "fusion_lon": 0.0, "rental_uris": {"android": "https://dc.lft.to/lastmile_qr_scan", "ios": "https://dc.lft.to/lastmile_qr_scan"}, "type": "electric_scooter"}, {"bike_id": "f2e706b53ddcf660f9369413893535b1", "is_reserved": 0, "name": "f2e706b53ddcf660f9369413893535b1", "lat": 38.88992916666667, "fusion_lat": 0.0, "lon": -77.0712975, "is_disabled": 0, "fusion_lon": 0.0, "rental_uris": {"android": "https://dc.lft.to/lastmile_qr_scan", "ios": "https://dc.lft.to/lastmile_qr_scan"}, "type": "electric_bike"}, {"bike_id": "a1ac9d316cb4c3e6fcc1696e67478136", "is_reserved": 0, "name": "a1ac9d316cb4c3e6fcc1696e67478136", "lat": 38.905602333333334, "fusion_lat": 0.0, "lon": -77.00394683333333, "is_disabled": 0, "fusion_lon": 0.0, "rental_uris": {"android": "https://dc.lft.to/lastmile_qr_scan", "ios": "https://dc.lft.to/lastmile_qr_scan"}, "type": "electric_scooter"}, {"bike_id": "f44b43bba7939cfb684df4317752ba12", "is_reserved": 0, "name": "f44b43bba7939cfb684df4317752ba12", "lat": 38.90930683333333, "fusion_lat": 0.0, "lon": -76.99973, "is_disabled": 0, "fusion_lon": 0.0, "rental_uris": {"android": "https://dc.lft.to/lastmile_qr_scan", "ios": "https://dc.lft.to/lastmile_qr_scan"}, "type": "electric_scooter"}, {"bike_id": "ee955f6a2441a42dd89614561a1d320f", "is_reserved": 0, "name": "ee955f6a2441a42dd89614561a1d320f", "lat": 38.90043383333333, "fusion_lat": 0.0, "lon": -77.00204616666667, "is_disabled": 0, "fusion_lon": 0.0, "rental_uris": {"android": "https://dc.lft.to/lastmile_qr_scan", "ios": "https://dc.lft.to/lastmile_qr_scan"}, "type": "electric_scooter"}, {"bike_id": "2d12dfcebe09c065ea76ff27e4f0285c", "is_reserved": 0, "name": "2d12dfcebe09c065ea76ff27e4f0285c", "lat": 38.8924145, "fusion_lat": 0.0, "lon": -77.03185166666667, "is_disabled": 0, "fusion_lon": 0.0, "rental_uris": {"android": "https://dc.lft.to/lastmile_qr_scan", "ios": "https://dc.lft.to/lastmile_qr_scan"}, "type": "electric_scooter"}, {"bike_id": "254cfafed97bfa91dd14ff836fdd2458", "is_reserved": 0, "name": "254cfafed97bfa91dd14ff836fdd2458", "lat": 38.93167433333333, "fusion_lat": 0.0, "lon": -77.17880166666667, "is_disabled": 0, "fusion_lon": 0.0, "rental_uris": {"android": "https://dc.lft.to/lastmile_qr_scan", "ios": "https://dc.lft.to/lastmile_qr_scan"}, "type": "electric_bike"}, {"bike_id": "ae907509b13e373621b0602fc280d7c6", "is_reserved": 0, "name": "ae907509b13e373621b0602fc280d7c6", "lat": 38.9038965, "fusion_lat": 0.0, "lon": -77.03836983333333, "is_disabled": 0, "fusion_lon": 0.0, "rental_uris": {"android": "https://dc.lft.to/lastmile_qr_scan", "ios": "https://dc.lft.to/lastmile_qr_scan"}, "type": "electric_scooter"}, {"bike_id": "5c7f3f8c14f971705266ca7aaa6d498b", "is_reserved": 0, "name": "5c7f3f8c14f971705266ca7aaa6d498b", "lat": 38.90322233333333, "fusion_lat": 0.0, "lon": -77.02582733333334, "is_disabled": 0, "fusion_lon": 0.0, "rental_uris": {"android": "https://dc.lft.to/lastmile_qr_scan", "ios": "https://dc.lft.to/lastmile_qr_scan"}, "type": "electric_scooter"}, {"bike_id": "ad4399eab978074dcc50da50af4b0852", "is_reserved": 0, "name": "ad4399eab978074dcc50da50af4b0852", "lat": 38.909084, "fusion_lat": 0.0, "lon": -77.04206583333334, "is_disabled": 0, "fusion_lon": 0.0, "rental_uris": {"android": "https://dc.lft.to/lastmile_qr_scan", "ios": "https://dc.lft.to/lastmile_qr_scan"}, "type": "electric_scooter"}, {"bike_id": "cea15686e4b329111f431e908617627b", "is_reserved": 0, "name": "cea15686e4b329111f431e908617627b", "lat": 38.90785483333333, "fusion_lat": 0.0, "lon": -77.035221, "is_disabled": 0, "fusion_lon": 0.0, "rental_uris": {"android": "https://dc.lft.to/lastmile_qr_scan", "ios": "https://dc.lft.to/lastmile_qr_scan"}, "type": "electric_scooter"},