{"data": {"bikes": [{"lon": -77.03850566666667, "bike_id": "41ce178978e8dd9577bc85ab56a448f8", "lat": 38.906799166666666, "fusion_lon": 0.0, "fusion_lat": 0.0, "type": "electric_scooter", "name": "41ce178978e8dd9577bc85ab56a448f8", "is_disabled": 0, "rental_uris": {"ios": "https://dc.lft.to/lastmile_qr_scan", "android": "https://dc.lft.to/lastmile_qr_scan"}, "is_reserved": 0}, {"lon": -77.03469633333333, "bike_id": "e61c70b8273da4eeaed1ffbdb12ba487", "lat": 38.91865833333333, "fusion_lon": 0.0, "fusion_lat": 0.0, "type": "electric_scooter", "name": "e61c70b8273da4eeaed1ffbdb12ba487", "is_disabled": 0, "rental_uris": {"ios": "https://dc.lft.to/lastmile_qr_scan", "android": "https://dc.lft.to/lastmile_qr_scan"}, "is_reserved": 0}, {"lon": -77.0260415, "bike_id": "e13593f0cb3fa1f0f3025942b701cf07", "lat": 38.900364833333335, "fusion_lon": 0.0, "fusion_lat": 0.0, "type": "electric_scooter", "name": "e13593f0cb3fa1f0f3025942b701cf07", "is_disabled": 0, "rental_uris": {"ios": "https://dc.lft.to/lastmile_qr_scan", "android": "https://dc.lft.to/lastmile_qr_scan"}, "is_reserved": 0}, {"lon": -76.97329916666666, "bike_id": "4c004434aca0e3e553826b891530e36d", "lat": 38.90479633333333, "fusion_lon": 0.0, "fusion_lat": 0.0, "type": "electric_bike", "name": "4c004434aca0e3e553826b891530e36d", "is_disabled": 0, "rental_uris": {"ios": "https://dc.lft.to/lastmile_qr_scan", "android": "https://dc.lft.to/lastmile_qr_scan"}, "is_reserved": 0}, {"lon": -76.9884125, "bike_id": "c96d2cb9c8fe947ccef8dde17ffbbefd", "lat": 38.896704, "fusion_lon": 0.0, "fusion_lat": 0.0, "type": "electric_scooter", "name": "c96d2cb9c8fe947ccef8dde17ffbbefd", "is_disabled": 0, "rental_uris": {"ios": "https://dc.lft.to/lastmile_qr_scan", "android": "https://dc.lft.to/lastmile_qr_scan"}, "is_reserved": 0}, {"lon": -77.06519466666667, "bike_id": "27e78e4d9f8b11fcaa6abef2a41658cb", "lat": 38.9088475, "fusion_lon": 0.0, "fusion_lat": 0.0, "type": "electric_scooter", "name": "27e78e4d9f8b11fcaa6abef2a41658cb", "is_disabled": 0, "rental_uris": {"ios": "https://dc.lft.to/lastmile_qr_scan", "android": "https://dc.lft.to/lastmile_qr_scan"}, "is_reserved": 0}, {"lon": -76.98495983333333, "bike_id": "83b5270e4f520aaf61c0f3ef907b2367", "lat": 38.8935395, "fusion_lon": 0.0, "fusion_lat": 0.0, "type": "electric_scooter", "name": "83b5270e4f520aaf61c0f3ef907b2367", "is_disabled": 0, "rental_uris": {"ios": "https://dc.lft.to/lastmile_qr_scan", "android": "https://dc.lft.to/lastmile_qr_scan"}, "is_reserved": 0}, {"lon": -77.03868716666666, "bike_id": "e2a38621a76e5f96a8d4add62f42def2", "lat": 38.925326166666665, "fusion_lon": 0.0, "fusion_lat": 0.0, "type": "electric_scooter", "name": "e2a38621a76e5f96a8d4add62f42def2", "is_disabled": 0, "rental_uris": {"ios": "https://dc.lft.to/lastmile_qr_scan", "android": "https://dc.lft.to/lastmile_qr_scan"}, "is_reserved": 0}, {"lon": -76.997956, "bike_id": "51ac9a023528fccea81495fc37a4224d", "lat": 38.9564635, "fusion_lon": 0.0, "fusion_lat": 0.0, "type": "electric_bike", "name": "51ac9a023528fccea81495fc37a4224d", "is_disabled": 0, "rental_uris": {"ios": "https://dc.lft.to/lastmile_qr_scan", "android": "https://dc.lft.to/lastmile_qr_scan"}, "is_reserved": 0}, {"lon": -77.02678066666667, "bike_id": "0f307cc99a809248d31e85a51223efd3", "lat": 38.91257266666667, "fusion_lon": 0.0, "fusion_lat": 0.0, "type": "electric_scooter", "name": "0f307cc99a809248d31e85a51223efd3", "is_disabled": 0, "rental_uris": {"ios": "https://dc.lft.to/lastmile_qr_scan", "android": "https://dc.lft.to/lastmile_qr_scan"}, "is_reserved": 0}, {"lon": -76.97905066666667, "bike_id": "1c61e3656b14e12a3f824b681629f8c1", "lat": 38.92461683333333, "fusion_lon": 0.0, "fusion_lat": 0.0, "type": "electric_bike", "name": "1c61e3656b14e12a3f824b681629f8c1", "is_disabled": 0, "rental_uris": {"ios": "https://dc.lft.to/lastmile_qr_scan", "android": "https://dc.lft.to/lastmile_qr_scan"}, "is_reserved": 0}, {"lon": -77.02966183333334, "bike_id": "e03fd3245feda75ee88e43b05a46e9ca", "lat": 38.91664133333333, "fusion_lon": 0.0, "fusion_lat": 0.0, "type": "electric_scooter", "name": "e03fd3245feda75ee88e43b05a46e9ca", "is_disabled": 0, "rental_uris": {"ios": "https://dc.lft.to/lastmile_qr_scan", "android": "https://dc.lft.to/lastmile_qr_scan"}, "is_reserved": 0}, {"lon": -76.95536033333333, "bike_id": "79be1030faf8f48c1ddf07ffef4b04f3", "lat": 38.887791166666666, "fusion_lon": 0.0, "fusion_lat": 0.0, "type": "electric_scooter", "name": "79be1030faf8f48c1ddf07ffef4b04f3", "is_disabled": 0, "rental_uris": {"ios": "https://dc.lft.to/lastmile_qr_scan", "android": "https://dc.lft.to/lastmile_qr_scan"}, "is_reserved": 0}, {"lon": -77.043252, "bike_id": "c9082e8bebf307410da3b5419a7d61e4", "lat": 38.892224666666664, "fusion_lon": 0.0, "fusion_lat": 0.0, "type": "electric_scooter", "name": "c9082e8bebf307410da3b5419a7d61e4", "is_disabled": 0, "rental_uris": {"ios": "https://dc.lft.to/lastmile_qr_scan", "android": "https://dc.lft.to/lastmile_qr_scan"}, "is_reserved": 0}, {"lon": -77.04103783333333, "bike_id": "8fa3758a6923d599f6004f89ebbc2493", "lat": 38.92525033333333, "fusion_lon": 0.0, "fusion_lat": 0.0, "type": "electric_scooter", "name": "8fa3758a6923d599f6004f89ebbc2493", "is_disabled": 0, "rental_uris": {"ios": "https://dc.lft.to/lastmile_qr_scan", "android": "https://dc.lft.to/lastmile_qr_scan"}, "is_reserved": 0}, {"lon": -77.023515, "bike_id": "0065d47e91979afbe4d81ebc0e67797b", "lat": 38.904076333333336, "fusion_lon": 0.0, "fusion_lat": 0.0, "type": "electric_scooter", "name": "0065d47e91979afbe4d81ebc0e67797b", "is_disabled": 0, "rental_uris": {"ios": "https://dc.lft.to/lastmile_qr_scan", "android": "https://dc.lft.to/lastmile_qr_scan"}, "is_reserved": 0}, {"lon": -77.03231166666667, "bike_id": "5fa3cb3bef06e72bbc7c38d14b113f3b", "lat": 38.89671216666667, "fusion_lon": 0.0, "fusion_lat": 0.0, "type": "electric_scooter", "name": "5fa3cb3bef06e72bbc7c38d14b113f3b", "is_disabled": 0, "rental_uris": {"ios": "https://dc.lft.to/lastmile_qr_scan", "android": "https://dc.lft.to/lastmile_qr_scan"}, "is_reserved": 0}, {"lon": -77.0048155, "bike_id": "175adb4826883e8037745fd82bb50969", "lat": 38.874777333333334, "fusion_lon": 0.0, "fusion_lat": 0.0, "type": "electric_scooter", "name": "175adb4826883e8037745fd82bb50969", "is_disabled": 0, "rental_uris": {"ios": "https://dc.lft.to/lastmile_qr_scan", "android": "https://dc.lft.to/lastmile_qr_scan"}, "is_reserved": 0}, {"lon": -77.05729766666667, "bike_id": "bfb4f633481c38b5be94044d16678d2d", "lat": 38.933634833333336, "fusion_lon": 0.0, "fusion_lat": 0.0, "type": "electric_scooter", "name": "bfb4f633481c38b5be94044d16678d2d", "is_disabled": 0, "rental_uris": {"ios": "https://dc.lft.to/lastmile_qr_scan", "android": "https://dc.lft.to/lastmile_qr_scan"}, "is_reserved": 0}, {"lon": -77.038692, "bike_id": "87413218cea9b8e4b7d8676955098cf5", "lat": 38.917126833333334, "fusion_lon": 0.0, "fusion_lat": 0.0, "type": "electric_scooter", "name": "87413218cea9b8e4b7d8676955098cf5", "is_disabled": 0, "rental_uris": {"ios": "https://dc.lft.to/lastmile_qr_scan", "android": "https://dc.lft.to/lastmile_qr_scan"}, "is_reserved": 0}, {"lon": -76.98840316666667, "bike_id": "aaeadf1c73d960e841cde6ee2f28e516", "lat": 38.90090633333333, "fusion_lon": 0.0, "fusion_lat": 0.0, "type": "electric_scooter", "name": "aaeadf1c73d960e841cde6ee2f28e516", "is_disabled": 0, "rental_uris": {"ios": "https://dc.lft.to/lastmile_qr_scan", "android": "https://dc.lft.to/lastmile_qr_scan"}, "is_reserved": 0}, {"lon": -77.025667, "bike_id": "8f34ff66530feeed1dfccfb576767bd1", "lat": 38.9418335, "fusion_lon": 0.0, "fusion_lat": 0.0, "type": "electric_scooter", "name": "8f34ff66530feeed1dfccfb576767bd1", "is_disabled": 0, "rental_uris": {"ios": "https://dc.lft.to/lastmile_qr_scan", "android": "https://dc.lft.to/lastmile_qr_scan"}, "is_reserved": 0}, {"lon": -77.020168, "bike_id": "dc7948c321c8a7eaaf4bb59ecb634904", "lat": 38.90152616666666, "fusion_lon": 0.0, "fusion_lat": 0.0, "type": "electric_scooter", "name": "dc7948c321c8a7eaaf4bb59ecb634904", "is_disabled": 0, "rental_uris": {"ios": "https://dc.lft.to/lastmile_qr_scan", "android": "https://dc.lft.to/lastmile_qr_scan"}, "is_reserved": 0}, {"lon": -77.04024933333334, "bike_id": "1cbd17a2ec99d86e1cca2d607947f7f9", "lat": 38.916172833333334, "fusion_lon": 0.0, "fusion_lat": 0.0, "type": "electric_scooter", "name": "1cbd17a2ec99d86e1cca2d607947f7f9", "is_disabled": 0, "rental_uris": {"ios": "https://dc.lft.to/lastmile_qr_scan", "android": "https://dc.lft.to/lastmile_qr_scan"}, "is_reserved": 0}, {"lon": -77.024757, "bike_id": "8f729b7c51fd818175e650ca1b4a82e8", "lat": 38.917009666666665, "fusion_lon": 0.0, "fusion_lat": 0.0, "type": "electric_scooter", "name": "8f729b7c51fd818175e650ca1b4a82e8", "is_disabled": 0, "rental_uris": {"ios": "https://dc.lft.to/lastmile_qr_scan", "android": "https://dc.lft.to/lastmile_qr_scan"}, "is_reserved": 0}, {"lon": -77.03373383333333, "bike_id": "081789fa5fcae7b4d3c28cb6c7ecbcf7", "lat": 38.8996195, "fusion_lon": 0.0, "fusion_lat": 0.0, "type": "electric_scooter", "name": "081789fa5fcae7b4d3c28cb6c7ecbcf7", "is_disabled": 0, "rental_uris": {"ios": "https://dc.lft.to/lastmile_qr_scan", "android": "https://dc.lft.to/lastmile_qr_scan"}, "is_reserved": 0}, {"lon": -77.061062, "bike_id": "fcb95c60c7a83cec8acdc09145a4435e", "lat": 38.943698, "fusion_lon": 0.0, "fusion_lat": 0.0, "type": "electric_scooter", "name": "fcb95c60c7a83cec8acdc09145a4435e", "is_disabled": 0, "rental_uris": {"ios": "https://dc.lft.to/lastmile_qr_scan", "android": "https://dc.lft.to/lastmile_qr_scan"}, "is_reserved": 0}, {"lon": -76.98371283333333, "bike_id": "c47e578ab50c2e4c52382bf6b4f628fe", "lat": 38.8914225, "fusion_lon": 0.0, "fusion_lat": 0.0, "type": "electric_scooter", "name": "c47e578ab50c2e4c52382bf6b4f628fe", "is_disabled": 0, "rental_uris": {"ios": "https://dc.lft.to/lastmile_qr_scan", "android": "https://dc.lft.to/lastmile_qr_scan"}, "is_reserved": 0}, {"lon": -76.98570716666667, "bike_id": "622d68b4052adea4235d428db5a306ae", "lat": 38.89615666666667, "fusion_lon": 0.0, "fusion_lat": 0.0, "type": "electric_scooter", "name": "622d68b4052adea4235d428db5a306ae", "is_disabled": 0, "rental_uris": {"ios": "https://dc.lft.to/lastmile_qr_scan", "android": "https://dc.lft.to/lastmile_qr_scan"}, "is_reserved": 0}, {"lon": -77.03185633333334, "bike_id": "8a3a48a641d211f7fc4ee858deff7876", "lat": 38.93608416666667, "fusion_lon": 0.0, "fusion_lat": 0.0, "type": "electric_scooter", "name": "8a3a48a641d211f7fc4ee858deff7876", "is_disabled": 0, "rental_uris": {"ios": "https://dc.lft.to/lastmile_qr_scan", "android": "https://dc.lft.to/lastmile_qr_scan"}, "is_reserved": 0}, {"lon": -77.02578283333334, "bike_id": "b3b69c292c497a3dcb50e5df98760372", "lat": 38.90171133333333, "fusion_lon": 0.0, "fusion_lat": 0.0, "type": "electric_scooter", "name": "b3b69c292c497a3dcb50e5df98760372", "is_disabled": 0, "rental_uris": {"ios": "https://dc.lft.to/lastmile_qr_scan", "android": "https://dc.lft.to/lastmile_qr_scan"}, "is_reserved": 0}, {"lon": -77.03260016666667, "bike_id": "7312996b1c4e520b4268ea637770c509", "lat": 38.920525833333336, "fusion_lon": 0.0, "fusion_lat": 0.0, "type": "electric_scooter", "name": "7312996b1c4e520b4268ea637770c509", "is_disabled": 0, "rental_uris": {"ios": "https://dc.lft.to/lastmile_qr_scan", "android": "https://dc.lft.to/lastmile_qr_scan"}, "is_reserved": 0}, {"lon": -77.03278733333333, "bike_id": "e01df53a4045b891f4f4defba8dc4679", "lat": 38.936469833333334, "fusion_lon": 0.0, "fusion_lat": 0.0, "type": "electric_scooter", "name": "e01df53a4045b891f4f4defba8dc4679", "is_disabled": 0, "rental_uris": {"ios": "https://dc.lft.to/lastmile_qr_scan", "android": "https://dc.lft.to/lastmile_qr_scan"}, "is_reserved": 0}, {"lon": -77.0494365, "bike_id": "7207fc3b4ac7dcf4164c7352abae5c89", "lat": 38.908468, "fusion_lon": 0.0, "fusion_lat": 0.0, "type": "electric_scooter", "name": "7207fc3b4ac7dcf4164c7352abae5c89", "is_disabled": 0, "rental_uris": {"ios": "https://dc.lft.to/lastmile_qr_scan", "android": "https://dc.lft.to/lastmile_qr_scan"}, "is_reserved": 0}, {"lon": -77.034592, "bike_id": "61f4ab3c3fee0394a466444eb14fdea0", "lat": 38.91013516666667, "fusion_lon": 0.0, "fusion_lat": 0.0, "type": "electric_scooter", "name": "61f4ab3c3fee0394a466444eb14fdea0", "is_disabled": 0, "rental_uris": {"ios": "https://dc.lft.to/lastmile_qr_scan", "android": "https://dc.lft.to/lastmile_qr_scan"}, "is_reserved": 0}, {"lon": -76.94631883333334, "bike_id": "961a54f9e49953cfa3a31a0fa1b32876", "lat": 38.898335333333335, "fusion_lon": 0.0, "fusion_lat": 0.0, "type": "electric_scooter", "name": "961a54f9e49953cfa3a31a0fa1b32876", "is_disabled": 0, "rental_uris": {"ios": "https://dc.lft.to/lastmile_qr_scan", "android": "https://dc.lft.to/lastmile_qr_scan"}, "is_reserved": 0}, {"lon": -77.0293565, "bike_id": "a348aa491465a2a90a6df9f80810dabe", "lat": 38.89812966666667, "fusion_lon": 0.0, "fusion_lat": 0.0, "type": "electric_scooter", "name": "a348aa491465a2a90a6df9f80810dabe", "is_disabled": 0, "rental_uris": {"ios": "https://dc.lft.to/lastmile_qr_scan", "android": "https://dc.lft.to/lastmile_qr_scan"}, "is_reserved": 0}, {"lon": -77.05028433333334, "bike_id": "291f0f653ec9e6bd16b9013b5b25905d", "lat": 38.89814616666666, "fusion_lon": 0.0, "fusion_lat": 0.0, "type": "electric_scooter", "name": "291f0f653ec9e6bd16b9013b5b25905d", "is_disabled": 0, "rental_uris": {"ios": "https://dc.lft.to/lastmile_qr_scan", "android": "https://dc.lft.to/lastmile_qr_scan"}, "is_reserved": 0}, {"lon": -77.04366533333334, "bike_id": "e9fc04955f50f683b5107cb1b2da2d48", "lat": 38.898323166666664, "fusion_lon": 0.0, "fusion_lat": 0.0, "type": "electric_scooter", "name": "e9fc04955f50f683b5107cb1b2da2d48", "is_disabled": 0, "rental_uris": {"ios": "https://dc.lft.to/lastmile_qr_scan", "android": "https://dc.lft.to/lastmile_qr_scan"}, "is_reserved": 0}, {"lon": -76.941208, "bike_id": "186f4e73204b93f8a17d67e750d5cc59", "lat": 38.886010666666664, "fusion_lon": 0.0, "fusion_lat": 0.0, "type": "electric_scooter", "name": "186f4e73204b93f8a17d67e750d5cc59", "is_disabled": 0, "rental_uris": {"ios": "https://dc.lft.to/lastmile_qr_scan", "android": "https://dc.lft.to/lastmile_qr_scan"}, "is_reserved": 0}, {"lon": -77.0504445, "bike_id": "d0c271d87a30a12b4ccd0d197d86fcd5", "lat": 38.923664333333335, "fusion_lon": 0.0, "fusion_lat": 0.0, "type": "electric_scooter", "name": "d0c271d87a30a12b4ccd0d197d86fcd5", "is_disabled": 0, "rental_uris": {"ios": "https://dc.lft.to/lastmile_qr_scan", "android": "https://dc.lft.to/lastmile_qr_scan"}, "is_reserved": 0}, {"lon": -77.022466, "bike_id": "ebc423d75b730f24ea151d0975ca299e", "lat": 38.922689, "fusion_lon": 0.0, "fusion_lat": 0.0, "type": "electric_scooter", "name": "ebc423d75b730f24ea151d0975ca299e", "is_disabled": 0, "rental_uris": {"ios": "https://dc.lft.to/lastmile_qr_scan", "android": "https://dc.lft.to/lastmile_qr_scan"}, "is_reserved": 0}, {"lon": -77.05218033333334, "bike_id": "53ce8a74887a5eb752909545b0b1f0d0", "lat": 38.915654333333336, "fusion_lon": 0.0, "fusion_lat": 0.0, "type": "electric_scooter", "name": "53ce8a74887a5eb752909545b0b1f0d0", "is_disabled": 0, "rental_uris": {"ios": "https://dc.lft.to/lastmile_qr_scan", "android": "https://dc.lft.to/lastmile_qr_scan"}, "is_reserved": 0}, {"lon": -77.0449545, "bike_id": "c333c5e2a6b842c7a9865050ef5c3eb3", "lat": 38.91327583333333, "fusion_lon": 0.0, "fusion_lat": 0.0, "type": "electric_scooter", "name": "c333c5e2a6b842c7a9865050ef5c3eb3", "is_disabled": 0, "rental_uris": {"ios": "https://dc.lft.to/lastmile_qr_scan", "android": "https://dc.lft.to/lastmile_qr_scan"}, "is_reserved": 0}, {"lon": -76.984901, "bike_id": "daf851a5ff4c1aa2efd587a0018e3b83", "lat": 38.878307, "fusion_lon": 0.0, "fusion_lat": 0.0, "type": "electric_scooter", "name": "daf851a5ff4c1aa2efd587a0018e3b83", "is_disabled": 0, "rental_uris": {"ios": "https://dc.lft.to/lastmile_qr_scan", "android": "https://dc.lft.to/lastmile_qr_scan"}, "is_reserved": 0}, {"lon": -77.039735, "bike_id": "985cca926bb3473c7087d247a43c9e5b", "lat": 38.931528166666666, "fusion_lon": 0.0, "fusion_lat": 0.0, "type": "electric_scooter", "name": "985cca926bb3473c7087d247a43c9e5b", "is_disabled": 0, "rental_uris": {"ios": "https://dc.lft.to/lastmile_qr_scan", "android": "https://dc.lft.to/lastmile_qr_scan"}, "is_reserved": 0}, {"lon": -77.02762166666666, "bike_id": "105f4d3faf680e4b9df8f5971d24c956", "lat": 38.928652666666665, "fusion_lon": 0.0, "fusion_lat": 0.0, "type": "electric_scooter", "name": "105f4d3faf680e4b9df8f5971d24c956", "is_disabled": 0, "rental_uris": {"ios": "https://dc.lft.to/lastmile_qr_scan", "android": "https://dc.lft.to/lastmile_qr_scan"}, "is_reserved": 0}, {"lon": -77.12528066666667, "bike_id": "20dc2837bfdc39ff9452f4f92a92ec80", "lat": 39.056335, "fusion_lon": 0.0, "fusion_lat": 0.0, "type": "electric_bike", "name": "20dc2837bfdc39ff9452f4f92a92ec80", "is_disabled": 0, "rental_uris": {"ios": "https://dc.lft.to/lastmile_qr_scan", "android": "https://dc.lft.to/lastmile_qr_scan"}, "is_reserved": 0}, {"lon": -77.036544, "bike_id": "c08d33d2bc7d0706881e66bfe09c436d", "lat": 38.90396633333334, "fusion_lon": 0.0, "fusion_lat": 0.0, "type": "electric_scooter", "name": "c08d33d2bc7d0706881e66bfe09c436d", "is_disabled": 0, "rental_uris": {"ios": "https://dc.lft.to/lastmile_qr_scan", "android": "https://dc.lft.to/lastmile_qr_scan"}, "is_reserved": 0}, {"lon": -76.992331, "bike_id": "7de4021d7afb0b006566898d478f18b7", "lat": 38.90483183333333, "fusion_lon": 0.0, "fusion_lat": 0.0, "type": "electric_scooter", "name": "7de4021d7afb0b006566898d478f18b7", "is_disabled": 0, "rental_uris": {"ios": "https://dc.lft.to/lastmile_qr_scan", "android": "https://dc.lft.to/lastmile_qr_scan"}, "is_reserved": 0}, {"lon": -77.03619683333334, "bike_id": "78846df484ef56c86a35d0bda99a66fe", "lat": 38.93162383333333, "fusion_lon": 0.0, "fusion_lat": 0.0, "type": "electric_scooter", "name": "78846df484ef56c86a35d0bda99a66fe", "is_disabled": 0, "rental_uris": {"ios": "https://dc.lft.to/lastmile_qr_scan", "android": "https://dc.lft.to/lastmile_qr_scan"}, "is_reserved": 0}, {"lon": -77.00153866666666, "bike_id": "4c7771ef26a8eef08c98aaf92a6cee47", "lat": 38.8749575, "fusion_lon": 0.0, "fusion_lat": 0.0, "type": "electric_scooter", "name": "4c7771ef26a8eef08c98aaf92a6cee47", "is_disabled": 0, "rental_uris": {"ios": "https://dc.lft.to/lastmile_qr_scan", "android": "https://dc.lft.to/lastmile_qr_scan"}, "is_reserved": 0}, {"lon": -77.00317766666667, "bike_id": "8a6903e1b5f217eeca2819a7546473ef", "lat": 38.918978833333334, "fusion_lon": 0.0, "fusion_lat": 0.0, "type": "electric_scooter", "name": "8a6903e1b5f217eeca2819a7546473ef", "is_disabled": 0, "rental_uris": {"ios": "https://dc.lft.to/lastmile_qr_scan", "android": "https://dc.lft.to/lastmile_qr_scan"}, "is_reserved": 0}, {"lon": -77.027411, "bike_id": "f2843079215bd0ce436de59114480402", "lat": 38.8814445, "fusion_lon": 0.0, "fusion_lat": 0.0, "type": "electric_scooter", "name": "f2843079215bd0ce436de59114480402", "is_disabled": 0, "rental_uris": {"ios": "https://dc.lft.to/lastmile_qr_scan", "android": "https://dc.lft.to/lastmile_qr_scan"}, "is_reserved": 0}, {"lon": -77.03166766666666, "bike_id": "01079f2dbd05570d8867c102715ee463", "lat": 38.89613533333333, "fusion_lon": 0.0, "fusion_lat": 0.0, "type": "electric_scooter", "name": "01079f2dbd05570d8867c102715ee463", "is_disabled": 0, "rental_uris": {"ios": "https://dc.lft.to/lastmile_qr_scan", "android": "https://dc.lft.to/lastmile_qr_scan"}, "is_reserved": 0}, {"lon": -77.02947916666666, "bike_id": "7b783bc562722da231f8592b69c381ec", "lat": 38.9049255, "fusion_lon": 0.0, "fusion_lat": 0.0, "type": "electric_scooter", "name": "7b783bc562722da231f8592b69c381ec", "is_disabled": 0, "rental_uris": {"ios": "https://dc.lft.to/lastmile_qr_scan", "android": "https://dc.lft.to/lastmile_qr_scan"}, "is_reserved": 0}, {"lon": -76.976271, "bike_id": "5e756973417cf71933ac032b0d06be36", "lat": 38.905781, "fusion_lon": 0.0, "fusion_lat": 0.0, "type": "electric_scooter", "name": "5e756973417cf71933ac032b0d06be36", "is_disabled": 0, "rental_uris": {"ios": "https://dc.lft.to/lastmile_qr_scan", "android": "https://dc.lft.to/lastmile_qr_scan"}, "is_reserved": 0}, {"lon": -77.02408116666666, "bike_id": "8961733ccde64851c4034be456a4079e", "lat": 38.915251, "fusion_lon": 0.0, "fusion_lat": 0.0, "type": "electric_scooter", "name": "8961733ccde64851c4034be456a4079e", "is_disabled": 0, "rental_uris": {"ios": "https://dc.lft.to/lastmile_qr_scan", "android": "https://dc.lft.to/lastmile_qr_scan"}, "is_reserved": 0}, {"lon": -77.07451983333333, "bike_id": "540d939ed93ee1ae55fb429063e14d76", "lat": 38.945102166666665, "fusion_lon": 0.0, "fusion_lat": 0.0, "type": "electric_scooter", "name": "540d939ed93ee1ae55fb429063e14d76", "is_disabled": 0, "rental_uris": {"ios": "https://dc.lft.to/lastmile_qr_scan", "android": "https://dc.lft.to/lastmile_qr_scan"}, "is_reserved": 0}, {"lon": -77.02284333333333, "bike_id": "8653e4b9a45ed0fc8aac37551782b6c9", "lat": 38.91658533333333, "fusion_lon": 0.0, "fusion_lat": 0.0, "type": "electric_scooter", "name": "8653e4b9a45ed0fc8aac37551782b6c9", "is_disabled": 0, "rental_uris": {"ios": "https://dc.lft.to/lastmile_qr_scan", "android": "https://dc.lft.to/lastmile_qr_scan"}, "is_reserved": 0}, {"lon": -77.02823066666667, "bike_id": "56f2b668ff7aaa841c8e765b1aa68b05", "lat": 38.93241, "fusion_lon": 0.0, "fusion_lat": 0.0, "type": "electric_scooter", "name": "56f2b668ff7aaa841c8e765b1aa68b05", "is_disabled": 0, "rental_uris": {"ios": "https://dc.lft.to/lastmile_qr_scan", "android": "https://dc.lft.to/lastmile_qr_scan"}, "is_reserved": 0}, {"lon": -77.02236966666666, "bike_id": "ecb6d3f6865f886c54ce96377ed9ef56", "lat": 38.9224625, "fusion_lon": 0.0, "fusion_lat": 0.0, "type": "electric_scooter", "name": "ecb6d3f6865f886c54ce96377ed9ef56", "is_disabled": 0, "rental_uris": {"ios": "https://dc.lft.to/lastmile_qr_scan", "android": "https://dc.lft.to/lastmile_qr_scan"}, "is_reserved": 0}, {"lon": -77.0523595, "bike_id": "82c5f61a876ea4f8eb3a16b27bf78083", "lat": 38.92457433333333, "fusion_lon": 0.0, "fusion_lat": 0.0, "type": "electric_scooter", "name": "82c5f61a876ea4f8eb3a16b27bf78083", "is_disabled": 0, "rental_uris": {"ios": "https://dc.lft.to/lastmile_qr_scan", "android": "https://dc.lft.to/lastmile_qr_scan"}, "is_reserved": 0}, {"lon": -77.02410333333333, "bike_id": "dfd0f78eda2ef0597edde0ff3249c830", "lat": 38.906766166666664, "fusion_lon": 0.0, "fusion_lat": 0.0, "type": "electric_scooter", "name": "dfd0f78eda2ef0597edde0ff3249c830", "is_disabled": 0, "rental_uris": {"ios": "https://dc.lft.to/lastmile_qr_scan", "android": "https://dc.lft.to/lastmile_qr_scan"}, "is_reserved": 0}, {"lon": -77.01533633333334, "bike_id": "96a40686aab55326c0781203674e77b0", "lat": 38.88740933333333, "fusion_lon": 0.0, "fusion_lat": 0.0, "type": "electric_scooter", "name": "96a40686aab55326c0781203674e77b0", "is_disabled": 0, "rental_uris": {"ios": "https://dc.lft.to/lastmile_qr_scan", "android": "https://dc.lft.to/lastmile_qr_scan"}, "is_reserved": 0}, {"lon": -77.03328183333333, "bike_id": "d9a141f749eace2f9d61fa634ebae228", "lat": 38.938991, "fusion_lon": 0.0, "fusion_lat": 0.0, "type": "electric_scooter", "name": "d9a141f749eace2f9d61fa634ebae228", "is_disabled": 0, "rental_uris": {"ios": "https://dc.lft.to/lastmile_qr_scan", "android": "https://dc.lft.to/lastmile_qr_scan"}, "is_reserved": 0}, {"lon": -77.0207965, "bike_id": "eb184749f7aed6cda2d7f298c922a743", "lat": 38.9026755, "fusion_lon": 0.0, "fusion_lat": 0.0, "type": "electric_scooter", "name": "eb184749f7aed6cda2d7f298c922a743", "is_disabled": 0, "rental_uris": {"ios": "https://dc.lft.to/lastmile_qr_scan", "android": "https://dc.lft.to/lastmile_qr_scan"}, "is_reserved": 0}, {"lon": -77.02678583333334, "bike_id": "03cb279dd5cb793ccb488d5f1be74a72", "lat": 38.91257916666667, "fusion_lon": 0.0, "fusion_lat": 0.0, "type": "electric_scooter", "name": "03cb279dd5cb793ccb488d5f1be74a72", "is_disabled": 0, "rental_uris": {"ios": "https://dc.lft.to/lastmile_qr_scan", "android": "https://dc.lft.to/lastmile_qr_scan"}, "is_reserved": 0}, {"lon": -77.033612, "bike_id": "1202370dbc97bd2e8256a087c0f84909", "lat": 38.9352745, "fusion_lon": 0.0, "fusion_lat": 0.0, "type": "electric_scooter", "name": "1202370dbc97bd2e8256a087c0f84909", "is_disabled": 0, "rental_uris": {"ios": "https://dc.lft.to/lastmile_qr_scan", "android": "https://dc.lft.to/lastmile_qr_scan"}, "is_reserved": 0}, {"lon": -77.07323966666667, "bike_id": "376990c81d7888fae52f598fb96c4caf", "lat": 38.91398366666667, "fusion_lon": 0.0, "fusion_lat": 0.0, "type": "electric_scooter", "name": "376990c81d7888fae52f598fb96c4caf", "is_disabled": 0, "rental_uris": {"ios": "https://dc.lft.to/lastmile_qr_scan", "android": "https://dc.lft.to/lastmile_qr_scan"}, "is_reserved": 0}, {"lon": -76.96217016666667, "bike_id": "cd6a5d33b380439c4803123bb05ba9de", "lat": 38.87782266666667, "fusion_lon": 0.0, "fusion_lat": 0.0, "type": "electric_scooter", "name": "cd6a5d33b380439c4803123bb05ba9de", "is_disabled": 0, "rental_uris": {"ios": "https://dc.lft.to/lastmile_qr_scan", "android": "https://dc.lft.to/lastmile_qr_scan"}, "is_reserved": 0}, {"lon": -77.0228085, "bike_id": "233e6e403474fadf1d66aeb65775a6f9", "lat": 38.92686716666667, "fusion_lon": 0.0, "fusion_lat": 0.0, "type": "electric_scooter", "name": "233e6e403474fadf1d66aeb65775a6f9", "is_disabled": 0, "rental_uris": {"ios": "https://dc.lft.to/lastmile_qr_scan", "android": "https://dc.lft.to/lastmile_qr_scan"}, "is_reserved": 0}, {"lon": -77.02302933333333, "bike_id": "76dc1b5766a5727307db6bc2922ee2ea", "lat": 38.94093483333333, "fusion_lon": 0.0, "fusion_lat": 0.0, "type": "electric_scooter", "name": "76dc1b5766a5727307db6bc2922ee2ea", "is_disabled": 0, "rental_uris": {"ios": "https://dc.lft.to/lastmile_qr_scan", "android": "https://dc.lft.to/lastmile_qr_scan"}, "is_reserved": 0}, {"lon": -77.039975, "bike_id": "79110b00f4c0ca997da9ad9926000e36", "lat": 38.92472333333333, "fusion_lon": 0.0, "fusion_lat": 0.0, "type": "electric_scooter", "name": "79110b00f4c0ca997da9ad9926000e36", "is_disabled": 0, "rental_uris": {"ios": "https://dc.lft.to/lastmile_qr_scan", "android": "https://dc.lft.to/lastmile_qr_scan"}, "is_reserved": 0}, {"lon": -77.02160616666667, "bike_id": "f7abd722217eab3a29f1047a041df9ba", "lat": 38.892153, "fusion_lon": 0.0, "fusion_lat": 0.0, "type": "electric_scooter", "name": "f7abd722217eab3a29f1047a041df9ba", "is_disabled": 0, "rental_uris": {"ios": "https://dc.lft.to/lastmile_qr_scan", "android": "https://dc.lft.to/lastmile_qr_scan"}, "is_reserved": 0}, {"lon": -77.04661066666667, "bike_id": "e3377da9220228387e66c5a8710554ce", "lat": 38.9034945, "fusion_lon": 0.0, "fusion_lat": 0.0, "type": "electric_scooter", "name": "e3377da9220228387e66c5a8710554ce", "is_disabled": 0, "rental_uris": {"ios": "https://dc.lft.to/lastmile_qr_scan", "android": "https://dc.lft.to/lastmile_qr_scan"}, "is_reserved": 0}, {"lon": -77.02391833333333, "bike_id": "5bd612de2fb0968bc9161a447b273f75", "lat": 38.919999, "fusion_lon": 0.0, "fusion_lat": 0.0, "type": "electric_scooter", "name": "5bd612de2fb0968bc9161a447b273f75", "is_disabled": 0, "rental_uris": {"ios": "https://dc.lft.to/lastmile_qr_scan", "android": "https://dc.lft.to/lastmile_qr_scan"}, "is_reserved": 0}, {"lon": -77.02601633333333, "bike_id": "cbed1f7bd00b7d1f7d622aad3da62755", "lat": 38.926574, "fusion_lon": 0.0, "fusion_lat": 0.0, "type": "electric_scooter", "name": "cbed1f7bd00b7d1f7d622aad3da62755", "is_disabled": 0, "rental_uris": {"ios": "https://dc.lft.to/lastmile_qr_scan", "android": "https://dc.lft.to/lastmile_qr_scan"}, "is_reserved": 0}, {"lon": -77.02427233333333, "bike_id": "40952c5086afda9ade11f88a6ef7f063", "lat": 38.914051, "fusion_lon": 0.0, "fusion_lat": 0.0, "type": "electric_scooter", "name": "40952c5086afda9ade11f88a6ef7f063", "is_disabled": 0, "rental_uris": {"ios": "https://dc.lft.to/lastmile_qr_scan", "android": "https://dc.lft.to/lastmile_qr_scan"}, "is_reserved": 0}, {"lon": -77.00404566666667, "bike_id": "d7b6e5d292a945e2aa876f4639a1af21", "lat": 38.90608016666667, "fusion_lon": 0.0, "fusion_lat": 0.0, "type": "electric_scooter", "name": "d7b6e5d292a945e2aa876f4639a1af21", "is_disabled": 0, "rental_uris": {"ios": "https://dc.lft.to/lastmile_qr_scan", "android": "https://dc.lft.to/lastmile_qr_scan"}, "is_reserved": 0}, {"lon": -77.05088133333334, "bike_id": "88f7eeec8da987c99ab5a4a437adef31", "lat": 39.036754, "fusion_lon": 0.0, "fusion_lat": 0.0, "type": "electric_bike", "name": "88f7eeec8da987c99ab5a4a437adef31", "is_disabled": 0, "rental_uris": {"ios": "https://dc.lft.to/lastmile_qr_scan", "android": "https://dc.lft.to/lastmile_qr_scan"}, "is_reserved": 0}, {"lon": -77.034378, "bike_id": "87c0d912f072f84fd373c96cc45675e5", "lat": 38.905392166666665, "fusion_lon": 0.0, "fusion_lat": 0.0, "type": "electric_scooter", "name": "87c0d912f072f84fd373c96cc45675e5", "is_disabled": 0, "rental_uris": {"ios": "https://dc.lft.to/lastmile_qr_scan", "android": "https://dc.lft.to/lastmile_qr_scan"}, "is_reserved": 0}, {"lon": -77.02168583333334, "bike_id": "1b141b0e40883d102939ca1c3441eb1e", "lat": 38.88745616666667, "fusion_lon": 0.0, "fusion_lat": 0.0, "type": "electric_scooter", "name": "1b141b0e40883d102939ca1c3441eb1e", "is_disabled": 0, "rental_uris": {"ios": "https://dc.lft.to/lastmile_qr_scan", "android": "https://dc.lft.to/lastmile_qr_scan"}, "is_reserved": 0}, {"lon": -76.98883366666666, "bike_id": "254ca53477dbe7892ba0115f5d279cbc", "lat": 38.866540666666666, "fusion_lon": 0.0, "fusion_lat": 0.0, "type": "electric_scooter", "name": "254ca53477dbe7892ba0115f5d279cbc", "is_disabled": 0, "rental_uris": {"ios": "https://dc.lft.to/lastmile_qr_scan", "android": "https://dc.lft.to/lastmile_qr_scan"}, "is_reserved": 0}, {"lon": -77.0247145, "bike_id": "eeacddd9acc1a3d9866d36811e9d5da2", "lat": 38.90238033333333, "fusion_lon": 0.0, "fusion_lat": 0.0, "type": "electric_scooter", "name": "eeacddd9acc1a3d9866d36811e9d5da2", "is_disabled": 0, "rental_uris": {"ios": "https://dc.lft.to/lastmile_qr_scan", "android": "https://dc.lft.to/lastmile_qr_scan"}, "is_reserved": 0}, {"lon": -77.03870966666666, "bike_id": "eec950cb34320ea21899e166d4a1edb4", "lat": 38.9097035, "fusion_lon": 0.0, "fusion_lat": 0.0, "type": "electric_scooter", "name": "eec950cb34320ea21899e166d4a1edb4", "is_disabled": 0, "rental_uris": {"ios": "https://dc.lft.to/lastmile_qr_scan", "android": "https://dc.lft.to/lastmile_qr_scan"}, "is_reserved": 0}, {"lon": -77.01749033333333, "bike_id": "5792f0a8d7f3fcb82f1e366b9e038de5", "lat": 38.8767145, "fusion_lon": 0.0, "fusion_lat": 0.0, "type": "electric_scooter", "name": "5792f0a8d7f3fcb82f1e366b9e038de5", "is_disabled": 0, "rental_uris": {"ios": "https://dc.lft.to/lastmile_qr_scan", "android": "https://dc.lft.to/lastmile_qr_scan"}, "is_reserved": 0}, {"lon": -76.99646116666666, "bike_id": "5c8cf1b1b1bcca2b4c002bc501a185a4", "lat": 38.8872325, "fusion_lon": 0.0, "fusion_lat": 0.0, "type": "electric_scooter", "name": "5c8cf1b1b1bcca2b4c002bc501a185a4", "is_disabled": 0, "rental_uris": {"ios": "https://dc.lft.to/lastmile_qr_scan", "android": "https://dc.lft.to/lastmile_qr_scan"}, "is_reserved": 0}, {"lon": -77.03862833333334, "bike_id": "fb1ec476dbf23cb7e8ad8514614a7a1d", "lat": 38.912105333333336, "fusion_lon": 0.0, "fusion_lat": 0.0, "type": "electric_scooter", "name": "fb1ec476dbf23cb7e8ad8514614a7a1d", "is_disabled": 0, "rental_uris": {"ios": "https://dc.lft.to/lastmile_qr_scan", "android": "https://dc.lft.to/lastmile_qr_scan"}, "is_reserved": 0}, {"lon": -77.038716, "bike_id": "d5896d0589992bf45527eeb5952ddf7c", "lat": 38.91413216666667, "fusion_lon": 0.0, "fusion_lat": 0.0, "type": "electric_scooter", "name": "d5896d0589992bf45527eeb5952ddf7c", "is_disabled": 0, "rental_uris": {"ios": "https://dc.lft.to/lastmile_qr_scan", "android": "https://dc.lft.to/lastmile_qr_scan"}, "is_reserved": 0}, {"lon": -77.0432335, "bike_id": "bba7fa1959b055471a1044147fc3ee52", "lat": 38.91881333333333, "fusion_lon": 0.0, "fusion_lat": 0.0, "type": "electric_scooter", "name": "bba7fa1959b055471a1044147fc3ee52", "is_disabled": 0, "rental_uris": {"ios": "https://dc.lft.to/lastmile_qr_scan", "android": "https://dc.lft.to/lastmile_qr_scan"}, "is_reserved": 0}, {"lon": -77.02319716666666, "bike_id": "9195960223dd182f7c40d74a311abdac", "lat": 38.95519933333333, "fusion_lon": 0.0, "fusion_lat": 0.0, "type": "electric_scooter", "name": "9195960223dd182f7c40d74a311abdac", "is_disabled": 0, "rental_uris": {"ios": "https://dc.lft.to/lastmile_qr_scan", "android": "https://dc.lft.to/lastmile_qr_scan"}, "is_reserved": 0}, {"lon": -76.985379, "bike_id": "48498c053b45b106ee649055e06786a9", "lat": 38.89944766666667, "fusion_lon": 0.0, "fusion_lat": 0.0, "type": "electric_scooter", "name": "48498c053b45b106ee649055e06786a9", "is_disabled": 0, "rental_uris": {"ios": "https://dc.lft.to/lastmile_qr_scan", "android": "https://dc.lft.to/lastmile_qr_scan"}, "is_reserved": 0}, {"lon": -77.01444733333334, "bike_id": "48518ab96acd23b0ede9c77b212b24c6", "lat": 38.91253566666666, "fusion_lon": 0.0, "fusion_lat": 0.0, "type": "electric_scooter", "name": "48518ab96acd23b0ede9c77b212b24c6", "is_disabled": 0, "rental_uris": {"ios": "https://dc.lft.to/lastmile_qr_scan", "android": "https://dc.lft.to/lastmile_qr_scan"}, "is_reserved": 0}, {"lon": -76.94570816666666, "bike_id": "9134f9cdd5e7ecf23978c1919abad494", "lat": 38.93750566666667, "fusion_lon": 0.0, "fusion_lat": 0.0, "type": "electric_bike", "name": "9134f9cdd5e7ecf23978c1919abad494", "is_disabled": 0, "rental_uris": {"ios": "https://dc.lft.to/lastmile_qr_scan", "android": "https://dc.lft.to/lastmile_qr_scan"}, "is_reserved": 0}, {"lon": -77.02384583333334, "bike_id": "f52e0938951c4f265635edd19574f243", "lat": 38.90638116666667, "fusion_lon": 0.0, "fusion_lat": 0.0, "type": "electric_scooter", "name": "f52e0938951c4f265635edd19574f243", "is_disabled": 0, "rental_uris": {"ios": "https://dc.lft.to/lastmile_qr_scan", "android": "https://dc.lft.to/lastmile_qr_scan"}, "is_reserved": 0}, {"lon": -77.05041833333334, "bike_id": "c286cd6b1573865af73435e2912f9652", "lat": 38.923654166666665, "fusion_lon": 0.0, "fusion_lat": 0.0, "type": "electric_scooter", "name": "c286cd6b1573865af73435e2912f9652", "is_disabled": 0, "rental_uris": {"ios": "https://dc.lft.to/lastmile_qr_scan", "android": "https://dc.lft.to/lastmile_qr_scan"}, "is_reserved": 0}, {"lon": -77.03226516666666, "bike_id": "56025ecde0f662fabbfd8436c3be69b1", "lat": 38.914069166666664, "fusion_lon": 0.0, "fusion_lat": 0.0, "type": "electric_scooter", "name": "56025ecde0f662fabbfd8436c3be69b1", "is_disabled": 0, "rental_uris": {"ios": "https://dc.lft.to/lastmile_qr_scan", "android": "https://dc.lft.to/lastmile_qr_scan"}, "is_reserved": 0}, {"lon": -77.03463133333334, "bike_id": "c57ace57e91da2096aa0f731f2c5c13f", "lat": 38.9166445, "fusion_lon": 0.0, "fusion_lat": 0.0, "type": "electric_scooter", "name": "c57ace57e91da2096aa0f731f2c5c13f", "is_disabled": 0, "rental_uris": {"ios": "https://dc.lft.to/lastmile_qr_scan", "android": "https://dc.lft.to/lastmile_qr_scan"}, "is_reserved": 0}, {"lon": -77.005116, "bike_id": "986c75a78285a108a319c114bd9e30d9", "lat": 38.87907, "fusion_lon": 0.0, "fusion_lat": 0.0, "type": "electric_scooter", "name": "986c75a78285a108a319c114bd9e30d9", "is_disabled": 0, "rental_uris": {"ios": "https://dc.lft.to/lastmile_qr_scan", "android": "https://dc.lft.to/lastmile_qr_scan"}, "is_reserved": 0}, {"lon": -77.03446066666666, "bike_id": "a4aaa1c39a3d1ab8d9f34088eb56efe3", "lat": 38.90979633333333, "fusion_lon": 0.0, "fusion_lat": 0.0, "type": "electric_scooter", "name": "a4aaa1c39a3d1ab8d9f34088eb56efe3", "is_disabled": 0, "rental_uris": {"ios": "https://dc.lft.to/lastmile_qr_scan", "android": "https://dc.lft.to/lastmile_qr_scan"}, "is_reserved": 0}, {"lon": -77.00055816666666, "bike_id": "31678c18a70e71d6ca3b0f0ea8a7545c", "lat": 38.896687166666666, "fusion_lon": 0.0, "fusion_lat": 0.0, "type": "electric_scooter", "name": "31678c18a70e71d6ca3b0f0ea8a7545c", "is_disabled": 0, "rental_uris": {"ios": "https://dc.lft.to/lastmile_qr_scan", "android": "https://dc.lft.to/lastmile_qr_scan"}, "is_reserved": 0}, {"lon": -77.03122, "bike_id": "26a71485cd3d2561a0fdf84e5dcb67ba", "lat": 38.9171235, "fusion_lon": 0.0, "fusion_lat": 0.0, "type": "electric_scooter", "name": "26a71485cd3d2561a0fdf84e5dcb67ba", "is_disabled": 0, "rental_uris": {"ios": "https://dc.lft.to/lastmile_qr_scan", "android": "https://dc.lft.to/lastmile_qr_scan"}, "is_reserved": 0}, {"lon": -77.0219875, "bike_id": "cd22049a9724ebff9046338e07126439", "lat": 38.911278333333335, "fusion_lon": 0.0, "fusion_lat": 0.0, "type": "electric_scooter", "name": "cd22049a9724ebff9046338e07126439", "is_disabled": 0, "rental_uris": {"ios": "https://dc.lft.to/lastmile_qr_scan", "android": "https://dc.lft.to/lastmile_qr_scan"}, "is_reserved": 0}, {"lon": -76.99544283333333, "bike_id": "f39bb6546a73cd719bd154b5bf08feab", "lat": 38.86258616666667, "fusion_lon": 0.0, "fusion_lat": 0.0, "type": "electric_scooter", "name": "f39bb6546a73cd719bd154b5bf08feab", "is_disabled": 0, "rental_uris": {"ios": "https://dc.lft.to/lastmile_qr_scan", "android": "https://dc.lft.to/lastmile_qr_scan"}, "is_reserved": 0}, {"lon": -77.03200983333333, "bike_id": "99c58eb03b8de42c90a0780e3b2b0578", "lat": 38.91538666666667, "fusion_lon": 0.0, "fusion_lat": 0.0, "type": "electric_scooter", "name": "99c58eb03b8de42c90a0780e3b2b0578", "is_disabled": 0, "rental_uris": {"ios": "https://dc.lft.to/lastmile_qr_scan", "android": "https://dc.lft.to/lastmile_qr_scan"}, "is_reserved": 0}, {"lon": -77.00832466666667, "bike_id": "5d07034e26535e115c034426858a7083", "lat": 38.913465, "fusion_lon": 0.0, "fusion_lat": 0.0, "type": "electric_scooter", "name": "5d07034e26535e115c034426858a7083", "is_disabled": 0, "rental_uris": {"ios": "https://dc.lft.to/lastmile_qr_scan", "android": "https://dc.lft.to/lastmile_qr_scan"}, "is_reserved": 0}, {"lon": -77.01318166666667, "bike_id": "0126f7c7eae154159558f543b53893fc", "lat": 38.871501, "fusion_lon": 0.0, "fusion_lat": 0.0, "type": "electric_scooter", "name": "0126f7c7eae154159558f543b53893fc", "is_disabled": 0, "rental_uris": {"ios": "https://dc.lft.to/lastmile_qr_scan", "android": "https://dc.lft.to/lastmile_qr_scan"}, "is_reserved": 0}, {"lon": -77.09867366666667, "bike_id": "8b38d98dcd136d01869a958d706ad7d2", "lat": 38.94962683333333, "fusion_lon": 0.0, "fusion_lat": 0.0, "type": "electric_scooter", "name": "8b38d98dcd136d01869a958d706ad7d2", "is_disabled": 0, "rental_uris": {"ios": "https://dc.lft.to/lastmile_qr_scan", "android": "https://dc.lft.to/lastmile_qr_scan"}, "is_reserved": 0}, {"lon": -77.0221235, "bike_id": "346ce4c15e5c1be801957f4ffed36d2b", "lat": 38.896175, "fusion_lon": 0.0, "fusion_lat": 0.0, "type": "electric_scooter", "name": "346ce4c15e5c1be801957f4ffed36d2b", "is_disabled": 0, "rental_uris": {"ios": "https://dc.lft.to/lastmile_qr_scan", "android": "https://dc.lft.to/lastmile_qr_scan"}, "is_reserved": 0}, {"lon": -77.006575, "bike_id": "00d49758b105eeac87d2e54ac32ba820", "lat": 38.876529166666664, "fusion_lon": 0.0, "fusion_lat": 0.0, "type": "electric_scooter", "name": "00d49758b105eeac87d2e54ac32ba820", "is_disabled": 0, "rental_uris": {"ios": "https://dc.lft.to/lastmile_qr_scan", "android": "https://dc.lft.to/lastmile_qr_scan"}, "is_reserved": 0}, {"lon": -76.99376933333333, "bike_id": "86f3e3122b6d61c74418ee920d3b89d0", "lat": 38.87972533333333, "fusion_lon": 0.0, "fusion_lat": 0.0, "type": "electric_scooter", "name": "86f3e3122b6d61c74418ee920d3b89d0", "is_disabled": 0, "rental_uris": {"ios": "https://dc.lft.to/lastmile_qr_scan", "android": "https://dc.lft.to/lastmile_qr_scan"}, "is_reserved": 0}, {"lon": -76.99003966666666, "bike_id": "2ffb1a5bc05c4f7132102fa7c7088a7d", "lat": 38.86510616666666, "fusion_lon": 0.0, "fusion_lat": 0.0, "type": "electric_scooter", "name": "2ffb1a5bc05c4f7132102fa7c7088a7d", "is_disabled": 0, "rental_uris": {"ios": "https://dc.lft.to/lastmile_qr_scan", "android": "https://dc.lft.to/lastmile_qr_scan"}, "is_reserved": 0}, {"lon": -77.00373916666666, "bike_id": "471ac2e3f971ca0a6fade893674fffc9", "lat": 38.89727583333333, "fusion_lon": 0.0, "fusion_lat": 0.0, "type": "electric_scooter", "name": "471ac2e3f971ca0a6fade893674fffc9", "is_disabled": 0, "rental_uris": {"ios": "https://dc.lft.to/lastmile_qr_scan", "android": "https://dc.lft.to/lastmile_qr_scan"}, "is_reserved": 0}, {"lon": -77.03543933333333, "bike_id": "23563bce48d72b0310bea7fb7e36c886", "lat": 38.9171405, "fusion_lon": 0.0, "fusion_lat": 0.0, "type": "electric_scooter", "name": "23563bce48d72b0310bea7fb7e36c886", "is_disabled": 0, "rental_uris": {"ios": "https://dc.lft.to/lastmile_qr_scan", "android": "https://dc.lft.to/lastmile_qr_scan"}, "is_reserved": 0}, {"lon": -77.009054, "bike_id": "f04459a3a0159bbf1e90b1933e483b73", "lat": 38.906429, "fusion_lon": 0.0, "fusion_lat": 0.0, "type": "electric_scooter", "name": "f04459a3a0159bbf1e90b1933e483b73", "is_disabled": 0, "rental_uris": {"ios": "https://dc.lft.to/lastmile_qr_scan", "android": "https://dc.lft.to/lastmile_qr_scan"}, "is_reserved": 0}, {"lon": -76.99456966666666, "bike_id": "85102f6792f68007aa2c964b9585b0ad", "lat": 38.96620166666666, "fusion_lon": 0.0, "fusion_lat": 0.0, "type": "electric_bike", "name": "85102f6792f68007aa2c964b9585b0ad", "is_disabled": 0, "rental_uris": {"ios": "https://dc.lft.to/lastmile_qr_scan", "android": "https://dc.lft.to/lastmile_qr_scan"}, "is_reserved": 0}, {"lon": -76.98345433333333, "bike_id": "e3f3ff8756960a368e75b275d0b42a46", "lat": 38.86642783333333, "fusion_lon": 0.0, "fusion_lat": 0.0, "type": "electric_scooter", "name": "e3f3ff8756960a368e75b275d0b42a46", "is_disabled": 0, "rental_uris": {"ios": "https://dc.lft.to/lastmile_qr_scan", "android": "https://dc.lft.to/lastmile_qr_scan"}, "is_reserved": 0}, {"lon": -77.0162235, "bike_id": "d5a3a29d20e79f21ee5177ee0118de4f", "lat": 38.90334, "fusion_lon": 0.0, "fusion_lat": 0.0, "type": "electric_scooter", "name": "d5a3a29d20e79f21ee5177ee0118de4f", "is_disabled": 0, "rental_uris": {"ios": "https://dc.lft.to/lastmile_qr_scan", "android": "https://dc.lft.to/lastmile_qr_scan"}, "is_reserved": 0}, {"lon": -77.06397516666667, "bike_id": "147944b17d5ee1880ae27f000a8201c9", "lat": 38.94324266666667, "fusion_lon": 0.0, "fusion_lat": 0.0, "type": "electric_scooter", "name": "147944b17d5ee1880ae27f000a8201c9", "is_disabled": 0, "rental_uris": {"ios": "https://dc.lft.to/lastmile_qr_scan", "android": "https://dc.lft.to/lastmile_qr_scan"}, "is_reserved": 0}, {"lon": -77.05269366666667, "bike_id": "8a50272774c465ac06763b5a2f0c9253", "lat": 38.927751666666666, "fusion_lon": 0.0, "fusion_lat": 0.0, "type": "electric_scooter", "name": "8a50272774c465ac06763b5a2f0c9253", "is_disabled": 0, "rental_uris": {"ios": "https://dc.lft.to/lastmile_qr_scan", "android": "https://dc.lft.to/lastmile_qr_scan"}, "is_reserved": 0}, {"lon": -76.9961325, "bike_id": "26cd24e71663b63ba8acd192ba5aca8e", "lat": 38.90388316666667, "fusion_lon": 0.0, "fusion_lat": 0.0, "type": "electric_scooter", "name": "26cd24e71663b63ba8acd192ba5aca8e", "is_disabled": 0, "rental_uris": {"ios": "https://dc.lft.to/lastmile_qr_scan", "android": "https://dc.lft.to/lastmile_qr_scan"}, "is_reserved": 0}, {"lon": -77.03266983333333, "bike_id": "7dd8580f88abf056f58f6d8b184f69aa", "lat": 38.934432666666666, "fusion_lon": 0.0, "fusion_lat": 0.0, "type": "electric_scooter", "name": "7dd8580f88abf056f58f6d8b184f69aa", "is_disabled": 0, "rental_uris": {"ios": "https://dc.lft.to/lastmile_qr_scan", "android": "https://dc.lft.to/lastmile_qr_scan"}, "is_reserved": 0}, {"lon": -76.9903365, "bike_id": "8526dd87a500362450e978b23066154e", "lat": 38.902906333333334, "fusion_lon": 0.0, "fusion_lat": 0.0, "type": "electric_scooter", "name": "8526dd87a500362450e978b23066154e", "is_disabled": 0, "rental_uris": {"ios": "https://dc.lft.to/lastmile_qr_scan", "android": "https://dc.lft.to/lastmile_qr_scan"}, "is_reserved": 0}, {"lon": -77.04354566666666, "bike_id": "b4b3d57d134c3650c70082bb22a79c44", "lat": 38.90635016666667, "fusion_lon": 0.0, "fusion_lat": 0.0, "type": "electric_scooter", "name": "b4b3d57d134c3650c70082bb22a79c44", "is_disabled": 0, "rental_uris": {"ios": "https://dc.lft.to/lastmile_qr_scan", "android": "https://dc.lft.to/lastmile_qr_scan"}, "is_reserved": 0}, {"lon": -77.00087533333334, "bike_id": "336523a70607c57ab291b86a577eeb00", "lat": 38.89474383333334, "fusion_lon": 0.0, "fusion_lat": 0.0, "type": "electric_scooter", "name": "336523a70607c57ab291b86a577eeb00", "is_disabled": 0, "rental_uris": {"ios": "https://dc.lft.to/lastmile_qr_scan", "android": "https://dc.lft.to/lastmile_qr_scan"}, "is_reserved": 0}, {"lon": -77.01626433333334, "bike_id": "e08290182841033d8eb60c8a89946797", "lat": 38.906106, "fusion_lon": 0.0, "fusion_lat": 0.0, "type": "electric_scooter", "name": "e08290182841033d8eb60c8a89946797", "is_disabled": 0, "rental_uris": {"ios": "https://dc.lft.to/lastmile_qr_scan", "android": "https://dc.lft.to/lastmile_qr_scan"}, "is_reserved": 0}, {"lon": -77.04721266666667, "bike_id": "fad8653e79d3c05be360dd8870f67f94", "lat": 38.911250333333335, "fusion_lon": 0.0, "fusion_lat": 0.0, "type": "electric_scooter", "name": "fad8653e79d3c05be360dd8870f67f94", "is_disabled": 0, "rental_uris": {"ios": "https://dc.lft.to/lastmile_qr_scan", "android": "https://dc.lft.to/lastmile_qr_scan"}, "is_reserved": 0}, {"lon": -76.93354783333334, "bike_id": "bb605f14826e675985bcbd0e8657bb1c", "lat": 38.888036, "fusion_lon": 0.0, "fusion_lat": 0.0, "type": "electric_scooter", "name": "bb605f14826e675985bcbd0e8657bb1c", "is_disabled": 0, "rental_uris": {"ios": "https://dc.lft.to/lastmile_qr_scan", "android": "https://dc.lft.to/lastmile_qr_scan"}, "is_reserved": 0}, {"lon": -77.023824, "bike_id": "c205f343af9a85e608f72bbb20078a16", "lat": 38.905985333333334, "fusion_lon": 0.0, "fusion_lat": 0.0, "type": "electric_scooter", "name": "c205f343af9a85e608f72bbb20078a16", "is_disabled": 0, "rental_uris": {"ios": "https://dc.lft.to/lastmile_qr_scan", "android": "https://dc.lft.to/lastmile_qr_scan"}, "is_reserved": 0}, {"lon": -76.94878916666667, "bike_id": "f3d4043e70787f3575009dbf733d82ec", "lat": 38.8955285, "fusion_lon": 0.0, "fusion_lat": 0.0, "type": "electric_scooter", "name": "f3d4043e70787f3575009dbf733d82ec", "is_disabled": 0, "rental_uris": {"ios": "https://dc.lft.to/lastmile_qr_scan", "android": "https://dc.lft.to/lastmile_qr_scan"}, "is_reserved": 0}, {"lon": -77.03349383333334, "bike_id": "b3a5c0f4825009d3fea2936a3ad0cf53", "lat": 38.902868833333336, "fusion_lon": 0.0, "fusion_lat": 0.0, "type": "electric_scooter", "name": "b3a5c0f4825009d3fea2936a3ad0cf53", "is_disabled": 0, "rental_uris": {"ios": "https://dc.lft.to/lastmile_qr_scan", "android": "https://dc.lft.to/lastmile_qr_scan"}, "is_reserved": 0}, {"lon": -76.98709433333333, "bike_id": "b70b88458cf92bfed300bdef962cd257", "lat": 38.90935983333333, "fusion_lon": 0.0, "fusion_lat": 0.0, "type": "electric_scooter", "name": "b70b88458cf92bfed300bdef962cd257", "is_disabled": 0, "rental_uris": {"ios": "https://dc.lft.to/lastmile_qr_scan", "android": "https://dc.lft.to/lastmile_qr_scan"}, "is_reserved": 0}, {"lon": -77.0282695, "bike_id": "a72cfcd20d6bc4a77280067aaac56969", "lat": 38.91705366666667, "fusion_lon": 0.0, "fusion_lat": 0.0, "type": "electric_scooter", "name": "a72cfcd20d6bc4a77280067aaac56969", "is_disabled": 0, "rental_uris": {"ios": "https://dc.lft.to/lastmile_qr_scan", "android": "https://dc.lft.to/lastmile_qr_scan"}, "is_reserved": 0}, {"lon": -77.00977766666666, "bike_id": "29f44af2b462866d775adb41f1cde882", "lat": 38.8972675, "fusion_lon": 0.0, "fusion_lat": 0.0, "type": "electric_scooter", "name": "29f44af2b462866d775adb41f1cde882", "is_disabled": 0, "rental_uris": {"ios": "https://dc.lft.to/lastmile_qr_scan", "android": "https://dc.lft.to/lastmile_qr_scan"}, "is_reserved": 0}, {"lon": -77.01615666666666, "bike_id": "2c371eab7df27ea47edd4133edefa749", "lat": 38.91949966666667, "fusion_lon": 0.0, "fusion_lat": 0.0, "type": "electric_scooter", "name": "2c371eab7df27ea47edd4133edefa749", "is_disabled": 0, "rental_uris": {"ios": "https://dc.lft.to/lastmile_qr_scan", "android": "https://dc.lft.to/lastmile_qr_scan"}, "is_reserved": 0}, {"lon": -77.04898633333333, "bike_id": "a02d83c792aa8340ff93c604dd57f96f", "lat": 38.903688333333335, "fusion_lon": 0.0, "fusion_lat": 0.0, "type": "electric_scooter", "name": "a02d83c792aa8340ff93c604dd57f96f", "is_disabled": 0, "rental_uris": {"ios": "https://dc.lft.to/lastmile_qr_scan", "android": "https://dc.lft.to/lastmile_qr_scan"}, "is_reserved": 0}, {"lon": -77.036395, "bike_id": "e93e58ac59fd59cc430dcd3aa168ace5", "lat": 38.9317725, "fusion_lon": 0.0, "fusion_lat": 0.0, "type": "electric_scooter", "name": "e93e58ac59fd59cc430dcd3aa168ace5", "is_disabled": 0, "rental_uris": {"ios": "https://dc.lft.to/lastmile_qr_scan", "android": "https://dc.lft.to/lastmile_qr_scan"}, "is_reserved": 0}, {"lon": -77.05079066666667, "bike_id": "2b8f1513ed6ef16db8ab1fbed489af4b", "lat": 38.896760666666665, "fusion_lon": 0.0, "fusion_lat": 0.0, "type": "electric_scooter", "name": "2b8f1513ed6ef16db8ab1fbed489af4b", "is_disabled": 0, "rental_uris": {"ios": "https://dc.lft.to/lastmile_qr_scan", "android": "https://dc.lft.to/lastmile_qr_scan"}, "is_reserved": 0}, {"lon": -77.0143165, "bike_id": "fbe205fbd4d64fbcd806aeabd346bcf4", "lat": 38.8774745, "fusion_lon": 0.0, "fusion_lat": 0.0, "type": "electric_scooter", "name": "fbe205fbd4d64fbcd806aeabd346bcf4", "is_disabled": 0, "rental_uris": {"ios": "https://dc.lft.to/lastmile_qr_scan", "android": "https://dc.lft.to/lastmile_qr_scan"}, "is_reserved": 0}, {"lon": -76.95406916666667, "bike_id": "273d6223c03d85fc8447a8e9b1231c4e", "lat": 38.884670166666666, "fusion_lon": 0.0, "fusion_lat": 0.0, "type": "electric_scooter", "name": "273d6223c03d85fc8447a8e9b1231c4e", "is_disabled": 0, "rental_uris": {"ios": "https://dc.lft.to/lastmile_qr_scan", "android": "https://dc.lft.to/lastmile_qr_scan"}, "is_reserved": 0}, {"lon": -77.05423966666666, "bike_id": "9bc9f19f7af7119bdcc3f32664cddd2a", "lat": 38.9284325, "fusion_lon": 0.0, "fusion_lat": 0.0, "type": "electric_scooter", "name": "9bc9f19f7af7119bdcc3f32664cddd2a", "is_disabled": 0, "rental_uris": {"ios": "https://dc.lft.to/lastmile_qr_scan", "android": "https://dc.lft.to/lastmile_qr_scan"}, "is_reserved": 0}, {"lon": -77.02184933333334, "bike_id": "002c770a8947c054350186ad600372c8", "lat": 38.91481916666667, "fusion_lon": 0.0, "fusion_lat": 0.0, "type": "electric_scooter", "name": "002c770a8947c054350186ad600372c8", "is_disabled": 0, "rental_uris": {"ios": "https://dc.lft.to/lastmile_qr_scan", "android": "https://dc.lft.to/lastmile_qr_scan"}, "is_reserved": 0}, {"lon": -76.98711333333333, "bike_id": "253a9bbbbcff5dd6b53bcc5d85526e1f", "lat": 38.8662755, "fusion_lon": 0.0, "fusion_lat": 0.0, "type": "electric_scooter", "name": "253a9bbbbcff5dd6b53bcc5d85526e1f", "is_disabled": 0, "rental_uris": {"ios": "https://dc.lft.to/lastmile_qr_scan", "android": "https://dc.lft.to/lastmile_qr_scan"}, "is_reserved": 0}, {"lon": -76.9606035, "bike_id": "b587e47a7f337648e543602e3864f147", "lat": 38.88404633333333, "fusion_lon": 0.0, "fusion_lat": 0.0, "type": "electric_bike", "name": "b587e47a7f337648e543602e3864f147", "is_disabled": 0, "rental_uris": {"ios": "https://dc.lft.to/lastmile_qr_scan", "android": "https://dc.lft.to/lastmile_qr_scan"}, "is_reserved": 0}, {"lon": -76.98225316666667, "bike_id": "5a0fec0c7e2c94c2fbe650cfb3dca751", "lat": 38.9165585, "fusion_lon": 0.0, "fusion_lat": 0.0, "type": "electric_scooter", "name": "5a0fec0c7e2c94c2fbe650cfb3dca751", "is_disabled": 0, "rental_uris": {"ios": "https://dc.lft.to/lastmile_qr_scan", "android": "https://dc.lft.to/lastmile_qr_scan"}, "is_reserved": 0}, {"lon": -77.05490733333333, "bike_id": "07fd9d0f6de1ea6d910a54d1a3f194bc", "lat": 38.90843266666667, "fusion_lon": 0.0, "fusion_lat": 0.0, "type": "electric_scooter", "name": "07fd9d0f6de1ea6d910a54d1a3f194bc", "is_disabled": 0, "rental_uris": {"ios": "https://dc.lft.to/lastmile_qr_scan", "android": "https://dc.lft.to/lastmile_qr_scan"}, "is_reserved": 0}, {"lon": -77.04110483333334, "bike_id": "6884c664d4819bd3573b63c5c2fd4598", "lat": 38.898394833333334, "fusion_lon": 0.0, "fusion_lat": 0.0, "type": "electric_scooter", "name": "6884c664d4819bd3573b63c5c2fd4598", "is_disabled": 0, "rental_uris": {"ios": "https://dc.lft.to/lastmile_qr_scan", "android": "https://dc.lft.to/lastmile_qr_scan"}, "is_reserved": 0}, {"lon": -77.00343916666667, "bike_id": "fcf5b725cf18b4002886bf95bec5dd6d", "lat": 38.90367083333334, "fusion_lon": 0.0, "fusion_lat": 0.0, "type": "electric_scooter", "name": "fcf5b725cf18b4002886bf95bec5dd6d", "is_disabled": 0, "rental_uris": {"ios": "https://dc.lft.to/lastmile_qr_scan", "android": "https://dc.lft.to/lastmile_qr_scan"}, "is_reserved": 0}, {"lon": -76.9412575, "bike_id": "8ba91c67aec1195e0dd96758d1277501", "lat": 38.908244833333335, "fusion_lon": 0.0, "fusion_lat": 0.0, "type": "electric_scooter", "name": "8ba91c67aec1195e0dd96758d1277501", "is_disabled": 0, "rental_uris": {"ios": "https://dc.lft.to/lastmile_qr_scan", "android": "https://dc.lft.to/lastmile_qr_scan"}, "is_reserved": 0}, {"lon": -77.03392983333333, "bike_id": "62a803387bbc203e250828951f778f4b", "lat": 38.93883433333333, "fusion_lon": 0.0, "fusion_lat": 0.0, "type": "electric_scooter", "name": "62a803387bbc203e250828951f778f4b", "is_disabled": 0, "rental_uris": {"ios": "https://dc.lft.to/lastmile_qr_scan", "android": "https://dc.lft.to/lastmile_qr_scan"}, "is_reserved": 0}, {"lon": -76.99775083333333, "bike_id": "b529b66e9690cb49a1bdbc44f3cf5693", "lat": 38.843029333333334, "fusion_lon": 0.0, "fusion_lat": 0.0, "type": "electric_scooter", "name": "b529b66e9690cb49a1bdbc44f3cf5693", "is_disabled": 0, "rental_uris": {"ios": "https://dc.lft.to/lastmile_qr_scan", "android": "https://dc.lft.to/lastmile_qr_scan"}, "is_reserved": 0}, {"lon": -77.0070905, "bike_id": "6dc294d3fe6e57f7ceaa5e9365163ecf", "lat": 38.8848825, "fusion_lon": 0.0, "fusion_lat": 0.0, "type": "electric_scooter", "name": "6dc294d3fe6e57f7ceaa5e9365163ecf", "is_disabled": 0, "rental_uris": {"ios": "https://dc.lft.to/lastmile_qr_scan", "android": "https://dc.lft.to/lastmile_qr_scan"}, "is_reserved": 0}, {"lon": -77.04065183333333, "bike_id": "d99a69b91729893318911fd9ef7750bb", "lat": 38.91271666666667, "fusion_lon": 0.0, "fusion_lat": 0.0, "type": "electric_scooter", "name": "d99a69b91729893318911fd9ef7750bb", "is_disabled": 0, "rental_uris": {"ios": "https://dc.lft.to/lastmile_qr_scan", "android": "https://dc.lft.to/lastmile_qr_scan"}, "is_reserved": 0}, {"lon": -77.042115, "bike_id": "5646f923bf3cf24f5eca0462c7112ecd", "lat": 38.89270233333333, "fusion_lon": 0.0, "fusion_lat": 0.0, "type": "electric_scooter", "name": "5646f923bf3cf24f5eca0462c7112ecd", "is_disabled": 0, "rental_uris": {"ios": "https://dc.lft.to/lastmile_qr_scan", "android": "https://dc.lft.to/lastmile_qr_scan"}, "is_reserved": 0}, {"lon": -77.03274383333333, "bike_id": "58a847e8981448b29ae487fee11d1728", "lat": 38.9345675, "fusion_lon": 0.0, "fusion_lat": 0.0, "type": "electric_scooter", "name": "58a847e8981448b29ae487fee11d1728", "is_disabled": 0, "rental_uris": {"ios": "https://dc.lft.to/lastmile_qr_scan", "android": "https://dc.lft.to/lastmile_qr_scan"}, "is_reserved": 0}, {"lon": -77.04470933333333, "bike_id": "869ad9924af7c32601ea24bda1d9451b", "lat": 38.911166333333334, "fusion_lon": 0.0, "fusion_lat": 0.0, "type": "electric_scooter", "name": "869ad9924af7c32601ea24bda1d9451b", "is_disabled": 0, "rental_uris": {"ios": "https://dc.lft.to/lastmile_qr_scan", "android": "https://dc.lft.to/lastmile_qr_scan"}, "is_reserved": 0}, {"lon": -76.94804566666667, "bike_id": "72bacc953c1648ea1e0195d4358e4eef", "lat": 38.86197883333333, "fusion_lon": 0.0, "fusion_lat": 0.0, "type": "electric_bike", "name": "72bacc953c1648ea1e0195d4358e4eef", "is_disabled": 0, "rental_uris": {"ios": "https://dc.lft.to/lastmile_qr_scan", "android": "https://dc.lft.to/lastmile_qr_scan"}, "is_reserved": 0}, {"lon": -77.024009, "bike_id": "b710566e4c26371894f0091de8171bdd", "lat": 38.900511333333334, "fusion_lon": 0.0, "fusion_lat": 0.0, "type": "electric_scooter", "name": "b710566e4c26371894f0091de8171bdd", "is_disabled": 0, "rental_uris": {"ios": "https://dc.lft.to/lastmile_qr_scan", "android": "https://dc.lft.to/lastmile_qr_scan"}, "is_reserved": 0}, {"lon": -77.062955, "bike_id": "8b5f1dc4539342031a1405b29f7dc4de", "lat": 38.903978, "fusion_lon": 0.0, "fusion_lat": 0.0, "type": "electric_scooter", "name": "8b5f1dc4539342031a1405b29f7dc4de", "is_disabled": 0, "rental_uris": {"ios": "https://dc.lft.to/lastmile_qr_scan", "android": "https://dc.lft.to/lastmile_qr_scan"}, "is_reserved": 0}, {"lon": -77.03286316666667, "bike_id": "309f15eebe7509eeea66f838f755dd1c", "lat": 38.923412166666665, "fusion_lon": 0.0, "fusion_lat": 0.0, "type": "electric_scooter", "name": "309f15eebe7509eeea66f838f755dd1c", "is_disabled": 0, "rental_uris": {"ios": "https://dc.lft.to/lastmile_qr_scan", "android": "https://dc.lft.to/lastmile_qr_scan"}, "is_reserved": 0}, {"lon": -77.02188566666666, "bike_id": "c76407dfa4b1401b86c394f5e381122f", "lat": 38.9, "fusion_lon": 0.0, "fusion_lat": 0.0, "type": "electric_scooter", "name": "c76407dfa4b1401b86c394f5e381122f", "is_disabled": 0, "rental_uris": {"ios": "https://dc.lft.to/lastmile_qr_scan", "android": "https://dc.lft.to/lastmile_qr_scan"}, "is_reserved": 0}, {"lon": -77.00692583333333, "bike_id": "a9f597477699169f6ce3544618315086", "lat": 38.8772695, "fusion_lon": 0.0, "fusion_lat": 0.0, "type": "electric_scooter", "name": "a9f597477699169f6ce3544618315086", "is_disabled": 0, "rental_uris": {"ios": "https://dc.lft.to/lastmile_qr_scan", "android": "https://dc.lft.to/lastmile_qr_scan"}, "is_reserved": 0}, {"lon": -76.97498033333333, "bike_id": "ba376fedc7f3cdb3b9f37d750266ea2e", "lat": 38.9192355, "fusion_lon": 0.0, "fusion_lat": 0.0, "type": "electric_scooter", "name": "ba376fedc7f3cdb3b9f37d750266ea2e", "is_disabled": 0, "rental_uris": {"ios": "https://dc.lft.to/lastmile_qr_scan", "android": "https://dc.lft.to/lastmile_qr_scan"}, "is_reserved": 0}, {"lon": -77.00727016666667, "bike_id": "ae0e05194d658b5ab236f41bc7a52e96", "lat": 38.876877, "fusion_lon": 0.0, "fusion_lat": 0.0, "type": "electric_scooter", "name": "ae0e05194d658b5ab236f41bc7a52e96", "is_disabled": 0, "rental_uris": {"ios": "https://dc.lft.to/lastmile_qr_scan", "android": "https://dc.lft.to/lastmile_qr_scan"}, "is_reserved": 0}, {"lon": -76.94405183333333, "bike_id": "0b5c1dc75d76c4ee9c97c9046e6767f3", "lat": 38.881416, "fusion_lon": 0.0, "fusion_lat": 0.0, "type": "electric_scooter", "name": "0b5c1dc75d76c4ee9c97c9046e6767f3", "is_disabled": 0, "rental_uris": {"ios": "https://dc.lft.to/lastmile_qr_scan", "android": "https://dc.lft.to/lastmile_qr_scan"}, "is_reserved": 0}, {"lon": -77.02272883333333, "bike_id": "0f23ec39d9fe8d36c24cb2e23b3d526d", "lat": 38.92725033333333, "fusion_lon": 0.0, "fusion_lat": 0.0, "type": "electric_scooter", "name": "0f23ec39d9fe8d36c24cb2e23b3d526d", "is_disabled": 0, "rental_uris": {"ios": "https://dc.lft.to/lastmile_qr_scan", "android": "https://dc.lft.to/lastmile_qr_scan"}, "is_reserved": 0}, {"lon": -76.993543, "bike_id": "44783942ba439a279df3e32d1d4e49d7", "lat": 38.845072, "fusion_lon": 0.0, "fusion_lat": 0.0, "type": "electric_bike", "name": "44783942ba439a279df3e32d1d4e49d7", "is_disabled": 0, "rental_uris": {"ios": "https://dc.lft.to/lastmile_qr_scan", "android": "https://dc.lft.to/lastmile_qr_scan"}, "is_reserved": 0}, {"lon": -77.04582783333333, "bike_id": "6c6642beb0bf36912f13d48f58c7ebc2", "lat": 38.921221, "fusion_lon": 0.0, "fusion_lat": 0.0, "type": "electric_scooter", "name": "6c6642beb0bf36912f13d48f58c7ebc2", "is_disabled": 0, "rental_uris": {"ios": "https://dc.lft.to/lastmile_qr_scan", "android": "https://dc.lft.to/lastmile_qr_scan"}, "is_reserved": 0}, {"lon": -77.36093533333333, "bike_id": "a43285e63972be8d29779d000938d2a2", "lat": 38.939539833333335, "fusion_lon": 0.0, "fusion_lat": 0.0, "type": "electric_bike", "name": "a43285e63972be8d29779d000938d2a2", "is_disabled": 0, "rental_uris": {"ios": "https://dc.lft.to/lastmile_qr_scan", "android": "https://dc.lft.to/lastmile_qr_scan"}, "is_reserved": 0}, {"lon": -76.98618066666667, "bike_id": "0feab86c282ceaad3e5c50380b80e391", "lat": 38.938286166666664, "fusion_lon": 0.0, "fusion_lat": 0.0, "type": "electric_scooter", "name": "0feab86c282ceaad3e5c50380b80e391", "is_disabled": 0, "rental_uris": {"ios": "https://dc.lft.to/lastmile_qr_scan", "android": "https://dc.lft.to/lastmile_qr_scan"}, "is_reserved": 0}, {"lon": -77.00765483333333, "bike_id": "bc3b531027945850b06416c3b31872ba", "lat": 38.871143833333335, "fusion_lon": 0.0, "fusion_lat": 0.0, "type": "electric_scooter", "name": "bc3b531027945850b06416c3b31872ba", "is_disabled": 0, "rental_uris": {"ios": "https://dc.lft.to/lastmile_qr_scan", "android": "https://dc.lft.to/lastmile_qr_scan"}, "is_reserved": 0}, {"lon": -77.03299366666667, "bike_id": "05f81388fe3cd5dca32c6706f8ca47a0", "lat": 38.9254065, "fusion_lon": 0.0, "fusion_lat": 0.0, "type": "electric_scooter", "name": "05f81388fe3cd5dca32c6706f8ca47a0", "is_disabled": 0, "rental_uris": {"ios": "https://dc.lft.to/lastmile_qr_scan", "android": "https://dc.lft.to/lastmile_qr_scan"}, "is_reserved": 0}, {"lon": -77.024262, "bike_id": "d557c35b89e88138efcba944903f60de", "lat": 38.920437666666665, "fusion_lon": 0.0, "fusion_lat": 0.0, "type": "electric_scooter", "name": "d557c35b89e88138efcba944903f60de", "is_disabled": 0, "rental_uris": {"ios": "https://dc.lft.to/lastmile_qr_scan", "android": "https://dc.lft.to/lastmile_qr_scan"}, "is_reserved": 0}, {"lon": -77.04364883333334, "bike_id": "31c61583a9e63e6b3444ebb926b10619", "lat": 38.91119166666667, "fusion_lon": 0.0, "fusion_lat": 0.0, "type": "electric_scooter", "name": "31c61583a9e63e6b3444ebb926b10619", "is_disabled": 0, "rental_uris": {"ios": "https://dc.lft.to/lastmile_qr_scan", "android": "https://dc.lft.to/lastmile_qr_scan"}, "is_reserved": 0}, {"lon": -77.01626533333334, "bike_id": "394211ea10896e77743534baf721ada1", "lat": 38.965718, "fusion_lon": 0.0, "fusion_lat": 0.0, "type": "electric_scooter", "name": "394211ea10896e77743534baf721ada1", "is_disabled": 0, "rental_uris": {"ios": "https://dc.lft.to/lastmile_qr_scan", "android": "https://dc.lft.to/lastmile_qr_scan"}, "is_reserved": 0}, {"lon": -76.97702866666667, "bike_id": "04a9f3c78728f5395937561cc333071e", "lat": 38.94914883333333, "fusion_lon": 0.0, "fusion_lat": 0.0, "type": "electric_bike", "name": "04a9f3c78728f5395937561cc333071e", "is_disabled": 0, "rental_uris": {"ios": "https://dc.lft.to/lastmile_qr_scan", "android": "https://dc.lft.to/lastmile_qr_scan"}, "is_reserved": 0}, {"lon": -77.0548285, "bike_id": "de0e5feeba3f770dba72cd92ff3f5e5f", "lat": 38.908605666666666, "fusion_lon": 0.0, "fusion_lat": 0.0, "type": "electric_bike", "name": "de0e5feeba3f770dba72cd92ff3f5e5f", "is_disabled": 0, "rental_uris": {"ios": "https://dc.lft.to/lastmile_qr_scan", "android": "https://dc.lft.to/lastmile_qr_scan"}, "is_reserved": 0}, {"lon": -76.94763966666666, "bike_id": "9a0bcb1433efa3b53df5ad30fa17cf58", "lat": 38.90061, "fusion_lon": 0.0, "fusion_lat": 0.0, "type": "electric_scooter", "name": "9a0bcb1433efa3b53df5ad30fa17cf58", "is_disabled": 0, "rental_uris": {"ios": "https://dc.lft.to/lastmile_qr_scan", "android": "https://dc.lft.to/lastmile_qr_scan"}, "is_reserved": 0}, {"lon": -77.0267475, "bike_id": "edbd3350585a8c36e09d27612367e187", "lat": 38.91258, "fusion_lon": 0.0, "fusion_lat": 0.0, "type": "electric_scooter", "name": "edbd3350585a8c36e09d27612367e187", "is_disabled": 0, "rental_uris": {"ios": "https://dc.lft.to/lastmile_qr_scan", "android": "https://dc.lft.to/lastmile_qr_scan"}, "is_reserved": 0}, {"lon": -77.0121485, "bike_id": "e06140bf87dcd7ab05c566dfe33ab358", "lat": 38.885584, "fusion_lon": 0.0, "fusion_lat": 0.0, "type": "electric_scooter", "name": "e06140bf87dcd7ab05c566dfe33ab358", "is_disabled": 0, "rental_uris": {"ios": "https://dc.lft.to/lastmile_qr_scan", "android": "https://dc.lft.to/lastmile_qr_scan"}, "is_reserved": 0}, {"lon": -77.03212716666667, "bike_id": "40a25dae0c004f0423197090548ffb97", "lat": 38.9119915, "fusion_lon": 0.0, "fusion_lat": 0.0, "type": "electric_scooter", "name": "40a25dae0c004f0423197090548ffb97", "is_disabled": 0, "rental_uris": {"ios": "https://dc.lft.to/lastmile_qr_scan", "android": "https://dc.lft.to/lastmile_qr_scan"}, "is_reserved": 0}, {"lon": -77.032626, "bike_id": "a27b81ed3149e4c81662692a8322bd83", "lat": 38.9140695, "fusion_lon": 0.0, "fusion_lat": 0.0, "type": "electric_scooter", "name": "a27b81ed3149e4c81662692a8322bd83", "is_disabled": 0, "rental_uris": {"ios": "https://dc.lft.to/lastmile_qr_scan", "android": "https://dc.lft.to/lastmile_qr_scan"}, "is_reserved": 0}, {"lon": -76.9060285, "bike_id": "e8372110479ff285746f581877f7d8bd", "lat": 39.004608, "fusion_lon": 0.0, "fusion_lat": 0.0, "type": "electric_bike", "name": "e8372110479ff285746f581877f7d8bd", "is_disabled": 0, "rental_uris": {"ios": "https://dc.lft.to/lastmile_qr_scan", "android": "https://dc.lft.to/lastmile_qr_scan"}, "is_reserved": 0}, {"lon": -77.0342585, "bike_id": "a7890f9cc40d21fc5ce09d241605abc5", "lat": 38.92868, "fusion_lon": 0.0, "fusion_lat": 0.0, "type": "electric_scooter", "name": "a7890f9cc40d21fc5ce09d241605abc5", "is_disabled": 0, "rental_uris": {"ios": "https://dc.lft.to/lastmile_qr_scan", "android": "https://dc.lft.to/lastmile_qr_scan"}, "is_reserved": 0}, {"lon": -77.02641783333333, "bike_id": "a18c91fea3d36a01dc1e2d973b760e1b", "lat": 38.917085666666665, "fusion_lon": 0.0, "fusion_lat": 0.0, "type": "electric_scooter", "name": "a18c91fea3d36a01dc1e2d973b760e1b", "is_disabled": 0, "rental_uris": {"ios": "https://dc.lft.to/lastmile_qr_scan", "android": "https://dc.lft.to/lastmile_qr_scan"}, "is_reserved": 0}, {"lon": -77.036435, "bike_id": "7a61c8f2ca92f244dc3ab4850a43b9fe", "lat": 38.90385833333333, "fusion_lon": 0.0, "fusion_lat": 0.0, "type": "electric_scooter", "name": "7a61c8f2ca92f244dc3ab4850a43b9fe", "is_disabled": 0, "rental_uris": {"ios": "https://dc.lft.to/lastmile_qr_scan", "android": "https://dc.lft.to/lastmile_qr_scan"}, "is_reserved": 0}, {"lon": -77.03866766666667, "bike_id": "cff5e4d2101fd519b4ed8e7104f7a277", "lat": 38.932534, "fusion_lon": 0.0, "fusion_lat": 0.0, "type": "electric_scooter", "name": "cff5e4d2101fd519b4ed8e7104f7a277", "is_disabled": 0, "rental_uris": {"ios": "https://dc.lft.to/lastmile_qr_scan", "android": "https://dc.lft.to/lastmile_qr_scan"}, "is_reserved": 0}, {"lon": -77.00450183333334, "bike_id": "733fa1efd229b3107fe4a3c218dac869", "lat": 38.91174183333333, "fusion_lon": 0.0, "fusion_lat": 0.0, "type": "electric_scooter", "name": "733fa1efd229b3107fe4a3c218dac869", "is_disabled": 0, "rental_uris": {"ios": "https://dc.lft.to/lastmile_qr_scan", "android": "https://dc.lft.to/lastmile_qr_scan"}, "is_reserved": 0}, {"lon": -77.0546875, "bike_id": "df5f1f7019e05be51a483afa72120a37", "lat": 38.8555625, "fusion_lon": 0.0, "fusion_lat": 0.0, "type": "electric_bike", "name": "df5f1f7019e05be51a483afa72120a37", "is_disabled": 0, "rental_uris": {"ios": "https://dc.lft.to/lastmile_qr_scan", "android": "https://dc.lft.to/lastmile_qr_scan"}, "is_reserved": 0}, {"lon": -77.0504565, "bike_id": "9935973223b8e0249fa50a3437169c34", "lat": 38.923625333333334, "fusion_lon": 0.0, "fusion_lat": 0.0, "type": "electric_scooter", "name": "9935973223b8e0249fa50a3437169c34", "is_disabled": 0, "rental_uris": {"ios": "https://dc.lft.to/lastmile_qr_scan", "android": "https://dc.lft.to/lastmile_qr_scan"}, "is_reserved": 0}, {"lon": -77.00676083333333, "bike_id": "d5e225e2b8ebc00835a25f6dda840bbe", "lat": 38.9001055, "fusion_lon": 0.0, "fusion_lat": 0.0, "type": "electric_scooter", "name": "d5e225e2b8ebc00835a25f6dda840bbe", "is_disabled": 0, "rental_uris": {"ios": "https://dc.lft.to/lastmile_qr_scan", "android": "https://dc.lft.to/lastmile_qr_scan"}, "is_reserved": 0}, {"lon": -77.1298225, "bike_id": "c69443a5c5654903c75b863a608ee7aa", "lat": 38.799843833333334, "fusion_lon": 0.0, "fusion_lat": 0.0, "type": "electric_bike", "name": "c69443a5c5654903c75b863a608ee7aa", "is_disabled": 0, "rental_uris": {"ios": "https://dc.lft.to/lastmile_qr_scan", "android": "https://dc.lft.to/lastmile_qr_scan"}, "is_reserved": 0}, {"lon": -77.02871616666667, "bike_id": "def7fdffcbc0d079c4d019c59277fe78", "lat": 38.88500466666667, "fusion_lon": 0.0, "fusion_lat": 0.0, "type": "electric_scooter", "name": "def7fdffcbc0d079c4d019c59277fe78", "is_disabled": 0, "rental_uris": {"ios": "https://dc.lft.to/lastmile_qr_scan", "android": "https://dc.lft.to/lastmile_qr_scan"}, "is_reserved": 0}, {"lon": -77.00660366666666, "bike_id": "8c0cccb5c5a32ea5cef29ddc555343db", "lat": 38.944621166666664, "fusion_lon": 0.0, "fusion_lat": 0.0, "type": "electric_scooter", "name": "8c0cccb5c5a32ea5cef29ddc555343db", "is_disabled": 0, "rental_uris": {"ios": "https://dc.lft.to/lastmile_qr_scan", "android": "https://dc.lft.to/lastmile_qr_scan"}, "is_reserved": 0}, {"lon": -77.05937516666667, "bike_id": "8447a391cc23ac55928d5dd0dbf42225", "lat": 38.912420833333336, "fusion_lon": 0.0, "fusion_lat": 0.0, "type": "electric_scooter", "name": "8447a391cc23ac55928d5dd0dbf42225", "is_disabled": 0, "rental_uris": {"ios": "https://dc.lft.to/lastmile_qr_scan", "android": "https://dc.lft.to/lastmile_qr_scan"}, "is_reserved": 0}, {"lon": -76.92998183333333, "bike_id": "4f3ab10659fc3aa35c723b5c71275c31", "lat": 38.90187866666667, "fusion_lon": 0.0, "fusion_lat": 0.0, "type": "electric_scooter", "name": "4f3ab10659fc3aa35c723b5c71275c31", "is_disabled": 0, "rental_uris": {"ios": "https://dc.lft.to/lastmile_qr_scan", "android": "https://dc.lft.to/lastmile_qr_scan"}, "is_reserved": 0}, {"lon": -77.0211635, "bike_id": "5415af351d5ba278bdad13fddf29877f", "lat": 38.91741583333334, "fusion_lon": 0.0, "fusion_lat": 0.0, "type": "electric_scooter", "name": "5415af351d5ba278bdad13fddf29877f", "is_disabled": 0, "rental_uris": {"ios": "https://dc.lft.to/lastmile_qr_scan", "android": "https://dc.lft.to/lastmile_qr_scan"}, "is_reserved": 0}, {"lon": -77.014218, "bike_id": "91d6414d10608b59eebd02b393348818", "lat": 38.9721855, "fusion_lon": 0.0, "fusion_lat": 0.0, "type": "electric_bike", "name": "91d6414d10608b59eebd02b393348818", "is_disabled": 0, "rental_uris": {"ios": "https://dc.lft.to/lastmile_qr_scan", "android": "https://dc.lft.to/lastmile_qr_scan"}, "is_reserved": 0}, {"lon": -77.03890216666667, "bike_id": "3943ac30056b522b41cb4a9e348ced2a", "lat": 38.9200645, "fusion_lon": 0.0, "fusion_lat": 0.0, "type": "electric_scooter", "name": "3943ac30056b522b41cb4a9e348ced2a", "is_disabled": 0, "rental_uris": {"ios": "https://dc.lft.to/lastmile_qr_scan", "android": "https://dc.lft.to/lastmile_qr_scan"}, "is_reserved": 0}, {"lon": -77.06729683333333, "bike_id": "08ef61e17674a566e178a71728f280a3", "lat": 38.9096995, "fusion_lon": 0.0, "fusion_lat": 0.0, "type": "electric_scooter", "name": "08ef61e17674a566e178a71728f280a3", "is_disabled": 0, "rental_uris": {"ios": "https://dc.lft.to/lastmile_qr_scan", "android": "https://dc.lft.to/lastmile_qr_scan"}, "is_reserved": 0}, {"lon": -77.03188683333333, "bike_id": "0ed89acc2e87d2772ed3850a1d81ae67", "lat": 38.90785533333333, "fusion_lon": 0.0, "fusion_lat": 0.0, "type": "electric_scooter", "name": "0ed89acc2e87d2772ed3850a1d81ae67", "is_disabled": 0, "rental_uris": {"ios": "https://dc.lft.to/lastmile_qr_scan", "android": "https://dc.lft.to/lastmile_qr_scan"}, "is_reserved": 0}, {"lon": -77.03465233333333, "bike_id": "b8cea3f28749a4176dff66b8354fc866", "lat": 38.908696666666664, "fusion_lon": 0.0, "fusion_lat": 0.0, "type": "electric_scooter", "name": "b8cea3f28749a4176dff66b8354fc866", "is_disabled": 0, "rental_uris": {"ios": "https://dc.lft.to/lastmile_qr_scan", "android": "https://dc.lft.to/lastmile_qr_scan"}, "is_reserved": 0}, {"lon": -76.99720416666666, "bike_id": "d573b196b9c015fde5d28af6c6cf59bd", "lat": 38.910978, "fusion_lon": 0.0, "fusion_lat": 0.0, "type": "electric_scooter", "name": "d573b196b9c015fde5d28af6c6cf59bd", "is_disabled": 0, "rental_uris": {"ios": "https://dc.lft.to/lastmile_qr_scan", "android": "https://dc.lft.to/lastmile_qr_scan"}, "is_reserved": 0}, {"lon": -77.03835183333334, "bike_id": "a4641adcc79be47808d8e8489ca56d3b", "lat": 38.9111805, "fusion_lon": 0.0, "fusion_lat": 0.0, "type": "electric_scooter", "name": "a4641adcc79be47808d8e8489ca56d3b", "is_disabled": 0, "rental_uris": {"ios": "https://dc.lft.to/lastmile_qr_scan", "android": "https://dc.lft.to/lastmile_qr_scan"}, "is_reserved": 0}, {"lon": -77.028113, "bike_id": "5ac41eb7335aae6e21b9079e73cd8bb4", "lat": 38.88176133333333, "fusion_lon": 0.0, "fusion_lat": 0.0, "type": "electric_scooter", "name": "5ac41eb7335aae6e21b9079e73cd8bb4", "is_disabled": 0, "rental_uris": {"ios": "https://dc.lft.to/lastmile_qr_scan", "android": "https://dc.lft.to/lastmile_qr_scan"}, "is_reserved": 0}, {"lon": -77.04199416666667, "bike_id": "64a3677fd7a4ad07f2b264f9c0be0e39", "lat": 38.91262866666667, "fusion_lon": 0.0, "fusion_lat": 0.0, "type": "electric_scooter", "name": "64a3677fd7a4ad07f2b264f9c0be0e39", "is_disabled": 0, "rental_uris": {"ios": "https://dc.lft.to/lastmile_qr_scan", "android": "https://dc.lft.to/lastmile_qr_scan"}, "is_reserved": 0}, {"lon": -77.10918966666667, "bike_id": "ede697a746c1cc5cb63f6c841dd7d6fd", "lat": 39.05206783333333, "fusion_lon": 0.0, "fusion_lat": 0.0, "type": "electric_bike", "name": "ede697a746c1cc5cb63f6c841dd7d6fd", "is_disabled": 0, "rental_uris": {"ios": "https://dc.lft.to/lastmile_qr_scan", "android": "https://dc.lft.to/lastmile_qr_scan"}, "is_reserved": 0}, {"lon": -77.01410466666667, "bike_id": "b6363ee43c099811cd21bb9164deff82", "lat": 38.9287405, "fusion_lon": 0.0, "fusion_lat": 0.0, "type": "electric_scooter", "name": "b6363ee43c099811cd21bb9164deff82", "is_disabled": 0, "rental_uris": {"ios": "https://dc.lft.to/lastmile_qr_scan", "android": "https://dc.lft.to/lastmile_qr_scan"}, "is_reserved": 0}, {"lon": -77.03646916666666, "bike_id": "6cef398fdc09bbdd998fbfef30657ea4", "lat": 38.90287983333333, "fusion_lon": 0.0, "fusion_lat": 0.0, "type": "electric_scooter", "name": "6cef398fdc09bbdd998fbfef30657ea4", "is_disabled": 0, "rental_uris": {"ios": "https://dc.lft.to/lastmile_qr_scan", "android": "https://dc.lft.to/lastmile_qr_scan"}, "is_reserved": 0}, {"lon": -77.0857815, "bike_id": "8a8b4521be9c4d50dd76541ca82e46fe", "lat": 38.933549, "fusion_lon": 0.0, "fusion_lat": 0.0, "type": "electric_scooter", "name": "8a8b4521be9c4d50dd76541ca82e46fe", "is_disabled": 0, "rental_uris": {"ios": "https://dc.lft.to/lastmile_qr_scan", "android": "https://dc.lft.to/lastmile_qr_scan"}, "is_reserved": 0}, {"lon": -77.02386866666667, "bike_id": "7e785df93385a289e5a8558515372bb1", "lat": 38.909343166666666, "fusion_lon": 0.0, "fusion_lat": 0.0, "type": "electric_scooter", "name": "7e785df93385a289e5a8558515372bb1", "is_disabled": 0, "rental_uris": {"ios": "https://dc.lft.to/lastmile_qr_scan", "android": "https://dc.lft.to/lastmile_qr_scan"}, "is_reserved": 0}, {"lon": -77.02155483333334, "bike_id": "c7b8bb418fa194ba89a80a5d015d60f2", "lat": 38.87926133333333, "fusion_lon": 0.0, "fusion_lat": 0.0, "type": "electric_scooter", "name": "c7b8bb418fa194ba89a80a5d015d60f2", "is_disabled": 0, "rental_uris": {"ios": "https://dc.lft.to/lastmile_qr_scan", "android": "https://dc.lft.to/lastmile_qr_scan"}, "is_reserved": 0}, {"lon": -76.9817445, "bike_id": "cd291421905816da911d4c94fa60432b", "lat": 38.90442983333333, "fusion_lon": 0.0, "fusion_lat": 0.0, "type": "electric_scooter", "name": "cd291421905816da911d4c94fa60432b", "is_disabled": 0, "rental_uris": {"ios": "https://dc.lft.to/lastmile_qr_scan", "android": "https://dc.lft.to/lastmile_qr_scan"}, "is_reserved": 0}, {"lon": -76.98105, "bike_id": "f21162cf113174282935502253bd0aa1", "lat": 38.90406733333333, "fusion_lon": 0.0, "fusion_lat": 0.0, "type": "electric_scooter", "name": "f21162cf113174282935502253bd0aa1", "is_disabled": 0, "rental_uris": {"ios": "https://dc.lft.to/lastmile_qr_scan", "android": "https://dc.lft.to/lastmile_qr_scan"}, "is_reserved": 0}, {"lon": -77.0225975, "bike_id": "5d32d6291563a1d91eda8423772af1f7", "lat": 38.8948215, "fusion_lon": 0.0, "fusion_lat": 0.0, "type": "electric_scooter", "name": "5d32d6291563a1d91eda8423772af1f7", "is_disabled": 0, "rental_uris": {"ios": "https://dc.lft.to/lastmile_qr_scan", "android": "https://dc.lft.to/lastmile_qr_scan"}, "is_reserved": 0}, {"lon": -77.02022433333333, "bike_id": "f02d7586b348802cc750cc6ec377bf55", "lat": 38.9014515, "fusion_lon": 0.0, "fusion_lat": 0.0, "type": "electric_scooter", "name": "f02d7586b348802cc750cc6ec377bf55", "is_disabled": 0, "rental_uris": {"ios": "https://dc.lft.to/lastmile_qr_scan", "android": "https://dc.lft.to/lastmile_qr_scan"}, "is_reserved": 0}, {"lon": -77.02343516666667, "bike_id": "dc9bf92571bea4e768bf3a55994b7e46", "lat": 38.92251666666667, "fusion_lon": 0.0, "fusion_lat": 0.0, "type": "electric_scooter", "name": "dc9bf92571bea4e768bf3a55994b7e46", "is_disabled": 0, "rental_uris": {"ios": "https://dc.lft.to/lastmile_qr_scan", "android": "https://dc.lft.to/lastmile_qr_scan"}, "is_reserved": 0}, {"lon": -76.98688333333334, "bike_id": "9ceb9df2f41c58d2885d3ec3cda403c9", "lat": 38.91214033333333, "fusion_lon": 0.0, "fusion_lat": 0.0, "type": "electric_scooter", "name": "9ceb9df2f41c58d2885d3ec3cda403c9", "is_disabled": 0, "rental_uris": {"ios": "https://dc.lft.to/lastmile_qr_scan", "android": "https://dc.lft.to/lastmile_qr_scan"}, "is_reserved": 0}, {"lon": -77.0344985, "bike_id": "f54c8d0a4788c99f7004a470f7a24d0e", "lat": 38.9055385, "fusion_lon": 0.0, "fusion_lat": 0.0, "type": "electric_scooter", "name": "f54c8d0a4788c99f7004a470f7a24d0e", "is_disabled": 0, "rental_uris": {"ios": "https://dc.lft.to/lastmile_qr_scan", "android": "https://dc.lft.to/lastmile_qr_scan"}, "is_reserved": 0}, {"lon": -77.021655, "bike_id": "e0815fc0b6e5b8810c52ad79b5850c8d", "lat": 38.909741833333335, "fusion_lon": 0.0, "fusion_lat": 0.0, "type": "electric_scooter", "name": "e0815fc0b6e5b8810c52ad79b5850c8d", "is_disabled": 0, "rental_uris": {"ios": "https://dc.lft.to/lastmile_qr_scan", "android": "https://dc.lft.to/lastmile_qr_scan"}, "is_reserved": 0}, {"lon": -77.0074605, "bike_id": "1c84b2a324570b2e217d4bc0b6f3429f", "lat": 38.98386983333333, "fusion_lon": 0.0, "fusion_lat": 0.0, "type": "electric_bike", "name": "1c84b2a324570b2e217d4bc0b6f3429f", "is_disabled": 0, "rental_uris": {"ios": "https://dc.lft.to/lastmile_qr_scan", "android": "https://dc.lft.to/lastmile_qr_scan"}, "is_reserved": 0}, {"lon": -77.06281616666666, "bike_id": "16afe8a97414aed1f513cef4c1a97767", "lat": 38.904487833333334, "fusion_lon": 0.0, "fusion_lat": 0.0, "type": "electric_scooter", "name": "16afe8a97414aed1f513cef4c1a97767", "is_disabled": 0, "rental_uris": {"ios": "https://dc.lft.to/lastmile_qr_scan", "android": "https://dc.lft.to/lastmile_qr_scan"}, "is_reserved": 0}, {"lon": -77.02377933333334, "bike_id": "55f3795e7ad05e669404b4ed6b3c1615", "lat": 38.909583833333336, "fusion_lon": 0.0, "fusion_lat": 0.0, "type": "electric_scooter", "name": "55f3795e7ad05e669404b4ed6b3c1615", "is_disabled": 0, "rental_uris": {"ios": "https://dc.lft.to/lastmile_qr_scan", "android": "https://dc.lft.to/lastmile_qr_scan"}, "is_reserved": 0}, {"lon": -77.0366595, "bike_id": "cbe063daf51b035a6c24d6097721eb85", "lat": 38.9128925, "fusion_lon": 0.0, "fusion_lat": 0.0, "type": "electric_scooter", "name": "cbe063daf51b035a6c24d6097721eb85", "is_disabled": 0, "rental_uris": {"ios": "https://dc.lft.to/lastmile_qr_scan", "android": "https://dc.lft.to/lastmile_qr_scan"}, "is_reserved": 0}, {"lon": -77.03030883333334, "bike_id": "5b852ddbe8e707826c006ad77df61df9", "lat": 38.93122283333334, "fusion_lon": 0.0, "fusion_lat": 0.0, "type": "electric_scooter", "name": "5b852ddbe8e707826c006ad77df61df9", "is_disabled": 0, "rental_uris": {"ios": "https://dc.lft.to/lastmile_qr_scan", "android": "https://dc.lft.to/lastmile_qr_scan"}, "is_reserved": 0}, {"lon": -77.043634, "bike_id": "d0f5bcb615ca3423cb2cf10ba60bb9d8", "lat": 38.90256683333333, "fusion_lon": 0.0, "fusion_lat": 0.0, "type": "electric_scooter", "name": "d0f5bcb615ca3423cb2cf10ba60bb9d8", "is_disabled": 0, "rental_uris": {"ios": "https://dc.lft.to/lastmile_qr_scan", "android": "https://dc.lft.to/lastmile_qr_scan"}, "is_reserved": 0}, {"lon": -77.02363533333333, "bike_id": "ce6011736dc02e00d45f86c429288a99", "lat": 38.892264, "fusion_lon": 0.0, "fusion_lat": 0.0, "type": "electric_scooter", "name": "ce6011736dc02e00d45f86c429288a99", "is_disabled": 0, "rental_uris": {"ios": "https://dc.lft.to/lastmile_qr_scan", "android": "https://dc.lft.to/lastmile_qr_scan"}, "is_reserved": 0}, {"lon": -77.03653683333333, "bike_id": "e6be0a3293b63bd07320b190050c19d7", "lat": 38.940921, "fusion_lon": 0.0, "fusion_lat": 0.0, "type": "electric_scooter", "name": "e6be0a3293b63bd07320b190050c19d7", "is_disabled": 0, "rental_uris": {"ios": "https://dc.lft.to/lastmile_qr_scan", "android": "https://dc.lft.to/lastmile_qr_scan"}, "is_reserved": 0}, {"lon": -77.02875116666667, "bike_id": "b298c57caa848ac7fac22ef9e490303f", "lat": 38.92817983333333, "fusion_lon": 0.0, "fusion_lat": 0.0, "type": "electric_scooter", "name": "b298c57caa848ac7fac22ef9e490303f", "is_disabled": 0, "rental_uris": {"ios": "https://dc.lft.to/lastmile_qr_scan", "android": "https://dc.lft.to/lastmile_qr_scan"}, "is_reserved": 0}, {"lon": -77.04341033333333, "bike_id": "44b16defad87716108340a3b8c0e963e", "lat": 38.91778516666667, "fusion_lon": 0.0, "fusion_lat": 0.0, "type": "electric_scooter", "name": "44b16defad87716108340a3b8c0e963e", "is_disabled": 0, "rental_uris": {"ios": "https://dc.lft.to/lastmile_qr_scan", "android": "https://dc.lft.to/lastmile_qr_scan"}, "is_reserved": 0}, {"lon": -76.99686783333334, "bike_id": "b3ec0768cbd54392baa10437fa704424", "lat": 38.860235, "fusion_lon": 0.0, "fusion_lat": 0.0, "type": "electric_scooter", "name": "b3ec0768cbd54392baa10437fa704424", "is_disabled": 0, "rental_uris": {"ios": "https://dc.lft.to/lastmile_qr_scan", "android": "https://dc.lft.to/lastmile_qr_scan"}, "is_reserved": 0}, {"lon": -77.02111766666667, "bike_id": "67662804517029eaa6fbbdf4b34c6128", "lat": 38.897480333333334, "fusion_lon": 0.0, "fusion_lat": 0.0, "type": "electric_scooter", "name": "67662804517029eaa6fbbdf4b34c6128", "is_disabled": 0, "rental_uris": {"ios": "https://dc.lft.to/lastmile_qr_scan", "android": "https://dc.lft.to/lastmile_qr_scan"}, "is_reserved": 0}, {"lon": -77.00213266666667, "bike_id": "631deec9e85d8fcd39c05219451c4c77", "lat": 38.895398166666666, "fusion_lon": 0.0, "fusion_lat": 0.0, "type": "electric_scooter", "name": "631deec9e85d8fcd39c05219451c4c77", "is_disabled": 0, "rental_uris": {"ios": "https://dc.lft.to/lastmile_qr_scan", "android": "https://dc.lft.to/lastmile_qr_scan"}, "is_reserved": 0}, {"lon": -76.93735733333334, "bike_id": "f1ae713e5cdf12fd1b0e98e89f7e2361", "lat": 38.8901295, "fusion_lon": 0.0, "fusion_lat": 0.0, "type": "electric_scooter", "name": "f1ae713e5cdf12fd1b0e98e89f7e2361", "is_disabled": 0, "rental_uris": {"ios": "https://dc.lft.to/lastmile_qr_scan", "android": "https://dc.lft.to/lastmile_qr_scan"}, "is_reserved": 0}, {"lon": -76.998601, "bike_id": "88d1b5bb8d54d409bc563783a8b7b976", "lat": 38.90243783333333, "fusion_lon": 0.0, "fusion_lat": 0.0, "type": "electric_scooter", "name": "88d1b5bb8d54d409bc563783a8b7b976", "is_disabled": 0, "rental_uris": {"ios": "https://dc.lft.to/lastmile_qr_scan", "android": "https://dc.lft.to/lastmile_qr_scan"}, "is_reserved": 0}, {"lon": -77.02462783333333, "bike_id": "3cab499aa3f38f2ddfc26e0a433a27e0", "lat": 38.938783666666666, "fusion_lon": 0.0, "fusion_lat": 0.0, "type": "electric_scooter", "name": "3cab499aa3f38f2ddfc26e0a433a27e0", "is_disabled": 0, "rental_uris": {"ios": "https://dc.lft.to/lastmile_qr_scan", "android": "https://dc.lft.to/lastmile_qr_scan"}, "is_reserved": 0}, {"lon": -77.0648335, "bike_id": "306300d4d8ab8fdfc358d395a20d87b2", "lat": 38.9465275, "fusion_lon": 0.0, "fusion_lat": 0.0, "type": "electric_scooter", "name": "306300d4d8ab8fdfc358d395a20d87b2", "is_disabled": 0, "rental_uris": {"ios": "https://dc.lft.to/lastmile_qr_scan", "android": "https://dc.lft.to/lastmile_qr_scan"}, "is_reserved": 0}, {"lon": -77.02204133333333, "bike_id": "a52a5f3dbf979144f767cf9128027190", "lat": 38.896184, "fusion_lon": 0.0, "fusion_lat": 0.0, "type": "electric_scooter", "name": "a52a5f3dbf979144f767cf9128027190", "is_disabled": 0, "rental_uris": {"ios": "https://dc.lft.to/lastmile_qr_scan", "android": "https://dc.lft.to/lastmile_qr_scan"}, "is_reserved": 0}, {"lon": -76.97602283333333, "bike_id": "5f5a592a0292d51debbedbc443d1ba6a", "lat": 38.90569166666667, "fusion_lon": 0.0, "fusion_lat": 0.0, "type": "electric_scooter", "name": "5f5a592a0292d51debbedbc443d1ba6a", "is_disabled": 0, "rental_uris": {"ios": "https://dc.lft.to/lastmile_qr_scan", "android": "https://dc.lft.to/lastmile_qr_scan"}, "is_reserved": 0}, {"lon": -77.01554733333333, "bike_id": "530864f76d55c0eb53fb709c3778e317", "lat": 38.89172633333333, "fusion_lon": 0.0, "fusion_lat": 0.0, "type": "electric_scooter", "name": "530864f76d55c0eb53fb709c3778e317", "is_disabled": 0, "rental_uris": {"ios": "https://dc.lft.to/lastmile_qr_scan", "android": "https://dc.lft.to/lastmile_qr_scan"}, "is_reserved": 0}, {"lon": -76.9731465, "bike_id": "f37bd383b0a1906ae38e0ed468c1b143", "lat": 38.91778466666667, "fusion_lon": 0.0, "fusion_lat": 0.0, "type": "electric_scooter", "name": "f37bd383b0a1906ae38e0ed468c1b143", "is_disabled": 0, "rental_uris": {"ios": "https://dc.lft.to/lastmile_qr_scan", "android": "https://dc.lft.to/lastmile_qr_scan"}, "is_reserved": 0}, {"lon": -77.02296066666666, "bike_id": "02728f9dc0359e65ea8174d09cb53782", "lat": 38.916592, "fusion_lon": 0.0, "fusion_lat": 0.0, "type": "electric_scooter", "name": "02728f9dc0359e65ea8174d09cb53782", "is_disabled": 0, "rental_uris": {"ios": "https://dc.lft.to/lastmile_qr_scan", "android": "https://dc.lft.to/lastmile_qr_scan"}, "is_reserved": 0}, {"lon": -76.986969, "bike_id": "2dbda4355a1fa70ee67bb4e7fce415bf", "lat": 38.8625175, "fusion_lon": 0.0, "fusion_lat": 0.0, "type": "electric_scooter", "name": "2dbda4355a1fa70ee67bb4e7fce415bf", "is_disabled": 0, "rental_uris": {"ios": "https://dc.lft.to/lastmile_qr_scan", "android": "https://dc.lft.to/lastmile_qr_scan"}, "is_reserved": 0}, {"lon": -77.00533516666667, "bike_id": "6948a5511a5e3a88e270d2a10ca806a9", "lat": 38.9298175, "fusion_lon": 0.0, "fusion_lat": 0.0, "type": "electric_scooter", "name": "6948a5511a5e3a88e270d2a10ca806a9", "is_disabled": 0, "rental_uris": {"ios": "https://dc.lft.to/lastmile_qr_scan", "android": "https://dc.lft.to/lastmile_qr_scan"}, "is_reserved": 0}, {"lon": -77.00103, "bike_id": "aed273a1ad8cdba9c204a0dc8c31b213", "lat": 38.900253666666664, "fusion_lon": 0.0, "fusion_lat": 0.0, "type": "electric_scooter", "name": "aed273a1ad8cdba9c204a0dc8c31b213", "is_disabled": 0, "rental_uris": {"ios": "https://dc.lft.to/lastmile_qr_scan", "android": "https://dc.lft.to/lastmile_qr_scan"}, "is_reserved": 0}, {"lon": -77.02826733333333, "bike_id": "68d64951677ea85b08be9976728f3ee6", "lat": 38.8873235, "fusion_lon": 0.0, "fusion_lat": 0.0, "type": "electric_scooter", "name": "68d64951677ea85b08be9976728f3ee6", "is_disabled": 0, "rental_uris": {"ios": "https://dc.lft.to/lastmile_qr_scan", "android": "https://dc.lft.to/lastmile_qr_scan"}, "is_reserved": 0}, {"lon": -77.00562983333333, "bike_id": "4c5cffaa89b008e58bd7bd6ff4bc05d3", "lat": 38.879003, "fusion_lon": 0.0, "fusion_lat": 0.0, "type": "electric_scooter", "name": "4c5cffaa89b008e58bd7bd6ff4bc05d3", "is_disabled": 0, "rental_uris": {"ios": "https://dc.lft.to/lastmile_qr_scan", "android": "https://dc.lft.to/lastmile_qr_scan"}, "is_reserved": 0}, {"lon": -76.99539966666667, "bike_id": "241b0ca95fb9a5445c35c95a08091494", "lat": 38.86261066666667, "fusion_lon": 0.0, "fusion_lat": 0.0, "type": "electric_scooter", "name": "241b0ca95fb9a5445c35c95a08091494", "is_disabled": 0, "rental_uris": {"ios": "https://dc.lft.to/lastmile_qr_scan", "android": "https://dc.lft.to/lastmile_qr_scan"}, "is_reserved": 0}, {"lon": -77.016316, "bike_id": "e9589e311b7d4f3ee770ec7df3f75ff5", "lat": 38.900498166666665, "fusion_lon": 0.0, "fusion_lat": 0.0, "type": "electric_scooter", "name": "e9589e311b7d4f3ee770ec7df3f75ff5", "is_disabled": 0, "rental_uris": {"ios": "https://dc.lft.to/lastmile_qr_scan", "android": "https://dc.lft.to/lastmile_qr_scan"}, "is_reserved": 0}, {"lon": -76.963838, "bike_id": "e57cbc1c49aec3064ed5f009b960fdc3", "lat": 38.95180666666667, "fusion_lon": 0.0, "fusion_lat": 0.0, "type": "electric_bike", "name": "e57cbc1c49aec3064ed5f009b960fdc3", "is_disabled": 0, "rental_uris": {"ios": "https://dc.lft.to/lastmile_qr_scan", "android": "https://dc.lft.to/lastmile_qr_scan"}, "is_reserved": 0}, {"lon": -77.033345, "bike_id": "80f5cdd4cb504bf3da395d1579b79cb6", "lat": 38.960525833333335, "fusion_lon": 0.0, "fusion_lat": 0.0, "type": "electric_scooter", "name": "80f5cdd4cb504bf3da395d1579b79cb6", "is_disabled": 0, "rental_uris": {"ios": "https://dc.lft.to/lastmile_qr_scan", "android": "https://dc.lft.to/lastmile_qr_scan"}, "is_reserved": 0}, {"lon": -77.00553933333333, "bike_id": "edcfe0fa20f1d6d241928e5621b31e01", "lat": 38.911793, "fusion_lon": 0.0, "fusion_lat": 0.0, "type": "electric_scooter", "name": "edcfe0fa20f1d6d241928e5621b31e01", "is_disabled": 0, "rental_uris": {"ios": "https://dc.lft.to/lastmile_qr_scan", "android": "https://dc.lft.to/lastmile_qr_scan"}, "is_reserved": 0}, {"lon": -77.03446633333333, "bike_id": "fdf5532f30f9c4c8509b30b73f753301", "lat": 38.90299516666666, "fusion_lon": 0.0, "fusion_lat": 0.0, "type": "electric_scooter", "name": "fdf5532f30f9c4c8509b30b73f753301", "is_disabled": 0, "rental_uris": {"ios": "https://dc.lft.to/lastmile_qr_scan", "android": "https://dc.lft.to/lastmile_qr_scan"}, "is_reserved": 0}, {"lon": -77.02155966666666, "bike_id": "5e327bdc54b6e34fd54f568eab2b601d", "lat": 38.90413733333333, "fusion_lon": 0.0, "fusion_lat": 0.0, "type": "electric_scooter", "name": "5e327bdc54b6e34fd54f568eab2b601d", "is_disabled": 0, "rental_uris": {"ios": "https://dc.lft.to/lastmile_qr_scan", "android": "https://dc.lft.to/lastmile_qr_scan"}, "is_reserved": 0}, {"lon": -77.04818666666667, "bike_id": "8f06fb1aff5e4754a218107815c1ba64", "lat": 38.91644016666667, "fusion_lon": 0.0, "fusion_lat": 0.0, "type": "electric_scooter", "name": "8f06fb1aff5e4754a218107815c1ba64", "is_disabled": 0, "rental_uris": {"ios": "https://dc.lft.to/lastmile_qr_scan", "android": "https://dc.lft.to/lastmile_qr_scan"}, "is_reserved": 0}, {"lon": -77.02789433333334, "bike_id": "134ea5fd9630d4587e4acfd8e6c0020d", "lat": 38.95419033333334, "fusion_lon": 0.0, "fusion_lat": 0.0, "type": "electric_scooter", "name": "134ea5fd9630d4587e4acfd8e6c0020d", "is_disabled": 0, "rental_uris": {"ios": "https://dc.lft.to/lastmile_qr_scan", "android": "https://dc.lft.to/lastmile_qr_scan"}, "is_reserved": 0}, {"lon": -77.0386825, "bike_id": "97c098e59907a62295d4ec6ec50b73a1", "lat": 38.914105166666666, "fusion_lon": 0.0, "fusion_lat": 0.0, "type": "electric_scooter", "name": "97c098e59907a62295d4ec6ec50b73a1", "is_disabled": 0, "rental_uris": {"ios": "https://dc.lft.to/lastmile_qr_scan", "android": "https://dc.lft.to/lastmile_qr_scan"}, "is_reserved": 0}, {"lon": -76.99127849999999, "bike_id": "a3ec528c5eaa72004f36530cdb9f5d07", "lat": 38.92268883333333, "fusion_lon": 0.0, "fusion_lat": 0.0, "type": "electric_scooter", "name": "a3ec528c5eaa72004f36530cdb9f5d07", "is_disabled": 0, "rental_uris": {"ios": "https://dc.lft.to/lastmile_qr_scan", "android": "https://dc.lft.to/lastmile_qr_scan"}, "is_reserved": 0}, {"lon": -77.026788, "bike_id": "7cfca7557746ebd185007e084519d90a", "lat": 38.98457466666667, "fusion_lon": 0.0, "fusion_lat": 0.0, "type": "electric_scooter", "name": "7cfca7557746ebd185007e084519d90a", "is_disabled": 0, "rental_uris": {"ios": "https://dc.lft.to/lastmile_qr_scan", "android": "https://dc.lft.to/lastmile_qr_scan"}, "is_reserved": 0}, {"lon": -77.02001666666666, "bike_id": "62f199c4452ed5a73e7f8c8a2724d299", "lat": 38.90447733333333, "fusion_lon": 0.0, "fusion_lat": 0.0, "type": "electric_scooter", "name": "62f199c4452ed5a73e7f8c8a2724d299", "is_disabled": 0, "rental_uris": {"ios": "https://dc.lft.to/lastmile_qr_scan", "android": "https://dc.lft.to/lastmile_qr_scan"}, "is_reserved": 0}, {"lon": -77.02811583333333, "bike_id": "00bf617b80052fef83b0c60734101b9a", "lat": 38.8817515, "fusion_lon": 0.0, "fusion_lat": 0.0, "type": "electric_scooter", "name": "00bf617b80052fef83b0c60734101b9a", "is_disabled": 0, "rental_uris": {"ios": "https://dc.lft.to/lastmile_qr_scan", "android": "https://dc.lft.to/lastmile_qr_scan"}, "is_reserved": 0}, {"lon": -77.03714333333333, "bike_id": "46e95df24400d75eb51c1a6f1e4c599b", "lat": 38.9264855, "fusion_lon": 0.0, "fusion_lat": 0.0, "type": "electric_scooter", "name": "46e95df24400d75eb51c1a6f1e4c599b", "is_disabled": 0, "rental_uris": {"ios": "https://dc.lft.to/lastmile_qr_scan", "android": "https://dc.lft.to/lastmile_qr_scan"}, "is_reserved": 0}, {"lon": -77.02978933333333, "bike_id": "9d8051979d7acfedc099f9f8afe60b74", "lat": 38.921985166666666, "fusion_lon": 0.0, "fusion_lat": 0.0, "type": "electric_scooter", "name": "9d8051979d7acfedc099f9f8afe60b74", "is_disabled": 0, "rental_uris": {"ios": "https://dc.lft.to/lastmile_qr_scan", "android": "https://dc.lft.to/lastmile_qr_scan"}, "is_reserved": 0}, {"lon": -77.02441783333333, "bike_id": "3e55ac104443d1d45b217917c2bc9fa6", "lat": 38.9249445, "fusion_lon": 0.0, "fusion_lat": 0.0, "type": "electric_scooter", "name": "3e55ac104443d1d45b217917c2bc9fa6", "is_disabled": 0, "rental_uris": {"ios": "https://dc.lft.to/lastmile_qr_scan", "android": "https://dc.lft.to/lastmile_qr_scan"}, "is_reserved": 0}, {"lon": -77.0210075, "bike_id": "10bf53d34f92b15af6df209757e857f2", "lat": 38.90973483333333, "fusion_lon": 0.0, "fusion_lat": 0.0, "type": "electric_scooter", "name": "10bf53d34f92b15af6df209757e857f2", "is_disabled": 0, "rental_uris": {"ios": "https://dc.lft.to/lastmile_qr_scan", "android": "https://dc.lft.to/lastmile_qr_scan"}, "is_reserved": 0}, {"lon": -77.04499883333334, "bike_id": "fffcdb75b57142a56897b6f43a317904", "lat": 38.90101266666667, "fusion_lon": 0.0, "fusion_lat": 0.0, "type": "electric_scooter", "name": "fffcdb75b57142a56897b6f43a317904", "is_disabled": 0, "rental_uris": {"ios": "https://dc.lft.to/lastmile_qr_scan", "android": "https://dc.lft.to/lastmile_qr_scan"}, "is_reserved": 0}, {"lon": -77.023451, "bike_id": "6029eefec00f3d1c3ce2b6a96994c9e9", "lat": 38.931158333333336, "fusion_lon": 0.0, "fusion_lat": 0.0, "type": "electric_scooter", "name": "6029eefec00f3d1c3ce2b6a96994c9e9", "is_disabled": 0, "rental_uris": {"ios": "https://dc.lft.to/lastmile_qr_scan", "android": "https://dc.lft.to/lastmile_qr_scan"}, "is_reserved": 0}, {"lon": -77.02150516666667, "bike_id": "371d5890f46033494a6b45ddeffbfb77", "lat": 38.89723166666667, "fusion_lon": 0.0, "fusion_lat": 0.0, "type": "electric_scooter", "name": "371d5890f46033494a6b45ddeffbfb77", "is_disabled": 0, "rental_uris": {"ios": "https://dc.lft.to/lastmile_qr_scan", "android": "https://dc.lft.to/lastmile_qr_scan"}, "is_reserved": 0}, {"lon": -77.0513375, "bike_id": "149ab162d41bdbee245899405cb0d5fe", "lat": 38.92360016666667, "fusion_lon": 0.0, "fusion_lat": 0.0, "type": "electric_scooter", "name": "149ab162d41bdbee245899405cb0d5fe", "is_disabled": 0, "rental_uris": {"ios": "https://dc.lft.to/lastmile_qr_scan", "android": "https://dc.lft.to/lastmile_qr_scan"}, "is_reserved": 0}, {"lon": -77.00952633333333, "bike_id": "c1f381d946fa029017555cf5bedee153", "lat": 38.87632983333334, "fusion_lon": 0.0, "fusion_lat": 0.0, "type": "electric_scooter", "name": "c1f381d946fa029017555cf5bedee153", "is_disabled": 0, "rental_uris": {"ios": "https://dc.lft.to/lastmile_qr_scan", "android": "https://dc.lft.to/lastmile_qr_scan"}, "is_reserved": 0}, {"lon": -76.99862416666667, "bike_id": "4ae3d3634dc4235df25be80ef5aa49b4", "lat": 38.90241266666666, "fusion_lon": 0.0, "fusion_lat": 0.0, "type": "electric_scooter", "name": "4ae3d3634dc4235df25be80ef5aa49b4", "is_disabled": 0, "rental_uris": {"ios": "https://dc.lft.to/lastmile_qr_scan", "android": "https://dc.lft.to/lastmile_qr_scan"}, "is_reserved": 0}, {"lon": -76.98006766666667, "bike_id": "fddf079a5fb1f10606e4d1320d98b836", "lat": 38.9043365, "fusion_lon": 0.0, "fusion_lat": 0.0, "type": "electric_scooter", "name": "fddf079a5fb1f10606e4d1320d98b836", "is_disabled": 0, "rental_uris": {"ios": "https://dc.lft.to/lastmile_qr_scan", "android": "https://dc.lft.to/lastmile_qr_scan"}, "is_reserved": 0}, {"lon": -76.981132, "bike_id": "e7bd7978087c25ca139c50681a5ca1b0", "lat": 38.9040375, "fusion_lon": 0.0, "fusion_lat": 0.0, "type": "electric_scooter", "name": "e7bd7978087c25ca139c50681a5ca1b0", "is_disabled": 0, "rental_uris": {"ios": "https://dc.lft.to/lastmile_qr_scan", "android": "https://dc.lft.to/lastmile_qr_scan"}, "is_reserved": 0}, {"lon": -77.05509916666666, "bike_id": "4adc5857dbb88fc36e991dcb83dda308", "lat": 38.904391333333336, "fusion_lon": 0.0, "fusion_lat": 0.0, "type": "electric_scooter", "name": "4adc5857dbb88fc36e991dcb83dda308", "is_disabled": 0, "rental_uris": {"ios": "https://dc.lft.to/lastmile_qr_scan", "android": "https://dc.lft.to/lastmile_qr_scan"}, "is_reserved": 0}, {"lon": -77.04346983333333, "bike_id": "2d78d8a1f7b4a6022d2e387102d5b7d6", "lat": 38.9220025, "fusion_lon": 0.0, "fusion_lat": 0.0, "type": "electric_scooter", "name": "2d78d8a1f7b4a6022d2e387102d5b7d6", "is_disabled": 0, "rental_uris": {"ios": "https://dc.lft.to/lastmile_qr_scan", "android": "https://dc.lft.to/lastmile_qr_scan"}, "is_reserved": 0}, {"lon": -77.003554, "bike_id": "b5078410158e7178c9987b88de271a93", "lat": 38.899362833333335, "fusion_lon": 0.0, "fusion_lat": 0.0, "type": "electric_scooter", "name": "b5078410158e7178c9987b88de271a93", "is_disabled": 0, "rental_uris": {"ios": "https://dc.lft.to/lastmile_qr_scan", "android": "https://dc.lft.to/lastmile_qr_scan"}, "is_reserved": 0}, {"lon": -77.02802183333333, "bike_id": "7cb552ac53fa637286d65a641e6d1a63", "lat": 38.8974405, "fusion_lon": 0.0, "fusion_lat": 0.0, "type": "electric_bike", "name": "7cb552ac53fa637286d65a641e6d1a63", "is_disabled": 0, "rental_uris": {"ios": "https://dc.lft.to/lastmile_qr_scan", "android": "https://dc.lft.to/lastmile_qr_scan"}, "is_reserved": 0}, {"lon": -77.0295225, "bike_id": "ecb369e8f6280114608c2a7ab8ec8399", "lat": 38.92177483333333, "fusion_lon": 0.0, "fusion_lat": 0.0, "type": "electric_scooter", "name": "ecb369e8f6280114608c2a7ab8ec8399", "is_disabled": 0, "rental_uris": {"ios": "https://dc.lft.to/lastmile_qr_scan", "android": "https://dc.lft.to/lastmile_qr_scan"}, "is_reserved": 0}, {"lon": -76.988471, "bike_id": "ef0317dc425cf459592228398464980d", "lat": 38.901249, "fusion_lon": 0.0, "fusion_lat": 0.0, "type": "electric_scooter", "name": "ef0317dc425cf459592228398464980d", "is_disabled": 0, "rental_uris": {"ios": "https://dc.lft.to/lastmile_qr_scan", "android": "https://dc.lft.to/lastmile_qr_scan"}, "is_reserved": 0}, {"lon": -77.0662625, "bike_id": "15ab760c64ea4a6b0fe11c33f6c3a40e", "lat": 38.90599366666667, "fusion_lon": 0.0, "fusion_lat": 0.0, "type": "electric_scooter", "name": "15ab760c64ea4a6b0fe11c33f6c3a40e", "is_disabled": 0, "rental_uris": {"ios": "https://dc.lft.to/lastmile_qr_scan", "android": "https://dc.lft.to/lastmile_qr_scan"}, "is_reserved": 0}, {"lon": -77.044794, "bike_id": "30fbfa01771c16c1987382f91f6a6bed", "lat": 38.92140466666667, "fusion_lon": 0.0, "fusion_lat": 0.0, "type": "electric_scooter", "name": "30fbfa01771c16c1987382f91f6a6bed", "is_disabled": 0, "rental_uris": {"ios": "https://dc.lft.to/lastmile_qr_scan", "android": "https://dc.lft.to/lastmile_qr_scan"}, "is_reserved": 0},