{"data": {"bikes": [{"is_reserved": 0, "type": "electric_bike", "bike_id": "3f4080c00681538fde754f3d761ad06a", "lat": 38.9910105, "lon": -76.881553, "rental_uris": {"android": "https://dc.lft.to/lastmile_qr_scan", "ios": "https://dc.lft.to/lastmile_qr_scan"}, "is_disabled": 0, "fusion_lat": 0.0, "name": "3f4080c00681538fde754f3d761ad06a", "fusion_lon": 0.0}, {"is_reserved": 0, "type": "electric_bike", "bike_id": "1d5c1105b5e702c81c6e68a6ff5df38f", "lat": 38.8432545, "lon": -76.9974135, "rental_uris": {"android": "https://dc.lft.to/lastmile_qr_scan", "ios": "https://dc.lft.to/lastmile_qr_scan"}, "is_disabled": 0, "fusion_lat": 0.0, "name": "1d5c1105b5e702c81c6e68a6ff5df38f", "fusion_lon": 0.0}, {"is_reserved": 0, "type": "electric_scooter", "bike_id": "aee38a3119b8ccc36325e8a00777154b", "lat": 38.8860485, "lon": -77.00406166666667, "rental_uris": {"android": "https://dc.lft.to/lastmile_qr_scan", "ios": "https://dc.lft.to/lastmile_qr_scan"}, "is_disabled": 0, "fusion_lat": 0.0, "name": "aee38a3119b8ccc36325e8a00777154b", "fusion_lon": 0.0}, {"is_reserved": 0, "type": "electric_scooter", "bike_id": "1e4ddd5431c18b5ff5cddabe5c4323be", "lat": 38.924678, "lon": -77.029193, "rental_uris": {"android": "https://dc.lft.to/lastmile_qr_scan", "ios": "https://dc.lft.to/lastmile_qr_scan"}, "is_disabled": 0, "fusion_lat": 0.0, "name": "1e4ddd5431c18b5ff5cddabe5c4323be", "fusion_lon": 0.0}, {"is_reserved": 0, "type": "electric_scooter", "bike_id": "5b5da9569f3682779439df1e49faa470", "lat": 38.94198433333333, "lon": -77.025174, "rental_uris": {"android": "https://dc.lft.to/lastmile_qr_scan", "ios": "https://dc.lft.to/lastmile_qr_scan"}, "is_disabled": 0, "fusion_lat": 0.0, "name": "5b5da9569f3682779439df1e49faa470", "fusion_lon": 0.0}, {"is_reserved": 0, "type": "electric_scooter", "bike_id": "4450c872b42cc7dafe1157e3d699c1f0", "lat": 38.9241535, "lon": -77.03554816666667, "rental_uris": {"android": "https://dc.lft.to/lastmile_qr_scan", "ios": "https://dc.lft.to/lastmile_qr_scan"}, "is_disabled": 0, "fusion_lat": 0.0, "name": "4450c872b42cc7dafe1157e3d699c1f0", "fusion_lon": 0.0}, {"is_reserved": 0, "type": "electric_scooter", "bike_id": "ca18cb4322efe02da09de43c3c8e9f4c", "lat": 38.92001116666667, "lon": -76.9850515, "rental_uris": {"android": "https://dc.lft.to/lastmile_qr_scan", "ios": "https://dc.lft.to/lastmile_qr_scan"}, "is_disabled": 0, "fusion_lat": 0.0, "name": "ca18cb4322efe02da09de43c3c8e9f4c", "fusion_lon": 0.0}, {"is_reserved": 0, "type": "electric_scooter", "bike_id": "090ca91048fe01bae86fd42a7ba04fa6", "lat": 38.915773333333334, "lon": -77.01998933333333, "rental_uris": {"android": "https://dc.lft.to/lastmile_qr_scan", "ios": "https://dc.lft.to/lastmile_qr_scan"}, "is_disabled": 0, "fusion_lat": 0.0, "name": "090ca91048fe01bae86fd42a7ba04fa6", "fusion_lon": 0.0}, {"is_reserved": 0, "type": "electric_scooter", "bike_id": "eec68065cca804a491a79edf662c3a7a", "lat": 38.93089283333333, "lon": -77.02490366666666, "rental_uris": {"android": "https://dc.lft.to/lastmile_qr_scan", "ios": "https://dc.lft.to/lastmile_qr_scan"}, "is_disabled": 0, "fusion_lat": 0.0, "name": "eec68065cca804a491a79edf662c3a7a", "fusion_lon": 0.0}, {"is_reserved": 0, "type": "electric_scooter", "bike_id": "2348b76eeb463022c081ecd36c32733e", "lat": 38.88628216666667, "lon": -77.01537683333333, "rental_uris": {"android": "https://dc.lft.to/lastmile_qr_scan", "ios": "https://dc.lft.to/lastmile_qr_scan"}, "is_disabled": 0, "fusion_lat": 0.0, "name": "2348b76eeb463022c081ecd36c32733e", "fusion_lon": 0.0}, {"is_reserved": 0, "type": "electric_scooter", "bike_id": "d107076418bd58528c4cbeef0a85426c", "lat": 38.9181795, "lon": -77.03169266666667, "rental_uris": {"android": "https://dc.lft.to/lastmile_qr_scan", "ios": "https://dc.lft.to/lastmile_qr_scan"}, "is_disabled": 0, "fusion_lat": 0.0, "name": "d107076418bd58528c4cbeef0a85426c", "fusion_lon": 0.0}, {"is_reserved": 0, "type": "electric_scooter", "bike_id": "ead1262533c427dbde90a4131bed1031", "lat": 38.90828283333333, "lon": -76.98720783333333, "rental_uris": {"android": "https://dc.lft.to/lastmile_qr_scan", "ios": "https://dc.lft.to/lastmile_qr_scan"}, "is_disabled": 0, "fusion_lat": 0.0, "name": "ead1262533c427dbde90a4131bed1031", "fusion_lon": 0.0}, {"is_reserved": 0, "type": "electric_scooter", "bike_id": "e86560a7d60551bf0de5951ba5ec9944", "lat": 38.926046166666666, "lon": -77.05189783333333, "rental_uris": {"android": "https://dc.lft.to/lastmile_qr_scan", "ios": "https://dc.lft.to/lastmile_qr_scan"}, "is_disabled": 0, "fusion_lat": 0.0, "name": "e86560a7d60551bf0de5951ba5ec9944", "fusion_lon": 0.0}, {"is_reserved": 0, "type": "electric_scooter", "bike_id": "e9aeb498084de886aedc7e900f59c04c", "lat": 38.88509833333333, "lon": -77.01116883333333, "rental_uris": {"android": "https://dc.lft.to/lastmile_qr_scan", "ios": "https://dc.lft.to/lastmile_qr_scan"}, "is_disabled": 0, "fusion_lat": 0.0, "name": "e9aeb498084de886aedc7e900f59c04c", "fusion_lon": 0.0}, {"is_reserved": 0, "type": "electric_scooter", "bike_id": "a911c3c768ea910721ba35be66511c52", "lat": 38.905699, "lon": -77.00618883333334, "rental_uris": {"android": "https://dc.lft.to/lastmile_qr_scan", "ios": "https://dc.lft.to/lastmile_qr_scan"}, "is_disabled": 0, "fusion_lat": 0.0, "name": "a911c3c768ea910721ba35be66511c52", "fusion_lon": 0.0}, {"is_reserved": 0, "type": "electric_scooter", "bike_id": "798f83d3d37c91f9bd70afabce18e3fa", "lat": 38.90569816666667, "lon": -77.02657483333333, "rental_uris": {"android": "https://dc.lft.to/lastmile_qr_scan", "ios": "https://dc.lft.to/lastmile_qr_scan"}, "is_disabled": 0, "fusion_lat": 0.0, "name": "798f83d3d37c91f9bd70afabce18e3fa", "fusion_lon": 0.0}, {"is_reserved": 0, "type": "electric_scooter", "bike_id": "df97128d3e7b3947040baa27777cd889", "lat": 38.91289066666667, "lon": -77.04749533333333, "rental_uris": {"android": "https://dc.lft.to/lastmile_qr_scan", "ios": "https://dc.lft.to/lastmile_qr_scan"}, "is_disabled": 0, "fusion_lat": 0.0, "name": "df97128d3e7b3947040baa27777cd889", "fusion_lon": 0.0}, {"is_reserved": 0, "type": "electric_scooter", "bike_id": "5cb57f8b308d2f21ce7a6765789ebff3", "lat": 38.9057875, "lon": -77.04167966666667, "rental_uris": {"android": "https://dc.lft.to/lastmile_qr_scan", "ios": "https://dc.lft.to/lastmile_qr_scan"}, "is_disabled": 0, "fusion_lat": 0.0, "name": "5cb57f8b308d2f21ce7a6765789ebff3", "fusion_lon": 0.0}, {"is_reserved": 0, "type": "electric_scooter", "bike_id": "4149f63946fba2c51b6a46db6d5595fa", "lat": 38.91695633333333, "lon": -77.025768, "rental_uris": {"android": "https://dc.lft.to/lastmile_qr_scan", "ios": "https://dc.lft.to/lastmile_qr_scan"}, "is_disabled": 0, "fusion_lat": 0.0, "name": "4149f63946fba2c51b6a46db6d5595fa", "fusion_lon": 0.0}, {"is_reserved": 0, "type": "electric_scooter", "bike_id": "7e84719b688f7b47fc7d23d64d9f1dba", "lat": 38.89229266666667, "lon": -77.04900916666666, "rental_uris": {"android": "https://dc.lft.to/lastmile_qr_scan", "ios": "https://dc.lft.to/lastmile_qr_scan"}, "is_disabled": 0, "fusion_lat": 0.0, "name": "7e84719b688f7b47fc7d23d64d9f1dba", "fusion_lon": 0.0}, {"is_reserved": 0, "type": "electric_bike", "bike_id": "a12a1ae6237c5cccade57b1269e076b1", "lat": 38.84941766666667, "lon": -77.11752933333334, "rental_uris": {"android": "https://dc.lft.to/lastmile_qr_scan", "ios": "https://dc.lft.to/lastmile_qr_scan"}, "is_disabled": 0, "fusion_lat": 0.0, "name": "a12a1ae6237c5cccade57b1269e076b1", "fusion_lon": 0.0}, {"is_reserved": 0, "type": "electric_scooter", "bike_id": "01ecead82ed3c171160df1ea6ed9750c", "lat": 38.9330785, "lon": -77.03884333333333, "rental_uris": {"android": "https://dc.lft.to/lastmile_qr_scan", "ios": "https://dc.lft.to/lastmile_qr_scan"}, "is_disabled": 0, "fusion_lat": 0.0, "name": "01ecead82ed3c171160df1ea6ed9750c", "fusion_lon": 0.0}, {"is_reserved": 0, "type": "electric_scooter", "bike_id": "6ad95ae8ef90038386c5041ded98d0e6", "lat": 38.899597666666665, "lon": -77.02625516666667, "rental_uris": {"android": "https://dc.lft.to/lastmile_qr_scan", "ios": "https://dc.lft.to/lastmile_qr_scan"}, "is_disabled": 0, "fusion_lat": 0.0, "name": "6ad95ae8ef90038386c5041ded98d0e6", "fusion_lon": 0.0}, {"is_reserved": 0, "type": "electric_scooter", "bike_id": "3b2bd1f9ca9d62188ebc6ca9d1c33b59", "lat": 38.920301, "lon": -77.01727716666667, "rental_uris": {"android": "https://dc.lft.to/lastmile_qr_scan", "ios": "https://dc.lft.to/lastmile_qr_scan"}, "is_disabled": 0, "fusion_lat": 0.0, "name": "3b2bd1f9ca9d62188ebc6ca9d1c33b59", "fusion_lon": 0.0}, {"is_reserved": 0, "type": "electric_scooter", "bike_id": "44f7ac010a76df6ff6a105cd6576f7a5", "lat": 38.905669, "lon": -76.9814745, "rental_uris": {"android": "https://dc.lft.to/lastmile_qr_scan", "ios": "https://dc.lft.to/lastmile_qr_scan"}, "is_disabled": 0, "fusion_lat": 0.0, "name": "44f7ac010a76df6ff6a105cd6576f7a5", "fusion_lon": 0.0}, {"is_reserved": 0, "type": "electric_scooter", "bike_id": "10727609e8233c0a4e040a1e3b157cb2", "lat": 38.91840216666667, "lon": -77.04520566666666, "rental_uris": {"android": "https://dc.lft.to/lastmile_qr_scan", "ios": "https://dc.lft.to/lastmile_qr_scan"}, "is_disabled": 0, "fusion_lat": 0.0, "name": "10727609e8233c0a4e040a1e3b157cb2", "fusion_lon": 0.0}, {"is_reserved": 0, "type": "electric_scooter", "bike_id": "c95182b1dae645607791f157140a61cf", "lat": 38.92187083333334, "lon": -76.9962925, "rental_uris": {"android": "https://dc.lft.to/lastmile_qr_scan", "ios": "https://dc.lft.to/lastmile_qr_scan"}, "is_disabled": 0, "fusion_lat": 0.0, "name": "c95182b1dae645607791f157140a61cf", "fusion_lon": 0.0}, {"is_reserved": 0, "type": "electric_scooter", "bike_id": "090e4ca247f093c89d0ef57d29ef6085", "lat": 38.92485533333333, "lon": -77.02273183333334, "rental_uris": {"android": "https://dc.lft.to/lastmile_qr_scan", "ios": "https://dc.lft.to/lastmile_qr_scan"}, "is_disabled": 0, "fusion_lat": 0.0, "name": "090e4ca247f093c89d0ef57d29ef6085", "fusion_lon": 0.0}, {"is_reserved": 0, "type": "electric_scooter", "bike_id": "c1218ba3a900328f423955dff7760333", "lat": 38.8994875, "lon": -76.98201783333333, "rental_uris": {"android": "https://dc.lft.to/lastmile_qr_scan", "ios": "https://dc.lft.to/lastmile_qr_scan"}, "is_disabled": 0, "fusion_lat": 0.0, "name": "c1218ba3a900328f423955dff7760333", "fusion_lon": 0.0}, {"is_reserved": 0, "type": "electric_scooter", "bike_id": "b1ec435bc72d861f8c7a750a70d732c4", "lat": 38.9213635, "lon": -77.0470305, "rental_uris": {"android": "https://dc.lft.to/lastmile_qr_scan", "ios": "https://dc.lft.to/lastmile_qr_scan"}, "is_disabled": 0, "fusion_lat": 0.0, "name": "b1ec435bc72d861f8c7a750a70d732c4", "fusion_lon": 0.0}, {"is_reserved": 0, "type": "electric_scooter", "bike_id": "808b05710947c34cbde519a7cb4c8fb9", "lat": 38.90427016666667, "lon": -77.0260105, "rental_uris": {"android": "https://dc.lft.to/lastmile_qr_scan", "ios": "https://dc.lft.to/lastmile_qr_scan"}, "is_disabled": 0, "fusion_lat": 0.0, "name": "808b05710947c34cbde519a7cb4c8fb9", "fusion_lon": 0.0}, {"is_reserved": 0, "type": "electric_scooter", "bike_id": "c20696b614d5c2c2c923135f376e3c81", "lat": 38.980224666666665, "lon": -77.0266705, "rental_uris": {"android": "https://dc.lft.to/lastmile_qr_scan", "ios": "https://dc.lft.to/lastmile_qr_scan"}, "is_disabled": 0, "fusion_lat": 0.0, "name": "c20696b614d5c2c2c923135f376e3c81", "fusion_lon": 0.0}, {"is_reserved": 0, "type": "electric_scooter", "bike_id": "94db8edb791ba34748872e001a8b514d", "lat": 38.899664333333334, "lon": -77.05088416666666, "rental_uris": {"android": "https://dc.lft.to/lastmile_qr_scan", "ios": "https://dc.lft.to/lastmile_qr_scan"}, "is_disabled": 0, "fusion_lat": 0.0, "name": "94db8edb791ba34748872e001a8b514d", "fusion_lon": 0.0}, {"is_reserved": 0, "type": "electric_scooter", "bike_id": "be64889b9afbe585094617559bc1f157", "lat": 38.89540566666667, "lon": -77.011178, "rental_uris": {"android": "https://dc.lft.to/lastmile_qr_scan", "ios": "https://dc.lft.to/lastmile_qr_scan"}, "is_disabled": 0, "fusion_lat": 0.0, "name": "be64889b9afbe585094617559bc1f157", "fusion_lon": 0.0}, {"is_reserved": 0, "type": "electric_scooter", "bike_id": "8d457cd91253cfdf1377f6419d513a5f", "lat": 38.9333395, "lon": -77.082039, "rental_uris": {"android": "https://dc.lft.to/lastmile_qr_scan", "ios": "https://dc.lft.to/lastmile_qr_scan"}, "is_disabled": 0, "fusion_lat": 0.0, "name": "8d457cd91253cfdf1377f6419d513a5f", "fusion_lon": 0.0}, {"is_reserved": 0, "type": "electric_scooter", "bike_id": "2b5e62616b4e61e90427f8e34bb59c34", "lat": 38.919162, "lon": -77.03431116666667, "rental_uris": {"android": "https://dc.lft.to/lastmile_qr_scan", "ios": "https://dc.lft.to/lastmile_qr_scan"}, "is_disabled": 0, "fusion_lat": 0.0, "name": "2b5e62616b4e61e90427f8e34bb59c34", "fusion_lon": 0.0}, {"is_reserved": 0, "type": "electric_scooter", "bike_id": "d9157bc9deb4cb299b861a30e1b6c363", "lat": 38.8831875, "lon": -77.00951666666667, "rental_uris": {"android": "https://dc.lft.to/lastmile_qr_scan", "ios": "https://dc.lft.to/lastmile_qr_scan"}, "is_disabled": 0, "fusion_lat": 0.0, "name": "d9157bc9deb4cb299b861a30e1b6c363", "fusion_lon": 0.0}, {"is_reserved": 0, "type": "electric_scooter", "bike_id": "64d98d78e462858112e663f85e5021b0", "lat": 38.903943166666664, "lon": -77.0538645, "rental_uris": {"android": "https://dc.lft.to/lastmile_qr_scan", "ios": "https://dc.lft.to/lastmile_qr_scan"}, "is_disabled": 0, "fusion_lat": 0.0, "name": "64d98d78e462858112e663f85e5021b0", "fusion_lon": 0.0}, {"is_reserved": 0, "type": "electric_bike", "bike_id": "65b0ae7e97c225304606a9096ea44dee", "lat": 38.78398466666667, "lon": -77.1209345, "rental_uris": {"android": "https://dc.lft.to/lastmile_qr_scan", "ios": "https://dc.lft.to/lastmile_qr_scan"}, "is_disabled": 0, "fusion_lat": 0.0, "name": "65b0ae7e97c225304606a9096ea44dee", "fusion_lon": 0.0}, {"is_reserved": 0, "type": "electric_scooter", "bike_id": "16c74f0e8903f0d0cded0ea498b61b0a", "lat": 38.91390533333333, "lon": -77.019845, "rental_uris": {"android": "https://dc.lft.to/lastmile_qr_scan", "ios": "https://dc.lft.to/lastmile_qr_scan"}, "is_disabled": 0, "fusion_lat": 0.0, "name": "16c74f0e8903f0d0cded0ea498b61b0a", "fusion_lon": 0.0}, {"is_reserved": 0, "type": "electric_scooter", "bike_id": "7e60db4f4f12dca48e8c76027b0ee610", "lat": 38.90356166666667, "lon": -77.031605, "rental_uris": {"android": "https://dc.lft.to/lastmile_qr_scan", "ios": "https://dc.lft.to/lastmile_qr_scan"}, "is_disabled": 0, "fusion_lat": 0.0, "name": "7e60db4f4f12dca48e8c76027b0ee610", "fusion_lon": 0.0}, {"is_reserved": 0, "type": "electric_scooter", "bike_id": "08fdc57a4de333b5c22204b58ddbb374", "lat": 38.91263216666667, "lon": -77.00508633333334, "rental_uris": {"android": "https://dc.lft.to/lastmile_qr_scan", "ios": "https://dc.lft.to/lastmile_qr_scan"}, "is_disabled": 0, "fusion_lat": 0.0, "name": "08fdc57a4de333b5c22204b58ddbb374", "fusion_lon": 0.0}, {"is_reserved": 0, "type": "electric_scooter", "bike_id": "0d501e7e935fd12f4188a4be6356646f", "lat": 38.922320666666664, "lon": -77.02331133333334, "rental_uris": {"android": "https://dc.lft.to/lastmile_qr_scan", "ios": "https://dc.lft.to/lastmile_qr_scan"}, "is_disabled": 0, "fusion_lat": 0.0, "name": "0d501e7e935fd12f4188a4be6356646f", "fusion_lon": 0.0}, {"is_reserved": 0, "type": "electric_scooter", "bike_id": "9314c7c0b0b13233b0058443de64e21e", "lat": 38.921008, "lon": -77.03173816666667, "rental_uris": {"android": "https://dc.lft.to/lastmile_qr_scan", "ios": "https://dc.lft.to/lastmile_qr_scan"}, "is_disabled": 0, "fusion_lat": 0.0, "name": "9314c7c0b0b13233b0058443de64e21e", "fusion_lon": 0.0}, {"is_reserved": 0, "type": "electric_scooter", "bike_id": "4e3579486cf60510419e7c9941377c4e", "lat": 38.913133, "lon": -77.036425, "rental_uris": {"android": "https://dc.lft.to/lastmile_qr_scan", "ios": "https://dc.lft.to/lastmile_qr_scan"}, "is_disabled": 0, "fusion_lat": 0.0, "name": "4e3579486cf60510419e7c9941377c4e", "fusion_lon": 0.0}, {"is_reserved": 0, "type": "electric_scooter", "bike_id": "9e7187dd154eccdc981ade82c099521e", "lat": 38.899076666666666, "lon": -77.03336166666666, "rental_uris": {"android": "https://dc.lft.to/lastmile_qr_scan", "ios": "https://dc.lft.to/lastmile_qr_scan"}, "is_disabled": 0, "fusion_lat": 0.0, "name": "9e7187dd154eccdc981ade82c099521e", "fusion_lon": 0.0}, {"is_reserved": 0, "type": "electric_scooter", "bike_id": "62cb911c2040a0424609afdfe2ec44e3", "lat": 38.907217, "lon": -77.04518366666667, "rental_uris": {"android": "https://dc.lft.to/lastmile_qr_scan", "ios": "https://dc.lft.to/lastmile_qr_scan"}, "is_disabled": 0, "fusion_lat": 0.0, "name": "62cb911c2040a0424609afdfe2ec44e3", "fusion_lon": 0.0}, {"is_reserved": 0, "type": "electric_scooter", "bike_id": "77365b406653defab36cd08e41c02c3b", "lat": 38.89864683333333, "lon": -77.0198185, "rental_uris": {"android": "https://dc.lft.to/lastmile_qr_scan", "ios": "https://dc.lft.to/lastmile_qr_scan"}, "is_disabled": 0, "fusion_lat": 0.0, "name": "77365b406653defab36cd08e41c02c3b", "fusion_lon": 0.0}, {"is_reserved": 0, "type": "electric_scooter", "bike_id": "6d56f40d02ebedf7e5eb278be39aeedb", "lat": 38.90715333333333, "lon": -77.04756583333334, "rental_uris": {"android": "https://dc.lft.to/lastmile_qr_scan", "ios": "https://dc.lft.to/lastmile_qr_scan"}, "is_disabled": 0, "fusion_lat": 0.0, "name": "6d56f40d02ebedf7e5eb278be39aeedb", "fusion_lon": 0.0}, {"is_reserved": 0, "type": "electric_scooter", "bike_id": "98009b94fd70a9bedba9460b10da546e", "lat": 38.88988616666666, "lon": -77.00153483333334, "rental_uris": {"android": "https://dc.lft.to/lastmile_qr_scan", "ios": "https://dc.lft.to/lastmile_qr_scan"}, "is_disabled": 0, "fusion_lat": 0.0, "name": "98009b94fd70a9bedba9460b10da546e", "fusion_lon": 0.0}, {"is_reserved": 0, "type": "electric_scooter", "bike_id": "1df58e4ab342d6897ac33ebf13b6c966", "lat": 38.929137, "lon": -77.02191083333334, "rental_uris": {"android": "https://dc.lft.to/lastmile_qr_scan", "ios": "https://dc.lft.to/lastmile_qr_scan"}, "is_disabled": 0, "fusion_lat": 0.0, "name": "1df58e4ab342d6897ac33ebf13b6c966", "fusion_lon": 0.0}, {"is_reserved": 0, "type": "electric_scooter", "bike_id": "9ac05e494abfa41bedbacbdf8a18f64d", "lat": 38.9244575, "lon": -77.040345, "rental_uris": {"android": "https://dc.lft.to/lastmile_qr_scan", "ios": "https://dc.lft.to/lastmile_qr_scan"}, "is_disabled": 0, "fusion_lat": 0.0, "name": "9ac05e494abfa41bedbacbdf8a18f64d", "fusion_lon": 0.0}, {"is_reserved": 0, "type": "electric_bike", "bike_id": "fe92477596208cec61fddb821b01ffc5", "lat": 38.9122405, "lon": -77.06600483333334, "rental_uris": {"android": "https://dc.lft.to/lastmile_qr_scan", "ios": "https://dc.lft.to/lastmile_qr_scan"}, "is_disabled": 0, "fusion_lat": 0.0, "name": "fe92477596208cec61fddb821b01ffc5", "fusion_lon": 0.0}, {"is_reserved": 0, "type": "electric_scooter", "bike_id": "a293b7db1a128ccce8a580f0f205b846", "lat": 38.914596, "lon": -77.00215716666666, "rental_uris": {"android": "https://dc.lft.to/lastmile_qr_scan", "ios": "https://dc.lft.to/lastmile_qr_scan"}, "is_disabled": 0, "fusion_lat": 0.0, "name": "a293b7db1a128ccce8a580f0f205b846", "fusion_lon": 0.0}, {"is_reserved": 0, "type": "electric_scooter", "bike_id": "1a5174cd3cb13aa620b8d0e170d37d62", "lat": 38.9191765, "lon": -77.03581666666666, "rental_uris": {"android": "https://dc.lft.to/lastmile_qr_scan", "ios": "https://dc.lft.to/lastmile_qr_scan"}, "is_disabled": 0, "fusion_lat": 0.0, "name": "1a5174cd3cb13aa620b8d0e170d37d62", "fusion_lon": 0.0}, {"is_reserved": 0, "type": "electric_scooter", "bike_id": "a3aadfae0cd7da2e9d03ee87693ec5a9", "lat": 38.924149166666666, "lon": -77.0201305, "rental_uris": {"android": "https://dc.lft.to/lastmile_qr_scan", "ios": "https://dc.lft.to/lastmile_qr_scan"}, "is_disabled": 0, "fusion_lat": 0.0, "name": "a3aadfae0cd7da2e9d03ee87693ec5a9", "fusion_lon": 0.0}, {"is_reserved": 0, "type": "electric_scooter", "bike_id": "76334b5693a74a99b25d46474cba22e2", "lat": 38.918160666666665, "lon": -77.0418315, "rental_uris": {"android": "https://dc.lft.to/lastmile_qr_scan", "ios": "https://dc.lft.to/lastmile_qr_scan"}, "is_disabled": 0, "fusion_lat": 0.0, "name": "76334b5693a74a99b25d46474cba22e2", "fusion_lon": 0.0}, {"is_reserved": 0, "type": "electric_scooter", "bike_id": "8cdb352eec4607728ee460d068f561de", "lat": 38.922502, "lon": -77.030851, "rental_uris": {"android": "https://dc.lft.to/lastmile_qr_scan", "ios": "https://dc.lft.to/lastmile_qr_scan"}, "is_disabled": 0, "fusion_lat": 0.0, "name": "8cdb352eec4607728ee460d068f561de", "fusion_lon": 0.0}, {"is_reserved": 0, "type": "electric_bike", "bike_id": "ce72eb6b9eeab65c7bc9619f140745cf", "lat": 38.87004366666667, "lon": -77.22977866666666, "rental_uris": {"android": "https://dc.lft.to/lastmile_qr_scan", "ios": "https://dc.lft.to/lastmile_qr_scan"}, "is_disabled": 0, "fusion_lat": 0.0, "name": "ce72eb6b9eeab65c7bc9619f140745cf", "fusion_lon": 0.0}, {"is_reserved": 0, "type": "electric_bike", "bike_id": "29cb848b3b50aa7a4d72bbe63f1d9f14", "lat": 38.85417866666667, "lon": -77.08367616666666, "rental_uris": {"android": "https://dc.lft.to/lastmile_qr_scan", "ios": "https://dc.lft.to/lastmile_qr_scan"}, "is_disabled": 0, "fusion_lat": 0.0, "name": "29cb848b3b50aa7a4d72bbe63f1d9f14", "fusion_lon": 0.0}, {"is_reserved": 0, "type": "electric_scooter", "bike_id": "a2e3a8a5bcbe168dc8a09a9ec1ffa60f", "lat": 38.91815366666667, "lon": -77.03197083333333, "rental_uris": {"android": "https://dc.lft.to/lastmile_qr_scan", "ios": "https://dc.lft.to/lastmile_qr_scan"}, "is_disabled": 0, "fusion_lat": 0.0, "name": "a2e3a8a5bcbe168dc8a09a9ec1ffa60f", "fusion_lon": 0.0}, {"is_reserved": 0, "type": "electric_scooter", "bike_id": "4adb9b6e1cb89c46d46dc2b291a1c80d", "lat": 38.92520616666667, "lon": -77.05055433333334, "rental_uris": {"android": "https://dc.lft.to/lastmile_qr_scan", "ios": "https://dc.lft.to/lastmile_qr_scan"}, "is_disabled": 0, "fusion_lat": 0.0, "name": "4adb9b6e1cb89c46d46dc2b291a1c80d", "fusion_lon": 0.0}, {"is_reserved": 0, "type": "electric_scooter", "bike_id": "d5b9a997e74725ae9abd334c7ce7c148", "lat": 38.875328, "lon": -77.0005265, "rental_uris": {"android": "https://dc.lft.to/lastmile_qr_scan", "ios": "https://dc.lft.to/lastmile_qr_scan"}, "is_disabled": 0, "fusion_lat": 0.0, "name": "d5b9a997e74725ae9abd334c7ce7c148", "fusion_lon": 0.0}, {"is_reserved": 0, "type": "electric_scooter", "bike_id": "f37b01f4f4c37424a09194ada56ff626", "lat": 38.902209, "lon": -77.0217885, "rental_uris": {"android": "https://dc.lft.to/lastmile_qr_scan", "ios": "https://dc.lft.to/lastmile_qr_scan"}, "is_disabled": 0, "fusion_lat": 0.0, "name": "f37b01f4f4c37424a09194ada56ff626", "fusion_lon": 0.0}, {"is_reserved": 0, "type": "electric_bike", "bike_id": "e2f0297c98663ccf52dda1dbba4aa014", "lat": 38.86329933333333, "lon": -76.98722016666666, "rental_uris": {"android": "https://dc.lft.to/lastmile_qr_scan", "ios": "https://dc.lft.to/lastmile_qr_scan"}, "is_disabled": 0, "fusion_lat": 0.0, "name": "e2f0297c98663ccf52dda1dbba4aa014", "fusion_lon": 0.0}, {"is_reserved": 0, "type": "electric_scooter", "bike_id": "63551421d9c9332eb294d7ea9a0b799d", "lat": 38.90837616666666, "lon": -77.04477916666667, "rental_uris": {"android": "https://dc.lft.to/lastmile_qr_scan", "ios": "https://dc.lft.to/lastmile_qr_scan"}, "is_disabled": 0, "fusion_lat": 0.0, "name": "63551421d9c9332eb294d7ea9a0b799d", "fusion_lon": 0.0}, {"is_reserved": 0, "type": "electric_scooter", "bike_id": "9879e77771082866de3daa2596fdb5d4", "lat": 38.8999965, "lon": -76.99838683333333, "rental_uris": {"android": "https://dc.lft.to/lastmile_qr_scan", "ios": "https://dc.lft.to/lastmile_qr_scan"}, "is_disabled": 0, "fusion_lat": 0.0, "name": "9879e77771082866de3daa2596fdb5d4", "fusion_lon": 0.0}, {"is_reserved": 0, "type": "electric_scooter", "bike_id": "1814d8ab9e6191c3fe467cc1b9fca5c7", "lat": 38.915504, "lon": -77.0331115, "rental_uris": {"android": "https://dc.lft.to/lastmile_qr_scan", "ios": "https://dc.lft.to/lastmile_qr_scan"}, "is_disabled": 0, "fusion_lat": 0.0, "name": "1814d8ab9e6191c3fe467cc1b9fca5c7", "fusion_lon": 0.0}, {"is_reserved": 0, "type": "electric_scooter", "bike_id": "d26ed6075f3b5c667d7d831e649106a3", "lat": 38.88157966666667, "lon": -76.994993, "rental_uris": {"android": "https://dc.lft.to/lastmile_qr_scan", "ios": "https://dc.lft.to/lastmile_qr_scan"}, "is_disabled": 0, "fusion_lat": 0.0, "name": "d26ed6075f3b5c667d7d831e649106a3", "fusion_lon": 0.0}, {"is_reserved": 0, "type": "electric_scooter", "bike_id": "9deb56780fa8639ad82425d669ad32ce", "lat": 38.899303, "lon": -77.0321535, "rental_uris": {"android": "https://dc.lft.to/lastmile_qr_scan", "ios": "https://dc.lft.to/lastmile_qr_scan"}, "is_disabled": 0, "fusion_lat": 0.0, "name": "9deb56780fa8639ad82425d669ad32ce", "fusion_lon": 0.0}, {"is_reserved": 0, "type": "electric_scooter", "bike_id": "00b867f454581f8aff52690f51a5a55a", "lat": 38.92373633333333, "lon": -77.03057233333334, "rental_uris": {"android": "https://dc.lft.to/lastmile_qr_scan", "ios": "https://dc.lft.to/lastmile_qr_scan"}, "is_disabled": 0, "fusion_lat": 0.0, "name": "00b867f454581f8aff52690f51a5a55a", "fusion_lon": 0.0}, {"is_reserved": 0, "type": "electric_scooter", "bike_id": "3229569c4e4d4ce959d327595c2007b8", "lat": 38.87509716666667, "lon": -77.00356683333334, "rental_uris": {"android": "https://dc.lft.to/lastmile_qr_scan", "ios": "https://dc.lft.to/lastmile_qr_scan"}, "is_disabled": 0, "fusion_lat": 0.0, "name": "3229569c4e4d4ce959d327595c2007b8", "fusion_lon": 0.0}, {"is_reserved": 0, "type": "electric_scooter", "bike_id": "c0010842600662c46c1260dc2145427b", "lat": 38.92449033333333, "lon": -77.03288483333333, "rental_uris": {"android": "https://dc.lft.to/lastmile_qr_scan", "ios": "https://dc.lft.to/lastmile_qr_scan"}, "is_disabled": 0, "fusion_lat": 0.0, "name": "c0010842600662c46c1260dc2145427b", "fusion_lon": 0.0}, {"is_reserved": 0, "type": "electric_scooter", "bike_id": "6a2c87867a36b2099a0b2a9ae4cf5df6", "lat": 38.87738916666667, "lon": -77.01905466666666, "rental_uris": {"android": "https://dc.lft.to/lastmile_qr_scan", "ios": "https://dc.lft.to/lastmile_qr_scan"}, "is_disabled": 0, "fusion_lat": 0.0, "name": "6a2c87867a36b2099a0b2a9ae4cf5df6", "fusion_lon": 0.0}, {"is_reserved": 0, "type": "electric_scooter", "bike_id": "de39705b2fc731108a7b28a9444b42af", "lat": 38.88971733333333, "lon": -76.99945583333333, "rental_uris": {"android": "https://dc.lft.to/lastmile_qr_scan", "ios": "https://dc.lft.to/lastmile_qr_scan"}, "is_disabled": 0, "fusion_lat": 0.0, "name": "de39705b2fc731108a7b28a9444b42af", "fusion_lon": 0.0}, {"is_reserved": 0, "type": "electric_scooter", "bike_id": "5bad1d3a6cdadce600aced23c28e84df", "lat": 38.89235866666667, "lon": -77.04489933333333, "rental_uris": {"android": "https://dc.lft.to/lastmile_qr_scan", "ios": "https://dc.lft.to/lastmile_qr_scan"}, "is_disabled": 0, "fusion_lat": 0.0, "name": "5bad1d3a6cdadce600aced23c28e84df", "fusion_lon": 0.0}, {"is_reserved": 0, "type": "electric_scooter", "bike_id": "092c1c3ffe8342e83de4d52d5dadba45", "lat": 38.89230233333333, "lon": -77.03185866666666, "rental_uris": {"android": "https://dc.lft.to/lastmile_qr_scan", "ios": "https://dc.lft.to/lastmile_qr_scan"}, "is_disabled": 0, "fusion_lat": 0.0, "name": "092c1c3ffe8342e83de4d52d5dadba45", "fusion_lon": 0.0}, {"is_reserved": 0, "type": "electric_scooter", "bike_id": "7442c72f892b8e0895cd56a2298db4e1", "lat": 38.88772266666667, "lon": -76.93263466666667, "rental_uris": {"android": "https://dc.lft.to/lastmile_qr_scan", "ios": "https://dc.lft.to/lastmile_qr_scan"}, "is_disabled": 0, "fusion_lat": 0.0, "name": "7442c72f892b8e0895cd56a2298db4e1", "fusion_lon": 0.0}, {"is_reserved": 0, "type": "electric_bike", "bike_id": "6f8fedacf4a3b91da46786acd168712e", "lat": 38.86753216666666, "lon": -76.94538166666666, "rental_uris": {"android": "https://dc.lft.to/lastmile_qr_scan", "ios": "https://dc.lft.to/lastmile_qr_scan"}, "is_disabled": 0, "fusion_lat": 0.0, "name": "6f8fedacf4a3b91da46786acd168712e", "fusion_lon": 0.0}, {"is_reserved": 0, "type": "electric_scooter", "bike_id": "5a076c6d6abb86175b971ec77d461277", "lat": 38.91915016666667, "lon": -77.00991333333333, "rental_uris": {"android": "https://dc.lft.to/lastmile_qr_scan", "ios": "https://dc.lft.to/lastmile_qr_scan"}, "is_disabled": 0, "fusion_lat": 0.0, "name": "5a076c6d6abb86175b971ec77d461277", "fusion_lon": 0.0}, {"is_reserved": 0, "type": "electric_scooter", "bike_id": "0bec753a75bdd94a810b028c29d7503d", "lat": 38.90567183333334, "lon": -77.01851766666667, "rental_uris": {"android": "https://dc.lft.to/lastmile_qr_scan", "ios": "https://dc.lft.to/lastmile_qr_scan"}, "is_disabled": 0, "fusion_lat": 0.0, "name": "0bec753a75bdd94a810b028c29d7503d", "fusion_lon": 0.0}, {"is_reserved": 0, "type": "electric_scooter", "bike_id": "0aa44190d8c21184ef4cb56fbebd6a97", "lat": 38.91264733333333, "lon": -77.01841233333333, "rental_uris": {"android": "https://dc.lft.to/lastmile_qr_scan", "ios": "https://dc.lft.to/lastmile_qr_scan"}, "is_disabled": 0, "fusion_lat": 0.0, "name": "0aa44190d8c21184ef4cb56fbebd6a97", "fusion_lon": 0.0}, {"is_reserved": 0, "type": "electric_bike", "bike_id": "e0d145a2273769b50feb690ad8e63908", "lat": 38.891926, "lon": -77.06976433333334, "rental_uris": {"android": "https://dc.lft.to/lastmile_qr_scan", "ios": "https://dc.lft.to/lastmile_qr_scan"}, "is_disabled": 0, "fusion_lat": 0.0, "name": "e0d145a2273769b50feb690ad8e63908", "fusion_lon": 0.0}, {"is_reserved": 0, "type": "electric_scooter", "bike_id": "610c8afddc313d247faabf4e73afa127", "lat": 38.8922005, "lon": -77.02423433333334, "rental_uris": {"android": "https://dc.lft.to/lastmile_qr_scan", "ios": "https://dc.lft.to/lastmile_qr_scan"}, "is_disabled": 0, "fusion_lat": 0.0, "name": "610c8afddc313d247faabf4e73afa127", "fusion_lon": 0.0}, {"is_reserved": 0, "type": "electric_scooter", "bike_id": "f07928de3dd12a919ad225d93c32d952", "lat": 38.88119916666667, "lon": -77.019757, "rental_uris": {"android": "https://dc.lft.to/lastmile_qr_scan", "ios": "https://dc.lft.to/lastmile_qr_scan"}, "is_disabled": 0, "fusion_lat": 0.0, "name": "f07928de3dd12a919ad225d93c32d952", "fusion_lon": 0.0}, {"is_reserved": 0, "type": "electric_scooter", "bike_id": "5744ee80a7e09df8c979dedceab2350c", "lat": 38.94230316666667, "lon": -77.07150066666667, "rental_uris": {"android": "https://dc.lft.to/lastmile_qr_scan", "ios": "https://dc.lft.to/lastmile_qr_scan"}, "is_disabled": 0, "fusion_lat": 0.0, "name": "5744ee80a7e09df8c979dedceab2350c", "fusion_lon": 0.0}, {"is_reserved": 0, "type": "electric_scooter", "bike_id": "c14ee05308c82ddd18df4103eb189a42", "lat": 38.91948466666667, "lon": -77.01364033333333, "rental_uris": {"android": "https://dc.lft.to/lastmile_qr_scan", "ios": "https://dc.lft.to/lastmile_qr_scan"}, "is_disabled": 0, "fusion_lat": 0.0, "name": "c14ee05308c82ddd18df4103eb189a42", "fusion_lon": 0.0}, {"is_reserved": 0, "type": "electric_scooter", "bike_id": "97ac97422cceba8a881b80a6f9cfc736", "lat": 38.900848333333336, "lon": -77.04876216666666, "rental_uris": {"android": "https://dc.lft.to/lastmile_qr_scan", "ios": "https://dc.lft.to/lastmile_qr_scan"}, "is_disabled": 0, "fusion_lat": 0.0, "name": "97ac97422cceba8a881b80a6f9cfc736", "fusion_lon": 0.0}, {"is_reserved": 0, "type": "electric_scooter", "bike_id": "dd3ef69d41ca981e8bd49b680224ab82", "lat": 38.928370666666666, "lon": -77.05507566666667, "rental_uris": {"android": "https://dc.lft.to/lastmile_qr_scan", "ios": "https://dc.lft.to/lastmile_qr_scan"}, "is_disabled": 0, "fusion_lat": 0.0, "name": "dd3ef69d41ca981e8bd49b680224ab82", "fusion_lon": 0.0}, {"is_reserved": 0, "type": "electric_scooter", "bike_id": "680415a9294f0569b36fa30a808db5fa", "lat": 38.917424833333335, "lon": -77.02814516666666, "rental_uris": {"android": "https://dc.lft.to/lastmile_qr_scan", "ios": "https://dc.lft.to/lastmile_qr_scan"}, "is_disabled": 0, "fusion_lat": 0.0, "name": "680415a9294f0569b36fa30a808db5fa", "fusion_lon": 0.0}, {"is_reserved": 0, "type": "electric_scooter", "bike_id": "90d0adba80cce1de5efd6c0b118d226a", "lat": 38.89874116666667, "lon": -76.93186566666667, "rental_uris": {"android": "https://dc.lft.to/lastmile_qr_scan", "ios": "https://dc.lft.to/lastmile_qr_scan"}, "is_disabled": 0, "fusion_lat": 0.0, "name": "90d0adba80cce1de5efd6c0b118d226a", "fusion_lon": 0.0}, {"is_reserved": 0, "type": "electric_scooter", "bike_id": "26c53c0b3b5c01e760f153ae0147a83f", "lat": 38.9276465, "lon": -77.02783983333333, "rental_uris": {"android": "https://dc.lft.to/lastmile_qr_scan", "ios": "https://dc.lft.to/lastmile_qr_scan"}, "is_disabled": 0, "fusion_lat": 0.0, "name": "26c53c0b3b5c01e760f153ae0147a83f", "fusion_lon": 0.0}, {"is_reserved": 0, "type": "electric_scooter", "bike_id": "23e7a806d04b74f51cf0ff95f962a924", "lat": 38.906840833333334, "lon": -77.06257816666667, "rental_uris": {"android": "https://dc.lft.to/lastmile_qr_scan", "ios": "https://dc.lft.to/lastmile_qr_scan"}, "is_disabled": 0, "fusion_lat": 0.0, "name": "23e7a806d04b74f51cf0ff95f962a924", "fusion_lon": 0.0}, {"is_reserved": 0, "type": "electric_scooter", "bike_id": "238769e3c113a44346ef684ec36cc8ee", "lat": 38.9034985, "lon": -77.03191483333333, "rental_uris": {"android": "https://dc.lft.to/lastmile_qr_scan", "ios": "https://dc.lft.to/lastmile_qr_scan"}, "is_disabled": 0, "fusion_lat": 0.0, "name": "238769e3c113a44346ef684ec36cc8ee", "fusion_lon": 0.0}, {"is_reserved": 0, "type": "electric_scooter", "bike_id": "ca642568703b826c6e75286387a77ef0", "lat": 38.9065865, "lon": -77.00903066666666, "rental_uris": {"android": "https://dc.lft.to/lastmile_qr_scan", "ios": "https://dc.lft.to/lastmile_qr_scan"}, "is_disabled": 0, "fusion_lat": 0.0, "name": "ca642568703b826c6e75286387a77ef0", "fusion_lon": 0.0}, {"is_reserved": 0, "type": "electric_scooter", "bike_id": "5e1430100aa4dbdc594258ae7f2bdff4", "lat": 38.92034983333333, "lon": -77.04180566666666, "rental_uris": {"android": "https://dc.lft.to/lastmile_qr_scan", "ios": "https://dc.lft.to/lastmile_qr_scan"}, "is_disabled": 0, "fusion_lat": 0.0, "name": "5e1430100aa4dbdc594258ae7f2bdff4", "fusion_lon": 0.0}, {"is_reserved": 0, "type": "electric_scooter", "bike_id": "9f37a6f5aba2e8766424f3ba2965a3c2", "lat": 38.9001915, "lon": -77.011841, "rental_uris": {"android": "https://dc.lft.to/lastmile_qr_scan", "ios": "https://dc.lft.to/lastmile_qr_scan"}, "is_disabled": 0, "fusion_lat": 0.0, "name": "9f37a6f5aba2e8766424f3ba2965a3c2", "fusion_lon": 0.0}, {"is_reserved": 0, "type": "electric_scooter", "bike_id": "ffb34e5d83d4f20e0dd11c3910321450", "lat": 38.92749766666667, "lon": -77.02455183333333, "rental_uris": {"android": "https://dc.lft.to/lastmile_qr_scan", "ios": "https://dc.lft.to/lastmile_qr_scan"}, "is_disabled": 0, "fusion_lat": 0.0, "name": "ffb34e5d83d4f20e0dd11c3910321450", "fusion_lon": 0.0}, {"is_reserved": 0, "type": "electric_scooter", "bike_id": "ff887441dd59f07604e67527315e9574", "lat": 38.917773, "lon": -77.02313266666667, "rental_uris": {"android": "https://dc.lft.to/lastmile_qr_scan", "ios": "https://dc.lft.to/lastmile_qr_scan"}, "is_disabled": 0, "fusion_lat": 0.0, "name": "ff887441dd59f07604e67527315e9574", "fusion_lon": 0.0}, {"is_reserved": 0, "type": "electric_scooter", "bike_id": "3d6b9346fe49ad039b0e1ebcbff9524a", "lat": 38.94082266666667, "lon": -77.05500466666666, "rental_uris": {"android": "https://dc.lft.to/lastmile_qr_scan", "ios": "https://dc.lft.to/lastmile_qr_scan"}, "is_disabled": 0, "fusion_lat": 0.0, "name": "3d6b9346fe49ad039b0e1ebcbff9524a", "fusion_lon": 0.0}, {"is_reserved": 0, "type": "electric_scooter", "bike_id": "db604a937303da04e42183f67063e220", "lat": 38.9262505, "lon": -77.0363145, "rental_uris": {"android": "https://dc.lft.to/lastmile_qr_scan", "ios": "https://dc.lft.to/lastmile_qr_scan"}, "is_disabled": 0, "fusion_lat": 0.0, "name": "db604a937303da04e42183f67063e220", "fusion_lon": 0.0}, {"is_reserved": 0, "type": "electric_scooter", "bike_id": "367a8928b4ee71ca02918dd2859ffe24", "lat": 38.9160515, "lon": -77.04613483333333, "rental_uris": {"android": "https://dc.lft.to/lastmile_qr_scan", "ios": "https://dc.lft.to/lastmile_qr_scan"}, "is_disabled": 0, "fusion_lat": 0.0, "name": "367a8928b4ee71ca02918dd2859ffe24", "fusion_lon": 0.0}, {"is_reserved": 0, "type": "electric_scooter", "bike_id": "619c1ea01436b664e7aa07e04e4010ec", "lat": 38.892291666666665, "lon": -77.03183566666667, "rental_uris": {"android": "https://dc.lft.to/lastmile_qr_scan", "ios": "https://dc.lft.to/lastmile_qr_scan"}, "is_disabled": 0, "fusion_lat": 0.0, "name": "619c1ea01436b664e7aa07e04e4010ec", "fusion_lon": 0.0}, {"is_reserved": 0, "type": "electric_scooter", "bike_id": "29ce64f945f60982dd5024a9c1162ef0", "lat": 38.92197933333333, "lon": -77.04705666666666, "rental_uris": {"android": "https://dc.lft.to/lastmile_qr_scan", "ios": "https://dc.lft.to/lastmile_qr_scan"}, "is_disabled": 0, "fusion_lat": 0.0, "name": "29ce64f945f60982dd5024a9c1162ef0", "fusion_lon": 0.0}, {"is_reserved": 0, "type": "electric_scooter", "bike_id": "b23f0cc6391b475b1c866cf101c3669c", "lat": 38.885174166666665, "lon": -76.99628316666667, "rental_uris": {"android": "https://dc.lft.to/lastmile_qr_scan", "ios": "https://dc.lft.to/lastmile_qr_scan"}, "is_disabled": 0, "fusion_lat": 0.0, "name": "b23f0cc6391b475b1c866cf101c3669c", "fusion_lon": 0.0}, {"is_reserved": 0, "type": "electric_scooter", "bike_id": "970ebc40253dcf4b1d5cc0eeeb4d58c5", "lat": 38.902324, "lon": -77.034818, "rental_uris": {"android": "https://dc.lft.to/lastmile_qr_scan", "ios": "https://dc.lft.to/lastmile_qr_scan"}, "is_disabled": 0, "fusion_lat": 0.0, "name": "970ebc40253dcf4b1d5cc0eeeb4d58c5", "fusion_lon": 0.0}, {"is_reserved": 0, "type": "electric_scooter", "bike_id": "dac6110420e1ab69ff9797fed3aeb28c", "lat": 38.921031666666664, "lon": -77.04699, "rental_uris": {"android": "https://dc.lft.to/lastmile_qr_scan", "ios": "https://dc.lft.to/lastmile_qr_scan"}, "is_disabled": 0, "fusion_lat": 0.0, "name": "dac6110420e1ab69ff9797fed3aeb28c", "fusion_lon": 0.0}, {"is_reserved": 0, "type": "electric_scooter", "bike_id": "3099f5275fd51b093bc085f34933a6f4", "lat": 38.94327283333333, "lon": -77.01264883333333, "rental_uris": {"android": "https://dc.lft.to/lastmile_qr_scan", "ios": "https://dc.lft.to/lastmile_qr_scan"}, "is_disabled": 0, "fusion_lat": 0.0, "name": "3099f5275fd51b093bc085f34933a6f4", "fusion_lon": 0.0}, {"is_reserved": 0, "type": "electric_scooter", "bike_id": "d254c6a759c5ae3a4a1a5450aabe9efc", "lat": 38.90905383333333, "lon": -76.996182, "rental_uris": {"android": "https://dc.lft.to/lastmile_qr_scan", "ios": "https://dc.lft.to/lastmile_qr_scan"}, "is_disabled": 0, "fusion_lat": 0.0, "name": "d254c6a759c5ae3a4a1a5450aabe9efc", "fusion_lon": 0.0}, {"is_reserved": 0, "type": "electric_scooter", "bike_id": "1abf4f0616827db915d3b627716db867", "lat": 38.89534833333333, "lon": -76.97900983333334, "rental_uris": {"android": "https://dc.lft.to/lastmile_qr_scan", "ios": "https://dc.lft.to/lastmile_qr_scan"}, "is_disabled": 0, "fusion_lat": 0.0, "name": "1abf4f0616827db915d3b627716db867", "fusion_lon": 0.0}, {"is_reserved": 0, "type": "electric_scooter", "bike_id": "e7816a4f86df8178bb2c953cf95e9a2a", "lat": 38.911855333333335, "lon": -77.03761433333334, "rental_uris": {"android": "https://dc.lft.to/lastmile_qr_scan", "ios": "https://dc.lft.to/lastmile_qr_scan"}, "is_disabled": 0, "fusion_lat": 0.0, "name": "e7816a4f86df8178bb2c953cf95e9a2a", "fusion_lon": 0.0}, {"is_reserved": 0, "type": "electric_scooter", "bike_id": "86e14fa257664f966dcf11803e9b3c5b", "lat": 38.88353716666667, "lon": -77.01957683333333, "rental_uris": {"android": "https://dc.lft.to/lastmile_qr_scan", "ios": "https://dc.lft.to/lastmile_qr_scan"}, "is_disabled": 0, "fusion_lat": 0.0, "name": "86e14fa257664f966dcf11803e9b3c5b", "fusion_lon": 0.0}, {"is_reserved": 0, "type": "electric_scooter", "bike_id": "f735f4b776340f8043ef3e6482fcba1e", "lat": 38.92422366666667, "lon": -77.034253, "rental_uris": {"android": "https://dc.lft.to/lastmile_qr_scan", "ios": "https://dc.lft.to/lastmile_qr_scan"}, "is_disabled": 0, "fusion_lat": 0.0, "name": "f735f4b776340f8043ef3e6482fcba1e", "fusion_lon": 0.0}, {"is_reserved": 0, "type": "electric_scooter", "bike_id": "f69045431ba5c4f98626c28946273c43", "lat": 38.9263435, "lon": -77.042527, "rental_uris": {"android": "https://dc.lft.to/lastmile_qr_scan", "ios": "https://dc.lft.to/lastmile_qr_scan"}, "is_disabled": 0, "fusion_lat": 0.0, "name": "f69045431ba5c4f98626c28946273c43", "fusion_lon": 0.0}, {"is_reserved": 0, "type": "electric_scooter", "bike_id": "1f84d64bcd7403707f117c8f4be44773", "lat": 38.93043466666666, "lon": -77.05538833333334, "rental_uris": {"android": "https://dc.lft.to/lastmile_qr_scan", "ios": "https://dc.lft.to/lastmile_qr_scan"}, "is_disabled": 0, "fusion_lat": 0.0, "name": "1f84d64bcd7403707f117c8f4be44773", "fusion_lon": 0.0}, {"is_reserved": 0, "type": "electric_scooter", "bike_id": "031a4c547b7ff40be9dd33a49f3b6cad", "lat": 38.935243166666666, "lon": -77.03264833333333, "rental_uris": {"android": "https://dc.lft.to/lastmile_qr_scan", "ios": "https://dc.lft.to/lastmile_qr_scan"}, "is_disabled": 0, "fusion_lat": 0.0, "name": "031a4c547b7ff40be9dd33a49f3b6cad", "fusion_lon": 0.0}, {"is_reserved": 0, "type": "electric_scooter", "bike_id": "365454958f8052444c0788f3e339346d", "lat": 38.911204833333336, "lon": -77.01823533333334, "rental_uris": {"android": "https://dc.lft.to/lastmile_qr_scan", "ios": "https://dc.lft.to/lastmile_qr_scan"}, "is_disabled": 0, "fusion_lat": 0.0, "name": "365454958f8052444c0788f3e339346d", "fusion_lon": 0.0}, {"is_reserved": 0, "type": "electric_bike", "bike_id": "6d1c4e08d29d32f06a0dcd493fb33d2b", "lat": 38.974194833333335, "lon": -77.01259183333333, "rental_uris": {"android": "https://dc.lft.to/lastmile_qr_scan", "ios": "https://dc.lft.to/lastmile_qr_scan"}, "is_disabled": 0, "fusion_lat": 0.0, "name": "6d1c4e08d29d32f06a0dcd493fb33d2b", "fusion_lon": 0.0}, {"is_reserved": 0, "type": "electric_scooter", "bike_id": "e6bb5d70ff322b1f4450328144d22bbd", "lat": 38.9308805, "lon": -77.02478933333333, "rental_uris": {"android": "https://dc.lft.to/lastmile_qr_scan", "ios": "https://dc.lft.to/lastmile_qr_scan"}, "is_disabled": 0, "fusion_lat": 0.0, "name": "e6bb5d70ff322b1f4450328144d22bbd", "fusion_lon": 0.0}, {"is_reserved": 0, "type": "electric_scooter", "bike_id": "64402d4aac8efd5f7f5868c2f97965d9", "lat": 38.930617166666664, "lon": -77.02844566666667, "rental_uris": {"android": "https://dc.lft.to/lastmile_qr_scan", "ios": "https://dc.lft.to/lastmile_qr_scan"}, "is_disabled": 0, "fusion_lat": 0.0, "name": "64402d4aac8efd5f7f5868c2f97965d9", "fusion_lon": 0.0}, {"is_reserved": 0, "type": "electric_scooter", "bike_id": "9f0e535b339e1c1d4d5c9c6ea4044011", "lat": 38.93507666666667, "lon": -77.03292116666667, "rental_uris": {"android": "https://dc.lft.to/lastmile_qr_scan", "ios": "https://dc.lft.to/lastmile_qr_scan"}, "is_disabled": 0, "fusion_lat": 0.0, "name": "9f0e535b339e1c1d4d5c9c6ea4044011", "fusion_lon": 0.0}, {"is_reserved": 0, "type": "electric_scooter", "bike_id": "967a9139665f91820ac0878f092004a5", "lat": 38.904995, "lon": -77.0294755, "rental_uris": {"android": "https://dc.lft.to/lastmile_qr_scan", "ios": "https://dc.lft.to/lastmile_qr_scan"}, "is_disabled": 0, "fusion_lat": 0.0, "name": "967a9139665f91820ac0878f092004a5", "fusion_lon": 0.0}, {"is_reserved": 0, "type": "electric_bike", "bike_id": "86053a77dd6cee727c7ce966f99162b8", "lat": 38.99999733333333, "lon": -76.91808466666667, "rental_uris": {"android": "https://dc.lft.to/lastmile_qr_scan", "ios": "https://dc.lft.to/lastmile_qr_scan"}, "is_disabled": 0, "fusion_lat": 0.0, "name": "86053a77dd6cee727c7ce966f99162b8", "fusion_lon": 0.0}, {"is_reserved": 0, "type": "electric_bike", "bike_id": "261d1a62fa86a384d74faf360eddb818", "lat": 38.874248333333334, "lon": -77.08571416666666, "rental_uris": {"android": "https://dc.lft.to/lastmile_qr_scan", "ios": "https://dc.lft.to/lastmile_qr_scan"}, "is_disabled": 0, "fusion_lat": 0.0, "name": "261d1a62fa86a384d74faf360eddb818", "fusion_lon": 0.0}, {"is_reserved": 0, "type": "electric_scooter", "bike_id": "7a4bf4544c8855b2ea1d8100cbedd601", "lat": 38.90960033333333, "lon": -77.03248966666666, "rental_uris": {"android": "https://dc.lft.to/lastmile_qr_scan", "ios": "https://dc.lft.to/lastmile_qr_scan"}, "is_disabled": 0, "fusion_lat": 0.0, "name": "7a4bf4544c8855b2ea1d8100cbedd601", "fusion_lon": 0.0}, {"is_reserved": 0, "type": "electric_bike", "bike_id": "43176aa25d07d292e71cadacd8b1d3cd", "lat": 38.92738416666667, "lon": -76.99364716666666, "rental_uris": {"android": "https://dc.lft.to/lastmile_qr_scan", "ios": "https://dc.lft.to/lastmile_qr_scan"}, "is_disabled": 0, "fusion_lat": 0.0, "name": "43176aa25d07d292e71cadacd8b1d3cd", "fusion_lon": 0.0}, {"is_reserved": 0, "type": "electric_scooter", "bike_id": "fae598a2e0f97565c99759084939f1ff", "lat": 38.9037675, "lon": -77.030318, "rental_uris": {"android": "https://dc.lft.to/lastmile_qr_scan", "ios": "https://dc.lft.to/lastmile_qr_scan"}, "is_disabled": 0, "fusion_lat": 0.0, "name": "fae598a2e0f97565c99759084939f1ff", "fusion_lon": 0.0}, {"is_reserved": 0, "type": "electric_scooter", "bike_id": "317827c30d42e16e32c7a58a2d5f92cf", "lat": 38.918270666666665, "lon": -77.03191683333333, "rental_uris": {"android": "https://dc.lft.to/lastmile_qr_scan", "ios": "https://dc.lft.to/lastmile_qr_scan"}, "is_disabled": 0, "fusion_lat": 0.0, "name": "317827c30d42e16e32c7a58a2d5f92cf", "fusion_lon": 0.0}, {"is_reserved": 0, "type": "electric_bike", "bike_id": "e4560df5c3955a753752238609ed7945", "lat": 38.86332083333333, "lon": -76.98726416666666, "rental_uris": {"android": "https://dc.lft.to/lastmile_qr_scan", "ios": "https://dc.lft.to/lastmile_qr_scan"}, "is_disabled": 0, "fusion_lat": 0.0, "name": "e4560df5c3955a753752238609ed7945", "fusion_lon": 0.0}, {"is_reserved": 0, "type": "electric_bike", "bike_id": "9aaef847db9bc98b671c1e2d0195dd59", "lat": 39.01101533333333, "lon": -77.049623, "rental_uris": {"android": "https://dc.lft.to/lastmile_qr_scan", "ios": "https://dc.lft.to/lastmile_qr_scan"}, "is_disabled": 0, "fusion_lat": 0.0, "name": "9aaef847db9bc98b671c1e2d0195dd59", "fusion_lon": 0.0}, {"is_reserved": 0, "type": "electric_scooter", "bike_id": "8013253d396ce69f9e0fdc7c7ffea8e8", "lat": 38.929831166666666, "lon": -77.03796083333333, "rental_uris": {"android": "https://dc.lft.to/lastmile_qr_scan", "ios": "https://dc.lft.to/lastmile_qr_scan"}, "is_disabled": 0, "fusion_lat": 0.0, "name": "8013253d396ce69f9e0fdc7c7ffea8e8", "fusion_lon": 0.0}, {"is_reserved": 0, "type": "electric_scooter", "bike_id": "9269704a6740616af2b8be5c2b54c092", "lat": 38.87496183333333, "lon": -77.00330116666666, "rental_uris": {"android": "https://dc.lft.to/lastmile_qr_scan", "ios": "https://dc.lft.to/lastmile_qr_scan"}, "is_disabled": 0, "fusion_lat": 0.0, "name": "9269704a6740616af2b8be5c2b54c092", "fusion_lon": 0.0}, {"is_reserved": 0, "type": "electric_scooter", "bike_id": "af0a145e1f3154eb78858b2f1f731a0e", "lat": 38.927578833333335, "lon": -77.05364866666666, "rental_uris": {"android": "https://dc.lft.to/lastmile_qr_scan", "ios": "https://dc.lft.to/lastmile_qr_scan"}, "is_disabled": 0, "fusion_lat": 0.0, "name": "af0a145e1f3154eb78858b2f1f731a0e", "fusion_lon": 0.0}, {"is_reserved": 0, "type": "electric_scooter", "bike_id": "22dabe8613b68d6adfa7e0e8070f9ec1", "lat": 38.91814016666667, "lon": -77.0313345, "rental_uris": {"android": "https://dc.lft.to/lastmile_qr_scan", "ios": "https://dc.lft.to/lastmile_qr_scan"}, "is_disabled": 0, "fusion_lat": 0.0, "name": "22dabe8613b68d6adfa7e0e8070f9ec1", "fusion_lon": 0.0}, {"is_reserved": 0, "type": "electric_scooter", "bike_id": "1afc688b1b957e8741b65f43f0d387e5", "lat": 38.88435233333333, "lon": -77.02520133333333, "rental_uris": {"android": "https://dc.lft.to/lastmile_qr_scan", "ios": "https://dc.lft.to/lastmile_qr_scan"}, "is_disabled": 0, "fusion_lat": 0.0, "name": "1afc688b1b957e8741b65f43f0d387e5", "fusion_lon": 0.0}, {"is_reserved": 0, "type": "electric_scooter", "bike_id": "a04bea1ce02d5297a9ed8d68a849d8bd", "lat": 38.917471666666664, "lon": -77.01716783333333, "rental_uris": {"android": "https://dc.lft.to/lastmile_qr_scan", "ios": "https://dc.lft.to/lastmile_qr_scan"}, "is_disabled": 0, "fusion_lat": 0.0, "name": "a04bea1ce02d5297a9ed8d68a849d8bd", "fusion_lon": 0.0}, {"is_reserved": 0, "type": "electric_scooter", "bike_id": "88876a348f1929f91b2bbf26398103cb", "lat": 38.9027565, "lon": -77.03663116666667, "rental_uris": {"android": "https://dc.lft.to/lastmile_qr_scan", "ios": "https://dc.lft.to/lastmile_qr_scan"}, "is_disabled": 0, "fusion_lat": 0.0, "name": "88876a348f1929f91b2bbf26398103cb", "fusion_lon": 0.0}, {"is_reserved": 0, "type": "electric_scooter", "bike_id": "7db8a8c00645655dab00948661ea85b0", "lat": 38.922437333333335, "lon": -77.02238966666667, "rental_uris": {"android": "https://dc.lft.to/lastmile_qr_scan", "ios": "https://dc.lft.to/lastmile_qr_scan"}, "is_disabled": 0, "fusion_lat": 0.0, "name": "7db8a8c00645655dab00948661ea85b0", "fusion_lon": 0.0}, {"is_reserved": 0, "type": "electric_scooter", "bike_id": "64489b12f20cb4881c11e02b0febbe25", "lat": 38.9002135, "lon": -77.00698566666667, "rental_uris": {"android": "https://dc.lft.to/lastmile_qr_scan", "ios": "https://dc.lft.to/lastmile_qr_scan"}, "is_disabled": 0, "fusion_lat": 0.0, "name": "64489b12f20cb4881c11e02b0febbe25", "fusion_lon": 0.0}, {"is_reserved": 0, "type": "electric_scooter", "bike_id": "67183ec36f198232c19dd271d1845583", "lat": 38.9265365, "lon": -77.04130983333333, "rental_uris": {"android": "https://dc.lft.to/lastmile_qr_scan", "ios": "https://dc.lft.to/lastmile_qr_scan"}, "is_disabled": 0, "fusion_lat": 0.0, "name": "67183ec36f198232c19dd271d1845583", "fusion_lon": 0.0}, {"is_reserved": 0, "type": "electric_scooter", "bike_id": "7fef7bad275c814740fde9be5c578b3e", "lat": 38.884972833333336, "lon": -77.020804, "rental_uris": {"android": "https://dc.lft.to/lastmile_qr_scan", "ios": "https://dc.lft.to/lastmile_qr_scan"}, "is_disabled": 0, "fusion_lat": 0.0, "name": "7fef7bad275c814740fde9be5c578b3e", "fusion_lon": 0.0}, {"is_reserved": 0, "type": "electric_scooter", "bike_id": "3b97e0555e25a90d70a9260884a26345", "lat": 38.90356033333333, "lon": -77.03188366666667, "rental_uris": {"android": "https://dc.lft.to/lastmile_qr_scan", "ios": "https://dc.lft.to/lastmile_qr_scan"}, "is_disabled": 0, "fusion_lat": 0.0, "name": "3b97e0555e25a90d70a9260884a26345", "fusion_lon": 0.0}, {"is_reserved": 0, "type": "electric_scooter", "bike_id": "038d8d051b275dfb6ef15c34893af74c", "lat": 38.905025, "lon": -77.029504, "rental_uris": {"android": "https://dc.lft.to/lastmile_qr_scan", "ios": "https://dc.lft.to/lastmile_qr_scan"}, "is_disabled": 0, "fusion_lat": 0.0, "name": "038d8d051b275dfb6ef15c34893af74c", "fusion_lon": 0.0}, {"is_reserved": 0, "type": "electric_scooter", "bike_id": "72d9712ab0d0190a25df125fd420bfa1", "lat": 38.886339666666665, "lon": -77.01286766666666, "rental_uris": {"android": "https://dc.lft.to/lastmile_qr_scan", "ios": "https://dc.lft.to/lastmile_qr_scan"}, "is_disabled": 0, "fusion_lat": 0.0, "name": "72d9712ab0d0190a25df125fd420bfa1", "fusion_lon": 0.0}, {"is_reserved": 0, "type": "electric_scooter", "bike_id": "367a819995415f7ed404538ed3178ec9", "lat": 38.91581016666667, "lon": -77.01236616666667, "rental_uris": {"android": "https://dc.lft.to/lastmile_qr_scan", "ios": "https://dc.lft.to/lastmile_qr_scan"}, "is_disabled": 0, "fusion_lat": 0.0, "name": "367a819995415f7ed404538ed3178ec9", "fusion_lon": 0.0}, {"is_reserved": 0, "type": "electric_scooter", "bike_id": "f45e59c97695d5752e740f38d7193bc2", "lat": 38.93001916666667, "lon": -77.01399266666667, "rental_uris": {"android": "https://dc.lft.to/lastmile_qr_scan", "ios": "https://dc.lft.to/lastmile_qr_scan"}, "is_disabled": 0, "fusion_lat": 0.0, "name": "f45e59c97695d5752e740f38d7193bc2", "fusion_lon": 0.0}, {"is_reserved": 0, "type": "electric_bike", "bike_id": "92ce0e6513ea052e4a4340b2c31cbf34", "lat": 38.862846, "lon": -76.98014566666667, "rental_uris": {"android": "https://dc.lft.to/lastmile_qr_scan", "ios": "https://dc.lft.to/lastmile_qr_scan"}, "is_disabled": 0, "fusion_lat": 0.0, "name": "92ce0e6513ea052e4a4340b2c31cbf34", "fusion_lon": 0.0}, {"is_reserved": 0, "type": "electric_scooter", "bike_id": "d08e7e63202cdc8f5c48400dab6f8013", "lat": 38.9292495, "lon": -77.02010016666667, "rental_uris": {"android": "https://dc.lft.to/lastmile_qr_scan", "ios": "https://dc.lft.to/lastmile_qr_scan"}, "is_disabled": 0, "fusion_lat": 0.0, "name": "d08e7e63202cdc8f5c48400dab6f8013", "fusion_lon": 0.0}, {"is_reserved": 0, "type": "electric_scooter", "bike_id": "1a18bb1a8bae9c59faec0fb28d4ecabc", "lat": 38.923769, "lon": -77.03668016666667, "rental_uris": {"android": "https://dc.lft.to/lastmile_qr_scan", "ios": "https://dc.lft.to/lastmile_qr_scan"}, "is_disabled": 0, "fusion_lat": 0.0, "name": "1a18bb1a8bae9c59faec0fb28d4ecabc", "fusion_lon": 0.0}, {"is_reserved": 0, "type": "electric_scooter", "bike_id": "419e9f44d73967044dff44b2b7679046", "lat": 38.944405, "lon": -77.02914033333333, "rental_uris": {"android": "https://dc.lft.to/lastmile_qr_scan", "ios": "https://dc.lft.to/lastmile_qr_scan"}, "is_disabled": 0, "fusion_lat": 0.0, "name": "419e9f44d73967044dff44b2b7679046", "fusion_lon": 0.0}, {"is_reserved": 0, "type": "electric_scooter", "bike_id": "ccbcdbf2f816411cbd4ea946d7e1194c", "lat": 38.88736766666667, "lon": -77.01355283333334, "rental_uris": {"android": "https://dc.lft.to/lastmile_qr_scan", "ios": "https://dc.lft.to/lastmile_qr_scan"}, "is_disabled": 0, "fusion_lat": 0.0, "name": "ccbcdbf2f816411cbd4ea946d7e1194c", "fusion_lon": 0.0}, {"is_reserved": 0, "type": "electric_scooter", "bike_id": "814bd734dcb589a07454d2a5075ce72b", "lat": 38.92365516666667, "lon": -77.03665866666667, "rental_uris": {"android": "https://dc.lft.to/lastmile_qr_scan", "ios": "https://dc.lft.to/lastmile_qr_scan"}, "is_disabled": 0, "fusion_lat": 0.0, "name": "814bd734dcb589a07454d2a5075ce72b", "fusion_lon": 0.0}, {"is_reserved": 0, "type": "electric_scooter", "bike_id": "baa3a0d832f127d3814749d5d9999b84", "lat": 38.918166, "lon": -77.04181583333333, "rental_uris": {"android": "https://dc.lft.to/lastmile_qr_scan", "ios": "https://dc.lft.to/lastmile_qr_scan"}, "is_disabled": 0, "fusion_lat": 0.0, "name": "baa3a0d832f127d3814749d5d9999b84", "fusion_lon": 0.0}, {"is_reserved": 0, "type": "electric_scooter", "bike_id": "281c16588ab327685544d361c2f5d14c", "lat": 38.92150916666667, "lon": -77.03508866666667, "rental_uris": {"android": "https://dc.lft.to/lastmile_qr_scan", "ios": "https://dc.lft.to/lastmile_qr_scan"}, "is_disabled": 0, "fusion_lat": 0.0, "name": "281c16588ab327685544d361c2f5d14c", "fusion_lon": 0.0}, {"is_reserved": 0, "type": "electric_scooter", "bike_id": "01815927c6c1a355fff84ca194572343", "lat": 38.935692333333336, "lon": -77.03266133333334, "rental_uris": {"android": "https://dc.lft.to/lastmile_qr_scan", "ios": "https://dc.lft.to/lastmile_qr_scan"}, "is_disabled": 0, "fusion_lat": 0.0, "name": "01815927c6c1a355fff84ca194572343", "fusion_lon": 0.0}, {"is_reserved": 0, "type": "electric_scooter", "bike_id": "58a13a22840804bb759c4161957463a3", "lat": 38.92585116666667, "lon": -77.01222033333333, "rental_uris": {"android": "https://dc.lft.to/lastmile_qr_scan", "ios": "https://dc.lft.to/lastmile_qr_scan"}, "is_disabled": 0, "fusion_lat": 0.0, "name": "58a13a22840804bb759c4161957463a3", "fusion_lon": 0.0}, {"is_reserved": 0, "type": "electric_bike", "bike_id": "a5e1f6a7d427e47d805ddd9504d1d615", "lat": 38.840508, "lon": -77.05601333333334, "rental_uris": {"android": "https://dc.lft.to/lastmile_qr_scan", "ios": "https://dc.lft.to/lastmile_qr_scan"}, "is_disabled": 0, "fusion_lat": 0.0, "name": "a5e1f6a7d427e47d805ddd9504d1d615", "fusion_lon": 0.0}, {"is_reserved": 0, "type": "electric_scooter", "bike_id": "b5ff58aec12a93daf97b637698eab435", "lat": 38.89926233333333, "lon": -77.031935, "rental_uris": {"android": "https://dc.lft.to/lastmile_qr_scan", "ios": "https://dc.lft.to/lastmile_qr_scan"}, "is_disabled": 0, "fusion_lat": 0.0, "name": "b5ff58aec12a93daf97b637698eab435", "fusion_lon": 0.0}, {"is_reserved": 0, "type": "electric_scooter", "bike_id": "09fa0583a746a966ef752a460e125af7", "lat": 38.899101333333334, "lon": -76.93366466666667, "rental_uris": {"android": "https://dc.lft.to/lastmile_qr_scan", "ios": "https://dc.lft.to/lastmile_qr_scan"}, "is_disabled": 0, "fusion_lat": 0.0, "name": "09fa0583a746a966ef752a460e125af7", "fusion_lon": 0.0}, {"is_reserved": 0, "type": "electric_scooter", "bike_id": "1a5fe0f5e26fcb312e2d08978b84084a", "lat": 38.94658583333333, "lon": -77.03284833333333, "rental_uris": {"android": "https://dc.lft.to/lastmile_qr_scan", "ios": "https://dc.lft.to/lastmile_qr_scan"}, "is_disabled": 0, "fusion_lat": 0.0, "name": "1a5fe0f5e26fcb312e2d08978b84084a", "fusion_lon": 0.0}, {"is_reserved": 0, "type": "electric_scooter", "bike_id": "af59e3db17f9336a9bf1d0d508652aa0", "lat": 38.91214983333333, "lon": -77.04597283333334, "rental_uris": {"android": "https://dc.lft.to/lastmile_qr_scan", "ios": "https://dc.lft.to/lastmile_qr_scan"}, "is_disabled": 0, "fusion_lat": 0.0, "name": "af59e3db17f9336a9bf1d0d508652aa0", "fusion_lon": 0.0}, {"is_reserved": 0, "type": "electric_scooter", "bike_id": "fe7dd776632c915d1552c64f9983fdcd", "lat": 38.93644466666667, "lon": -77.036946, "rental_uris": {"android": "https://dc.lft.to/lastmile_qr_scan", "ios": "https://dc.lft.to/lastmile_qr_scan"}, "is_disabled": 0, "fusion_lat": 0.0, "name": "fe7dd776632c915d1552c64f9983fdcd", "fusion_lon": 0.0}, {"is_reserved": 0, "type": "electric_scooter", "bike_id": "3ebb97cbc0e34bedb017f8cf8948e820", "lat": 38.90037516666666, "lon": -76.991549, "rental_uris": {"android": "https://dc.lft.to/lastmile_qr_scan", "ios": "https://dc.lft.to/lastmile_qr_scan"}, "is_disabled": 0, "fusion_lat": 0.0, "name": "3ebb97cbc0e34bedb017f8cf8948e820", "fusion_lon": 0.0}, {"is_reserved": 0, "type": "electric_scooter", "bike_id": "0a6c0c0cf627b2ba70b0491625990a2c", "lat": 38.921418, "lon": -77.04580533333333, "rental_uris": {"android": "https://dc.lft.to/lastmile_qr_scan", "ios": "https://dc.lft.to/lastmile_qr_scan"}, "is_disabled": 0, "fusion_lat": 0.0, "name": "0a6c0c0cf627b2ba70b0491625990a2c", "fusion_lon": 0.0}, {"is_reserved": 0, "type": "electric_scooter", "bike_id": "c10939c652c2928415af5a66b38a79a8", "lat": 38.938964166666665, "lon": -77.03357116666666, "rental_uris": {"android": "https://dc.lft.to/lastmile_qr_scan", "ios": "https://dc.lft.to/lastmile_qr_scan"}, "is_disabled": 0, "fusion_lat": 0.0, "name": "c10939c652c2928415af5a66b38a79a8", "fusion_lon": 0.0}, {"is_reserved": 0, "type": "electric_scooter", "bike_id": "6d28ca7470256fbf945a857976c864fe", "lat": 38.90298833333333, "lon": -77.002183, "rental_uris": {"android": "https://dc.lft.to/lastmile_qr_scan", "ios": "https://dc.lft.to/lastmile_qr_scan"}, "is_disabled": 0, "fusion_lat": 0.0, "name": "6d28ca7470256fbf945a857976c864fe", "fusion_lon": 0.0}, {"is_reserved": 0, "type": "electric_scooter", "bike_id": "ac02539ca8c276be14fb8de72e9a0416", "lat": 38.92313516666667, "lon": -77.04132783333333, "rental_uris": {"android": "https://dc.lft.to/lastmile_qr_scan", "ios": "https://dc.lft.to/lastmile_qr_scan"}, "is_disabled": 0, "fusion_lat": 0.0, "name": "ac02539ca8c276be14fb8de72e9a0416", "fusion_lon": 0.0}, {"is_reserved": 0, "type": "electric_scooter", "bike_id": "0f14f5408eb07fc25dde4181e4b25eaa", "lat": 38.893538666666664, "lon": -77.02814166666667, "rental_uris": {"android": "https://dc.lft.to/lastmile_qr_scan", "ios": "https://dc.lft.to/lastmile_qr_scan"}, "is_disabled": 0, "fusion_lat": 0.0, "name": "0f14f5408eb07fc25dde4181e4b25eaa", "fusion_lon": 0.0}, {"is_reserved": 0, "type": "electric_scooter", "bike_id": "869e1463e780c9c8419a91f25cb394e8", "lat": 38.899478, "lon": -77.0219665, "rental_uris": {"android": "https://dc.lft.to/lastmile_qr_scan", "ios": "https://dc.lft.to/lastmile_qr_scan"}, "is_disabled": 0, "fusion_lat": 0.0, "name": "869e1463e780c9c8419a91f25cb394e8", "fusion_lon": 0.0}, {"is_reserved": 0, "type": "electric_scooter", "bike_id": "27712eefe536c007d653489fda1c1a6b", "lat": 38.889843666666664, "lon": -77.00075366666667, "rental_uris": {"android": "https://dc.lft.to/lastmile_qr_scan", "ios": "https://dc.lft.to/lastmile_qr_scan"}, "is_disabled": 0, "fusion_lat": 0.0, "name": "27712eefe536c007d653489fda1c1a6b", "fusion_lon": 0.0}, {"is_reserved": 0, "type": "electric_scooter", "bike_id": "fbc03895b0951d3f3a8071080acfdb46", "lat": 38.925727, "lon": -76.9951115, "rental_uris": {"android": "https://dc.lft.to/lastmile_qr_scan", "ios": "https://dc.lft.to/lastmile_qr_scan"}, "is_disabled": 0, "fusion_lat": 0.0, "name": "fbc03895b0951d3f3a8071080acfdb46", "fusion_lon": 0.0}, {"is_reserved": 0, "type": "electric_scooter", "bike_id": "080e7b9b52f1139fadb58768535a22b0", "lat": 38.90404783333334, "lon": -77.06777783333334, "rental_uris": {"android": "https://dc.lft.to/lastmile_qr_scan", "ios": "https://dc.lft.to/lastmile_qr_scan"}, "is_disabled": 0, "fusion_lat": 0.0, "name": "080e7b9b52f1139fadb58768535a22b0", "fusion_lon": 0.0}, {"is_reserved": 0, "type": "electric_bike", "bike_id": "8680cc1fa230c7af59d59810607af509", "lat": 38.89953583333333, "lon": -76.98582433333333, "rental_uris": {"android": "https://dc.lft.to/lastmile_qr_scan", "ios": "https://dc.lft.to/lastmile_qr_scan"}, "is_disabled": 0, "fusion_lat": 0.0, "name": "8680cc1fa230c7af59d59810607af509", "fusion_lon": 0.0}, {"is_reserved": 0, "type": "electric_scooter", "bike_id": "e91ad6288b8a1c34c80786178f9a140c", "lat": 38.91617983333333, "lon": -77.04874083333333, "rental_uris": {"android": "https://dc.lft.to/lastmile_qr_scan", "ios": "https://dc.lft.to/lastmile_qr_scan"}, "is_disabled": 0, "fusion_lat": 0.0, "name": "e91ad6288b8a1c34c80786178f9a140c", "fusion_lon": 0.0}, {"is_reserved": 0, "type": "electric_scooter", "bike_id": "2e505b3064cf506c834fbfb3e1b7f36a", "lat": 38.920895, "lon": -77.0136785, "rental_uris": {"android": "https://dc.lft.to/lastmile_qr_scan", "ios": "https://dc.lft.to/lastmile_qr_scan"}, "is_disabled": 0, "fusion_lat": 0.0, "name": "2e505b3064cf506c834fbfb3e1b7f36a", "fusion_lon": 0.0}, {"is_reserved": 0, "type": "electric_bike", "bike_id": "b3fe330190bf62b33f0a0b4833c5ab4e", "lat": 38.905263833333336, "lon": -76.99809283333333, "rental_uris": {"android": "https://dc.lft.to/lastmile_qr_scan", "ios": "https://dc.lft.to/lastmile_qr_scan"}, "is_disabled": 0, "fusion_lat": 0.0, "name": "b3fe330190bf62b33f0a0b4833c5ab4e", "fusion_lon": 0.0}, {"is_reserved": 0, "type": "electric_scooter", "bike_id": "df908f3925ca525ffa51bedf0a17a23e", "lat": 38.90184166666667, "lon": -77.02164566666667, "rental_uris": {"android": "https://dc.lft.to/lastmile_qr_scan", "ios": "https://dc.lft.to/lastmile_qr_scan"}, "is_disabled": 0, "fusion_lat": 0.0, "name": "df908f3925ca525ffa51bedf0a17a23e", "fusion_lon": 0.0}, {"is_reserved": 0, "type": "electric_scooter", "bike_id": "72049b3e23ad37e2aadcb618cf0ef941", "lat": 38.9037205, "lon": -77.0285755, "rental_uris": {"android": "https://dc.lft.to/lastmile_qr_scan", "ios": "https://dc.lft.to/lastmile_qr_scan"}, "is_disabled": 0, "fusion_lat": 0.0, "name": "72049b3e23ad37e2aadcb618cf0ef941", "fusion_lon": 0.0}, {"is_reserved": 0, "type": "electric_scooter", "bike_id": "7f56b388a653e7868c2d221c0505addb", "lat": 38.92399016666667, "lon": -76.95156266666666, "rental_uris": {"android": "https://dc.lft.to/lastmile_qr_scan", "ios": "https://dc.lft.to/lastmile_qr_scan"}, "is_disabled": 0, "fusion_lat": 0.0, "name": "7f56b388a653e7868c2d221c0505addb", "fusion_lon": 0.0}, {"is_reserved": 0, "type": "electric_scooter", "bike_id": "2d0b3a12d4e4960a968e6dc69e92c3ba", "lat": 38.9003645, "lon": -76.99038033333333, "rental_uris": {"android": "https://dc.lft.to/lastmile_qr_scan", "ios": "https://dc.lft.to/lastmile_qr_scan"}, "is_disabled": 0, "fusion_lat": 0.0, "name": "2d0b3a12d4e4960a968e6dc69e92c3ba", "fusion_lon": 0.0}, {"is_reserved": 0, "type": "electric_scooter", "bike_id": "69f0eda73659f9500563d2d5ed975a18", "lat": 38.909757166666665, "lon": -77.02411716666667, "rental_uris": {"android": "https://dc.lft.to/lastmile_qr_scan", "ios": "https://dc.lft.to/lastmile_qr_scan"}, "is_disabled": 0, "fusion_lat": 0.0, "name": "69f0eda73659f9500563d2d5ed975a18", "fusion_lon": 0.0}, {"is_reserved": 0, "type": "electric_scooter", "bike_id": "ada18eca5312b60b7f58048c90e195ee", "lat": 38.870866666666664, "lon": -77.01381733333334, "rental_uris": {"android": "https://dc.lft.to/lastmile_qr_scan", "ios": "https://dc.lft.to/lastmile_qr_scan"}, "is_disabled": 0, "fusion_lat": 0.0, "name": "ada18eca5312b60b7f58048c90e195ee", "fusion_lon": 0.0}, {"is_reserved": 0, "type": "electric_bike", "bike_id": "21b00cac27a9743bb16d91e6ccc014c6", "lat": 38.91224483333333, "lon": -77.047767, "rental_uris": {"android": "https://dc.lft.to/lastmile_qr_scan", "ios": "https://dc.lft.to/lastmile_qr_scan"}, "is_disabled": 0, "fusion_lat": 0.0, "name": "21b00cac27a9743bb16d91e6ccc014c6", "fusion_lon": 0.0}, {"is_reserved": 0, "type": "electric_scooter", "bike_id": "af13104127e8a7bf9659a09ef871af03", "lat": 38.8922455, "lon": -77.0160515, "rental_uris": {"android": "https://dc.lft.to/lastmile_qr_scan", "ios": "https://dc.lft.to/lastmile_qr_scan"}, "is_disabled": 0, "fusion_lat": 0.0, "name": "af13104127e8a7bf9659a09ef871af03", "fusion_lon": 0.0}, {"is_reserved": 0, "type": "electric_scooter", "bike_id": "c22b3b08da2a3c97f7ac26e0dc351cc0", "lat": 38.8991885, "lon": -77.01887483333333, "rental_uris": {"android": "https://dc.lft.to/lastmile_qr_scan", "ios": "https://dc.lft.to/lastmile_qr_scan"}, "is_disabled": 0, "fusion_lat": 0.0, "name": "c22b3b08da2a3c97f7ac26e0dc351cc0", "fusion_lon": 0.0}, {"is_reserved": 0, "type": "electric_scooter", "bike_id": "368c07ffafa6ec93b4412222da0ec084", "lat": 38.89884933333333, "lon": -77.0490005, "rental_uris": {"android": "https://dc.lft.to/lastmile_qr_scan", "ios": "https://dc.lft.to/lastmile_qr_scan"}, "is_disabled": 0, "fusion_lat": 0.0, "name": "368c07ffafa6ec93b4412222da0ec084", "fusion_lon": 0.0}, {"is_reserved": 0, "type": "electric_scooter", "bike_id": "e053c2339d2302cd4667fc9593788600", "lat": 38.89977533333333, "lon": -77.02901033333333, "rental_uris": {"android": "https://dc.lft.to/lastmile_qr_scan", "ios": "https://dc.lft.to/lastmile_qr_scan"}, "is_disabled": 0, "fusion_lat": 0.0, "name": "e053c2339d2302cd4667fc9593788600", "fusion_lon": 0.0}, {"is_reserved": 0, "type": "electric_scooter", "bike_id": "cca38b43104e6cf3d4490445ac27e6b2", "lat": 38.883978, "lon": -76.98985, "rental_uris": {"android": "https://dc.lft.to/lastmile_qr_scan", "ios": "https://dc.lft.to/lastmile_qr_scan"}, "is_disabled": 0, "fusion_lat": 0.0, "name": "cca38b43104e6cf3d4490445ac27e6b2", "fusion_lon": 0.0}, {"is_reserved": 0, "type": "electric_scooter", "bike_id": "ae38e099bfc2faeb974b5250bd6930a7", "lat": 38.91808116666667, "lon": -77.04027666666667, "rental_uris": {"android": "https://dc.lft.to/lastmile_qr_scan", "ios": "https://dc.lft.to/lastmile_qr_scan"}, "is_disabled": 0, "fusion_lat": 0.0, "name": "ae38e099bfc2faeb974b5250bd6930a7", "fusion_lon": 0.0}, {"is_reserved": 0, "type": "electric_bike", "bike_id": "6464cd0be94b80235946f10fd0f31247", "lat": 38.881136833333336, "lon": -77.016611, "rental_uris": {"android": "https://dc.lft.to/lastmile_qr_scan", "ios": "https://dc.lft.to/lastmile_qr_scan"}, "is_disabled": 0, "fusion_lat": 0.0, "name": "6464cd0be94b80235946f10fd0f31247", "fusion_lon": 0.0}, {"is_reserved": 0, "type": "electric_scooter", "bike_id": "10bf11c5895dc1db44bdb1a6c301ce90", "lat": 38.921124, "lon": -77.01762766666667, "rental_uris": {"android": "https://dc.lft.to/lastmile_qr_scan", "ios": "https://dc.lft.to/lastmile_qr_scan"}, "is_disabled": 0, "fusion_lat": 0.0, "name": "10bf11c5895dc1db44bdb1a6c301ce90", "fusion_lon": 0.0}, {"is_reserved": 0, "type": "electric_scooter", "bike_id": "9876705e7a034faaab3869f4b247ecf2", "lat": 38.942387833333335, "lon": -77.03589, "rental_uris": {"android": "https://dc.lft.to/lastmile_qr_scan", "ios": "https://dc.lft.to/lastmile_qr_scan"}, "is_disabled": 0, "fusion_lat": 0.0, "name": "9876705e7a034faaab3869f4b247ecf2", "fusion_lon": 0.0}, {"is_reserved": 0, "type": "electric_scooter", "bike_id": "0d1501f4c2fe654d668a39b9c7c78c96", "lat": 38.877588333333335, "lon": -76.99426416666667, "rental_uris": {"android": "https://dc.lft.to/lastmile_qr_scan", "ios": "https://dc.lft.to/lastmile_qr_scan"}, "is_disabled": 0, "fusion_lat": 0.0, "name": "0d1501f4c2fe654d668a39b9c7c78c96", "fusion_lon": 0.0}, {"is_reserved": 0, "type": "electric_scooter", "bike_id": "15cbd6576ffba93d9374e3974ca9f083", "lat": 38.89884516666667, "lon": -76.93179016666667, "rental_uris": {"android": "https://dc.lft.to/lastmile_qr_scan", "ios": "https://dc.lft.to/lastmile_qr_scan"}, "is_disabled": 0, "fusion_lat": 0.0, "name": "15cbd6576ffba93d9374e3974ca9f083", "fusion_lon": 0.0}, {"is_reserved": 0, "type": "electric_scooter", "bike_id": "d3f12e9970b6247facbb7d45d1e3f879", "lat": 38.915777166666665, "lon": -77.01232866666666, "rental_uris": {"android": "https://dc.lft.to/lastmile_qr_scan", "ios": "https://dc.lft.to/lastmile_qr_scan"}, "is_disabled": 0, "fusion_lat": 0.0, "name": "d3f12e9970b6247facbb7d45d1e3f879", "fusion_lon": 0.0}, {"is_reserved": 0, "type": "electric_scooter", "bike_id": "3c22f5aeec131703318288b38c29108d", "lat": 38.90065216666667, "lon": -76.92748516666667, "rental_uris": {"android": "https://dc.lft.to/lastmile_qr_scan", "ios": "https://dc.lft.to/lastmile_qr_scan"}, "is_disabled": 0, "fusion_lat": 0.0, "name": "3c22f5aeec131703318288b38c29108d", "fusion_lon": 0.0}, {"is_reserved": 0, "type": "electric_scooter", "bike_id": "1364336c6204cd35d7604afddd3ec2f9", "lat": 38.9198695, "lon": -77.02883183333333, "rental_uris": {"android": "https://dc.lft.to/lastmile_qr_scan", "ios": "https://dc.lft.to/lastmile_qr_scan"}, "is_disabled": 0, "fusion_lat": 0.0, "name": "1364336c6204cd35d7604afddd3ec2f9", "fusion_lon": 0.0}, {"is_reserved": 0, "type": "electric_scooter", "bike_id": "5f04d7d439858394889450f30b7b6d90", "lat": 38.91414, "lon": -77.03815683333333, "rental_uris": {"android": "https://dc.lft.to/lastmile_qr_scan", "ios": "https://dc.lft.to/lastmile_qr_scan"}, "is_disabled": 0, "fusion_lat": 0.0, "name": "5f04d7d439858394889450f30b7b6d90", "fusion_lon": 0.0}, {"is_reserved": 0, "type": "electric_scooter", "bike_id": "804cbbce04f82c96511ffc5897eebcc7", "lat": 38.94073783333333, "lon": -77.03335083333333, "rental_uris": {"android": "https://dc.lft.to/lastmile_qr_scan", "ios": "https://dc.lft.to/lastmile_qr_scan"}, "is_disabled": 0, "fusion_lat": 0.0, "name": "804cbbce04f82c96511ffc5897eebcc7", "fusion_lon": 0.0}, {"is_reserved": 0, "type": "electric_scooter", "bike_id": "3478fc095b95bc848ff286158ac41e85", "lat": 38.8975155, "lon": -77.00196966666667, "rental_uris": {"android": "https://dc.lft.to/lastmile_qr_scan", "ios": "https://dc.lft.to/lastmile_qr_scan"}, "is_disabled": 0, "fusion_lat": 0.0, "name": "3478fc095b95bc848ff286158ac41e85", "fusion_lon": 0.0}, {"is_reserved": 0, "type": "electric_scooter", "bike_id": "9fc25be46bb4ecd51ca903fe3eaffba2", "lat": 38.924450666666665, "lon": -77.04032883333333, "rental_uris": {"android": "https://dc.lft.to/lastmile_qr_scan", "ios": "https://dc.lft.to/lastmile_qr_scan"}, "is_disabled": 0, "fusion_lat": 0.0, "name": "9fc25be46bb4ecd51ca903fe3eaffba2", "fusion_lon": 0.0}, {"is_reserved": 0, "type": "electric_scooter", "bike_id": "557fe60704a96a6cdebd903ed033c3da", "lat": 38.8992, "lon": -76.97839733333333, "rental_uris": {"android": "https://dc.lft.to/lastmile_qr_scan", "ios": "https://dc.lft.to/lastmile_qr_scan"}, "is_disabled": 0, "fusion_lat": 0.0, "name": "557fe60704a96a6cdebd903ed033c3da", "fusion_lon": 0.0}, {"is_reserved": 0, "type": "electric_scooter", "bike_id": "3da0df1fbd8082bac712a3a485268129", "lat": 38.89218233333333, "lon": -77.0222355, "rental_uris": {"android": "https://dc.lft.to/lastmile_qr_scan", "ios": "https://dc.lft.to/lastmile_qr_scan"}, "is_disabled": 0, "fusion_lat": 0.0, "name": "3da0df1fbd8082bac712a3a485268129", "fusion_lon": 0.0}, {"is_reserved": 0, "type": "electric_scooter", "bike_id": "52c8333f61832917819fb13e1efa265a", "lat": 38.91122133333333, "lon": -77.04502016666666, "rental_uris": {"android": "https://dc.lft.to/lastmile_qr_scan", "ios": "https://dc.lft.to/lastmile_qr_scan"}, "is_disabled": 0, "fusion_lat": 0.0, "name": "52c8333f61832917819fb13e1efa265a", "fusion_lon": 0.0}, {"is_reserved": 0, "type": "electric_scooter", "bike_id": "f893f09012358c4d8c1f31c7ab4a57f7", "lat": 38.89606783333333, "lon": -77.04685416666666, "rental_uris": {"android": "https://dc.lft.to/lastmile_qr_scan", "ios": "https://dc.lft.to/lastmile_qr_scan"}, "is_disabled": 0, "fusion_lat": 0.0, "name": "f893f09012358c4d8c1f31c7ab4a57f7", "fusion_lon": 0.0}, {"is_reserved": 0, "type": "electric_scooter", "bike_id": "24fad69c1290f96dc5b340398d351642", "lat": 38.925762, "lon": -76.99495083333333, "rental_uris": {"android": "https://dc.lft.to/lastmile_qr_scan", "ios": "https://dc.lft.to/lastmile_qr_scan"}, "is_disabled": 0, "fusion_lat": 0.0, "name": "24fad69c1290f96dc5b340398d351642", "fusion_lon": 0.0}, {"is_reserved": 0, "type": "electric_scooter", "bike_id": "71d12a68f704a7aeab32039a7c597059", "lat": 38.9120005, "lon": -77.020059, "rental_uris": {"android": "https://dc.lft.to/lastmile_qr_scan", "ios": "https://dc.lft.to/lastmile_qr_scan"}, "is_disabled": 0, "fusion_lat": 0.0, "name": "71d12a68f704a7aeab32039a7c597059", "fusion_lon": 0.0}, {"is_reserved": 0, "type": "electric_scooter", "bike_id": "3f0421a9a38eab4229aec5335a270e94", "lat": 38.943796166666665, "lon": -77.02355066666667, "rental_uris": {"android": "https://dc.lft.to/lastmile_qr_scan", "ios": "https://dc.lft.to/lastmile_qr_scan"}, "is_disabled": 0, "fusion_lat": 0.0, "name": "3f0421a9a38eab4229aec5335a270e94", "fusion_lon": 0.0}, {"is_reserved": 0, "type": "electric_scooter", "bike_id": "da8ffaba28c7088029b9736d6e237128", "lat": 38.90022866666666, "lon": -77.00221, "rental_uris": {"android": "https://dc.lft.to/lastmile_qr_scan", "ios": "https://dc.lft.to/lastmile_qr_scan"}, "is_disabled": 0, "fusion_lat": 0.0, "name": "da8ffaba28c7088029b9736d6e237128", "fusion_lon": 0.0}, {"is_reserved": 0, "type": "electric_scooter", "bike_id": "51baeac1ff055b58d8e9f63bb1f675ef", "lat": 38.927213, "lon": -77.03552583333334, "rental_uris": {"android": "https://dc.lft.to/lastmile_qr_scan", "ios": "https://dc.lft.to/lastmile_qr_scan"}, "is_disabled": 0, "fusion_lat": 0.0, "name": "51baeac1ff055b58d8e9f63bb1f675ef", "fusion_lon": 0.0}, {"is_reserved": 0, "type": "electric_scooter", "bike_id": "b28dc229b512ebb315d8776fb211a2e3", "lat": 38.908640166666665, "lon": -77.01949583333334, "rental_uris": {"android": "https://dc.lft.to/lastmile_qr_scan", "ios": "https://dc.lft.to/lastmile_qr_scan"}, "is_disabled": 0, "fusion_lat": 0.0, "name": "b28dc229b512ebb315d8776fb211a2e3", "fusion_lon": 0.0}, {"is_reserved": 0, "type": "electric_scooter", "bike_id": "d14e5e6fe7514606cc11ff537a95bfcf", "lat": 38.902419, "lon": -77.01745033333333, "rental_uris": {"android": "https://dc.lft.to/lastmile_qr_scan", "ios": "https://dc.lft.to/lastmile_qr_scan"}, "is_disabled": 0, "fusion_lat": 0.0, "name": "d14e5e6fe7514606cc11ff537a95bfcf", "fusion_lon": 0.0}, {"is_reserved": 0, "type": "electric_scooter", "bike_id": "b595787e88c2ebe7488e4cba5ac681ae", "lat": 38.92856, "lon": -77.027382, "rental_uris": {"android": "https://dc.lft.to/lastmile_qr_scan", "ios": "https://dc.lft.to/lastmile_qr_scan"}, "is_disabled": 0, "fusion_lat": 0.0, "name": "b595787e88c2ebe7488e4cba5ac681ae", "fusion_lon": 0.0}, {"is_reserved": 0, "type": "electric_scooter", "bike_id": "4b77ffe650df9a077ff4ac00a11c64e8", "lat": 38.865261, "lon": -76.969102, "rental_uris": {"android": "https://dc.lft.to/lastmile_qr_scan", "ios": "https://dc.lft.to/lastmile_qr_scan"}, "is_disabled": 0, "fusion_lat": 0.0, "name": "4b77ffe650df9a077ff4ac00a11c64e8", "fusion_lon": 0.0}, {"is_reserved": 0, "type": "electric_scooter", "bike_id": "32c7edc6927b4ea205d308381a9e4df0", "lat": 38.896043, "lon": -77.04414983333334, "rental_uris": {"android": "https://dc.lft.to/lastmile_qr_scan", "ios": "https://dc.lft.to/lastmile_qr_scan"}, "is_disabled": 0, "fusion_lat": 0.0, "name": "32c7edc6927b4ea205d308381a9e4df0", "fusion_lon": 0.0}, {"is_reserved": 0, "type": "electric_scooter", "bike_id": "b4632fcd427b4fc2603427ae49547e9e", "lat": 38.90959333333333, "lon": -77.045833, "rental_uris": {"android": "https://dc.lft.to/lastmile_qr_scan", "ios": "https://dc.lft.to/lastmile_qr_scan"}, "is_disabled": 0, "fusion_lat": 0.0, "name": "b4632fcd427b4fc2603427ae49547e9e", "fusion_lon": 0.0}, {"is_reserved": 0, "type": "electric_scooter", "bike_id": "f1a56840c1e7333d31eb1a91581f36b7", "lat": 38.92152333333333, "lon": -77.0348635, "rental_uris": {"android": "https://dc.lft.to/lastmile_qr_scan", "ios": "https://dc.lft.to/lastmile_qr_scan"}, "is_disabled": 0, "fusion_lat": 0.0, "name": "f1a56840c1e7333d31eb1a91581f36b7", "fusion_lon": 0.0}, {"is_reserved": 0, "type": "electric_scooter", "bike_id": "082f3b2339f0b233140003d0c7320e10", "lat": 38.92907, "lon": -77.02099133333333, "rental_uris": {"android": "https://dc.lft.to/lastmile_qr_scan", "ios": "https://dc.lft.to/lastmile_qr_scan"}, "is_disabled": 0, "fusion_lat": 0.0, "name": "082f3b2339f0b233140003d0c7320e10", "fusion_lon": 0.0}, {"is_reserved": 0, "type": "electric_bike", "bike_id": "0c026a46e037462ee14ebc26dd04bf4a", "lat": 38.8025335, "lon": -77.114431, "rental_uris": {"android": "https://dc.lft.to/lastmile_qr_scan", "ios": "https://dc.lft.to/lastmile_qr_scan"}, "is_disabled": 0, "fusion_lat": 0.0, "name": "0c026a46e037462ee14ebc26dd04bf4a", "fusion_lon": 0.0}, {"is_reserved": 0, "type": "electric_scooter", "bike_id": "e654a9f892686b1df5bd245e3cd1aad9", "lat": 38.947298833333335, "lon": -77.02460516666666, "rental_uris": {"android": "https://dc.lft.to/lastmile_qr_scan", "ios": "https://dc.lft.to/lastmile_qr_scan"}, "is_disabled": 0, "fusion_lat": 0.0, "name": "e654a9f892686b1df5bd245e3cd1aad9", "fusion_lon": 0.0}, {"is_reserved": 0, "type": "electric_scooter", "bike_id": "337a3cb22d7d6b8a55d415000425908e", "lat": 38.93373666666667, "lon": -77.057253, "rental_uris": {"android": "https://dc.lft.to/lastmile_qr_scan", "ios": "https://dc.lft.to/lastmile_qr_scan"}, "is_disabled": 0, "fusion_lat": 0.0, "name": "337a3cb22d7d6b8a55d415000425908e", "fusion_lon": 0.0}, {"is_reserved": 0, "type": "electric_scooter", "bike_id": "0cc7b7b0e87d15d7437a987a07d63512", "lat": 38.922378333333334, "lon": -77.0212415, "rental_uris": {"android": "https://dc.lft.to/lastmile_qr_scan", "ios": "https://dc.lft.to/lastmile_qr_scan"}, "is_disabled": 0, "fusion_lat": 0.0, "name": "0cc7b7b0e87d15d7437a987a07d63512", "fusion_lon": 0.0}, {"is_reserved": 0, "type": "electric_scooter", "bike_id": "cb689a624dc54cedb5ab7bb1eb8c09af", "lat": 38.911735666666665, "lon": -77.00501133333333, "rental_uris": {"android": "https://dc.lft.to/lastmile_qr_scan", "ios": "https://dc.lft.to/lastmile_qr_scan"}, "is_disabled": 0, "fusion_lat": 0.0, "name": "cb689a624dc54cedb5ab7bb1eb8c09af", "fusion_lon": 0.0}, {"is_reserved": 0, "type": "electric_scooter", "bike_id": "ecc5e7a6f15aef5bed5aebbd39f0c761", "lat": 38.899823, "lon": -77.02277233333334, "rental_uris": {"android": "https://dc.lft.to/lastmile_qr_scan", "ios": "https://dc.lft.to/lastmile_qr_scan"}, "is_disabled": 0, "fusion_lat": 0.0, "name": "ecc5e7a6f15aef5bed5aebbd39f0c761", "fusion_lon": 0.0}, {"is_reserved": 0, "type": "electric_scooter", "bike_id": "bc742710969c57c38358effd1bd5efd5", "lat": 38.9256505, "lon": -76.97008733333334, "rental_uris": {"android": "https://dc.lft.to/lastmile_qr_scan", "ios": "https://dc.lft.to/lastmile_qr_scan"}, "is_disabled": 0, "fusion_lat": 0.0, "name": "bc742710969c57c38358effd1bd5efd5", "fusion_lon": 0.0}, {"is_reserved": 0, "type": "electric_scooter", "bike_id": "154282ce8b8cb0bef649f6a832227105", "lat": 38.90037516666666, "lon": -76.99160733333333, "rental_uris": {"android": "https://dc.lft.to/lastmile_qr_scan", "ios": "https://dc.lft.to/lastmile_qr_scan"}, "is_disabled": 0, "fusion_lat": 0.0, "name": "154282ce8b8cb0bef649f6a832227105", "fusion_lon": 0.0}, {"is_reserved": 0, "type": "electric_scooter", "bike_id": "560ca2f73eb32577c15e9dd71fb3411b", "lat": 38.892193666666664, "lon": -77.0231245, "rental_uris": {"android": "https://dc.lft.to/lastmile_qr_scan", "ios": "https://dc.lft.to/lastmile_qr_scan"}, "is_disabled": 0, "fusion_lat": 0.0, "name": "560ca2f73eb32577c15e9dd71fb3411b", "fusion_lon": 0.0}, {"is_reserved": 0, "type": "electric_scooter", "bike_id": "a65bbb870797071128cae5d5149e7361", "lat": 38.93085933333333, "lon": -77.03443066666667, "rental_uris": {"android": "https://dc.lft.to/lastmile_qr_scan", "ios": "https://dc.lft.to/lastmile_qr_scan"}, "is_disabled": 0, "fusion_lat": 0.0, "name": "a65bbb870797071128cae5d5149e7361", "fusion_lon": 0.0}, {"is_reserved": 0, "type": "electric_bike", "bike_id": "b5de171debd5ad2cd64143121e06f838", "lat": 38.951331833333334, "lon": -76.9659345, "rental_uris": {"android": "https://dc.lft.to/lastmile_qr_scan", "ios": "https://dc.lft.to/lastmile_qr_scan"}, "is_disabled": 0, "fusion_lat": 0.0, "name": "b5de171debd5ad2cd64143121e06f838", "fusion_lon": 0.0}, {"is_reserved": 0, "type": "electric_scooter", "bike_id": "05685803b5b0940c5783ae52eaaabe3a", "lat": 38.899249833333336, "lon": -77.03207383333333, "rental_uris": {"android": "https://dc.lft.to/lastmile_qr_scan", "ios": "https://dc.lft.to/lastmile_qr_scan"}, "is_disabled": 0, "fusion_lat": 0.0, "name": "05685803b5b0940c5783ae52eaaabe3a", "fusion_lon": 0.0}, {"is_reserved": 0, "type": "electric_scooter", "bike_id": "7ea077b43eb92ef83ee512efd4279138", "lat": 38.89362916666666, "lon": -76.94106566666666, "rental_uris": {"android": "https://dc.lft.to/lastmile_qr_scan", "ios": "https://dc.lft.to/lastmile_qr_scan"}, "is_disabled": 0, "fusion_lat": 0.0, "name": "7ea077b43eb92ef83ee512efd4279138", "fusion_lon": 0.0}, {"is_reserved": 0, "type": "electric_scooter", "bike_id": "48ffd9c9aeb21d2a58069b820a85dbde", "lat": 38.92288766666667, "lon": -76.99774066666667, "rental_uris": {"android": "https://dc.lft.to/lastmile_qr_scan", "ios": "https://dc.lft.to/lastmile_qr_scan"}, "is_disabled": 0, "fusion_lat": 0.0, "name": "48ffd9c9aeb21d2a58069b820a85dbde", "fusion_lon": 0.0}, {"is_reserved": 0, "type": "electric_scooter", "bike_id": "3344d8f9f8a6b4531b3c154d943f54ea", "lat": 38.92967983333333, "lon": -77.0234665, "rental_uris": {"android": "https://dc.lft.to/lastmile_qr_scan", "ios": "https://dc.lft.to/lastmile_qr_scan"}, "is_disabled": 0, "fusion_lat": 0.0, "name": "3344d8f9f8a6b4531b3c154d943f54ea", "fusion_lon": 0.0}, {"is_reserved": 0, "type": "electric_scooter", "bike_id": "c8868754e80dc501d84249befe236c44", "lat": 38.904462, "lon": -76.99625, "rental_uris": {"android": "https://dc.lft.to/lastmile_qr_scan", "ios": "https://dc.lft.to/lastmile_qr_scan"}, "is_disabled": 0, "fusion_lat": 0.0, "name": "c8868754e80dc501d84249befe236c44", "fusion_lon": 0.0}, {"is_reserved": 0, "type": "electric_scooter", "bike_id": "fa7a061057b8073a4ed8facd42968752", "lat": 38.8747635, "lon": -77.000356, "rental_uris": {"android": "https://dc.lft.to/lastmile_qr_scan", "ios": "https://dc.lft.to/lastmile_qr_scan"}, "is_disabled": 0, "fusion_lat": 0.0, "name": "fa7a061057b8073a4ed8facd42968752", "fusion_lon": 0.0}, {"is_reserved": 0, "type": "electric_scooter", "bike_id": "2f899bf67793d98d94fbe8acc7d0db0f", "lat": 38.85652066666667, "lon": -76.996728, "rental_uris": {"android": "https://dc.lft.to/lastmile_qr_scan", "ios": "https://dc.lft.to/lastmile_qr_scan"}, "is_disabled": 0, "fusion_lat": 0.0, "name": "2f899bf67793d98d94fbe8acc7d0db0f", "fusion_lon": 0.0}, {"is_reserved": 0, "type": "electric_scooter", "bike_id": "6b2bf2fbfc790aba3d80601f0e467226", "lat": 38.935008, "lon": -77.04287966666666, "rental_uris": {"android": "https://dc.lft.to/lastmile_qr_scan", "ios": "https://dc.lft.to/lastmile_qr_scan"}, "is_disabled": 0, "fusion_lat": 0.0, "name": "6b2bf2fbfc790aba3d80601f0e467226", "fusion_lon": 0.0}, {"is_reserved": 0, "type": "electric_scooter", "bike_id": "690f80e09a0b3832daba4a0f57a1e04d", "lat": 38.8771665, "lon": -77.018548, "rental_uris": {"android": "https://dc.lft.to/lastmile_qr_scan", "ios": "https://dc.lft.to/lastmile_qr_scan"}, "is_disabled": 0, "fusion_lat": 0.0, "name": "690f80e09a0b3832daba4a0f57a1e04d", "fusion_lon": 0.0}, {"is_reserved": 0, "type": "electric_bike", "bike_id": "71505b54a2d3c5cc3b9fd41aa9622b9b", "lat": 38.89456083333334, "lon": -77.10369916666667, "rental_uris": {"android": "https://dc.lft.to/lastmile_qr_scan", "ios": "https://dc.lft.to/lastmile_qr_scan"}, "is_disabled": 0, "fusion_lat": 0.0, "name": "71505b54a2d3c5cc3b9fd41aa9622b9b", "fusion_lon": 0.0}, {"is_reserved": 0, "type": "electric_scooter", "bike_id": "0fb1d214d10bd913a18e646432ee1aac", "lat": 38.90023716666666, "lon": -76.98831066666666, "rental_uris": {"android": "https://dc.lft.to/lastmile_qr_scan", "ios": "https://dc.lft.to/lastmile_qr_scan"}, "is_disabled": 0, "fusion_lat": 0.0, "name": "0fb1d214d10bd913a18e646432ee1aac", "fusion_lon": 0.0}, {"is_reserved": 0, "type": "electric_scooter", "bike_id": "7391ab673430a12fc74999e54782d2f5", "lat": 38.92399833333333, "lon": -77.05045016666666, "rental_uris": {"android": "https://dc.lft.to/lastmile_qr_scan", "ios": "https://dc.lft.to/lastmile_qr_scan"}, "is_disabled": 0, "fusion_lat": 0.0, "name": "7391ab673430a12fc74999e54782d2f5", "fusion_lon": 0.0}, {"is_reserved": 0, "type": "electric_scooter", "bike_id": "1f69927cbdc0e0c6412d4a295a0e4c13", "lat": 38.90772166666667, "lon": -77.00230866666666, "rental_uris": {"android": "https://dc.lft.to/lastmile_qr_scan", "ios": "https://dc.lft.to/lastmile_qr_scan"}, "is_disabled": 0, "fusion_lat": 0.0, "name": "1f69927cbdc0e0c6412d4a295a0e4c13", "fusion_lon": 0.0}, {"is_reserved": 0, "type": "electric_scooter", "bike_id": "491e1e62dcf937890a813a0538154301", "lat": 38.902606666666664, "lon": -77.01844083333333, "rental_uris": {"android": "https://dc.lft.to/lastmile_qr_scan", "ios": "https://dc.lft.to/lastmile_qr_scan"}, "is_disabled": 0, "fusion_lat": 0.0, "name": "491e1e62dcf937890a813a0538154301", "fusion_lon": 0.0}, {"is_reserved": 0, "type": "electric_scooter", "bike_id": "ce80ba7a3ecdfa4ea52cec2ef4b029e7", "lat": 38.91283683333333, "lon": -77.07278166666667, "rental_uris": {"android": "https://dc.lft.to/lastmile_qr_scan", "ios": "https://dc.lft.to/lastmile_qr_scan"}, "is_disabled": 0, "fusion_lat": 0.0, "name": "ce80ba7a3ecdfa4ea52cec2ef4b029e7", "fusion_lon": 0.0}, {"is_reserved": 0, "type": "electric_scooter", "bike_id": "47970e96841b8d7419026735d90cbf45", "lat": 38.9106555, "lon": -77.01612183333333, "rental_uris": {"android": "https://dc.lft.to/lastmile_qr_scan", "ios": "https://dc.lft.to/lastmile_qr_scan"}, "is_disabled": 0, "fusion_lat": 0.0, "name": "47970e96841b8d7419026735d90cbf45", "fusion_lon": 0.0}, {"is_reserved": 0, "type": "electric_scooter", "bike_id": "1fa5f27e7e8c251f732c66f5d2fef929", "lat": 38.918219, "lon": -77.03168066666667, "rental_uris": {"android": "https://dc.lft.to/lastmile_qr_scan", "ios": "https://dc.lft.to/lastmile_qr_scan"}, "is_disabled": 0, "fusion_lat": 0.0, "name": "1fa5f27e7e8c251f732c66f5d2fef929", "fusion_lon": 0.0}, {"is_reserved": 0, "type": "electric_scooter", "bike_id": "e69124fe34c1aa8c3d3f88986db975f5", "lat": 38.90862, "lon": -77.04590516666667, "rental_uris": {"android": "https://dc.lft.to/lastmile_qr_scan", "ios": "https://dc.lft.to/lastmile_qr_scan"}, "is_disabled": 0, "fusion_lat": 0.0, "name": "e69124fe34c1aa8c3d3f88986db975f5", "fusion_lon": 0.0}, {"is_reserved": 0, "type": "electric_scooter", "bike_id": "274840836d310310bc43c7a47190fcea", "lat": 38.94167066666667, "lon": -77.01822183333333, "rental_uris": {"android": "https://dc.lft.to/lastmile_qr_scan", "ios": "https://dc.lft.to/lastmile_qr_scan"}, "is_disabled": 0, "fusion_lat": 0.0, "name": "274840836d310310bc43c7a47190fcea", "fusion_lon": 0.0}, {"is_reserved": 0, "type": "electric_scooter", "bike_id": "a78f9f45d9e07ac8fbf469b159380778", "lat": 38.922001333333334, "lon": -77.03903683333333, "rental_uris": {"android": "https://dc.lft.to/lastmile_qr_scan", "ios": "https://dc.lft.to/lastmile_qr_scan"}, "is_disabled": 0, "fusion_lat": 0.0, "name": "a78f9f45d9e07ac8fbf469b159380778", "fusion_lon": 0.0}, {"is_reserved": 0, "type": "electric_scooter", "bike_id": "2cf0bc0737df9fe930cf31dce22af4fb", "lat": 38.913147, "lon": -77.036448, "rental_uris": {"android": "https://dc.lft.to/lastmile_qr_scan", "ios": "https://dc.lft.to/lastmile_qr_scan"}, "is_disabled": 0, "fusion_lat": 0.0, "name": "2cf0bc0737df9fe930cf31dce22af4fb", "fusion_lon": 0.0}, {"is_reserved": 0, "type": "electric_scooter", "bike_id": "48e4b93f548480ba6291690971e6e938", "lat": 38.907172, "lon": -77.04797866666667, "rental_uris": {"android": "https://dc.lft.to/lastmile_qr_scan", "ios": "https://dc.lft.to/lastmile_qr_scan"}, "is_disabled": 0, "fusion_lat": 0.0, "name": "48e4b93f548480ba6291690971e6e938", "fusion_lon": 0.0}, {"is_reserved": 0, "type": "electric_scooter", "bike_id": "72c8a993ba02d15f95127d783cc5a323", "lat": 38.90056766666667, "lon": -76.9856135, "rental_uris": {"android": "https://dc.lft.to/lastmile_qr_scan", "ios": "https://dc.lft.to/lastmile_qr_scan"}, "is_disabled": 0, "fusion_lat": 0.0, "name": "72c8a993ba02d15f95127d783cc5a323", "fusion_lon": 0.0}, {"is_reserved": 0, "type": "electric_scooter", "bike_id": "fd9d808a5c95e6097df6c05b41de6cd2", "lat": 38.917858, "lon": -77.021722, "rental_uris": {"android": "https://dc.lft.to/lastmile_qr_scan", "ios": "https://dc.lft.to/lastmile_qr_scan"}, "is_disabled": 0, "fusion_lat": 0.0, "name": "fd9d808a5c95e6097df6c05b41de6cd2", "fusion_lon": 0.0}, {"is_reserved": 0, "type": "electric_scooter", "bike_id": "465c9060b5a7042e2a0f3d3091f51ff0", "lat": 38.924473, "lon": -77.020422, "rental_uris": {"android": "https://dc.lft.to/lastmile_qr_scan", "ios": "https://dc.lft.to/lastmile_qr_scan"}, "is_disabled": 0, "fusion_lat": 0.0, "name": "465c9060b5a7042e2a0f3d3091f51ff0", "fusion_lon": 0.0}, {"is_reserved": 0, "type": "electric_scooter", "bike_id": "1fa173920995fd32d54ed938d2277fa6", "lat": 38.93329083333333, "lon": -77.02914383333334, "rental_uris": {"android": "https://dc.lft.to/lastmile_qr_scan", "ios": "https://dc.lft.to/lastmile_qr_scan"}, "is_disabled": 0, "fusion_lat": 0.0, "name": "1fa173920995fd32d54ed938d2277fa6", "fusion_lon": 0.0}, {"is_reserved": 0, "type": "electric_scooter", "bike_id": "67ab7158bc430a68df3fa682ebbda926", "lat": 38.91919383333333, "lon": -77.04809033333333, "rental_uris": {"android": "https://dc.lft.to/lastmile_qr_scan", "ios": "https://dc.lft.to/lastmile_qr_scan"}, "is_disabled": 0, "fusion_lat": 0.0, "name": "67ab7158bc430a68df3fa682ebbda926", "fusion_lon": 0.0}, {"is_reserved": 0, "type": "electric_scooter", "bike_id": "942ad9d34ee6f0ba4384dc652b92f322", "lat": 38.89836433333333, "lon": -77.022207, "rental_uris": {"android": "https://dc.lft.to/lastmile_qr_scan", "ios": "https://dc.lft.to/lastmile_qr_scan"}, "is_disabled": 0, "fusion_lat": 0.0, "name": "942ad9d34ee6f0ba4384dc652b92f322", "fusion_lon": 0.0}, {"is_reserved": 0, "type": "electric_scooter", "bike_id": "ebc492147786920eb943ca4984e18b0c", "lat": 38.9110725, "lon": -77.03829383333333, "rental_uris": {"android": "https://dc.lft.to/lastmile_qr_scan", "ios": "https://dc.lft.to/lastmile_qr_scan"}, "is_disabled": 0, "fusion_lat": 0.0, "name": "ebc492147786920eb943ca4984e18b0c", "fusion_lon": 0.0}, {"is_reserved": 0, "type": "electric_scooter", "bike_id": "1b4712e4f5bb6fb63bf15d105eceb461", "lat": 38.9117775, "lon": -77.02303266666667, "rental_uris": {"android": "https://dc.lft.to/lastmile_qr_scan", "ios": "https://dc.lft.to/lastmile_qr_scan"}, "is_disabled": 0, "fusion_lat": 0.0, "name": "1b4712e4f5bb6fb63bf15d105eceb461", "fusion_lon": 0.0}, {"is_reserved": 0, "type": "electric_scooter", "bike_id": "a9a8011738076278925900b8c7494573", "lat": 38.906124166666665, "lon": -77.0651835, "rental_uris": {"android": "https://dc.lft.to/lastmile_qr_scan", "ios": "https://dc.lft.to/lastmile_qr_scan"}, "is_disabled": 0, "fusion_lat": 0.0, "name": "a9a8011738076278925900b8c7494573", "fusion_lon": 0.0}, {"is_reserved": 0, "type": "electric_bike", "bike_id": "c347658e22b3098971329f38bd0389c7", "lat": 38.89565183333333, "lon": -77.12736933333333, "rental_uris": {"android": "https://dc.lft.to/lastmile_qr_scan", "ios": "https://dc.lft.to/lastmile_qr_scan"}, "is_disabled": 0, "fusion_lat": 0.0, "name": "c347658e22b3098971329f38bd0389c7", "fusion_lon": 0.0}, {"is_reserved": 0, "type": "electric_scooter", "bike_id": "98f16d218bcf6a2d13479b58b41a1e15", "lat": 38.9006245, "lon": -76.98660166666667, "rental_uris": {"android": "https://dc.lft.to/lastmile_qr_scan", "ios": "https://dc.lft.to/lastmile_qr_scan"}, "is_disabled": 0, "fusion_lat": 0.0, "name": "98f16d218bcf6a2d13479b58b41a1e15", "fusion_lon": 0.0}, {"is_reserved": 0, "type": "electric_scooter", "bike_id": "e0ef6f95dd9498fa359ff36cfbfffb2b", "lat": 38.89239233333333, "lon": -77.04488383333333, "rental_uris": {"android": "https://dc.lft.to/lastmile_qr_scan", "ios": "https://dc.lft.to/lastmile_qr_scan"}, "is_disabled": 0, "fusion_lat": 0.0, "name": "e0ef6f95dd9498fa359ff36cfbfffb2b", "fusion_lon": 0.0}, {"is_reserved": 0, "type": "electric_scooter", "bike_id": "100987f5c4262ffb11a489035c63499e", "lat": 38.937557, "lon": -77.0315845, "rental_uris": {"android": "https://dc.lft.to/lastmile_qr_scan", "ios": "https://dc.lft.to/lastmile_qr_scan"}, "is_disabled": 0, "fusion_lat": 0.0, "name": "100987f5c4262ffb11a489035c63499e", "fusion_lon": 0.0}, {"is_reserved": 0, "type": "electric_scooter", "bike_id": "c4cb18bbe60159e4dc5ad8152105cdea", "lat": 38.921012166666664, "lon": -77.01793666666667, "rental_uris": {"android": "https://dc.lft.to/lastmile_qr_scan", "ios": "https://dc.lft.to/lastmile_qr_scan"}, "is_disabled": 0, "fusion_lat": 0.0, "name": "c4cb18bbe60159e4dc5ad8152105cdea", "fusion_lon": 0.0}, {"is_reserved": 0, "type": "electric_scooter", "bike_id": "fda0c6ef4b39472241bf3965031cfb3f", "lat": 38.94030566666667, "lon": -77.026424, "rental_uris": {"android": "https://dc.lft.to/lastmile_qr_scan", "ios": "https://dc.lft.to/lastmile_qr_scan"}, "is_disabled": 0, "fusion_lat": 0.0, "name": "fda0c6ef4b39472241bf3965031cfb3f", "fusion_lon": 0.0}, {"is_reserved": 0, "type": "electric_scooter", "bike_id": "884a87aa42deaf3803d56437bcba82da", "lat": 38.903613, "lon": -77.01116733333333, "rental_uris": {"android": "https://dc.lft.to/lastmile_qr_scan", "ios": "https://dc.lft.to/lastmile_qr_scan"}, "is_disabled": 0, "fusion_lat": 0.0, "name": "884a87aa42deaf3803d56437bcba82da", "fusion_lon": 0.0}, {"is_reserved": 0, "type": "electric_scooter", "bike_id": "6d99f4b1b76d8daafd7820b0cb5ed5de", "lat": 38.896466, "lon": -77.0262205, "rental_uris": {"android": "https://dc.lft.to/lastmile_qr_scan", "ios": "https://dc.lft.to/lastmile_qr_scan"}, "is_disabled": 0, "fusion_lat": 0.0, "name": "6d99f4b1b76d8daafd7820b0cb5ed5de", "fusion_lon": 0.0}, {"is_reserved": 0, "type": "electric_scooter", "bike_id": "e8e0d8f1b490fb0ec008ea856b2e4190", "lat": 38.9071645, "lon": -77.0455655, "rental_uris": {"android": "https://dc.lft.to/lastmile_qr_scan", "ios": "https://dc.lft.to/lastmile_qr_scan"}, "is_disabled": 0, "fusion_lat": 0.0, "name": "e8e0d8f1b490fb0ec008ea856b2e4190", "fusion_lon": 0.0}, {"is_reserved": 0, "type": "electric_scooter", "bike_id": "02f7a7e7129fe112dc6e2b490b1fc342", "lat": 38.9333075, "lon": -77.0291265, "rental_uris": {"android": "https://dc.lft.to/lastmile_qr_scan", "ios": "https://dc.lft.to/lastmile_qr_scan"}, "is_disabled": 0, "fusion_lat": 0.0, "name": "02f7a7e7129fe112dc6e2b490b1fc342", "fusion_lon": 0.0}, {"is_reserved": 0, "type": "electric_scooter", "bike_id": "ef662f22ee3f41c1c7643f8fe0f43edc", "lat": 38.916267833333336, "lon": -77.0425535, "rental_uris": {"android": "https://dc.lft.to/lastmile_qr_scan", "ios": "https://dc.lft.to/lastmile_qr_scan"}, "is_disabled": 0, "fusion_lat": 0.0, "name": "ef662f22ee3f41c1c7643f8fe0f43edc", "fusion_lon": 0.0}, {"is_reserved": 0, "type": "electric_scooter", "bike_id": "8286f2abeb90f9d7f04ff34b0190deb0", "lat": 38.94977433333333, "lon": -77.02449516666667, "rental_uris": {"android": "https://dc.lft.to/lastmile_qr_scan", "ios": "https://dc.lft.to/lastmile_qr_scan"}, "is_disabled": 0, "fusion_lat": 0.0, "name": "8286f2abeb90f9d7f04ff34b0190deb0", "fusion_lon": 0.0}, {"is_reserved": 0, "type": "electric_scooter", "bike_id": "28b95209b88deb2042f45aca64012aa9", "lat": 38.907829166666666, "lon": -77.0096165, "rental_uris": {"android": "https://dc.lft.to/lastmile_qr_scan", "ios": "https://dc.lft.to/lastmile_qr_scan"}, "is_disabled": 0, "fusion_lat": 0.0, "name": "28b95209b88deb2042f45aca64012aa9", "fusion_lon": 0.0}, {"is_reserved": 0, "type": "electric_scooter", "bike_id": "1688b73fe93414183cf2b746f1e1145f", "lat": 38.87962233333333, "lon": -77.00848416666666, "rental_uris": {"android": "https://dc.lft.to/lastmile_qr_scan", "ios": "https://dc.lft.to/lastmile_qr_scan"}, "is_disabled": 0, "fusion_lat": 0.0, "name": "1688b73fe93414183cf2b746f1e1145f", "fusion_lon": 0.0}, {"is_reserved": 0, "type": "electric_scooter", "bike_id": "35b6ff557171d8d4338ff48084f7709d", "lat": 38.902339166666664, "lon": -77.016439, "rental_uris": {"android": "https://dc.lft.to/lastmile_qr_scan", "ios": "https://dc.lft.to/lastmile_qr_scan"}, "is_disabled": 0, "fusion_lat": 0.0, "name": "35b6ff557171d8d4338ff48084f7709d", "fusion_lon": 0.0}, {"is_reserved": 0, "type": "electric_bike", "bike_id": "cb59a6cbd3e8028af0b03c876a4783b1", "lat": 38.9213075, "lon": -77.00404616666667, "rental_uris": {"android": "https://dc.lft.to/lastmile_qr_scan", "ios": "https://dc.lft.to/lastmile_qr_scan"}, "is_disabled": 0, "fusion_lat": 0.0, "name": "cb59a6cbd3e8028af0b03c876a4783b1", "fusion_lon": 0.0}, {"is_reserved": 0, "type": "electric_scooter", "bike_id": "6648d106490d195f520c0c4132f1bd69", "lat": 38.90804283333333, "lon": -77.04891516666666, "rental_uris": {"android": "https://dc.lft.to/lastmile_qr_scan", "ios": "https://dc.lft.to/lastmile_qr_scan"}, "is_disabled": 0, "fusion_lat": 0.0, "name": "6648d106490d195f520c0c4132f1bd69", "fusion_lon": 0.0}, {"is_reserved": 0, "type": "electric_bike", "bike_id": "66e92365025d3376314a20ee500f5bc8", "lat": 38.891908, "lon": -76.98563083333333, "rental_uris": {"android": "https://dc.lft.to/lastmile_qr_scan", "ios": "https://dc.lft.to/lastmile_qr_scan"}, "is_disabled": 0, "fusion_lat": 0.0, "name": "66e92365025d3376314a20ee500f5bc8", "fusion_lon": 0.0}, {"is_reserved": 0, "type": "electric_scooter", "bike_id": "66f4a523aea25af981691f8c893ca264", "lat": 38.9114255, "lon": -77.02172866666666, "rental_uris": {"android": "https://dc.lft.to/lastmile_qr_scan", "ios": "https://dc.lft.to/lastmile_qr_scan"}, "is_disabled": 0, "fusion_lat": 0.0, "name": "66f4a523aea25af981691f8c893ca264", "fusion_lon": 0.0}, {"is_reserved": 0, "type": "electric_scooter", "bike_id": "7fee8ce2d65a6dd4663da574f05349d2", "lat": 38.917586166666666, "lon": -77.00454283333333, "rental_uris": {"android": "https://dc.lft.to/lastmile_qr_scan", "ios": "https://dc.lft.to/lastmile_qr_scan"}, "is_disabled": 0, "fusion_lat": 0.0, "name": "7fee8ce2d65a6dd4663da574f05349d2", "fusion_lon": 0.0}, {"is_reserved": 0, "type": "electric_scooter", "bike_id": "f17466563d6a0290c811aaf982031e17", "lat": 38.9274235, "lon": -77.02536283333333, "rental_uris": {"android": "https://dc.lft.to/lastmile_qr_scan", "ios": "https://dc.lft.to/lastmile_qr_scan"}, "is_disabled": 0, "fusion_lat": 0.0, "name": "f17466563d6a0290c811aaf982031e17", "fusion_lon": 0.0}, {"is_reserved": 0, "type": "electric_scooter", "bike_id": "79f1faa22d1014749875d4bbfe49e7de", "lat": 38.90729833333333, "lon": -77.01093816666666, "rental_uris": {"android": "https://dc.lft.to/lastmile_qr_scan", "ios": "https://dc.lft.to/lastmile_qr_scan"}, "is_disabled": 0, "fusion_lat": 0.0, "name": "79f1faa22d1014749875d4bbfe49e7de", "fusion_lon": 0.0},