{"data": {"bikes": [{"bike_id": "86833d61ea3f8ad3adbcad68c0cbd7a2", "type": "electric_scooter", "is_disabled": 0, "lat": 38.922293833333335, "rental_uris": {"ios": "https://dc.lft.to/lastmile_qr_scan", "android": "https://dc.lft.to/lastmile_qr_scan"}, "is_reserved": 0, "fusion_lon": 0.0, "fusion_lat": 0.0, "lon": -77.043742, "name": "86833d61ea3f8ad3adbcad68c0cbd7a2"}, {"bike_id": "0b8b924daf51cc14ba54d28652b7d9e6", "type": "electric_scooter", "is_disabled": 0, "lat": 38.90564883333333, "rental_uris": {"ios": "https://dc.lft.to/lastmile_qr_scan", "android": "https://dc.lft.to/lastmile_qr_scan"}, "is_reserved": 0, "fusion_lon": 0.0, "fusion_lat": 0.0, "lon": -77.00593633333334, "name": "0b8b924daf51cc14ba54d28652b7d9e6"}, {"bike_id": "dd0f6cb84dc6a7937978909b42ea741e", "type": "electric_scooter", "is_disabled": 0, "lat": 38.918565, "rental_uris": {"ios": "https://dc.lft.to/lastmile_qr_scan", "android": "https://dc.lft.to/lastmile_qr_scan"}, "is_reserved": 0, "fusion_lon": 0.0, "fusion_lat": 0.0, "lon": -76.96112566666666, "name": "dd0f6cb84dc6a7937978909b42ea741e"}, {"bike_id": "8a9baaaae2a5a3d86c1d4af9a3c00ad4", "type": "electric_scooter", "is_disabled": 0, "lat": 38.899961833333336, "rental_uris": {"ios": "https://dc.lft.to/lastmile_qr_scan", "android": "https://dc.lft.to/lastmile_qr_scan"}, "is_reserved": 0, "fusion_lon": 0.0, "fusion_lat": 0.0, "lon": -77.02705933333333, "name": "8a9baaaae2a5a3d86c1d4af9a3c00ad4"}, {"bike_id": "0f6a086feb959f4e47fa46c1c79a1243", "type": "electric_scooter", "is_disabled": 0, "lat": 38.88460333333333, "rental_uris": {"ios": "https://dc.lft.to/lastmile_qr_scan", "android": "https://dc.lft.to/lastmile_qr_scan"}, "is_reserved": 0, "fusion_lon": 0.0, "fusion_lat": 0.0, "lon": -77.00054133333333, "name": "0f6a086feb959f4e47fa46c1c79a1243"}, {"bike_id": "2a077e2e6bc9a53093e1fd1054906806", "type": "electric_scooter", "is_disabled": 0, "lat": 38.920493666666665, "rental_uris": {"ios": "https://dc.lft.to/lastmile_qr_scan", "android": "https://dc.lft.to/lastmile_qr_scan"}, "is_reserved": 0, "fusion_lon": 0.0, "fusion_lat": 0.0, "lon": -77.03392616666666, "name": "2a077e2e6bc9a53093e1fd1054906806"}, {"bike_id": "33e4daef1ff4c6fa6c87b8726b0f94d3", "type": "electric_scooter", "is_disabled": 0, "lat": 38.91803983333333, "rental_uris": {"ios": "https://dc.lft.to/lastmile_qr_scan", "android": "https://dc.lft.to/lastmile_qr_scan"}, "is_reserved": 0, "fusion_lon": 0.0, "fusion_lat": 0.0, "lon": -77.03075383333334, "name": "33e4daef1ff4c6fa6c87b8726b0f94d3"}, {"bike_id": "71ead9e95f8bfbbcad4422a1226295cb", "type": "electric_scooter", "is_disabled": 0, "lat": 38.920931833333334, "rental_uris": {"ios": "https://dc.lft.to/lastmile_qr_scan", "android": "https://dc.lft.to/lastmile_qr_scan"}, "is_reserved": 0, "fusion_lon": 0.0, "fusion_lat": 0.0, "lon": -77.0315975, "name": "71ead9e95f8bfbbcad4422a1226295cb"}, {"bike_id": "477a26471d1ac7c6ced131889429425f", "type": "electric_scooter", "is_disabled": 0, "lat": 38.8919315, "rental_uris": {"ios": "https://dc.lft.to/lastmile_qr_scan", "android": "https://dc.lft.to/lastmile_qr_scan"}, "is_reserved": 0, "fusion_lon": 0.0, "fusion_lat": 0.0, "lon": -77.0240795, "name": "477a26471d1ac7c6ced131889429425f"}, {"bike_id": "9a76cecc679fdb369f83e02e067bc91d", "type": "electric_scooter", "is_disabled": 0, "lat": 38.89558733333333, "rental_uris": {"ios": "https://dc.lft.to/lastmile_qr_scan", "android": "https://dc.lft.to/lastmile_qr_scan"}, "is_reserved": 0, "fusion_lon": 0.0, "fusion_lat": 0.0, "lon": -76.92962933333334, "name": "9a76cecc679fdb369f83e02e067bc91d"}, {"bike_id": "aac297af36a165d8a54a4b42678b1b60", "type": "electric_scooter", "is_disabled": 0, "lat": 38.940013, "rental_uris": {"ios": "https://dc.lft.to/lastmile_qr_scan", "android": "https://dc.lft.to/lastmile_qr_scan"}, "is_reserved": 0, "fusion_lon": 0.0, "fusion_lat": 0.0, "lon": -77.03802083333333, "name": "aac297af36a165d8a54a4b42678b1b60"}, {"bike_id": "5b1a75e6cefd2cfa023afd8af8e58c2d", "type": "electric_bike", "is_disabled": 0, "lat": 38.8593625, "rental_uris": {"ios": "https://dc.lft.to/lastmile_qr_scan", "android": "https://dc.lft.to/lastmile_qr_scan"}, "is_reserved": 0, "fusion_lon": 0.0, "fusion_lat": 0.0, "lon": -77.11831633333334, "name": "5b1a75e6cefd2cfa023afd8af8e58c2d"}, {"bike_id": "3ed2fea275b0050f16b4a7d837c481b5", "type": "electric_scooter", "is_disabled": 0, "lat": 38.91572266666667, "rental_uris": {"ios": "https://dc.lft.to/lastmile_qr_scan", "android": "https://dc.lft.to/lastmile_qr_scan"}, "is_reserved": 0, "fusion_lon": 0.0, "fusion_lat": 0.0, "lon": -77.01956416666667, "name": "3ed2fea275b0050f16b4a7d837c481b5"}, {"bike_id": "7bd1180f101ea889570eec0a975e4a7b", "type": "electric_scooter", "is_disabled": 0, "lat": 38.92358133333333, "rental_uris": {"ios": "https://dc.lft.to/lastmile_qr_scan", "android": "https://dc.lft.to/lastmile_qr_scan"}, "is_reserved": 0, "fusion_lon": 0.0, "fusion_lat": 0.0, "lon": -77.05051983333334, "name": "7bd1180f101ea889570eec0a975e4a7b"}, {"bike_id": "86b8eb49d3103b37bc43753525a4cefe", "type": "electric_bike", "is_disabled": 0, "lat": 38.823679166666665, "rental_uris": {"ios": "https://dc.lft.to/lastmile_qr_scan", "android": "https://dc.lft.to/lastmile_qr_scan"}, "is_reserved": 0, "fusion_lon": 0.0, "fusion_lat": 0.0, "lon": -77.00217733333334, "name": "86b8eb49d3103b37bc43753525a4cefe"}, {"bike_id": "5b370ca2ee8322676a727a2aceef24a1", "type": "electric_scooter", "is_disabled": 0, "lat": 38.8768965, "rental_uris": {"ios": "https://dc.lft.to/lastmile_qr_scan", "android": "https://dc.lft.to/lastmile_qr_scan"}, "is_reserved": 0, "fusion_lon": 0.0, "fusion_lat": 0.0, "lon": -77.01759216666666, "name": "5b370ca2ee8322676a727a2aceef24a1"}, {"bike_id": "dc8a98cf03395d87ce9c8a0a5be131fb", "type": "electric_scooter", "is_disabled": 0, "lat": 38.909571666666665, "rental_uris": {"ios": "https://dc.lft.to/lastmile_qr_scan", "android": "https://dc.lft.to/lastmile_qr_scan"}, "is_reserved": 0, "fusion_lon": 0.0, "fusion_lat": 0.0, "lon": -77.022761, "name": "dc8a98cf03395d87ce9c8a0a5be131fb"}, {"bike_id": "b154a7ccc345be3ce8a500a8acd60476", "type": "electric_scooter", "is_disabled": 0, "lat": 38.915559, "rental_uris": {"ios": "https://dc.lft.to/lastmile_qr_scan", "android": "https://dc.lft.to/lastmile_qr_scan"}, "is_reserved": 0, "fusion_lon": 0.0, "fusion_lat": 0.0, "lon": -77.0241735, "name": "b154a7ccc345be3ce8a500a8acd60476"}, {"bike_id": "54644f839aa2d26a4f68f1bbf0ea9375", "type": "electric_bike", "is_disabled": 0, "lat": 38.936062666666665, "rental_uris": {"ios": "https://dc.lft.to/lastmile_qr_scan", "android": "https://dc.lft.to/lastmile_qr_scan"}, "is_reserved": 0, "fusion_lon": 0.0, "fusion_lat": 0.0, "lon": -77.05855883333334, "name": "54644f839aa2d26a4f68f1bbf0ea9375"}, {"bike_id": "971e5271d45e36b9622a2c7067bad8ae", "type": "electric_scooter", "is_disabled": 0, "lat": 38.875300333333335, "rental_uris": {"ios": "https://dc.lft.to/lastmile_qr_scan", "android": "https://dc.lft.to/lastmile_qr_scan"}, "is_reserved": 0, "fusion_lon": 0.0, "fusion_lat": 0.0, "lon": -77.00061983333333, "name": "971e5271d45e36b9622a2c7067bad8ae"}, {"bike_id": "c0f726ce4523c5a4ac636d06dd902b19", "type": "electric_scooter", "is_disabled": 0, "lat": 38.913186833333334, "rental_uris": {"ios": "https://dc.lft.to/lastmile_qr_scan", "android": "https://dc.lft.to/lastmile_qr_scan"}, "is_reserved": 0, "fusion_lon": 0.0, "fusion_lat": 0.0, "lon": -77.03842383333334, "name": "c0f726ce4523c5a4ac636d06dd902b19"}, {"bike_id": "c9357ca3889fb5dff9cb17a745da648f", "type": "electric_scooter", "is_disabled": 0, "lat": 38.91103066666667, "rental_uris": {"ios": "https://dc.lft.to/lastmile_qr_scan", "android": "https://dc.lft.to/lastmile_qr_scan"}, "is_reserved": 0, "fusion_lon": 0.0, "fusion_lat": 0.0, "lon": -77.04989883333333, "name": "c9357ca3889fb5dff9cb17a745da648f"}, {"bike_id": "ceaa50e921b1737a17e0e8387171ce9a", "type": "electric_scooter", "is_disabled": 0, "lat": 38.92368533333333, "rental_uris": {"ios": "https://dc.lft.to/lastmile_qr_scan", "android": "https://dc.lft.to/lastmile_qr_scan"}, "is_reserved": 0, "fusion_lon": 0.0, "fusion_lat": 0.0, "lon": -77.05034666666667, "name": "ceaa50e921b1737a17e0e8387171ce9a"}, {"bike_id": "853abb17259dcbe647ddf5ea23f25122", "type": "electric_scooter", "is_disabled": 0, "lat": 38.917061, "rental_uris": {"ios": "https://dc.lft.to/lastmile_qr_scan", "android": "https://dc.lft.to/lastmile_qr_scan"}, "is_reserved": 0, "fusion_lon": 0.0, "fusion_lat": 0.0, "lon": -77.09576216666666, "name": "853abb17259dcbe647ddf5ea23f25122"}, {"bike_id": "d869773e8b43fba595ad344332a01e4b", "type": "electric_scooter", "is_disabled": 0, "lat": 38.92769716666667, "rental_uris": {"ios": "https://dc.lft.to/lastmile_qr_scan", "android": "https://dc.lft.to/lastmile_qr_scan"}, "is_reserved": 0, "fusion_lon": 0.0, "fusion_lat": 0.0, "lon": -76.98755966666667, "name": "d869773e8b43fba595ad344332a01e4b"}, {"bike_id": "d8b42401b6d4be628eaf310cc664bd02", "type": "electric_scooter", "is_disabled": 0, "lat": 38.88388783333333, "rental_uris": {"ios": "https://dc.lft.to/lastmile_qr_scan", "android": "https://dc.lft.to/lastmile_qr_scan"}, "is_reserved": 0, "fusion_lon": 0.0, "fusion_lat": 0.0, "lon": -77.017586, "name": "d8b42401b6d4be628eaf310cc664bd02"}, {"bike_id": "af44424e22ee99699d3110ac06c86007", "type": "electric_scooter", "is_disabled": 0, "lat": 38.904105333333334, "rental_uris": {"ios": "https://dc.lft.to/lastmile_qr_scan", "android": "https://dc.lft.to/lastmile_qr_scan"}, "is_reserved": 0, "fusion_lon": 0.0, "fusion_lat": 0.0, "lon": -76.97330566666666, "name": "af44424e22ee99699d3110ac06c86007"}, {"bike_id": "f634e5dd290692e417d27e18cd70b7f2", "type": "electric_scooter", "is_disabled": 0, "lat": 38.904153666666666, "rental_uris": {"ios": "https://dc.lft.to/lastmile_qr_scan", "android": "https://dc.lft.to/lastmile_qr_scan"}, "is_reserved": 0, "fusion_lon": 0.0, "fusion_lat": 0.0, "lon": -77.04995733333334, "name": "f634e5dd290692e417d27e18cd70b7f2"}, {"bike_id": "34f7fc64f8f955d9174f09b9bd50772e", "type": "electric_scooter", "is_disabled": 0, "lat": 38.912684, "rental_uris": {"ios": "https://dc.lft.to/lastmile_qr_scan", "android": "https://dc.lft.to/lastmile_qr_scan"}, "is_reserved": 0, "fusion_lon": 0.0, "fusion_lat": 0.0, "lon": -77.0222575, "name": "34f7fc64f8f955d9174f09b9bd50772e"}, {"bike_id": "dc5d5b497e85be57062ce2461b844710", "type": "electric_scooter", "is_disabled": 0, "lat": 38.943485, "rental_uris": {"ios": "https://dc.lft.to/lastmile_qr_scan", "android": "https://dc.lft.to/lastmile_qr_scan"}, "is_reserved": 0, "fusion_lon": 0.0, "fusion_lat": 0.0, "lon": -77.03763783333333, "name": "dc5d5b497e85be57062ce2461b844710"}, {"bike_id": "cb0f8aeb914b87657d7bcc736acdd21c", "type": "electric_scooter", "is_disabled": 0, "lat": 38.90302116666667, "rental_uris": {"ios": "https://dc.lft.to/lastmile_qr_scan", "android": "https://dc.lft.to/lastmile_qr_scan"}, "is_reserved": 0, "fusion_lon": 0.0, "fusion_lat": 0.0, "lon": -77.00891616666667, "name": "cb0f8aeb914b87657d7bcc736acdd21c"}, {"bike_id": "2e049a828a69d35dba6dced5745b6309", "type": "electric_scooter", "is_disabled": 0, "lat": 38.86684016666667, "rental_uris": {"ios": "https://dc.lft.to/lastmile_qr_scan", "android": "https://dc.lft.to/lastmile_qr_scan"}, "is_reserved": 0, "fusion_lon": 0.0, "fusion_lat": 0.0, "lon": -76.98576166666666, "name": "2e049a828a69d35dba6dced5745b6309"}, {"bike_id": "f6d51e779cf5e97ead0e0e221d9cd476", "type": "electric_scooter", "is_disabled": 0, "lat": 38.907694166666666, "rental_uris": {"ios": "https://dc.lft.to/lastmile_qr_scan", "android": "https://dc.lft.to/lastmile_qr_scan"}, "is_reserved": 0, "fusion_lon": 0.0, "fusion_lat": 0.0, "lon": -77.073959, "name": "f6d51e779cf5e97ead0e0e221d9cd476"}, {"bike_id": "805053ee82757653d12f50e253a60235", "type": "electric_scooter", "is_disabled": 0, "lat": 38.90240433333334, "rental_uris": {"ios": "https://dc.lft.to/lastmile_qr_scan", "android": "https://dc.lft.to/lastmile_qr_scan"}, "is_reserved": 0, "fusion_lon": 0.0, "fusion_lat": 0.0, "lon": -77.05899483333333, "name": "805053ee82757653d12f50e253a60235"}, {"bike_id": "65a680a99079a9cdd2dd2981775a5e47", "type": "electric_scooter", "is_disabled": 0, "lat": 38.9232105, "rental_uris": {"ios": "https://dc.lft.to/lastmile_qr_scan", "android": "https://dc.lft.to/lastmile_qr_scan"}, "is_reserved": 0, "fusion_lon": 0.0, "fusion_lat": 0.0, "lon": -77.02139016666666, "name": "65a680a99079a9cdd2dd2981775a5e47"}, {"bike_id": "da6797d527d226742ccb61eee79d5802", "type": "electric_scooter", "is_disabled": 0, "lat": 38.905449833333336, "rental_uris": {"ios": "https://dc.lft.to/lastmile_qr_scan", "android": "https://dc.lft.to/lastmile_qr_scan"}, "is_reserved": 0, "fusion_lon": 0.0, "fusion_lat": 0.0, "lon": -77.04160016666667, "name": "da6797d527d226742ccb61eee79d5802"}, {"bike_id": "45f62e8c7619f842a595920b5c537806", "type": "electric_scooter", "is_disabled": 0, "lat": 38.898316333333334, "rental_uris": {"ios": "https://dc.lft.to/lastmile_qr_scan", "android": "https://dc.lft.to/lastmile_qr_scan"}, "is_reserved": 0, "fusion_lon": 0.0, "fusion_lat": 0.0, "lon": -76.91952066666667, "name": "45f62e8c7619f842a595920b5c537806"}, {"bike_id": "ecafb8dd448c6db8097fd7f82d4137ed", "type": "electric_scooter", "is_disabled": 0, "lat": 38.95732066666667, "rental_uris": {"ios": "https://dc.lft.to/lastmile_qr_scan", "android": "https://dc.lft.to/lastmile_qr_scan"}, "is_reserved": 0, "fusion_lon": 0.0, "fusion_lat": 0.0, "lon": -77.02405983333334, "name": "ecafb8dd448c6db8097fd7f82d4137ed"}, {"bike_id": "6fe0dfc2708a625cdcc0b4a399b9ca0a", "type": "electric_scooter", "is_disabled": 0, "lat": 38.91550216666667, "rental_uris": {"ios": "https://dc.lft.to/lastmile_qr_scan", "android": "https://dc.lft.to/lastmile_qr_scan"}, "is_reserved": 0, "fusion_lon": 0.0, "fusion_lat": 0.0, "lon": -77.0444675, "name": "6fe0dfc2708a625cdcc0b4a399b9ca0a"}, {"bike_id": "e956bc2f3fd876b613188be5184795ff", "type": "electric_scooter", "is_disabled": 0, "lat": 38.86505066666667, "rental_uris": {"ios": "https://dc.lft.to/lastmile_qr_scan", "android": "https://dc.lft.to/lastmile_qr_scan"}, "is_reserved": 0, "fusion_lon": 0.0, "fusion_lat": 0.0, "lon": -76.9900625, "name": "e956bc2f3fd876b613188be5184795ff"}, {"bike_id": "90fdcb6cb9f07d32872d7c0b9f951961", "type": "electric_scooter", "is_disabled": 0, "lat": 38.929647, "rental_uris": {"ios": "https://dc.lft.to/lastmile_qr_scan", "android": "https://dc.lft.to/lastmile_qr_scan"}, "is_reserved": 0, "fusion_lon": 0.0, "fusion_lat": 0.0, "lon": -77.02789583333333, "name": "90fdcb6cb9f07d32872d7c0b9f951961"}, {"bike_id": "23401ad773080e05b223b27788fbfc7d", "type": "electric_scooter", "is_disabled": 0, "lat": 38.916666, "rental_uris": {"ios": "https://dc.lft.to/lastmile_qr_scan", "android": "https://dc.lft.to/lastmile_qr_scan"}, "is_reserved": 0, "fusion_lon": 0.0, "fusion_lat": 0.0, "lon": -77.02337366666667, "name": "23401ad773080e05b223b27788fbfc7d"}, {"bike_id": "c6a217b10e1046a6e04632c3aaa0257a", "type": "electric_scooter", "is_disabled": 0, "lat": 38.911740333333334, "rental_uris": {"ios": "https://dc.lft.to/lastmile_qr_scan", "android": "https://dc.lft.to/lastmile_qr_scan"}, "is_reserved": 0, "fusion_lon": 0.0, "fusion_lat": 0.0, "lon": -77.0044625, "name": "c6a217b10e1046a6e04632c3aaa0257a"}, {"bike_id": "2e0e6b32b886546a8433a6364d219438", "type": "electric_scooter", "is_disabled": 0, "lat": 38.8931455, "rental_uris": {"ios": "https://dc.lft.to/lastmile_qr_scan", "android": "https://dc.lft.to/lastmile_qr_scan"}, "is_reserved": 0, "fusion_lon": 0.0, "fusion_lat": 0.0, "lon": -77.03167633333334, "name": "2e0e6b32b886546a8433a6364d219438"}, {"bike_id": "1522d61f643feb79e62b3e1ec5b3d9ea", "type": "electric_scooter", "is_disabled": 0, "lat": 38.9015655, "rental_uris": {"ios": "https://dc.lft.to/lastmile_qr_scan", "android": "https://dc.lft.to/lastmile_qr_scan"}, "is_reserved": 0, "fusion_lon": 0.0, "fusion_lat": 0.0, "lon": -77.0296135, "name": "1522d61f643feb79e62b3e1ec5b3d9ea"}, {"bike_id": "07f8c7beea17991906f024c322c8e517", "type": "electric_scooter", "is_disabled": 0, "lat": 38.846386, "rental_uris": {"ios": "https://dc.lft.to/lastmile_qr_scan", "android": "https://dc.lft.to/lastmile_qr_scan"}, "is_reserved": 0, "fusion_lon": 0.0, "fusion_lat": 0.0, "lon": -76.99130683333334, "name": "07f8c7beea17991906f024c322c8e517"}, {"bike_id": "b73735d5363ef68177369cfe70f8d04e", "type": "electric_scooter", "is_disabled": 0, "lat": 38.91832383333333, "rental_uris": {"ios": "https://dc.lft.to/lastmile_qr_scan", "android": "https://dc.lft.to/lastmile_qr_scan"}, "is_reserved": 0, "fusion_lon": 0.0, "fusion_lat": 0.0, "lon": -77.0393675, "name": "b73735d5363ef68177369cfe70f8d04e"}, {"bike_id": "73fedd22492ede7d7567a299cc1098ac", "type": "electric_bike", "is_disabled": 0, "lat": 39.03572466666667, "rental_uris": {"ios": "https://dc.lft.to/lastmile_qr_scan", "android": "https://dc.lft.to/lastmile_qr_scan"}, "is_reserved": 0, "fusion_lon": 0.0, "fusion_lat": 0.0, "lon": -77.039367, "name": "73fedd22492ede7d7567a299cc1098ac"}, {"bike_id": "137db3b489b0f3ed2d8c8209ec5a3366", "type": "electric_scooter", "is_disabled": 0, "lat": 38.90539316666667, "rental_uris": {"ios": "https://dc.lft.to/lastmile_qr_scan", "android": "https://dc.lft.to/lastmile_qr_scan"}, "is_reserved": 0, "fusion_lon": 0.0, "fusion_lat": 0.0, "lon": -77.04157033333334, "name": "137db3b489b0f3ed2d8c8209ec5a3366"}, {"bike_id": "1fae2d9ec6547a4b95f30165047184f9", "type": "electric_scooter", "is_disabled": 0, "lat": 38.91755033333333, "rental_uris": {"ios": "https://dc.lft.to/lastmile_qr_scan", "android": "https://dc.lft.to/lastmile_qr_scan"}, "is_reserved": 0, "fusion_lon": 0.0, "fusion_lat": 0.0, "lon": -77.01754916666667, "name": "1fae2d9ec6547a4b95f30165047184f9"}, {"bike_id": "a69a24d7fb65c66d3c45775111fb159f", "type": "electric_scooter", "is_disabled": 0, "lat": 38.9056185, "rental_uris": {"ios": "https://dc.lft.to/lastmile_qr_scan", "android": "https://dc.lft.to/lastmile_qr_scan"}, "is_reserved": 0, "fusion_lon": 0.0, "fusion_lat": 0.0, "lon": -77.06529383333333, "name": "a69a24d7fb65c66d3c45775111fb159f"}, {"bike_id": "4b3d4d2543f6ef8ef66e9dbb98b98fe6", "type": "electric_scooter", "is_disabled": 0, "lat": 38.87457466666667, "rental_uris": {"ios": "https://dc.lft.to/lastmile_qr_scan", "android": "https://dc.lft.to/lastmile_qr_scan"}, "is_reserved": 0, "fusion_lon": 0.0, "fusion_lat": 0.0, "lon": -77.00939083333333, "name": "4b3d4d2543f6ef8ef66e9dbb98b98fe6"}, {"bike_id": "da0074647049e5405257055d4a4d04c3", "type": "electric_scooter", "is_disabled": 0, "lat": 38.89357483333333, "rental_uris": {"ios": "https://dc.lft.to/lastmile_qr_scan", "android": "https://dc.lft.to/lastmile_qr_scan"}, "is_reserved": 0, "fusion_lon": 0.0, "fusion_lat": 0.0, "lon": -76.94934566666667, "name": "da0074647049e5405257055d4a4d04c3"}, {"bike_id": "a45c9f4ecaa88278ebda5e3d80a311e8", "type": "electric_scooter", "is_disabled": 0, "lat": 38.935991666666666, "rental_uris": {"ios": "https://dc.lft.to/lastmile_qr_scan", "android": "https://dc.lft.to/lastmile_qr_scan"}, "is_reserved": 0, "fusion_lon": 0.0, "fusion_lat": 0.0, "lon": -77.03526416666666, "name": "a45c9f4ecaa88278ebda5e3d80a311e8"}, {"bike_id": "e59d23039d712fc31e54edeb78ad7930", "type": "electric_scooter", "is_disabled": 0, "lat": 38.926109333333336, "rental_uris": {"ios": "https://dc.lft.to/lastmile_qr_scan", "android": "https://dc.lft.to/lastmile_qr_scan"}, "is_reserved": 0, "fusion_lon": 0.0, "fusion_lat": 0.0, "lon": -77.021603, "name": "e59d23039d712fc31e54edeb78ad7930"}, {"bike_id": "79cfd88f6827cdd12d840ebcf58bf8b5", "type": "electric_bike", "is_disabled": 0, "lat": 38.82168, "rental_uris": {"ios": "https://dc.lft.to/lastmile_qr_scan", "android": "https://dc.lft.to/lastmile_qr_scan"}, "is_reserved": 0, "fusion_lon": 0.0, "fusion_lat": 0.0, "lon": -76.99503483333334, "name": "79cfd88f6827cdd12d840ebcf58bf8b5"}, {"bike_id": "b724517c073da04d57dd67b52c8bdcbb", "type": "electric_scooter", "is_disabled": 0, "lat": 38.8768905, "rental_uris": {"ios": "https://dc.lft.to/lastmile_qr_scan", "android": "https://dc.lft.to/lastmile_qr_scan"}, "is_reserved": 0, "fusion_lon": 0.0, "fusion_lat": 0.0, "lon": -77.01756233333333, "name": "b724517c073da04d57dd67b52c8bdcbb"}, {"bike_id": "a60d1d8a1df540ad7ee44dd7de4ea805", "type": "electric_scooter", "is_disabled": 0, "lat": 38.901828333333334, "rental_uris": {"ios": "https://dc.lft.to/lastmile_qr_scan", "android": "https://dc.lft.to/lastmile_qr_scan"}, "is_reserved": 0, "fusion_lon": 0.0, "fusion_lat": 0.0, "lon": -77.020937, "name": "a60d1d8a1df540ad7ee44dd7de4ea805"}, {"bike_id": "523328b7fb9cdba1e499ca79c1df3760", "type": "electric_scooter", "is_disabled": 0, "lat": 38.911186666666666, "rental_uris": {"ios": "https://dc.lft.to/lastmile_qr_scan", "android": "https://dc.lft.to/lastmile_qr_scan"}, "is_reserved": 0, "fusion_lon": 0.0, "fusion_lat": 0.0, "lon": -77.02205733333334, "name": "523328b7fb9cdba1e499ca79c1df3760"}, {"bike_id": "c5f940b487fce23ae3818456fc0af9cd", "type": "electric_scooter", "is_disabled": 0, "lat": 38.913457, "rental_uris": {"ios": "https://dc.lft.to/lastmile_qr_scan", "android": "https://dc.lft.to/lastmile_qr_scan"}, "is_reserved": 0, "fusion_lon": 0.0, "fusion_lat": 0.0, "lon": -77.01228383333333, "name": "c5f940b487fce23ae3818456fc0af9cd"}, {"bike_id": "6981de92e17cd5d26a65548bec60f412", "type": "electric_bike", "is_disabled": 0, "lat": 38.91495666666667, "rental_uris": {"ios": "https://dc.lft.to/lastmile_qr_scan", "android": "https://dc.lft.to/lastmile_qr_scan"}, "is_reserved": 0, "fusion_lon": 0.0, "fusion_lat": 0.0, "lon": -77.03204783333334, "name": "6981de92e17cd5d26a65548bec60f412"}, {"bike_id": "e75b724ddc4d552fe9cc027d9f2c08ed", "type": "electric_bike", "is_disabled": 0, "lat": 38.89723266666667, "rental_uris": {"ios": "https://dc.lft.to/lastmile_qr_scan", "android": "https://dc.lft.to/lastmile_qr_scan"}, "is_reserved": 0, "fusion_lon": 0.0, "fusion_lat": 0.0, "lon": -76.97337433333334, "name": "e75b724ddc4d552fe9cc027d9f2c08ed"}, {"bike_id": "2338bc4a2921e9afd9c04438de8d5747", "type": "electric_scooter", "is_disabled": 0, "lat": 38.92475433333333, "rental_uris": {"ios": "https://dc.lft.to/lastmile_qr_scan", "android": "https://dc.lft.to/lastmile_qr_scan"}, "is_reserved": 0, "fusion_lon": 0.0, "fusion_lat": 0.0, "lon": -77.02833216666667, "name": "2338bc4a2921e9afd9c04438de8d5747"}, {"bike_id": "2bc101cab172a0d417d151d8feb4930a", "type": "electric_scooter", "is_disabled": 0, "lat": 38.908570833333336, "rental_uris": {"ios": "https://dc.lft.to/lastmile_qr_scan", "android": "https://dc.lft.to/lastmile_qr_scan"}, "is_reserved": 0, "fusion_lon": 0.0, "fusion_lat": 0.0, "lon": -77.04288833333334, "name": "2bc101cab172a0d417d151d8feb4930a"}, {"bike_id": "c33b965215c3e10eddf645d33622867f", "type": "electric_scooter", "is_disabled": 0, "lat": 38.918199666666666, "rental_uris": {"ios": "https://dc.lft.to/lastmile_qr_scan", "android": "https://dc.lft.to/lastmile_qr_scan"}, "is_reserved": 0, "fusion_lon": 0.0, "fusion_lat": 0.0, "lon": -77.032575, "name": "c33b965215c3e10eddf645d33622867f"}, {"bike_id": "e6b207d8ec65fed97dd48feae603ce62", "type": "electric_scooter", "is_disabled": 0, "lat": 38.89610066666667, "rental_uris": {"ios": "https://dc.lft.to/lastmile_qr_scan", "android": "https://dc.lft.to/lastmile_qr_scan"}, "is_reserved": 0, "fusion_lon": 0.0, "fusion_lat": 0.0, "lon": -77.02369433333334, "name": "e6b207d8ec65fed97dd48feae603ce62"}, {"bike_id": "4afc30ef59577fd27b7e77d3de48f9c9", "type": "electric_scooter", "is_disabled": 0, "lat": 38.9157205, "rental_uris": {"ios": "https://dc.lft.to/lastmile_qr_scan", "android": "https://dc.lft.to/lastmile_qr_scan"}, "is_reserved": 0, "fusion_lon": 0.0, "fusion_lat": 0.0, "lon": -77.019553, "name": "4afc30ef59577fd27b7e77d3de48f9c9"}, {"bike_id": "895aa253ba3c33130df2914a6ba45c7f", "type": "electric_scooter", "is_disabled": 0, "lat": 38.9141795, "rental_uris": {"ios": "https://dc.lft.to/lastmile_qr_scan", "android": "https://dc.lft.to/lastmile_qr_scan"}, "is_reserved": 0, "fusion_lon": 0.0, "fusion_lat": 0.0, "lon": -77.02407716666667, "name": "895aa253ba3c33130df2914a6ba45c7f"}, {"bike_id": "16b37ed0503a75524da1c9703ee1c1f0", "type": "electric_scooter", "is_disabled": 0, "lat": 38.94184, "rental_uris": {"ios": "https://dc.lft.to/lastmile_qr_scan", "android": "https://dc.lft.to/lastmile_qr_scan"}, "is_reserved": 0, "fusion_lon": 0.0, "fusion_lat": 0.0, "lon": -77.0248925, "name": "16b37ed0503a75524da1c9703ee1c1f0"}, {"bike_id": "1a90a8859d9ede33d3c69e53f4acc2c1", "type": "electric_scooter", "is_disabled": 0, "lat": 38.866911333333334, "rental_uris": {"ios": "https://dc.lft.to/lastmile_qr_scan", "android": "https://dc.lft.to/lastmile_qr_scan"}, "is_reserved": 0, "fusion_lon": 0.0, "fusion_lat": 0.0, "lon": -76.98531516666667, "name": "1a90a8859d9ede33d3c69e53f4acc2c1"}, {"bike_id": "ccc80f7427d23a9fa55117a1941da548", "type": "electric_scooter", "is_disabled": 0, "lat": 38.901331, "rental_uris": {"ios": "https://dc.lft.to/lastmile_qr_scan", "android": "https://dc.lft.to/lastmile_qr_scan"}, "is_reserved": 0, "fusion_lon": 0.0, "fusion_lat": 0.0, "lon": -77.04352366666667, "name": "ccc80f7427d23a9fa55117a1941da548"}, {"bike_id": "3bc8590c6ad9410d946e88096f76c459", "type": "electric_scooter", "is_disabled": 0, "lat": 38.8978145, "rental_uris": {"ios": "https://dc.lft.to/lastmile_qr_scan", "android": "https://dc.lft.to/lastmile_qr_scan"}, "is_reserved": 0, "fusion_lon": 0.0, "fusion_lat": 0.0, "lon": -76.947325, "name": "3bc8590c6ad9410d946e88096f76c459"}, {"bike_id": "dbfdb2b10ae3819a06c72a6d76ae7221", "type": "electric_scooter", "is_disabled": 0, "lat": 38.926986, "rental_uris": {"ios": "https://dc.lft.to/lastmile_qr_scan", "android": "https://dc.lft.to/lastmile_qr_scan"}, "is_reserved": 0, "fusion_lon": 0.0, "fusion_lat": 0.0, "lon": -77.02079566666667, "name": "dbfdb2b10ae3819a06c72a6d76ae7221"}, {"bike_id": "98b3740c5a6266ca14913546b5f15e3f", "type": "electric_scooter", "is_disabled": 0, "lat": 38.905574, "rental_uris": {"ios": "https://dc.lft.to/lastmile_qr_scan", "android": "https://dc.lft.to/lastmile_qr_scan"}, "is_reserved": 0, "fusion_lon": 0.0, "fusion_lat": 0.0, "lon": -77.027041, "name": "98b3740c5a6266ca14913546b5f15e3f"}, {"bike_id": "795e488c3e1cb4e9bc5fb31e8becb36a", "type": "electric_scooter", "is_disabled": 0, "lat": 38.913870333333335, "rental_uris": {"ios": "https://dc.lft.to/lastmile_qr_scan", "android": "https://dc.lft.to/lastmile_qr_scan"}, "is_reserved": 0, "fusion_lon": 0.0, "fusion_lat": 0.0, "lon": -77.01707083333334, "name": "795e488c3e1cb4e9bc5fb31e8becb36a"}, {"bike_id": "152ed0646f90d3d76c5bcb136ba315c4", "type": "electric_scooter", "is_disabled": 0, "lat": 38.92735283333333, "rental_uris": {"ios": "https://dc.lft.to/lastmile_qr_scan", "android": "https://dc.lft.to/lastmile_qr_scan"}, "is_reserved": 0, "fusion_lon": 0.0, "fusion_lat": 0.0, "lon": -77.03422733333333, "name": "152ed0646f90d3d76c5bcb136ba315c4"}, {"bike_id": "181d0a36269ebb51752edaf42e9ae52a", "type": "electric_bike", "is_disabled": 0, "lat": 38.908756333333336, "rental_uris": {"ios": "https://dc.lft.to/lastmile_qr_scan", "android": "https://dc.lft.to/lastmile_qr_scan"}, "is_reserved": 0, "fusion_lon": 0.0, "fusion_lat": 0.0, "lon": -76.99146683333333, "name": "181d0a36269ebb51752edaf42e9ae52a"}, {"bike_id": "958ece981c522c511e16f94851486c0d", "type": "electric_scooter", "is_disabled": 0, "lat": 38.91047866666667, "rental_uris": {"ios": "https://dc.lft.to/lastmile_qr_scan", "android": "https://dc.lft.to/lastmile_qr_scan"}, "is_reserved": 0, "fusion_lon": 0.0, "fusion_lat": 0.0, "lon": -77.0218285, "name": "958ece981c522c511e16f94851486c0d"}, {"bike_id": "f73d19ad6abbb0c915bbe600ecb5ca51", "type": "electric_scooter", "is_disabled": 0, "lat": 38.92793533333333, "rental_uris": {"ios": "https://dc.lft.to/lastmile_qr_scan", "android": "https://dc.lft.to/lastmile_qr_scan"}, "is_reserved": 0, "fusion_lon": 0.0, "fusion_lat": 0.0, "lon": -77.014114, "name": "f73d19ad6abbb0c915bbe600ecb5ca51"}, {"bike_id": "d2747ca32996351683e40590522eaa9d", "type": "electric_scooter", "is_disabled": 0, "lat": 38.91559433333333, "rental_uris": {"ios": "https://dc.lft.to/lastmile_qr_scan", "android": "https://dc.lft.to/lastmile_qr_scan"}, "is_reserved": 0, "fusion_lon": 0.0, "fusion_lat": 0.0, "lon": -77.03334, "name": "d2747ca32996351683e40590522eaa9d"}, {"bike_id": "12d1f9a1e6a6ac9b49d6f36cd118a432", "type": "electric_scooter", "is_disabled": 0, "lat": 38.876482833333334, "rental_uris": {"ios": "https://dc.lft.to/lastmile_qr_scan", "android": "https://dc.lft.to/lastmile_qr_scan"}, "is_reserved": 0, "fusion_lon": 0.0, "fusion_lat": 0.0, "lon": -76.96508116666666, "name": "12d1f9a1e6a6ac9b49d6f36cd118a432"}, {"bike_id": "87d1f141acd69452dfae0ed136eeafff", "type": "electric_scooter", "is_disabled": 0, "lat": 38.92841516666667, "rental_uris": {"ios": "https://dc.lft.to/lastmile_qr_scan", "android": "https://dc.lft.to/lastmile_qr_scan"}, "is_reserved": 0, "fusion_lon": 0.0, "fusion_lat": 0.0, "lon": -77.01357433333334, "name": "87d1f141acd69452dfae0ed136eeafff"}, {"bike_id": "f55682c989e0726738e335a32f7450ed", "type": "electric_scooter", "is_disabled": 0, "lat": 38.9023395, "rental_uris": {"ios": "https://dc.lft.to/lastmile_qr_scan", "android": "https://dc.lft.to/lastmile_qr_scan"}, "is_reserved": 0, "fusion_lon": 0.0, "fusion_lat": 0.0, "lon": -77.00207233333333, "name": "f55682c989e0726738e335a32f7450ed"}, {"bike_id": "51a83207d2ef0b2c4cebddc489efe9de", "type": "electric_scooter", "is_disabled": 0, "lat": 38.916629666666665, "rental_uris": {"ios": "https://dc.lft.to/lastmile_qr_scan", "android": "https://dc.lft.to/lastmile_qr_scan"}, "is_reserved": 0, "fusion_lon": 0.0, "fusion_lat": 0.0, "lon": -77.03853216666667, "name": "51a83207d2ef0b2c4cebddc489efe9de"}, {"bike_id": "02d12395290817ac39b95414fd2d6359", "type": "electric_scooter", "is_disabled": 0, "lat": 38.88029566666667, "rental_uris": {"ios": "https://dc.lft.to/lastmile_qr_scan", "android": "https://dc.lft.to/lastmile_qr_scan"}, "is_reserved": 0, "fusion_lon": 0.0, "fusion_lat": 0.0, "lon": -77.010047, "name": "02d12395290817ac39b95414fd2d6359"}, {"bike_id": "287be08abe3b64b1d7ef8fac9cd1b256", "type": "electric_scooter", "is_disabled": 0, "lat": 38.89825316666666, "rental_uris": {"ios": "https://dc.lft.to/lastmile_qr_scan", "android": "https://dc.lft.to/lastmile_qr_scan"}, "is_reserved": 0, "fusion_lon": 0.0, "fusion_lat": 0.0, "lon": -77.01751866666666, "name": "287be08abe3b64b1d7ef8fac9cd1b256"}, {"bike_id": "1e2199f0d78efa5756208d1c2ff042fb", "type": "electric_scooter", "is_disabled": 0, "lat": 38.91529033333333, "rental_uris": {"ios": "https://dc.lft.to/lastmile_qr_scan", "android": "https://dc.lft.to/lastmile_qr_scan"}, "is_reserved": 0, "fusion_lon": 0.0, "fusion_lat": 0.0, "lon": -77.01844083333333, "name": "1e2199f0d78efa5756208d1c2ff042fb"}, {"bike_id": "2efa3c345b3ac2af929cd34fc40e9458", "type": "electric_scooter", "is_disabled": 0, "lat": 38.9148855, "rental_uris": {"ios": "https://dc.lft.to/lastmile_qr_scan", "android": "https://dc.lft.to/lastmile_qr_scan"}, "is_reserved": 0, "fusion_lon": 0.0, "fusion_lat": 0.0, "lon": -77.02581683333334, "name": "2efa3c345b3ac2af929cd34fc40e9458"}, {"bike_id": "a5059a9cc2a2560b3de8abd3f8fbc637", "type": "electric_scooter", "is_disabled": 0, "lat": 38.871742833333336, "rental_uris": {"ios": "https://dc.lft.to/lastmile_qr_scan", "android": "https://dc.lft.to/lastmile_qr_scan"}, "is_reserved": 0, "fusion_lon": 0.0, "fusion_lat": 0.0, "lon": -77.006255, "name": "a5059a9cc2a2560b3de8abd3f8fbc637"}, {"bike_id": "27602b78bdc80856b377edf4e1c6f60b", "type": "electric_scooter", "is_disabled": 0, "lat": 38.91568866666667, "rental_uris": {"ios": "https://dc.lft.to/lastmile_qr_scan", "android": "https://dc.lft.to/lastmile_qr_scan"}, "is_reserved": 0, "fusion_lon": 0.0, "fusion_lat": 0.0, "lon": -77.01957383333334, "name": "27602b78bdc80856b377edf4e1c6f60b"}, {"bike_id": "d8a4e66e3a1c7c3e98cf85aca1a2b620", "type": "electric_scooter", "is_disabled": 0, "lat": 38.900217833333336, "rental_uris": {"ios": "https://dc.lft.to/lastmile_qr_scan", "android": "https://dc.lft.to/lastmile_qr_scan"}, "is_reserved": 0, "fusion_lon": 0.0, "fusion_lat": 0.0, "lon": -77.00216216666666, "name": "d8a4e66e3a1c7c3e98cf85aca1a2b620"}, {"bike_id": "7925839e4fc4f5ef251b469c800e5df9", "type": "electric_scooter", "is_disabled": 0, "lat": 38.92879383333333, "rental_uris": {"ios": "https://dc.lft.to/lastmile_qr_scan", "android": "https://dc.lft.to/lastmile_qr_scan"}, "is_reserved": 0, "fusion_lon": 0.0, "fusion_lat": 0.0, "lon": -77.026594, "name": "7925839e4fc4f5ef251b469c800e5df9"}, {"bike_id": "deb5399205b7399de3ab178657fb1038", "type": "electric_scooter", "is_disabled": 0, "lat": 38.915206833333336, "rental_uris": {"ios": "https://dc.lft.to/lastmile_qr_scan", "android": "https://dc.lft.to/lastmile_qr_scan"}, "is_reserved": 0, "fusion_lon": 0.0, "fusion_lat": 0.0, "lon": -77.02297983333334, "name": "deb5399205b7399de3ab178657fb1038"}, {"bike_id": "f499d88ff582106d1dff9c2fe67cd419", "type": "electric_scooter", "is_disabled": 0, "lat": 38.9390755, "rental_uris": {"ios": "https://dc.lft.to/lastmile_qr_scan", "android": "https://dc.lft.to/lastmile_qr_scan"}, "is_reserved": 0, "fusion_lon": 0.0, "fusion_lat": 0.0, "lon": -77.060496, "name": "f499d88ff582106d1dff9c2fe67cd419"}, {"bike_id": "328c6874c7cd048db956b5d140529107", "type": "electric_scooter", "is_disabled": 0, "lat": 38.87563133333333, "rental_uris": {"ios": "https://dc.lft.to/lastmile_qr_scan", "android": "https://dc.lft.to/lastmile_qr_scan"}, "is_reserved": 0, "fusion_lon": 0.0, "fusion_lat": 0.0, "lon": -76.95870333333333, "name": "328c6874c7cd048db956b5d140529107"}, {"bike_id": "fad6201b273c4498ff7315fd05797fa7", "type": "electric_scooter", "is_disabled": 0, "lat": 38.9126435, "rental_uris": {"ios": "https://dc.lft.to/lastmile_qr_scan", "android": "https://dc.lft.to/lastmile_qr_scan"}, "is_reserved": 0, "fusion_lon": 0.0, "fusion_lat": 0.0, "lon": -77.02960533333334, "name": "fad6201b273c4498ff7315fd05797fa7"}, {"bike_id": "5bbaf806fec75bd8ce3e57e5e0d5f6a0", "type": "electric_bike", "is_disabled": 0, "lat": 38.95100716666666, "rental_uris": {"ios": "https://dc.lft.to/lastmile_qr_scan", "android": "https://dc.lft.to/lastmile_qr_scan"}, "is_reserved": 0, "fusion_lon": 0.0, "fusion_lat": 0.0, "lon": -77.0809525, "name": "5bbaf806fec75bd8ce3e57e5e0d5f6a0"}, {"bike_id": "0745c9e7be1f4c7fa233b6274f7b8dca", "type": "electric_scooter", "is_disabled": 0, "lat": 38.92247833333333, "rental_uris": {"ios": "https://dc.lft.to/lastmile_qr_scan", "android": "https://dc.lft.to/lastmile_qr_scan"}, "is_reserved": 0, "fusion_lon": 0.0, "fusion_lat": 0.0, "lon": -77.042729, "name": "0745c9e7be1f4c7fa233b6274f7b8dca"}, {"bike_id": "ff4ef4c875d253d50e0eecf208097d6c", "type": "electric_scooter", "is_disabled": 0, "lat": 38.902203, "rental_uris": {"ios": "https://dc.lft.to/lastmile_qr_scan", "android": "https://dc.lft.to/lastmile_qr_scan"}, "is_reserved": 0, "fusion_lon": 0.0, "fusion_lat": 0.0, "lon": -77.058972, "name": "ff4ef4c875d253d50e0eecf208097d6c"}, {"bike_id": "7933860ddf8eae94d75a73eb54a7973b", "type": "electric_bike", "is_disabled": 0, "lat": 39.037001833333335, "rental_uris": {"ios": "https://dc.lft.to/lastmile_qr_scan", "android": "https://dc.lft.to/lastmile_qr_scan"}, "is_reserved": 0, "fusion_lon": 0.0, "fusion_lat": 0.0, "lon": -77.02860283333334, "name": "7933860ddf8eae94d75a73eb54a7973b"}, {"bike_id": "5fff40c9466d77feb9417b452fd4a349", "type": "electric_scooter", "is_disabled": 0, "lat": 38.932543333333335, "rental_uris": {"ios": "https://dc.lft.to/lastmile_qr_scan", "android": "https://dc.lft.to/lastmile_qr_scan"}, "is_reserved": 0, "fusion_lon": 0.0, "fusion_lat": 0.0, "lon": -77.032837, "name": "5fff40c9466d77feb9417b452fd4a349"}, {"bike_id": "ff59cdfe7b563cfa5f7c8e7ee8a81bff", "type": "electric_scooter", "is_disabled": 0, "lat": 38.8971935, "rental_uris": {"ios": "https://dc.lft.to/lastmile_qr_scan", "android": "https://dc.lft.to/lastmile_qr_scan"}, "is_reserved": 0, "fusion_lon": 0.0, "fusion_lat": 0.0, "lon": -76.98354933333333, "name": "ff59cdfe7b563cfa5f7c8e7ee8a81bff"}, {"bike_id": "09c9ff9bf226f177fe724513c0dfa859", "type": "electric_scooter", "is_disabled": 0, "lat": 38.90269716666667, "rental_uris": {"ios": "https://dc.lft.to/lastmile_qr_scan", "android": "https://dc.lft.to/lastmile_qr_scan"}, "is_reserved": 0, "fusion_lon": 0.0, "fusion_lat": 0.0, "lon": -77.0191065, "name": "09c9ff9bf226f177fe724513c0dfa859"}, {"bike_id": "92ae00518a1668b052c3ef9d90466213", "type": "electric_scooter", "is_disabled": 0, "lat": 38.9230975, "rental_uris": {"ios": "https://dc.lft.to/lastmile_qr_scan", "android": "https://dc.lft.to/lastmile_qr_scan"}, "is_reserved": 0, "fusion_lon": 0.0, "fusion_lat": 0.0, "lon": -77.02970616666667, "name": "92ae00518a1668b052c3ef9d90466213"}, {"bike_id": "26abfc6cef0e190e7a4ecfc08b75c341", "type": "electric_scooter", "is_disabled": 0, "lat": 38.896476166666666, "rental_uris": {"ios": "https://dc.lft.to/lastmile_qr_scan", "android": "https://dc.lft.to/lastmile_qr_scan"}, "is_reserved": 0, "fusion_lon": 0.0, "fusion_lat": 0.0, "lon": -77.02812783333333, "name": "26abfc6cef0e190e7a4ecfc08b75c341"}, {"bike_id": "f7a0c4aa8176fa3c8afb66cec843026c", "type": "electric_scooter", "is_disabled": 0, "lat": 38.9221615, "rental_uris": {"ios": "https://dc.lft.to/lastmile_qr_scan", "android": "https://dc.lft.to/lastmile_qr_scan"}, "is_reserved": 0, "fusion_lon": 0.0, "fusion_lat": 0.0, "lon": -77.04244883333334, "name": "f7a0c4aa8176fa3c8afb66cec843026c"}, {"bike_id": "c21bef670d5f8741f966e8e3cc10cfb7", "type": "electric_scooter", "is_disabled": 0, "lat": 38.917607, "rental_uris": {"ios": "https://dc.lft.to/lastmile_qr_scan", "android": "https://dc.lft.to/lastmile_qr_scan"}, "is_reserved": 0, "fusion_lon": 0.0, "fusion_lat": 0.0, "lon": -77.04765066666667, "name": "c21bef670d5f8741f966e8e3cc10cfb7"}, {"bike_id": "0429a229eb379405b3df14a84a1e76f5", "type": "electric_scooter", "is_disabled": 0, "lat": 38.900840333333335, "rental_uris": {"ios": "https://dc.lft.to/lastmile_qr_scan", "android": "https://dc.lft.to/lastmile_qr_scan"}, "is_reserved": 0, "fusion_lon": 0.0, "fusion_lat": 0.0, "lon": -77.011997, "name": "0429a229eb379405b3df14a84a1e76f5"}, {"bike_id": "85ba33666997e91d7938936ff384f6c0", "type": "electric_scooter", "is_disabled": 0, "lat": 38.892325666666665, "rental_uris": {"ios": "https://dc.lft.to/lastmile_qr_scan", "android": "https://dc.lft.to/lastmile_qr_scan"}, "is_reserved": 0, "fusion_lon": 0.0, "fusion_lat": 0.0, "lon": -77.04676683333334, "name": "85ba33666997e91d7938936ff384f6c0"}, {"bike_id": "35b50ca9acf85797737e3cc56876f992", "type": "electric_bike", "is_disabled": 0, "lat": 38.8840265, "rental_uris": {"ios": "https://dc.lft.to/lastmile_qr_scan", "android": "https://dc.lft.to/lastmile_qr_scan"}, "is_reserved": 0, "fusion_lon": 0.0, "fusion_lat": 0.0, "lon": -76.96056766666666, "name": "35b50ca9acf85797737e3cc56876f992"}, {"bike_id": "8817f3ac43a1ae9dd42c0e7ef5678e1e", "type": "electric_scooter", "is_disabled": 0, "lat": 38.901140833333336, "rental_uris": {"ios": "https://dc.lft.to/lastmile_qr_scan", "android": "https://dc.lft.to/lastmile_qr_scan"}, "is_reserved": 0, "fusion_lon": 0.0, "fusion_lat": 0.0, "lon": -77.04986816666667, "name": "8817f3ac43a1ae9dd42c0e7ef5678e1e"}, {"bike_id": "c022626ef6ffca63dfa705dbbbb92899", "type": "electric_scooter", "is_disabled": 0, "lat": 38.875212166666664, "rental_uris": {"ios": "https://dc.lft.to/lastmile_qr_scan", "android": "https://dc.lft.to/lastmile_qr_scan"}, "is_reserved": 0, "fusion_lon": 0.0, "fusion_lat": 0.0, "lon": -77.00443666666666, "name": "c022626ef6ffca63dfa705dbbbb92899"}, {"bike_id": "6eb8e34805a7ed7b0e76a8fd1170796b", "type": "electric_scooter", "is_disabled": 0, "lat": 38.924736, "rental_uris": {"ios": "https://dc.lft.to/lastmile_qr_scan", "android": "https://dc.lft.to/lastmile_qr_scan"}, "is_reserved": 0, "fusion_lon": 0.0, "fusion_lat": 0.0, "lon": -77.03775966666667, "name": "6eb8e34805a7ed7b0e76a8fd1170796b"}, {"bike_id": "94dd985e3b622e8a25d8f26509004c26", "type": "electric_scooter", "is_disabled": 0, "lat": 38.9286035, "rental_uris": {"ios": "https://dc.lft.to/lastmile_qr_scan", "android": "https://dc.lft.to/lastmile_qr_scan"}, "is_reserved": 0, "fusion_lon": 0.0, "fusion_lat": 0.0, "lon": -77.0365715, "name": "94dd985e3b622e8a25d8f26509004c26"}, {"bike_id": "7c790b0e176e21dd3d81089697690aee", "type": "electric_scooter", "is_disabled": 0, "lat": 38.90054383333333, "rental_uris": {"ios": "https://dc.lft.to/lastmile_qr_scan", "android": "https://dc.lft.to/lastmile_qr_scan"}, "is_reserved": 0, "fusion_lon": 0.0, "fusion_lat": 0.0, "lon": -77.0505795, "name": "7c790b0e176e21dd3d81089697690aee"}, {"bike_id": "46d94932bbf4326fae684e2be097296e", "type": "electric_scooter", "is_disabled": 0, "lat": 38.918078666666666, "rental_uris": {"ios": "https://dc.lft.to/lastmile_qr_scan", "android": "https://dc.lft.to/lastmile_qr_scan"}, "is_reserved": 0, "fusion_lon": 0.0, "fusion_lat": 0.0, "lon": -77.034378, "name": "46d94932bbf4326fae684e2be097296e"}, {"bike_id": "dc8e14d7d01f44c637f5ae5b2645cf6a", "type": "electric_scooter", "is_disabled": 0, "lat": 38.9175825, "rental_uris": {"ios": "https://dc.lft.to/lastmile_qr_scan", "android": "https://dc.lft.to/lastmile_qr_scan"}, "is_reserved": 0, "fusion_lon": 0.0, "fusion_lat": 0.0, "lon": -77.00452766666666, "name": "dc8e14d7d01f44c637f5ae5b2645cf6a"}, {"bike_id": "92671e37fec501e9f70c20d158709923", "type": "electric_scooter", "is_disabled": 0, "lat": 38.906346, "rental_uris": {"ios": "https://dc.lft.to/lastmile_qr_scan", "android": "https://dc.lft.to/lastmile_qr_scan"}, "is_reserved": 0, "fusion_lon": 0.0, "fusion_lat": 0.0, "lon": -77.01786316666667, "name": "92671e37fec501e9f70c20d158709923"}, {"bike_id": "0e7044b0094ad3d2cb530f9c3f497e38", "type": "electric_scooter", "is_disabled": 0, "lat": 38.9036945, "rental_uris": {"ios": "https://dc.lft.to/lastmile_qr_scan", "android": "https://dc.lft.to/lastmile_qr_scan"}, "is_reserved": 0, "fusion_lon": 0.0, "fusion_lat": 0.0, "lon": -77.029647, "name": "0e7044b0094ad3d2cb530f9c3f497e38"}, {"bike_id": "56305de4a471bb0afc57033f72096027", "type": "electric_scooter", "is_disabled": 0, "lat": 38.918150833333335, "rental_uris": {"ios": "https://dc.lft.to/lastmile_qr_scan", "android": "https://dc.lft.to/lastmile_qr_scan"}, "is_reserved": 0, "fusion_lon": 0.0, "fusion_lat": 0.0, "lon": -77.00256183333333, "name": "56305de4a471bb0afc57033f72096027"}, {"bike_id": "723b8a6807fe7bb3cae0a583f01cfd43", "type": "electric_scooter", "is_disabled": 0, "lat": 38.919277666666666, "rental_uris": {"ios": "https://dc.lft.to/lastmile_qr_scan", "android": "https://dc.lft.to/lastmile_qr_scan"}, "is_reserved": 0, "fusion_lon": 0.0, "fusion_lat": 0.0, "lon": -77.0242435, "name": "723b8a6807fe7bb3cae0a583f01cfd43"}, {"bike_id": "5c5e6b98b6a14ed63b86383222d4df54", "type": "electric_scooter", "is_disabled": 0, "lat": 38.89238116666667, "rental_uris": {"ios": "https://dc.lft.to/lastmile_qr_scan", "android": "https://dc.lft.to/lastmile_qr_scan"}, "is_reserved": 0, "fusion_lon": 0.0, "fusion_lat": 0.0, "lon": -77.04161183333333, "name": "5c5e6b98b6a14ed63b86383222d4df54"}, {"bike_id": "1672099d5cbd78c47604ec980cb509f4", "type": "electric_scooter", "is_disabled": 0, "lat": 38.883957333333335, "rental_uris": {"ios": "https://dc.lft.to/lastmile_qr_scan", "android": "https://dc.lft.to/lastmile_qr_scan"}, "is_reserved": 0, "fusion_lon": 0.0, "fusion_lat": 0.0, "lon": -77.0195495, "name": "1672099d5cbd78c47604ec980cb509f4"}, {"bike_id": "4e5e099ca8f4370210b57278c2aec2f2", "type": "electric_scooter", "is_disabled": 0, "lat": 38.911907166666666, "rental_uris": {"ios": "https://dc.lft.to/lastmile_qr_scan", "android": "https://dc.lft.to/lastmile_qr_scan"}, "is_reserved": 0, "fusion_lon": 0.0, "fusion_lat": 0.0, "lon": -77.03218933333333, "name": "4e5e099ca8f4370210b57278c2aec2f2"}, {"bike_id": "3630a90b8682a467c2d50f7130271336", "type": "electric_scooter", "is_disabled": 0, "lat": 38.914683833333335, "rental_uris": {"ios": "https://dc.lft.to/lastmile_qr_scan", "android": "https://dc.lft.to/lastmile_qr_scan"}, "is_reserved": 0, "fusion_lon": 0.0, "fusion_lat": 0.0, "lon": -77.04590033333334, "name": "3630a90b8682a467c2d50f7130271336"}, {"bike_id": "28e8fc8eb840a6afab1686a36b6eac8f", "type": "electric_scooter", "is_disabled": 0, "lat": 38.90261366666667, "rental_uris": {"ios": "https://dc.lft.to/lastmile_qr_scan", "android": "https://dc.lft.to/lastmile_qr_scan"}, "is_reserved": 0, "fusion_lon": 0.0, "fusion_lat": 0.0, "lon": -76.9812435, "name": "28e8fc8eb840a6afab1686a36b6eac8f"}, {"bike_id": "1e835908692cd7c8f8411a68451b4be9", "type": "electric_scooter", "is_disabled": 0, "lat": 38.898368, "rental_uris": {"ios": "https://dc.lft.to/lastmile_qr_scan", "android": "https://dc.lft.to/lastmile_qr_scan"}, "is_reserved": 0, "fusion_lon": 0.0, "fusion_lat": 0.0, "lon": -77.0222315, "name": "1e835908692cd7c8f8411a68451b4be9"}, {"bike_id": "de1652199fbc3dd37bd68725fcaeb6c4", "type": "electric_scooter", "is_disabled": 0, "lat": 38.912729166666665, "rental_uris": {"ios": "https://dc.lft.to/lastmile_qr_scan", "android": "https://dc.lft.to/lastmile_qr_scan"}, "is_reserved": 0, "fusion_lon": 0.0, "fusion_lat": 0.0, "lon": -77.036395, "name": "de1652199fbc3dd37bd68725fcaeb6c4"}, {"bike_id": "a6feaff35202bfe4d15fbfed909f27dc", "type": "electric_scooter", "is_disabled": 0, "lat": 38.887127, "rental_uris": {"ios": "https://dc.lft.to/lastmile_qr_scan", "android": "https://dc.lft.to/lastmile_qr_scan"}, "is_reserved": 0, "fusion_lon": 0.0, "fusion_lat": 0.0, "lon": -77.01774516666667, "name": "a6feaff35202bfe4d15fbfed909f27dc"}, {"bike_id": "0a69e7e06b1f0389e358342e1807d750", "type": "electric_scooter", "is_disabled": 0, "lat": 38.874673666666666, "rental_uris": {"ios": "https://dc.lft.to/lastmile_qr_scan", "android": "https://dc.lft.to/lastmile_qr_scan"}, "is_reserved": 0, "fusion_lon": 0.0, "fusion_lat": 0.0, "lon": -77.00557066666667, "name": "0a69e7e06b1f0389e358342e1807d750"}, {"bike_id": "f04b3014b12af572403709f5dce42137", "type": "electric_scooter", "is_disabled": 0, "lat": 38.887394666666665, "rental_uris": {"ios": "https://dc.lft.to/lastmile_qr_scan", "android": "https://dc.lft.to/lastmile_qr_scan"}, "is_reserved": 0, "fusion_lon": 0.0, "fusion_lat": 0.0, "lon": -77.01534766666667, "name": "f04b3014b12af572403709f5dce42137"}, {"bike_id": "edd585e339d53ff953630409c78befc2", "type": "electric_bike", "is_disabled": 0, "lat": 38.89742233333333, "rental_uris": {"ios": "https://dc.lft.to/lastmile_qr_scan", "android": "https://dc.lft.to/lastmile_qr_scan"}, "is_reserved": 0, "fusion_lon": 0.0, "fusion_lat": 0.0, "lon": -76.92044483333333, "name": "edd585e339d53ff953630409c78befc2"}, {"bike_id": "415aceb88db59e77e95a435b38d447a9", "type": "electric_scooter", "is_disabled": 0, "lat": 38.902993333333335, "rental_uris": {"ios": "https://dc.lft.to/lastmile_qr_scan", "android": "https://dc.lft.to/lastmile_qr_scan"}, "is_reserved": 0, "fusion_lon": 0.0, "fusion_lat": 0.0, "lon": -77.033445, "name": "415aceb88db59e77e95a435b38d447a9"}, {"bike_id": "4328e9e7ff5aaef23e6f914b6324c0ff", "type": "electric_scooter", "is_disabled": 0, "lat": 38.915563166666665, "rental_uris": {"ios": "https://dc.lft.to/lastmile_qr_scan", "android": "https://dc.lft.to/lastmile_qr_scan"}, "is_reserved": 0, "fusion_lon": 0.0, "fusion_lat": 0.0, "lon": -77.03214183333333, "name": "4328e9e7ff5aaef23e6f914b6324c0ff"}, {"bike_id": "9c4f2a42916d972ccec56b64e039c200", "type": "electric_scooter", "is_disabled": 0, "lat": 38.936096, "rental_uris": {"ios": "https://dc.lft.to/lastmile_qr_scan", "android": "https://dc.lft.to/lastmile_qr_scan"}, "is_reserved": 0, "fusion_lon": 0.0, "fusion_lat": 0.0, "lon": -77.0589695, "name": "9c4f2a42916d972ccec56b64e039c200"}, {"bike_id": "db62b6d67c29b7e68d156b5290b2381f", "type": "electric_scooter", "is_disabled": 0, "lat": 38.91819433333333, "rental_uris": {"ios": "https://dc.lft.to/lastmile_qr_scan", "android": "https://dc.lft.to/lastmile_qr_scan"}, "is_reserved": 0, "fusion_lon": 0.0, "fusion_lat": 0.0, "lon": -77.04944366666666, "name": "db62b6d67c29b7e68d156b5290b2381f"}, {"bike_id": "3bb0ed66948c23a603a5c39733dc196d", "type": "electric_scooter", "is_disabled": 0, "lat": 38.943139, "rental_uris": {"ios": "https://dc.lft.to/lastmile_qr_scan", "android": "https://dc.lft.to/lastmile_qr_scan"}, "is_reserved": 0, "fusion_lon": 0.0, "fusion_lat": 0.0, "lon": -77.061779, "name": "3bb0ed66948c23a603a5c39733dc196d"}, {"bike_id": "70710f234256765b80fdaedf60fba4ce", "type": "electric_scooter", "is_disabled": 0, "lat": 38.909875666666665, "rental_uris": {"ios": "https://dc.lft.to/lastmile_qr_scan", "android": "https://dc.lft.to/lastmile_qr_scan"}, "is_reserved": 0, "fusion_lon": 0.0, "fusion_lat": 0.0, "lon": -77.02190783333333, "name": "70710f234256765b80fdaedf60fba4ce"}, {"bike_id": "aef2e23477208b7f9365c7115cae7c3f", "type": "electric_scooter", "is_disabled": 0, "lat": 38.909603833333335, "rental_uris": {"ios": "https://dc.lft.to/lastmile_qr_scan", "android": "https://dc.lft.to/lastmile_qr_scan"}, "is_reserved": 0, "fusion_lon": 0.0, "fusion_lat": 0.0, "lon": -77.03632066666667, "name": "aef2e23477208b7f9365c7115cae7c3f"}, {"bike_id": "dcaafb48517f0cc5a511fe82a27438de", "type": "electric_scooter", "is_disabled": 0, "lat": 38.92502283333334, "rental_uris": {"ios": "https://dc.lft.to/lastmile_qr_scan", "android": "https://dc.lft.to/lastmile_qr_scan"}, "is_reserved": 0, "fusion_lon": 0.0, "fusion_lat": 0.0, "lon": -77.0378525, "name": "dcaafb48517f0cc5a511fe82a27438de"}, {"bike_id": "64d1329f2549d891df95aa758fca5152", "type": "electric_scooter", "is_disabled": 0, "lat": 38.9096595, "rental_uris": {"ios": "https://dc.lft.to/lastmile_qr_scan", "android": "https://dc.lft.to/lastmile_qr_scan"}, "is_reserved": 0, "fusion_lon": 0.0, "fusion_lat": 0.0, "lon": -77.02175116666666, "name": "64d1329f2549d891df95aa758fca5152"}, {"bike_id": "9b8430ff0251901ae2130b9ed86d3011", "type": "electric_scooter", "is_disabled": 0, "lat": 38.92505633333333, "rental_uris": {"ios": "https://dc.lft.to/lastmile_qr_scan", "android": "https://dc.lft.to/lastmile_qr_scan"}, "is_reserved": 0, "fusion_lon": 0.0, "fusion_lat": 0.0, "lon": -77.02161516666666, "name": "9b8430ff0251901ae2130b9ed86d3011"}, {"bike_id": "dc3a7aaae50e2a9ffcf30c3db5566297", "type": "electric_scooter", "is_disabled": 0, "lat": 38.90574816666667, "rental_uris": {"ios": "https://dc.lft.to/lastmile_qr_scan", "android": "https://dc.lft.to/lastmile_qr_scan"}, "is_reserved": 0, "fusion_lon": 0.0, "fusion_lat": 0.0, "lon": -77.03079366666667, "name": "dc3a7aaae50e2a9ffcf30c3db5566297"}, {"bike_id": "67a33303e7c67d0ff785dc4b04c358fa", "type": "electric_scooter", "is_disabled": 0, "lat": 38.911900333333335, "rental_uris": {"ios": "https://dc.lft.to/lastmile_qr_scan", "android": "https://dc.lft.to/lastmile_qr_scan"}, "is_reserved": 0, "fusion_lon": 0.0, "fusion_lat": 0.0, "lon": -77.03830816666667, "name": "67a33303e7c67d0ff785dc4b04c358fa"}, {"bike_id": "cd02cb75cc7ace9d41197a34c38f8f14", "type": "electric_bike", "is_disabled": 0, "lat": 39.05280283333333, "rental_uris": {"ios": "https://dc.lft.to/lastmile_qr_scan", "android": "https://dc.lft.to/lastmile_qr_scan"}, "is_reserved": 0, "fusion_lon": 0.0, "fusion_lat": 0.0, "lon": -77.080686, "name": "cd02cb75cc7ace9d41197a34c38f8f14"}, {"bike_id": "daef48b2aa988b97ed550873c65422dd", "type": "electric_scooter", "is_disabled": 0, "lat": 38.87359933333333, "rental_uris": {"ios": "https://dc.lft.to/lastmile_qr_scan", "android": "https://dc.lft.to/lastmile_qr_scan"}, "is_reserved": 0, "fusion_lon": 0.0, "fusion_lat": 0.0, "lon": -76.97027116666666, "name": "daef48b2aa988b97ed550873c65422dd"}, {"bike_id": "2afb5316d3bd69ec498f7d07fe53c08c", "type": "electric_scooter", "is_disabled": 0, "lat": 38.9333295, "rental_uris": {"ios": "https://dc.lft.to/lastmile_qr_scan", "android": "https://dc.lft.to/lastmile_qr_scan"}, "is_reserved": 0, "fusion_lon": 0.0, "fusion_lat": 0.0, "lon": -77.0206275, "name": "2afb5316d3bd69ec498f7d07fe53c08c"}, {"bike_id": "dc724aa9a12aa48dba1643e1e6d8b83a", "type": "electric_scooter", "is_disabled": 0, "lat": 38.8670435, "rental_uris": {"ios": "https://dc.lft.to/lastmile_qr_scan", "android": "https://dc.lft.to/lastmile_qr_scan"}, "is_reserved": 0, "fusion_lon": 0.0, "fusion_lat": 0.0, "lon": -76.9871085, "name": "dc724aa9a12aa48dba1643e1e6d8b83a"}, {"bike_id": "8bf0488d62444f673129f7960c362c7d", "type": "electric_scooter", "is_disabled": 0, "lat": 38.93390766666667, "rental_uris": {"ios": "https://dc.lft.to/lastmile_qr_scan", "android": "https://dc.lft.to/lastmile_qr_scan"}, "is_reserved": 0, "fusion_lon": 0.0, "fusion_lat": 0.0, "lon": -77.05740733333333, "name": "8bf0488d62444f673129f7960c362c7d"}, {"bike_id": "c5600fd6df353a0e3ed93f7b2a427e2f", "type": "electric_scooter", "is_disabled": 0, "lat": 38.894895, "rental_uris": {"ios": "https://dc.lft.to/lastmile_qr_scan", "android": "https://dc.lft.to/lastmile_qr_scan"}, "is_reserved": 0, "fusion_lon": 0.0, "fusion_lat": 0.0, "lon": -77.02296283333334, "name": "c5600fd6df353a0e3ed93f7b2a427e2f"}, {"bike_id": "1edae5cb09707dc731f82805c22739d6", "type": "electric_scooter", "is_disabled": 0, "lat": 38.918184833333335, "rental_uris": {"ios": "https://dc.lft.to/lastmile_qr_scan", "android": "https://dc.lft.to/lastmile_qr_scan"}, "is_reserved": 0, "fusion_lon": 0.0, "fusion_lat": 0.0, "lon": -77.0494225, "name": "1edae5cb09707dc731f82805c22739d6"}, {"bike_id": "8b10bc99c29584a812b45ebc82b71181", "type": "electric_scooter", "is_disabled": 0, "lat": 38.89736083333333, "rental_uris": {"ios": "https://dc.lft.to/lastmile_qr_scan", "android": "https://dc.lft.to/lastmile_qr_scan"}, "is_reserved": 0, "fusion_lon": 0.0, "fusion_lat": 0.0, "lon": -77.04675216666666, "name": "8b10bc99c29584a812b45ebc82b71181"}, {"bike_id": "491476e4ad59c236e721f2e2ff9ad5b7", "type": "electric_scooter", "is_disabled": 0, "lat": 38.916827, "rental_uris": {"ios": "https://dc.lft.to/lastmile_qr_scan", "android": "https://dc.lft.to/lastmile_qr_scan"}, "is_reserved": 0, "fusion_lon": 0.0, "fusion_lat": 0.0, "lon": -77.02954466666667, "name": "491476e4ad59c236e721f2e2ff9ad5b7"}, {"bike_id": "359dd5238562a13ba2a14e440476e93b", "type": "electric_scooter", "is_disabled": 0, "lat": 38.907256333333336, "rental_uris": {"ios": "https://dc.lft.to/lastmile_qr_scan", "android": "https://dc.lft.to/lastmile_qr_scan"}, "is_reserved": 0, "fusion_lon": 0.0, "fusion_lat": 0.0, "lon": -77.032704, "name": "359dd5238562a13ba2a14e440476e93b"}, {"bike_id": "bba4244e7898610cd22965ef55f42f81", "type": "electric_scooter", "is_disabled": 0, "lat": 38.93001366666667, "rental_uris": {"ios": "https://dc.lft.to/lastmile_qr_scan", "android": "https://dc.lft.to/lastmile_qr_scan"}, "is_reserved": 0, "fusion_lon": 0.0, "fusion_lat": 0.0, "lon": -77.02373283333333, "name": "bba4244e7898610cd22965ef55f42f81"}, {"bike_id": "7c689cf58e5841df535189ee8892a8da", "type": "electric_scooter", "is_disabled": 0, "lat": 38.881181, "rental_uris": {"ios": "https://dc.lft.to/lastmile_qr_scan", "android": "https://dc.lft.to/lastmile_qr_scan"}, "is_reserved": 0, "fusion_lon": 0.0, "fusion_lat": 0.0, "lon": -77.00185366666666, "name": "7c689cf58e5841df535189ee8892a8da"}, {"bike_id": "f967e7478f8584ccb2d786c6c0ad745e", "type": "electric_scooter", "is_disabled": 0, "lat": 38.933360666666665, "rental_uris": {"ios": "https://dc.lft.to/lastmile_qr_scan", "android": "https://dc.lft.to/lastmile_qr_scan"}, "is_reserved": 0, "fusion_lon": 0.0, "fusion_lat": 0.0, "lon": -77.0398955, "name": "f967e7478f8584ccb2d786c6c0ad745e"}, {"bike_id": "b7784241ec7cd32e938973c64d57f3de", "type": "electric_scooter", "is_disabled": 0, "lat": 38.922302, "rental_uris": {"ios": "https://dc.lft.to/lastmile_qr_scan", "android": "https://dc.lft.to/lastmile_qr_scan"}, "is_reserved": 0, "fusion_lon": 0.0, "fusion_lat": 0.0, "lon": -77.04261583333333, "name": "b7784241ec7cd32e938973c64d57f3de"}, {"bike_id": "25f680469df5ce64594187db4b9a9ae2", "type": "electric_scooter", "is_disabled": 0, "lat": 38.90279866666667, "rental_uris": {"ios": "https://dc.lft.to/lastmile_qr_scan", "android": "https://dc.lft.to/lastmile_qr_scan"}, "is_reserved": 0, "fusion_lon": 0.0, "fusion_lat": 0.0, "lon": -77.02665033333334, "name": "25f680469df5ce64594187db4b9a9ae2"}, {"bike_id": "039985d6ab42ae425ac970597387d5c8", "type": "electric_scooter", "is_disabled": 0, "lat": 38.91261733333333, "rental_uris": {"ios": "https://dc.lft.to/lastmile_qr_scan", "android": "https://dc.lft.to/lastmile_qr_scan"}, "is_reserved": 0, "fusion_lon": 0.0, "fusion_lat": 0.0, "lon": -77.03140333333333, "name": "039985d6ab42ae425ac970597387d5c8"}, {"bike_id": "9366cc81d0b5f9f1cbafa1b9f28db583", "type": "electric_scooter", "is_disabled": 0, "lat": 38.897361333333336, "rental_uris": {"ios": "https://dc.lft.to/lastmile_qr_scan", "android": "https://dc.lft.to/lastmile_qr_scan"}, "is_reserved": 0, "fusion_lon": 0.0, "fusion_lat": 0.0, "lon": -77.02451333333333, "name": "9366cc81d0b5f9f1cbafa1b9f28db583"}, {"bike_id": "ea80f3f71fd31ff13784137bfdf906ca", "type": "electric_scooter", "is_disabled": 0, "lat": 38.91897483333333, "rental_uris": {"ios": "https://dc.lft.to/lastmile_qr_scan", "android": "https://dc.lft.to/lastmile_qr_scan"}, "is_reserved": 0, "fusion_lon": 0.0, "fusion_lat": 0.0, "lon": -77.01686083333334, "name": "ea80f3f71fd31ff13784137bfdf906ca"}, {"bike_id": "91969749e01e6d9fd459ed53c5ba33b6", "type": "electric_scooter", "is_disabled": 0, "lat": 38.87366633333333, "rental_uris": {"ios": "https://dc.lft.to/lastmile_qr_scan", "android": "https://dc.lft.to/lastmile_qr_scan"}, "is_reserved": 0, "fusion_lon": 0.0, "fusion_lat": 0.0, "lon": -77.00111483333333, "name": "91969749e01e6d9fd459ed53c5ba33b6"}, {"bike_id": "e209c5f1f35a155282e4e16a3d9268b2", "type": "electric_bike", "is_disabled": 0, "lat": 38.91303383333333, "rental_uris": {"ios": "https://dc.lft.to/lastmile_qr_scan", "android": "https://dc.lft.to/lastmile_qr_scan"}, "is_reserved": 0, "fusion_lon": 0.0, "fusion_lat": 0.0, "lon": -77.006457, "name": "e209c5f1f35a155282e4e16a3d9268b2"}, {"bike_id": "5e1fb62f9b4860c6de5d4830df4bf2b1", "type": "electric_scooter", "is_disabled": 0, "lat": 38.92089416666666, "rental_uris": {"ios": "https://dc.lft.to/lastmile_qr_scan", "android": "https://dc.lft.to/lastmile_qr_scan"}, "is_reserved": 0, "fusion_lon": 0.0, "fusion_lat": 0.0, "lon": -77.02337466666667, "name": "5e1fb62f9b4860c6de5d4830df4bf2b1"}, {"bike_id": "92824a400d896c3da4601302a37d5390", "type": "electric_scooter", "is_disabled": 0, "lat": 38.89282333333333, "rental_uris": {"ios": "https://dc.lft.to/lastmile_qr_scan", "android": "https://dc.lft.to/lastmile_qr_scan"}, "is_reserved": 0, "fusion_lon": 0.0, "fusion_lat": 0.0, "lon": -77.04487333333333, "name": "92824a400d896c3da4601302a37d5390"}, {"bike_id": "6cdd1454e06804ef45518e0efb1cf64e", "type": "electric_scooter", "is_disabled": 0, "lat": 38.94290266666667, "rental_uris": {"ios": "https://dc.lft.to/lastmile_qr_scan", "android": "https://dc.lft.to/lastmile_qr_scan"}, "is_reserved": 0, "fusion_lon": 0.0, "fusion_lat": 0.0, "lon": -77.0217285, "name": "6cdd1454e06804ef45518e0efb1cf64e"}, {"bike_id": "f3c45bac4b22a01d7ff7329297b5312a", "type": "electric_scooter", "is_disabled": 0, "lat": 38.920056833333334, "rental_uris": {"ios": "https://dc.lft.to/lastmile_qr_scan", "android": "https://dc.lft.to/lastmile_qr_scan"}, "is_reserved": 0, "fusion_lon": 0.0, "fusion_lat": 0.0, "lon": -77.03209366666667, "name": "f3c45bac4b22a01d7ff7329297b5312a"}, {"bike_id": "ffa88710eae4e5afcee90d4f95dfeaba", "type": "electric_scooter", "is_disabled": 0, "lat": 38.900929833333336, "rental_uris": {"ios": "https://dc.lft.to/lastmile_qr_scan", "android": "https://dc.lft.to/lastmile_qr_scan"}, "is_reserved": 0, "fusion_lon": 0.0, "fusion_lat": 0.0, "lon": -76.98338033333333, "name": "ffa88710eae4e5afcee90d4f95dfeaba"}, {"bike_id": "813c7f90baa86cf9e584207c0de14eb3", "type": "electric_scooter", "is_disabled": 0, "lat": 38.87934816666667, "rental_uris": {"ios": "https://dc.lft.to/lastmile_qr_scan", "android": "https://dc.lft.to/lastmile_qr_scan"}, "is_reserved": 0, "fusion_lon": 0.0, "fusion_lat": 0.0, "lon": -77.00822516666666, "name": "813c7f90baa86cf9e584207c0de14eb3"}, {"bike_id": "7dacb45f32fb5a0804056bf62dfa20bb", "type": "electric_scooter", "is_disabled": 0, "lat": 38.917101333333335, "rental_uris": {"ios": "https://dc.lft.to/lastmile_qr_scan", "android": "https://dc.lft.to/lastmile_qr_scan"}, "is_reserved": 0, "fusion_lon": 0.0, "fusion_lat": 0.0, "lon": -77.03867766666667, "name": "7dacb45f32fb5a0804056bf62dfa20bb"}, {"bike_id": "576cfa0929837e263b41c157b5ba3537", "type": "electric_scooter", "is_disabled": 0, "lat": 38.87501983333333, "rental_uris": {"ios": "https://dc.lft.to/lastmile_qr_scan", "android": "https://dc.lft.to/lastmile_qr_scan"}, "is_reserved": 0, "fusion_lon": 0.0, "fusion_lat": 0.0, "lon": -77.01225733333334, "name": "576cfa0929837e263b41c157b5ba3537"}, {"bike_id": "0225939794807928cf2cd1499044ac47", "type": "electric_bike", "is_disabled": 0, "lat": 38.80898233333333, "rental_uris": {"ios": "https://dc.lft.to/lastmile_qr_scan", "android": "https://dc.lft.to/lastmile_qr_scan"}, "is_reserved": 0, "fusion_lon": 0.0, "fusion_lat": 0.0, "lon": -77.08642683333333, "name": "0225939794807928cf2cd1499044ac47"}, {"bike_id": "6d3ce62cb86cbefaf435975d1ced8783", "type": "electric_bike", "is_disabled": 0, "lat": 38.91947366666667, "rental_uris": {"ios": "https://dc.lft.to/lastmile_qr_scan", "android": "https://dc.lft.to/lastmile_qr_scan"}, "is_reserved": 0, "fusion_lon": 0.0, "fusion_lat": 0.0, "lon": -77.003173, "name": "6d3ce62cb86cbefaf435975d1ced8783"}, {"bike_id": "ff03f7fe771798fe6b8b5e7b97997ee6", "type": "electric_scooter", "is_disabled": 0, "lat": 38.90250983333333, "rental_uris": {"ios": "https://dc.lft.to/lastmile_qr_scan", "android": "https://dc.lft.to/lastmile_qr_scan"}, "is_reserved": 0, "fusion_lon": 0.0, "fusion_lat": 0.0, "lon": -77.037984, "name": "ff03f7fe771798fe6b8b5e7b97997ee6"}, {"bike_id": "2aa9caa6245a63bf786032d0dfe8ed52", "type": "electric_scooter", "is_disabled": 0, "lat": 38.90745616666667, "rental_uris": {"ios": "https://dc.lft.to/lastmile_qr_scan", "android": "https://dc.lft.to/lastmile_qr_scan"}, "is_reserved": 0, "fusion_lon": 0.0, "fusion_lat": 0.0, "lon": -77.03213466666666, "name": "2aa9caa6245a63bf786032d0dfe8ed52"}, {"bike_id": "03bbed2f2b9347f15b8004452417332b", "type": "electric_scooter", "is_disabled": 0, "lat": 38.89247, "rental_uris": {"ios": "https://dc.lft.to/lastmile_qr_scan", "android": "https://dc.lft.to/lastmile_qr_scan"}, "is_reserved": 0, "fusion_lon": 0.0, "fusion_lat": 0.0, "lon": -77.04877016666667, "name": "03bbed2f2b9347f15b8004452417332b"}, {"bike_id": "8512e67cf230d25d4f1fe9340c1ecd11", "type": "electric_scooter", "is_disabled": 0, "lat": 38.8923315, "rental_uris": {"ios": "https://dc.lft.to/lastmile_qr_scan", "android": "https://dc.lft.to/lastmile_qr_scan"}, "is_reserved": 0, "fusion_lon": 0.0, "fusion_lat": 0.0, "lon": -77.0467435, "name": "8512e67cf230d25d4f1fe9340c1ecd11"}, {"bike_id": "8c39e9a9486c0f31a7813e6cd5a8b021", "type": "electric_scooter", "is_disabled": 0, "lat": 38.8923895, "rental_uris": {"ios": "https://dc.lft.to/lastmile_qr_scan", "android": "https://dc.lft.to/lastmile_qr_scan"}, "is_reserved": 0, "fusion_lon": 0.0, "fusion_lat": 0.0, "lon": -76.9533055, "name": "8c39e9a9486c0f31a7813e6cd5a8b021"}, {"bike_id": "b4cda631a732660f4d156fc40f03f64d", "type": "electric_scooter", "is_disabled": 0, "lat": 38.917654166666665, "rental_uris": {"ios": "https://dc.lft.to/lastmile_qr_scan", "android": "https://dc.lft.to/lastmile_qr_scan"}, "is_reserved": 0, "fusion_lon": 0.0, "fusion_lat": 0.0, "lon": -77.02966633333334, "name": "b4cda631a732660f4d156fc40f03f64d"}, {"bike_id": "d86139b80d57d26c31cbe6e861a80592", "type": "electric_scooter", "is_disabled": 0, "lat": 38.926401166666665, "rental_uris": {"ios": "https://dc.lft.to/lastmile_qr_scan", "android": "https://dc.lft.to/lastmile_qr_scan"}, "is_reserved": 0, "fusion_lon": 0.0, "fusion_lat": 0.0, "lon": -77.01386566666666, "name": "d86139b80d57d26c31cbe6e861a80592"}, {"bike_id": "65cbef524b1a498654cd967093bfa31f", "type": "electric_scooter", "is_disabled": 0, "lat": 38.865054666666666, "rental_uris": {"ios": "https://dc.lft.to/lastmile_qr_scan", "android": "https://dc.lft.to/lastmile_qr_scan"}, "is_reserved": 0, "fusion_lon": 0.0, "fusion_lat": 0.0, "lon": -76.99002833333333, "name": "65cbef524b1a498654cd967093bfa31f"}, {"bike_id": "f01bcdb6dbe62b0a354d59533ccbd2f9", "type": "electric_scooter", "is_disabled": 0, "lat": 38.916308666666666, "rental_uris": {"ios": "https://dc.lft.to/lastmile_qr_scan", "android": "https://dc.lft.to/lastmile_qr_scan"}, "is_reserved": 0, "fusion_lon": 0.0, "fusion_lat": 0.0, "lon": -77.03197033333333, "name": "f01bcdb6dbe62b0a354d59533ccbd2f9"}, {"bike_id": "ac184d7d7393502011cfb9176e4b10dc", "type": "electric_scooter", "is_disabled": 0, "lat": 38.927364833333336, "rental_uris": {"ios": "https://dc.lft.to/lastmile_qr_scan", "android": "https://dc.lft.to/lastmile_qr_scan"}, "is_reserved": 0, "fusion_lon": 0.0, "fusion_lat": 0.0, "lon": -77.02263733333334, "name": "ac184d7d7393502011cfb9176e4b10dc"}, {"bike_id": "cc69e61b849680d36ab5bc1e7554cdad", "type": "electric_scooter", "is_disabled": 0, "lat": 38.904964666666665, "rental_uris": {"ios": "https://dc.lft.to/lastmile_qr_scan", "android": "https://dc.lft.to/lastmile_qr_scan"}, "is_reserved": 0, "fusion_lon": 0.0, "fusion_lat": 0.0, "lon": -76.99954683333333, "name": "cc69e61b849680d36ab5bc1e7554cdad"}, {"bike_id": "293fe0d6e9ff0c39ddec4cbf9861979f", "type": "electric_scooter", "is_disabled": 0, "lat": 38.8988335, "rental_uris": {"ios": "https://dc.lft.to/lastmile_qr_scan", "android": "https://dc.lft.to/lastmile_qr_scan"}, "is_reserved": 0, "fusion_lon": 0.0, "fusion_lat": 0.0, "lon": -76.9317775, "name": "293fe0d6e9ff0c39ddec4cbf9861979f"}, {"bike_id": "f10ba3d05ad1925c6c6dfb01145c9878", "type": "electric_bike", "is_disabled": 0, "lat": 38.878887, "rental_uris": {"ios": "https://dc.lft.to/lastmile_qr_scan", "android": "https://dc.lft.to/lastmile_qr_scan"}, "is_reserved": 0, "fusion_lon": 0.0, "fusion_lat": 0.0, "lon": -77.096095, "name": "f10ba3d05ad1925c6c6dfb01145c9878"}, {"bike_id": "b8825140ca6a8d5978b42c41f0397f10", "type": "electric_scooter", "is_disabled": 0, "lat": 38.92375583333333, "rental_uris": {"ios": "https://dc.lft.to/lastmile_qr_scan", "android": "https://dc.lft.to/lastmile_qr_scan"}, "is_reserved": 0, "fusion_lon": 0.0, "fusion_lat": 0.0, "lon": -77.04123533333333, "name": "b8825140ca6a8d5978b42c41f0397f10"}, {"bike_id": "35f5a13f2e0bd2c9ed1aed6ae16d3a4c", "type": "electric_scooter", "is_disabled": 0, "lat": 38.902645, "rental_uris": {"ios": "https://dc.lft.to/lastmile_qr_scan", "android": "https://dc.lft.to/lastmile_qr_scan"}, "is_reserved": 0, "fusion_lon": 0.0, "fusion_lat": 0.0, "lon": -77.01769016666667, "name": "35f5a13f2e0bd2c9ed1aed6ae16d3a4c"}, {"bike_id": "a679c02715324cb28e0453b24f826ad7", "type": "electric_scooter", "is_disabled": 0, "lat": 38.933251166666665, "rental_uris": {"ios": "https://dc.lft.to/lastmile_qr_scan", "android": "https://dc.lft.to/lastmile_qr_scan"}, "is_reserved": 0, "fusion_lon": 0.0, "fusion_lat": 0.0, "lon": -77.02931733333334, "name": "a679c02715324cb28e0453b24f826ad7"}, {"bike_id": "5f8fecb0c570481637176632c83d6216", "type": "electric_scooter", "is_disabled": 0, "lat": 38.9032615, "rental_uris": {"ios": "https://dc.lft.to/lastmile_qr_scan", "android": "https://dc.lft.to/lastmile_qr_scan"}, "is_reserved": 0, "fusion_lon": 0.0, "fusion_lat": 0.0, "lon": -77.02889783333333, "name": "5f8fecb0c570481637176632c83d6216"}, {"bike_id": "c81b7b143fbc0d28324145dd45c92240", "type": "electric_scooter", "is_disabled": 0, "lat": 38.907380333333336, "rental_uris": {"ios": "https://dc.lft.to/lastmile_qr_scan", "android": "https://dc.lft.to/lastmile_qr_scan"}, "is_reserved": 0, "fusion_lon": 0.0, "fusion_lat": 0.0, "lon": -77.03205866666667, "name": "c81b7b143fbc0d28324145dd45c92240"}, {"bike_id": "88389493dc5347332e7ffcc1615ec014", "type": "electric_scooter", "is_disabled": 0, "lat": 38.90742566666667, "rental_uris": {"ios": "https://dc.lft.to/lastmile_qr_scan", "android": "https://dc.lft.to/lastmile_qr_scan"}, "is_reserved": 0, "fusion_lon": 0.0, "fusion_lat": 0.0, "lon": -77.04160983333334, "name": "88389493dc5347332e7ffcc1615ec014"}, {"bike_id": "03671299d8a4c2370316bbd1f95925ea", "type": "electric_scooter", "is_disabled": 0, "lat": 38.929720333333336, "rental_uris": {"ios": "https://dc.lft.to/lastmile_qr_scan", "android": "https://dc.lft.to/lastmile_qr_scan"}, "is_reserved": 0, "fusion_lon": 0.0, "fusion_lat": 0.0, "lon": -77.027932, "name": "03671299d8a4c2370316bbd1f95925ea"}, {"bike_id": "898ecd180103209b9b161d8bb4363710", "type": "electric_scooter", "is_disabled": 0, "lat": 38.91108766666667, "rental_uris": {"ios": "https://dc.lft.to/lastmile_qr_scan", "android": "https://dc.lft.to/lastmile_qr_scan"}, "is_reserved": 0, "fusion_lon": 0.0, "fusion_lat": 0.0, "lon": -77.03867166666667, "name": "898ecd180103209b9b161d8bb4363710"}, {"bike_id": "c39ceab2fe51708b30b0224b91b636cd", "type": "electric_scooter", "is_disabled": 0, "lat": 38.903842166666664, "rental_uris": {"ios": "https://dc.lft.to/lastmile_qr_scan", "android": "https://dc.lft.to/lastmile_qr_scan"}, "is_reserved": 0, "fusion_lon": 0.0, "fusion_lat": 0.0, "lon": -77.04827366666666, "name": "c39ceab2fe51708b30b0224b91b636cd"}, {"bike_id": "7c8e05b1b4cfed98127ed360b7238926", "type": "electric_scooter", "is_disabled": 0, "lat": 38.8747575, "rental_uris": {"ios": "https://dc.lft.to/lastmile_qr_scan", "android": "https://dc.lft.to/lastmile_qr_scan"}, "is_reserved": 0, "fusion_lon": 0.0, "fusion_lat": 0.0, "lon": -77.0107, "name": "7c8e05b1b4cfed98127ed360b7238926"}, {"bike_id": "703789e5cab8b5a9869290016665aaff", "type": "electric_scooter", "is_disabled": 0, "lat": 38.91385316666667, "rental_uris": {"ios": "https://dc.lft.to/lastmile_qr_scan", "android": "https://dc.lft.to/lastmile_qr_scan"}, "is_reserved": 0, "fusion_lon": 0.0, "fusion_lat": 0.0, "lon": -77.01704666666667, "name": "703789e5cab8b5a9869290016665aaff"}, {"bike_id": "5d3cbff6724e3976984b6c9d811b655f", "type": "electric_scooter", "is_disabled": 0, "lat": 38.934591, "rental_uris": {"ios": "https://dc.lft.to/lastmile_qr_scan", "android": "https://dc.lft.to/lastmile_qr_scan"}, "is_reserved": 0, "fusion_lon": 0.0, "fusion_lat": 0.0, "lon": -77.02767966666667, "name": "5d3cbff6724e3976984b6c9d811b655f"}, {"bike_id": "6449c5bd692b28e77026c0d2db25b918", "type": "electric_scooter", "is_disabled": 0, "lat": 38.927484166666666, "rental_uris": {"ios": "https://dc.lft.to/lastmile_qr_scan", "android": "https://dc.lft.to/lastmile_qr_scan"}, "is_reserved": 0, "fusion_lon": 0.0, "fusion_lat": 0.0, "lon": -77.0254075, "name": "6449c5bd692b28e77026c0d2db25b918"}, {"bike_id": "aee61af7ac6f494eb6ff129a7224c3e3", "type": "electric_bike", "is_disabled": 0, "lat": 38.98459316666667, "rental_uris": {"ios": "https://dc.lft.to/lastmile_qr_scan", "android": "https://dc.lft.to/lastmile_qr_scan"}, "is_reserved": 0, "fusion_lon": 0.0, "fusion_lat": 0.0, "lon": -76.97052583333334, "name": "aee61af7ac6f494eb6ff129a7224c3e3"}, {"bike_id": "4ddb19df31a71e0ca3f919cdd0efd68d", "type": "electric_scooter", "is_disabled": 0, "lat": 38.90214816666666, "rental_uris": {"ios": "https://dc.lft.to/lastmile_qr_scan", "android": "https://dc.lft.to/lastmile_qr_scan"}, "is_reserved": 0, "fusion_lon": 0.0, "fusion_lat": 0.0, "lon": -77.02377733333333, "name": "4ddb19df31a71e0ca3f919cdd0efd68d"}, {"bike_id": "59d9d61caa4be3b9810d1fd1df333ba5", "type": "electric_scooter", "is_disabled": 0, "lat": 38.866833166666666, "rental_uris": {"ios": "https://dc.lft.to/lastmile_qr_scan", "android": "https://dc.lft.to/lastmile_qr_scan"}, "is_reserved": 0, "fusion_lon": 0.0, "fusion_lat": 0.0, "lon": -76.98573016666667, "name": "59d9d61caa4be3b9810d1fd1df333ba5"}, {"bike_id": "182e54e8c343efffdefc524b2105e60a", "type": "electric_scooter", "is_disabled": 0, "lat": 38.91696233333333, "rental_uris": {"ios": "https://dc.lft.to/lastmile_qr_scan", "android": "https://dc.lft.to/lastmile_qr_scan"}, "is_reserved": 0, "fusion_lon": 0.0, "fusion_lat": 0.0, "lon": -77.04112916666666, "name": "182e54e8c343efffdefc524b2105e60a"}, {"bike_id": "7d92efefa69fadf279b8aaabfd33ea7c", "type": "electric_scooter", "is_disabled": 0, "lat": 38.866464666666666, "rental_uris": {"ios": "https://dc.lft.to/lastmile_qr_scan", "android": "https://dc.lft.to/lastmile_qr_scan"}, "is_reserved": 0, "fusion_lon": 0.0, "fusion_lat": 0.0, "lon": -76.9881885, "name": "7d92efefa69fadf279b8aaabfd33ea7c"}, {"bike_id": "490db18d1f28c83680bae4b525df2d0d", "type": "electric_scooter", "is_disabled": 0, "lat": 38.9525225, "rental_uris": {"ios": "https://dc.lft.to/lastmile_qr_scan", "android": "https://dc.lft.to/lastmile_qr_scan"}, "is_reserved": 0, "fusion_lon": 0.0, "fusion_lat": 0.0, "lon": -77.01966483333334, "name": "490db18d1f28c83680bae4b525df2d0d"}, {"bike_id": "9423d1c5488464b32633695c2fc118ba", "type": "electric_scooter", "is_disabled": 0, "lat": 38.9083465, "rental_uris": {"ios": "https://dc.lft.to/lastmile_qr_scan", "android": "https://dc.lft.to/lastmile_qr_scan"}, "is_reserved": 0, "fusion_lon": 0.0, "fusion_lat": 0.0, "lon": -77.04342033333333, "name": "9423d1c5488464b32633695c2fc118ba"}, {"bike_id": "c10fc977514e46a22f2c030b016a6bea", "type": "electric_scooter", "is_disabled": 0, "lat": 38.922994333333335, "rental_uris": {"ios": "https://dc.lft.to/lastmile_qr_scan", "android": "https://dc.lft.to/lastmile_qr_scan"}, "is_reserved": 0, "fusion_lon": 0.0, "fusion_lat": 0.0, "lon": -77.0296175, "name": "c10fc977514e46a22f2c030b016a6bea"}, {"bike_id": "dfecfd4f4969c34d6e047a7fcd31112b", "type": "electric_scooter", "is_disabled": 0, "lat": 38.907631, "rental_uris": {"ios": "https://dc.lft.to/lastmile_qr_scan", "android": "https://dc.lft.to/lastmile_qr_scan"}, "is_reserved": 0, "fusion_lon": 0.0, "fusion_lat": 0.0, "lon": -77.04340283333333, "name": "dfecfd4f4969c34d6e047a7fcd31112b"}, {"bike_id": "a746f150144563a6bf37c02cea292800", "type": "electric_scooter", "is_disabled": 0, "lat": 38.919920166666664, "rental_uris": {"ios": "https://dc.lft.to/lastmile_qr_scan", "android": "https://dc.lft.to/lastmile_qr_scan"}, "is_reserved": 0, "fusion_lon": 0.0, "fusion_lat": 0.0, "lon": -77.03957633333333, "name": "a746f150144563a6bf37c02cea292800"}, {"bike_id": "24f31418d4384542c19f3c77dcf69d15", "type": "electric_scooter", "is_disabled": 0, "lat": 38.91408766666667, "rental_uris": {"ios": "https://dc.lft.to/lastmile_qr_scan", "android": "https://dc.lft.to/lastmile_qr_scan"}, "is_reserved": 0, "fusion_lon": 0.0, "fusion_lat": 0.0, "lon": -77.04002883333334, "name": "24f31418d4384542c19f3c77dcf69d15"}, {"bike_id": "85d7bfcf8d7a60d482b68116cd611913", "type": "electric_scooter", "is_disabled": 0, "lat": 38.88295866666667, "rental_uris": {"ios": "https://dc.lft.to/lastmile_qr_scan", "android": "https://dc.lft.to/lastmile_qr_scan"}, "is_reserved": 0, "fusion_lon": 0.0, "fusion_lat": 0.0, "lon": -76.94199383333333, "name": "85d7bfcf8d7a60d482b68116cd611913"}, {"bike_id": "b7bc6f905d0393f38e0b1d33b156ac1a", "type": "electric_scooter", "is_disabled": 0, "lat": 38.90250783333333, "rental_uris": {"ios": "https://dc.lft.to/lastmile_qr_scan", "android": "https://dc.lft.to/lastmile_qr_scan"}, "is_reserved": 0, "fusion_lon": 0.0, "fusion_lat": 0.0, "lon": -77.01826516666667, "name": "b7bc6f905d0393f38e0b1d33b156ac1a"}, {"bike_id": "d4d10d8f83610e277feb90c3969a157f", "type": "electric_scooter", "is_disabled": 0, "lat": 38.9232275, "rental_uris": {"ios": "https://dc.lft.to/lastmile_qr_scan", "android": "https://dc.lft.to/lastmile_qr_scan"}, "is_reserved": 0, "fusion_lon": 0.0, "fusion_lat": 0.0, "lon": -77.02965416666666, "name": "d4d10d8f83610e277feb90c3969a157f"}, {"bike_id": "9620e3dfa00134c4a7c9dc027696c0c2", "type": "electric_scooter", "is_disabled": 0, "lat": 38.9214775, "rental_uris": {"ios": "https://dc.lft.to/lastmile_qr_scan", "android": "https://dc.lft.to/lastmile_qr_scan"}, "is_reserved": 0, "fusion_lon": 0.0, "fusion_lat": 0.0, "lon": -77.03416766666666, "name": "9620e3dfa00134c4a7c9dc027696c0c2"}, {"bike_id": "f9d395af0fd03bba2ce2a40600f7cad0", "type": "electric_scooter", "is_disabled": 0, "lat": 38.91198466666667, "rental_uris": {"ios": "https://dc.lft.to/lastmile_qr_scan", "android": "https://dc.lft.to/lastmile_qr_scan"}, "is_reserved": 0, "fusion_lon": 0.0, "fusion_lat": 0.0, "lon": -77.01201283333333, "name": "f9d395af0fd03bba2ce2a40600f7cad0"}, {"bike_id": "b70ad4a1de32124e4bfc6e962c5b4b2e", "type": "electric_scooter", "is_disabled": 0, "lat": 38.91597, "rental_uris": {"ios": "https://dc.lft.to/lastmile_qr_scan", "android": "https://dc.lft.to/lastmile_qr_scan"}, "is_reserved": 0, "fusion_lon": 0.0, "fusion_lat": 0.0, "lon": -77.00200466666666, "name": "b70ad4a1de32124e4bfc6e962c5b4b2e"}, {"bike_id": "896c3c4fd0c1762e88b7b43df56b96a2", "type": "electric_scooter", "is_disabled": 0, "lat": 38.938737333333336, "rental_uris": {"ios": "https://dc.lft.to/lastmile_qr_scan", "android": "https://dc.lft.to/lastmile_qr_scan"}, "is_reserved": 0, "fusion_lon": 0.0, "fusion_lat": 0.0, "lon": -77.02474416666666, "name": "896c3c4fd0c1762e88b7b43df56b96a2"}, {"bike_id": "2f7e3eb9a1dd65442de2040c48f6e70e", "type": "electric_scooter", "is_disabled": 0, "lat": 38.9155145, "rental_uris": {"ios": "https://dc.lft.to/lastmile_qr_scan", "android": "https://dc.lft.to/lastmile_qr_scan"}, "is_reserved": 0, "fusion_lon": 0.0, "fusion_lat": 0.0, "lon": -77.03322616666667, "name": "2f7e3eb9a1dd65442de2040c48f6e70e"}, {"bike_id": "1cdd2b4862388623071431612cd7bca3", "type": "electric_scooter", "is_disabled": 0, "lat": 38.96555866666667, "rental_uris": {"ios": "https://dc.lft.to/lastmile_qr_scan", "android": "https://dc.lft.to/lastmile_qr_scan"}, "is_reserved": 0, "fusion_lon": 0.0, "fusion_lat": 0.0, "lon": -77.00201333333334, "name": "1cdd2b4862388623071431612cd7bca3"}, {"bike_id": "5e363c9c622111a9e2c682fda64f049d", "type": "electric_scooter", "is_disabled": 0, "lat": 38.892229666666665, "rental_uris": {"ios": "https://dc.lft.to/lastmile_qr_scan", "android": "https://dc.lft.to/lastmile_qr_scan"}, "is_reserved": 0, "fusion_lon": 0.0, "fusion_lat": 0.0, "lon": -77.043708, "name": "5e363c9c622111a9e2c682fda64f049d"}, {"bike_id": "e3382f73fdf57be3c08cc35b85734ac0", "type": "electric_scooter", "is_disabled": 0, "lat": 38.88747866666667, "rental_uris": {"ios": "https://dc.lft.to/lastmile_qr_scan", "android": "https://dc.lft.to/lastmile_qr_scan"}, "is_reserved": 0, "fusion_lon": 0.0, "fusion_lat": 0.0, "lon": -77.02569816666667, "name": "e3382f73fdf57be3c08cc35b85734ac0"}, {"bike_id": "0e5f1a0072a5933097f153de55d1c780", "type": "electric_scooter", "is_disabled": 0, "lat": 38.9361025, "rental_uris": {"ios": "https://dc.lft.to/lastmile_qr_scan", "android": "https://dc.lft.to/lastmile_qr_scan"}, "is_reserved": 0, "fusion_lon": 0.0, "fusion_lat": 0.0, "lon": -77.05891583333333, "name": "0e5f1a0072a5933097f153de55d1c780"}, {"bike_id": "6d4a59c5a3f6f61a87544cadefc1b485", "type": "electric_scooter", "is_disabled": 0, "lat": 38.92601633333334, "rental_uris": {"ios": "https://dc.lft.to/lastmile_qr_scan", "android": "https://dc.lft.to/lastmile_qr_scan"}, "is_reserved": 0, "fusion_lon": 0.0, "fusion_lat": 0.0, "lon": -77.02157383333333, "name": "6d4a59c5a3f6f61a87544cadefc1b485"}, {"bike_id": "d97c184b22a692f4cbc21865dd60dbad", "type": "electric_scooter", "is_disabled": 0, "lat": 38.924720666666666, "rental_uris": {"ios": "https://dc.lft.to/lastmile_qr_scan", "android": "https://dc.lft.to/lastmile_qr_scan"}, "is_reserved": 0, "fusion_lon": 0.0, "fusion_lat": 0.0, "lon": -77.03795216666667, "name": "d97c184b22a692f4cbc21865dd60dbad"}, {"bike_id": "cdbb699227bde970f4c09d0fe4376c18", "type": "electric_scooter", "is_disabled": 0, "lat": 38.9325005, "rental_uris": {"ios": "https://dc.lft.to/lastmile_qr_scan", "android": "https://dc.lft.to/lastmile_qr_scan"}, "is_reserved": 0, "fusion_lon": 0.0, "fusion_lat": 0.0, "lon": -77.0327085, "name": "cdbb699227bde970f4c09d0fe4376c18"}, {"bike_id": "3c7fcf5c11247f808eec0feb4ecd9ff2", "type": "electric_scooter", "is_disabled": 0, "lat": 38.8996575, "rental_uris": {"ios": "https://dc.lft.to/lastmile_qr_scan", "android": "https://dc.lft.to/lastmile_qr_scan"}, "is_reserved": 0, "fusion_lon": 0.0, "fusion_lat": 0.0, "lon": -77.01990866666667, "name": "3c7fcf5c11247f808eec0feb4ecd9ff2"}, {"bike_id": "f08a2232efe5dad8bf50dfcaae8b7985", "type": "electric_bike", "is_disabled": 0, "lat": 38.88130566666667, "rental_uris": {"ios": "https://dc.lft.to/lastmile_qr_scan", "android": "https://dc.lft.to/lastmile_qr_scan"}, "is_reserved": 0, "fusion_lon": 0.0, "fusion_lat": 0.0, "lon": -77.0168185, "name": "f08a2232efe5dad8bf50dfcaae8b7985"}, {"bike_id": "9ff93691a4bca486174f7047a422d4a1", "type": "electric_bike", "is_disabled": 0, "lat": 38.80708833333333, "rental_uris": {"ios": "https://dc.lft.to/lastmile_qr_scan", "android": "https://dc.lft.to/lastmile_qr_scan"}, "is_reserved": 0, "fusion_lon": 0.0, "fusion_lat": 0.0, "lon": -77.06172366666667, "name": "9ff93691a4bca486174f7047a422d4a1"}, {"bike_id": "d48ea5c2d3e26aa13e895859e3cf4d5f", "type": "electric_scooter", "is_disabled": 0, "lat": 38.91421866666666, "rental_uris": {"ios": "https://dc.lft.to/lastmile_qr_scan", "android": "https://dc.lft.to/lastmile_qr_scan"}, "is_reserved": 0, "fusion_lon": 0.0, "fusion_lat": 0.0, "lon": -77.02223783333334, "name": "d48ea5c2d3e26aa13e895859e3cf4d5f"}, {"bike_id": "57c7e9eddcc0c9aedb2992ffa96a70bf", "type": "electric_scooter", "is_disabled": 0, "lat": 38.91192183333333, "rental_uris": {"ios": "https://dc.lft.to/lastmile_qr_scan", "android": "https://dc.lft.to/lastmile_qr_scan"}, "is_reserved": 0, "fusion_lon": 0.0, "fusion_lat": 0.0, "lon": -77.03831816666667, "name": "57c7e9eddcc0c9aedb2992ffa96a70bf"}, {"bike_id": "21214ffacf655692ce68d10b93d21d78", "type": "electric_scooter", "is_disabled": 0, "lat": 38.9024915, "rental_uris": {"ios": "https://dc.lft.to/lastmile_qr_scan", "android": "https://dc.lft.to/lastmile_qr_scan"}, "is_reserved": 0, "fusion_lon": 0.0, "fusion_lat": 0.0, "lon": -76.98664833333333, "name": "21214ffacf655692ce68d10b93d21d78"}, {"bike_id": "0ffccf27698ecfb9e47e8b5738e97c27", "type": "electric_scooter", "is_disabled": 0, "lat": 38.924642666666664, "rental_uris": {"ios": "https://dc.lft.to/lastmile_qr_scan", "android": "https://dc.lft.to/lastmile_qr_scan"}, "is_reserved": 0, "fusion_lon": 0.0, "fusion_lat": 0.0, "lon": -77.05228483333333, "name": "0ffccf27698ecfb9e47e8b5738e97c27"}, {"bike_id": "0ed4947b06a2210fcbbe0de468950dfe", "type": "electric_scooter", "is_disabled": 0, "lat": 38.885403333333336, "rental_uris": {"ios": "https://dc.lft.to/lastmile_qr_scan", "android": "https://dc.lft.to/lastmile_qr_scan"}, "is_reserved": 0, "fusion_lon": 0.0, "fusion_lat": 0.0, "lon": -77.00581433333333, "name": "0ed4947b06a2210fcbbe0de468950dfe"}, {"bike_id": "5dd10ed9082bd9af1d4a41616c79b74d", "type": "electric_scooter", "is_disabled": 0, "lat": 38.873620333333335, "rental_uris": {"ios": "https://dc.lft.to/lastmile_qr_scan", "android": "https://dc.lft.to/lastmile_qr_scan"}, "is_reserved": 0, "fusion_lon": 0.0, "fusion_lat": 0.0, "lon": -76.9702845, "name": "5dd10ed9082bd9af1d4a41616c79b74d"}, {"bike_id": "233c574f239164d91526eb2ca6fb92ac", "type": "electric_scooter", "is_disabled": 0, "lat": 38.933327, "rental_uris": {"ios": "https://dc.lft.to/lastmile_qr_scan", "android": "https://dc.lft.to/lastmile_qr_scan"}, "is_reserved": 0, "fusion_lon": 0.0, "fusion_lat": 0.0, "lon": -77.028569, "name": "233c574f239164d91526eb2ca6fb92ac"}, {"bike_id": "243d9f42fcf6a55abda78f16b53f86e3", "type": "electric_bike", "is_disabled": 0, "lat": 38.88345116666667, "rental_uris": {"ios": "https://dc.lft.to/lastmile_qr_scan", "android": "https://dc.lft.to/lastmile_qr_scan"}, "is_reserved": 0, "fusion_lon": 0.0, "fusion_lat": 0.0, "lon": -77.02422883333334, "name": "243d9f42fcf6a55abda78f16b53f86e3"}, {"bike_id": "a012042a700884113a1bd3363cd51eaa", "type": "electric_scooter", "is_disabled": 0, "lat": 38.90389283333333, "rental_uris": {"ios": "https://dc.lft.to/lastmile_qr_scan", "android": "https://dc.lft.to/lastmile_qr_scan"}, "is_reserved": 0, "fusion_lon": 0.0, "fusion_lat": 0.0, "lon": -77.02197883333334, "name": "a012042a700884113a1bd3363cd51eaa"}, {"bike_id": "0d60727ce0fc66ec51e7ef23fa14bc19", "type": "electric_scooter", "is_disabled": 0, "lat": 38.91703783333333, "rental_uris": {"ios": "https://dc.lft.to/lastmile_qr_scan", "android": "https://dc.lft.to/lastmile_qr_scan"}, "is_reserved": 0, "fusion_lon": 0.0, "fusion_lat": 0.0, "lon": -77.03718533333333, "name": "0d60727ce0fc66ec51e7ef23fa14bc19"}, {"bike_id": "c23ddcf20a74d99e7a2d684635d302d4", "type": "electric_scooter", "is_disabled": 0, "lat": 38.898869833333336, "rental_uris": {"ios": "https://dc.lft.to/lastmile_qr_scan", "android": "https://dc.lft.to/lastmile_qr_scan"}, "is_reserved": 0, "fusion_lon": 0.0, "fusion_lat": 0.0, "lon": -76.93175683333334, "name": "c23ddcf20a74d99e7a2d684635d302d4"}, {"bike_id": "5493269a7daae4fc96cc2038b81de398", "type": "electric_scooter", "is_disabled": 0, "lat": 38.895050166666664, "rental_uris": {"ios": "https://dc.lft.to/lastmile_qr_scan", "android": "https://dc.lft.to/lastmile_qr_scan"}, "is_reserved": 0, "fusion_lon": 0.0, "fusion_lat": 0.0, "lon": -77.02282566666666, "name": "5493269a7daae4fc96cc2038b81de398"}, {"bike_id": "f9bc566569b31bf7cb35bb0126061579", "type": "electric_scooter", "is_disabled": 0, "lat": 38.913236166666664, "rental_uris": {"ios": "https://dc.lft.to/lastmile_qr_scan", "android": "https://dc.lft.to/lastmile_qr_scan"}, "is_reserved": 0, "fusion_lon": 0.0, "fusion_lat": 0.0, "lon": -77.03174066666666, "name": "f9bc566569b31bf7cb35bb0126061579"}, {"bike_id": "163c3b2cf807fa4244298df2eff210af", "type": "electric_scooter", "is_disabled": 0, "lat": 38.92897466666667, "rental_uris": {"ios": "https://dc.lft.to/lastmile_qr_scan", "android": "https://dc.lft.to/lastmile_qr_scan"}, "is_reserved": 0, "fusion_lon": 0.0, "fusion_lat": 0.0, "lon": -77.0338665, "name": "163c3b2cf807fa4244298df2eff210af"}, {"bike_id": "3e486e144cffd8ce3ba2fe409d0c301e", "type": "electric_scooter", "is_disabled": 0, "lat": 38.88747383333333, "rental_uris": {"ios": "https://dc.lft.to/lastmile_qr_scan", "android": "https://dc.lft.to/lastmile_qr_scan"}, "is_reserved": 0, "fusion_lon": 0.0, "fusion_lat": 0.0, "lon": -77.03165566666667, "name": "3e486e144cffd8ce3ba2fe409d0c301e"}, {"bike_id": "828dfcc8706af8ee02459a207ceb51bc", "type": "electric_scooter", "is_disabled": 0, "lat": 38.8924165, "rental_uris": {"ios": "https://dc.lft.to/lastmile_qr_scan", "android": "https://dc.lft.to/lastmile_qr_scan"}, "is_reserved": 0, "fusion_lon": 0.0, "fusion_lat": 0.0, "lon": -77.04500666666667, "name": "828dfcc8706af8ee02459a207ceb51bc"}, {"bike_id": "096d0d0e146d11326bc16d04bb80e9af", "type": "electric_scooter", "is_disabled": 0, "lat": 38.90042966666667, "rental_uris": {"ios": "https://dc.lft.to/lastmile_qr_scan", "android": "https://dc.lft.to/lastmile_qr_scan"}, "is_reserved": 0, "fusion_lon": 0.0, "fusion_lat": 0.0, "lon": -76.9915035, "name": "096d0d0e146d11326bc16d04bb80e9af"}, {"bike_id": "66d84a58c7635f406f9f980de1a4a1b2", "type": "electric_scooter", "is_disabled": 0, "lat": 38.966090666666666, "rental_uris": {"ios": "https://dc.lft.to/lastmile_qr_scan", "android": "https://dc.lft.to/lastmile_qr_scan"}, "is_reserved": 0, "fusion_lon": 0.0, "fusion_lat": 0.0, "lon": -77.01981716666667, "name": "66d84a58c7635f406f9f980de1a4a1b2"}, {"bike_id": "847d7aaa56ef6e6c4316e5fe65a009e5", "type": "electric_scooter", "is_disabled": 0, "lat": 38.90975383333333, "rental_uris": {"ios": "https://dc.lft.to/lastmile_qr_scan", "android": "https://dc.lft.to/lastmile_qr_scan"}, "is_reserved": 0, "fusion_lon": 0.0, "fusion_lat": 0.0, "lon": -77.02217683333333, "name": "847d7aaa56ef6e6c4316e5fe65a009e5"}, {"bike_id": "f50bfdff08a4b65bd054e15b45e5f15c", "type": "electric_bike", "is_disabled": 0, "lat": 38.836081, "rental_uris": {"ios": "https://dc.lft.to/lastmile_qr_scan", "android": "https://dc.lft.to/lastmile_qr_scan"}, "is_reserved": 0, "fusion_lon": 0.0, "fusion_lat": 0.0, "lon": -77.00383766666667, "name": "f50bfdff08a4b65bd054e15b45e5f15c"}, {"bike_id": "02ff9ef6ba7440455f515a724a9ae545", "type": "electric_scooter", "is_disabled": 0, "lat": 38.883761666666665, "rental_uris": {"ios": "https://dc.lft.to/lastmile_qr_scan", "android": "https://dc.lft.to/lastmile_qr_scan"}, "is_reserved": 0, "fusion_lon": 0.0, "fusion_lat": 0.0, "lon": -76.99545616666667, "name": "02ff9ef6ba7440455f515a724a9ae545"}, {"bike_id": "4a00cfdaf44c21f2bc6ab06d077e4848", "type": "electric_scooter", "is_disabled": 0, "lat": 38.90576016666667, "rental_uris": {"ios": "https://dc.lft.to/lastmile_qr_scan", "android": "https://dc.lft.to/lastmile_qr_scan"}, "is_reserved": 0, "fusion_lon": 0.0, "fusion_lat": 0.0, "lon": -77.0342375, "name": "4a00cfdaf44c21f2bc6ab06d077e4848"}, {"bike_id": "5a5f7d5f5c7801a761eb14d09ab25281", "type": "electric_scooter", "is_disabled": 0, "lat": 38.932457, "rental_uris": {"ios": "https://dc.lft.to/lastmile_qr_scan", "android": "https://dc.lft.to/lastmile_qr_scan"}, "is_reserved": 0, "fusion_lon": 0.0, "fusion_lat": 0.0, "lon": -76.9951595, "name": "5a5f7d5f5c7801a761eb14d09ab25281"}, {"bike_id": "e52a66fa2bc22fe0f3335392251fc934", "type": "electric_scooter", "is_disabled": 0, "lat": 38.896933, "rental_uris": {"ios": "https://dc.lft.to/lastmile_qr_scan", "android": "https://dc.lft.to/lastmile_qr_scan"}, "is_reserved": 0, "fusion_lon": 0.0, "fusion_lat": 0.0, "lon": -76.99963216666667, "name": "e52a66fa2bc22fe0f3335392251fc934"}, {"bike_id": "2bb2b3cb6b1201828929943c17120176", "type": "electric_scooter", "is_disabled": 0, "lat": 38.9157285, "rental_uris": {"ios": "https://dc.lft.to/lastmile_qr_scan", "android": "https://dc.lft.to/lastmile_qr_scan"}, "is_reserved": 0, "fusion_lon": 0.0, "fusion_lat": 0.0, "lon": -77.04158633333333, "name": "2bb2b3cb6b1201828929943c17120176"}, {"bike_id": "bf1f4ec09287b82f3fd83c5bb70455a5", "type": "electric_scooter", "is_disabled": 0, "lat": 38.9004485, "rental_uris": {"ios": "https://dc.lft.to/lastmile_qr_scan", "android": "https://dc.lft.to/lastmile_qr_scan"}, "is_reserved": 0, "fusion_lon": 0.0, "fusion_lat": 0.0, "lon": -76.982896, "name": "bf1f4ec09287b82f3fd83c5bb70455a5"}, {"bike_id": "404f85fd1d7532673b058a959ecd1477", "type": "electric_bike", "is_disabled": 0, "lat": 38.97202983333333, "rental_uris": {"ios": "https://dc.lft.to/lastmile_qr_scan", "android": "https://dc.lft.to/lastmile_qr_scan"}, "is_reserved": 0, "fusion_lon": 0.0, "fusion_lat": 0.0, "lon": -77.0333055, "name": "404f85fd1d7532673b058a959ecd1477"}, {"bike_id": "8be25eee52a1295f747d226e767fc3ec", "type": "electric_scooter", "is_disabled": 0, "lat": 38.920503333333336, "rental_uris": {"ios": "https://dc.lft.to/lastmile_qr_scan", "android": "https://dc.lft.to/lastmile_qr_scan"}, "is_reserved": 0, "fusion_lon": 0.0, "fusion_lat": 0.0, "lon": -77.01622933333333, "name": "8be25eee52a1295f747d226e767fc3ec"}, {"bike_id": "d9d1609a1d365d833f7de294afb69a28", "type": "electric_scooter", "is_disabled": 0, "lat": 38.892217333333335, "rental_uris": {"ios": "https://dc.lft.to/lastmile_qr_scan", "android": "https://dc.lft.to/lastmile_qr_scan"}, "is_reserved": 0, "fusion_lon": 0.0, "fusion_lat": 0.0, "lon": -77.04801416666666, "name": "d9d1609a1d365d833f7de294afb69a28"}, {"bike_id": "a425f478c6b0fc73339ce49877101339", "type": "electric_scooter", "is_disabled": 0, "lat": 38.88487516666667, "rental_uris": {"ios": "https://dc.lft.to/lastmile_qr_scan", "android": "https://dc.lft.to/lastmile_qr_scan"}, "is_reserved": 0, "fusion_lon": 0.0, "fusion_lat": 0.0, "lon": -77.03474233333333, "name": "a425f478c6b0fc73339ce49877101339"}, {"bike_id": "b5acf8ca9b73b49ac83fc5d0a3850fa3", "type": "electric_scooter", "is_disabled": 0, "lat": 38.861884333333336, "rental_uris": {"ios": "https://dc.lft.to/lastmile_qr_scan", "android": "https://dc.lft.to/lastmile_qr_scan"}, "is_reserved": 0, "fusion_lon": 0.0, "fusion_lat": 0.0, "lon": -76.9594855, "name": "b5acf8ca9b73b49ac83fc5d0a3850fa3"}, {"bike_id": "175d7683ea430fd12ce18e72f8155b3b", "type": "electric_scooter", "is_disabled": 0, "lat": 38.89612283333334, "rental_uris": {"ios": "https://dc.lft.to/lastmile_qr_scan", "android": "https://dc.lft.to/lastmile_qr_scan"}, "is_reserved": 0, "fusion_lon": 0.0, "fusion_lat": 0.0, "lon": -77.04431083333333, "name": "175d7683ea430fd12ce18e72f8155b3b"}, {"bike_id": "265340feebd419de20ac0ced0ae53388", "type": "electric_scooter", "is_disabled": 0, "lat": 38.90014166666667, "rental_uris": {"ios": "https://dc.lft.to/lastmile_qr_scan", "android": "https://dc.lft.to/lastmile_qr_scan"}, "is_reserved": 0, "fusion_lon": 0.0, "fusion_lat": 0.0, "lon": -77.01182266666666, "name": "265340feebd419de20ac0ced0ae53388"}, {"bike_id": "699810021b82b628e1e960f2ef5e3f78", "type": "electric_scooter", "is_disabled": 0, "lat": 38.86244, "rental_uris": {"ios": "https://dc.lft.to/lastmile_qr_scan", "android": "https://dc.lft.to/lastmile_qr_scan"}, "is_reserved": 0, "fusion_lon": 0.0, "fusion_lat": 0.0, "lon": -76.99496183333333, "name": "699810021b82b628e1e960f2ef5e3f78"}, {"bike_id": "3d5702ff4107c1b3fb41c928b94893e8", "type": "electric_bike", "is_disabled": 0, "lat": 38.99526383333333, "rental_uris": {"ios": "https://dc.lft.to/lastmile_qr_scan", "android": "https://dc.lft.to/lastmile_qr_scan"}, "is_reserved": 0, "fusion_lon": 0.0, "fusion_lat": 0.0, "lon": -77.06942216666667, "name": "3d5702ff4107c1b3fb41c928b94893e8"}, {"bike_id": "a9b748518b324b998bc28a937ce99a5c", "type": "electric_scooter", "is_disabled": 0, "lat": 38.92457133333333, "rental_uris": {"ios": "https://dc.lft.to/lastmile_qr_scan", "android": "https://dc.lft.to/lastmile_qr_scan"}, "is_reserved": 0, "fusion_lon": 0.0, "fusion_lat": 0.0, "lon": -77.05223716666667, "name": "a9b748518b324b998bc28a937ce99a5c"}, {"bike_id": "b7bd12dd25e4f0fec8b87e2c5181918f", "type": "electric_scooter", "is_disabled": 0, "lat": 38.900305, "rental_uris": {"ios": "https://dc.lft.to/lastmile_qr_scan", "android": "https://dc.lft.to/lastmile_qr_scan"}, "is_reserved": 0, "fusion_lon": 0.0, "fusion_lat": 0.0, "lon": -77.002032, "name": "b7bd12dd25e4f0fec8b87e2c5181918f"}, {"bike_id": "8bfff770d248bade9d7e5f3af9b31137", "type": "electric_scooter", "is_disabled": 0, "lat": 38.9684935, "rental_uris": {"ios": "https://dc.lft.to/lastmile_qr_scan", "android": "https://dc.lft.to/lastmile_qr_scan"}, "is_reserved": 0, "fusion_lon": 0.0, "fusion_lat": 0.0, "lon": -77.02728066666667, "name": "8bfff770d248bade9d7e5f3af9b31137"}, {"bike_id": "84624bcd7c01a4a55372e40bb0612aef", "type": "electric_scooter", "is_disabled": 0, "lat": 38.896245, "rental_uris": {"ios": "https://dc.lft.to/lastmile_qr_scan", "android": "https://dc.lft.to/lastmile_qr_scan"}, "is_reserved": 0, "fusion_lon": 0.0, "fusion_lat": 0.0, "lon": -77.02198366666667, "name": "84624bcd7c01a4a55372e40bb0612aef"}, {"bike_id": "3d999885ef92ccb7465ea0f5b1de1a0f", "type": "electric_scooter", "is_disabled": 0, "lat": 38.900298, "rental_uris": {"ios": "https://dc.lft.to/lastmile_qr_scan", "android": "https://dc.lft.to/lastmile_qr_scan"}, "is_reserved": 0, "fusion_lon": 0.0, "fusion_lat": 0.0, "lon": -76.98860116666667, "name": "3d999885ef92ccb7465ea0f5b1de1a0f"}, {"bike_id": "439e8db4b7c8852cf884199b6bb9bbf3", "type": "electric_scooter", "is_disabled": 0, "lat": 38.922216, "rental_uris": {"ios": "https://dc.lft.to/lastmile_qr_scan", "android": "https://dc.lft.to/lastmile_qr_scan"}, "is_reserved": 0, "fusion_lon": 0.0, "fusion_lat": 0.0, "lon": -77.04336083333334, "name": "439e8db4b7c8852cf884199b6bb9bbf3"}, {"bike_id": "154f02e4a2ebf94e62085d30e1cd0709", "type": "electric_scooter", "is_disabled": 0, "lat": 38.87649183333333, "rental_uris": {"ios": "https://dc.lft.to/lastmile_qr_scan", "android": "https://dc.lft.to/lastmile_qr_scan"}, "is_reserved": 0, "fusion_lon": 0.0, "fusion_lat": 0.0, "lon": -76.965058, "name": "154f02e4a2ebf94e62085d30e1cd0709"}, {"bike_id": "cf9a0aa7aa6a02d56bdb93e72d16f4a8", "type": "electric_scooter", "is_disabled": 0, "lat": 38.917115333333335, "rental_uris": {"ios": "https://dc.lft.to/lastmile_qr_scan", "android": "https://dc.lft.to/lastmile_qr_scan"}, "is_reserved": 0, "fusion_lon": 0.0, "fusion_lat": 0.0, "lon": -77.0386555, "name": "cf9a0aa7aa6a02d56bdb93e72d16f4a8"}, {"bike_id": "8dfdc647340974b7c0af928c54416c6e", "type": "electric_scooter", "is_disabled": 0, "lat": 38.916830166666664, "rental_uris": {"ios": "https://dc.lft.to/lastmile_qr_scan", "android": "https://dc.lft.to/lastmile_qr_scan"}, "is_reserved": 0, "fusion_lon": 0.0, "fusion_lat": 0.0, "lon": -77.03848766666667, "name": "8dfdc647340974b7c0af928c54416c6e"}, {"bike_id": "34430d079864e6f301e295e92510137f", "type": "electric_scooter", "is_disabled": 0, "lat": 38.93888416666667, "rental_uris": {"ios": "https://dc.lft.to/lastmile_qr_scan", "android": "https://dc.lft.to/lastmile_qr_scan"}, "is_reserved": 0, "fusion_lon": 0.0, "fusion_lat": 0.0, "lon": -77.03325133333334, "name": "34430d079864e6f301e295e92510137f"}, {"bike_id": "cc168b1fd6315232f1d9baa292f71d8d", "type": "electric_scooter", "is_disabled": 0, "lat": 38.905913166666664, "rental_uris": {"ios": "https://dc.lft.to/lastmile_qr_scan", "android": "https://dc.lft.to/lastmile_qr_scan"}, "is_reserved": 0, "fusion_lon": 0.0, "fusion_lat": 0.0, "lon": -77.04577866666666, "name": "cc168b1fd6315232f1d9baa292f71d8d"}, {"bike_id": "298c5c529d7120a0b6c29e0a6703701b", "type": "electric_scooter", "is_disabled": 0, "lat": 38.908180333333334, "rental_uris": {"ios": "https://dc.lft.to/lastmile_qr_scan", "android": "https://dc.lft.to/lastmile_qr_scan"}, "is_reserved": 0, "fusion_lon": 0.0, "fusion_lat": 0.0, "lon": -77.043417, "name": "298c5c529d7120a0b6c29e0a6703701b"}, {"bike_id": "1589458af49b05989a9807846086da8a", "type": "electric_scooter", "is_disabled": 0, "lat": 38.93507616666667, "rental_uris": {"ios": "https://dc.lft.to/lastmile_qr_scan", "android": "https://dc.lft.to/lastmile_qr_scan"}, "is_reserved": 0, "fusion_lon": 0.0, "fusion_lat": 0.0, "lon": -77.01966033333333, "name": "1589458af49b05989a9807846086da8a"}, {"bike_id": "754c671a1bb5401721302b614054c072", "type": "electric_scooter", "is_disabled": 0, "lat": 38.916388, "rental_uris": {"ios": "https://dc.lft.to/lastmile_qr_scan", "android": "https://dc.lft.to/lastmile_qr_scan"}, "is_reserved": 0, "fusion_lon": 0.0, "fusion_lat": 0.0, "lon": -77.03054333333333, "name": "754c671a1bb5401721302b614054c072"}, {"bike_id": "c44f67e7280f77c89b422da25ea61305", "type": "electric_scooter", "is_disabled": 0, "lat": 38.92066716666667, "rental_uris": {"ios": "https://dc.lft.to/lastmile_qr_scan", "android": "https://dc.lft.to/lastmile_qr_scan"}, "is_reserved": 0, "fusion_lon": 0.0, "fusion_lat": 0.0, "lon": -77.01483483333334, "name": "c44f67e7280f77c89b422da25ea61305"}, {"bike_id": "d1f91f095177967ce7071e6605486269", "type": "electric_scooter", "is_disabled": 0, "lat": 38.8923575, "rental_uris": {"ios": "https://dc.lft.to/lastmile_qr_scan", "android": "https://dc.lft.to/lastmile_qr_scan"}, "is_reserved": 0, "fusion_lon": 0.0, "fusion_lat": 0.0, "lon": -77.0416235, "name": "d1f91f095177967ce7071e6605486269"}, {"bike_id": "36db739e0c125fcb94d9de1dc08ca7c5", "type": "electric_scooter", "is_disabled": 0, "lat": 38.92201216666667, "rental_uris": {"ios": "https://dc.lft.to/lastmile_qr_scan", "android": "https://dc.lft.to/lastmile_qr_scan"}, "is_reserved": 0, "fusion_lon": 0.0, "fusion_lat": 0.0, "lon": -77.0340425, "name": "36db739e0c125fcb94d9de1dc08ca7c5"}, {"bike_id": "5a7e91488d908c5ef4933c0c619be50a", "type": "electric_scooter", "is_disabled": 0, "lat": 38.89713616666667, "rental_uris": {"ios": "https://dc.lft.to/lastmile_qr_scan", "android": "https://dc.lft.to/lastmile_qr_scan"}, "is_reserved": 0, "fusion_lon": 0.0, "fusion_lat": 0.0, "lon": -77.0273655, "name": "5a7e91488d908c5ef4933c0c619be50a"},