{"data": {"bikes": [{"name": "0d777e5b9c25676a547f114f679b6084", "fusion_lat": 0.0, "type": "electric_scooter", "lat": 38.927398833333335, "is_reserved": 0, "is_disabled": 0, "fusion_lon": 0.0, "bike_id": "0d777e5b9c25676a547f114f679b6084", "lon": -77.02494783333333, "rental_uris": {"ios": "https://dc.lft.to/lastmile_qr_scan", "android": "https://dc.lft.to/lastmile_qr_scan"}}, {"name": "3788c9fea1850cc23d5b2685c9c40d18", "fusion_lat": 0.0, "type": "electric_scooter", "lat": 38.92881283333333, "is_reserved": 0, "is_disabled": 0, "fusion_lon": 0.0, "bike_id": "3788c9fea1850cc23d5b2685c9c40d18", "lon": -77.02713, "rental_uris": {"ios": "https://dc.lft.to/lastmile_qr_scan", "android": "https://dc.lft.to/lastmile_qr_scan"}}, {"name": "031d6805f9c3b3088639b934c9751538", "fusion_lat": 0.0, "type": "electric_scooter", "lat": 38.911758666666664, "is_reserved": 0, "is_disabled": 0, "fusion_lon": 0.0, "bike_id": "031d6805f9c3b3088639b934c9751538", "lon": -77.03182233333334, "rental_uris": {"ios": "https://dc.lft.to/lastmile_qr_scan", "android": "https://dc.lft.to/lastmile_qr_scan"}}, {"name": "b2314cb9aed6fc45c53295915171abab", "fusion_lat": 0.0, "type": "electric_scooter", "lat": 38.9023915, "is_reserved": 0, "is_disabled": 0, "fusion_lon": 0.0, "bike_id": "b2314cb9aed6fc45c53295915171abab", "lon": -77.0398695, "rental_uris": {"ios": "https://dc.lft.to/lastmile_qr_scan", "android": "https://dc.lft.to/lastmile_qr_scan"}}, {"name": "336fdb6b1bf115e6125ec07cadf3fc3b", "fusion_lat": 0.0, "type": "electric_scooter", "lat": 38.899645, "is_reserved": 0, "is_disabled": 0, "fusion_lon": 0.0, "bike_id": "336fdb6b1bf115e6125ec07cadf3fc3b", "lon": -77.05298483333333, "rental_uris": {"ios": "https://dc.lft.to/lastmile_qr_scan", "android": "https://dc.lft.to/lastmile_qr_scan"}}, {"name": "7d8a6b13bcdc13f70740008ca1d194e6", "fusion_lat": 0.0, "type": "electric_scooter", "lat": 38.92738933333333, "is_reserved": 0, "is_disabled": 0, "fusion_lon": 0.0, "bike_id": "7d8a6b13bcdc13f70740008ca1d194e6", "lon": -77.02254666666667, "rental_uris": {"ios": "https://dc.lft.to/lastmile_qr_scan", "android": "https://dc.lft.to/lastmile_qr_scan"}}, {"name": "2bdaef27b35a3cd8edae54d7402aa3e2", "fusion_lat": 0.0, "type": "electric_scooter", "lat": 38.9073895, "is_reserved": 0, "is_disabled": 0, "fusion_lon": 0.0, "bike_id": "2bdaef27b35a3cd8edae54d7402aa3e2", "lon": -77.03182616666666, "rental_uris": {"ios": "https://dc.lft.to/lastmile_qr_scan", "android": "https://dc.lft.to/lastmile_qr_scan"}}, {"name": "519608b7005c25592c00ff2e1751348d", "fusion_lat": 0.0, "type": "electric_scooter", "lat": 38.88319966666667, "is_reserved": 0, "is_disabled": 0, "fusion_lon": 0.0, "bike_id": "519608b7005c25592c00ff2e1751348d", "lon": -77.01521916666667, "rental_uris": {"ios": "https://dc.lft.to/lastmile_qr_scan", "android": "https://dc.lft.to/lastmile_qr_scan"}}, {"name": "c449dfc80573e569921dc424a0372df3", "fusion_lat": 0.0, "type": "electric_scooter", "lat": 38.939114333333336, "is_reserved": 0, "is_disabled": 0, "fusion_lon": 0.0, "bike_id": "c449dfc80573e569921dc424a0372df3", "lon": -77.06044233333333, "rental_uris": {"ios": "https://dc.lft.to/lastmile_qr_scan", "android": "https://dc.lft.to/lastmile_qr_scan"}}, {"name": "3f4a1cfd0054e7c6bbd7a10fb93a4fae", "fusion_lat": 0.0, "type": "electric_scooter", "lat": 38.8783465, "is_reserved": 0, "is_disabled": 0, "fusion_lon": 0.0, "bike_id": "3f4a1cfd0054e7c6bbd7a10fb93a4fae", "lon": -76.9861375, "rental_uris": {"ios": "https://dc.lft.to/lastmile_qr_scan", "android": "https://dc.lft.to/lastmile_qr_scan"}}, {"name": "60a31a8c831704f69910687c908d6fd7", "fusion_lat": 0.0, "type": "electric_scooter", "lat": 38.90132966666667, "is_reserved": 0, "is_disabled": 0, "fusion_lon": 0.0, "bike_id": "60a31a8c831704f69910687c908d6fd7", "lon": -77.047162, "rental_uris": {"ios": "https://dc.lft.to/lastmile_qr_scan", "android": "https://dc.lft.to/lastmile_qr_scan"}}, {"name": "f8652a393ff5432cbdb9c90401c7bc69", "fusion_lat": 0.0, "type": "electric_scooter", "lat": 38.910169333333336, "is_reserved": 0, "is_disabled": 0, "fusion_lon": 0.0, "bike_id": "f8652a393ff5432cbdb9c90401c7bc69", "lon": -76.99675133333334, "rental_uris": {"ios": "https://dc.lft.to/lastmile_qr_scan", "android": "https://dc.lft.to/lastmile_qr_scan"}}, {"name": "fff14d4fd15d9c2e6de105c3943077fc", "fusion_lat": 0.0, "type": "electric_scooter", "lat": 38.9055465, "is_reserved": 0, "is_disabled": 0, "fusion_lon": 0.0, "bike_id": "fff14d4fd15d9c2e6de105c3943077fc", "lon": -77.005815, "rental_uris": {"ios": "https://dc.lft.to/lastmile_qr_scan", "android": "https://dc.lft.to/lastmile_qr_scan"}}, {"name": "04f05d32095516da82f5ba84f640bb5f", "fusion_lat": 0.0, "type": "electric_bike", "lat": 38.90298383333333, "is_reserved": 0, "is_disabled": 0, "fusion_lon": 0.0, "bike_id": "04f05d32095516da82f5ba84f640bb5f", "lon": -76.94437283333333, "rental_uris": {"ios": "https://dc.lft.to/lastmile_qr_scan", "android": "https://dc.lft.to/lastmile_qr_scan"}}, {"name": "7eef034a12a959dbec5d92172988195f", "fusion_lat": 0.0, "type": "electric_scooter", "lat": 38.8976485, "is_reserved": 0, "is_disabled": 0, "fusion_lon": 0.0, "bike_id": "7eef034a12a959dbec5d92172988195f", "lon": -77.05159533333334, "rental_uris": {"ios": "https://dc.lft.to/lastmile_qr_scan", "android": "https://dc.lft.to/lastmile_qr_scan"}}, {"name": "fb7db0c9064e97ad84dbb2eb729f78fd", "fusion_lat": 0.0, "type": "electric_scooter", "lat": 38.9225025, "is_reserved": 0, "is_disabled": 0, "fusion_lon": 0.0, "bike_id": "fb7db0c9064e97ad84dbb2eb729f78fd", "lon": -77.03051716666667, "rental_uris": {"ios": "https://dc.lft.to/lastmile_qr_scan", "android": "https://dc.lft.to/lastmile_qr_scan"}}, {"name": "1f7fc3e2c6ba43e4e50b4bb623c24971", "fusion_lat": 0.0, "type": "electric_bike", "lat": 38.9393925, "is_reserved": 0, "is_disabled": 0, "fusion_lon": 0.0, "bike_id": "1f7fc3e2c6ba43e4e50b4bb623c24971", "lon": -77.032689, "rental_uris": {"ios": "https://dc.lft.to/lastmile_qr_scan", "android": "https://dc.lft.to/lastmile_qr_scan"}}, {"name": "576c2fb7f07d49d5fda7c52739a4145b", "fusion_lat": 0.0, "type": "electric_scooter", "lat": 38.95783266666667, "is_reserved": 0, "is_disabled": 0, "fusion_lon": 0.0, "bike_id": "576c2fb7f07d49d5fda7c52739a4145b", "lon": -77.0275885, "rental_uris": {"ios": "https://dc.lft.to/lastmile_qr_scan", "android": "https://dc.lft.to/lastmile_qr_scan"}}, {"name": "d0c4f97cc7de4f49fbf946e4e69bd78c", "fusion_lat": 0.0, "type": "electric_scooter", "lat": 38.91960733333333, "is_reserved": 0, "is_disabled": 0, "fusion_lon": 0.0, "bike_id": "d0c4f97cc7de4f49fbf946e4e69bd78c", "lon": -77.03856766666667, "rental_uris": {"ios": "https://dc.lft.to/lastmile_qr_scan", "android": "https://dc.lft.to/lastmile_qr_scan"}}, {"name": "3846e631218d1c0fb11a1f755a434f57", "fusion_lat": 0.0, "type": "electric_scooter", "lat": 38.917635833333335, "is_reserved": 0, "is_disabled": 0, "fusion_lon": 0.0, "bike_id": "3846e631218d1c0fb11a1f755a434f57", "lon": -77.02511533333333, "rental_uris": {"ios": "https://dc.lft.to/lastmile_qr_scan", "android": "https://dc.lft.to/lastmile_qr_scan"}}, {"name": "7e66c9ad09084a8c3afbd99bec1fad33", "fusion_lat": 0.0, "type": "electric_scooter", "lat": 38.897369166666664, "is_reserved": 0, "is_disabled": 0, "fusion_lon": 0.0, "bike_id": "7e66c9ad09084a8c3afbd99bec1fad33", "lon": -77.04647416666667, "rental_uris": {"ios": "https://dc.lft.to/lastmile_qr_scan", "android": "https://dc.lft.to/lastmile_qr_scan"}}, {"name": "d51633eb278df02fc2018463896d594d", "fusion_lat": 0.0, "type": "electric_scooter", "lat": 38.912527, "is_reserved": 0, "is_disabled": 0, "fusion_lon": 0.0, "bike_id": "d51633eb278df02fc2018463896d594d", "lon": -77.03841033333333, "rental_uris": {"ios": "https://dc.lft.to/lastmile_qr_scan", "android": "https://dc.lft.to/lastmile_qr_scan"}}, {"name": "df16130f6888eab27315ef30b2fc8464", "fusion_lat": 0.0, "type": "electric_bike", "lat": 38.99238666666667, "is_reserved": 0, "is_disabled": 0, "fusion_lon": 0.0, "bike_id": "df16130f6888eab27315ef30b2fc8464", "lon": -77.10008216666667, "rental_uris": {"ios": "https://dc.lft.to/lastmile_qr_scan", "android": "https://dc.lft.to/lastmile_qr_scan"}}, {"name": "fb1aa977f6512f089500103bbc2d842a", "fusion_lat": 0.0, "type": "electric_scooter", "lat": 38.91409483333333, "is_reserved": 0, "is_disabled": 0, "fusion_lon": 0.0, "bike_id": "fb1aa977f6512f089500103bbc2d842a", "lon": -77.04505066666667, "rental_uris": {"ios": "https://dc.lft.to/lastmile_qr_scan", "android": "https://dc.lft.to/lastmile_qr_scan"}}, {"name": "5e4f57006d82fbb0d5644383d0ee635b", "fusion_lat": 0.0, "type": "electric_scooter", "lat": 38.9126595, "is_reserved": 0, "is_disabled": 0, "fusion_lon": 0.0, "bike_id": "5e4f57006d82fbb0d5644383d0ee635b", "lon": -77.03936816666666, "rental_uris": {"ios": "https://dc.lft.to/lastmile_qr_scan", "android": "https://dc.lft.to/lastmile_qr_scan"}}, {"name": "021fa3b2eab2c8150beb193a40b1a92b", "fusion_lat": 0.0, "type": "electric_scooter", "lat": 38.917197333333334, "is_reserved": 0, "is_disabled": 0, "fusion_lon": 0.0, "bike_id": "021fa3b2eab2c8150beb193a40b1a92b", "lon": -77.01864283333333, "rental_uris": {"ios": "https://dc.lft.to/lastmile_qr_scan", "android": "https://dc.lft.to/lastmile_qr_scan"}}, {"name": "411734be864c0dfb49c6d93c8cd7bc2f", "fusion_lat": 0.0, "type": "electric_scooter", "lat": 38.932545166666664, "is_reserved": 0, "is_disabled": 0, "fusion_lon": 0.0, "bike_id": "411734be864c0dfb49c6d93c8cd7bc2f", "lon": -77.0400045, "rental_uris": {"ios": "https://dc.lft.to/lastmile_qr_scan", "android": "https://dc.lft.to/lastmile_qr_scan"}}, {"name": "a94eeead184b5b60548464db3e4c28f7", "fusion_lat": 0.0, "type": "electric_scooter", "lat": 38.894831333333336, "is_reserved": 0, "is_disabled": 0, "fusion_lon": 0.0, "bike_id": "a94eeead184b5b60548464db3e4c28f7", "lon": -76.94879366666666, "rental_uris": {"ios": "https://dc.lft.to/lastmile_qr_scan", "android": "https://dc.lft.to/lastmile_qr_scan"}}, {"name": "c8c05c859f06a1ee77bb039c6983d6d1", "fusion_lat": 0.0, "type": "electric_scooter", "lat": 38.90834816666667, "is_reserved": 0, "is_disabled": 0, "fusion_lon": 0.0, "bike_id": "c8c05c859f06a1ee77bb039c6983d6d1", "lon": -76.99976816666667, "rental_uris": {"ios": "https://dc.lft.to/lastmile_qr_scan", "android": "https://dc.lft.to/lastmile_qr_scan"}}, {"name": "3572eea3f375c5d83d3c01a2c28e985e", "fusion_lat": 0.0, "type": "electric_bike", "lat": 38.94553583333333, "is_reserved": 0, "is_disabled": 0, "fusion_lon": 0.0, "bike_id": "3572eea3f375c5d83d3c01a2c28e985e", "lon": -76.89538683333333, "rental_uris": {"ios": "https://dc.lft.to/lastmile_qr_scan", "android": "https://dc.lft.to/lastmile_qr_scan"}}, {"name": "586f414825a730abb7fdb4f5a128e70c", "fusion_lat": 0.0, "type": "electric_scooter", "lat": 38.89283866666667, "is_reserved": 0, "is_disabled": 0, "fusion_lon": 0.0, "bike_id": "586f414825a730abb7fdb4f5a128e70c", "lon": -77.0322915, "rental_uris": {"ios": "https://dc.lft.to/lastmile_qr_scan", "android": "https://dc.lft.to/lastmile_qr_scan"}}, {"name": "83dbbfc8163faa88cba850258f5a21ce", "fusion_lat": 0.0, "type": "electric_scooter", "lat": 38.931276833333335, "is_reserved": 0, "is_disabled": 0, "fusion_lon": 0.0, "bike_id": "83dbbfc8163faa88cba850258f5a21ce", "lon": -77.036032, "rental_uris": {"ios": "https://dc.lft.to/lastmile_qr_scan", "android": "https://dc.lft.to/lastmile_qr_scan"}}, {"name": "df07fd26991ca42360b589169111b7fd", "fusion_lat": 0.0, "type": "electric_scooter", "lat": 38.897752833333335, "is_reserved": 0, "is_disabled": 0, "fusion_lon": 0.0, "bike_id": "df07fd26991ca42360b589169111b7fd", "lon": -76.99159033333333, "rental_uris": {"ios": "https://dc.lft.to/lastmile_qr_scan", "android": "https://dc.lft.to/lastmile_qr_scan"}}, {"name": "6af493809565ddd6360ac10a6e448f78", "fusion_lat": 0.0, "type": "electric_scooter", "lat": 38.91552433333333, "is_reserved": 0, "is_disabled": 0, "fusion_lon": 0.0, "bike_id": "6af493809565ddd6360ac10a6e448f78", "lon": -77.03851466666667, "rental_uris": {"ios": "https://dc.lft.to/lastmile_qr_scan", "android": "https://dc.lft.to/lastmile_qr_scan"}}, {"name": "7341667bc582a049dc1544b6b688240b", "fusion_lat": 0.0, "type": "electric_scooter", "lat": 38.8839205, "is_reserved": 0, "is_disabled": 0, "fusion_lon": 0.0, "bike_id": "7341667bc582a049dc1544b6b688240b", "lon": -76.93052416666667, "rental_uris": {"ios": "https://dc.lft.to/lastmile_qr_scan", "android": "https://dc.lft.to/lastmile_qr_scan"}}, {"name": "9204cfc8bc953c2bc478e448426b284b", "fusion_lat": 0.0, "type": "electric_bike", "lat": 38.97325566666667, "is_reserved": 0, "is_disabled": 0, "fusion_lon": 0.0, "bike_id": "9204cfc8bc953c2bc478e448426b284b", "lon": -77.021518, "rental_uris": {"ios": "https://dc.lft.to/lastmile_qr_scan", "android": "https://dc.lft.to/lastmile_qr_scan"}}, {"name": "eba45463fe115e98ac8e8e7fcb1bdbb3", "fusion_lat": 0.0, "type": "electric_scooter", "lat": 38.908152, "is_reserved": 0, "is_disabled": 0, "fusion_lon": 0.0, "bike_id": "eba45463fe115e98ac8e8e7fcb1bdbb3", "lon": -77.02600283333334, "rental_uris": {"ios": "https://dc.lft.to/lastmile_qr_scan", "android": "https://dc.lft.to/lastmile_qr_scan"}}, {"name": "3eb45c769e762a3d7facc14509674904", "fusion_lat": 0.0, "type": "electric_scooter", "lat": 38.90764383333333, "is_reserved": 0, "is_disabled": 0, "fusion_lon": 0.0, "bike_id": "3eb45c769e762a3d7facc14509674904", "lon": -77.00037416666666, "rental_uris": {"ios": "https://dc.lft.to/lastmile_qr_scan", "android": "https://dc.lft.to/lastmile_qr_scan"}}, {"name": "564bf7be4526be881c46c6fe57fa27ff", "fusion_lat": 0.0, "type": "electric_scooter", "lat": 38.918123333333334, "is_reserved": 0, "is_disabled": 0, "fusion_lon": 0.0, "bike_id": "564bf7be4526be881c46c6fe57fa27ff", "lon": -77.03170883333334, "rental_uris": {"ios": "https://dc.lft.to/lastmile_qr_scan", "android": "https://dc.lft.to/lastmile_qr_scan"}}, {"name": "d754e3e19fa4f54aa4778d32ad8ec94b", "fusion_lat": 0.0, "type": "electric_scooter", "lat": 38.900493833333336, "is_reserved": 0, "is_disabled": 0, "fusion_lon": 0.0, "bike_id": "d754e3e19fa4f54aa4778d32ad8ec94b", "lon": -77.04320133333333, "rental_uris": {"ios": "https://dc.lft.to/lastmile_qr_scan", "android": "https://dc.lft.to/lastmile_qr_scan"}}, {"name": "5d8b9fc53c2cf528b0803a40125ec267", "fusion_lat": 0.0, "type": "electric_scooter", "lat": 38.92853783333333, "is_reserved": 0, "is_disabled": 0, "fusion_lon": 0.0, "bike_id": "5d8b9fc53c2cf528b0803a40125ec267", "lon": -77.01380916666666, "rental_uris": {"ios": "https://dc.lft.to/lastmile_qr_scan", "android": "https://dc.lft.to/lastmile_qr_scan"}}, {"name": "cc5ec49026e8dfa1b7f01d47ee21fea4", "fusion_lat": 0.0, "type": "electric_scooter", "lat": 38.9051415, "is_reserved": 0, "is_disabled": 0, "fusion_lon": 0.0, "bike_id": "cc5ec49026e8dfa1b7f01d47ee21fea4", "lon": -77.06385233333333, "rental_uris": {"ios": "https://dc.lft.to/lastmile_qr_scan", "android": "https://dc.lft.to/lastmile_qr_scan"}}, {"name": "16596a8e7c98d4713d5a24584323d468", "fusion_lat": 0.0, "type": "electric_scooter", "lat": 38.94184333333333, "is_reserved": 0, "is_disabled": 0, "fusion_lon": 0.0, "bike_id": "16596a8e7c98d4713d5a24584323d468", "lon": -77.024921, "rental_uris": {"ios": "https://dc.lft.to/lastmile_qr_scan", "android": "https://dc.lft.to/lastmile_qr_scan"}}, {"name": "c24b84e9fd0cb08993b43a5ce3328d4d", "fusion_lat": 0.0, "type": "electric_scooter", "lat": 38.916250166666664, "is_reserved": 0, "is_disabled": 0, "fusion_lon": 0.0, "bike_id": "c24b84e9fd0cb08993b43a5ce3328d4d", "lon": -77.03853583333333, "rental_uris": {"ios": "https://dc.lft.to/lastmile_qr_scan", "android": "https://dc.lft.to/lastmile_qr_scan"}}, {"name": "0520c7d81935fb9cb4db0f54f585ab44", "fusion_lat": 0.0, "type": "electric_scooter", "lat": 38.89857816666667, "is_reserved": 0, "is_disabled": 0, "fusion_lon": 0.0, "bike_id": "0520c7d81935fb9cb4db0f54f585ab44", "lon": -76.99030333333333, "rental_uris": {"ios": "https://dc.lft.to/lastmile_qr_scan", "android": "https://dc.lft.to/lastmile_qr_scan"}}, {"name": "00636f5c316552451d6d714a3771bf41", "fusion_lat": 0.0, "type": "electric_scooter", "lat": 38.90097683333333, "is_reserved": 0, "is_disabled": 0, "fusion_lon": 0.0, "bike_id": "00636f5c316552451d6d714a3771bf41", "lon": -77.01357566666667, "rental_uris": {"ios": "https://dc.lft.to/lastmile_qr_scan", "android": "https://dc.lft.to/lastmile_qr_scan"}}, {"name": "c74977bd1de9b8dfe7d1e396f95b7da1", "fusion_lat": 0.0, "type": "electric_scooter", "lat": 38.93993833333333, "is_reserved": 0, "is_disabled": 0, "fusion_lon": 0.0, "bike_id": "c74977bd1de9b8dfe7d1e396f95b7da1", "lon": -77.02963283333334, "rental_uris": {"ios": "https://dc.lft.to/lastmile_qr_scan", "android": "https://dc.lft.to/lastmile_qr_scan"}}, {"name": "510f6c322ffdb871cf338922d2d8283a", "fusion_lat": 0.0, "type": "electric_bike", "lat": 38.896157333333335, "is_reserved": 0, "is_disabled": 0, "fusion_lon": 0.0, "bike_id": "510f6c322ffdb871cf338922d2d8283a", "lon": -76.99284683333333, "rental_uris": {"ios": "https://dc.lft.to/lastmile_qr_scan", "android": "https://dc.lft.to/lastmile_qr_scan"}}, {"name": "4b8bada4c9b934fb654c17c9d0da5274", "fusion_lat": 0.0, "type": "electric_bike", "lat": 38.857910833333335, "is_reserved": 0, "is_disabled": 0, "fusion_lon": 0.0, "bike_id": "4b8bada4c9b934fb654c17c9d0da5274", "lon": -77.09962166666666, "rental_uris": {"ios": "https://dc.lft.to/lastmile_qr_scan", "android": "https://dc.lft.to/lastmile_qr_scan"}}, {"name": "2d27ccd66e6fa812d577b0726a5c34a6", "fusion_lat": 0.0, "type": "electric_scooter", "lat": 38.909733, "is_reserved": 0, "is_disabled": 0, "fusion_lon": 0.0, "bike_id": "2d27ccd66e6fa812d577b0726a5c34a6", "lon": -77.04618833333333, "rental_uris": {"ios": "https://dc.lft.to/lastmile_qr_scan", "android": "https://dc.lft.to/lastmile_qr_scan"}}, {"name": "6021704f5e2bc15d319e180eca6ec6f8", "fusion_lat": 0.0, "type": "electric_bike", "lat": 38.82791433333333, "is_reserved": 0, "is_disabled": 0, "fusion_lon": 0.0, "bike_id": "6021704f5e2bc15d319e180eca6ec6f8", "lon": -77.00897316666666, "rental_uris": {"ios": "https://dc.lft.to/lastmile_qr_scan", "android": "https://dc.lft.to/lastmile_qr_scan"}}, {"name": "929ef56511f5d071c6469d897e9afae0", "fusion_lat": 0.0, "type": "electric_bike", "lat": 39.094613333333335, "is_reserved": 0, "is_disabled": 0, "fusion_lon": 0.0, "bike_id": "929ef56511f5d071c6469d897e9afae0", "lon": -77.14994616666667, "rental_uris": {"ios": "https://dc.lft.to/lastmile_qr_scan", "android": "https://dc.lft.to/lastmile_qr_scan"}}, {"name": "5da0409a231783687aa5af090882b133", "fusion_lat": 0.0, "type": "electric_scooter", "lat": 38.92374516666667, "is_reserved": 0, "is_disabled": 0, "fusion_lon": 0.0, "bike_id": "5da0409a231783687aa5af090882b133", "lon": -77.0299015, "rental_uris": {"ios": "https://dc.lft.to/lastmile_qr_scan", "android": "https://dc.lft.to/lastmile_qr_scan"}}, {"name": "e7c725d9efc7d4811f6c09fcb9e8e22f", "fusion_lat": 0.0, "type": "electric_scooter", "lat": 38.89911166666667, "is_reserved": 0, "is_disabled": 0, "fusion_lon": 0.0, "bike_id": "e7c725d9efc7d4811f6c09fcb9e8e22f", "lon": -76.93363066666667, "rental_uris": {"ios": "https://dc.lft.to/lastmile_qr_scan", "android": "https://dc.lft.to/lastmile_qr_scan"}}, {"name": "725b488614a8390bf2c7faed12c66735", "fusion_lat": 0.0, "type": "electric_scooter", "lat": 38.918223166666664, "is_reserved": 0, "is_disabled": 0, "fusion_lon": 0.0, "bike_id": "725b488614a8390bf2c7faed12c66735", "lon": -77.0279715, "rental_uris": {"ios": "https://dc.lft.to/lastmile_qr_scan", "android": "https://dc.lft.to/lastmile_qr_scan"}}, {"name": "0d5e3637bb2b48c6308a62d641c06670", "fusion_lat": 0.0, "type": "electric_scooter", "lat": 38.901274666666666, "is_reserved": 0, "is_disabled": 0, "fusion_lon": 0.0, "bike_id": "0d5e3637bb2b48c6308a62d641c06670", "lon": -77.02717016666666, "rental_uris": {"ios": "https://dc.lft.to/lastmile_qr_scan", "android": "https://dc.lft.to/lastmile_qr_scan"}}, {"name": "7119eb1cd15e475470af781c83d405cf", "fusion_lat": 0.0, "type": "electric_scooter", "lat": 38.927290666666664, "is_reserved": 0, "is_disabled": 0, "fusion_lon": 0.0, "bike_id": "7119eb1cd15e475470af781c83d405cf", "lon": -77.00570583333334, "rental_uris": {"ios": "https://dc.lft.to/lastmile_qr_scan", "android": "https://dc.lft.to/lastmile_qr_scan"}}, {"name": "d8ccfc2042022c5a74d70fd2f248faad", "fusion_lat": 0.0, "type": "electric_scooter", "lat": 38.89220133333333, "is_reserved": 0, "is_disabled": 0, "fusion_lon": 0.0, "bike_id": "d8ccfc2042022c5a74d70fd2f248faad", "lon": -77.02227033333334, "rental_uris": {"ios": "https://dc.lft.to/lastmile_qr_scan", "android": "https://dc.lft.to/lastmile_qr_scan"}}, {"name": "c1d76f687b9ee01d868faf06bdb2f97d", "fusion_lat": 0.0, "type": "electric_bike", "lat": 38.875328333333336, "is_reserved": 0, "is_disabled": 0, "fusion_lon": 0.0, "bike_id": "c1d76f687b9ee01d868faf06bdb2f97d", "lon": -77.19908933333333, "rental_uris": {"ios": "https://dc.lft.to/lastmile_qr_scan", "android": "https://dc.lft.to/lastmile_qr_scan"}}, {"name": "1745a37a9b6dc84570948c10943fbd55", "fusion_lat": 0.0, "type": "electric_scooter", "lat": 38.9162905, "is_reserved": 0, "is_disabled": 0, "fusion_lon": 0.0, "bike_id": "1745a37a9b6dc84570948c10943fbd55", "lon": -77.04344966666666, "rental_uris": {"ios": "https://dc.lft.to/lastmile_qr_scan", "android": "https://dc.lft.to/lastmile_qr_scan"}}, {"name": "3ed5f3ccae89af3b5eb4504062391b88", "fusion_lat": 0.0, "type": "electric_scooter", "lat": 38.90184583333333, "is_reserved": 0, "is_disabled": 0, "fusion_lon": 0.0, "bike_id": "3ed5f3ccae89af3b5eb4504062391b88", "lon": -77.03348833333334, "rental_uris": {"ios": "https://dc.lft.to/lastmile_qr_scan", "android": "https://dc.lft.to/lastmile_qr_scan"}}, {"name": "c03ae4ecfff97d08bdd98e30f2bef8e1", "fusion_lat": 0.0, "type": "electric_scooter", "lat": 38.91858283333333, "is_reserved": 0, "is_disabled": 0, "fusion_lon": 0.0, "bike_id": "c03ae4ecfff97d08bdd98e30f2bef8e1", "lon": -77.0458955, "rental_uris": {"ios": "https://dc.lft.to/lastmile_qr_scan", "android": "https://dc.lft.to/lastmile_qr_scan"}}, {"name": "cbd6574eb43545588c9c73a30301c4ed", "fusion_lat": 0.0, "type": "electric_scooter", "lat": 38.907480166666666, "is_reserved": 0, "is_disabled": 0, "fusion_lon": 0.0, "bike_id": "cbd6574eb43545588c9c73a30301c4ed", "lon": -77.04317016666667, "rental_uris": {"ios": "https://dc.lft.to/lastmile_qr_scan", "android": "https://dc.lft.to/lastmile_qr_scan"}}, {"name": "3789f3086214f2384f4025917ccf7569", "fusion_lat": 0.0, "type": "electric_bike", "lat": 38.92543083333333, "is_reserved": 0, "is_disabled": 0, "fusion_lon": 0.0, "bike_id": "3789f3086214f2384f4025917ccf7569", "lon": -77.07892033333333, "rental_uris": {"ios": "https://dc.lft.to/lastmile_qr_scan", "android": "https://dc.lft.to/lastmile_qr_scan"}}, {"name": "45015ade1d18687b3737e9e01b2a7b9f", "fusion_lat": 0.0, "type": "electric_bike", "lat": 38.949023333333336, "is_reserved": 0, "is_disabled": 0, "fusion_lon": 0.0, "bike_id": "45015ade1d18687b3737e9e01b2a7b9f", "lon": -77.03953716666666, "rental_uris": {"ios": "https://dc.lft.to/lastmile_qr_scan", "android": "https://dc.lft.to/lastmile_qr_scan"}}, {"name": "7225d34c795727e87b1bb5872f5eb112", "fusion_lat": 0.0, "type": "electric_bike", "lat": 38.94384133333333, "is_reserved": 0, "is_disabled": 0, "fusion_lon": 0.0, "bike_id": "7225d34c795727e87b1bb5872f5eb112", "lon": -76.96293166666666, "rental_uris": {"ios": "https://dc.lft.to/lastmile_qr_scan", "android": "https://dc.lft.to/lastmile_qr_scan"}}, {"name": "a6b3456ccd7587e4735af501345a9933", "fusion_lat": 0.0, "type": "electric_scooter", "lat": 38.892029666666666, "is_reserved": 0, "is_disabled": 0, "fusion_lon": 0.0, "bike_id": "a6b3456ccd7587e4735af501345a9933", "lon": -77.00291233333333, "rental_uris": {"ios": "https://dc.lft.to/lastmile_qr_scan", "android": "https://dc.lft.to/lastmile_qr_scan"}}, {"name": "9a9d6089c32f77bba73412afda1c0c93", "fusion_lat": 0.0, "type": "electric_scooter", "lat": 38.87435083333333, "is_reserved": 0, "is_disabled": 0, "fusion_lon": 0.0, "bike_id": "9a9d6089c32f77bba73412afda1c0c93", "lon": -77.02064266666666, "rental_uris": {"ios": "https://dc.lft.to/lastmile_qr_scan", "android": "https://dc.lft.to/lastmile_qr_scan"}}, {"name": "49bc8b364edda7d75e72d177f65b70c1", "fusion_lat": 0.0, "type": "electric_scooter", "lat": 38.884431, "is_reserved": 0, "is_disabled": 0, "fusion_lon": 0.0, "bike_id": "49bc8b364edda7d75e72d177f65b70c1", "lon": -77.02615416666667, "rental_uris": {"ios": "https://dc.lft.to/lastmile_qr_scan", "android": "https://dc.lft.to/lastmile_qr_scan"}}, {"name": "44538bf4e40f8f9ce90d606169473d2a", "fusion_lat": 0.0, "type": "electric_scooter", "lat": 38.923793, "is_reserved": 0, "is_disabled": 0, "fusion_lon": 0.0, "bike_id": "44538bf4e40f8f9ce90d606169473d2a", "lon": -77.03031366666667, "rental_uris": {"ios": "https://dc.lft.to/lastmile_qr_scan", "android": "https://dc.lft.to/lastmile_qr_scan"}}, {"name": "5c947c69c454af77f77a5e6747b924f1", "fusion_lat": 0.0, "type": "electric_bike", "lat": 38.95255066666667, "is_reserved": 0, "is_disabled": 0, "fusion_lon": 0.0, "bike_id": "5c947c69c454af77f77a5e6747b924f1", "lon": -77.069922, "rental_uris": {"ios": "https://dc.lft.to/lastmile_qr_scan", "android": "https://dc.lft.to/lastmile_qr_scan"}}, {"name": "5433107aef76663a82a7933cdc43c50f", "fusion_lat": 0.0, "type": "electric_scooter", "lat": 38.891027666666666, "is_reserved": 0, "is_disabled": 0, "fusion_lon": 0.0, "bike_id": "5433107aef76663a82a7933cdc43c50f", "lon": -76.98203616666666, "rental_uris": {"ios": "https://dc.lft.to/lastmile_qr_scan", "android": "https://dc.lft.to/lastmile_qr_scan"}}, {"name": "e3722a9d9135b5a731fd783cdac3628d", "fusion_lat": 0.0, "type": "electric_scooter", "lat": 38.917728, "is_reserved": 0, "is_disabled": 0, "fusion_lon": 0.0, "bike_id": "e3722a9d9135b5a731fd783cdac3628d", "lon": -77.01499783333334, "rental_uris": {"ios": "https://dc.lft.to/lastmile_qr_scan", "android": "https://dc.lft.to/lastmile_qr_scan"}}, {"name": "56b65250b0591db60415b5bab8c39289", "fusion_lat": 0.0, "type": "electric_scooter", "lat": 38.912560666666664, "is_reserved": 0, "is_disabled": 0, "fusion_lon": 0.0, "bike_id": "56b65250b0591db60415b5bab8c39289", "lon": -77.03144933333333, "rental_uris": {"ios": "https://dc.lft.to/lastmile_qr_scan", "android": "https://dc.lft.to/lastmile_qr_scan"}}, {"name": "c1af54442e660c654e7f7501206a13f1", "fusion_lat": 0.0, "type": "electric_scooter", "lat": 38.900822166666664, "is_reserved": 0, "is_disabled": 0, "fusion_lon": 0.0, "bike_id": "c1af54442e660c654e7f7501206a13f1", "lon": -77.0502975, "rental_uris": {"ios": "https://dc.lft.to/lastmile_qr_scan", "android": "https://dc.lft.to/lastmile_qr_scan"}}, {"name": "46f116b700205cb2356b9eeec6ad0483", "fusion_lat": 0.0, "type": "electric_scooter", "lat": 38.899952666666664, "is_reserved": 0, "is_disabled": 0, "fusion_lon": 0.0, "bike_id": "46f116b700205cb2356b9eeec6ad0483", "lon": -76.98573716666667, "rental_uris": {"ios": "https://dc.lft.to/lastmile_qr_scan", "android": "https://dc.lft.to/lastmile_qr_scan"}}, {"name": "a23b0f8593be52a48089d4de8169b1c6", "fusion_lat": 0.0, "type": "electric_scooter", "lat": 38.8933365, "is_reserved": 0, "is_disabled": 0, "fusion_lon": 0.0, "bike_id": "a23b0f8593be52a48089d4de8169b1c6", "lon": -76.92896266666666, "rental_uris": {"ios": "https://dc.lft.to/lastmile_qr_scan", "android": "https://dc.lft.to/lastmile_qr_scan"}}, {"name": "738543c1b94ebdd78f25c098d58ce62f", "fusion_lat": 0.0, "type": "electric_scooter", "lat": 38.902503, "is_reserved": 0, "is_disabled": 0, "fusion_lon": 0.0, "bike_id": "738543c1b94ebdd78f25c098d58ce62f", "lon": -77.01756583333334, "rental_uris": {"ios": "https://dc.lft.to/lastmile_qr_scan", "android": "https://dc.lft.to/lastmile_qr_scan"}}, {"name": "bb4416b6a430e86547ac6c4df1837945", "fusion_lat": 0.0, "type": "electric_scooter", "lat": 38.911917, "is_reserved": 0, "is_disabled": 0, "fusion_lon": 0.0, "bike_id": "bb4416b6a430e86547ac6c4df1837945", "lon": -76.996209, "rental_uris": {"ios": "https://dc.lft.to/lastmile_qr_scan", "android": "https://dc.lft.to/lastmile_qr_scan"}}, {"name": "449ad1048d10d50736c56fb59e2cb0cc", "fusion_lat": 0.0, "type": "electric_scooter", "lat": 38.89837466666667, "is_reserved": 0, "is_disabled": 0, "fusion_lon": 0.0, "bike_id": "449ad1048d10d50736c56fb59e2cb0cc", "lon": -76.94641683333333, "rental_uris": {"ios": "https://dc.lft.to/lastmile_qr_scan", "android": "https://dc.lft.to/lastmile_qr_scan"}}, {"name": "0beb35a7d9b531357c7332f5b18dccdd", "fusion_lat": 0.0, "type": "electric_scooter", "lat": 38.91406166666667, "is_reserved": 0, "is_disabled": 0, "fusion_lon": 0.0, "bike_id": "0beb35a7d9b531357c7332f5b18dccdd", "lon": -77.01805433333334, "rental_uris": {"ios": "https://dc.lft.to/lastmile_qr_scan", "android": "https://dc.lft.to/lastmile_qr_scan"}}, {"name": "9407110b1af6fdce63daf699a7680b6d", "fusion_lat": 0.0, "type": "electric_scooter", "lat": 38.91700683333333, "is_reserved": 0, "is_disabled": 0, "fusion_lon": 0.0, "bike_id": "9407110b1af6fdce63daf699a7680b6d", "lon": -77.042807, "rental_uris": {"ios": "https://dc.lft.to/lastmile_qr_scan", "android": "https://dc.lft.to/lastmile_qr_scan"}}, {"name": "a77eb393a72d8c5034935a4631276e41", "fusion_lat": 0.0, "type": "electric_scooter", "lat": 38.916064666666664, "is_reserved": 0, "is_disabled": 0, "fusion_lon": 0.0, "bike_id": "a77eb393a72d8c5034935a4631276e41", "lon": -77.023027, "rental_uris": {"ios": "https://dc.lft.to/lastmile_qr_scan", "android": "https://dc.lft.to/lastmile_qr_scan"}}, {"name": "850e98bb4ee2b73016dbf7dd9e3b9355", "fusion_lat": 0.0, "type": "electric_scooter", "lat": 38.92072783333333, "is_reserved": 0, "is_disabled": 0, "fusion_lon": 0.0, "bike_id": "850e98bb4ee2b73016dbf7dd9e3b9355", "lon": -77.04383733333333, "rental_uris": {"ios": "https://dc.lft.to/lastmile_qr_scan", "android": "https://dc.lft.to/lastmile_qr_scan"}}, {"name": "8ea7509cbbe4a3add48834556f173854", "fusion_lat": 0.0, "type": "electric_scooter", "lat": 38.9611305, "is_reserved": 0, "is_disabled": 0, "fusion_lon": 0.0, "bike_id": "8ea7509cbbe4a3add48834556f173854", "lon": -77.0281955, "rental_uris": {"ios": "https://dc.lft.to/lastmile_qr_scan", "android": "https://dc.lft.to/lastmile_qr_scan"}}, {"name": "938e683cf7130ce34b204d60d39d6293", "fusion_lat": 0.0, "type": "electric_scooter", "lat": 38.916875, "is_reserved": 0, "is_disabled": 0, "fusion_lon": 0.0, "bike_id": "938e683cf7130ce34b204d60d39d6293", "lon": -77.028526, "rental_uris": {"ios": "https://dc.lft.to/lastmile_qr_scan", "android": "https://dc.lft.to/lastmile_qr_scan"}}, {"name": "49a616d963263dc084225fdf510e6a6a", "fusion_lat": 0.0, "type": "electric_scooter", "lat": 38.92327516666667, "is_reserved": 0, "is_disabled": 0, "fusion_lon": 0.0, "bike_id": "49a616d963263dc084225fdf510e6a6a", "lon": -77.04518416666667, "rental_uris": {"ios": "https://dc.lft.to/lastmile_qr_scan", "android": "https://dc.lft.to/lastmile_qr_scan"}}, {"name": "4fdea7a5d56d1f08ac56cd5baa6d4eb1", "fusion_lat": 0.0, "type": "electric_scooter", "lat": 38.90967, "is_reserved": 0, "is_disabled": 0, "fusion_lon": 0.0, "bike_id": "4fdea7a5d56d1f08ac56cd5baa6d4eb1", "lon": -77.0386915, "rental_uris": {"ios": "https://dc.lft.to/lastmile_qr_scan", "android": "https://dc.lft.to/lastmile_qr_scan"}}, {"name": "83124f4f5aa007b4d1ed817b13e07b9a", "fusion_lat": 0.0, "type": "electric_bike", "lat": 38.897746166666664, "is_reserved": 0, "is_disabled": 0, "fusion_lon": 0.0, "bike_id": "83124f4f5aa007b4d1ed817b13e07b9a", "lon": -76.90437216666666, "rental_uris": {"ios": "https://dc.lft.to/lastmile_qr_scan", "android": "https://dc.lft.to/lastmile_qr_scan"}}, {"name": "c54e86de88585c4c9af6875d00efb750", "fusion_lat": 0.0, "type": "electric_scooter", "lat": 38.8960515, "is_reserved": 0, "is_disabled": 0, "fusion_lon": 0.0, "bike_id": "c54e86de88585c4c9af6875d00efb750", "lon": -77.05082066666667, "rental_uris": {"ios": "https://dc.lft.to/lastmile_qr_scan", "android": "https://dc.lft.to/lastmile_qr_scan"}}, {"name": "c819ff010b23bc34b254b778fda4b06f", "fusion_lat": 0.0, "type": "electric_scooter", "lat": 38.90510233333333, "is_reserved": 0, "is_disabled": 0, "fusion_lon": 0.0, "bike_id": "c819ff010b23bc34b254b778fda4b06f", "lon": -77.06223666666666, "rental_uris": {"ios": "https://dc.lft.to/lastmile_qr_scan", "android": "https://dc.lft.to/lastmile_qr_scan"}}, {"name": "2f01d3038deddf00bb22270242511b2b", "fusion_lat": 0.0, "type": "electric_bike", "lat": 38.993543, "is_reserved": 0, "is_disabled": 0, "fusion_lon": 0.0, "bike_id": "2f01d3038deddf00bb22270242511b2b", "lon": -77.0265215, "rental_uris": {"ios": "https://dc.lft.to/lastmile_qr_scan", "android": "https://dc.lft.to/lastmile_qr_scan"}}, {"name": "05468d36de9a4c7f06e4e8d45d218b9e", "fusion_lat": 0.0, "type": "electric_scooter", "lat": 38.9390105, "is_reserved": 0, "is_disabled": 0, "fusion_lon": 0.0, "bike_id": "05468d36de9a4c7f06e4e8d45d218b9e", "lon": -77.0328175, "rental_uris": {"ios": "https://dc.lft.to/lastmile_qr_scan", "android": "https://dc.lft.to/lastmile_qr_scan"}}, {"name": "67af57d894bfb4af233db9a87e98c0f3", "fusion_lat": 0.0, "type": "electric_scooter", "lat": 38.872943, "is_reserved": 0, "is_disabled": 0, "fusion_lon": 0.0, "bike_id": "67af57d894bfb4af233db9a87e98c0f3", "lon": -77.00985016666667, "rental_uris": {"ios": "https://dc.lft.to/lastmile_qr_scan", "android": "https://dc.lft.to/lastmile_qr_scan"}}, {"name": "101e3211e674ba15ffcaed521ea186c1", "fusion_lat": 0.0, "type": "electric_scooter", "lat": 38.94464, "is_reserved": 0, "is_disabled": 0, "fusion_lon": 0.0, "bike_id": "101e3211e674ba15ffcaed521ea186c1", "lon": -77.00658883333334, "rental_uris": {"ios": "https://dc.lft.to/lastmile_qr_scan", "android": "https://dc.lft.to/lastmile_qr_scan"}}, {"name": "26e70706c9a8e708b5b9e42f26bb96c1", "fusion_lat": 0.0, "type": "electric_scooter", "lat": 38.9034855, "is_reserved": 0, "is_disabled": 0, "fusion_lon": 0.0, "bike_id": "26e70706c9a8e708b5b9e42f26bb96c1", "lon": -77.04271416666667, "rental_uris": {"ios": "https://dc.lft.to/lastmile_qr_scan", "android": "https://dc.lft.to/lastmile_qr_scan"}}, {"name": "c9152237ee20bfd62243b9a005afa837", "fusion_lat": 0.0, "type": "electric_scooter", "lat": 38.911841833333334, "is_reserved": 0, "is_disabled": 0, "fusion_lon": 0.0, "bike_id": "c9152237ee20bfd62243b9a005afa837", "lon": -77.0415885, "rental_uris": {"ios": "https://dc.lft.to/lastmile_qr_scan", "android": "https://dc.lft.to/lastmile_qr_scan"}}, {"name": "32752a86a7fdbb4b155aedcd1d7cf8b1", "fusion_lat": 0.0, "type": "electric_scooter", "lat": 38.90851266666667, "is_reserved": 0, "is_disabled": 0, "fusion_lon": 0.0, "bike_id": "32752a86a7fdbb4b155aedcd1d7cf8b1", "lon": -77.0319265, "rental_uris": {"ios": "https://dc.lft.to/lastmile_qr_scan", "android": "https://dc.lft.to/lastmile_qr_scan"}}, {"name": "bb91b5bca281b146977a31ae125210a0", "fusion_lat": 0.0, "type": "electric_scooter", "lat": 38.90948433333333, "is_reserved": 0, "is_disabled": 0, "fusion_lon": 0.0, "bike_id": "bb91b5bca281b146977a31ae125210a0", "lon": -77.04656133333333, "rental_uris": {"ios": "https://dc.lft.to/lastmile_qr_scan", "android": "https://dc.lft.to/lastmile_qr_scan"}}, {"name": "83d51b7071a2162fa7436953bf12602b", "fusion_lat": 0.0, "type": "electric_scooter", "lat": 38.898802333333336, "is_reserved": 0, "is_disabled": 0, "fusion_lon": 0.0, "bike_id": "83d51b7071a2162fa7436953bf12602b", "lon": -77.03335066666666, "rental_uris": {"ios": "https://dc.lft.to/lastmile_qr_scan", "android": "https://dc.lft.to/lastmile_qr_scan"}}, {"name": "abcf8bc8117d20e5dd80480edcb35528", "fusion_lat": 0.0, "type": "electric_scooter", "lat": 38.935726333333335, "is_reserved": 0, "is_disabled": 0, "fusion_lon": 0.0, "bike_id": "abcf8bc8117d20e5dd80480edcb35528", "lon": -77.02122416666667, "rental_uris": {"ios": "https://dc.lft.to/lastmile_qr_scan", "android": "https://dc.lft.to/lastmile_qr_scan"}}, {"name": "2b444dc332bfb951148b2e519a5a06fb", "fusion_lat": 0.0, "type": "electric_scooter", "lat": 38.935626666666664, "is_reserved": 0, "is_disabled": 0, "fusion_lon": 0.0, "bike_id": "2b444dc332bfb951148b2e519a5a06fb", "lon": -77.02138583333333, "rental_uris": {"ios": "https://dc.lft.to/lastmile_qr_scan", "android": "https://dc.lft.to/lastmile_qr_scan"}}, {"name": "767038a6ce80502753952696b8dd7c50", "fusion_lat": 0.0, "type": "electric_scooter", "lat": 38.931029833333334, "is_reserved": 0, "is_disabled": 0, "fusion_lon": 0.0, "bike_id": "767038a6ce80502753952696b8dd7c50", "lon": -77.023997, "rental_uris": {"ios": "https://dc.lft.to/lastmile_qr_scan", "android": "https://dc.lft.to/lastmile_qr_scan"}}, {"name": "919cdaed809755cab1d0a567f3e58b59", "fusion_lat": 0.0, "type": "electric_scooter", "lat": 38.90963466666667, "is_reserved": 0, "is_disabled": 0, "fusion_lon": 0.0, "bike_id": "919cdaed809755cab1d0a567f3e58b59", "lon": -77.0268515, "rental_uris": {"ios": "https://dc.lft.to/lastmile_qr_scan", "android": "https://dc.lft.to/lastmile_qr_scan"}}, {"name": "d11aee77efcc0ed425ae9d2f8ada3278", "fusion_lat": 0.0, "type": "electric_bike", "lat": 38.8659685, "is_reserved": 0, "is_disabled": 0, "fusion_lon": 0.0, "bike_id": "d11aee77efcc0ed425ae9d2f8ada3278", "lon": -76.93239333333334, "rental_uris": {"ios": "https://dc.lft.to/lastmile_qr_scan", "android": "https://dc.lft.to/lastmile_qr_scan"}}, {"name": "d1a414b8aa080777ebb12d56fb11975b", "fusion_lat": 0.0, "type": "electric_bike", "lat": 38.9845745, "is_reserved": 0, "is_disabled": 0, "fusion_lon": 0.0, "bike_id": "d1a414b8aa080777ebb12d56fb11975b", "lon": -76.95525616666667, "rental_uris": {"ios": "https://dc.lft.to/lastmile_qr_scan", "android": "https://dc.lft.to/lastmile_qr_scan"}}, {"name": "2b6e71a2a72fb60f37c1a80472fbf849", "fusion_lat": 0.0, "type": "electric_scooter", "lat": 38.92965083333333, "is_reserved": 0, "is_disabled": 0, "fusion_lon": 0.0, "bike_id": "2b6e71a2a72fb60f37c1a80472fbf849", "lon": -77.01978016666666, "rental_uris": {"ios": "https://dc.lft.to/lastmile_qr_scan", "android": "https://dc.lft.to/lastmile_qr_scan"}}, {"name": "51033ad79a45e14e5fa47f40e7cea4ae", "fusion_lat": 0.0, "type": "electric_scooter", "lat": 38.8805015, "is_reserved": 0, "is_disabled": 0, "fusion_lon": 0.0, "bike_id": "51033ad79a45e14e5fa47f40e7cea4ae", "lon": -76.95984333333334, "rental_uris": {"ios": "https://dc.lft.to/lastmile_qr_scan", "android": "https://dc.lft.to/lastmile_qr_scan"}}, {"name": "02cf6a08ecd72620fd01c7d701509809", "fusion_lat": 0.0, "type": "electric_scooter", "lat": 38.9157225, "is_reserved": 0, "is_disabled": 0, "fusion_lon": 0.0, "bike_id": "02cf6a08ecd72620fd01c7d701509809", "lon": -77.0319725, "rental_uris": {"ios": "https://dc.lft.to/lastmile_qr_scan", "android": "https://dc.lft.to/lastmile_qr_scan"}}, {"name": "90b0e62549dd5a4a981e8be18832fef6", "fusion_lat": 0.0, "type": "electric_scooter", "lat": 38.908947, "is_reserved": 0, "is_disabled": 0, "fusion_lon": 0.0, "bike_id": "90b0e62549dd5a4a981e8be18832fef6", "lon": -77.03211533333334, "rental_uris": {"ios": "https://dc.lft.to/lastmile_qr_scan", "android": "https://dc.lft.to/lastmile_qr_scan"}}, {"name": "0f3d367535b24e319dc949c2273a29fd", "fusion_lat": 0.0, "type": "electric_scooter", "lat": 38.879102, "is_reserved": 0, "is_disabled": 0, "fusion_lon": 0.0, "bike_id": "0f3d367535b24e319dc949c2273a29fd", "lon": -77.021557, "rental_uris": {"ios": "https://dc.lft.to/lastmile_qr_scan", "android": "https://dc.lft.to/lastmile_qr_scan"}}, {"name": "e31abf69f38f15b771c77108e8b82bb1", "fusion_lat": 0.0, "type": "electric_bike", "lat": 38.852240333333334, "is_reserved": 0, "is_disabled": 0, "fusion_lon": 0.0, "bike_id": "e31abf69f38f15b771c77108e8b82bb1", "lon": -77.12954316666666, "rental_uris": {"ios": "https://dc.lft.to/lastmile_qr_scan", "android": "https://dc.lft.to/lastmile_qr_scan"}}, {"name": "b31b28f61bc1cc76ea8a0c871a24cad3", "fusion_lat": 0.0, "type": "electric_scooter", "lat": 38.89553383333333, "is_reserved": 0, "is_disabled": 0, "fusion_lon": 0.0, "bike_id": "b31b28f61bc1cc76ea8a0c871a24cad3", "lon": -76.98373866666667, "rental_uris": {"ios": "https://dc.lft.to/lastmile_qr_scan", "android": "https://dc.lft.to/lastmile_qr_scan"}}, {"name": "0fc1e8d92f98631678d922f31abab49f", "fusion_lat": 0.0, "type": "electric_scooter", "lat": 38.919501, "is_reserved": 0, "is_disabled": 0, "fusion_lon": 0.0, "bike_id": "0fc1e8d92f98631678d922f31abab49f", "lon": -77.01390933333333, "rental_uris": {"ios": "https://dc.lft.to/lastmile_qr_scan", "android": "https://dc.lft.to/lastmile_qr_scan"}}, {"name": "74d5215c49a5190d66578f74ddcedcd9", "fusion_lat": 0.0, "type": "electric_scooter", "lat": 38.90070016666667, "is_reserved": 0, "is_disabled": 0, "fusion_lon": 0.0, "bike_id": "74d5215c49a5190d66578f74ddcedcd9", "lon": -77.04877833333333, "rental_uris": {"ios": "https://dc.lft.to/lastmile_qr_scan", "android": "https://dc.lft.to/lastmile_qr_scan"}}, {"name": "28fe8c868f8901764ba97438999b831a", "fusion_lat": 0.0, "type": "electric_scooter", "lat": 38.91728883333333, "is_reserved": 0, "is_disabled": 0, "fusion_lon": 0.0, "bike_id": "28fe8c868f8901764ba97438999b831a", "lon": -77.03842883333333, "rental_uris": {"ios": "https://dc.lft.to/lastmile_qr_scan", "android": "https://dc.lft.to/lastmile_qr_scan"}}, {"name": "36ea09f36d761390e7983bc7562ea1d6", "fusion_lat": 0.0, "type": "electric_scooter", "lat": 38.876761333333334, "is_reserved": 0, "is_disabled": 0, "fusion_lon": 0.0, "bike_id": "36ea09f36d761390e7983bc7562ea1d6", "lon": -77.004236, "rental_uris": {"ios": "https://dc.lft.to/lastmile_qr_scan", "android": "https://dc.lft.to/lastmile_qr_scan"}}, {"name": "e5651ad67f149179069616b8743b655e", "fusion_lat": 0.0, "type": "electric_scooter", "lat": 38.910431833333334, "is_reserved": 0, "is_disabled": 0, "fusion_lon": 0.0, "bike_id": "e5651ad67f149179069616b8743b655e", "lon": -77.048733, "rental_uris": {"ios": "https://dc.lft.to/lastmile_qr_scan", "android": "https://dc.lft.to/lastmile_qr_scan"}}, {"name": "229fe2f1e521630347a19d0d52ed0801", "fusion_lat": 0.0, "type": "electric_scooter", "lat": 38.90133866666667, "is_reserved": 0, "is_disabled": 0, "fusion_lon": 0.0, "bike_id": "229fe2f1e521630347a19d0d52ed0801", "lon": -77.04499716666666, "rental_uris": {"ios": "https://dc.lft.to/lastmile_qr_scan", "android": "https://dc.lft.to/lastmile_qr_scan"}}, {"name": "275886fdea62a0b16291dd8dd59effc8", "fusion_lat": 0.0, "type": "electric_scooter", "lat": 38.961096, "is_reserved": 0, "is_disabled": 0, "fusion_lon": 0.0, "bike_id": "275886fdea62a0b16291dd8dd59effc8", "lon": -77.02822433333333, "rental_uris": {"ios": "https://dc.lft.to/lastmile_qr_scan", "android": "https://dc.lft.to/lastmile_qr_scan"}}, {"name": "852f59c4f93bf80c2108be5d7a56a703", "fusion_lat": 0.0, "type": "electric_scooter", "lat": 38.925837666666666, "is_reserved": 0, "is_disabled": 0, "fusion_lon": 0.0, "bike_id": "852f59c4f93bf80c2108be5d7a56a703", "lon": -77.02833616666666, "rental_uris": {"ios": "https://dc.lft.to/lastmile_qr_scan", "android": "https://dc.lft.to/lastmile_qr_scan"}}, {"name": "aef427685dfe48216ba2092e7445a5a9", "fusion_lat": 0.0, "type": "electric_scooter", "lat": 38.894775833333334, "is_reserved": 0, "is_disabled": 0, "fusion_lon": 0.0, "bike_id": "aef427685dfe48216ba2092e7445a5a9", "lon": -76.98403533333334, "rental_uris": {"ios": "https://dc.lft.to/lastmile_qr_scan", "android": "https://dc.lft.to/lastmile_qr_scan"}}, {"name": "e171991a965d6d80ab720153ec5e5633", "fusion_lat": 0.0, "type": "electric_scooter", "lat": 38.902017, "is_reserved": 0, "is_disabled": 0, "fusion_lon": 0.0, "bike_id": "e171991a965d6d80ab720153ec5e5633", "lon": -76.98193816666667, "rental_uris": {"ios": "https://dc.lft.to/lastmile_qr_scan", "android": "https://dc.lft.to/lastmile_qr_scan"}}, {"name": "d043c49513a389e6ea68407d1489b5d7", "fusion_lat": 0.0, "type": "electric_scooter", "lat": 38.89916766666666, "is_reserved": 0, "is_disabled": 0, "fusion_lon": 0.0, "bike_id": "d043c49513a389e6ea68407d1489b5d7", "lon": -76.93386783333334, "rental_uris": {"ios": "https://dc.lft.to/lastmile_qr_scan", "android": "https://dc.lft.to/lastmile_qr_scan"}}, {"name": "28f91512bf7ab557febfb6fb98bd428e", "fusion_lat": 0.0, "type": "electric_scooter", "lat": 38.9431385, "is_reserved": 0, "is_disabled": 0, "fusion_lon": 0.0, "bike_id": "28f91512bf7ab557febfb6fb98bd428e", "lon": -77.0591925, "rental_uris": {"ios": "https://dc.lft.to/lastmile_qr_scan", "android": "https://dc.lft.to/lastmile_qr_scan"}}, {"name": "22fd75ff72abd58c146cbcca1acf3f95", "fusion_lat": 0.0, "type": "electric_bike", "lat": 38.93972733333333, "is_reserved": 0, "is_disabled": 0, "fusion_lon": 0.0, "bike_id": "22fd75ff72abd58c146cbcca1acf3f95", "lon": -76.98658133333333, "rental_uris": {"ios": "https://dc.lft.to/lastmile_qr_scan", "android": "https://dc.lft.to/lastmile_qr_scan"}}, {"name": "c10897676e4a9eb778feba2698110598", "fusion_lat": 0.0, "type": "electric_bike", "lat": 38.87234316666667, "is_reserved": 0, "is_disabled": 0, "fusion_lon": 0.0, "bike_id": "c10897676e4a9eb778feba2698110598", "lon": -77.01168483333333, "rental_uris": {"ios": "https://dc.lft.to/lastmile_qr_scan", "android": "https://dc.lft.to/lastmile_qr_scan"}}, {"name": "9cc109b5acc75688bd75335d7530566f", "fusion_lat": 0.0, "type": "electric_scooter", "lat": 38.89853033333333, "is_reserved": 0, "is_disabled": 0, "fusion_lon": 0.0, "bike_id": "9cc109b5acc75688bd75335d7530566f", "lon": -76.97569766666666, "rental_uris": {"ios": "https://dc.lft.to/lastmile_qr_scan", "android": "https://dc.lft.to/lastmile_qr_scan"}}, {"name": "61f47d92b986bdaafa4efb4ff0150588", "fusion_lat": 0.0, "type": "electric_bike", "lat": 38.851596666666666, "is_reserved": 0, "is_disabled": 0, "fusion_lon": 0.0, "bike_id": "61f47d92b986bdaafa4efb4ff0150588", "lon": -77.12880466666667, "rental_uris": {"ios": "https://dc.lft.to/lastmile_qr_scan", "android": "https://dc.lft.to/lastmile_qr_scan"}}, {"name": "7374b992de736975e2c1d6895a386fdc", "fusion_lat": 0.0, "type": "electric_scooter", "lat": 38.9058365, "is_reserved": 0, "is_disabled": 0, "fusion_lon": 0.0, "bike_id": "7374b992de736975e2c1d6895a386fdc", "lon": -77.00753883333333, "rental_uris": {"ios": "https://dc.lft.to/lastmile_qr_scan", "android": "https://dc.lft.to/lastmile_qr_scan"}}, {"name": "200f6033af40c5d6586a909aa47d9ec3", "fusion_lat": 0.0, "type": "electric_scooter", "lat": 38.90268483333333, "is_reserved": 0, "is_disabled": 0, "fusion_lon": 0.0, "bike_id": "200f6033af40c5d6586a909aa47d9ec3", "lon": -77.0033385, "rental_uris": {"ios": "https://dc.lft.to/lastmile_qr_scan", "android": "https://dc.lft.to/lastmile_qr_scan"}}, {"name": "d0ff90b9cb4b83e7353d8e92520178ba", "fusion_lat": 0.0, "type": "electric_scooter", "lat": 38.8651625, "is_reserved": 0, "is_disabled": 0, "fusion_lon": 0.0, "bike_id": "d0ff90b9cb4b83e7353d8e92520178ba", "lon": -76.97341683333333, "rental_uris": {"ios": "https://dc.lft.to/lastmile_qr_scan", "android": "https://dc.lft.to/lastmile_qr_scan"}}, {"name": "8c76997c5dc865c327cc99741b777b11", "fusion_lat": 0.0, "type": "electric_scooter", "lat": 38.930707166666664, "is_reserved": 0, "is_disabled": 0, "fusion_lon": 0.0, "bike_id": "8c76997c5dc865c327cc99741b777b11", "lon": -77.03408183333333, "rental_uris": {"ios": "https://dc.lft.to/lastmile_qr_scan", "android": "https://dc.lft.to/lastmile_qr_scan"}}, {"name": "432d6bf652c2d952601345ae6c678665", "fusion_lat": 0.0, "type": "electric_scooter", "lat": 38.883427, "is_reserved": 0, "is_disabled": 0, "fusion_lon": 0.0, "bike_id": "432d6bf652c2d952601345ae6c678665", "lon": -77.0316615, "rental_uris": {"ios": "https://dc.lft.to/lastmile_qr_scan", "android": "https://dc.lft.to/lastmile_qr_scan"}}, {"name": "defac16418f646b62c3509184c5c92d5", "fusion_lat": 0.0, "type": "electric_scooter", "lat": 38.92241033333333, "is_reserved": 0, "is_disabled": 0, "fusion_lon": 0.0, "bike_id": "defac16418f646b62c3509184c5c92d5", "lon": -77.0366725, "rental_uris": {"ios": "https://dc.lft.to/lastmile_qr_scan", "android": "https://dc.lft.to/lastmile_qr_scan"}}, {"name": "641d63eb07779bac7f6e565b69e16154", "fusion_lat": 0.0, "type": "electric_scooter", "lat": 38.930983499999996, "is_reserved": 0, "is_disabled": 0, "fusion_lon": 0.0, "bike_id": "641d63eb07779bac7f6e565b69e16154", "lon": -77.02456083333334, "rental_uris": {"ios": "https://dc.lft.to/lastmile_qr_scan", "android": "https://dc.lft.to/lastmile_qr_scan"}}, {"name": "d9844a8b3cf818a812e41348aaa5bf19", "fusion_lat": 0.0, "type": "electric_scooter", "lat": 38.924451166666664, "is_reserved": 0, "is_disabled": 0, "fusion_lon": 0.0, "bike_id": "d9844a8b3cf818a812e41348aaa5bf19", "lon": -77.03271733333334, "rental_uris": {"ios": "https://dc.lft.to/lastmile_qr_scan", "android": "https://dc.lft.to/lastmile_qr_scan"}}, {"name": "124f505bb8aed2d75654658ca11df7e9", "fusion_lat": 0.0, "type": "electric_bike", "lat": 38.8568765, "is_reserved": 0, "is_disabled": 0, "fusion_lon": 0.0, "bike_id": "124f505bb8aed2d75654658ca11df7e9", "lon": -77.08542066666666, "rental_uris": {"ios": "https://dc.lft.to/lastmile_qr_scan", "android": "https://dc.lft.to/lastmile_qr_scan"}}, {"name": "3452bf6b41079f0bca1a6c3a6d117a5e", "fusion_lat": 0.0, "type": "electric_bike", "lat": 38.80758066666667, "is_reserved": 0, "is_disabled": 0, "fusion_lon": 0.0, "bike_id": "3452bf6b41079f0bca1a6c3a6d117a5e", "lon": -77.0945565, "rental_uris": {"ios": "https://dc.lft.to/lastmile_qr_scan", "android": "https://dc.lft.to/lastmile_qr_scan"}}, {"name": "d8a8762643ace6eb5c092dc0ddf89802", "fusion_lat": 0.0, "type": "electric_scooter", "lat": 38.88122716666667, "is_reserved": 0, "is_disabled": 0, "fusion_lon": 0.0, "bike_id": "d8a8762643ace6eb5c092dc0ddf89802", "lon": -76.99017366666666, "rental_uris": {"ios": "https://dc.lft.to/lastmile_qr_scan", "android": "https://dc.lft.to/lastmile_qr_scan"}}, {"name": "d69c2278d9cfad5ba2743fc5157db638", "fusion_lat": 0.0, "type": "electric_scooter", "lat": 38.92199033333333, "is_reserved": 0, "is_disabled": 0, "fusion_lon": 0.0, "bike_id": "d69c2278d9cfad5ba2743fc5157db638", "lon": -77.02431166666666, "rental_uris": {"ios": "https://dc.lft.to/lastmile_qr_scan", "android": "https://dc.lft.to/lastmile_qr_scan"}}, {"name": "b4710c697dba7e9a5fce352fefd0a701", "fusion_lat": 0.0, "type": "electric_scooter", "lat": 38.920472833333335, "is_reserved": 0, "is_disabled": 0, "fusion_lon": 0.0, "bike_id": "b4710c697dba7e9a5fce352fefd0a701", "lon": -77.03466166666666, "rental_uris": {"ios": "https://dc.lft.to/lastmile_qr_scan", "android": "https://dc.lft.to/lastmile_qr_scan"}}, {"name": "e218e6e7fdfd79d0826f42b6f188e9ce", "fusion_lat": 0.0, "type": "electric_scooter", "lat": 38.9306625, "is_reserved": 0, "is_disabled": 0, "fusion_lon": 0.0, "bike_id": "e218e6e7fdfd79d0826f42b6f188e9ce", "lon": -77.02979433333333, "rental_uris": {"ios": "https://dc.lft.to/lastmile_qr_scan", "android": "https://dc.lft.to/lastmile_qr_scan"}}, {"name": "e4e11402fe22f1661da5522129dc52da", "fusion_lat": 0.0, "type": "electric_scooter", "lat": 38.9396325, "is_reserved": 0, "is_disabled": 0, "fusion_lon": 0.0, "bike_id": "e4e11402fe22f1661da5522129dc52da", "lon": -77.02753133333333, "rental_uris": {"ios": "https://dc.lft.to/lastmile_qr_scan", "android": "https://dc.lft.to/lastmile_qr_scan"}}, {"name": "33b727adf00097c4a457dec8d4e5447b", "fusion_lat": 0.0, "type": "electric_scooter", "lat": 38.90412933333333, "is_reserved": 0, "is_disabled": 0, "fusion_lon": 0.0, "bike_id": "33b727adf00097c4a457dec8d4e5447b", "lon": -77.034313, "rental_uris": {"ios": "https://dc.lft.to/lastmile_qr_scan", "android": "https://dc.lft.to/lastmile_qr_scan"}}, {"name": "526553c532f8681fd7eec674870881e2", "fusion_lat": 0.0, "type": "electric_bike", "lat": 38.999374833333334, "is_reserved": 0, "is_disabled": 0, "fusion_lon": 0.0, "bike_id": "526553c532f8681fd7eec674870881e2", "lon": -77.01768733333333, "rental_uris": {"ios": "https://dc.lft.to/lastmile_qr_scan", "android": "https://dc.lft.to/lastmile_qr_scan"}}, {"name": "e1b5ba978e08268ec3b58a6eb6aa2b3a", "fusion_lat": 0.0, "type": "electric_scooter", "lat": 38.909629, "is_reserved": 0, "is_disabled": 0, "fusion_lon": 0.0, "bike_id": "e1b5ba978e08268ec3b58a6eb6aa2b3a", "lon": -77.023053, "rental_uris": {"ios": "https://dc.lft.to/lastmile_qr_scan", "android": "https://dc.lft.to/lastmile_qr_scan"}}, {"name": "7a36f402eda29074e3a874c1e61091d4", "fusion_lat": 0.0, "type": "electric_bike", "lat": 38.9509225, "is_reserved": 0, "is_disabled": 0, "fusion_lon": 0.0, "bike_id": "7a36f402eda29074e3a874c1e61091d4", "lon": -77.01227216666666, "rental_uris": {"ios": "https://dc.lft.to/lastmile_qr_scan", "android": "https://dc.lft.to/lastmile_qr_scan"}}, {"name": "c7f6353bd37d6b5a045bfab0d6efa2c6", "fusion_lat": 0.0, "type": "electric_scooter", "lat": 38.901195, "is_reserved": 0, "is_disabled": 0, "fusion_lon": 0.0, "bike_id": "c7f6353bd37d6b5a045bfab0d6efa2c6", "lon": -77.04229016666666, "rental_uris": {"ios": "https://dc.lft.to/lastmile_qr_scan", "android": "https://dc.lft.to/lastmile_qr_scan"}}, {"name": "2ac57bea64aa150e73d670bd4ae38798", "fusion_lat": 0.0, "type": "electric_scooter", "lat": 38.94605283333333, "is_reserved": 0, "is_disabled": 0, "fusion_lon": 0.0, "bike_id": "2ac57bea64aa150e73d670bd4ae38798", "lon": -77.0298075, "rental_uris": {"ios": "https://dc.lft.to/lastmile_qr_scan", "android": "https://dc.lft.to/lastmile_qr_scan"}}, {"name": "44ef09a8c57911f73178719514f70bcb", "fusion_lat": 0.0, "type": "electric_bike", "lat": 38.9257925, "is_reserved": 0, "is_disabled": 0, "fusion_lon": 0.0, "bike_id": "44ef09a8c57911f73178719514f70bcb", "lon": -76.99494033333333, "rental_uris": {"ios": "https://dc.lft.to/lastmile_qr_scan", "android": "https://dc.lft.to/lastmile_qr_scan"}}, {"name": "12e7b2749969bfda5cf5b61054bd2f11", "fusion_lat": 0.0, "type": "electric_scooter", "lat": 38.90578766666667, "is_reserved": 0, "is_disabled": 0, "fusion_lon": 0.0, "bike_id": "12e7b2749969bfda5cf5b61054bd2f11", "lon": -77.04870616666666, "rental_uris": {"ios": "https://dc.lft.to/lastmile_qr_scan", "android": "https://dc.lft.to/lastmile_qr_scan"}}, {"name": "dfbd3e4ee886ef6d98dd8be03b32139c", "fusion_lat": 0.0, "type": "electric_scooter", "lat": 38.91927116666667, "is_reserved": 0, "is_disabled": 0, "fusion_lon": 0.0, "bike_id": "dfbd3e4ee886ef6d98dd8be03b32139c", "lon": -77.03217716666667, "rental_uris": {"ios": "https://dc.lft.to/lastmile_qr_scan", "android": "https://dc.lft.to/lastmile_qr_scan"}}, {"name": "a94527fedfc563d241b5e1328a53725d", "fusion_lat": 0.0, "type": "electric_scooter", "lat": 38.900552, "is_reserved": 0, "is_disabled": 0, "fusion_lon": 0.0, "bike_id": "a94527fedfc563d241b5e1328a53725d", "lon": -77.00067016666667, "rental_uris": {"ios": "https://dc.lft.to/lastmile_qr_scan", "android": "https://dc.lft.to/lastmile_qr_scan"}}, {"name": "300cf17f087891f239c0b6ce9cc4ca26", "fusion_lat": 0.0, "type": "electric_scooter", "lat": 38.91602733333333, "is_reserved": 0, "is_disabled": 0, "fusion_lon": 0.0, "bike_id": "300cf17f087891f239c0b6ce9cc4ca26", "lon": -77.04162333333333, "rental_uris": {"ios": "https://dc.lft.to/lastmile_qr_scan", "android": "https://dc.lft.to/lastmile_qr_scan"}}, {"name": "bb551aabd774c19208290f5c36bce3d5", "fusion_lat": 0.0, "type": "electric_scooter", "lat": 38.92576666666667, "is_reserved": 0, "is_disabled": 0, "fusion_lon": 0.0, "bike_id": "bb551aabd774c19208290f5c36bce3d5", "lon": -77.043708, "rental_uris": {"ios": "https://dc.lft.to/lastmile_qr_scan", "android": "https://dc.lft.to/lastmile_qr_scan"}}, {"name": "3ea84c875180742c6a3561e75fefc0c7", "fusion_lat": 0.0, "type": "electric_scooter", "lat": 38.93607166666666, "is_reserved": 0, "is_disabled": 0, "fusion_lon": 0.0, "bike_id": "3ea84c875180742c6a3561e75fefc0c7", "lon": -77.0586405, "rental_uris": {"ios": "https://dc.lft.to/lastmile_qr_scan", "android": "https://dc.lft.to/lastmile_qr_scan"}}, {"name": "f1d87fe7efdf19e677022448acbcd31b", "fusion_lat": 0.0, "type": "electric_scooter", "lat": 38.9112685, "is_reserved": 0, "is_disabled": 0, "fusion_lon": 0.0, "bike_id": "f1d87fe7efdf19e677022448acbcd31b", "lon": -77.03742433333333, "rental_uris": {"ios": "https://dc.lft.to/lastmile_qr_scan", "android": "https://dc.lft.to/lastmile_qr_scan"}}, {"name": "5cf5069e87facd98c8028bc6ee599f66", "fusion_lat": 0.0, "type": "electric_scooter", "lat": 38.883585333333336, "is_reserved": 0, "is_disabled": 0, "fusion_lon": 0.0, "bike_id": "5cf5069e87facd98c8028bc6ee599f66", "lon": -76.996109, "rental_uris": {"ios": "https://dc.lft.to/lastmile_qr_scan", "android": "https://dc.lft.to/lastmile_qr_scan"}}, {"name": "cab249270fcd200519009109413c8cb7", "fusion_lat": 0.0, "type": "electric_scooter", "lat": 38.923384666666664, "is_reserved": 0, "is_disabled": 0, "fusion_lon": 0.0, "bike_id": "cab249270fcd200519009109413c8cb7", "lon": -77.0418905, "rental_uris": {"ios": "https://dc.lft.to/lastmile_qr_scan", "android": "https://dc.lft.to/lastmile_qr_scan"}}, {"name": "a0c3e44e8e34cf5c3d0a94600f96fada", "fusion_lat": 0.0, "type": "electric_scooter", "lat": 38.909527, "is_reserved": 0, "is_disabled": 0, "fusion_lon": 0.0, "bike_id": "a0c3e44e8e34cf5c3d0a94600f96fada", "lon": -77.04942633333333, "rental_uris": {"ios": "https://dc.lft.to/lastmile_qr_scan", "android": "https://dc.lft.to/lastmile_qr_scan"}}, {"name": "00e268798738f989bbc03f7888bd2120", "fusion_lat": 0.0, "type": "electric_scooter", "lat": 38.91783083333333, "is_reserved": 0, "is_disabled": 0, "fusion_lon": 0.0, "bike_id": "00e268798738f989bbc03f7888bd2120", "lon": -77.02300883333334, "rental_uris": {"ios": "https://dc.lft.to/lastmile_qr_scan", "android": "https://dc.lft.to/lastmile_qr_scan"}}, {"name": "540010cf78fa7b3ce74dfedd46654a04", "fusion_lat": 0.0, "type": "electric_scooter", "lat": 38.88741566666667, "is_reserved": 0, "is_disabled": 0, "fusion_lon": 0.0, "bike_id": "540010cf78fa7b3ce74dfedd46654a04", "lon": -77.03237866666667, "rental_uris": {"ios": "https://dc.lft.to/lastmile_qr_scan", "android": "https://dc.lft.to/lastmile_qr_scan"}}, {"name": "2951b03cd3a798277b61327def5a9cf9", "fusion_lat": 0.0, "type": "electric_scooter", "lat": 38.92043783333333, "is_reserved": 0, "is_disabled": 0, "fusion_lon": 0.0, "bike_id": "2951b03cd3a798277b61327def5a9cf9", "lon": -77.0714215, "rental_uris": {"ios": "https://dc.lft.to/lastmile_qr_scan", "android": "https://dc.lft.to/lastmile_qr_scan"}}, {"name": "b8902a5d80994bd237a77339882d4238", "fusion_lat": 0.0, "type": "electric_scooter", "lat": 38.929360833333334, "is_reserved": 0, "is_disabled": 0, "fusion_lon": 0.0, "bike_id": "b8902a5d80994bd237a77339882d4238", "lon": -77.03625666666667, "rental_uris": {"ios": "https://dc.lft.to/lastmile_qr_scan", "android": "https://dc.lft.to/lastmile_qr_scan"}}, {"name": "74f2d49480c8c87f8ca387dd5d781267", "fusion_lat": 0.0, "type": "electric_scooter", "lat": 38.8653845, "is_reserved": 0, "is_disabled": 0, "fusion_lon": 0.0, "bike_id": "74f2d49480c8c87f8ca387dd5d781267", "lon": -76.987091, "rental_uris": {"ios": "https://dc.lft.to/lastmile_qr_scan", "android": "https://dc.lft.to/lastmile_qr_scan"}}, {"name": "42e160ddffc627449925b0974027e981", "fusion_lat": 0.0, "type": "electric_scooter", "lat": 38.9275195, "is_reserved": 0, "is_disabled": 0, "fusion_lon": 0.0, "bike_id": "42e160ddffc627449925b0974027e981", "lon": -77.032665, "rental_uris": {"ios": "https://dc.lft.to/lastmile_qr_scan", "android": "https://dc.lft.to/lastmile_qr_scan"}}, {"name": "5bb367ca5d0b1f9b1a63c169a89309ad", "fusion_lat": 0.0, "type": "electric_scooter", "lat": 38.904717166666664, "is_reserved": 0, "is_disabled": 0, "fusion_lon": 0.0, "bike_id": "5bb367ca5d0b1f9b1a63c169a89309ad", "lon": -77.02712533333333, "rental_uris": {"ios": "https://dc.lft.to/lastmile_qr_scan", "android": "https://dc.lft.to/lastmile_qr_scan"}}, {"name": "f111910f556acdb2427fb4916bf75b9d", "fusion_lat": 0.0, "type": "electric_scooter", "lat": 38.926343333333335, "is_reserved": 0, "is_disabled": 0, "fusion_lon": 0.0, "bike_id": "f111910f556acdb2427fb4916bf75b9d", "lon": -77.03508333333333, "rental_uris": {"ios": "https://dc.lft.to/lastmile_qr_scan", "android": "https://dc.lft.to/lastmile_qr_scan"}}, {"name": "58091e3ce9453b06f70bc2c0772b4649", "fusion_lat": 0.0, "type": "electric_scooter", "lat": 38.920656666666666, "is_reserved": 0, "is_disabled": 0, "fusion_lon": 0.0, "bike_id": "58091e3ce9453b06f70bc2c0772b4649", "lon": -76.97805066666666, "rental_uris": {"ios": "https://dc.lft.to/lastmile_qr_scan", "android": "https://dc.lft.to/lastmile_qr_scan"}}, {"name": "7cb94030fdb1cc0bddccaf9e7aa3bb2f", "fusion_lat": 0.0, "type": "electric_scooter", "lat": 38.919138833333335, "is_reserved": 0, "is_disabled": 0, "fusion_lon": 0.0, "bike_id": "7cb94030fdb1cc0bddccaf9e7aa3bb2f", "lon": -77.02407783333334, "rental_uris": {"ios": "https://dc.lft.to/lastmile_qr_scan", "android": "https://dc.lft.to/lastmile_qr_scan"}}, {"name": "c21fd46eb84d9dfec20c4d5505a5a4cc", "fusion_lat": 0.0, "type": "electric_scooter", "lat": 38.917228, "is_reserved": 0, "is_disabled": 0, "fusion_lon": 0.0, "bike_id": "c21fd46eb84d9dfec20c4d5505a5a4cc", "lon": -77.00818783333334, "rental_uris": {"ios": "https://dc.lft.to/lastmile_qr_scan", "android": "https://dc.lft.to/lastmile_qr_scan"}}, {"name": "de7cdc1e7b63df2914aab92a8051657b", "fusion_lat": 0.0, "type": "electric_bike", "lat": 38.9644415, "is_reserved": 0, "is_disabled": 0, "fusion_lon": 0.0, "bike_id": "de7cdc1e7b63df2914aab92a8051657b", "lon": -77.03162866666666, "rental_uris": {"ios": "https://dc.lft.to/lastmile_qr_scan", "android": "https://dc.lft.to/lastmile_qr_scan"}}, {"name": "0b67eca9b67f46f53e65d69310610d62", "fusion_lat": 0.0, "type": "electric_scooter", "lat": 38.925172, "is_reserved": 0, "is_disabled": 0, "fusion_lon": 0.0, "bike_id": "0b67eca9b67f46f53e65d69310610d62", "lon": -77.02563316666667, "rental_uris": {"ios": "https://dc.lft.to/lastmile_qr_scan", "android": "https://dc.lft.to/lastmile_qr_scan"}}, {"name": "918832d059866adac2421105cd50f946", "fusion_lat": 0.0, "type": "electric_scooter", "lat": 38.90783366666667, "is_reserved": 0, "is_disabled": 0, "fusion_lon": 0.0, "bike_id": "918832d059866adac2421105cd50f946", "lon": -77.0386235, "rental_uris": {"ios": "https://dc.lft.to/lastmile_qr_scan", "android": "https://dc.lft.to/lastmile_qr_scan"}}, {"name": "12d604427bcb197035bfe906775bc955", "fusion_lat": 0.0, "type": "electric_scooter", "lat": 38.91102133333333, "is_reserved": 0, "is_disabled": 0, "fusion_lon": 0.0, "bike_id": "12d604427bcb197035bfe906775bc955", "lon": -77.02971033333333, "rental_uris": {"ios": "https://dc.lft.to/lastmile_qr_scan", "android": "https://dc.lft.to/lastmile_qr_scan"}}, {"name": "589af2f68c795e27f3bb192afdffbc9a", "fusion_lat": 0.0, "type": "electric_scooter", "lat": 38.90923216666667, "is_reserved": 0, "is_disabled": 0, "fusion_lon": 0.0, "bike_id": "589af2f68c795e27f3bb192afdffbc9a", "lon": -77.04159266666667, "rental_uris": {"ios": "https://dc.lft.to/lastmile_qr_scan", "android": "https://dc.lft.to/lastmile_qr_scan"}}, {"name": "0c4c8072501a7ac4c612d231125783a7", "fusion_lat": 0.0, "type": "electric_scooter", "lat": 38.883262, "is_reserved": 0, "is_disabled": 0, "fusion_lon": 0.0, "bike_id": "0c4c8072501a7ac4c612d231125783a7", "lon": -77.01520683333334, "rental_uris": {"ios": "https://dc.lft.to/lastmile_qr_scan", "android": "https://dc.lft.to/lastmile_qr_scan"}}, {"name": "fd57c905da70fb8f481603167aae6832", "fusion_lat": 0.0, "type": "electric_scooter", "lat": 38.90264166666667, "is_reserved": 0, "is_disabled": 0, "fusion_lon": 0.0, "bike_id": "fd57c905da70fb8f481603167aae6832", "lon": -76.995995, "rental_uris": {"ios": "https://dc.lft.to/lastmile_qr_scan", "android": "https://dc.lft.to/lastmile_qr_scan"}}, {"name": "8ab37d8642735ed4912dba6e6e6f4c80", "fusion_lat": 0.0, "type": "electric_scooter", "lat": 38.9264765, "is_reserved": 0, "is_disabled": 0, "fusion_lon": 0.0, "bike_id": "8ab37d8642735ed4912dba6e6e6f4c80", "lon": -77.03696366666667, "rental_uris": {"ios": "https://dc.lft.to/lastmile_qr_scan", "android": "https://dc.lft.to/lastmile_qr_scan"}}, {"name": "d68c6abbb3aa4fc09006aaf9c4a7b115", "fusion_lat": 0.0, "type": "electric_scooter", "lat": 38.937665333333335, "is_reserved": 0, "is_disabled": 0, "fusion_lon": 0.0, "bike_id": "d68c6abbb3aa4fc09006aaf9c4a7b115", "lon": -77.032833, "rental_uris": {"ios": "https://dc.lft.to/lastmile_qr_scan", "android": "https://dc.lft.to/lastmile_qr_scan"}}, {"name": "745fd1ef1ca6e46c599b3149e8885dab", "fusion_lat": 0.0, "type": "electric_scooter", "lat": 38.90958533333333, "is_reserved": 0, "is_disabled": 0, "fusion_lon": 0.0, "bike_id": "745fd1ef1ca6e46c599b3149e8885dab", "lon": -77.03380566666667, "rental_uris": {"ios": "https://dc.lft.to/lastmile_qr_scan", "android": "https://dc.lft.to/lastmile_qr_scan"}}, {"name": "4a7599eaf77ec28c4da2fed408c2a7d0", "fusion_lat": 0.0, "type": "electric_scooter", "lat": 38.88918283333334, "is_reserved": 0, "is_disabled": 0, "fusion_lon": 0.0, "bike_id": "4a7599eaf77ec28c4da2fed408c2a7d0", "lon": -76.95374716666667, "rental_uris": {"ios": "https://dc.lft.to/lastmile_qr_scan", "android": "https://dc.lft.to/lastmile_qr_scan"}}, {"name": "6e966ac650806fcbca7260fdbff806e2", "fusion_lat": 0.0, "type": "electric_scooter", "lat": 38.92886816666667, "is_reserved": 0, "is_disabled": 0, "fusion_lon": 0.0, "bike_id": "6e966ac650806fcbca7260fdbff806e2", "lon": -77.02314466666667, "rental_uris": {"ios": "https://dc.lft.to/lastmile_qr_scan", "android": "https://dc.lft.to/lastmile_qr_scan"}}, {"name": "7acf530be4eadca7f1fd93fa41bdac50", "fusion_lat": 0.0, "type": "electric_scooter", "lat": 38.911995833333336, "is_reserved": 0, "is_disabled": 0, "fusion_lon": 0.0, "bike_id": "7acf530be4eadca7f1fd93fa41bdac50", "lon": -77.04456016666667, "rental_uris": {"ios": "https://dc.lft.to/lastmile_qr_scan", "android": "https://dc.lft.to/lastmile_qr_scan"}}, {"name": "8bd88b75496db34a29e26a87d34bb2fd", "fusion_lat": 0.0, "type": "electric_scooter", "lat": 38.9057225, "is_reserved": 0, "is_disabled": 0, "fusion_lon": 0.0, "bike_id": "8bd88b75496db34a29e26a87d34bb2fd", "lon": -77.02756166666667, "rental_uris": {"ios": "https://dc.lft.to/lastmile_qr_scan", "android": "https://dc.lft.to/lastmile_qr_scan"}}, {"name": "6633f336955f454c6b85668240c7d4bb", "fusion_lat": 0.0, "type": "electric_scooter", "lat": 38.892037, "is_reserved": 0, "is_disabled": 0, "fusion_lon": 0.0, "bike_id": "6633f336955f454c6b85668240c7d4bb", "lon": -77.00242266666666, "rental_uris": {"ios": "https://dc.lft.to/lastmile_qr_scan", "android": "https://dc.lft.to/lastmile_qr_scan"}}, {"name": "780ec30b31aed05bc1fbfe35e443c31f", "fusion_lat": 0.0, "type": "electric_scooter", "lat": 38.934739666666665, "is_reserved": 0, "is_disabled": 0, "fusion_lon": 0.0, "bike_id": "780ec30b31aed05bc1fbfe35e443c31f", "lon": -77.028453, "rental_uris": {"ios": "https://dc.lft.to/lastmile_qr_scan", "android": "https://dc.lft.to/lastmile_qr_scan"}}, {"name": "6501c926fd3408ff7f7ddb575936d6bf", "fusion_lat": 0.0, "type": "electric_scooter", "lat": 38.9038575, "is_reserved": 0, "is_disabled": 0, "fusion_lon": 0.0, "bike_id": "6501c926fd3408ff7f7ddb575936d6bf", "lon": -77.044878, "rental_uris": {"ios": "https://dc.lft.to/lastmile_qr_scan", "android": "https://dc.lft.to/lastmile_qr_scan"}}, {"name": "f21aced79482ef1813ec4de2c7afbbe3", "fusion_lat": 0.0, "type": "electric_bike", "lat": 38.961258, "is_reserved": 0, "is_disabled": 0, "fusion_lon": 0.0, "bike_id": "f21aced79482ef1813ec4de2c7afbbe3", "lon": -77.03273483333334, "rental_uris": {"ios": "https://dc.lft.to/lastmile_qr_scan", "android": "https://dc.lft.to/lastmile_qr_scan"}}, {"name": "fcc306bfdc9cddd54ba6513d3707f396", "fusion_lat": 0.0, "type": "electric_scooter", "lat": 38.939008666666666, "is_reserved": 0, "is_disabled": 0, "fusion_lon": 0.0, "bike_id": "fcc306bfdc9cddd54ba6513d3707f396", "lon": -77.03268, "rental_uris": {"ios": "https://dc.lft.to/lastmile_qr_scan", "android": "https://dc.lft.to/lastmile_qr_scan"}}, {"name": "e4ca1cf8265a08cac8d8d4729b5eef7f", "fusion_lat": 0.0, "type": "electric_scooter", "lat": 38.92446, "is_reserved": 0, "is_disabled": 0, "fusion_lon": 0.0, "bike_id": "e4ca1cf8265a08cac8d8d4729b5eef7f", "lon": -76.99337366666667, "rental_uris": {"ios": "https://dc.lft.to/lastmile_qr_scan", "android": "https://dc.lft.to/lastmile_qr_scan"}}, {"name": "ea0f85d8e0c59350317153d560d615da", "fusion_lat": 0.0, "type": "electric_scooter", "lat": 38.903747833333334, "is_reserved": 0, "is_disabled": 0, "fusion_lon": 0.0, "bike_id": "ea0f85d8e0c59350317153d560d615da", "lon": -77.0176985, "rental_uris": {"ios": "https://dc.lft.to/lastmile_qr_scan", "android": "https://dc.lft.to/lastmile_qr_scan"}}, {"name": "f544aa25c7cd17dec314d49737a45709", "fusion_lat": 0.0, "type": "electric_scooter", "lat": 38.898772666666666, "is_reserved": 0, "is_disabled": 0, "fusion_lon": 0.0, "bike_id": "f544aa25c7cd17dec314d49737a45709", "lon": -76.931606, "rental_uris": {"ios": "https://dc.lft.to/lastmile_qr_scan", "android": "https://dc.lft.to/lastmile_qr_scan"}}, {"name": "2a2250067c3237bb597f3ec31baf865d", "fusion_lat": 0.0, "type": "electric_scooter", "lat": 38.903086333333334, "is_reserved": 0, "is_disabled": 0, "fusion_lon": 0.0, "bike_id": "2a2250067c3237bb597f3ec31baf865d", "lon": -77.02434533333333, "rental_uris": {"ios": "https://dc.lft.to/lastmile_qr_scan", "android": "https://dc.lft.to/lastmile_qr_scan"}}, {"name": "48c54c53c1650ea9eed3948444c81ff5", "fusion_lat": 0.0, "type": "electric_scooter", "lat": 38.9127065, "is_reserved": 0, "is_disabled": 0, "fusion_lon": 0.0, "bike_id": "48c54c53c1650ea9eed3948444c81ff5", "lon": -77.03542333333333, "rental_uris": {"ios": "https://dc.lft.to/lastmile_qr_scan", "android": "https://dc.lft.to/lastmile_qr_scan"}}, {"name": "28329a75e5cd1a5cd2cb0fe6b1314465", "fusion_lat": 0.0, "type": "electric_scooter", "lat": 38.91819066666667, "is_reserved": 0, "is_disabled": 0, "fusion_lon": 0.0, "bike_id": "28329a75e5cd1a5cd2cb0fe6b1314465", "lon": -77.03998916666667, "rental_uris": {"ios": "https://dc.lft.to/lastmile_qr_scan", "android": "https://dc.lft.to/lastmile_qr_scan"}}, {"name": "cf7c007df1a7620df442de70dde9c258", "fusion_lat": 0.0, "type": "electric_scooter", "lat": 38.92360083333333, "is_reserved": 0, "is_disabled": 0, "fusion_lon": 0.0, "bike_id": "cf7c007df1a7620df442de70dde9c258", "lon": -77.05237583333333, "rental_uris": {"ios": "https://dc.lft.to/lastmile_qr_scan", "android": "https://dc.lft.to/lastmile_qr_scan"}}, {"name": "56ca94b0405f972fcf9e5e2598b9b738", "fusion_lat": 0.0, "type": "electric_scooter", "lat": 38.90401133333334, "is_reserved": 0, "is_disabled": 0, "fusion_lon": 0.0, "bike_id": "56ca94b0405f972fcf9e5e2598b9b738", "lon": -77.063981, "rental_uris": {"ios": "https://dc.lft.to/lastmile_qr_scan", "android": "https://dc.lft.to/lastmile_qr_scan"}}, {"name": "e66edd69e3f4cb5f7d02563db259beec", "fusion_lat": 0.0, "type": "electric_scooter", "lat": 38.928053166666665, "is_reserved": 0, "is_disabled": 0, "fusion_lon": 0.0, "bike_id": "e66edd69e3f4cb5f7d02563db259beec", "lon": -77.0398215, "rental_uris": {"ios": "https://dc.lft.to/lastmile_qr_scan", "android": "https://dc.lft.to/lastmile_qr_scan"}}, {"name": "20ac86768f52a91773b676904f75657b", "fusion_lat": 0.0, "type": "electric_scooter", "lat": 38.91934233333333, "is_reserved": 0, "is_disabled": 0, "fusion_lon": 0.0, "bike_id": "20ac86768f52a91773b676904f75657b", "lon": -77.0450225, "rental_uris": {"ios": "https://dc.lft.to/lastmile_qr_scan", "android": "https://dc.lft.to/lastmile_qr_scan"}}, {"name": "80a70c4f73b3901afd5bf698a17381e4", "fusion_lat": 0.0, "type": "electric_scooter", "lat": 38.8615345, "is_reserved": 0, "is_disabled": 0, "fusion_lon": 0.0, "bike_id": "80a70c4f73b3901afd5bf698a17381e4", "lon": -76.98922716666667, "rental_uris": {"ios": "https://dc.lft.to/lastmile_qr_scan", "android": "https://dc.lft.to/lastmile_qr_scan"}}, {"name": "51275492d96174fe15c962a70c7667c2", "fusion_lat": 0.0, "type": "electric_scooter", "lat": 38.9173295, "is_reserved": 0, "is_disabled": 0, "fusion_lon": 0.0, "bike_id": "51275492d96174fe15c962a70c7667c2", "lon": -77.01026016666667, "rental_uris": {"ios": "https://dc.lft.to/lastmile_qr_scan", "android": "https://dc.lft.to/lastmile_qr_scan"}}, {"name": "cdfd2b788412104fbfcd3544dc609417", "fusion_lat": 0.0, "type": "electric_scooter", "lat": 38.90563, "is_reserved": 0, "is_disabled": 0, "fusion_lon": 0.0, "bike_id": "cdfd2b788412104fbfcd3544dc609417", "lon": -77.02230133333333, "rental_uris": {"ios": "https://dc.lft.to/lastmile_qr_scan", "android": "https://dc.lft.to/lastmile_qr_scan"}}, {"name": "acd226b3dd47e1ac47cacf99f45fcd85", "fusion_lat": 0.0, "type": "electric_scooter", "lat": 38.908899166666664, "is_reserved": 0, "is_disabled": 0, "fusion_lon": 0.0, "bike_id": "acd226b3dd47e1ac47cacf99f45fcd85", "lon": -77.00576866666667, "rental_uris": {"ios": "https://dc.lft.to/lastmile_qr_scan", "android": "https://dc.lft.to/lastmile_qr_scan"}}, {"name": "5273a6480f66ddb0f91a325a471e16b0", "fusion_lat": 0.0, "type": "electric_scooter", "lat": 38.90471133333333, "is_reserved": 0, "is_disabled": 0, "fusion_lon": 0.0, "bike_id": "5273a6480f66ddb0f91a325a471e16b0", "lon": -77.00739183333333, "rental_uris": {"ios": "https://dc.lft.to/lastmile_qr_scan", "android": "https://dc.lft.to/lastmile_qr_scan"}}, {"name": "022be29bdd2e5487b9232ec78c941912", "fusion_lat": 0.0, "type": "electric_scooter", "lat": 38.917594333333334, "is_reserved": 0, "is_disabled": 0, "fusion_lon": 0.0, "bike_id": "022be29bdd2e5487b9232ec78c941912", "lon": -77.01875033333333, "rental_uris": {"ios": "https://dc.lft.to/lastmile_qr_scan", "android": "https://dc.lft.to/lastmile_qr_scan"}}, {"name": "ec460e6a5f59f7c30ec929ff7e0075e7", "fusion_lat": 0.0, "type": "electric_scooter", "lat": 38.931026833333334, "is_reserved": 0, "is_disabled": 0, "fusion_lon": 0.0, "bike_id": "ec460e6a5f59f7c30ec929ff7e0075e7", "lon": -77.02397166666667, "rental_uris": {"ios": "https://dc.lft.to/lastmile_qr_scan", "android": "https://dc.lft.to/lastmile_qr_scan"}}, {"name": "a7b7157df224f212753a09910f3d8660", "fusion_lat": 0.0, "type": "electric_scooter", "lat": 38.914159833333336, "is_reserved": 0, "is_disabled": 0, "fusion_lon": 0.0, "bike_id": "a7b7157df224f212753a09910f3d8660", "lon": -77.03178133333333, "rental_uris": {"ios": "https://dc.lft.to/lastmile_qr_scan", "android": "https://dc.lft.to/lastmile_qr_scan"}}, {"name": "d63e433d8bd04a5ceb37a5b617cfc7fe", "fusion_lat": 0.0, "type": "electric_bike", "lat": 38.9185965, "is_reserved": 0, "is_disabled": 0, "fusion_lon": 0.0, "bike_id": "d63e433d8bd04a5ceb37a5b617cfc7fe", "lon": -76.96091633333333, "rental_uris": {"ios": "https://dc.lft.to/lastmile_qr_scan", "android": "https://dc.lft.to/lastmile_qr_scan"}}, {"name": "74fd1e2a8622d0188026bad5cbd1ecde", "fusion_lat": 0.0, "type": "electric_scooter", "lat": 38.903163666666664, "is_reserved": 0, "is_disabled": 0, "fusion_lon": 0.0, "bike_id": "74fd1e2a8622d0188026bad5cbd1ecde", "lon": -77.05181533333334, "rental_uris": {"ios": "https://dc.lft.to/lastmile_qr_scan", "android": "https://dc.lft.to/lastmile_qr_scan"}}, {"name": "941699d52bd2ab6852de1b60778c9750", "fusion_lat": 0.0, "type": "electric_scooter", "lat": 38.923200666666666, "is_reserved": 0, "is_disabled": 0, "fusion_lon": 0.0, "bike_id": "941699d52bd2ab6852de1b60778c9750", "lon": -77.029738, "rental_uris": {"ios": "https://dc.lft.to/lastmile_qr_scan", "android": "https://dc.lft.to/lastmile_qr_scan"}}, {"name": "b65bf09871ce83d396dfaac6e01ec08b", "fusion_lat": 0.0, "type": "electric_scooter", "lat": 38.9324655, "is_reserved": 0, "is_disabled": 0, "fusion_lon": 0.0, "bike_id": "b65bf09871ce83d396dfaac6e01ec08b", "lon": -77.02381366666667, "rental_uris": {"ios": "https://dc.lft.to/lastmile_qr_scan", "android": "https://dc.lft.to/lastmile_qr_scan"}}, {"name": "a853f3c153853d303a17897a94fe4c36", "fusion_lat": 0.0, "type": "electric_scooter", "lat": 38.88432066666667, "is_reserved": 0, "is_disabled": 0, "fusion_lon": 0.0, "bike_id": "a853f3c153853d303a17897a94fe4c36", "lon": -77.03048666666666, "rental_uris": {"ios": "https://dc.lft.to/lastmile_qr_scan", "android": "https://dc.lft.to/lastmile_qr_scan"}}, {"name": "64b28e6ff26d7b4a2c58f0198578ab70", "fusion_lat": 0.0, "type": "electric_scooter", "lat": 38.907622, "is_reserved": 0, "is_disabled": 0, "fusion_lon": 0.0, "bike_id": "64b28e6ff26d7b4a2c58f0198578ab70", "lon": -77.02797033333333, "rental_uris": {"ios": "https://dc.lft.to/lastmile_qr_scan", "android": "https://dc.lft.to/lastmile_qr_scan"}}, {"name": "0c0b8fd0cbd66c468872bce53139bc55", "fusion_lat": 0.0, "type": "electric_scooter", "lat": 38.917221, "is_reserved": 0, "is_disabled": 0, "fusion_lon": 0.0, "bike_id": "0c0b8fd0cbd66c468872bce53139bc55", "lon": -77.0383795, "rental_uris": {"ios": "https://dc.lft.to/lastmile_qr_scan", "android": "https://dc.lft.to/lastmile_qr_scan"}}, {"name": "d0781fd99d10c7ea669079f9b2fa78b3", "fusion_lat": 0.0, "type": "electric_bike", "lat": 38.82448733333333, "is_reserved": 0, "is_disabled": 0, "fusion_lon": 0.0, "bike_id": "d0781fd99d10c7ea669079f9b2fa78b3", "lon": -77.07046566666666, "rental_uris": {"ios": "https://dc.lft.to/lastmile_qr_scan", "android": "https://dc.lft.to/lastmile_qr_scan"}}, {"name": "0b817c0ccf266b3c93ccb8bdab7ee809", "fusion_lat": 0.0, "type": "electric_scooter", "lat": 38.90270683333333, "is_reserved": 0, "is_disabled": 0, "fusion_lon": 0.0, "bike_id": "0b817c0ccf266b3c93ccb8bdab7ee809", "lon": -77.03992016666666, "rental_uris": {"ios": "https://dc.lft.to/lastmile_qr_scan", "android": "https://dc.lft.to/lastmile_qr_scan"}}, {"name": "b76b793bda88162006db9526275e05fd", "fusion_lat": 0.0, "type": "electric_bike", "lat": 38.924453666666665, "is_reserved": 0, "is_disabled": 0, "fusion_lon": 0.0, "bike_id": "b76b793bda88162006db9526275e05fd", "lon": -76.996604, "rental_uris": {"ios": "https://dc.lft.to/lastmile_qr_scan", "android": "https://dc.lft.to/lastmile_qr_scan"}}, {"name": "0198d5a17b861f92bcdf02fa9be90757", "fusion_lat": 0.0, "type": "electric_bike", "lat": 38.881113166666665, "is_reserved": 0, "is_disabled": 0, "fusion_lon": 0.0, "bike_id": "0198d5a17b861f92bcdf02fa9be90757", "lon": -77.016467, "rental_uris": {"ios": "https://dc.lft.to/lastmile_qr_scan", "android": "https://dc.lft.to/lastmile_qr_scan"}}, {"name": "831d5f770589040c0d92c21a8f7ff36a", "fusion_lat": 0.0, "type": "electric_scooter", "lat": 38.90159116666667, "is_reserved": 0, "is_disabled": 0, "fusion_lon": 0.0, "bike_id": "831d5f770589040c0d92c21a8f7ff36a", "lon": -77.0218565, "rental_uris": {"ios": "https://dc.lft.to/lastmile_qr_scan", "android": "https://dc.lft.to/lastmile_qr_scan"}}, {"name": "f848baa3f3ddf4fc3ca91aaedf6766f5", "fusion_lat": 0.0, "type": "electric_scooter", "lat": 38.89918933333333, "is_reserved": 0, "is_disabled": 0, "fusion_lon": 0.0, "bike_id": "f848baa3f3ddf4fc3ca91aaedf6766f5", "lon": -76.9338665, "rental_uris": {"ios": "https://dc.lft.to/lastmile_qr_scan", "android": "https://dc.lft.to/lastmile_qr_scan"}}, {"name": "3de178a55969ee06f8e63d89692b2ddc", "fusion_lat": 0.0, "type": "electric_scooter", "lat": 38.897363, "is_reserved": 0, "is_disabled": 0, "fusion_lon": 0.0, "bike_id": "3de178a55969ee06f8e63d89692b2ddc", "lon": -77.04657016666667, "rental_uris": {"ios": "https://dc.lft.to/lastmile_qr_scan", "android": "https://dc.lft.to/lastmile_qr_scan"}}, {"name": "cde95241edb4931c862ae84f144a18f6", "fusion_lat": 0.0, "type": "electric_scooter", "lat": 38.9232555, "is_reserved": 0, "is_disabled": 0, "fusion_lon": 0.0, "bike_id": "cde95241edb4931c862ae84f144a18f6", "lon": -77.03531583333333, "rental_uris": {"ios": "https://dc.lft.to/lastmile_qr_scan", "android": "https://dc.lft.to/lastmile_qr_scan"}}, {"name": "4fbf11c5b61cb3cb663025b865703cba", "fusion_lat": 0.0, "type": "electric_scooter", "lat": 38.9046965, "is_reserved": 0, "is_disabled": 0, "fusion_lon": 0.0, "bike_id": "4fbf11c5b61cb3cb663025b865703cba", "lon": -77.02802816666667, "rental_uris": {"ios": "https://dc.lft.to/lastmile_qr_scan", "android": "https://dc.lft.to/lastmile_qr_scan"}}, {"name": "6eb30b7d5767a034e3cdc5c394766c52", "fusion_lat": 0.0, "type": "electric_scooter", "lat": 38.91223033333333, "is_reserved": 0, "is_disabled": 0, "fusion_lon": 0.0, "bike_id": "6eb30b7d5767a034e3cdc5c394766c52", "lon": -77.0120865, "rental_uris": {"ios": "https://dc.lft.to/lastmile_qr_scan", "android": "https://dc.lft.to/lastmile_qr_scan"}}, {"name": "9efe9a2797b168e6476989d4546d9f5d", "fusion_lat": 0.0, "type": "electric_scooter", "lat": 38.92109833333333, "is_reserved": 0, "is_disabled": 0, "fusion_lon": 0.0, "bike_id": "9efe9a2797b168e6476989d4546d9f5d", "lon": -77.02983483333334, "rental_uris": {"ios": "https://dc.lft.to/lastmile_qr_scan", "android": "https://dc.lft.to/lastmile_qr_scan"}}, {"name": "ae8b8396ec4cbdb66fcb6688221ce65d", "fusion_lat": 0.0, "type": "electric_bike", "lat": 38.928662, "is_reserved": 0, "is_disabled": 0, "fusion_lon": 0.0, "bike_id": "ae8b8396ec4cbdb66fcb6688221ce65d", "lon": -76.96110083333333, "rental_uris": {"ios": "https://dc.lft.to/lastmile_qr_scan", "android": "https://dc.lft.to/lastmile_qr_scan"}}, {"name": "f2c2f4e2593bd61651a185d964019b94", "fusion_lat": 0.0, "type": "electric_scooter", "lat": 38.94106166666667, "is_reserved": 0, "is_disabled": 0, "fusion_lon": 0.0, "bike_id": "f2c2f4e2593bd61651a185d964019b94", "lon": -77.02669683333333, "rental_uris": {"ios": "https://dc.lft.to/lastmile_qr_scan", "android": "https://dc.lft.to/lastmile_qr_scan"}}, {"name": "7be7c682378aa9ba4e7d771960df96f3", "fusion_lat": 0.0, "type": "electric_scooter", "lat": 38.902026666666664, "is_reserved": 0, "is_disabled": 0, "fusion_lon": 0.0, "bike_id": "7be7c682378aa9ba4e7d771960df96f3", "lon": -76.98820716666667, "rental_uris": {"ios": "https://dc.lft.to/lastmile_qr_scan", "android": "https://dc.lft.to/lastmile_qr_scan"}}, {"name": "00718f9d8bc2988251054786c443bea5", "fusion_lat": 0.0, "type": "electric_scooter", "lat": 38.86462483333333, "is_reserved": 0, "is_disabled": 0, "fusion_lon": 0.0, "bike_id": "00718f9d8bc2988251054786c443bea5", "lon": -76.9825055, "rental_uris": {"ios": "https://dc.lft.to/lastmile_qr_scan", "android": "https://dc.lft.to/lastmile_qr_scan"}}, {"name": "7a46d2f3a26cce8f7f7b619197766e7b", "fusion_lat": 0.0, "type": "electric_scooter", "lat": 38.96566166666667, "is_reserved": 0, "is_disabled": 0, "fusion_lon": 0.0, "bike_id": "7a46d2f3a26cce8f7f7b619197766e7b", "lon": -77.01627316666666, "rental_uris": {"ios": "https://dc.lft.to/lastmile_qr_scan", "android": "https://dc.lft.to/lastmile_qr_scan"}}, {"name": "f2b95277d904f29c88531dd97bf4ab34", "fusion_lat": 0.0, "type": "electric_scooter", "lat": 38.90413816666667, "is_reserved": 0, "is_disabled": 0, "fusion_lon": 0.0, "bike_id": "f2b95277d904f29c88531dd97bf4ab34", "lon": -77.05326533333333, "rental_uris": {"ios": "https://dc.lft.to/lastmile_qr_scan", "android": "https://dc.lft.to/lastmile_qr_scan"}}, {"name": "50e80c789249dfa2ad47d3cc5d09f32e", "fusion_lat": 0.0, "type": "electric_scooter", "lat": 38.906453166666665, "is_reserved": 0, "is_disabled": 0, "fusion_lon": 0.0, "bike_id": "50e80c789249dfa2ad47d3cc5d09f32e", "lon": -77.0260675, "rental_uris": {"ios": "https://dc.lft.to/lastmile_qr_scan", "android": "https://dc.lft.to/lastmile_qr_scan"}}, {"name": "daa05740f30773f5842dab0bb75595e8", "fusion_lat": 0.0, "type": "electric_scooter", "lat": 38.938614666666666, "is_reserved": 0, "is_disabled": 0, "fusion_lon": 0.0, "bike_id": "daa05740f30773f5842dab0bb75595e8", "lon": -77.0265275, "rental_uris": {"ios": "https://dc.lft.to/lastmile_qr_scan", "android": "https://dc.lft.to/lastmile_qr_scan"}}, {"name": "0dda7b90115f9c18cab560599c656864", "fusion_lat": 0.0, "type": "electric_bike", "lat": 38.920499166666666, "is_reserved": 0, "is_disabled": 0, "fusion_lon": 0.0, "bike_id": "0dda7b90115f9c18cab560599c656864", "lon": -77.00355683333333, "rental_uris": {"ios": "https://dc.lft.to/lastmile_qr_scan", "android": "https://dc.lft.to/lastmile_qr_scan"}}, {"name": "0a8982b73edc546e80a3efe7b7a0c8e7", "fusion_lat": 0.0, "type": "electric_scooter", "lat": 38.91727916666667, "is_reserved": 0, "is_disabled": 0, "fusion_lon": 0.0, "bike_id": "0a8982b73edc546e80a3efe7b7a0c8e7", "lon": -77.03844, "rental_uris": {"ios": "https://dc.lft.to/lastmile_qr_scan", "android": "https://dc.lft.to/lastmile_qr_scan"}}, {"name": "4f27a4b38acdd0aaa878f4d81edc00f8", "fusion_lat": 0.0, "type": "electric_scooter", "lat": 38.892850833333334, "is_reserved": 0, "is_disabled": 0, "fusion_lon": 0.0, "bike_id": "4f27a4b38acdd0aaa878f4d81edc00f8", "lon": -77.02023133333333, "rental_uris": {"ios": "https://dc.lft.to/lastmile_qr_scan", "android": "https://dc.lft.to/lastmile_qr_scan"}}, {"name": "bc789c200ff059c1cf11c69c73812354", "fusion_lat": 0.0, "type": "electric_bike", "lat": 38.999113666666666, "is_reserved": 0, "is_disabled": 0, "fusion_lon": 0.0, "bike_id": "bc789c200ff059c1cf11c69c73812354", "lon": -77.04618466666666, "rental_uris": {"ios": "https://dc.lft.to/lastmile_qr_scan", "android": "https://dc.lft.to/lastmile_qr_scan"}}, {"name": "e4f4f2a4b306047025acbfb5f7f3c87b", "fusion_lat": 0.0, "type": "electric_scooter", "lat": 38.898452166666665, "is_reserved": 0, "is_disabled": 0, "fusion_lon": 0.0, "bike_id": "e4f4f2a4b306047025acbfb5f7f3c87b", "lon": -76.99275516666667, "rental_uris": {"ios": "https://dc.lft.to/lastmile_qr_scan", "android": "https://dc.lft.to/lastmile_qr_scan"}}, {"name": "7369890626391e33ead9c249358ec07e", "fusion_lat": 0.0, "type": "electric_scooter", "lat": 38.92228133333333, "is_reserved": 0, "is_disabled": 0, "fusion_lon": 0.0, "bike_id": "7369890626391e33ead9c249358ec07e", "lon": -77.04724016666667, "rental_uris": {"ios": "https://dc.lft.to/lastmile_qr_scan", "android": "https://dc.lft.to/lastmile_qr_scan"}}, {"name": "ae7604b1b35534c379fb480501dd524c", "fusion_lat": 0.0, "type": "electric_bike", "lat": 38.8457305, "is_reserved": 0, "is_disabled": 0, "fusion_lon": 0.0, "bike_id": "ae7604b1b35534c379fb480501dd524c", "lon": -77.096243, "rental_uris": {"ios": "https://dc.lft.to/lastmile_qr_scan", "android": "https://dc.lft.to/lastmile_qr_scan"}}, {"name": "ca93d2ab5145784776c39d4d25eab946", "fusion_lat": 0.0, "type": "electric_scooter", "lat": 38.961149666666664, "is_reserved": 0, "is_disabled": 0, "fusion_lon": 0.0, "bike_id": "ca93d2ab5145784776c39d4d25eab946", "lon": -77.02817266666666, "rental_uris": {"ios": "https://dc.lft.to/lastmile_qr_scan", "android": "https://dc.lft.to/lastmile_qr_scan"}}, {"name": "d37e027e3fd8ecce9fa63cb35b0d338c", "fusion_lat": 0.0, "type": "electric_scooter", "lat": 38.93015666666667, "is_reserved": 0, "is_disabled": 0, "fusion_lon": 0.0, "bike_id": "d37e027e3fd8ecce9fa63cb35b0d338c", "lon": -77.02350183333333, "rental_uris": {"ios": "https://dc.lft.to/lastmile_qr_scan", "android": "https://dc.lft.to/lastmile_qr_scan"}}, {"name": "cef23780207188f57c928eef45091bf5", "fusion_lat": 0.0, "type": "electric_scooter", "lat": 38.909605666666664, "is_reserved": 0, "is_disabled": 0, "fusion_lon": 0.0, "bike_id": "cef23780207188f57c928eef45091bf5", "lon": -77.023829, "rental_uris": {"ios": "https://dc.lft.to/lastmile_qr_scan", "android": "https://dc.lft.to/lastmile_qr_scan"}}, {"name": "3962fc6a0472a3dc82d51c4ce63752cd", "fusion_lat": 0.0, "type": "electric_bike", "lat": 38.9408155, "is_reserved": 0, "is_disabled": 0, "fusion_lon": 0.0, "bike_id": "3962fc6a0472a3dc82d51c4ce63752cd", "lon": -77.03096416666666, "rental_uris": {"ios": "https://dc.lft.to/lastmile_qr_scan", "android": "https://dc.lft.to/lastmile_qr_scan"}}, {"name": "48fdc2695c951c293d6352845c01f1f0", "fusion_lat": 0.0, "type": "electric_scooter", "lat": 38.937079, "is_reserved": 0, "is_disabled": 0, "fusion_lon": 0.0, "bike_id": "48fdc2695c951c293d6352845c01f1f0", "lon": -77.06104183333333, "rental_uris": {"ios": "https://dc.lft.to/lastmile_qr_scan", "android": "https://dc.lft.to/lastmile_qr_scan"}}, {"name": "f030a029020b822ddcfc781c834fef56", "fusion_lat": 0.0, "type": "electric_scooter", "lat": 38.907348666666664, "is_reserved": 0, "is_disabled": 0, "fusion_lon": 0.0, "bike_id": "f030a029020b822ddcfc781c834fef56", "lon": -77.034559, "rental_uris": {"ios": "https://dc.lft.to/lastmile_qr_scan", "android": "https://dc.lft.to/lastmile_qr_scan"}}, {"name": "be8deb7a92e31b082eeba048b050efa6", "fusion_lat": 0.0, "type": "electric_scooter", "lat": 38.89858233333333, "is_reserved": 0, "is_disabled": 0, "fusion_lon": 0.0, "bike_id": "be8deb7a92e31b082eeba048b050efa6", "lon": -76.990329, "rental_uris": {"ios": "https://dc.lft.to/lastmile_qr_scan", "android": "https://dc.lft.to/lastmile_qr_scan"}}, {"name": "ef144bdcf06b38dc5dbe99c556c03186", "fusion_lat": 0.0, "type": "electric_scooter", "lat": 38.927018, "is_reserved": 0, "is_disabled": 0, "fusion_lon": 0.0, "bike_id": "ef144bdcf06b38dc5dbe99c556c03186", "lon": -77.03726316666666, "rental_uris": {"ios": "https://dc.lft.to/lastmile_qr_scan", "android": "https://dc.lft.to/lastmile_qr_scan"}}, {"name": "b9c97cd9bce925a2deae496ab452fb3b", "fusion_lat": 0.0, "type": "electric_scooter", "lat": 38.91582533333333, "is_reserved": 0, "is_disabled": 0, "fusion_lon": 0.0, "bike_id": "b9c97cd9bce925a2deae496ab452fb3b", "lon": -77.03173233333334, "rental_uris": {"ios": "https://dc.lft.to/lastmile_qr_scan", "android": "https://dc.lft.to/lastmile_qr_scan"}}, {"name": "3ed0d20b7d53fdaed62963ccb195a74d", "fusion_lat": 0.0, "type": "electric_scooter", "lat": 38.922341, "is_reserved": 0, "is_disabled": 0, "fusion_lon": 0.0, "bike_id": "3ed0d20b7d53fdaed62963ccb195a74d", "lon": -77.04250433333333, "rental_uris": {"ios": "https://dc.lft.to/lastmile_qr_scan", "android": "https://dc.lft.to/lastmile_qr_scan"}}, {"name": "a923118de4d1f1e5f9b438389dca316e", "fusion_lat": 0.0, "type": "electric_bike", "lat": 38.852442833333335, "is_reserved": 0, "is_disabled": 0, "fusion_lon": 0.0, "bike_id": "a923118de4d1f1e5f9b438389dca316e", "lon": -77.114305, "rental_uris": {"ios": "https://dc.lft.to/lastmile_qr_scan", "android": "https://dc.lft.to/lastmile_qr_scan"}}, {"name": "4ed1e37364821d4a912ef1574317cfca", "fusion_lat": 0.0, "type": "electric_scooter", "lat": 38.9587105, "is_reserved": 0, "is_disabled": 0, "fusion_lon": 0.0, "bike_id": "4ed1e37364821d4a912ef1574317cfca", "lon": -77.0205245, "rental_uris": {"ios": "https://dc.lft.to/lastmile_qr_scan", "android": "https://dc.lft.to/lastmile_qr_scan"}}, {"name": "7e885d616b33a5b7640afed099385b88", "fusion_lat": 0.0, "type": "electric_scooter", "lat": 38.929061, "is_reserved": 0, "is_disabled": 0, "fusion_lon": 0.0, "bike_id": "7e885d616b33a5b7640afed099385b88", "lon": -77.026219, "rental_uris": {"ios": "https://dc.lft.to/lastmile_qr_scan", "android": "https://dc.lft.to/lastmile_qr_scan"}}, {"name": "48b471478ee7b5ab4aba381105412e49", "fusion_lat": 0.0, "type": "electric_scooter", "lat": 38.909555166666664, "is_reserved": 0, "is_disabled": 0, "fusion_lon": 0.0, "bike_id": "48b471478ee7b5ab4aba381105412e49", "lon": -77.04137616666667, "rental_uris": {"ios": "https://dc.lft.to/lastmile_qr_scan", "android": "https://dc.lft.to/lastmile_qr_scan"}}, {"name": "57fe123c0d4d1320e20979eac403c949", "fusion_lat": 0.0, "type": "electric_scooter", "lat": 38.8429675, "is_reserved": 0, "is_disabled": 0, "fusion_lon": 0.0, "bike_id": "57fe123c0d4d1320e20979eac403c949", "lon": -76.99946, "rental_uris": {"ios": "https://dc.lft.to/lastmile_qr_scan", "android": "https://dc.lft.to/lastmile_qr_scan"}}, {"name": "d2936cd910e0dca6b9454d88e57f42f6", "fusion_lat": 0.0, "type": "electric_scooter", "lat": 38.91412916666667, "is_reserved": 0, "is_disabled": 0, "fusion_lon": 0.0, "bike_id": "d2936cd910e0dca6b9454d88e57f42f6", "lon": -77.02725966666667, "rental_uris": {"ios": "https://dc.lft.to/lastmile_qr_scan", "android": "https://dc.lft.to/lastmile_qr_scan"}}, {"name": "162c97bcab31e293911620488dbe5b45", "fusion_lat": 0.0, "type": "electric_scooter", "lat": 38.9028255, "is_reserved": 0, "is_disabled": 0, "fusion_lon": 0.0, "bike_id": "162c97bcab31e293911620488dbe5b45", "lon": -77.03831216666667, "rental_uris": {"ios": "https://dc.lft.to/lastmile_qr_scan", "android": "https://dc.lft.to/lastmile_qr_scan"}}, {"name": "c01a48cc203309836f5ddb85774a7ab7", "fusion_lat": 0.0, "type": "electric_scooter", "lat": 38.918040166666664, "is_reserved": 0, "is_disabled": 0, "fusion_lon": 0.0, "bike_id": "c01a48cc203309836f5ddb85774a7ab7", "lon": -77.04024366666667, "rental_uris": {"ios": "https://dc.lft.to/lastmile_qr_scan", "android": "https://dc.lft.to/lastmile_qr_scan"}}, {"name": "458b8ab28d2d6c87f6cec5e2c0196014", "fusion_lat": 0.0, "type": "electric_scooter", "lat": 38.9072845, "is_reserved": 0, "is_disabled": 0, "fusion_lon": 0.0, "bike_id": "458b8ab28d2d6c87f6cec5e2c0196014", "lon": -77.045091, "rental_uris": {"ios": "https://dc.lft.to/lastmile_qr_scan", "android": "https://dc.lft.to/lastmile_qr_scan"}}, {"name": "0b334200edd951a0c78a27f0055e9b8d", "fusion_lat": 0.0, "type": "electric_scooter", "lat": 38.93471666666667, "is_reserved": 0, "is_disabled": 0, "fusion_lon": 0.0, "bike_id": "0b334200edd951a0c78a27f0055e9b8d", "lon": -77.02856616666666, "rental_uris": {"ios": "https://dc.lft.to/lastmile_qr_scan", "android": "https://dc.lft.to/lastmile_qr_scan"}}, {"name": "2953262cbe514c094a68c4bcf41fc5b7", "fusion_lat": 0.0, "type": "electric_scooter", "lat": 38.931475, "is_reserved": 0, "is_disabled": 0, "fusion_lon": 0.0, "bike_id": "2953262cbe514c094a68c4bcf41fc5b7", "lon": -77.04062366666666, "rental_uris": {"ios": "https://dc.lft.to/lastmile_qr_scan", "android": "https://dc.lft.to/lastmile_qr_scan"}}, {"name": "447bb3ca47323923c6351f2e8029c49a", "fusion_lat": 0.0, "type": "electric_scooter", "lat": 38.90787066666667, "is_reserved": 0, "is_disabled": 0, "fusion_lon": 0.0, "bike_id": "447bb3ca47323923c6351f2e8029c49a", "lon": -77.03863383333334, "rental_uris": {"ios": "https://dc.lft.to/lastmile_qr_scan", "android": "https://dc.lft.to/lastmile_qr_scan"}}, {"name": "02ce061a5b982caf9ab5adb01eb0d036", "fusion_lat": 0.0, "type": "electric_scooter", "lat": 38.911178166666666, "is_reserved": 0, "is_disabled": 0, "fusion_lon": 0.0, "bike_id": "02ce061a5b982caf9ab5adb01eb0d036", "lon": -77.02939233333333, "rental_uris": {"ios": "https://dc.lft.to/lastmile_qr_scan", "android": "https://dc.lft.to/lastmile_qr_scan"}}, {"name": "1c2a3c1699ed45ec2a3df524deb7de08", "fusion_lat": 0.0, "type": "electric_scooter", "lat": 38.91637333333333, "is_reserved": 0, "is_disabled": 0, "fusion_lon": 0.0, "bike_id": "1c2a3c1699ed45ec2a3df524deb7de08", "lon": -77.03174633333333, "rental_uris": {"ios": "https://dc.lft.to/lastmile_qr_scan", "android": "https://dc.lft.to/lastmile_qr_scan"}}, {"name": "da9ce9169712daedfed7b14cd5d434da", "fusion_lat": 0.0, "type": "electric_scooter", "lat": 38.88746716666667, "is_reserved": 0, "is_disabled": 0, "fusion_lon": 0.0, "bike_id": "da9ce9169712daedfed7b14cd5d434da", "lon": -77.02127716666666, "rental_uris": {"ios": "https://dc.lft.to/lastmile_qr_scan", "android": "https://dc.lft.to/lastmile_qr_scan"}}, {"name": "642b02b5d45210a5c4d0f5a98749eab9", "fusion_lat": 0.0, "type": "electric_scooter", "lat": 38.91173533333333, "is_reserved": 0, "is_disabled": 0, "fusion_lon": 0.0, "bike_id": "642b02b5d45210a5c4d0f5a98749eab9", "lon": -77.001335, "rental_uris": {"ios": "https://dc.lft.to/lastmile_qr_scan", "android": "https://dc.lft.to/lastmile_qr_scan"}}, {"name": "8429ccad47b6b667cc15bd629f43a0a3", "fusion_lat": 0.0, "type": "electric_scooter", "lat": 38.9051255, "is_reserved": 0, "is_disabled": 0, "fusion_lon": 0.0, "bike_id": "8429ccad47b6b667cc15bd629f43a0a3", "lon": -77.02613266666667, "rental_uris": {"ios": "https://dc.lft.to/lastmile_qr_scan", "android": "https://dc.lft.to/lastmile_qr_scan"}}, {"name": "93bc67f3979e02629d7dbdb26393c32c", "fusion_lat": 0.0, "type": "electric_scooter", "lat": 38.9262395, "is_reserved": 0, "is_disabled": 0, "fusion_lon": 0.0, "bike_id": "93bc67f3979e02629d7dbdb26393c32c", "lon": -77.0419535, "rental_uris": {"ios": "https://dc.lft.to/lastmile_qr_scan", "android": "https://dc.lft.to/lastmile_qr_scan"}}, {"name": "b443abde8aa7c0ffa868217a36451a73", "fusion_lat": 0.0, "type": "electric_bike", "lat": 38.838150666666664, "is_reserved": 0, "is_disabled": 0, "fusion_lon": 0.0, "bike_id": "b443abde8aa7c0ffa868217a36451a73", "lon": -77.09530216666667, "rental_uris": {"ios": "https://dc.lft.to/lastmile_qr_scan", "android": "https://dc.lft.to/lastmile_qr_scan"}}, {"name": "371102a585291df4e79bd7c0a23d403f", "fusion_lat": 0.0, "type": "electric_scooter", "lat": 38.9053585, "is_reserved": 0, "is_disabled": 0, "fusion_lon": 0.0, "bike_id": "371102a585291df4e79bd7c0a23d403f", "lon": -77.05762816666666, "rental_uris": {"ios": "https://dc.lft.to/lastmile_qr_scan", "android": "https://dc.lft.to/lastmile_qr_scan"}}, {"name": "19bd1c0b66b92e981bd4f64e38739e17", "fusion_lat": 0.0, "type": "electric_scooter", "lat": 38.9193085, "is_reserved": 0, "is_disabled": 0, "fusion_lon": 0.0, "bike_id": "19bd1c0b66b92e981bd4f64e38739e17", "lon": -77.03422166666667, "rental_uris": {"ios": "https://dc.lft.to/lastmile_qr_scan", "android": "https://dc.lft.to/lastmile_qr_scan"}}, {"name": "5c8f278f1a64ef1dac0932a77c1c9183", "fusion_lat": 0.0, "type": "electric_scooter", "lat": 38.908021166666664, "is_reserved": 0, "is_disabled": 0, "fusion_lon": 0.0, "bike_id": "5c8f278f1a64ef1dac0932a77c1c9183", "lon": -77.043436, "rental_uris": {"ios": "https://dc.lft.to/lastmile_qr_scan", "android": "https://dc.lft.to/lastmile_qr_scan"}}, {"name": "5bc3310eb978895f3f69cae09b215652", "fusion_lat": 0.0, "type": "electric_scooter", "lat": 38.8940335, "is_reserved": 0, "is_disabled": 0, "fusion_lon": 0.0, "bike_id": "5bc3310eb978895f3f69cae09b215652", "lon": -76.94805116666667, "rental_uris": {"ios": "https://dc.lft.to/lastmile_qr_scan", "android": "https://dc.lft.to/lastmile_qr_scan"}}, {"name": "ab933d38c6d3880ab1b7c6f07d09ae23", "fusion_lat": 0.0, "type": "electric_scooter", "lat": 38.93582, "is_reserved": 0, "is_disabled": 0, "fusion_lon": 0.0, "bike_id": "ab933d38c6d3880ab1b7c6f07d09ae23", "lon": -76.99103966666667, "rental_uris": {"ios": "https://dc.lft.to/lastmile_qr_scan", "android": "https://dc.lft.to/lastmile_qr_scan"}}, {"name": "f8a31b988c6e685fc0c7716801abdcba", "fusion_lat": 0.0, "type": "electric_scooter", "lat": 38.85712383333333, "is_reserved": 0, "is_disabled": 0, "fusion_lon": 0.0, "bike_id": "f8a31b988c6e685fc0c7716801abdcba", "lon": -76.9813235, "rental_uris": {"ios": "https://dc.lft.to/lastmile_qr_scan", "android": "https://dc.lft.to/lastmile_qr_scan"}}, {"name": "279e92487442fd756468b1810ac9ed30", "fusion_lat": 0.0, "type": "electric_bike", "lat": 38.903306666666666, "is_reserved": 0, "is_disabled": 0, "fusion_lon": 0.0, "bike_id": "279e92487442fd756468b1810ac9ed30", "lon": -76.9753595, "rental_uris": {"ios": "https://dc.lft.to/lastmile_qr_scan", "android": "https://dc.lft.to/lastmile_qr_scan"}}, {"name": "90524a67b73aff3a2382ca089f1fdc92", "fusion_lat": 0.0, "type": "electric_scooter", "lat": 38.901551166666664, "is_reserved": 0, "is_disabled": 0, "fusion_lon": 0.0, "bike_id": "90524a67b73aff3a2382ca089f1fdc92", "lon": -76.93057133333333, "rental_uris": {"ios": "https://dc.lft.to/lastmile_qr_scan", "android": "https://dc.lft.to/lastmile_qr_scan"}}, {"name": "69726f2cbcd7a5931c8730731e5c9542", "fusion_lat": 0.0, "type": "electric_scooter", "lat": 38.908368, "is_reserved": 0, "is_disabled": 0, "fusion_lon": 0.0, "bike_id": "69726f2cbcd7a5931c8730731e5c9542", "lon": -76.99700583333333, "rental_uris": {"ios": "https://dc.lft.to/lastmile_qr_scan", "android": "https://dc.lft.to/lastmile_qr_scan"}}, {"name": "e19d5623fc7bcd29d734cd203b5295ee", "fusion_lat": 0.0, "type": "electric_scooter", "lat": 38.925345666666665, "is_reserved": 0, "is_disabled": 0, "fusion_lon": 0.0, "bike_id": "e19d5623fc7bcd29d734cd203b5295ee", "lon": -77.055603, "rental_uris": {"ios": "https://dc.lft.to/lastmile_qr_scan", "android": "https://dc.lft.to/lastmile_qr_scan"}}, {"name": "0402519a35aa0d25e6f246b6278d3fb3", "fusion_lat": 0.0, "type": "electric_scooter", "lat": 38.923382833333335, "is_reserved": 0, "is_disabled": 0, "fusion_lon": 0.0, "bike_id": "0402519a35aa0d25e6f246b6278d3fb3", "lon": -77.035351, "rental_uris": {"ios": "https://dc.lft.to/lastmile_qr_scan", "android": "https://dc.lft.to/lastmile_qr_scan"}},