{"data": {"bikes": [{"lon": -76.9425815, "is_disabled": 0, "lat": 38.898494166666666, "fusion_lat": 0.0, "is_reserved": 0, "rental_uris": {"ios": "https://dc.lft.to/lastmile_qr_scan", "android": "https://dc.lft.to/lastmile_qr_scan"}, "fusion_lon": 0.0, "type": "electric_scooter", "bike_id": "db3568ce15b4f5c193c4d2f1e6b06e34", "name": "db3568ce15b4f5c193c4d2f1e6b06e34"}, {"lon": -76.995584, "is_disabled": 0, "lat": 38.939893166666664, "fusion_lat": 0.0, "is_reserved": 0, "rental_uris": {"ios": "https://dc.lft.to/lastmile_qr_scan", "android": "https://dc.lft.to/lastmile_qr_scan"}, "fusion_lon": 0.0, "type": "electric_bike", "bike_id": "24573d6ba08175347a09b2ec4d710e60", "name": "24573d6ba08175347a09b2ec4d710e60"}, {"lon": -76.92679616666666, "is_disabled": 0, "lat": 38.8884685, "fusion_lat": 0.0, "is_reserved": 0, "rental_uris": {"ios": "https://dc.lft.to/lastmile_qr_scan", "android": "https://dc.lft.to/lastmile_qr_scan"}, "fusion_lon": 0.0, "type": "electric_scooter", "bike_id": "6acf41393666d39fe478d997ec94148a", "name": "6acf41393666d39fe478d997ec94148a"}, {"lon": -77.01964116666667, "is_disabled": 0, "lat": 38.88404883333333, "fusion_lat": 0.0, "is_reserved": 0, "rental_uris": {"ios": "https://dc.lft.to/lastmile_qr_scan", "android": "https://dc.lft.to/lastmile_qr_scan"}, "fusion_lon": 0.0, "type": "electric_scooter", "bike_id": "f8fad535977b368327bdf809cf501482", "name": "f8fad535977b368327bdf809cf501482"}, {"lon": -76.98419133333333, "is_disabled": 0, "lat": 38.913867333333336, "fusion_lat": 0.0, "is_reserved": 0, "rental_uris": {"ios": "https://dc.lft.to/lastmile_qr_scan", "android": "https://dc.lft.to/lastmile_qr_scan"}, "fusion_lon": 0.0, "type": "electric_scooter", "bike_id": "c017cd0b1ddf085705d5e36c8a1a5336", "name": "c017cd0b1ddf085705d5e36c8a1a5336"}, {"lon": -76.98575783333334, "is_disabled": 0, "lat": 38.86685216666667, "fusion_lat": 0.0, "is_reserved": 0, "rental_uris": {"ios": "https://dc.lft.to/lastmile_qr_scan", "android": "https://dc.lft.to/lastmile_qr_scan"}, "fusion_lon": 0.0, "type": "electric_scooter", "bike_id": "63e55ec8001e456c2229049a9eef44e9", "name": "63e55ec8001e456c2229049a9eef44e9"}, {"lon": -77.0180155, "is_disabled": 0, "lat": 38.904397333333335, "fusion_lat": 0.0, "is_reserved": 0, "rental_uris": {"ios": "https://dc.lft.to/lastmile_qr_scan", "android": "https://dc.lft.to/lastmile_qr_scan"}, "fusion_lon": 0.0, "type": "electric_scooter", "bike_id": "9584484a28311fe56cd80e024db6078a", "name": "9584484a28311fe56cd80e024db6078a"}, {"lon": -77.02454483333334, "is_disabled": 0, "lat": 38.91870466666667, "fusion_lat": 0.0, "is_reserved": 0, "rental_uris": {"ios": "https://dc.lft.to/lastmile_qr_scan", "android": "https://dc.lft.to/lastmile_qr_scan"}, "fusion_lon": 0.0, "type": "electric_scooter", "bike_id": "b0a4048d00e29c69d81bbcf8232c8b96", "name": "b0a4048d00e29c69d81bbcf8232c8b96"}, {"lon": -77.0059325, "is_disabled": 0, "lat": 38.87565683333333, "fusion_lat": 0.0, "is_reserved": 0, "rental_uris": {"ios": "https://dc.lft.to/lastmile_qr_scan", "android": "https://dc.lft.to/lastmile_qr_scan"}, "fusion_lon": 0.0, "type": "electric_scooter", "bike_id": "550b6c4e9f91eed83cc2c8e3a7a370bd", "name": "550b6c4e9f91eed83cc2c8e3a7a370bd"}, {"lon": -77.056783, "is_disabled": 0, "lat": 38.923385333333336, "fusion_lat": 0.0, "is_reserved": 0, "rental_uris": {"ios": "https://dc.lft.to/lastmile_qr_scan", "android": "https://dc.lft.to/lastmile_qr_scan"}, "fusion_lon": 0.0, "type": "electric_scooter", "bike_id": "81d5adf0d15936008888409bac2854dd", "name": "81d5adf0d15936008888409bac2854dd"}, {"lon": -76.969824, "is_disabled": 0, "lat": 38.87864366666667, "fusion_lat": 0.0, "is_reserved": 0, "rental_uris": {"ios": "https://dc.lft.to/lastmile_qr_scan", "android": "https://dc.lft.to/lastmile_qr_scan"}, "fusion_lon": 0.0, "type": "electric_scooter", "bike_id": "5cfcfeb8c4b116e94eb54a4879c156f1", "name": "5cfcfeb8c4b116e94eb54a4879c156f1"}, {"lon": -77.0032265, "is_disabled": 0, "lat": 38.919393666666664, "fusion_lat": 0.0, "is_reserved": 0, "rental_uris": {"ios": "https://dc.lft.to/lastmile_qr_scan", "android": "https://dc.lft.to/lastmile_qr_scan"}, "fusion_lon": 0.0, "type": "electric_scooter", "bike_id": "926d21ce9ffc7570b95f2fb11852df09", "name": "926d21ce9ffc7570b95f2fb11852df09"}, {"lon": -77.05328, "is_disabled": 0, "lat": 38.9042665, "fusion_lat": 0.0, "is_reserved": 0, "rental_uris": {"ios": "https://dc.lft.to/lastmile_qr_scan", "android": "https://dc.lft.to/lastmile_qr_scan"}, "fusion_lon": 0.0, "type": "electric_scooter", "bike_id": "56c32985b4b261ab0ad5db11a96b709b", "name": "56c32985b4b261ab0ad5db11a96b709b"}, {"lon": -77.015425, "is_disabled": 0, "lat": 38.95027733333333, "fusion_lat": 0.0, "is_reserved": 0, "rental_uris": {"ios": "https://dc.lft.to/lastmile_qr_scan", "android": "https://dc.lft.to/lastmile_qr_scan"}, "fusion_lon": 0.0, "type": "electric_bike", "bike_id": "b5c6b2704faf1d3211c74c4c279a4cc2", "name": "b5c6b2704faf1d3211c74c4c279a4cc2"}, {"lon": -76.96908133333334, "is_disabled": 0, "lat": 38.874203333333334, "fusion_lat": 0.0, "is_reserved": 0, "rental_uris": {"ios": "https://dc.lft.to/lastmile_qr_scan", "android": "https://dc.lft.to/lastmile_qr_scan"}, "fusion_lon": 0.0, "type": "electric_scooter", "bike_id": "7da3e39631d2a1215f8432db5146e972", "name": "7da3e39631d2a1215f8432db5146e972"}, {"lon": -77.03762866666666, "is_disabled": 0, "lat": 38.912653666666664, "fusion_lat": 0.0, "is_reserved": 0, "rental_uris": {"ios": "https://dc.lft.to/lastmile_qr_scan", "android": "https://dc.lft.to/lastmile_qr_scan"}, "fusion_lon": 0.0, "type": "electric_scooter", "bike_id": "b714eee99f410bb833dd8d3d83c4e772", "name": "b714eee99f410bb833dd8d3d83c4e772"}, {"lon": -76.98019566666666, "is_disabled": 0, "lat": 38.85317633333333, "fusion_lat": 0.0, "is_reserved": 0, "rental_uris": {"ios": "https://dc.lft.to/lastmile_qr_scan", "android": "https://dc.lft.to/lastmile_qr_scan"}, "fusion_lon": 0.0, "type": "electric_scooter", "bike_id": "c41ff6c8fc8b18f5cb93133d8d51dd7d", "name": "c41ff6c8fc8b18f5cb93133d8d51dd7d"}, {"lon": -77.03490916666667, "is_disabled": 0, "lat": 38.9069345, "fusion_lat": 0.0, "is_reserved": 0, "rental_uris": {"ios": "https://dc.lft.to/lastmile_qr_scan", "android": "https://dc.lft.to/lastmile_qr_scan"}, "fusion_lon": 0.0, "type": "electric_scooter", "bike_id": "cce494492dbbe4a08ac5759e638d4287", "name": "cce494492dbbe4a08ac5759e638d4287"}, {"lon": -77.02124133333334, "is_disabled": 0, "lat": 38.914142166666664, "fusion_lat": 0.0, "is_reserved": 0, "rental_uris": {"ios": "https://dc.lft.to/lastmile_qr_scan", "android": "https://dc.lft.to/lastmile_qr_scan"}, "fusion_lon": 0.0, "type": "electric_scooter", "bike_id": "08bb5e35d6819b2ed7073174c7b908ed", "name": "08bb5e35d6819b2ed7073174c7b908ed"}, {"lon": -77.02363483333333, "is_disabled": 0, "lat": 38.920513666666665, "fusion_lat": 0.0, "is_reserved": 0, "rental_uris": {"ios": "https://dc.lft.to/lastmile_qr_scan", "android": "https://dc.lft.to/lastmile_qr_scan"}, "fusion_lon": 0.0, "type": "electric_scooter", "bike_id": "5dc195f5bffcb92ca4e750bbf4580a31", "name": "5dc195f5bffcb92ca4e750bbf4580a31"}, {"lon": -77.02943116666667, "is_disabled": 0, "lat": 38.9014985, "fusion_lat": 0.0, "is_reserved": 0, "rental_uris": {"ios": "https://dc.lft.to/lastmile_qr_scan", "android": "https://dc.lft.to/lastmile_qr_scan"}, "fusion_lon": 0.0, "type": "electric_scooter", "bike_id": "3d0c3ce8beed5b104de844188a633966", "name": "3d0c3ce8beed5b104de844188a633966"}, {"lon": -76.949345, "is_disabled": 0, "lat": 38.893597166666666, "fusion_lat": 0.0, "is_reserved": 0, "rental_uris": {"ios": "https://dc.lft.to/lastmile_qr_scan", "android": "https://dc.lft.to/lastmile_qr_scan"}, "fusion_lon": 0.0, "type": "electric_scooter", "bike_id": "3a0d7c36f2db272c1cc9c88da20a92a7", "name": "3a0d7c36f2db272c1cc9c88da20a92a7"}, {"lon": -77.05045466666667, "is_disabled": 0, "lat": 38.92341483333333, "fusion_lat": 0.0, "is_reserved": 0, "rental_uris": {"ios": "https://dc.lft.to/lastmile_qr_scan", "android": "https://dc.lft.to/lastmile_qr_scan"}, "fusion_lon": 0.0, "type": "electric_scooter", "bike_id": "631aea4b9042d3168e97be49bf2bbfdc", "name": "631aea4b9042d3168e97be49bf2bbfdc"}, {"lon": -77.10857116666666, "is_disabled": 0, "lat": 38.8459785, "fusion_lat": 0.0, "is_reserved": 0, "rental_uris": {"ios": "https://dc.lft.to/lastmile_qr_scan", "android": "https://dc.lft.to/lastmile_qr_scan"}, "fusion_lon": 0.0, "type": "electric_bike", "bike_id": "bba9dc37c93a8a3305e68c5f82b13883", "name": "bba9dc37c93a8a3305e68c5f82b13883"}, {"lon": -76.995018, "is_disabled": 0, "lat": 38.821720666666664, "fusion_lat": 0.0, "is_reserved": 0, "rental_uris": {"ios": "https://dc.lft.to/lastmile_qr_scan", "android": "https://dc.lft.to/lastmile_qr_scan"}, "fusion_lon": 0.0, "type": "electric_bike", "bike_id": "70489524e887610ae5244a049722c504", "name": "70489524e887610ae5244a049722c504"}, {"lon": -76.9913485, "is_disabled": 0, "lat": 38.8463625, "fusion_lat": 0.0, "is_reserved": 0, "rental_uris": {"ios": "https://dc.lft.to/lastmile_qr_scan", "android": "https://dc.lft.to/lastmile_qr_scan"}, "fusion_lon": 0.0, "type": "electric_scooter", "bike_id": "a13d5258e708445820e9bcff8cf099f1", "name": "a13d5258e708445820e9bcff8cf099f1"}, {"lon": -76.99757466666667, "is_disabled": 0, "lat": 38.877459, "fusion_lat": 0.0, "is_reserved": 0, "rental_uris": {"ios": "https://dc.lft.to/lastmile_qr_scan", "android": "https://dc.lft.to/lastmile_qr_scan"}, "fusion_lon": 0.0, "type": "electric_scooter", "bike_id": "7ef8ab3926b9a4c4727bf4fa7ce3e39d", "name": "7ef8ab3926b9a4c4727bf4fa7ce3e39d"}, {"lon": -77.03257066666667, "is_disabled": 0, "lat": 38.9396765, "fusion_lat": 0.0, "is_reserved": 0, "rental_uris": {"ios": "https://dc.lft.to/lastmile_qr_scan", "android": "https://dc.lft.to/lastmile_qr_scan"}, "fusion_lon": 0.0, "type": "electric_scooter", "bike_id": "a7f163e1f8728b0d008a6f5355e0d14d", "name": "a7f163e1f8728b0d008a6f5355e0d14d"}, {"lon": -77.03028516666667, "is_disabled": 0, "lat": 38.92247666666667, "fusion_lat": 0.0, "is_reserved": 0, "rental_uris": {"ios": "https://dc.lft.to/lastmile_qr_scan", "android": "https://dc.lft.to/lastmile_qr_scan"}, "fusion_lon": 0.0, "type": "electric_scooter", "bike_id": "b5dee1e58c95ce57e10e47ac7415b994", "name": "b5dee1e58c95ce57e10e47ac7415b994"}, {"lon": -77.00349833333334, "is_disabled": 0, "lat": 38.902794666666665, "fusion_lat": 0.0, "is_reserved": 0, "rental_uris": {"ios": "https://dc.lft.to/lastmile_qr_scan", "android": "https://dc.lft.to/lastmile_qr_scan"}, "fusion_lon": 0.0, "type": "electric_scooter", "bike_id": "a005e2f759ebf0e0bc3bc8bbc383c163", "name": "a005e2f759ebf0e0bc3bc8bbc383c163"}, {"lon": -77.0236015, "is_disabled": 0, "lat": 38.8998525, "fusion_lat": 0.0, "is_reserved": 0, "rental_uris": {"ios": "https://dc.lft.to/lastmile_qr_scan", "android": "https://dc.lft.to/lastmile_qr_scan"}, "fusion_lon": 0.0, "type": "electric_scooter", "bike_id": "78ba2b82ac84c77f642b5e43ab576606", "name": "78ba2b82ac84c77f642b5e43ab576606"}, {"lon": -77.041722, "is_disabled": 0, "lat": 38.91131383333333, "fusion_lat": 0.0, "is_reserved": 0, "rental_uris": {"ios": "https://dc.lft.to/lastmile_qr_scan", "android": "https://dc.lft.to/lastmile_qr_scan"}, "fusion_lon": 0.0, "type": "electric_scooter", "bike_id": "4453bb566caa2d11708d51dee5e509c7", "name": "4453bb566caa2d11708d51dee5e509c7"}, {"lon": -77.0068095, "is_disabled": 0, "lat": 38.87176433333333, "fusion_lat": 0.0, "is_reserved": 0, "rental_uris": {"ios": "https://dc.lft.to/lastmile_qr_scan", "android": "https://dc.lft.to/lastmile_qr_scan"}, "fusion_lon": 0.0, "type": "electric_scooter", "bike_id": "1a4439ac17d4ab0d027319fde3d0b680", "name": "1a4439ac17d4ab0d027319fde3d0b680"}, {"lon": -76.9976855, "is_disabled": 0, "lat": 38.9089035, "fusion_lat": 0.0, "is_reserved": 0, "rental_uris": {"ios": "https://dc.lft.to/lastmile_qr_scan", "android": "https://dc.lft.to/lastmile_qr_scan"}, "fusion_lon": 0.0, "type": "electric_scooter", "bike_id": "03f1baef2d76cfff270a88062228f3b5", "name": "03f1baef2d76cfff270a88062228f3b5"}, {"lon": -77.03256233333333, "is_disabled": 0, "lat": 38.93969233333333, "fusion_lat": 0.0, "is_reserved": 0, "rental_uris": {"ios": "https://dc.lft.to/lastmile_qr_scan", "android": "https://dc.lft.to/lastmile_qr_scan"}, "fusion_lon": 0.0, "type": "electric_scooter", "bike_id": "373e0c2718a0bc9b75ab2dc35e7addc5", "name": "373e0c2718a0bc9b75ab2dc35e7addc5"}, {"lon": -76.94635516666666, "is_disabled": 0, "lat": 38.8983105, "fusion_lat": 0.0, "is_reserved": 0, "rental_uris": {"ios": "https://dc.lft.to/lastmile_qr_scan", "android": "https://dc.lft.to/lastmile_qr_scan"}, "fusion_lon": 0.0, "type": "electric_scooter", "bike_id": "9b99e7bc9948299ca57c6509ac9968dc", "name": "9b99e7bc9948299ca57c6509ac9968dc"}, {"lon": -77.01778366666667, "is_disabled": 0, "lat": 38.91498433333334, "fusion_lat": 0.0, "is_reserved": 0, "rental_uris": {"ios": "https://dc.lft.to/lastmile_qr_scan", "android": "https://dc.lft.to/lastmile_qr_scan"}, "fusion_lon": 0.0, "type": "electric_scooter", "bike_id": "3b272601b6cb81df0ec9dc713a932600", "name": "3b272601b6cb81df0ec9dc713a932600"}, {"lon": -77.021859, "is_disabled": 0, "lat": 38.904124333333336, "fusion_lat": 0.0, "is_reserved": 0, "rental_uris": {"ios": "https://dc.lft.to/lastmile_qr_scan", "android": "https://dc.lft.to/lastmile_qr_scan"}, "fusion_lon": 0.0, "type": "electric_scooter", "bike_id": "9c5bb7ab48b940ac8960d9c9d07488ad", "name": "9c5bb7ab48b940ac8960d9c9d07488ad"}, {"lon": -77.00047666666667, "is_disabled": 0, "lat": 38.92324933333333, "fusion_lat": 0.0, "is_reserved": 0, "rental_uris": {"ios": "https://dc.lft.to/lastmile_qr_scan", "android": "https://dc.lft.to/lastmile_qr_scan"}, "fusion_lon": 0.0, "type": "electric_scooter", "bike_id": "29fd070ef68922fc35a3e7bbc98b8275", "name": "29fd070ef68922fc35a3e7bbc98b8275"}, {"lon": -77.02461166666667, "is_disabled": 0, "lat": 38.9386775, "fusion_lat": 0.0, "is_reserved": 0, "rental_uris": {"ios": "https://dc.lft.to/lastmile_qr_scan", "android": "https://dc.lft.to/lastmile_qr_scan"}, "fusion_lon": 0.0, "type": "electric_scooter", "bike_id": "c5312605aaf68e2c00fc1534d44093de", "name": "c5312605aaf68e2c00fc1534d44093de"}, {"lon": -77.01873983333333, "is_disabled": 0, "lat": 38.8745315, "fusion_lat": 0.0, "is_reserved": 0, "rental_uris": {"ios": "https://dc.lft.to/lastmile_qr_scan", "android": "https://dc.lft.to/lastmile_qr_scan"}, "fusion_lon": 0.0, "type": "electric_scooter", "bike_id": "241b400b6dfeb17f4ce341b53a7ab1e2", "name": "241b400b6dfeb17f4ce341b53a7ab1e2"}, {"lon": -77.08431533333334, "is_disabled": 0, "lat": 38.931873833333334, "fusion_lat": 0.0, "is_reserved": 0, "rental_uris": {"ios": "https://dc.lft.to/lastmile_qr_scan", "android": "https://dc.lft.to/lastmile_qr_scan"}, "fusion_lon": 0.0, "type": "electric_scooter", "bike_id": "b6bf961348922bcb056eeb1babf8ba84", "name": "b6bf961348922bcb056eeb1babf8ba84"}, {"lon": -76.94568083333333, "is_disabled": 0, "lat": 38.86623683333333, "fusion_lat": 0.0, "is_reserved": 0, "rental_uris": {"ios": "https://dc.lft.to/lastmile_qr_scan", "android": "https://dc.lft.to/lastmile_qr_scan"}, "fusion_lon": 0.0, "type": "electric_bike", "bike_id": "c92fee7b857edc0f0495b86031343631", "name": "c92fee7b857edc0f0495b86031343631"}, {"lon": -77.04151283333333, "is_disabled": 0, "lat": 38.90141933333334, "fusion_lat": 0.0, "is_reserved": 0, "rental_uris": {"ios": "https://dc.lft.to/lastmile_qr_scan", "android": "https://dc.lft.to/lastmile_qr_scan"}, "fusion_lon": 0.0, "type": "electric_scooter", "bike_id": "33e841f9ab346a6a0dcd855865958b26", "name": "33e841f9ab346a6a0dcd855865958b26"}, {"lon": -77.006837, "is_disabled": 0, "lat": 38.8717645, "fusion_lat": 0.0, "is_reserved": 0, "rental_uris": {"ios": "https://dc.lft.to/lastmile_qr_scan", "android": "https://dc.lft.to/lastmile_qr_scan"}, "fusion_lon": 0.0, "type": "electric_scooter", "bike_id": "e1c1de7f78970c9c880144a5763d92d6", "name": "e1c1de7f78970c9c880144a5763d92d6"}, {"lon": -76.976845, "is_disabled": 0, "lat": 38.898898833333334, "fusion_lat": 0.0, "is_reserved": 0, "rental_uris": {"ios": "https://dc.lft.to/lastmile_qr_scan", "android": "https://dc.lft.to/lastmile_qr_scan"}, "fusion_lon": 0.0, "type": "electric_scooter", "bike_id": "0220c9cb93d35293836a11d269a62502", "name": "0220c9cb93d35293836a11d269a62502"}, {"lon": -76.94892533333334, "is_disabled": 0, "lat": 38.895328, "fusion_lat": 0.0, "is_reserved": 0, "rental_uris": {"ios": "https://dc.lft.to/lastmile_qr_scan", "android": "https://dc.lft.to/lastmile_qr_scan"}, "fusion_lon": 0.0, "type": "electric_scooter", "bike_id": "23e87332be51fda1f0578d5e93849313", "name": "23e87332be51fda1f0578d5e93849313"}, {"lon": -77.04531083333333, "is_disabled": 0, "lat": 38.913287833333335, "fusion_lat": 0.0, "is_reserved": 0, "rental_uris": {"ios": "https://dc.lft.to/lastmile_qr_scan", "android": "https://dc.lft.to/lastmile_qr_scan"}, "fusion_lon": 0.0, "type": "electric_scooter", "bike_id": "7ccacc9edfdb67f167d38d61ec8a8d9c", "name": "7ccacc9edfdb67f167d38d61ec8a8d9c"}, {"lon": -77.02402416666666, "is_disabled": 0, "lat": 38.91552033333333, "fusion_lat": 0.0, "is_reserved": 0, "rental_uris": {"ios": "https://dc.lft.to/lastmile_qr_scan", "android": "https://dc.lft.to/lastmile_qr_scan"}, "fusion_lon": 0.0, "type": "electric_scooter", "bike_id": "fb4aa5bb26417a9e4f1bdcb8b7e7d8f7", "name": "fb4aa5bb26417a9e4f1bdcb8b7e7d8f7"}, {"lon": -77.06938516666666, "is_disabled": 0, "lat": 38.9521645, "fusion_lat": 0.0, "is_reserved": 0, "rental_uris": {"ios": "https://dc.lft.to/lastmile_qr_scan", "android": "https://dc.lft.to/lastmile_qr_scan"}, "fusion_lon": 0.0, "type": "electric_scooter", "bike_id": "a9aea08764f6e1748d89e3b001963137", "name": "a9aea08764f6e1748d89e3b001963137"}, {"lon": -77.03223133333333, "is_disabled": 0, "lat": 38.92014983333333, "fusion_lat": 0.0, "is_reserved": 0, "rental_uris": {"ios": "https://dc.lft.to/lastmile_qr_scan", "android": "https://dc.lft.to/lastmile_qr_scan"}, "fusion_lon": 0.0, "type": "electric_scooter", "bike_id": "f48728bcdb6191675118503d56cbfc88", "name": "f48728bcdb6191675118503d56cbfc88"}, {"lon": -77.03516783333333, "is_disabled": 0, "lat": 38.92235016666667, "fusion_lat": 0.0, "is_reserved": 0, "rental_uris": {"ios": "https://dc.lft.to/lastmile_qr_scan", "android": "https://dc.lft.to/lastmile_qr_scan"}, "fusion_lon": 0.0, "type": "electric_scooter", "bike_id": "c6f31d852f36d16dd908ed4985b4ffac", "name": "c6f31d852f36d16dd908ed4985b4ffac"}, {"lon": -77.00798166666667, "is_disabled": 0, "lat": 38.94919566666667, "fusion_lat": 0.0, "is_reserved": 0, "rental_uris": {"ios": "https://dc.lft.to/lastmile_qr_scan", "android": "https://dc.lft.to/lastmile_qr_scan"}, "fusion_lon": 0.0, "type": "electric_bike", "bike_id": "f5aa63500f39d6aff0b8db75f52ec74e", "name": "f5aa63500f39d6aff0b8db75f52ec74e"}, {"lon": -77.04635566666667, "is_disabled": 0, "lat": 38.903596666666665, "fusion_lat": 0.0, "is_reserved": 0, "rental_uris": {"ios": "https://dc.lft.to/lastmile_qr_scan", "android": "https://dc.lft.to/lastmile_qr_scan"}, "fusion_lon": 0.0, "type": "electric_scooter", "bike_id": "d316c075f57759862d702ff4ffbf7600", "name": "d316c075f57759862d702ff4ffbf7600"}, {"lon": -77.00518266666667, "is_disabled": 0, "lat": 38.87472566666667, "fusion_lat": 0.0, "is_reserved": 0, "rental_uris": {"ios": "https://dc.lft.to/lastmile_qr_scan", "android": "https://dc.lft.to/lastmile_qr_scan"}, "fusion_lon": 0.0, "type": "electric_scooter", "bike_id": "69c6440181501d64f3620c35ec1fa4be", "name": "69c6440181501d64f3620c35ec1fa4be"}, {"lon": -77.03209866666667, "is_disabled": 0, "lat": 38.9178535, "fusion_lat": 0.0, "is_reserved": 0, "rental_uris": {"ios": "https://dc.lft.to/lastmile_qr_scan", "android": "https://dc.lft.to/lastmile_qr_scan"}, "fusion_lon": 0.0, "type": "electric_scooter", "bike_id": "c63f6e166e4ccb652b3f561655d8662a", "name": "c63f6e166e4ccb652b3f561655d8662a"}, {"lon": -77.03286716666666, "is_disabled": 0, "lat": 38.91978733333333, "fusion_lat": 0.0, "is_reserved": 0, "rental_uris": {"ios": "https://dc.lft.to/lastmile_qr_scan", "android": "https://dc.lft.to/lastmile_qr_scan"}, "fusion_lon": 0.0, "type": "electric_scooter", "bike_id": "35882994ec5f1968410a8352f1ce3c98", "name": "35882994ec5f1968410a8352f1ce3c98"}, {"lon": -76.99161133333334, "is_disabled": 0, "lat": 38.85970533333333, "fusion_lat": 0.0, "is_reserved": 0, "rental_uris": {"ios": "https://dc.lft.to/lastmile_qr_scan", "android": "https://dc.lft.to/lastmile_qr_scan"}, "fusion_lon": 0.0, "type": "electric_scooter", "bike_id": "cd0d851c68a0e8e13f85c906378f9d3a", "name": "cd0d851c68a0e8e13f85c906378f9d3a"}, {"lon": -77.079238, "is_disabled": 0, "lat": 38.9296915, "fusion_lat": 0.0, "is_reserved": 0, "rental_uris": {"ios": "https://dc.lft.to/lastmile_qr_scan", "android": "https://dc.lft.to/lastmile_qr_scan"}, "fusion_lon": 0.0, "type": "electric_scooter", "bike_id": "dc9310700efc91934028a32077043b2f", "name": "dc9310700efc91934028a32077043b2f"}, {"lon": -77.02490383333334, "is_disabled": 0, "lat": 38.94188416666667, "fusion_lat": 0.0, "is_reserved": 0, "rental_uris": {"ios": "https://dc.lft.to/lastmile_qr_scan", "android": "https://dc.lft.to/lastmile_qr_scan"}, "fusion_lon": 0.0, "type": "electric_scooter", "bike_id": "8310004afd400b1adfa9a40b300901ac", "name": "8310004afd400b1adfa9a40b300901ac"}, {"lon": -77.01967466666666, "is_disabled": 0, "lat": 38.95656133333333, "fusion_lat": 0.0, "is_reserved": 0, "rental_uris": {"ios": "https://dc.lft.to/lastmile_qr_scan", "android": "https://dc.lft.to/lastmile_qr_scan"}, "fusion_lon": 0.0, "type": "electric_scooter", "bike_id": "fbb682174d72b46602d09324769c729e", "name": "fbb682174d72b46602d09324769c729e"}, {"lon": -76.94095433333334, "is_disabled": 0, "lat": 38.89239633333333, "fusion_lat": 0.0, "is_reserved": 0, "rental_uris": {"ios": "https://dc.lft.to/lastmile_qr_scan", "android": "https://dc.lft.to/lastmile_qr_scan"}, "fusion_lon": 0.0, "type": "electric_scooter", "bike_id": "6c737484d4636b63475a9a36ce3a603c", "name": "6c737484d4636b63475a9a36ce3a603c"}, {"lon": -77.024795, "is_disabled": 0, "lat": 38.8979735, "fusion_lat": 0.0, "is_reserved": 0, "rental_uris": {"ios": "https://dc.lft.to/lastmile_qr_scan", "android": "https://dc.lft.to/lastmile_qr_scan"}, "fusion_lon": 0.0, "type": "electric_scooter", "bike_id": "8ed5c345928eb8dcccb9885311defc46", "name": "8ed5c345928eb8dcccb9885311defc46"}, {"lon": -77.09712583333334, "is_disabled": 0, "lat": 38.95103966666667, "fusion_lat": 0.0, "is_reserved": 0, "rental_uris": {"ios": "https://dc.lft.to/lastmile_qr_scan", "android": "https://dc.lft.to/lastmile_qr_scan"}, "fusion_lon": 0.0, "type": "electric_scooter", "bike_id": "a69b4642c899334f017f393e4ef11765", "name": "a69b4642c899334f017f393e4ef11765"}, {"lon": -77.01784783333333, "is_disabled": 0, "lat": 38.877108666666665, "fusion_lat": 0.0, "is_reserved": 0, "rental_uris": {"ios": "https://dc.lft.to/lastmile_qr_scan", "android": "https://dc.lft.to/lastmile_qr_scan"}, "fusion_lon": 0.0, "type": "electric_scooter", "bike_id": "28e41b2e0005ac2fefe4ea7a1902aedc", "name": "28e41b2e0005ac2fefe4ea7a1902aedc"}, {"lon": -76.986991, "is_disabled": 0, "lat": 38.900165, "fusion_lat": 0.0, "is_reserved": 0, "rental_uris": {"ios": "https://dc.lft.to/lastmile_qr_scan", "android": "https://dc.lft.to/lastmile_qr_scan"}, "fusion_lon": 0.0, "type": "electric_scooter", "bike_id": "b28267ded2a9e52a6ded03b580d061d3", "name": "b28267ded2a9e52a6ded03b580d061d3"}, {"lon": -77.02303316666666, "is_disabled": 0, "lat": 38.91606, "fusion_lat": 0.0, "is_reserved": 0, "rental_uris": {"ios": "https://dc.lft.to/lastmile_qr_scan", "android": "https://dc.lft.to/lastmile_qr_scan"}, "fusion_lon": 0.0, "type": "electric_scooter", "bike_id": "a4234958b5ee0a8e443e6adef8d1c177", "name": "a4234958b5ee0a8e443e6adef8d1c177"}, {"lon": -77.02922683333334, "is_disabled": 0, "lat": 38.903848333333336, "fusion_lat": 0.0, "is_reserved": 0, "rental_uris": {"ios": "https://dc.lft.to/lastmile_qr_scan", "android": "https://dc.lft.to/lastmile_qr_scan"}, "fusion_lon": 0.0, "type": "electric_scooter", "bike_id": "3dfb3766a6925d89bf61f880dd37631c", "name": "3dfb3766a6925d89bf61f880dd37631c"}, {"lon": -77.02533566666666, "is_disabled": 0, "lat": 38.946243333333335, "fusion_lat": 0.0, "is_reserved": 0, "rental_uris": {"ios": "https://dc.lft.to/lastmile_qr_scan", "android": "https://dc.lft.to/lastmile_qr_scan"}, "fusion_lon": 0.0, "type": "electric_scooter", "bike_id": "635afddeea867d221a71d006a46db729", "name": "635afddeea867d221a71d006a46db729"}, {"lon": -76.99037733333333, "is_disabled": 0, "lat": 38.888827166666665, "fusion_lat": 0.0, "is_reserved": 0, "rental_uris": {"ios": "https://dc.lft.to/lastmile_qr_scan", "android": "https://dc.lft.to/lastmile_qr_scan"}, "fusion_lon": 0.0, "type": "electric_scooter", "bike_id": "abe5c513812f6cc74014d6ef27e2f8ad", "name": "abe5c513812f6cc74014d6ef27e2f8ad"}, {"lon": -77.02200033333334, "is_disabled": 0, "lat": 38.8962545, "fusion_lat": 0.0, "is_reserved": 0, "rental_uris": {"ios": "https://dc.lft.to/lastmile_qr_scan", "android": "https://dc.lft.to/lastmile_qr_scan"}, "fusion_lon": 0.0, "type": "electric_scooter", "bike_id": "e630493f8a22838996b39427967847f0", "name": "e630493f8a22838996b39427967847f0"}, {"lon": -77.03859166666666, "is_disabled": 0, "lat": 38.91712866666667, "fusion_lat": 0.0, "is_reserved": 0, "rental_uris": {"ios": "https://dc.lft.to/lastmile_qr_scan", "android": "https://dc.lft.to/lastmile_qr_scan"}, "fusion_lon": 0.0, "type": "electric_scooter", "bike_id": "8c38d1b1f6185c1e6bc3244fd927acca", "name": "8c38d1b1f6185c1e6bc3244fd927acca"}, {"lon": -77.0117955, "is_disabled": 0, "lat": 38.900396, "fusion_lat": 0.0, "is_reserved": 0, "rental_uris": {"ios": "https://dc.lft.to/lastmile_qr_scan", "android": "https://dc.lft.to/lastmile_qr_scan"}, "fusion_lon": 0.0, "type": "electric_scooter", "bike_id": "0db6a553632eb6521bbb11bb3b4aeca1", "name": "0db6a553632eb6521bbb11bb3b4aeca1"}, {"lon": -77.03207416666666, "is_disabled": 0, "lat": 38.9207465, "fusion_lat": 0.0, "is_reserved": 0, "rental_uris": {"ios": "https://dc.lft.to/lastmile_qr_scan", "android": "https://dc.lft.to/lastmile_qr_scan"}, "fusion_lon": 0.0, "type": "electric_scooter", "bike_id": "97bb6607fe242b4c07153315d4f61721", "name": "97bb6607fe242b4c07153315d4f61721"}, {"lon": -77.06022416666667, "is_disabled": 0, "lat": 38.944606666666665, "fusion_lat": 0.0, "is_reserved": 0, "rental_uris": {"ios": "https://dc.lft.to/lastmile_qr_scan", "android": "https://dc.lft.to/lastmile_qr_scan"}, "fusion_lon": 0.0, "type": "electric_scooter", "bike_id": "2d999d6bf7e3e460893ee3c19e03641c", "name": "2d999d6bf7e3e460893ee3c19e03641c"}, {"lon": -77.03497333333334, "is_disabled": 0, "lat": 38.932722166666665, "fusion_lat": 0.0, "is_reserved": 0, "rental_uris": {"ios": "https://dc.lft.to/lastmile_qr_scan", "android": "https://dc.lft.to/lastmile_qr_scan"}, "fusion_lon": 0.0, "type": "electric_scooter", "bike_id": "159df5172b00dbca00aeca4b5ef35310", "name": "159df5172b00dbca00aeca4b5ef35310"}, {"lon": -77.0244895, "is_disabled": 0, "lat": 38.90860416666666, "fusion_lat": 0.0, "is_reserved": 0, "rental_uris": {"ios": "https://dc.lft.to/lastmile_qr_scan", "android": "https://dc.lft.to/lastmile_qr_scan"}, "fusion_lon": 0.0, "type": "electric_scooter", "bike_id": "92a46e19db828cda8d84dfd8e9a3a856", "name": "92a46e19db828cda8d84dfd8e9a3a856"}, {"lon": -77.03181616666667, "is_disabled": 0, "lat": 38.892224, "fusion_lat": 0.0, "is_reserved": 0, "rental_uris": {"ios": "https://dc.lft.to/lastmile_qr_scan", "android": "https://dc.lft.to/lastmile_qr_scan"}, "fusion_lon": 0.0, "type": "electric_scooter", "bike_id": "56e3aab3af8095745cfc0cd60c99ac42", "name": "56e3aab3af8095745cfc0cd60c99ac42"}, {"lon": -77.02954816666667, "is_disabled": 0, "lat": 38.91179283333334, "fusion_lat": 0.0, "is_reserved": 0, "rental_uris": {"ios": "https://dc.lft.to/lastmile_qr_scan", "android": "https://dc.lft.to/lastmile_qr_scan"}, "fusion_lon": 0.0, "type": "electric_scooter", "bike_id": "d9b377e5e5f4c84f4b2fe054dd201c7c", "name": "d9b377e5e5f4c84f4b2fe054dd201c7c"}, {"lon": -77.0716445, "is_disabled": 0, "lat": 38.938202, "fusion_lat": 0.0, "is_reserved": 0, "rental_uris": {"ios": "https://dc.lft.to/lastmile_qr_scan", "android": "https://dc.lft.to/lastmile_qr_scan"}, "fusion_lon": 0.0, "type": "electric_scooter", "bike_id": "7f8df0475dfda169fed9efb7f3ee2c18", "name": "7f8df0475dfda169fed9efb7f3ee2c18"}, {"lon": -77.038667, "is_disabled": 0, "lat": 38.9118295, "fusion_lat": 0.0, "is_reserved": 0, "rental_uris": {"ios": "https://dc.lft.to/lastmile_qr_scan", "android": "https://dc.lft.to/lastmile_qr_scan"}, "fusion_lon": 0.0, "type": "electric_scooter", "bike_id": "8deb110f4f76f8ed0ee919f1e638ba6b", "name": "8deb110f4f76f8ed0ee919f1e638ba6b"}, {"lon": -77.06516133333334, "is_disabled": 0, "lat": 38.9040025, "fusion_lat": 0.0, "is_reserved": 0, "rental_uris": {"ios": "https://dc.lft.to/lastmile_qr_scan", "android": "https://dc.lft.to/lastmile_qr_scan"}, "fusion_lon": 0.0, "type": "electric_scooter", "bike_id": "706728dea461df3199698587c8d774d0", "name": "706728dea461df3199698587c8d774d0"}, {"lon": -77.0572865, "is_disabled": 0, "lat": 38.93367716666667, "fusion_lat": 0.0, "is_reserved": 0, "rental_uris": {"ios": "https://dc.lft.to/lastmile_qr_scan", "android": "https://dc.lft.to/lastmile_qr_scan"}, "fusion_lon": 0.0, "type": "electric_scooter", "bike_id": "c5463860fec68693b2dadbe1712bbda4", "name": "c5463860fec68693b2dadbe1712bbda4"}, {"lon": -77.125255, "is_disabled": 0, "lat": 39.05632666666666, "fusion_lat": 0.0, "is_reserved": 0, "rental_uris": {"ios": "https://dc.lft.to/lastmile_qr_scan", "android": "https://dc.lft.to/lastmile_qr_scan"}, "fusion_lon": 0.0, "type": "electric_bike", "bike_id": "06d42454b3f43c63647dcf0c88881876", "name": "06d42454b3f43c63647dcf0c88881876"}, {"lon": -77.03661616666666, "is_disabled": 0, "lat": 38.92160066666667, "fusion_lat": 0.0, "is_reserved": 0, "rental_uris": {"ios": "https://dc.lft.to/lastmile_qr_scan", "android": "https://dc.lft.to/lastmile_qr_scan"}, "fusion_lon": 0.0, "type": "electric_scooter", "bike_id": "f560df100fa0f8fe5c5f977f05236b92", "name": "f560df100fa0f8fe5c5f977f05236b92"}, {"lon": -77.02365383333333, "is_disabled": 0, "lat": 38.90972266666667, "fusion_lat": 0.0, "is_reserved": 0, "rental_uris": {"ios": "https://dc.lft.to/lastmile_qr_scan", "android": "https://dc.lft.to/lastmile_qr_scan"}, "fusion_lon": 0.0, "type": "electric_scooter", "bike_id": "14b47327b83364b88cdf6a62f2450512", "name": "14b47327b83364b88cdf6a62f2450512"}, {"lon": -77.038591, "is_disabled": 0, "lat": 38.917137, "fusion_lat": 0.0, "is_reserved": 0, "rental_uris": {"ios": "https://dc.lft.to/lastmile_qr_scan", "android": "https://dc.lft.to/lastmile_qr_scan"}, "fusion_lon": 0.0, "type": "electric_scooter", "bike_id": "a33f71ab3865c854520621dd036504fb", "name": "a33f71ab3865c854520621dd036504fb"}, {"lon": -77.001208, "is_disabled": 0, "lat": 38.87370933333333, "fusion_lat": 0.0, "is_reserved": 0, "rental_uris": {"ios": "https://dc.lft.to/lastmile_qr_scan", "android": "https://dc.lft.to/lastmile_qr_scan"}, "fusion_lon": 0.0, "type": "electric_scooter", "bike_id": "f6fcac8537085a13573258a7467a1884", "name": "f6fcac8537085a13573258a7467a1884"}, {"lon": -77.02773383333333, "is_disabled": 0, "lat": 38.9287395, "fusion_lat": 0.0, "is_reserved": 0, "rental_uris": {"ios": "https://dc.lft.to/lastmile_qr_scan", "android": "https://dc.lft.to/lastmile_qr_scan"}, "fusion_lon": 0.0, "type": "electric_scooter", "bike_id": "3ec7057a193a249040ff0d678d68dcbb", "name": "3ec7057a193a249040ff0d678d68dcbb"}, {"lon": -77.0499835, "is_disabled": 0, "lat": 38.89230516666667, "fusion_lat": 0.0, "is_reserved": 0, "rental_uris": {"ios": "https://dc.lft.to/lastmile_qr_scan", "android": "https://dc.lft.to/lastmile_qr_scan"}, "fusion_lon": 0.0, "type": "electric_scooter", "bike_id": "ea1f6e7058e00eddd59181fc9e0d5455", "name": "ea1f6e7058e00eddd59181fc9e0d5455"}, {"lon": -76.98568716666666, "is_disabled": 0, "lat": 38.8999315, "fusion_lat": 0.0, "is_reserved": 0, "rental_uris": {"ios": "https://dc.lft.to/lastmile_qr_scan", "android": "https://dc.lft.to/lastmile_qr_scan"}, "fusion_lon": 0.0, "type": "electric_scooter", "bike_id": "99c8ce591762b96587f73461199ebf97", "name": "99c8ce591762b96587f73461199ebf97"}, {"lon": -76.9562425, "is_disabled": 0, "lat": 38.88508366666667, "fusion_lat": 0.0, "is_reserved": 0, "rental_uris": {"ios": "https://dc.lft.to/lastmile_qr_scan", "android": "https://dc.lft.to/lastmile_qr_scan"}, "fusion_lon": 0.0, "type": "electric_bike", "bike_id": "37d33edef716251434311e50b06b067f", "name": "37d33edef716251434311e50b06b067f"}, {"lon": -77.02278216666667, "is_disabled": 0, "lat": 38.9273165, "fusion_lat": 0.0, "is_reserved": 0, "rental_uris": {"ios": "https://dc.lft.to/lastmile_qr_scan", "android": "https://dc.lft.to/lastmile_qr_scan"}, "fusion_lon": 0.0, "type": "electric_scooter", "bike_id": "54b321f061d56b875801844f5f90879c", "name": "54b321f061d56b875801844f5f90879c"}, {"lon": -77.023882, "is_disabled": 0, "lat": 38.912695166666666, "fusion_lat": 0.0, "is_reserved": 0, "rental_uris": {"ios": "https://dc.lft.to/lastmile_qr_scan", "android": "https://dc.lft.to/lastmile_qr_scan"}, "fusion_lon": 0.0, "type": "electric_scooter", "bike_id": "0457f88e8c2a4a1274186c1b7fed3028", "name": "0457f88e8c2a4a1274186c1b7fed3028"}, {"lon": -77.001369, "is_disabled": 0, "lat": 38.9051615, "fusion_lat": 0.0, "is_reserved": 0, "rental_uris": {"ios": "https://dc.lft.to/lastmile_qr_scan", "android": "https://dc.lft.to/lastmile_qr_scan"}, "fusion_lon": 0.0, "type": "electric_scooter", "bike_id": "f01c3d33d262f6bf553f9492f24007f5", "name": "f01c3d33d262f6bf553f9492f24007f5"}, {"lon": -77.03994366666667, "is_disabled": 0, "lat": 38.90784166666667, "fusion_lat": 0.0, "is_reserved": 0, "rental_uris": {"ios": "https://dc.lft.to/lastmile_qr_scan", "android": "https://dc.lft.to/lastmile_qr_scan"}, "fusion_lon": 0.0, "type": "electric_scooter", "bike_id": "00111c0ab6f7248ee4f7bad766ff396a", "name": "00111c0ab6f7248ee4f7bad766ff396a"}, {"lon": -77.023068, "is_disabled": 0, "lat": 38.920604, "fusion_lat": 0.0, "is_reserved": 0, "rental_uris": {"ios": "https://dc.lft.to/lastmile_qr_scan", "android": "https://dc.lft.to/lastmile_qr_scan"}, "fusion_lon": 0.0, "type": "electric_scooter", "bike_id": "5623976dea3add18f2ee466c7699b2bf", "name": "5623976dea3add18f2ee466c7699b2bf"}, {"lon": -77.02485783333333, "is_disabled": 0, "lat": 38.90258083333333, "fusion_lat": 0.0, "is_reserved": 0, "rental_uris": {"ios": "https://dc.lft.to/lastmile_qr_scan", "android": "https://dc.lft.to/lastmile_qr_scan"}, "fusion_lon": 0.0, "type": "electric_scooter", "bike_id": "d45f7515774167f60765e278455fe400", "name": "d45f7515774167f60765e278455fe400"}, {"lon": -77.0165645, "is_disabled": 0, "lat": 38.881312, "fusion_lat": 0.0, "is_reserved": 0, "rental_uris": {"ios": "https://dc.lft.to/lastmile_qr_scan", "android": "https://dc.lft.to/lastmile_qr_scan"}, "fusion_lon": 0.0, "type": "electric_scooter", "bike_id": "d73077d352a9836c7a0ba00430fb068d", "name": "d73077d352a9836c7a0ba00430fb068d"}, {"lon": -77.181231, "is_disabled": 0, "lat": 38.93228916666666, "fusion_lat": 0.0, "is_reserved": 0, "rental_uris": {"ios": "https://dc.lft.to/lastmile_qr_scan", "android": "https://dc.lft.to/lastmile_qr_scan"}, "fusion_lon": 0.0, "type": "electric_bike", "bike_id": "fa1eee17fdb4a477e81961297a5826cb", "name": "fa1eee17fdb4a477e81961297a5826cb"}, {"lon": -77.03826483333333, "is_disabled": 0, "lat": 38.9125665, "fusion_lat": 0.0, "is_reserved": 0, "rental_uris": {"ios": "https://dc.lft.to/lastmile_qr_scan", "android": "https://dc.lft.to/lastmile_qr_scan"}, "fusion_lon": 0.0, "type": "electric_scooter", "bike_id": "af12a07f5fe1804f9d984ee4d31f4808", "name": "af12a07f5fe1804f9d984ee4d31f4808"}, {"lon": -77.02694066666666, "is_disabled": 0, "lat": 38.9256605, "fusion_lat": 0.0, "is_reserved": 0, "rental_uris": {"ios": "https://dc.lft.to/lastmile_qr_scan", "android": "https://dc.lft.to/lastmile_qr_scan"}, "fusion_lon": 0.0, "type": "electric_scooter", "bike_id": "cc225e533f1c0a88eb53fdbc661125fe", "name": "cc225e533f1c0a88eb53fdbc661125fe"}, {"lon": -76.9800065, "is_disabled": 0, "lat": 38.90680066666667, "fusion_lat": 0.0, "is_reserved": 0, "rental_uris": {"ios": "https://dc.lft.to/lastmile_qr_scan", "android": "https://dc.lft.to/lastmile_qr_scan"}, "fusion_lon": 0.0, "type": "electric_scooter", "bike_id": "144c84677c5df21f67fb1b7af8bf9fa2", "name": "144c84677c5df21f67fb1b7af8bf9fa2"}, {"lon": -77.00603816666667, "is_disabled": 0, "lat": 38.875884, "fusion_lat": 0.0, "is_reserved": 0, "rental_uris": {"ios": "https://dc.lft.to/lastmile_qr_scan", "android": "https://dc.lft.to/lastmile_qr_scan"}, "fusion_lon": 0.0, "type": "electric_scooter", "bike_id": "73b5edad9984be462493e47b51a3d7de", "name": "73b5edad9984be462493e47b51a3d7de"}, {"lon": -77.03240866666667, "is_disabled": 0, "lat": 38.907296333333335, "fusion_lat": 0.0, "is_reserved": 0, "rental_uris": {"ios": "https://dc.lft.to/lastmile_qr_scan", "android": "https://dc.lft.to/lastmile_qr_scan"}, "fusion_lon": 0.0, "type": "electric_scooter", "bike_id": "f16e17ad2249f1235cc809eca921bde6", "name": "f16e17ad2249f1235cc809eca921bde6"}, {"lon": -77.03829616666667, "is_disabled": 0, "lat": 38.931327333333336, "fusion_lat": 0.0, "is_reserved": 0, "rental_uris": {"ios": "https://dc.lft.to/lastmile_qr_scan", "android": "https://dc.lft.to/lastmile_qr_scan"}, "fusion_lon": 0.0, "type": "electric_scooter", "bike_id": "e851455089785bf13b4432f8b240630f", "name": "e851455089785bf13b4432f8b240630f"}, {"lon": -77.01355733333334, "is_disabled": 0, "lat": 38.871190166666665, "fusion_lat": 0.0, "is_reserved": 0, "rental_uris": {"ios": "https://dc.lft.to/lastmile_qr_scan", "android": "https://dc.lft.to/lastmile_qr_scan"}, "fusion_lon": 0.0, "type": "electric_scooter", "bike_id": "5be6832db41d913dd46e46b8109a3e7c", "name": "5be6832db41d913dd46e46b8109a3e7c"}, {"lon": -77.06274016666667, "is_disabled": 0, "lat": 38.905723333333334, "fusion_lat": 0.0, "is_reserved": 0, "rental_uris": {"ios": "https://dc.lft.to/lastmile_qr_scan", "android": "https://dc.lft.to/lastmile_qr_scan"}, "fusion_lon": 0.0, "type": "electric_scooter", "bike_id": "479870bd9c47b7aef96598c80b66e94a", "name": "479870bd9c47b7aef96598c80b66e94a"}, {"lon": -77.03399, "is_disabled": 0, "lat": 38.912537, "fusion_lat": 0.0, "is_reserved": 0, "rental_uris": {"ios": "https://dc.lft.to/lastmile_qr_scan", "android": "https://dc.lft.to/lastmile_qr_scan"}, "fusion_lon": 0.0, "type": "electric_scooter", "bike_id": "89f301acfc8d45d8aa2e53da6766d061", "name": "89f301acfc8d45d8aa2e53da6766d061"}, {"lon": -77.031786, "is_disabled": 0, "lat": 38.91714133333333, "fusion_lat": 0.0, "is_reserved": 0, "rental_uris": {"ios": "https://dc.lft.to/lastmile_qr_scan", "android": "https://dc.lft.to/lastmile_qr_scan"}, "fusion_lon": 0.0, "type": "electric_scooter", "bike_id": "5ac340b6f1576f5abeccabb9632a1d8e", "name": "5ac340b6f1576f5abeccabb9632a1d8e"}, {"lon": -77.0284585, "is_disabled": 0, "lat": 38.89364883333333, "fusion_lat": 0.0, "is_reserved": 0, "rental_uris": {"ios": "https://dc.lft.to/lastmile_qr_scan", "android": "https://dc.lft.to/lastmile_qr_scan"}, "fusion_lon": 0.0, "type": "electric_scooter", "bike_id": "1d57c90b16b13f7ea9508c43da501c61", "name": "1d57c90b16b13f7ea9508c43da501c61"}, {"lon": -77.00959083333333, "is_disabled": 0, "lat": 38.90660233333333, "fusion_lat": 0.0, "is_reserved": 0, "rental_uris": {"ios": "https://dc.lft.to/lastmile_qr_scan", "android": "https://dc.lft.to/lastmile_qr_scan"}, "fusion_lon": 0.0, "type": "electric_scooter", "bike_id": "837d4fbfa2bc8adc3e734bc2bc1cf048", "name": "837d4fbfa2bc8adc3e734bc2bc1cf048"}, {"lon": -77.03836566666666, "is_disabled": 0, "lat": 38.94193033333333, "fusion_lat": 0.0, "is_reserved": 0, "rental_uris": {"ios": "https://dc.lft.to/lastmile_qr_scan", "android": "https://dc.lft.to/lastmile_qr_scan"}, "fusion_lon": 0.0, "type": "electric_scooter", "bike_id": "5efec01c1b7643a106252ce2fb25062f", "name": "5efec01c1b7643a106252ce2fb25062f"}, {"lon": -77.02838383333334, "is_disabled": 0, "lat": 38.886562166666664, "fusion_lat": 0.0, "is_reserved": 0, "rental_uris": {"ios": "https://dc.lft.to/lastmile_qr_scan", "android": "https://dc.lft.to/lastmile_qr_scan"}, "fusion_lon": 0.0, "type": "electric_scooter", "bike_id": "7bddb3e2544f61fe82f401c8fe79af40", "name": "7bddb3e2544f61fe82f401c8fe79af40"}, {"lon": -77.02569516666667, "is_disabled": 0, "lat": 38.897263, "fusion_lat": 0.0, "is_reserved": 0, "rental_uris": {"ios": "https://dc.lft.to/lastmile_qr_scan", "android": "https://dc.lft.to/lastmile_qr_scan"}, "fusion_lon": 0.0, "type": "electric_scooter", "bike_id": "3079eca7d74d951e9f52516a7f095a09", "name": "3079eca7d74d951e9f52516a7f095a09"}, {"lon": -77.026958, "is_disabled": 0, "lat": 38.9086995, "fusion_lat": 0.0, "is_reserved": 0, "rental_uris": {"ios": "https://dc.lft.to/lastmile_qr_scan", "android": "https://dc.lft.to/lastmile_qr_scan"}, "fusion_lon": 0.0, "type": "electric_scooter", "bike_id": "1f5e02e0a238920c5151b90a6757c1e0", "name": "1f5e02e0a238920c5151b90a6757c1e0"}, {"lon": -77.02167333333334, "is_disabled": 0, "lat": 38.898951, "fusion_lat": 0.0, "is_reserved": 0, "rental_uris": {"ios": "https://dc.lft.to/lastmile_qr_scan", "android": "https://dc.lft.to/lastmile_qr_scan"}, "fusion_lon": 0.0, "type": "electric_scooter", "bike_id": "9c1721c359b5f34264d10c4d02556004", "name": "9c1721c359b5f34264d10c4d02556004"}, {"lon": -77.02698083333334, "is_disabled": 0, "lat": 38.904646666666665, "fusion_lat": 0.0, "is_reserved": 0, "rental_uris": {"ios": "https://dc.lft.to/lastmile_qr_scan", "android": "https://dc.lft.to/lastmile_qr_scan"}, "fusion_lon": 0.0, "type": "electric_scooter", "bike_id": "aac9d0b8183043e68679b126c57dbf4c", "name": "aac9d0b8183043e68679b126c57dbf4c"}, {"lon": -77.13470883333333, "is_disabled": 0, "lat": 38.85352733333333, "fusion_lat": 0.0, "is_reserved": 0, "rental_uris": {"ios": "https://dc.lft.to/lastmile_qr_scan", "android": "https://dc.lft.to/lastmile_qr_scan"}, "fusion_lon": 0.0, "type": "electric_bike", "bike_id": "d594c2b18aa75ca688a923e916c70d2a", "name": "d594c2b18aa75ca688a923e916c70d2a"}, {"lon": -77.048182, "is_disabled": 0, "lat": 38.916311, "fusion_lat": 0.0, "is_reserved": 0, "rental_uris": {"ios": "https://dc.lft.to/lastmile_qr_scan", "android": "https://dc.lft.to/lastmile_qr_scan"}, "fusion_lon": 0.0, "type": "electric_scooter", "bike_id": "7a16b5925e5c204a6b929638a40b5250", "name": "7a16b5925e5c204a6b929638a40b5250"}, {"lon": -77.02984233333333, "is_disabled": 0, "lat": 38.907189, "fusion_lat": 0.0, "is_reserved": 0, "rental_uris": {"ios": "https://dc.lft.to/lastmile_qr_scan", "android": "https://dc.lft.to/lastmile_qr_scan"}, "fusion_lon": 0.0, "type": "electric_scooter", "bike_id": "1733a136e00de3faa9e1f222d87cfc97", "name": "1733a136e00de3faa9e1f222d87cfc97"}, {"lon": -77.03522833333334, "is_disabled": 0, "lat": 38.935985333333335, "fusion_lat": 0.0, "is_reserved": 0, "rental_uris": {"ios": "https://dc.lft.to/lastmile_qr_scan", "android": "https://dc.lft.to/lastmile_qr_scan"}, "fusion_lon": 0.0, "type": "electric_scooter", "bike_id": "fb62cd68906b8821c5b1af9103bc5f4c", "name": "fb62cd68906b8821c5b1af9103bc5f4c"}, {"lon": -77.02136, "is_disabled": 0, "lat": 38.91552466666667, "fusion_lat": 0.0, "is_reserved": 0, "rental_uris": {"ios": "https://dc.lft.to/lastmile_qr_scan", "android": "https://dc.lft.to/lastmile_qr_scan"}, "fusion_lon": 0.0, "type": "electric_scooter", "bike_id": "69672660800e059d8155a09b83bd1924", "name": "69672660800e059d8155a09b83bd1924"}, {"lon": -77.05068466666667, "is_disabled": 0, "lat": 38.9253475, "fusion_lat": 0.0, "is_reserved": 0, "rental_uris": {"ios": "https://dc.lft.to/lastmile_qr_scan", "android": "https://dc.lft.to/lastmile_qr_scan"}, "fusion_lon": 0.0, "type": "electric_scooter", "bike_id": "ef4bc8f794eecc0dc24af5367c725907", "name": "ef4bc8f794eecc0dc24af5367c725907"}, {"lon": -77.01308416666667, "is_disabled": 0, "lat": 38.901361666666666, "fusion_lat": 0.0, "is_reserved": 0, "rental_uris": {"ios": "https://dc.lft.to/lastmile_qr_scan", "android": "https://dc.lft.to/lastmile_qr_scan"}, "fusion_lon": 0.0, "type": "electric_scooter", "bike_id": "355d9b66eb240c2349dbba8d1b98670e", "name": "355d9b66eb240c2349dbba8d1b98670e"}, {"lon": -76.98572366666667, "is_disabled": 0, "lat": 38.8667985, "fusion_lat": 0.0, "is_reserved": 0, "rental_uris": {"ios": "https://dc.lft.to/lastmile_qr_scan", "android": "https://dc.lft.to/lastmile_qr_scan"}, "fusion_lon": 0.0, "type": "electric_scooter", "bike_id": "6a58d14a7228e2073d952fc4531d321e", "name": "6a58d14a7228e2073d952fc4531d321e"}, {"lon": -77.0238665, "is_disabled": 0, "lat": 38.989695, "fusion_lat": 0.0, "is_reserved": 0, "rental_uris": {"ios": "https://dc.lft.to/lastmile_qr_scan", "android": "https://dc.lft.to/lastmile_qr_scan"}, "fusion_lon": 0.0, "type": "electric_bike", "bike_id": "ee1d373dec38b4a5e2b873b0624b335c", "name": "ee1d373dec38b4a5e2b873b0624b335c"}, {"lon": -76.98600016666667, "is_disabled": 0, "lat": 38.9037225, "fusion_lat": 0.0, "is_reserved": 0, "rental_uris": {"ios": "https://dc.lft.to/lastmile_qr_scan", "android": "https://dc.lft.to/lastmile_qr_scan"}, "fusion_lon": 0.0, "type": "electric_scooter", "bike_id": "fbffc394f13c6ac67081fcd0805539e3", "name": "fbffc394f13c6ac67081fcd0805539e3"}, {"lon": -77.03208633333334, "is_disabled": 0, "lat": 38.9070145, "fusion_lat": 0.0, "is_reserved": 0, "rental_uris": {"ios": "https://dc.lft.to/lastmile_qr_scan", "android": "https://dc.lft.to/lastmile_qr_scan"}, "fusion_lon": 0.0, "type": "electric_scooter", "bike_id": "6a458f39bf981a9601ded72a91748cfb", "name": "6a458f39bf981a9601ded72a91748cfb"}, {"lon": -77.033984, "is_disabled": 0, "lat": 38.92639583333333, "fusion_lat": 0.0, "is_reserved": 0, "rental_uris": {"ios": "https://dc.lft.to/lastmile_qr_scan", "android": "https://dc.lft.to/lastmile_qr_scan"}, "fusion_lon": 0.0, "type": "electric_scooter", "bike_id": "65bf794facb3f98efa868b31d36f7be8", "name": "65bf794facb3f98efa868b31d36f7be8"}, {"lon": -76.97977733333333, "is_disabled": 0, "lat": 38.897439, "fusion_lat": 0.0, "is_reserved": 0, "rental_uris": {"ios": "https://dc.lft.to/lastmile_qr_scan", "android": "https://dc.lft.to/lastmile_qr_scan"}, "fusion_lon": 0.0, "type": "electric_scooter", "bike_id": "5732f85b9a12f902d9e3b0befdc35b18", "name": "5732f85b9a12f902d9e3b0befdc35b18"}, {"lon": -77.03206933333334, "is_disabled": 0, "lat": 38.9185805, "fusion_lat": 0.0, "is_reserved": 0, "rental_uris": {"ios": "https://dc.lft.to/lastmile_qr_scan", "android": "https://dc.lft.to/lastmile_qr_scan"}, "fusion_lon": 0.0, "type": "electric_scooter", "bike_id": "d29e738a562cd279650b1f579f1c8325", "name": "d29e738a562cd279650b1f579f1c8325"}, {"lon": -76.98717566666667, "is_disabled": 0, "lat": 38.86699183333333, "fusion_lat": 0.0, "is_reserved": 0, "rental_uris": {"ios": "https://dc.lft.to/lastmile_qr_scan", "android": "https://dc.lft.to/lastmile_qr_scan"}, "fusion_lon": 0.0, "type": "electric_scooter", "bike_id": "4620344f78cb289201853b0a8a0587e6", "name": "4620344f78cb289201853b0a8a0587e6"}, {"lon": -76.99298483333334, "is_disabled": 0, "lat": 38.857644, "fusion_lat": 0.0, "is_reserved": 0, "rental_uris": {"ios": "https://dc.lft.to/lastmile_qr_scan", "android": "https://dc.lft.to/lastmile_qr_scan"}, "fusion_lon": 0.0, "type": "electric_scooter", "bike_id": "bc24b96568dde32a47f41d48392e59cc", "name": "bc24b96568dde32a47f41d48392e59cc"}, {"lon": -76.99849166666667, "is_disabled": 0, "lat": 38.89623266666667, "fusion_lat": 0.0, "is_reserved": 0, "rental_uris": {"ios": "https://dc.lft.to/lastmile_qr_scan", "android": "https://dc.lft.to/lastmile_qr_scan"}, "fusion_lon": 0.0, "type": "electric_scooter", "bike_id": "30d324d312331657c94fc04d7cf7c624", "name": "30d324d312331657c94fc04d7cf7c624"}, {"lon": -77.0431265, "is_disabled": 0, "lat": 38.905651, "fusion_lat": 0.0, "is_reserved": 0, "rental_uris": {"ios": "https://dc.lft.to/lastmile_qr_scan", "android": "https://dc.lft.to/lastmile_qr_scan"}, "fusion_lon": 0.0, "type": "electric_scooter", "bike_id": "520caeeaed6528028a37b4dd0a662e8d", "name": "520caeeaed6528028a37b4dd0a662e8d"}, {"lon": -77.043754, "is_disabled": 0, "lat": 38.92562233333334, "fusion_lat": 0.0, "is_reserved": 0, "rental_uris": {"ios": "https://dc.lft.to/lastmile_qr_scan", "android": "https://dc.lft.to/lastmile_qr_scan"}, "fusion_lon": 0.0, "type": "electric_scooter", "bike_id": "b1d0269fa72b0232d3980e9fc683053a", "name": "b1d0269fa72b0232d3980e9fc683053a"}, {"lon": -77.02267366666666, "is_disabled": 0, "lat": 38.89483333333333, "fusion_lat": 0.0, "is_reserved": 0, "rental_uris": {"ios": "https://dc.lft.to/lastmile_qr_scan", "android": "https://dc.lft.to/lastmile_qr_scan"}, "fusion_lon": 0.0, "type": "electric_scooter", "bike_id": "1137b7b32eed20280ddb985e8738ce7c", "name": "1137b7b32eed20280ddb985e8738ce7c"}, {"lon": -77.02640416666667, "is_disabled": 0, "lat": 38.984680833333336, "fusion_lat": 0.0, "is_reserved": 0, "rental_uris": {"ios": "https://dc.lft.to/lastmile_qr_scan", "android": "https://dc.lft.to/lastmile_qr_scan"}, "fusion_lon": 0.0, "type": "electric_scooter", "bike_id": "445bfbed6cdedf886bdc422fe6ebe0ec", "name": "445bfbed6cdedf886bdc422fe6ebe0ec"}, {"lon": -77.07355233333334, "is_disabled": 0, "lat": 38.93360833333333, "fusion_lat": 0.0, "is_reserved": 0, "rental_uris": {"ios": "https://dc.lft.to/lastmile_qr_scan", "android": "https://dc.lft.to/lastmile_qr_scan"}, "fusion_lon": 0.0, "type": "electric_scooter", "bike_id": "98e8446147fe5fc14cc12b9aab8596ae", "name": "98e8446147fe5fc14cc12b9aab8596ae"}, {"lon": -77.04138516666667, "is_disabled": 0, "lat": 38.924974, "fusion_lat": 0.0, "is_reserved": 0, "rental_uris": {"ios": "https://dc.lft.to/lastmile_qr_scan", "android": "https://dc.lft.to/lastmile_qr_scan"}, "fusion_lon": 0.0, "type": "electric_scooter", "bike_id": "24a2c82876a1c21234a57755cc73dcc9", "name": "24a2c82876a1c21234a57755cc73dcc9"}, {"lon": -77.0250045, "is_disabled": 0, "lat": 38.9427315, "fusion_lat": 0.0, "is_reserved": 0, "rental_uris": {"ios": "https://dc.lft.to/lastmile_qr_scan", "android": "https://dc.lft.to/lastmile_qr_scan"}, "fusion_lon": 0.0, "type": "electric_scooter", "bike_id": "27f33ba931ebfa3bd013c6fc207c1392", "name": "27f33ba931ebfa3bd013c6fc207c1392"}, {"lon": -77.02407583333333, "is_disabled": 0, "lat": 38.91676833333333, "fusion_lat": 0.0, "is_reserved": 0, "rental_uris": {"ios": "https://dc.lft.to/lastmile_qr_scan", "android": "https://dc.lft.to/lastmile_qr_scan"}, "fusion_lon": 0.0, "type": "electric_scooter", "bike_id": "85eb36d4be4452f8913c195602f54cc8", "name": "85eb36d4be4452f8913c195602f54cc8"}, {"lon": -77.04451483333334, "is_disabled": 0, "lat": 38.92547, "fusion_lat": 0.0, "is_reserved": 0, "rental_uris": {"ios": "https://dc.lft.to/lastmile_qr_scan", "android": "https://dc.lft.to/lastmile_qr_scan"}, "fusion_lon": 0.0, "type": "electric_scooter", "bike_id": "f702b928ece10fe2b6f0ed57a2e5ebd6", "name": "f702b928ece10fe2b6f0ed57a2e5ebd6"}, {"lon": -77.06198616666667, "is_disabled": 0, "lat": 38.933454, "fusion_lat": 0.0, "is_reserved": 0, "rental_uris": {"ios": "https://dc.lft.to/lastmile_qr_scan", "android": "https://dc.lft.to/lastmile_qr_scan"}, "fusion_lon": 0.0, "type": "electric_scooter", "bike_id": "997d445954f18daf10cd487a537d4e45", "name": "997d445954f18daf10cd487a537d4e45"}, {"lon": -77.04781483333333, "is_disabled": 0, "lat": 38.90507933333333, "fusion_lat": 0.0, "is_reserved": 0, "rental_uris": {"ios": "https://dc.lft.to/lastmile_qr_scan", "android": "https://dc.lft.to/lastmile_qr_scan"}, "fusion_lon": 0.0, "type": "electric_scooter", "bike_id": "e02f59061ae3709331d2d00178aefd84", "name": "e02f59061ae3709331d2d00178aefd84"}, {"lon": -77.03498183333333, "is_disabled": 0, "lat": 38.934587666666665, "fusion_lat": 0.0, "is_reserved": 0, "rental_uris": {"ios": "https://dc.lft.to/lastmile_qr_scan", "android": "https://dc.lft.to/lastmile_qr_scan"}, "fusion_lon": 0.0, "type": "electric_scooter", "bike_id": "4105c93d8d5fc5a20b54379f4415032d", "name": "4105c93d8d5fc5a20b54379f4415032d"}, {"lon": -77.01377183333334, "is_disabled": 0, "lat": 38.9194775, "fusion_lat": 0.0, "is_reserved": 0, "rental_uris": {"ios": "https://dc.lft.to/lastmile_qr_scan", "android": "https://dc.lft.to/lastmile_qr_scan"}, "fusion_lon": 0.0, "type": "electric_scooter", "bike_id": "5fc59e3a19cbe7e86494e3203f386b44", "name": "5fc59e3a19cbe7e86494e3203f386b44"}, {"lon": -77.06050516666667, "is_disabled": 0, "lat": 38.939168, "fusion_lat": 0.0, "is_reserved": 0, "rental_uris": {"ios": "https://dc.lft.to/lastmile_qr_scan", "android": "https://dc.lft.to/lastmile_qr_scan"}, "fusion_lon": 0.0, "type": "electric_scooter", "bike_id": "867294e7fa333856254e7787a2ea4014", "name": "867294e7fa333856254e7787a2ea4014"}, {"lon": -77.0220415, "is_disabled": 0, "lat": 38.9103415, "fusion_lat": 0.0, "is_reserved": 0, "rental_uris": {"ios": "https://dc.lft.to/lastmile_qr_scan", "android": "https://dc.lft.to/lastmile_qr_scan"}, "fusion_lon": 0.0, "type": "electric_scooter", "bike_id": "0841a17ea387176ed6344fa8a31320ce", "name": "0841a17ea387176ed6344fa8a31320ce"}, {"lon": -77.0258245, "is_disabled": 0, "lat": 38.91490733333333, "fusion_lat": 0.0, "is_reserved": 0, "rental_uris": {"ios": "https://dc.lft.to/lastmile_qr_scan", "android": "https://dc.lft.to/lastmile_qr_scan"}, "fusion_lon": 0.0, "type": "electric_scooter", "bike_id": "e7fe072dd823501aba4dcfae121c7c0f", "name": "e7fe072dd823501aba4dcfae121c7c0f"}, {"lon": -77.0430665, "is_disabled": 0, "lat": 38.9091365, "fusion_lat": 0.0, "is_reserved": 0, "rental_uris": {"ios": "https://dc.lft.to/lastmile_qr_scan", "android": "https://dc.lft.to/lastmile_qr_scan"}, "fusion_lon": 0.0, "type": "electric_scooter", "bike_id": "2d709d460b89de5c057ad730118c0718", "name": "2d709d460b89de5c057ad730118c0718"}, {"lon": -77.02863033333334, "is_disabled": 0, "lat": 39.036997166666666, "fusion_lat": 0.0, "is_reserved": 0, "rental_uris": {"ios": "https://dc.lft.to/lastmile_qr_scan", "android": "https://dc.lft.to/lastmile_qr_scan"}, "fusion_lon": 0.0, "type": "electric_bike", "bike_id": "8f20b07b0ec643e86b48a8625ccd4f56", "name": "8f20b07b0ec643e86b48a8625ccd4f56"}, {"lon": -76.9896815, "is_disabled": 0, "lat": 38.90336166666667, "fusion_lat": 0.0, "is_reserved": 0, "rental_uris": {"ios": "https://dc.lft.to/lastmile_qr_scan", "android": "https://dc.lft.to/lastmile_qr_scan"}, "fusion_lon": 0.0, "type": "electric_scooter", "bike_id": "0d43748c5571c0d786038612cf222b3b", "name": "0d43748c5571c0d786038612cf222b3b"}, {"lon": -77.026142, "is_disabled": 0, "lat": 38.91415816666667, "fusion_lat": 0.0, "is_reserved": 0, "rental_uris": {"ios": "https://dc.lft.to/lastmile_qr_scan", "android": "https://dc.lft.to/lastmile_qr_scan"}, "fusion_lon": 0.0, "type": "electric_scooter", "bike_id": "44d1fc11286bdb683183ccc77efa28f8", "name": "44d1fc11286bdb683183ccc77efa28f8"}, {"lon": -77.048348, "is_disabled": 0, "lat": 38.89841033333333, "fusion_lat": 0.0, "is_reserved": 0, "rental_uris": {"ios": "https://dc.lft.to/lastmile_qr_scan", "android": "https://dc.lft.to/lastmile_qr_scan"}, "fusion_lon": 0.0, "type": "electric_scooter", "bike_id": "14388666c80feaaad97106b49a3f4738", "name": "14388666c80feaaad97106b49a3f4738"}, {"lon": -77.06399566666667, "is_disabled": 0, "lat": 38.944183833333334, "fusion_lat": 0.0, "is_reserved": 0, "rental_uris": {"ios": "https://dc.lft.to/lastmile_qr_scan", "android": "https://dc.lft.to/lastmile_qr_scan"}, "fusion_lon": 0.0, "type": "electric_scooter", "bike_id": "8333a3d4d7b573ea04415cd91a0c24f1", "name": "8333a3d4d7b573ea04415cd91a0c24f1"}, {"lon": -76.95864733333333, "is_disabled": 0, "lat": 38.8756255, "fusion_lat": 0.0, "is_reserved": 0, "rental_uris": {"ios": "https://dc.lft.to/lastmile_qr_scan", "android": "https://dc.lft.to/lastmile_qr_scan"}, "fusion_lon": 0.0, "type": "electric_scooter", "bike_id": "1e31aea197c155c75e127b2959ccc73f", "name": "1e31aea197c155c75e127b2959ccc73f"}, {"lon": -77.02209833333333, "is_disabled": 0, "lat": 38.929962, "fusion_lat": 0.0, "is_reserved": 0, "rental_uris": {"ios": "https://dc.lft.to/lastmile_qr_scan", "android": "https://dc.lft.to/lastmile_qr_scan"}, "fusion_lon": 0.0, "type": "electric_scooter", "bike_id": "a43d2b73ee3f9a571d584aa9c7feaa81", "name": "a43d2b73ee3f9a571d584aa9c7feaa81"}, {"lon": -77.02298383333333, "is_disabled": 0, "lat": 38.9158925, "fusion_lat": 0.0, "is_reserved": 0, "rental_uris": {"ios": "https://dc.lft.to/lastmile_qr_scan", "android": "https://dc.lft.to/lastmile_qr_scan"}, "fusion_lon": 0.0, "type": "electric_scooter", "bike_id": "c6c5ccc2b47e953b9695571fc238cd05", "name": "c6c5ccc2b47e953b9695571fc238cd05"}, {"lon": -77.01914016666667, "is_disabled": 0, "lat": 38.93775766666667, "fusion_lat": 0.0, "is_reserved": 0, "rental_uris": {"ios": "https://dc.lft.to/lastmile_qr_scan", "android": "https://dc.lft.to/lastmile_qr_scan"}, "fusion_lon": 0.0, "type": "electric_bike", "bike_id": "3be22a84e7b0679e235af0b9fe38f6f4", "name": "3be22a84e7b0679e235af0b9fe38f6f4"}, {"lon": -77.0808625, "is_disabled": 0, "lat": 38.950921, "fusion_lat": 0.0, "is_reserved": 0, "rental_uris": {"ios": "https://dc.lft.to/lastmile_qr_scan", "android": "https://dc.lft.to/lastmile_qr_scan"}, "fusion_lon": 0.0, "type": "electric_bike", "bike_id": "ffde6992b0dee4ea9a8a7e7efa19fdd6", "name": "ffde6992b0dee4ea9a8a7e7efa19fdd6"}, {"lon": -77.00270233333333, "is_disabled": 0, "lat": 38.9110855, "fusion_lat": 0.0, "is_reserved": 0, "rental_uris": {"ios": "https://dc.lft.to/lastmile_qr_scan", "android": "https://dc.lft.to/lastmile_qr_scan"}, "fusion_lon": 0.0, "type": "electric_scooter", "bike_id": "10cbc576dded935d85002b45e39ea785", "name": "10cbc576dded935d85002b45e39ea785"}, {"lon": -77.02946416666667, "is_disabled": 0, "lat": 38.9257745, "fusion_lat": 0.0, "is_reserved": 0, "rental_uris": {"ios": "https://dc.lft.to/lastmile_qr_scan", "android": "https://dc.lft.to/lastmile_qr_scan"}, "fusion_lon": 0.0, "type": "electric_scooter", "bike_id": "61c335b88cac378a213fba4138e34629", "name": "61c335b88cac378a213fba4138e34629"}, {"lon": -76.99564066666667, "is_disabled": 0, "lat": 38.885998, "fusion_lat": 0.0, "is_reserved": 0, "rental_uris": {"ios": "https://dc.lft.to/lastmile_qr_scan", "android": "https://dc.lft.to/lastmile_qr_scan"}, "fusion_lon": 0.0, "type": "electric_scooter", "bike_id": "d87b175c724c9879819643a5c7e0d406", "name": "d87b175c724c9879819643a5c7e0d406"}, {"lon": -76.99569966666667, "is_disabled": 0, "lat": 38.89211783333333, "fusion_lat": 0.0, "is_reserved": 0, "rental_uris": {"ios": "https://dc.lft.to/lastmile_qr_scan", "android": "https://dc.lft.to/lastmile_qr_scan"}, "fusion_lon": 0.0, "type": "electric_scooter", "bike_id": "ba20daad5e9ab35e5591463c7c243589", "name": "ba20daad5e9ab35e5591463c7c243589"}, {"lon": -77.016831, "is_disabled": 0, "lat": 38.88134733333333, "fusion_lat": 0.0, "is_reserved": 0, "rental_uris": {"ios": "https://dc.lft.to/lastmile_qr_scan", "android": "https://dc.lft.to/lastmile_qr_scan"}, "fusion_lon": 0.0, "type": "electric_bike", "bike_id": "5bc8aac629f07ef9eb723d6540ac3a70", "name": "5bc8aac629f07ef9eb723d6540ac3a70"}, {"lon": -77.0952875, "is_disabled": 0, "lat": 38.847312333333335, "fusion_lat": 0.0, "is_reserved": 0, "rental_uris": {"ios": "https://dc.lft.to/lastmile_qr_scan", "android": "https://dc.lft.to/lastmile_qr_scan"}, "fusion_lon": 0.0, "type": "electric_bike", "bike_id": "9dc0f6161de395180646e0c7887e1d5e", "name": "9dc0f6161de395180646e0c7887e1d5e"}, {"lon": -77.039823, "is_disabled": 0, "lat": 38.902835833333334, "fusion_lat": 0.0, "is_reserved": 0, "rental_uris": {"ios": "https://dc.lft.to/lastmile_qr_scan", "android": "https://dc.lft.to/lastmile_qr_scan"}, "fusion_lon": 0.0, "type": "electric_scooter", "bike_id": "0fb5c3f2ab546482363b086692464bec", "name": "0fb5c3f2ab546482363b086692464bec"}, {"lon": -77.03626466666667, "is_disabled": 0, "lat": 38.96547616666667, "fusion_lat": 0.0, "is_reserved": 0, "rental_uris": {"ios": "https://dc.lft.to/lastmile_qr_scan", "android": "https://dc.lft.to/lastmile_qr_scan"}, "fusion_lon": 0.0, "type": "electric_scooter", "bike_id": "58c0cc5820ffba2aa09e192bc346a71f", "name": "58c0cc5820ffba2aa09e192bc346a71f"}, {"lon": -77.03225483333334, "is_disabled": 0, "lat": 38.9086685, "fusion_lat": 0.0, "is_reserved": 0, "rental_uris": {"ios": "https://dc.lft.to/lastmile_qr_scan", "android": "https://dc.lft.to/lastmile_qr_scan"}, "fusion_lon": 0.0, "type": "electric_scooter", "bike_id": "b54f0e9eb1eefaf7054bccb7477d3754", "name": "b54f0e9eb1eefaf7054bccb7477d3754"}, {"lon": -77.06300733333333, "is_disabled": 0, "lat": 38.90532133333333, "fusion_lat": 0.0, "is_reserved": 0, "rental_uris": {"ios": "https://dc.lft.to/lastmile_qr_scan", "android": "https://dc.lft.to/lastmile_qr_scan"}, "fusion_lon": 0.0, "type": "electric_scooter", "bike_id": "e6eeddb559d452a147c30194037c297f", "name": "e6eeddb559d452a147c30194037c297f"}, {"lon": -77.03016766666667, "is_disabled": 0, "lat": 38.928603, "fusion_lat": 0.0, "is_reserved": 0, "rental_uris": {"ios": "https://dc.lft.to/lastmile_qr_scan", "android": "https://dc.lft.to/lastmile_qr_scan"}, "fusion_lon": 0.0, "type": "electric_scooter", "bike_id": "602ea28212144dc6e10e1065a6470358", "name": "602ea28212144dc6e10e1065a6470358"}, {"lon": -77.02176883333334, "is_disabled": 0, "lat": 38.92001883333333, "fusion_lat": 0.0, "is_reserved": 0, "rental_uris": {"ios": "https://dc.lft.to/lastmile_qr_scan", "android": "https://dc.lft.to/lastmile_qr_scan"}, "fusion_lon": 0.0, "type": "electric_scooter", "bike_id": "2c36d7469ac58eef215fcd8c00008e73", "name": "2c36d7469ac58eef215fcd8c00008e73"}, {"lon": -77.02215816666667, "is_disabled": 0, "lat": 38.91268216666667, "fusion_lat": 0.0, "is_reserved": 0, "rental_uris": {"ios": "https://dc.lft.to/lastmile_qr_scan", "android": "https://dc.lft.to/lastmile_qr_scan"}, "fusion_lon": 0.0, "type": "electric_scooter", "bike_id": "fc7db1ed6fc9872244e39d2e5b68d846", "name": "fc7db1ed6fc9872244e39d2e5b68d846"}, {"lon": -77.095232, "is_disabled": 0, "lat": 38.83810966666667, "fusion_lat": 0.0, "is_reserved": 0, "rental_uris": {"ios": "https://dc.lft.to/lastmile_qr_scan", "android": "https://dc.lft.to/lastmile_qr_scan"}, "fusion_lon": 0.0, "type": "electric_bike", "bike_id": "85d63b4bcfc833e7be2fa85b2385e05a", "name": "85d63b4bcfc833e7be2fa85b2385e05a"}, {"lon": -77.0267675, "is_disabled": 0, "lat": 38.914142, "fusion_lat": 0.0, "is_reserved": 0, "rental_uris": {"ios": "https://dc.lft.to/lastmile_qr_scan", "android": "https://dc.lft.to/lastmile_qr_scan"}, "fusion_lon": 0.0, "type": "electric_scooter", "bike_id": "3ae9d314f008eb99a080d00ca5d18bbf", "name": "3ae9d314f008eb99a080d00ca5d18bbf"}, {"lon": -77.02354066666666, "is_disabled": 0, "lat": 38.935378166666666, "fusion_lat": 0.0, "is_reserved": 0, "rental_uris": {"ios": "https://dc.lft.to/lastmile_qr_scan", "android": "https://dc.lft.to/lastmile_qr_scan"}, "fusion_lon": 0.0, "type": "electric_scooter", "bike_id": "80d3b2abfee3909230cbd27af342cf1e", "name": "80d3b2abfee3909230cbd27af342cf1e"}, {"lon": -77.022818, "is_disabled": 0, "lat": 38.8948725, "fusion_lat": 0.0, "is_reserved": 0, "rental_uris": {"ios": "https://dc.lft.to/lastmile_qr_scan", "android": "https://dc.lft.to/lastmile_qr_scan"}, "fusion_lon": 0.0, "type": "electric_scooter", "bike_id": "9ab9175b907c9b1f59c0b14bec24459d", "name": "9ab9175b907c9b1f59c0b14bec24459d"}, {"lon": -77.0221605, "is_disabled": 0, "lat": 38.902071166666666, "fusion_lat": 0.0, "is_reserved": 0, "rental_uris": {"ios": "https://dc.lft.to/lastmile_qr_scan", "android": "https://dc.lft.to/lastmile_qr_scan"}, "fusion_lon": 0.0, "type": "electric_scooter", "bike_id": "a1b6e45f24e0fbfe912438e6ab328c46", "name": "a1b6e45f24e0fbfe912438e6ab328c46"}, {"lon": -76.96111716666667, "is_disabled": 0, "lat": 38.918577166666665, "fusion_lat": 0.0, "is_reserved": 0, "rental_uris": {"ios": "https://dc.lft.to/lastmile_qr_scan", "android": "https://dc.lft.to/lastmile_qr_scan"}, "fusion_lon": 0.0, "type": "electric_scooter", "bike_id": "7767f056ae3c8da07850112887f3f0e7", "name": "7767f056ae3c8da07850112887f3f0e7"}, {"lon": -77.05042783333333, "is_disabled": 0, "lat": 38.923453, "fusion_lat": 0.0, "is_reserved": 0, "rental_uris": {"ios": "https://dc.lft.to/lastmile_qr_scan", "android": "https://dc.lft.to/lastmile_qr_scan"}, "fusion_lon": 0.0, "type": "electric_scooter", "bike_id": "8c3390d39a662b819e1659fc6317de7a", "name": "8c3390d39a662b819e1659fc6317de7a"}, {"lon": -77.04459383333334, "is_disabled": 0, "lat": 38.911752, "fusion_lat": 0.0, "is_reserved": 0, "rental_uris": {"ios": "https://dc.lft.to/lastmile_qr_scan", "android": "https://dc.lft.to/lastmile_qr_scan"}, "fusion_lon": 0.0, "type": "electric_scooter", "bike_id": "a4d3e77093d560171515ed49c90ebe26", "name": "a4d3e77093d560171515ed49c90ebe26"}, {"lon": -77.038691, "is_disabled": 0, "lat": 38.91255916666667, "fusion_lat": 0.0, "is_reserved": 0, "rental_uris": {"ios": "https://dc.lft.to/lastmile_qr_scan", "android": "https://dc.lft.to/lastmile_qr_scan"}, "fusion_lon": 0.0, "type": "electric_scooter", "bike_id": "19b7a4ec00184ceb68e8cf8f744d73ef", "name": "19b7a4ec00184ceb68e8cf8f744d73ef"}, {"lon": -77.021293, "is_disabled": 0, "lat": 38.92117983333333, "fusion_lat": 0.0, "is_reserved": 0, "rental_uris": {"ios": "https://dc.lft.to/lastmile_qr_scan", "android": "https://dc.lft.to/lastmile_qr_scan"}, "fusion_lon": 0.0, "type": "electric_scooter", "bike_id": "aa3e7ab3d0885be49ad0959d76fabfdc", "name": "aa3e7ab3d0885be49ad0959d76fabfdc"}, {"lon": -77.04234583333333, "is_disabled": 0, "lat": 38.9206725, "fusion_lat": 0.0, "is_reserved": 0, "rental_uris": {"ios": "https://dc.lft.to/lastmile_qr_scan", "android": "https://dc.lft.to/lastmile_qr_scan"}, "fusion_lon": 0.0, "type": "electric_scooter", "bike_id": "732bd9f6b0224b8f1de0a6adc8fcbce8", "name": "732bd9f6b0224b8f1de0a6adc8fcbce8"}, {"lon": -77.0038455, "is_disabled": 0, "lat": 38.8954565, "fusion_lat": 0.0, "is_reserved": 0, "rental_uris": {"ios": "https://dc.lft.to/lastmile_qr_scan", "android": "https://dc.lft.to/lastmile_qr_scan"}, "fusion_lon": 0.0, "type": "electric_scooter", "bike_id": "a7983b8612184ecb7cc3b675cd89817c", "name": "a7983b8612184ecb7cc3b675cd89817c"}, {"lon": -77.06396116666667, "is_disabled": 0, "lat": 38.944205833333335, "fusion_lat": 0.0, "is_reserved": 0, "rental_uris": {"ios": "https://dc.lft.to/lastmile_qr_scan", "android": "https://dc.lft.to/lastmile_qr_scan"}, "fusion_lon": 0.0, "type": "electric_scooter", "bike_id": "656b867e24d16769ee370ce8ea6095ef", "name": "656b867e24d16769ee370ce8ea6095ef"}, {"lon": -76.98377583333334, "is_disabled": 0, "lat": 38.9149825, "fusion_lat": 0.0, "is_reserved": 0, "rental_uris": {"ios": "https://dc.lft.to/lastmile_qr_scan", "android": "https://dc.lft.to/lastmile_qr_scan"}, "fusion_lon": 0.0, "type": "electric_scooter", "bike_id": "955de3b72fd0dc337082e0ffcb058df8", "name": "955de3b72fd0dc337082e0ffcb058df8"}, {"lon": -77.02813916666666, "is_disabled": 0, "lat": 38.908966666666664, "fusion_lat": 0.0, "is_reserved": 0, "rental_uris": {"ios": "https://dc.lft.to/lastmile_qr_scan", "android": "https://dc.lft.to/lastmile_qr_scan"}, "fusion_lon": 0.0, "type": "electric_scooter", "bike_id": "20a7a17ecd31635ebe67d0fc2308dbd4", "name": "20a7a17ecd31635ebe67d0fc2308dbd4"}, {"lon": -77.01946666666667, "is_disabled": 0, "lat": 38.924254166666664, "fusion_lat": 0.0, "is_reserved": 0, "rental_uris": {"ios": "https://dc.lft.to/lastmile_qr_scan", "android": "https://dc.lft.to/lastmile_qr_scan"}, "fusion_lon": 0.0, "type": "electric_scooter", "bike_id": "25de4570d224a0b473641c51b6327d4d", "name": "25de4570d224a0b473641c51b6327d4d"}, {"lon": -77.027311, "is_disabled": 0, "lat": 38.933579, "fusion_lat": 0.0, "is_reserved": 0, "rental_uris": {"ios": "https://dc.lft.to/lastmile_qr_scan", "android": "https://dc.lft.to/lastmile_qr_scan"}, "fusion_lon": 0.0, "type": "electric_scooter", "bike_id": "bb8faa89d919ce9bf5edca99d7660f69", "name": "bb8faa89d919ce9bf5edca99d7660f69"}, {"lon": -77.03897416666666, "is_disabled": 0, "lat": 38.923343333333335, "fusion_lat": 0.0, "is_reserved": 0, "rental_uris": {"ios": "https://dc.lft.to/lastmile_qr_scan", "android": "https://dc.lft.to/lastmile_qr_scan"}, "fusion_lon": 0.0, "type": "electric_scooter", "bike_id": "d12d77732a662672a60ba482b2023e82", "name": "d12d77732a662672a60ba482b2023e82"}, {"lon": -77.027105, "is_disabled": 0, "lat": 38.919629, "fusion_lat": 0.0, "is_reserved": 0, "rental_uris": {"ios": "https://dc.lft.to/lastmile_qr_scan", "android": "https://dc.lft.to/lastmile_qr_scan"}, "fusion_lon": 0.0, "type": "electric_scooter", "bike_id": "9dca84e81a05b0add76acd96e540603b", "name": "9dca84e81a05b0add76acd96e540603b"}, {"lon": -77.03576333333334, "is_disabled": 0, "lat": 38.936808666666664, "fusion_lat": 0.0, "is_reserved": 0, "rental_uris": {"ios": "https://dc.lft.to/lastmile_qr_scan", "android": "https://dc.lft.to/lastmile_qr_scan"}, "fusion_lon": 0.0, "type": "electric_scooter", "bike_id": "3c6335545641be4c9a4941927c5a9f8f", "name": "3c6335545641be4c9a4941927c5a9f8f"}, {"lon": -77.06433183333333, "is_disabled": 0, "lat": 38.94598216666667, "fusion_lat": 0.0, "is_reserved": 0, "rental_uris": {"ios": "https://dc.lft.to/lastmile_qr_scan", "android": "https://dc.lft.to/lastmile_qr_scan"}, "fusion_lon": 0.0, "type": "electric_scooter", "bike_id": "c59060e2c39f3236981a8479d9911f24", "name": "c59060e2c39f3236981a8479d9911f24"}, {"lon": -77.00200533333333, "is_disabled": 0, "lat": 38.9160115, "fusion_lat": 0.0, "is_reserved": 0, "rental_uris": {"ios": "https://dc.lft.to/lastmile_qr_scan", "android": "https://dc.lft.to/lastmile_qr_scan"}, "fusion_lon": 0.0, "type": "electric_scooter", "bike_id": "19a2972a45049acd137a883fa5cc0f9a", "name": "19a2972a45049acd137a883fa5cc0f9a"}, {"lon": -77.04816983333333, "is_disabled": 0, "lat": 38.90256433333333, "fusion_lat": 0.0, "is_reserved": 0, "rental_uris": {"ios": "https://dc.lft.to/lastmile_qr_scan", "android": "https://dc.lft.to/lastmile_qr_scan"}, "fusion_lon": 0.0, "type": "electric_scooter", "bike_id": "07ac612f29f09908efd469b45c5449bf", "name": "07ac612f29f09908efd469b45c5449bf"}, {"lon": -77.01845233333333, "is_disabled": 0, "lat": 38.94633066666667, "fusion_lat": 0.0, "is_reserved": 0, "rental_uris": {"ios": "https://dc.lft.to/lastmile_qr_scan", "android": "https://dc.lft.to/lastmile_qr_scan"}, "fusion_lon": 0.0, "type": "electric_scooter", "bike_id": "d5dfea52d58f712a2d7c8bc84e222608", "name": "d5dfea52d58f712a2d7c8bc84e222608"}, {"lon": -77.02686733333333, "is_disabled": 0, "lat": 38.8944935, "fusion_lat": 0.0, "is_reserved": 0, "rental_uris": {"ios": "https://dc.lft.to/lastmile_qr_scan", "android": "https://dc.lft.to/lastmile_qr_scan"}, "fusion_lon": 0.0, "type": "electric_scooter", "bike_id": "a9cb19c0e66a8f99d7b9a8591d24aa33", "name": "a9cb19c0e66a8f99d7b9a8591d24aa33"}, {"lon": -77.02531633333334, "is_disabled": 0, "lat": 38.941239833333334, "fusion_lat": 0.0, "is_reserved": 0, "rental_uris": {"ios": "https://dc.lft.to/lastmile_qr_scan", "android": "https://dc.lft.to/lastmile_qr_scan"}, "fusion_lon": 0.0, "type": "electric_scooter", "bike_id": "9d574556b0075ec98b242b5a1c27d13c", "name": "9d574556b0075ec98b242b5a1c27d13c"}, {"lon": -77.0020905, "is_disabled": 0, "lat": 38.965517, "fusion_lat": 0.0, "is_reserved": 0, "rental_uris": {"ios": "https://dc.lft.to/lastmile_qr_scan", "android": "https://dc.lft.to/lastmile_qr_scan"}, "fusion_lon": 0.0, "type": "electric_scooter", "bike_id": "e05c252318305f71beab82e4e0e2d640", "name": "e05c252318305f71beab82e4e0e2d640"}, {"lon": -77.02453566666667, "is_disabled": 0, "lat": 38.91873066666667, "fusion_lat": 0.0, "is_reserved": 0, "rental_uris": {"ios": "https://dc.lft.to/lastmile_qr_scan", "android": "https://dc.lft.to/lastmile_qr_scan"}, "fusion_lon": 0.0, "type": "electric_scooter", "bike_id": "fcbdc04ed0c8636ffefabe55b2478699", "name": "fcbdc04ed0c8636ffefabe55b2478699"}, {"lon": -77.05731766666666, "is_disabled": 0, "lat": 38.933581, "fusion_lat": 0.0, "is_reserved": 0, "rental_uris": {"ios": "https://dc.lft.to/lastmile_qr_scan", "android": "https://dc.lft.to/lastmile_qr_scan"}, "fusion_lon": 0.0, "type": "electric_scooter", "bike_id": "0bb91c2f768fb788a085b566617ff830", "name": "0bb91c2f768fb788a085b566617ff830"}, {"lon": -77.03519583333333, "is_disabled": 0, "lat": 38.922512, "fusion_lat": 0.0, "is_reserved": 0, "rental_uris": {"ios": "https://dc.lft.to/lastmile_qr_scan", "android": "https://dc.lft.to/lastmile_qr_scan"}, "fusion_lon": 0.0, "type": "electric_scooter", "bike_id": "d4ab6fe298fc784e2b822c18aa3b8a8a", "name": "d4ab6fe298fc784e2b822c18aa3b8a8a"}, {"lon": -77.04865383333333, "is_disabled": 0, "lat": 38.892222833333335, "fusion_lat": 0.0, "is_reserved": 0, "rental_uris": {"ios": "https://dc.lft.to/lastmile_qr_scan", "android": "https://dc.lft.to/lastmile_qr_scan"}, "fusion_lon": 0.0, "type": "electric_scooter", "bike_id": "6740d222e800cc0c7776077b1246260c", "name": "6740d222e800cc0c7776077b1246260c"}, {"lon": -77.04005983333333, "is_disabled": 0, "lat": 38.903234, "fusion_lat": 0.0, "is_reserved": 0, "rental_uris": {"ios": "https://dc.lft.to/lastmile_qr_scan", "android": "https://dc.lft.to/lastmile_qr_scan"}, "fusion_lon": 0.0, "type": "electric_scooter", "bike_id": "bb4df0118338bfb9f2b5b1994e4de2e2", "name": "bb4df0118338bfb9f2b5b1994e4de2e2"}, {"lon": -77.01746566666667, "is_disabled": 0, "lat": 38.917127666666666, "fusion_lat": 0.0, "is_reserved": 0, "rental_uris": {"ios": "https://dc.lft.to/lastmile_qr_scan", "android": "https://dc.lft.to/lastmile_qr_scan"}, "fusion_lon": 0.0, "type": "electric_scooter", "bike_id": "c5e9c19970c5dd328ab4fb2bd32a5c19", "name": "c5e9c19970c5dd328ab4fb2bd32a5c19"}, {"lon": -77.08863866666667, "is_disabled": 0, "lat": 38.9163995, "fusion_lat": 0.0, "is_reserved": 0, "rental_uris": {"ios": "https://dc.lft.to/lastmile_qr_scan", "android": "https://dc.lft.to/lastmile_qr_scan"}, "fusion_lon": 0.0, "type": "electric_scooter", "bike_id": "9decd5b0d6e694d867d2de6b6d5de13e", "name": "9decd5b0d6e694d867d2de6b6d5de13e"}, {"lon": -76.98145616666666, "is_disabled": 0, "lat": 38.897494333333334, "fusion_lat": 0.0, "is_reserved": 0, "rental_uris": {"ios": "https://dc.lft.to/lastmile_qr_scan", "android": "https://dc.lft.to/lastmile_qr_scan"}, "fusion_lon": 0.0, "type": "electric_scooter", "bike_id": "eac3a51dff1cfb1598beb6558b42e783", "name": "eac3a51dff1cfb1598beb6558b42e783"}, {"lon": -77.0040015, "is_disabled": 0, "lat": 38.921333833333335, "fusion_lat": 0.0, "is_reserved": 0, "rental_uris": {"ios": "https://dc.lft.to/lastmile_qr_scan", "android": "https://dc.lft.to/lastmile_qr_scan"}, "fusion_lon": 0.0, "type": "electric_scooter", "bike_id": "efb068dacc1f582f2ece1dd02d0ef36e", "name": "efb068dacc1f582f2ece1dd02d0ef36e"}, {"lon": -76.95950483333333, "is_disabled": 0, "lat": 38.86192233333333, "fusion_lat": 0.0, "is_reserved": 0, "rental_uris": {"ios": "https://dc.lft.to/lastmile_qr_scan", "android": "https://dc.lft.to/lastmile_qr_scan"}, "fusion_lon": 0.0, "type": "electric_scooter", "bike_id": "7af23b61af69cd6c80355c82b4e46050", "name": "7af23b61af69cd6c80355c82b4e46050"}, {"lon": -77.0445715, "is_disabled": 0, "lat": 38.91543083333333, "fusion_lat": 0.0, "is_reserved": 0, "rental_uris": {"ios": "https://dc.lft.to/lastmile_qr_scan", "android": "https://dc.lft.to/lastmile_qr_scan"}, "fusion_lon": 0.0, "type": "electric_scooter", "bike_id": "024dd3c9940a9c71b7d252371a99ddd2", "name": "024dd3c9940a9c71b7d252371a99ddd2"}, {"lon": -77.02219683333334, "is_disabled": 0, "lat": 38.896167, "fusion_lat": 0.0, "is_reserved": 0, "rental_uris": {"ios": "https://dc.lft.to/lastmile_qr_scan", "android": "https://dc.lft.to/lastmile_qr_scan"}, "fusion_lon": 0.0, "type": "electric_scooter", "bike_id": "5f01bec4ccb023cc046c8b5b1254fcb6", "name": "5f01bec4ccb023cc046c8b5b1254fcb6"}, {"lon": -76.9650675, "is_disabled": 0, "lat": 38.8764905, "fusion_lat": 0.0, "is_reserved": 0, "rental_uris": {"ios": "https://dc.lft.to/lastmile_qr_scan", "android": "https://dc.lft.to/lastmile_qr_scan"}, "fusion_lon": 0.0, "type": "electric_scooter", "bike_id": "652894767fb20992b94e3b0bd54bd33c", "name": "652894767fb20992b94e3b0bd54bd33c"}, {"lon": -77.021612, "is_disabled": 0, "lat": 38.9246795, "fusion_lat": 0.0, "is_reserved": 0, "rental_uris": {"ios": "https://dc.lft.to/lastmile_qr_scan", "android": "https://dc.lft.to/lastmile_qr_scan"}, "fusion_lon": 0.0, "type": "electric_scooter", "bike_id": "ac4f1cdaaccb714935b0011f964146d6", "name": "ac4f1cdaaccb714935b0011f964146d6"}, {"lon": -77.03393883333334, "is_disabled": 0, "lat": 38.923505166666665, "fusion_lat": 0.0, "is_reserved": 0, "rental_uris": {"ios": "https://dc.lft.to/lastmile_qr_scan", "android": "https://dc.lft.to/lastmile_qr_scan"}, "fusion_lon": 0.0, "type": "electric_scooter", "bike_id": "cbbecd676a779a24c29fd2e6e42f8d37", "name": "cbbecd676a779a24c29fd2e6e42f8d37"}, {"lon": -77.01419783333333, "is_disabled": 0, "lat": 38.928482833333334, "fusion_lat": 0.0, "is_reserved": 0, "rental_uris": {"ios": "https://dc.lft.to/lastmile_qr_scan", "android": "https://dc.lft.to/lastmile_qr_scan"}, "fusion_lon": 0.0, "type": "electric_scooter", "bike_id": "989790b6daad9a1c840771f0a82a0718", "name": "989790b6daad9a1c840771f0a82a0718"}, {"lon": -77.03799516666666, "is_disabled": 0, "lat": 38.902669, "fusion_lat": 0.0, "is_reserved": 0, "rental_uris": {"ios": "https://dc.lft.to/lastmile_qr_scan", "android": "https://dc.lft.to/lastmile_qr_scan"}, "fusion_lon": 0.0, "type": "electric_scooter", "bike_id": "16d8b641543cab69d815d1277677caa0", "name": "16d8b641543cab69d815d1277677caa0"}, {"lon": -77.0387085, "is_disabled": 0, "lat": 38.912595333333336, "fusion_lat": 0.0, "is_reserved": 0, "rental_uris": {"ios": "https://dc.lft.to/lastmile_qr_scan", "android": "https://dc.lft.to/lastmile_qr_scan"}, "fusion_lon": 0.0, "type": "electric_scooter", "bike_id": "23edcff0700458a62bf49f14eb036ae9", "name": "23edcff0700458a62bf49f14eb036ae9"}, {"lon": -77.01220466666666, "is_disabled": 0, "lat": 38.89773666666667, "fusion_lat": 0.0, "is_reserved": 0, "rental_uris": {"ios": "https://dc.lft.to/lastmile_qr_scan", "android": "https://dc.lft.to/lastmile_qr_scan"}, "fusion_lon": 0.0, "type": "electric_scooter", "bike_id": "cd62ba723803e04a3e4b730a5d6ff969", "name": "cd62ba723803e04a3e4b730a5d6ff969"}, {"lon": -77.00441983333333, "is_disabled": 0, "lat": 38.91173216666667, "fusion_lat": 0.0, "is_reserved": 0, "rental_uris": {"ios": "https://dc.lft.to/lastmile_qr_scan", "android": "https://dc.lft.to/lastmile_qr_scan"}, "fusion_lon": 0.0, "type": "electric_scooter", "bike_id": "22e3537871eb8346551f3199db29e98a", "name": "22e3537871eb8346551f3199db29e98a"}, {"lon": -77.02659433333334, "is_disabled": 0, "lat": 38.972067, "fusion_lat": 0.0, "is_reserved": 0, "rental_uris": {"ios": "https://dc.lft.to/lastmile_qr_scan", "android": "https://dc.lft.to/lastmile_qr_scan"}, "fusion_lon": 0.0, "type": "electric_scooter", "bike_id": "14a748112b94a359d4b4bf00609b3495", "name": "14a748112b94a359d4b4bf00609b3495"}, {"lon": -77.00281166666667, "is_disabled": 0, "lat": 38.91910033333333, "fusion_lat": 0.0, "is_reserved": 0, "rental_uris": {"ios": "https://dc.lft.to/lastmile_qr_scan", "android": "https://dc.lft.to/lastmile_qr_scan"}, "fusion_lon": 0.0, "type": "electric_scooter", "bike_id": "6dcec17e6998eae17d712a383e512a01", "name": "6dcec17e6998eae17d712a383e512a01"}, {"lon": -76.97709933333333, "is_disabled": 0, "lat": 38.88521316666667, "fusion_lat": 0.0, "is_reserved": 0, "rental_uris": {"ios": "https://dc.lft.to/lastmile_qr_scan", "android": "https://dc.lft.to/lastmile_qr_scan"}, "fusion_lon": 0.0, "type": "electric_scooter", "bike_id": "601c1ce882ed5e17b13e8bc058ad7d15", "name": "601c1ce882ed5e17b13e8bc058ad7d15"}, {"lon": -77.02397383333333, "is_disabled": 0, "lat": 38.915582, "fusion_lat": 0.0, "is_reserved": 0, "rental_uris": {"ios": "https://dc.lft.to/lastmile_qr_scan", "android": "https://dc.lft.to/lastmile_qr_scan"}, "fusion_lon": 0.0, "type": "electric_scooter", "bike_id": "1d76aa76b316dc7652a331d8f509a3f4", "name": "1d76aa76b316dc7652a331d8f509a3f4"}, {"lon": -77.05330133333334, "is_disabled": 0, "lat": 38.902705, "fusion_lat": 0.0, "is_reserved": 0, "rental_uris": {"ios": "https://dc.lft.to/lastmile_qr_scan", "android": "https://dc.lft.to/lastmile_qr_scan"}, "fusion_lon": 0.0, "type": "electric_scooter", "bike_id": "d7d96567cc2a49a12560f012cec78631", "name": "d7d96567cc2a49a12560f012cec78631"}, {"lon": -77.0453735, "is_disabled": 0, "lat": 38.913336, "fusion_lat": 0.0, "is_reserved": 0, "rental_uris": {"ios": "https://dc.lft.to/lastmile_qr_scan", "android": "https://dc.lft.to/lastmile_qr_scan"}, "fusion_lon": 0.0, "type": "electric_scooter", "bike_id": "bfeaa3a5c6a65c7499f9c0170976abb2", "name": "bfeaa3a5c6a65c7499f9c0170976abb2"}, {"lon": -77.04152333333333, "is_disabled": 0, "lat": 38.91859483333333, "fusion_lat": 0.0, "is_reserved": 0, "rental_uris": {"ios": "https://dc.lft.to/lastmile_qr_scan", "android": "https://dc.lft.to/lastmile_qr_scan"}, "fusion_lon": 0.0, "type": "electric_scooter", "bike_id": "8f0dd838fedc49edd630143404141cb9", "name": "8f0dd838fedc49edd630143404141cb9"}, {"lon": -76.9871895, "is_disabled": 0, "lat": 38.8663175, "fusion_lat": 0.0, "is_reserved": 0, "rental_uris": {"ios": "https://dc.lft.to/lastmile_qr_scan", "android": "https://dc.lft.to/lastmile_qr_scan"}, "fusion_lon": 0.0, "type": "electric_scooter", "bike_id": "ff7c30e4a1435c9d3c3e17648aed2f7f", "name": "ff7c30e4a1435c9d3c3e17648aed2f7f"}, {"lon": -77.02715266666667, "is_disabled": 0, "lat": 38.91672783333333, "fusion_lat": 0.0, "is_reserved": 0, "rental_uris": {"ios": "https://dc.lft.to/lastmile_qr_scan", "android": "https://dc.lft.to/lastmile_qr_scan"}, "fusion_lon": 0.0, "type": "electric_scooter", "bike_id": "8727730f83c35a39e2b9911cd7f7c7e0", "name": "8727730f83c35a39e2b9911cd7f7c7e0"}, {"lon": -77.03864466666667, "is_disabled": 0, "lat": 38.91691, "fusion_lat": 0.0, "is_reserved": 0, "rental_uris": {"ios": "https://dc.lft.to/lastmile_qr_scan", "android": "https://dc.lft.to/lastmile_qr_scan"}, "fusion_lon": 0.0, "type": "electric_scooter", "bike_id": "6cb5a761f44a746144929696ffa20ff2", "name": "6cb5a761f44a746144929696ffa20ff2"}, {"lon": -77.00536316666667, "is_disabled": 0, "lat": 38.8771645, "fusion_lat": 0.0, "is_reserved": 0, "rental_uris": {"ios": "https://dc.lft.to/lastmile_qr_scan", "android": "https://dc.lft.to/lastmile_qr_scan"}, "fusion_lon": 0.0, "type": "electric_scooter", "bike_id": "a761a1de1c1e40eafa0eb33c491886ae", "name": "a761a1de1c1e40eafa0eb33c491886ae"}, {"lon": -76.94861733333333, "is_disabled": 0, "lat": 38.894804666666666, "fusion_lat": 0.0, "is_reserved": 0, "rental_uris": {"ios": "https://dc.lft.to/lastmile_qr_scan", "android": "https://dc.lft.to/lastmile_qr_scan"}, "fusion_lon": 0.0, "type": "electric_scooter", "bike_id": "80c61993be56b18665a4e8ecba8e589c", "name": "80c61993be56b18665a4e8ecba8e589c"}, {"lon": -77.07725633333334, "is_disabled": 0, "lat": 38.92522483333333, "fusion_lat": 0.0, "is_reserved": 0, "rental_uris": {"ios": "https://dc.lft.to/lastmile_qr_scan", "android": "https://dc.lft.to/lastmile_qr_scan"}, "fusion_lon": 0.0, "type": "electric_scooter", "bike_id": "71c0e5f08bc538741f8c986e1cc39ce6", "name": "71c0e5f08bc538741f8c986e1cc39ce6"}, {"lon": -76.9760405, "is_disabled": 0, "lat": 38.94018283333333, "fusion_lat": 0.0, "is_reserved": 0, "rental_uris": {"ios": "https://dc.lft.to/lastmile_qr_scan", "android": "https://dc.lft.to/lastmile_qr_scan"}, "fusion_lon": 0.0, "type": "electric_scooter", "bike_id": "684ba15ee937d9425f354c326f2483dc", "name": "684ba15ee937d9425f354c326f2483dc"}, {"lon": -77.011086, "is_disabled": 0, "lat": 38.894982, "fusion_lat": 0.0, "is_reserved": 0, "rental_uris": {"ios": "https://dc.lft.to/lastmile_qr_scan", "android": "https://dc.lft.to/lastmile_qr_scan"}, "fusion_lon": 0.0, "type": "electric_scooter", "bike_id": "460745abbb2731e2d65278d695d6070e", "name": "460745abbb2731e2d65278d695d6070e"}, {"lon": -77.05007866666666, "is_disabled": 0, "lat": 38.89229516666666, "fusion_lat": 0.0, "is_reserved": 0, "rental_uris": {"ios": "https://dc.lft.to/lastmile_qr_scan", "android": "https://dc.lft.to/lastmile_qr_scan"}, "fusion_lon": 0.0, "type": "electric_scooter", "bike_id": "9ab0effae98c0d14b13b81e5fa733071", "name": "9ab0effae98c0d14b13b81e5fa733071"}, {"lon": -77.02197366666667, "is_disabled": 0, "lat": 38.90972433333334, "fusion_lat": 0.0, "is_reserved": 0, "rental_uris": {"ios": "https://dc.lft.to/lastmile_qr_scan", "android": "https://dc.lft.to/lastmile_qr_scan"}, "fusion_lon": 0.0, "type": "electric_scooter", "bike_id": "a3bdf71a7701232e03bb8cb70717e956", "name": "a3bdf71a7701232e03bb8cb70717e956"}, {"lon": -77.0487665, "is_disabled": 0, "lat": 38.90642783333333, "fusion_lat": 0.0, "is_reserved": 0, "rental_uris": {"ios": "https://dc.lft.to/lastmile_qr_scan", "android": "https://dc.lft.to/lastmile_qr_scan"}, "fusion_lon": 0.0, "type": "electric_scooter", "bike_id": "cac62ab181f5e7b15681484a94fae1ca", "name": "cac62ab181f5e7b15681484a94fae1ca"}, {"lon": -77.04121, "is_disabled": 0, "lat": 38.91708116666667, "fusion_lat": 0.0, "is_reserved": 0, "rental_uris": {"ios": "https://dc.lft.to/lastmile_qr_scan", "android": "https://dc.lft.to/lastmile_qr_scan"}, "fusion_lon": 0.0, "type": "electric_scooter", "bike_id": "85a82a274776870faa9a5f75f651153b", "name": "85a82a274776870faa9a5f75f651153b"}, {"lon": -77.03443366666667, "is_disabled": 0, "lat": 38.913259333333336, "fusion_lat": 0.0, "is_reserved": 0, "rental_uris": {"ios": "https://dc.lft.to/lastmile_qr_scan", "android": "https://dc.lft.to/lastmile_qr_scan"}, "fusion_lon": 0.0, "type": "electric_scooter", "bike_id": "00d25f603840406d8e4d5e78ac6ab790", "name": "00d25f603840406d8e4d5e78ac6ab790"}, {"lon": -77.033432, "is_disabled": 0, "lat": 38.892394833333334, "fusion_lat": 0.0, "is_reserved": 0, "rental_uris": {"ios": "https://dc.lft.to/lastmile_qr_scan", "android": "https://dc.lft.to/lastmile_qr_scan"}, "fusion_lon": 0.0, "type": "electric_scooter", "bike_id": "2fe90fbda4cd9e60d89b23a9c7893ff3", "name": "2fe90fbda4cd9e60d89b23a9c7893ff3"}, {"lon": -77.03456166666666, "is_disabled": 0, "lat": 38.92218883333334, "fusion_lat": 0.0, "is_reserved": 0, "rental_uris": {"ios": "https://dc.lft.to/lastmile_qr_scan", "android": "https://dc.lft.to/lastmile_qr_scan"}, "fusion_lon": 0.0, "type": "electric_scooter", "bike_id": "77bfa1902533dc5197779d2e9e02e9c7", "name": "77bfa1902533dc5197779d2e9e02e9c7"}, {"lon": -76.9963475, "is_disabled": 0, "lat": 38.90534383333333, "fusion_lat": 0.0, "is_reserved": 0, "rental_uris": {"ios": "https://dc.lft.to/lastmile_qr_scan", "android": "https://dc.lft.to/lastmile_qr_scan"}, "fusion_lon": 0.0, "type": "electric_scooter", "bike_id": "6c5f3c775f0d14381d38c43d5b66884a", "name": "6c5f3c775f0d14381d38c43d5b66884a"}, {"lon": -76.93012033333333, "is_disabled": 0, "lat": 38.88820283333333, "fusion_lat": 0.0, "is_reserved": 0, "rental_uris": {"ios": "https://dc.lft.to/lastmile_qr_scan", "android": "https://dc.lft.to/lastmile_qr_scan"}, "fusion_lon": 0.0, "type": "electric_scooter", "bike_id": "8ad166f897a0dacb0aec5a4ac9bfe41a", "name": "8ad166f897a0dacb0aec5a4ac9bfe41a"}, {"lon": -77.01779783333333, "is_disabled": 0, "lat": 38.877128, "fusion_lat": 0.0, "is_reserved": 0, "rental_uris": {"ios": "https://dc.lft.to/lastmile_qr_scan", "android": "https://dc.lft.to/lastmile_qr_scan"}, "fusion_lon": 0.0, "type": "electric_scooter", "bike_id": "cb76a913677d1e1837c97ae361eb0633", "name": "cb76a913677d1e1837c97ae361eb0633"}, {"lon": -77.031772, "is_disabled": 0, "lat": 38.917461, "fusion_lat": 0.0, "is_reserved": 0, "rental_uris": {"ios": "https://dc.lft.to/lastmile_qr_scan", "android": "https://dc.lft.to/lastmile_qr_scan"}, "fusion_lon": 0.0, "type": "electric_scooter", "bike_id": "00f2e9a2f027e6f5183cd3693116ec70", "name": "00f2e9a2f027e6f5183cd3693116ec70"}, {"lon": -77.03298266666667, "is_disabled": 0, "lat": 38.9234935, "fusion_lat": 0.0, "is_reserved": 0, "rental_uris": {"ios": "https://dc.lft.to/lastmile_qr_scan", "android": "https://dc.lft.to/lastmile_qr_scan"}, "fusion_lon": 0.0, "type": "electric_scooter", "bike_id": "47d3290dac94647008abab0ee21604a9", "name": "47d3290dac94647008abab0ee21604a9"}, {"lon": -76.9992395, "is_disabled": 0, "lat": 39.03988833333333, "fusion_lat": 0.0, "is_reserved": 0, "rental_uris": {"ios": "https://dc.lft.to/lastmile_qr_scan", "android": "https://dc.lft.to/lastmile_qr_scan"}, "fusion_lon": 0.0, "type": "electric_bike", "bike_id": "0ae92bfd55ea43aec2f02e8e2d797448", "name": "0ae92bfd55ea43aec2f02e8e2d797448"}, {"lon": -77.04232383333333, "is_disabled": 0, "lat": 38.92059116666667, "fusion_lat": 0.0, "is_reserved": 0, "rental_uris": {"ios": "https://dc.lft.to/lastmile_qr_scan", "android": "https://dc.lft.to/lastmile_qr_scan"}, "fusion_lon": 0.0, "type": "electric_scooter", "bike_id": "9924244eb33c89c93b8097a70310ab5b", "name": "9924244eb33c89c93b8097a70310ab5b"}, {"lon": -77.000548, "is_disabled": 0, "lat": 38.884662666666664, "fusion_lat": 0.0, "is_reserved": 0, "rental_uris": {"ios": "https://dc.lft.to/lastmile_qr_scan", "android": "https://dc.lft.to/lastmile_qr_scan"}, "fusion_lon": 0.0, "type": "electric_scooter", "bike_id": "c6ae157383e51e1f34171bd6bc3dd253", "name": "c6ae157383e51e1f34171bd6bc3dd253"}, {"lon": -77.027028, "is_disabled": 0, "lat": 38.899930499999996, "fusion_lat": 0.0, "is_reserved": 0, "rental_uris": {"ios": "https://dc.lft.to/lastmile_qr_scan", "android": "https://dc.lft.to/lastmile_qr_scan"}, "fusion_lon": 0.0, "type": "electric_scooter", "bike_id": "6ae0ff8e5be78ab0740d7d3c546fa2ed", "name": "6ae0ff8e5be78ab0740d7d3c546fa2ed"}, {"lon": -76.99904916666667, "is_disabled": 0, "lat": 38.923303833333335, "fusion_lat": 0.0, "is_reserved": 0, "rental_uris": {"ios": "https://dc.lft.to/lastmile_qr_scan", "android": "https://dc.lft.to/lastmile_qr_scan"}, "fusion_lon": 0.0, "type": "electric_bike", "bike_id": "772fd415052659dabd30fb9c5a3da9f1", "name": "772fd415052659dabd30fb9c5a3da9f1"}, {"lon": -77.01111233333333, "is_disabled": 0, "lat": 38.895025833333335, "fusion_lat": 0.0, "is_reserved": 0, "rental_uris": {"ios": "https://dc.lft.to/lastmile_qr_scan", "android": "https://dc.lft.to/lastmile_qr_scan"}, "fusion_lon": 0.0, "type": "electric_scooter", "bike_id": "67180ef2185a3796f56077aefbebdd02", "name": "67180ef2185a3796f56077aefbebdd02"}, {"lon": -77.05022683333334, "is_disabled": 0, "lat": 38.8965435, "fusion_lat": 0.0, "is_reserved": 0, "rental_uris": {"ios": "https://dc.lft.to/lastmile_qr_scan", "android": "https://dc.lft.to/lastmile_qr_scan"}, "fusion_lon": 0.0, "type": "electric_scooter", "bike_id": "d1099d62597dbffd876d68b074eee9cb", "name": "d1099d62597dbffd876d68b074eee9cb"}, {"lon": -77.0627085, "is_disabled": 0, "lat": 38.9056965, "fusion_lat": 0.0, "is_reserved": 0, "rental_uris": {"ios": "https://dc.lft.to/lastmile_qr_scan", "android": "https://dc.lft.to/lastmile_qr_scan"}, "fusion_lon": 0.0, "type": "electric_scooter", "bike_id": "f525932414c244d16d0e325f3915cd6f", "name": "f525932414c244d16d0e325f3915cd6f"}, {"lon": -77.04681583333333, "is_disabled": 0, "lat": 38.902811666666665, "fusion_lat": 0.0, "is_reserved": 0, "rental_uris": {"ios": "https://dc.lft.to/lastmile_qr_scan", "android": "https://dc.lft.to/lastmile_qr_scan"}, "fusion_lon": 0.0, "type": "electric_scooter", "bike_id": "69dc81e28081a658d1cd6d192901a443", "name": "69dc81e28081a658d1cd6d192901a443"}, {"lon": -77.02794333333334, "is_disabled": 0, "lat": 38.91229916666666, "fusion_lat": 0.0, "is_reserved": 0, "rental_uris": {"ios": "https://dc.lft.to/lastmile_qr_scan", "android": "https://dc.lft.to/lastmile_qr_scan"}, "fusion_lon": 0.0, "type": "electric_scooter", "bike_id": "e1d5939c5b3f81fbcddd057cbf008315", "name": "e1d5939c5b3f81fbcddd057cbf008315"}, {"lon": -77.04373183333334, "is_disabled": 0, "lat": 38.92233016666667, "fusion_lat": 0.0, "is_reserved": 0, "rental_uris": {"ios": "https://dc.lft.to/lastmile_qr_scan", "android": "https://dc.lft.to/lastmile_qr_scan"}, "fusion_lon": 0.0, "type": "electric_scooter", "bike_id": "c797c2c90c439eb82d9a97e96429edfe", "name": "c797c2c90c439eb82d9a97e96429edfe"}, {"lon": -77.0414105, "is_disabled": 0, "lat": 38.92646116666667, "fusion_lat": 0.0, "is_reserved": 0, "rental_uris": {"ios": "https://dc.lft.to/lastmile_qr_scan", "android": "https://dc.lft.to/lastmile_qr_scan"}, "fusion_lon": 0.0, "type": "electric_scooter", "bike_id": "8e60926a49ac2682d739fb08993584ab", "name": "8e60926a49ac2682d739fb08993584ab"}, {"lon": -77.03360416666666, "is_disabled": 0, "lat": 38.91809466666667, "fusion_lat": 0.0, "is_reserved": 0, "rental_uris": {"ios": "https://dc.lft.to/lastmile_qr_scan", "android": "https://dc.lft.to/lastmile_qr_scan"}, "fusion_lon": 0.0, "type": "electric_scooter", "bike_id": "128c7ed6b07d9a8ef3fd1b11471e65a2", "name": "128c7ed6b07d9a8ef3fd1b11471e65a2"}, {"lon": -77.04854666666667, "is_disabled": 0, "lat": 38.915230333333334, "fusion_lat": 0.0, "is_reserved": 0, "rental_uris": {"ios": "https://dc.lft.to/lastmile_qr_scan", "android": "https://dc.lft.to/lastmile_qr_scan"}, "fusion_lon": 0.0, "type": "electric_scooter", "bike_id": "251de0af7b009b4bfc82ef5c2f05fbab", "name": "251de0af7b009b4bfc82ef5c2f05fbab"}, {"lon": -76.92889983333333, "is_disabled": 0, "lat": 38.90190366666667, "fusion_lat": 0.0, "is_reserved": 0, "rental_uris": {"ios": "https://dc.lft.to/lastmile_qr_scan", "android": "https://dc.lft.to/lastmile_qr_scan"}, "fusion_lon": 0.0, "type": "electric_scooter", "bike_id": "f0793d95ea9448b4bd3e4255c39a0e79", "name": "f0793d95ea9448b4bd3e4255c39a0e79"}, {"lon": -77.00891483333334, "is_disabled": 0, "lat": 38.92478083333334, "fusion_lat": 0.0, "is_reserved": 0, "rental_uris": {"ios": "https://dc.lft.to/lastmile_qr_scan", "android": "https://dc.lft.to/lastmile_qr_scan"}, "fusion_lon": 0.0, "type": "electric_scooter", "bike_id": "afca24f1125a16defaa5990926db6218", "name": "afca24f1125a16defaa5990926db6218"}, {"lon": -77.02500266666667, "is_disabled": 0, "lat": 38.940932833333335, "fusion_lat": 0.0, "is_reserved": 0, "rental_uris": {"ios": "https://dc.lft.to/lastmile_qr_scan", "android": "https://dc.lft.to/lastmile_qr_scan"}, "fusion_lon": 0.0, "type": "electric_scooter", "bike_id": "3db4d1aa48557d3a15915e54dcfe2397", "name": "3db4d1aa48557d3a15915e54dcfe2397"}, {"lon": -77.02930966666666, "is_disabled": 0, "lat": 38.8999985, "fusion_lat": 0.0, "is_reserved": 0, "rental_uris": {"ios": "https://dc.lft.to/lastmile_qr_scan", "android": "https://dc.lft.to/lastmile_qr_scan"}, "fusion_lon": 0.0, "type": "electric_scooter", "bike_id": "71693d0adaa9b83dcea865aad37489ba", "name": "71693d0adaa9b83dcea865aad37489ba"}, {"lon": -77.09613816666666, "is_disabled": 0, "lat": 38.87884916666667, "fusion_lat": 0.0, "is_reserved": 0, "rental_uris": {"ios": "https://dc.lft.to/lastmile_qr_scan", "android": "https://dc.lft.to/lastmile_qr_scan"}, "fusion_lon": 0.0, "type": "electric_bike", "bike_id": "1f61866defb9d03ba1db8111c7b59e1b", "name": "1f61866defb9d03ba1db8111c7b59e1b"}, {"lon": -77.009491, "is_disabled": 0, "lat": 38.918182, "fusion_lat": 0.0, "is_reserved": 0, "rental_uris": {"ios": "https://dc.lft.to/lastmile_qr_scan", "android": "https://dc.lft.to/lastmile_qr_scan"}, "fusion_lon": 0.0, "type": "electric_scooter", "bike_id": "148e7defac2f85a2f9f67c509b39e8a0", "name": "148e7defac2f85a2f9f67c509b39e8a0"}, {"lon": -77.01070466666667, "is_disabled": 0, "lat": 38.87474183333333, "fusion_lat": 0.0, "is_reserved": 0, "rental_uris": {"ios": "https://dc.lft.to/lastmile_qr_scan", "android": "https://dc.lft.to/lastmile_qr_scan"}, "fusion_lon": 0.0, "type": "electric_scooter", "bike_id": "a141ff588ffb4476bff82c91a3d5175e", "name": "a141ff588ffb4476bff82c91a3d5175e"}, {"lon": -77.02415633333334, "is_disabled": 0, "lat": 38.9567825, "fusion_lat": 0.0, "is_reserved": 0, "rental_uris": {"ios": "https://dc.lft.to/lastmile_qr_scan", "android": "https://dc.lft.to/lastmile_qr_scan"}, "fusion_lon": 0.0, "type": "electric_scooter", "bike_id": "faf34736044c6855a7f3c988274c8573", "name": "faf34736044c6855a7f3c988274c8573"}, {"lon": -77.030303, "is_disabled": 0, "lat": 38.9311795, "fusion_lat": 0.0, "is_reserved": 0, "rental_uris": {"ios": "https://dc.lft.to/lastmile_qr_scan", "android": "https://dc.lft.to/lastmile_qr_scan"}, "fusion_lon": 0.0, "type": "electric_scooter", "bike_id": "7bf955237db8225695d1e0459e6f7b29", "name": "7bf955237db8225695d1e0459e6f7b29"}, {"lon": -77.00802783333333, "is_disabled": 0, "lat": 38.94924983333333, "fusion_lat": 0.0, "is_reserved": 0, "rental_uris": {"ios": "https://dc.lft.to/lastmile_qr_scan", "android": "https://dc.lft.to/lastmile_qr_scan"}, "fusion_lon": 0.0, "type": "electric_bike", "bike_id": "1876cf2035225b94d1d382059716611d", "name": "1876cf2035225b94d1d382059716611d"}, {"lon": -77.04105133333333, "is_disabled": 0, "lat": 38.910564, "fusion_lat": 0.0, "is_reserved": 0, "rental_uris": {"ios": "https://dc.lft.to/lastmile_qr_scan", "android": "https://dc.lft.to/lastmile_qr_scan"}, "fusion_lon": 0.0, "type": "electric_scooter", "bike_id": "a9dd7d8e51ddecf7c8848784128f3cfa", "name": "a9dd7d8e51ddecf7c8848784128f3cfa"}, {"lon": -77.04165533333334, "is_disabled": 0, "lat": 38.90737583333333, "fusion_lat": 0.0, "is_reserved": 0, "rental_uris": {"ios": "https://dc.lft.to/lastmile_qr_scan", "android": "https://dc.lft.to/lastmile_qr_scan"}, "fusion_lon": 0.0, "type": "electric_scooter", "bike_id": "62b0ff6d489a4b416159678ea622de2c", "name": "62b0ff6d489a4b416159678ea622de2c"}, {"lon": -77.0687095, "is_disabled": 0, "lat": 38.93637583333334, "fusion_lat": 0.0, "is_reserved": 0, "rental_uris": {"ios": "https://dc.lft.to/lastmile_qr_scan", "android": "https://dc.lft.to/lastmile_qr_scan"}, "fusion_lon": 0.0, "type": "electric_scooter", "bike_id": "21d8250aee4067f8829a7667a1d1b952", "name": "21d8250aee4067f8829a7667a1d1b952"}, {"lon": -77.03640983333334, "is_disabled": 0, "lat": 38.917876, "fusion_lat": 0.0, "is_reserved": 0, "rental_uris": {"ios": "https://dc.lft.to/lastmile_qr_scan", "android": "https://dc.lft.to/lastmile_qr_scan"}, "fusion_lon": 0.0, "type": "electric_scooter", "bike_id": "8d1631168ba7bbe3a5b0d0d2b2d5127f", "name": "8d1631168ba7bbe3a5b0d0d2b2d5127f"}, {"lon": -77.01165166666667, "is_disabled": 0, "lat": 38.8962915, "fusion_lat": 0.0, "is_reserved": 0, "rental_uris": {"ios": "https://dc.lft.to/lastmile_qr_scan", "android": "https://dc.lft.to/lastmile_qr_scan"}, "fusion_lon": 0.0, "type": "electric_scooter", "bike_id": "c48ae489ea8820e52c6a504b44925d6f", "name": "c48ae489ea8820e52c6a504b44925d6f"}, {"lon": -77.02785966666667, "is_disabled": 0, "lat": 38.927813666666665, "fusion_lat": 0.0, "is_reserved": 0, "rental_uris": {"ios": "https://dc.lft.to/lastmile_qr_scan", "android": "https://dc.lft.to/lastmile_qr_scan"}, "fusion_lon": 0.0, "type": "electric_scooter", "bike_id": "7407b5a7c25f5be6fdd2bf29e49c0685", "name": "7407b5a7c25f5be6fdd2bf29e49c0685"}, {"lon": -77.04817983333334, "is_disabled": 0, "lat": 38.90962316666667, "fusion_lat": 0.0, "is_reserved": 0, "rental_uris": {"ios": "https://dc.lft.to/lastmile_qr_scan", "android": "https://dc.lft.to/lastmile_qr_scan"}, "fusion_lon": 0.0, "type": "electric_scooter", "bike_id": "ec6d84dd9a7b17a85ca5a5d3e142078f", "name": "ec6d84dd9a7b17a85ca5a5d3e142078f"}, {"lon": -77.0185045, "is_disabled": 0, "lat": 38.9097415, "fusion_lat": 0.0, "is_reserved": 0, "rental_uris": {"ios": "https://dc.lft.to/lastmile_qr_scan", "android": "https://dc.lft.to/lastmile_qr_scan"}, "fusion_lon": 0.0, "type": "electric_scooter", "bike_id": "7955f86d059a7ae17e5b2c3fe950b932", "name": "7955f86d059a7ae17e5b2c3fe950b932"}, {"lon": -76.9888095, "is_disabled": 0, "lat": 38.866569, "fusion_lat": 0.0, "is_reserved": 0, "rental_uris": {"ios": "https://dc.lft.to/lastmile_qr_scan", "android": "https://dc.lft.to/lastmile_qr_scan"}, "fusion_lon": 0.0, "type": "electric_scooter", "bike_id": "6358023ab512e590bb65a25019c7b489", "name": "6358023ab512e590bb65a25019c7b489"}, {"lon": -77.22895366666667, "is_disabled": 0, "lat": 38.90960666666667, "fusion_lat": 0.0, "is_reserved": 0, "rental_uris": {"ios": "https://dc.lft.to/lastmile_qr_scan", "android": "https://dc.lft.to/lastmile_qr_scan"},