{"data": {"bikes": [{"is_disabled": 0, "rental_uris": {"android": "https://dc.lft.to/lastmile_qr_scan", "ios": "https://dc.lft.to/lastmile_qr_scan"}, "is_reserved": 0, "name": "56bed8cd729a0e0599b92c78b4391933", "lon": -77.02965583333334, "type": "electric_scooter", "bike_id": "56bed8cd729a0e0599b92c78b4391933", "fusion_lon": 0.0, "lat": 38.90733566666667, "fusion_lat": 0.0}, {"is_disabled": 0, "rental_uris": {"android": "https://dc.lft.to/lastmile_qr_scan", "ios": "https://dc.lft.to/lastmile_qr_scan"}, "is_reserved": 0, "name": "dccd0d7ef7c681540f894022b37d9fa0", "lon": -77.032879, "type": "electric_scooter", "bike_id": "dccd0d7ef7c681540f894022b37d9fa0", "fusion_lon": 0.0, "lat": 38.932559, "fusion_lat": 0.0}, {"is_disabled": 0, "rental_uris": {"android": "https://dc.lft.to/lastmile_qr_scan", "ios": "https://dc.lft.to/lastmile_qr_scan"}, "is_reserved": 0, "name": "7b56ac0928e2cf251c810032c5da2376", "lon": -77.03142116666666, "type": "electric_scooter", "bike_id": "7b56ac0928e2cf251c810032c5da2376", "fusion_lon": 0.0, "lat": 38.88743183333333, "fusion_lat": 0.0}, {"is_disabled": 0, "rental_uris": {"android": "https://dc.lft.to/lastmile_qr_scan", "ios": "https://dc.lft.to/lastmile_qr_scan"}, "is_reserved": 0, "name": "e5f2b1cd726a4d82a1b1277d7489fd4d", "lon": -77.0484885, "type": "electric_scooter", "bike_id": "e5f2b1cd726a4d82a1b1277d7489fd4d", "fusion_lon": 0.0, "lat": 38.90428, "fusion_lat": 0.0}, {"is_disabled": 0, "rental_uris": {"android": "https://dc.lft.to/lastmile_qr_scan", "ios": "https://dc.lft.to/lastmile_qr_scan"}, "is_reserved": 0, "name": "6f75f6882b2f8189c681f62a5090033b", "lon": -76.92827916666667, "type": "electric_scooter", "bike_id": "6f75f6882b2f8189c681f62a5090033b", "fusion_lon": 0.0, "lat": 38.901840166666666, "fusion_lat": 0.0}, {"is_disabled": 0, "rental_uris": {"android": "https://dc.lft.to/lastmile_qr_scan", "ios": "https://dc.lft.to/lastmile_qr_scan"}, "is_reserved": 0, "name": "17db00de61c364ac71e4ed269071bc5b", "lon": -77.06350866666666, "type": "electric_scooter", "bike_id": "17db00de61c364ac71e4ed269071bc5b", "fusion_lon": 0.0, "lat": 38.94440216666667, "fusion_lat": 0.0}, {"is_disabled": 0, "rental_uris": {"android": "https://dc.lft.to/lastmile_qr_scan", "ios": "https://dc.lft.to/lastmile_qr_scan"}, "is_reserved": 0, "name": "1c6b7bcde7c0cfd08b9d4968caa54256", "lon": -77.02392133333333, "type": "electric_scooter", "bike_id": "1c6b7bcde7c0cfd08b9d4968caa54256", "fusion_lon": 0.0, "lat": 38.908263166666664, "fusion_lat": 0.0}, {"is_disabled": 0, "rental_uris": {"android": "https://dc.lft.to/lastmile_qr_scan", "ios": "https://dc.lft.to/lastmile_qr_scan"}, "is_reserved": 0, "name": "c22b18375c18f00e965d44b00f7bcb0d", "lon": -77.0461195, "type": "electric_scooter", "bike_id": "c22b18375c18f00e965d44b00f7bcb0d", "fusion_lon": 0.0, "lat": 38.899733833333336, "fusion_lat": 0.0}, {"is_disabled": 0, "rental_uris": {"android": "https://dc.lft.to/lastmile_qr_scan", "ios": "https://dc.lft.to/lastmile_qr_scan"}, "is_reserved": 0, "name": "f071ebd7114bc1f22f62d2a6874b3c8f", "lon": -76.98018733333333, "type": "electric_bike", "bike_id": "f071ebd7114bc1f22f62d2a6874b3c8f", "fusion_lon": 0.0, "lat": 38.9575195, "fusion_lat": 0.0}, {"is_disabled": 0, "rental_uris": {"android": "https://dc.lft.to/lastmile_qr_scan", "ios": "https://dc.lft.to/lastmile_qr_scan"}, "is_reserved": 0, "name": "818116ff2604ae623a6b351f66d2e4c8", "lon": -77.02929516666667, "type": "electric_scooter", "bike_id": "818116ff2604ae623a6b351f66d2e4c8", "fusion_lon": 0.0, "lat": 38.9297865, "fusion_lat": 0.0}, {"is_disabled": 0, "rental_uris": {"android": "https://dc.lft.to/lastmile_qr_scan", "ios": "https://dc.lft.to/lastmile_qr_scan"}, "is_reserved": 0, "name": "b43b19b1fd9c7336ec23dd84b7723037", "lon": -77.00148533333333, "type": "electric_scooter", "bike_id": "b43b19b1fd9c7336ec23dd84b7723037", "fusion_lon": 0.0, "lat": 38.91072116666667, "fusion_lat": 0.0}, {"is_disabled": 0, "rental_uris": {"android": "https://dc.lft.to/lastmile_qr_scan", "ios": "https://dc.lft.to/lastmile_qr_scan"}, "is_reserved": 0, "name": "3b545239b23349a9b01424aca270ebc4", "lon": -77.043911, "type": "electric_scooter", "bike_id": "3b545239b23349a9b01424aca270ebc4", "fusion_lon": 0.0, "lat": 38.90041566666667, "fusion_lat": 0.0}, {"is_disabled": 0, "rental_uris": {"android": "https://dc.lft.to/lastmile_qr_scan", "ios": "https://dc.lft.to/lastmile_qr_scan"}, "is_reserved": 0, "name": "d354e1f2e34e7424aaafc68cee08c443", "lon": -77.03444816666666, "type": "electric_scooter", "bike_id": "d354e1f2e34e7424aaafc68cee08c443", "fusion_lon": 0.0, "lat": 38.918107666666664, "fusion_lat": 0.0}, {"is_disabled": 0, "rental_uris": {"android": "https://dc.lft.to/lastmile_qr_scan", "ios": "https://dc.lft.to/lastmile_qr_scan"}, "is_reserved": 0, "name": "017e9031598d203325b0d532825cbd40", "lon": -77.021628, "type": "electric_scooter", "bike_id": "017e9031598d203325b0d532825cbd40", "fusion_lon": 0.0, "lat": 38.899985666666666, "fusion_lat": 0.0}, {"is_disabled": 0, "rental_uris": {"android": "https://dc.lft.to/lastmile_qr_scan", "ios": "https://dc.lft.to/lastmile_qr_scan"}, "is_reserved": 0, "name": "92ccfafafd446f7b0d82cec964f9a3ee", "lon": -77.03869933333333, "type": "electric_scooter", "bike_id": "92ccfafafd446f7b0d82cec964f9a3ee", "fusion_lon": 0.0, "lat": 38.9156555, "fusion_lat": 0.0}, {"is_disabled": 0, "rental_uris": {"android": "https://dc.lft.to/lastmile_qr_scan", "ios": "https://dc.lft.to/lastmile_qr_scan"}, "is_reserved": 0, "name": "22676b127c6266c820c95e4d5dee008f", "lon": -76.92915583333334, "type": "electric_bike", "bike_id": "22676b127c6266c820c95e4d5dee008f", "fusion_lon": 0.0, "lat": 38.98028083333333, "fusion_lat": 0.0}, {"is_disabled": 0, "rental_uris": {"android": "https://dc.lft.to/lastmile_qr_scan", "ios": "https://dc.lft.to/lastmile_qr_scan"}, "is_reserved": 0, "name": "0e59a8b20fc225b77dd6a890f9b1de61", "lon": -77.01726783333334, "type": "electric_scooter", "bike_id": "0e59a8b20fc225b77dd6a890f9b1de61", "fusion_lon": 0.0, "lat": 38.911166, "fusion_lat": 0.0}, {"is_disabled": 0, "rental_uris": {"android": "https://dc.lft.to/lastmile_qr_scan", "ios": "https://dc.lft.to/lastmile_qr_scan"}, "is_reserved": 0, "name": "755be1bef9118cded2ca7cdcda8326b6", "lon": -77.029518, "type": "electric_scooter", "bike_id": "755be1bef9118cded2ca7cdcda8326b6", "fusion_lon": 0.0, "lat": 38.927658666666666, "fusion_lat": 0.0}, {"is_disabled": 0, "rental_uris": {"android": "https://dc.lft.to/lastmile_qr_scan", "ios": "https://dc.lft.to/lastmile_qr_scan"}, "is_reserved": 0, "name": "ca2baee316eeefd4f7bc53ad3222331b", "lon": -77.01709466666667, "type": "electric_scooter", "bike_id": "ca2baee316eeefd4f7bc53ad3222331b", "fusion_lon": 0.0, "lat": 38.902645666666665, "fusion_lat": 0.0}, {"is_disabled": 0, "rental_uris": {"android": "https://dc.lft.to/lastmile_qr_scan", "ios": "https://dc.lft.to/lastmile_qr_scan"}, "is_reserved": 0, "name": "73925a2c39cbfafa5428e01f70233401", "lon": -77.02490516666667, "type": "electric_scooter", "bike_id": "73925a2c39cbfafa5428e01f70233401", "fusion_lon": 0.0, "lat": 38.941833333333335, "fusion_lat": 0.0}, {"is_disabled": 0, "rental_uris": {"android": "https://dc.lft.to/lastmile_qr_scan", "ios": "https://dc.lft.to/lastmile_qr_scan"}, "is_reserved": 0, "name": "e4e0884d409a111e6aa043c7ca55712c", "lon": -76.9499985, "type": "electric_scooter", "bike_id": "e4e0884d409a111e6aa043c7ca55712c", "fusion_lon": 0.0, "lat": 38.89392866666667, "fusion_lat": 0.0}, {"is_disabled": 0, "rental_uris": {"android": "https://dc.lft.to/lastmile_qr_scan", "ios": "https://dc.lft.to/lastmile_qr_scan"}, "is_reserved": 0, "name": "44260cf4017ebde4c903753a05e9ec0a", "lon": -77.05052666666667, "type": "electric_scooter", "bike_id": "44260cf4017ebde4c903753a05e9ec0a", "fusion_lon": 0.0, "lat": 38.9006865, "fusion_lat": 0.0}, {"is_disabled": 0, "rental_uris": {"android": "https://dc.lft.to/lastmile_qr_scan", "ios": "https://dc.lft.to/lastmile_qr_scan"}, "is_reserved": 0, "name": "f2de7f83bc9f750715d7cda72b476df7", "lon": -77.02462616666666, "type": "electric_scooter", "bike_id": "f2de7f83bc9f750715d7cda72b476df7", "fusion_lon": 0.0, "lat": 38.919487333333336, "fusion_lat": 0.0}, {"is_disabled": 0, "rental_uris": {"android": "https://dc.lft.to/lastmile_qr_scan", "ios": "https://dc.lft.to/lastmile_qr_scan"}, "is_reserved": 0, "name": "658764a9bf178dbbbd4fb705e0f423f6", "lon": -77.02619583333333, "type": "electric_scooter", "bike_id": "658764a9bf178dbbbd4fb705e0f423f6", "fusion_lon": 0.0, "lat": 38.91568266666667, "fusion_lat": 0.0}, {"is_disabled": 0, "rental_uris": {"android": "https://dc.lft.to/lastmile_qr_scan", "ios": "https://dc.lft.to/lastmile_qr_scan"}, "is_reserved": 0, "name": "eea9cf854e2bf1516e6056eff909444e", "lon": -77.02776666666666, "type": "electric_scooter", "bike_id": "eea9cf854e2bf1516e6056eff909444e", "fusion_lon": 0.0, "lat": 38.91713333333333, "fusion_lat": 0.0}, {"is_disabled": 0, "rental_uris": {"android": "https://dc.lft.to/lastmile_qr_scan", "ios": "https://dc.lft.to/lastmile_qr_scan"}, "is_reserved": 0, "name": "b3b1f9c840e8d68816a93d6e5b453152", "lon": -77.04474933333333, "type": "electric_scooter", "bike_id": "b3b1f9c840e8d68816a93d6e5b453152", "fusion_lon": 0.0, "lat": 38.9066275, "fusion_lat": 0.0}, {"is_disabled": 0, "rental_uris": {"android": "https://dc.lft.to/lastmile_qr_scan", "ios": "https://dc.lft.to/lastmile_qr_scan"}, "is_reserved": 0, "name": "b064d0927674a2ee1e4a3e4bab3012bd", "lon": -77.02190166666666, "type": "electric_scooter", "bike_id": "b064d0927674a2ee1e4a3e4bab3012bd", "fusion_lon": 0.0, "lat": 38.8974425, "fusion_lat": 0.0}, {"is_disabled": 0, "rental_uris": {"android": "https://dc.lft.to/lastmile_qr_scan", "ios": "https://dc.lft.to/lastmile_qr_scan"}, "is_reserved": 0, "name": "1f64a9082eba3427cbcbbea405ab812d", "lon": -77.0480025, "type": "electric_scooter", "bike_id": "1f64a9082eba3427cbcbbea405ab812d", "fusion_lon": 0.0, "lat": 38.904608833333334, "fusion_lat": 0.0}, {"is_disabled": 0, "rental_uris": {"android": "https://dc.lft.to/lastmile_qr_scan", "ios": "https://dc.lft.to/lastmile_qr_scan"}, "is_reserved": 0, "name": "76be01b74688847aaed6aec57ef62c53", "lon": -77.02684833333333, "type": "electric_scooter", "bike_id": "76be01b74688847aaed6aec57ef62c53", "fusion_lon": 0.0, "lat": 38.896185, "fusion_lat": 0.0}, {"is_disabled": 0, "rental_uris": {"android": "https://dc.lft.to/lastmile_qr_scan", "ios": "https://dc.lft.to/lastmile_qr_scan"}, "is_reserved": 0, "name": "6f89b73a65dbb04665f3f5c2eddb260d", "lon": -76.99496733333334, "type": "electric_scooter", "bike_id": "6f89b73a65dbb04665f3f5c2eddb260d", "fusion_lon": 0.0, "lat": 38.89821166666667, "fusion_lat": 0.0}, {"is_disabled": 0, "rental_uris": {"android": "https://dc.lft.to/lastmile_qr_scan", "ios": "https://dc.lft.to/lastmile_qr_scan"}, "is_reserved": 0, "name": "9edbee7aa2934b79089d3e889268c128", "lon": -77.04762216666667, "type": "electric_scooter", "bike_id": "9edbee7aa2934b79089d3e889268c128", "fusion_lon": 0.0, "lat": 38.91248383333333, "fusion_lat": 0.0}, {"is_disabled": 0, "rental_uris": {"android": "https://dc.lft.to/lastmile_qr_scan", "ios": "https://dc.lft.to/lastmile_qr_scan"}, "is_reserved": 0, "name": "5454853b0318c7506a686b3ac4374c59", "lon": -76.94635883333333, "type": "electric_scooter", "bike_id": "5454853b0318c7506a686b3ac4374c59", "fusion_lon": 0.0, "lat": 38.89844383333333, "fusion_lat": 0.0}, {"is_disabled": 0, "rental_uris": {"android": "https://dc.lft.to/lastmile_qr_scan", "ios": "https://dc.lft.to/lastmile_qr_scan"}, "is_reserved": 0, "name": "dd70c88a534d0bc3b714a9e9efb5b2bd", "lon": -76.94468666666667, "type": "electric_scooter", "bike_id": "dd70c88a534d0bc3b714a9e9efb5b2bd", "fusion_lon": 0.0, "lat": 38.90280933333333, "fusion_lat": 0.0}, {"is_disabled": 0, "rental_uris": {"android": "https://dc.lft.to/lastmile_qr_scan", "ios": "https://dc.lft.to/lastmile_qr_scan"}, "is_reserved": 0, "name": "09c52b4089e8efb5056ab68f63d7f0b1", "lon": -77.05071066666666, "type": "electric_scooter", "bike_id": "09c52b4089e8efb5056ab68f63d7f0b1", "fusion_lon": 0.0, "lat": 38.90083766666667, "fusion_lat": 0.0}, {"is_disabled": 0, "rental_uris": {"android": "https://dc.lft.to/lastmile_qr_scan", "ios": "https://dc.lft.to/lastmile_qr_scan"}, "is_reserved": 0, "name": "f9427ce25e249f840aa45b023065e9f2", "lon": -77.0352675, "type": "electric_scooter", "bike_id": "f9427ce25e249f840aa45b023065e9f2", "fusion_lon": 0.0, "lat": 38.92262816666667, "fusion_lat": 0.0}, {"is_disabled": 0, "rental_uris": {"android": "https://dc.lft.to/lastmile_qr_scan", "ios": "https://dc.lft.to/lastmile_qr_scan"}, "is_reserved": 0, "name": "a02b3d02268bb977c4b60aebb4d588a1", "lon": -77.02538616666666, "type": "electric_scooter", "bike_id": "a02b3d02268bb977c4b60aebb4d588a1", "fusion_lon": 0.0, "lat": 38.92404583333333, "fusion_lat": 0.0}, {"is_disabled": 0, "rental_uris": {"android": "https://dc.lft.to/lastmile_qr_scan", "ios": "https://dc.lft.to/lastmile_qr_scan"}, "is_reserved": 0, "name": "edc9e2ad631a467bbc5303f6e5a49580", "lon": -77.034405, "type": "electric_scooter", "bike_id": "edc9e2ad631a467bbc5303f6e5a49580", "fusion_lon": 0.0, "lat": 38.9089105, "fusion_lat": 0.0}, {"is_disabled": 0, "rental_uris": {"android": "https://dc.lft.to/lastmile_qr_scan", "ios": "https://dc.lft.to/lastmile_qr_scan"}, "is_reserved": 0, "name": "63449401d98b6612e34fe22f2e96d504", "lon": -77.03526483333333, "type": "electric_scooter", "bike_id": "63449401d98b6612e34fe22f2e96d504", "fusion_lon": 0.0, "lat": 38.923534333333336, "fusion_lat": 0.0}, {"is_disabled": 0, "rental_uris": {"android": "https://dc.lft.to/lastmile_qr_scan", "ios": "https://dc.lft.to/lastmile_qr_scan"}, "is_reserved": 0, "name": "7d313bed7871a2041551177de7873115", "lon": -77.029603, "type": "electric_scooter", "bike_id": "7d313bed7871a2041551177de7873115", "fusion_lon": 0.0, "lat": 38.892304333333335, "fusion_lat": 0.0}, {"is_disabled": 0, "rental_uris": {"android": "https://dc.lft.to/lastmile_qr_scan", "ios": "https://dc.lft.to/lastmile_qr_scan"}, "is_reserved": 0, "name": "f518ecaea3e0f3bc86af34341cfcb9d1", "lon": -77.022271, "type": "electric_scooter", "bike_id": "f518ecaea3e0f3bc86af34341cfcb9d1", "fusion_lon": 0.0, "lat": 38.887454, "fusion_lat": 0.0}, {"is_disabled": 0, "rental_uris": {"android": "https://dc.lft.to/lastmile_qr_scan", "ios": "https://dc.lft.to/lastmile_qr_scan"}, "is_reserved": 0, "name": "3237caf25f4f0b4d4c1ed5c58dc824d7", "lon": -77.0212685, "type": "electric_scooter", "bike_id": "3237caf25f4f0b4d4c1ed5c58dc824d7", "fusion_lon": 0.0, "lat": 38.8875085, "fusion_lat": 0.0}, {"is_disabled": 0, "rental_uris": {"android": "https://dc.lft.to/lastmile_qr_scan", "ios": "https://dc.lft.to/lastmile_qr_scan"}, "is_reserved": 0, "name": "845bd769e8636597f5c45427e000f93d", "lon": -77.061495, "type": "electric_scooter", "bike_id": "845bd769e8636597f5c45427e000f93d", "fusion_lon": 0.0, "lat": 38.90509333333333, "fusion_lat": 0.0}, {"is_disabled": 0, "rental_uris": {"android": "https://dc.lft.to/lastmile_qr_scan", "ios": "https://dc.lft.to/lastmile_qr_scan"}, "is_reserved": 0, "name": "1a22e6ae0916c8cbac06fe9288bf79e1", "lon": -77.02655483333334, "type": "electric_bike", "bike_id": "1a22e6ae0916c8cbac06fe9288bf79e1", "fusion_lon": 0.0, "lat": 38.988184833333335, "fusion_lat": 0.0}, {"is_disabled": 0, "rental_uris": {"android": "https://dc.lft.to/lastmile_qr_scan", "ios": "https://dc.lft.to/lastmile_qr_scan"}, "is_reserved": 0, "name": "8f825373eb7c830b929c9ce8b084f605", "lon": -77.17530883333333, "type": "electric_bike", "bike_id": "8f825373eb7c830b929c9ce8b084f605", "fusion_lon": 0.0, "lat": 39.096035, "fusion_lat": 0.0}, {"is_disabled": 0, "rental_uris": {"android": "https://dc.lft.to/lastmile_qr_scan", "ios": "https://dc.lft.to/lastmile_qr_scan"}, "is_reserved": 0, "name": "984827142fa1b79196b9950b46c58be7", "lon": -77.04159216666666, "type": "electric_scooter", "bike_id": "984827142fa1b79196b9950b46c58be7", "fusion_lon": 0.0, "lat": 38.910328666666665, "fusion_lat": 0.0}, {"is_disabled": 0, "rental_uris": {"android": "https://dc.lft.to/lastmile_qr_scan", "ios": "https://dc.lft.to/lastmile_qr_scan"}, "is_reserved": 0, "name": "d3931cfa273399c22596a2eca58890b8", "lon": -77.03207983333333, "type": "electric_scooter", "bike_id": "d3931cfa273399c22596a2eca58890b8", "fusion_lon": 0.0, "lat": 38.920074, "fusion_lat": 0.0}, {"is_disabled": 0, "rental_uris": {"android": "https://dc.lft.to/lastmile_qr_scan", "ios": "https://dc.lft.to/lastmile_qr_scan"}, "is_reserved": 0, "name": "89432797a3426713e4c3e4a6d6c667ba", "lon": -77.00333483333333, "type": "electric_scooter", "bike_id": "89432797a3426713e4c3e4a6d6c667ba", "fusion_lon": 0.0, "lat": 38.89360416666667, "fusion_lat": 0.0}, {"is_disabled": 0, "rental_uris": {"android": "https://dc.lft.to/lastmile_qr_scan", "ios": "https://dc.lft.to/lastmile_qr_scan"}, "is_reserved": 0, "name": "83168817340105d362fa68edba984f05", "lon": -77.03961533333333, "type": "electric_scooter", "bike_id": "83168817340105d362fa68edba984f05", "fusion_lon": 0.0, "lat": 38.92453583333333, "fusion_lat": 0.0}, {"is_disabled": 0, "rental_uris": {"android": "https://dc.lft.to/lastmile_qr_scan", "ios": "https://dc.lft.to/lastmile_qr_scan"}, "is_reserved": 0, "name": "c7e8398b10f7c3c3b848e76231d4c35a", "lon": -77.041551, "type": "electric_scooter", "bike_id": "c7e8398b10f7c3c3b848e76231d4c35a", "fusion_lon": 0.0, "lat": 38.91575383333333, "fusion_lat": 0.0}, {"is_disabled": 0, "rental_uris": {"android": "https://dc.lft.to/lastmile_qr_scan", "ios": "https://dc.lft.to/lastmile_qr_scan"}, "is_reserved": 0, "name": "057c20f20bca2e8008e3c5c63c9e6e01", "lon": -77.02299283333333, "type": "electric_scooter", "bike_id": "057c20f20bca2e8008e3c5c63c9e6e01", "fusion_lon": 0.0, "lat": 38.917905, "fusion_lat": 0.0}, {"is_disabled": 0, "rental_uris": {"android": "https://dc.lft.to/lastmile_qr_scan", "ios": "https://dc.lft.to/lastmile_qr_scan"}, "is_reserved": 0, "name": "feaabef12096592e1909d621d4e048d3", "lon": -77.12625066666666, "type": "electric_bike", "bike_id": "feaabef12096592e1909d621d4e048d3", "fusion_lon": 0.0, "lat": 39.05811633333333, "fusion_lat": 0.0}, {"is_disabled": 0, "rental_uris": {"android": "https://dc.lft.to/lastmile_qr_scan", "ios": "https://dc.lft.to/lastmile_qr_scan"}, "is_reserved": 0, "name": "000ec55a177cacd651c3d71ec13b6964", "lon": -77.048678, "type": "electric_scooter", "bike_id": "000ec55a177cacd651c3d71ec13b6964", "fusion_lon": 0.0, "lat": 38.909491333333335, "fusion_lat": 0.0}, {"is_disabled": 0, "rental_uris": {"android": "https://dc.lft.to/lastmile_qr_scan", "ios": "https://dc.lft.to/lastmile_qr_scan"}, "is_reserved": 0, "name": "990fde70f42f3e7a7a9dad1a933b83cf", "lon": -77.00743866666667, "type": "electric_scooter", "bike_id": "990fde70f42f3e7a7a9dad1a933b83cf", "fusion_lon": 0.0, "lat": 38.9155935, "fusion_lat": 0.0}, {"is_disabled": 0, "rental_uris": {"android": "https://dc.lft.to/lastmile_qr_scan", "ios": "https://dc.lft.to/lastmile_qr_scan"}, "is_reserved": 0, "name": "1e43eb3c7fbcb261040d99d726d845f7", "lon": -77.017598, "type": "electric_scooter", "bike_id": "1e43eb3c7fbcb261040d99d726d845f7", "fusion_lon": 0.0, "lat": 38.87719283333333, "fusion_lat": 0.0}, {"is_disabled": 0, "rental_uris": {"android": "https://dc.lft.to/lastmile_qr_scan", "ios": "https://dc.lft.to/lastmile_qr_scan"}, "is_reserved": 0, "name": "d7bceea79b440e583830785bbf2a2013", "lon": -77.008763, "type": "electric_scooter", "bike_id": "d7bceea79b440e583830785bbf2a2013", "fusion_lon": 0.0, "lat": 38.90587583333333, "fusion_lat": 0.0}, {"is_disabled": 0, "rental_uris": {"android": "https://dc.lft.to/lastmile_qr_scan", "ios": "https://dc.lft.to/lastmile_qr_scan"}, "is_reserved": 0, "name": "792f863166d6d20dde84e4cbc6a3c664", "lon": -77.03443516666667, "type": "electric_scooter", "bike_id": "792f863166d6d20dde84e4cbc6a3c664", "fusion_lon": 0.0, "lat": 38.9089075, "fusion_lat": 0.0}, {"is_disabled": 0, "rental_uris": {"android": "https://dc.lft.to/lastmile_qr_scan", "ios": "https://dc.lft.to/lastmile_qr_scan"}, "is_reserved": 0, "name": "0057581dbf05b78cc48f883df68f6d19", "lon": -77.0390185, "type": "electric_scooter", "bike_id": "0057581dbf05b78cc48f883df68f6d19", "fusion_lon": 0.0, "lat": 38.91432133333333, "fusion_lat": 0.0}, {"is_disabled": 0, "rental_uris": {"android": "https://dc.lft.to/lastmile_qr_scan", "ios": "https://dc.lft.to/lastmile_qr_scan"}, "is_reserved": 0, "name": "22e9d0e697c164011dcb442af332cd2c", "lon": -76.9807405, "type": "electric_scooter", "bike_id": "22e9d0e697c164011dcb442af332cd2c", "fusion_lon": 0.0, "lat": 38.91935133333333, "fusion_lat": 0.0}, {"is_disabled": 0, "rental_uris": {"android": "https://dc.lft.to/lastmile_qr_scan", "ios": "https://dc.lft.to/lastmile_qr_scan"}, "is_reserved": 0, "name": "a7b285f64283018ba71ac7a9aeca7574", "lon": -77.00813683333334, "type": "electric_scooter", "bike_id": "a7b285f64283018ba71ac7a9aeca7574", "fusion_lon": 0.0, "lat": 38.88332366666667, "fusion_lat": 0.0}, {"is_disabled": 0, "rental_uris": {"android": "https://dc.lft.to/lastmile_qr_scan", "ios": "https://dc.lft.to/lastmile_qr_scan"}, "is_reserved": 0, "name": "f7699ed77cab4bec83b17a90d089bf42", "lon": -77.00592216666666, "type": "electric_scooter", "bike_id": "f7699ed77cab4bec83b17a90d089bf42", "fusion_lon": 0.0, "lat": 38.927585666666666, "fusion_lat": 0.0}, {"is_disabled": 0, "rental_uris": {"android": "https://dc.lft.to/lastmile_qr_scan", "ios": "https://dc.lft.to/lastmile_qr_scan"}, "is_reserved": 0, "name": "a8d4de3b13118cdab092c293aaa0b036", "lon": -76.9969405, "type": "electric_scooter", "bike_id": "a8d4de3b13118cdab092c293aaa0b036", "fusion_lon": 0.0, "lat": 38.83856, "fusion_lat": 0.0}, {"is_disabled": 0, "rental_uris": {"android": "https://dc.lft.to/lastmile_qr_scan", "ios": "https://dc.lft.to/lastmile_qr_scan"}, "is_reserved": 0, "name": "6e142f37bfeb5e20897973db0ecc4bd1", "lon": -76.93200933333334, "type": "electric_bike", "bike_id": "6e142f37bfeb5e20897973db0ecc4bd1", "fusion_lon": 0.0, "lat": 38.872338666666664, "fusion_lat": 0.0}, {"is_disabled": 0, "rental_uris": {"android": "https://dc.lft.to/lastmile_qr_scan", "ios": "https://dc.lft.to/lastmile_qr_scan"}, "is_reserved": 0, "name": "59ef0acf18bf74e2734db6cd6d1b64a9", "lon": -77.001979, "type": "electric_scooter", "bike_id": "59ef0acf18bf74e2734db6cd6d1b64a9", "fusion_lon": 0.0, "lat": 38.9003625, "fusion_lat": 0.0}, {"is_disabled": 0, "rental_uris": {"android": "https://dc.lft.to/lastmile_qr_scan", "ios": "https://dc.lft.to/lastmile_qr_scan"}, "is_reserved": 0, "name": "3e460b5cbfcc8b4c4b49405f65dcfa47", "lon": -77.01849533333333, "type": "electric_scooter", "bike_id": "3e460b5cbfcc8b4c4b49405f65dcfa47", "fusion_lon": 0.0, "lat": 38.954304, "fusion_lat": 0.0}, {"is_disabled": 0, "rental_uris": {"android": "https://dc.lft.to/lastmile_qr_scan", "ios": "https://dc.lft.to/lastmile_qr_scan"}, "is_reserved": 0, "name": "9a5495ce97c9a4f7271e085c4d3da9c8", "lon": -77.02393916666666, "type": "electric_scooter", "bike_id": "9a5495ce97c9a4f7271e085c4d3da9c8", "fusion_lon": 0.0, "lat": 38.92073633333333, "fusion_lat": 0.0}, {"is_disabled": 0, "rental_uris": {"android": "https://dc.lft.to/lastmile_qr_scan", "ios": "https://dc.lft.to/lastmile_qr_scan"}, "is_reserved": 0, "name": "bc546cbc4f9566980e26153d53a9654d", "lon": -77.01890966666667, "type": "electric_scooter", "bike_id": "bc546cbc4f9566980e26153d53a9654d", "fusion_lon": 0.0, "lat": 38.9295675, "fusion_lat": 0.0}, {"is_disabled": 0, "rental_uris": {"android": "https://dc.lft.to/lastmile_qr_scan", "ios": "https://dc.lft.to/lastmile_qr_scan"}, "is_reserved": 0, "name": "5e84fab9938bb1446967ae7d88e92e7d", "lon": -77.023708, "type": "electric_scooter", "bike_id": "5e84fab9938bb1446967ae7d88e92e7d", "fusion_lon": 0.0, "lat": 38.919087166666664, "fusion_lat": 0.0}, {"is_disabled": 0, "rental_uris": {"android": "https://dc.lft.to/lastmile_qr_scan", "ios": "https://dc.lft.to/lastmile_qr_scan"}, "is_reserved": 0, "name": "d10024e4b48559c28acae926a36f0c25", "lon": -77.03242916666666, "type": "electric_scooter", "bike_id": "d10024e4b48559c28acae926a36f0c25", "fusion_lon": 0.0, "lat": 38.92106533333333, "fusion_lat": 0.0}, {"is_disabled": 0, "rental_uris": {"android": "https://dc.lft.to/lastmile_qr_scan", "ios": "https://dc.lft.to/lastmile_qr_scan"}, "is_reserved": 0, "name": "fbad0286465c746abfe4650760712218", "lon": -77.02123133333333, "type": "electric_bike", "bike_id": "fbad0286465c746abfe4650760712218", "fusion_lon": 0.0, "lat": 38.935744, "fusion_lat": 0.0}, {"is_disabled": 0, "rental_uris": {"android": "https://dc.lft.to/lastmile_qr_scan", "ios": "https://dc.lft.to/lastmile_qr_scan"}, "is_reserved": 0, "name": "6b634d5920db6400f1778e198ab49410", "lon": -77.043263, "type": "electric_scooter", "bike_id": "6b634d5920db6400f1778e198ab49410", "fusion_lon": 0.0, "lat": 38.923263166666665, "fusion_lat": 0.0}, {"is_disabled": 0, "rental_uris": {"android": "https://dc.lft.to/lastmile_qr_scan", "ios": "https://dc.lft.to/lastmile_qr_scan"}, "is_reserved": 0, "name": "84842bf22dae1e457b2e4a54f0c256db", "lon": -77.00077833333333, "type": "electric_bike", "bike_id": "84842bf22dae1e457b2e4a54f0c256db", "fusion_lon": 0.0, "lat": 38.8860625, "fusion_lat": 0.0}, {"is_disabled": 0, "rental_uris": {"android": "https://dc.lft.to/lastmile_qr_scan", "ios": "https://dc.lft.to/lastmile_qr_scan"}, "is_reserved": 0, "name": "599443a45284f53489b932f58f41cc5a", "lon": -76.97915766666667, "type": "electric_scooter", "bike_id": "599443a45284f53489b932f58f41cc5a", "fusion_lon": 0.0, "lat": 38.90432783333333, "fusion_lat": 0.0}, {"is_disabled": 0, "rental_uris": {"android": "https://dc.lft.to/lastmile_qr_scan", "ios": "https://dc.lft.to/lastmile_qr_scan"}, "is_reserved": 0, "name": "3b183d845e00e58a944cc432e3baad63", "lon": -77.0241755, "type": "electric_scooter", "bike_id": "3b183d845e00e58a944cc432e3baad63", "fusion_lon": 0.0, "lat": 38.9096005, "fusion_lat": 0.0}, {"is_disabled": 0, "rental_uris": {"android": "https://dc.lft.to/lastmile_qr_scan", "ios": "https://dc.lft.to/lastmile_qr_scan"}, "is_reserved": 0, "name": "5ef8ac184488a04b0123a044a8ac6df5", "lon": -77.01900266666667, "type": "electric_scooter", "bike_id": "5ef8ac184488a04b0123a044a8ac6df5", "fusion_lon": 0.0, "lat": 38.906480333333334, "fusion_lat": 0.0}, {"is_disabled": 0, "rental_uris": {"android": "https://dc.lft.to/lastmile_qr_scan", "ios": "https://dc.lft.to/lastmile_qr_scan"}, "is_reserved": 0, "name": "63979c3f547286f6a04efec55e012c6d", "lon": -76.9656005, "type": "electric_bike", "bike_id": "63979c3f547286f6a04efec55e012c6d", "fusion_lon": 0.0, "lat": 38.95091566666667, "fusion_lat": 0.0}, {"is_disabled": 0, "rental_uris": {"android": "https://dc.lft.to/lastmile_qr_scan", "ios": "https://dc.lft.to/lastmile_qr_scan"}, "is_reserved": 0, "name": "c762cc4e1b1cd699a25c2848b370bacf", "lon": -76.96527, "type": "electric_scooter", "bike_id": "c762cc4e1b1cd699a25c2848b370bacf", "fusion_lon": 0.0, "lat": 38.876273166666664, "fusion_lat": 0.0}, {"is_disabled": 0, "rental_uris": {"android": "https://dc.lft.to/lastmile_qr_scan", "ios": "https://dc.lft.to/lastmile_qr_scan"}, "is_reserved": 0, "name": "c0bf32ba134534315f8d636a9d4cb6f4", "lon": -77.04110166666666, "type": "electric_scooter", "bike_id": "c0bf32ba134534315f8d636a9d4cb6f4", "fusion_lon": 0.0, "lat": 38.908023, "fusion_lat": 0.0}, {"is_disabled": 0, "rental_uris": {"android": "https://dc.lft.to/lastmile_qr_scan", "ios": "https://dc.lft.to/lastmile_qr_scan"}, "is_reserved": 0, "name": "47b644302c6ea920d781cce6dfb5379c", "lon": -77.02069216666666, "type": "electric_scooter", "bike_id": "47b644302c6ea920d781cce6dfb5379c", "fusion_lon": 0.0, "lat": 38.9312005, "fusion_lat": 0.0}, {"is_disabled": 0, "rental_uris": {"android": "https://dc.lft.to/lastmile_qr_scan", "ios": "https://dc.lft.to/lastmile_qr_scan"}, "is_reserved": 0, "name": "f1c9737b0e87f1cc47294d925a0ea625", "lon": -77.046673, "type": "electric_scooter", "bike_id": "f1c9737b0e87f1cc47294d925a0ea625", "fusion_lon": 0.0, "lat": 38.907343166666664, "fusion_lat": 0.0}, {"is_disabled": 0, "rental_uris": {"android": "https://dc.lft.to/lastmile_qr_scan", "ios": "https://dc.lft.to/lastmile_qr_scan"}, "is_reserved": 0, "name": "77f94513a5f71045ca8518443aa1c77a", "lon": -77.02793633333333, "type": "electric_scooter", "bike_id": "77f94513a5f71045ca8518443aa1c77a", "fusion_lon": 0.0, "lat": 38.912471333333336, "fusion_lat": 0.0}, {"is_disabled": 0, "rental_uris": {"android": "https://dc.lft.to/lastmile_qr_scan", "ios": "https://dc.lft.to/lastmile_qr_scan"}, "is_reserved": 0, "name": "3a32c33dd9de269c9b1a71d888982ce2", "lon": -77.044547, "type": "electric_scooter", "bike_id": "3a32c33dd9de269c9b1a71d888982ce2", "fusion_lon": 0.0, "lat": 38.91110183333333, "fusion_lat": 0.0}, {"is_disabled": 0, "rental_uris": {"android": "https://dc.lft.to/lastmile_qr_scan", "ios": "https://dc.lft.to/lastmile_qr_scan"}, "is_reserved": 0, "name": "97018ee1dd303390c58bb17cf4e24c90", "lon": -77.01642433333333, "type": "electric_scooter", "bike_id": "97018ee1dd303390c58bb17cf4e24c90", "fusion_lon": 0.0, "lat": 38.90389016666666, "fusion_lat": 0.0}, {"is_disabled": 0, "rental_uris": {"android": "https://dc.lft.to/lastmile_qr_scan", "ios": "https://dc.lft.to/lastmile_qr_scan"}, "is_reserved": 0, "name": "89835555d7eb101473badfe4074d09ad", "lon": -77.02506566666666, "type": "electric_scooter", "bike_id": "89835555d7eb101473badfe4074d09ad", "fusion_lon": 0.0, "lat": 38.921384, "fusion_lat": 0.0}, {"is_disabled": 0, "rental_uris": {"android": "https://dc.lft.to/lastmile_qr_scan", "ios": "https://dc.lft.to/lastmile_qr_scan"}, "is_reserved": 0, "name": "aaed1490d9f2c34965d4eee473d98dce", "lon": -76.97955533333334, "type": "electric_scooter", "bike_id": "aaed1490d9f2c34965d4eee473d98dce", "fusion_lon": 0.0, "lat": 38.90499583333333, "fusion_lat": 0.0}, {"is_disabled": 0, "rental_uris": {"android": "https://dc.lft.to/lastmile_qr_scan", "ios": "https://dc.lft.to/lastmile_qr_scan"}, "is_reserved": 0, "name": "9437a5d7980e95609344b336b29da354", "lon": -77.02008233333333, "type": "electric_scooter", "bike_id": "9437a5d7980e95609344b336b29da354", "fusion_lon": 0.0, "lat": 38.924184333333336, "fusion_lat": 0.0}, {"is_disabled": 0, "rental_uris": {"android": "https://dc.lft.to/lastmile_qr_scan", "ios": "https://dc.lft.to/lastmile_qr_scan"}, "is_reserved": 0, "name": "8f7af18a62099cd9d87780a1a5e4c006", "lon": -77.04008816666666, "type": "electric_scooter", "bike_id": "8f7af18a62099cd9d87780a1a5e4c006", "fusion_lon": 0.0, "lat": 38.92098516666667, "fusion_lat": 0.0}, {"is_disabled": 0, "rental_uris": {"android": "https://dc.lft.to/lastmile_qr_scan", "ios": "https://dc.lft.to/lastmile_qr_scan"}, "is_reserved": 0, "name": "7cf479ddaf111ef56fe36c9fd7e0a8c9", "lon": -77.045378, "type": "electric_scooter", "bike_id": "7cf479ddaf111ef56fe36c9fd7e0a8c9", "fusion_lon": 0.0, "lat": 38.90396, "fusion_lat": 0.0}, {"is_disabled": 0, "rental_uris": {"android": "https://dc.lft.to/lastmile_qr_scan", "ios": "https://dc.lft.to/lastmile_qr_scan"}, "is_reserved": 0, "name": "7eefaf9de7d1bb13c7d264e6c954631b", "lon": -77.03459616666666, "type": "electric_scooter", "bike_id": "7eefaf9de7d1bb13c7d264e6c954631b", "fusion_lon": 0.0, "lat": 38.907446, "fusion_lat": 0.0}, {"is_disabled": 0, "rental_uris": {"android": "https://dc.lft.to/lastmile_qr_scan", "ios": "https://dc.lft.to/lastmile_qr_scan"}, "is_reserved": 0, "name": "634160851e7a5adf626da050ad1f5e51", "lon": -77.04055166666667, "type": "electric_scooter", "bike_id": "634160851e7a5adf626da050ad1f5e51", "fusion_lon": 0.0, "lat": 38.910371833333336, "fusion_lat": 0.0}, {"is_disabled": 0, "rental_uris": {"android": "https://dc.lft.to/lastmile_qr_scan", "ios": "https://dc.lft.to/lastmile_qr_scan"}, "is_reserved": 0, "name": "0d8f4b3555aa10c446de7980c6625d15", "lon": -77.02785016666667, "type": "electric_scooter", "bike_id": "0d8f4b3555aa10c446de7980c6625d15", "fusion_lon": 0.0, "lat": 38.96128983333333, "fusion_lat": 0.0}, {"is_disabled": 0, "rental_uris": {"android": "https://dc.lft.to/lastmile_qr_scan", "ios": "https://dc.lft.to/lastmile_qr_scan"}, "is_reserved": 0, "name": "54af611f2a708f03305662fbe3e2d973", "lon": -76.93185466666667, "type": "electric_scooter", "bike_id": "54af611f2a708f03305662fbe3e2d973", "fusion_lon": 0.0, "lat": 38.89878916666667, "fusion_lat": 0.0}, {"is_disabled": 0, "rental_uris": {"android": "https://dc.lft.to/lastmile_qr_scan", "ios": "https://dc.lft.to/lastmile_qr_scan"}, "is_reserved": 0, "name": "37bb082c078a5ddf7282c8922f6faf61", "lon": -77.038443, "type": "electric_scooter", "bike_id": "37bb082c078a5ddf7282c8922f6faf61", "fusion_lon": 0.0, "lat": 38.9077175, "fusion_lat": 0.0}, {"is_disabled": 0, "rental_uris": {"android": "https://dc.lft.to/lastmile_qr_scan", "ios": "https://dc.lft.to/lastmile_qr_scan"}, "is_reserved": 0, "name": "292a491996d70592e7ffb2cf89b4afd1", "lon": -77.057061, "type": "electric_scooter", "bike_id": "292a491996d70592e7ffb2cf89b4afd1", "fusion_lon": 0.0, "lat": 38.926217333333334, "fusion_lat": 0.0}, {"is_disabled": 0, "rental_uris": {"android": "https://dc.lft.to/lastmile_qr_scan", "ios": "https://dc.lft.to/lastmile_qr_scan"}, "is_reserved": 0, "name": "3098cecb94e012b7d8c57b62bf7d8f42", "lon": -77.019742, "type": "electric_scooter", "bike_id": "3098cecb94e012b7d8c57b62bf7d8f42", "fusion_lon": 0.0, "lat": 38.911920333333335, "fusion_lat": 0.0}, {"is_disabled": 0, "rental_uris": {"android": "https://dc.lft.to/lastmile_qr_scan", "ios": "https://dc.lft.to/lastmile_qr_scan"}, "is_reserved": 0, "name": "146601e521c67082cd7adcb68a9f42df", "lon": -77.023887, "type": "electric_scooter", "bike_id": "146601e521c67082cd7adcb68a9f42df", "fusion_lon": 0.0, "lat": 38.9058305, "fusion_lat": 0.0}, {"is_disabled": 0, "rental_uris": {"android": "https://dc.lft.to/lastmile_qr_scan", "ios": "https://dc.lft.to/lastmile_qr_scan"}, "is_reserved": 0, "name": "ac60b5b30400016d6091a6f0db1f59b9", "lon": -76.9567105, "type": "electric_scooter", "bike_id": "ac60b5b30400016d6091a6f0db1f59b9", "fusion_lon": 0.0, "lat": 38.887676166666665, "fusion_lat": 0.0}, {"is_disabled": 0, "rental_uris": {"android": "https://dc.lft.to/lastmile_qr_scan", "ios": "https://dc.lft.to/lastmile_qr_scan"}, "is_reserved": 0, "name": "0e82d84d20efffb6bb8ddb343b215d71", "lon": -76.98165083333333, "type": "electric_bike", "bike_id": "0e82d84d20efffb6bb8ddb343b215d71", "fusion_lon": 0.0, "lat": 38.9596235, "fusion_lat": 0.0}, {"is_disabled": 0, "rental_uris": {"android": "https://dc.lft.to/lastmile_qr_scan", "ios": "https://dc.lft.to/lastmile_qr_scan"}, "is_reserved": 0, "name": "b36c61cd19c5d7f871286931efcf070c", "lon": -77.02464333333333, "type": "electric_bike", "bike_id": "b36c61cd19c5d7f871286931efcf070c", "fusion_lon": 0.0, "lat": 38.9557745, "fusion_lat": 0.0}, {"is_disabled": 0, "rental_uris": {"android": "https://dc.lft.to/lastmile_qr_scan", "ios": "https://dc.lft.to/lastmile_qr_scan"}, "is_reserved": 0, "name": "81eae7825c381f859fe7f7839b2b6a0c", "lon": -77.04148766666667, "type": "electric_scooter", "bike_id": "81eae7825c381f859fe7f7839b2b6a0c", "fusion_lon": 0.0, "lat": 38.9126505, "fusion_lat": 0.0}, {"is_disabled": 0, "rental_uris": {"android": "https://dc.lft.to/lastmile_qr_scan", "ios": "https://dc.lft.to/lastmile_qr_scan"}, "is_reserved": 0, "name": "ab767eef5c21deafc514a38e298a3258", "lon": -76.93347566666667, "type": "electric_scooter", "bike_id": "ab767eef5c21deafc514a38e298a3258", "fusion_lon": 0.0, "lat": 38.89903416666667, "fusion_lat": 0.0}, {"is_disabled": 0, "rental_uris": {"android": "https://dc.lft.to/lastmile_qr_scan", "ios": "https://dc.lft.to/lastmile_qr_scan"}, "is_reserved": 0, "name": "01e5cbf2399b2a1ff6af59e83e8c6408", "lon": -77.04404, "type": "electric_scooter", "bike_id": "01e5cbf2399b2a1ff6af59e83e8c6408", "fusion_lon": 0.0, "lat": 38.893925833333334, "fusion_lat": 0.0}, {"is_disabled": 0, "rental_uris": {"android": "https://dc.lft.to/lastmile_qr_scan", "ios": "https://dc.lft.to/lastmile_qr_scan"}, "is_reserved": 0, "name": "33f89bd1555ef14ceb2542e98a45ede7", "lon": -77.03532033333333, "type": "electric_scooter", "bike_id": "33f89bd1555ef14ceb2542e98a45ede7", "fusion_lon": 0.0, "lat": 38.9234765, "fusion_lat": 0.0}, {"is_disabled": 0, "rental_uris": {"android": "https://dc.lft.to/lastmile_qr_scan", "ios": "https://dc.lft.to/lastmile_qr_scan"}, "is_reserved": 0, "name": "0e51106a35ad4a93b7e36cb93bf23da5", "lon": -77.03483933333334, "type": "electric_scooter", "bike_id": "0e51106a35ad4a93b7e36cb93bf23da5", "fusion_lon": 0.0, "lat": 38.92487583333333, "fusion_lat": 0.0}, {"is_disabled": 0, "rental_uris": {"android": "https://dc.lft.to/lastmile_qr_scan", "ios": "https://dc.lft.to/lastmile_qr_scan"}, "is_reserved": 0, "name": "cbbe3c45f8c53623cf5a606bd1bfe3d0", "lon": -77.0286155, "type": "electric_scooter", "bike_id": "cbbe3c45f8c53623cf5a606bd1bfe3d0", "fusion_lon": 0.0, "lat": 38.90156233333333, "fusion_lat": 0.0}, {"is_disabled": 0, "rental_uris": {"android": "https://dc.lft.to/lastmile_qr_scan", "ios": "https://dc.lft.to/lastmile_qr_scan"}, "is_reserved": 0, "name": "2f559ca9818ee2761fe6875066031327", "lon": -77.02672816666667, "type": "electric_scooter", "bike_id": "2f559ca9818ee2761fe6875066031327", "fusion_lon": 0.0, "lat": 38.896444333333335, "fusion_lat": 0.0}, {"is_disabled": 0, "rental_uris": {"android": "https://dc.lft.to/lastmile_qr_scan", "ios": "https://dc.lft.to/lastmile_qr_scan"}, "is_reserved": 0, "name": "a798ba3467a446608212834f23cff489", "lon": -76.9964405, "type": "electric_scooter", "bike_id": "a798ba3467a446608212834f23cff489", "fusion_lon": 0.0, "lat": 38.887162833333335, "fusion_lat": 0.0}, {"is_disabled": 0, "rental_uris": {"android": "https://dc.lft.to/lastmile_qr_scan", "ios": "https://dc.lft.to/lastmile_qr_scan"}, "is_reserved": 0, "name": "2b4c9be518cb13edc84041742f294cc5", "lon": -77.04149083333333, "type": "electric_scooter", "bike_id": "2b4c9be518cb13edc84041742f294cc5", "fusion_lon": 0.0, "lat": 38.91271583333333, "fusion_lat": 0.0}, {"is_disabled": 0, "rental_uris": {"android": "https://dc.lft.to/lastmile_qr_scan", "ios": "https://dc.lft.to/lastmile_qr_scan"}, "is_reserved": 0, "name": "a1d6b028ed0e272c63ba64100cba7fa0", "lon": -77.048106, "type": "electric_scooter", "bike_id": "a1d6b028ed0e272c63ba64100cba7fa0", "fusion_lon": 0.0, "lat": 38.920341666666666, "fusion_lat": 0.0}, {"is_disabled": 0, "rental_uris": {"android": "https://dc.lft.to/lastmile_qr_scan", "ios": "https://dc.lft.to/lastmile_qr_scan"}, "is_reserved": 0, "name": "6c6d6cac109f8382ca0aff0d51d5080d", "lon": -77.02074866666666, "type": "electric_scooter", "bike_id": "6c6d6cac109f8382ca0aff0d51d5080d", "fusion_lon": 0.0, "lat": 38.881199, "fusion_lat": 0.0}, {"is_disabled": 0, "rental_uris": {"android": "https://dc.lft.to/lastmile_qr_scan", "ios": "https://dc.lft.to/lastmile_qr_scan"}, "is_reserved": 0, "name": "6a3ceb0ebe1470bdcb1f948fd6c8472c", "lon": -77.02968133333333, "type": "electric_scooter", "bike_id": "6a3ceb0ebe1470bdcb1f948fd6c8472c", "fusion_lon": 0.0, "lat": 38.92250933333333, "fusion_lat": 0.0}, {"is_disabled": 0, "rental_uris": {"android": "https://dc.lft.to/lastmile_qr_scan", "ios": "https://dc.lft.to/lastmile_qr_scan"}, "is_reserved": 0, "name": "b7bb8baf00e9004888220d599076bce3", "lon": -76.98884833333334, "type": "electric_scooter", "bike_id": "b7bb8baf00e9004888220d599076bce3", "fusion_lon": 0.0, "lat": 38.866595, "fusion_lat": 0.0}, {"is_disabled": 0, "rental_uris": {"android": "https://dc.lft.to/lastmile_qr_scan", "ios": "https://dc.lft.to/lastmile_qr_scan"}, "is_reserved": 0, "name": "1de55aba86a447f7a8d891faf8ea3a23", "lon": -76.97793783333333, "type": "electric_bike", "bike_id": "1de55aba86a447f7a8d891faf8ea3a23", "fusion_lon": 0.0, "lat": 38.89609683333333, "fusion_lat": 0.0}, {"is_disabled": 0, "rental_uris": {"android": "https://dc.lft.to/lastmile_qr_scan", "ios": "https://dc.lft.to/lastmile_qr_scan"}, "is_reserved": 0, "name": "8a39ac191945c9a36c3ca91d7e7da374", "lon": -77.023815, "type": "electric_bike", "bike_id": "8a39ac191945c9a36c3ca91d7e7da374", "fusion_lon": 0.0, "lat": 38.99072433333333, "fusion_lat": 0.0}, {"is_disabled": 0, "rental_uris": {"android": "https://dc.lft.to/lastmile_qr_scan", "ios": "https://dc.lft.to/lastmile_qr_scan"}, "is_reserved": 0, "name": "f98105c5e9b0042f7c2b224ace39ec4d", "lon": -77.00527783333334, "type": "electric_scooter", "bike_id": "f98105c5e9b0042f7c2b224ace39ec4d", "fusion_lon": 0.0, "lat": 38.8747015, "fusion_lat": 0.0}, {"is_disabled": 0, "rental_uris": {"android": "https://dc.lft.to/lastmile_qr_scan", "ios": "https://dc.lft.to/lastmile_qr_scan"}, "is_reserved": 0, "name": "17bfbfc3c48eb824fbf84468f40df63c", "lon": -77.04277133333333, "type": "electric_scooter", "bike_id": "17bfbfc3c48eb824fbf84468f40df63c", "fusion_lon": 0.0, "lat": 38.934159666666666, "fusion_lat": 0.0}, {"is_disabled": 0, "rental_uris": {"android": "https://dc.lft.to/lastmile_qr_scan", "ios": "https://dc.lft.to/lastmile_qr_scan"}, "is_reserved": 0, "name": "fd957a89cde40daee3bb6b1da8e5f922", "lon": -77.08815683333333, "type": "electric_bike", "bike_id": "fd957a89cde40daee3bb6b1da8e5f922", "fusion_lon": 0.0, "lat": 38.909729166666665, "fusion_lat": 0.0}, {"is_disabled": 0, "rental_uris": {"android": "https://dc.lft.to/lastmile_qr_scan", "ios": "https://dc.lft.to/lastmile_qr_scan"}, "is_reserved": 0, "name": "559c73789139727674f8863285326131", "lon": -77.02780633333333, "type": "electric_scooter", "bike_id": "559c73789139727674f8863285326131", "fusion_lon": 0.0, "lat": 38.95123266666667, "fusion_lat": 0.0}, {"is_disabled": 0, "rental_uris": {"android": "https://dc.lft.to/lastmile_qr_scan", "ios": "https://dc.lft.to/lastmile_qr_scan"}, "is_reserved": 0, "name": "da5df2fcb767b2b394c621eb7090e4c5", "lon": -77.04129183333333, "type": "electric_scooter", "bike_id": "da5df2fcb767b2b394c621eb7090e4c5", "fusion_lon": 0.0, "lat": 38.921302, "fusion_lat": 0.0}, {"is_disabled": 0, "rental_uris": {"android": "https://dc.lft.to/lastmile_qr_scan", "ios": "https://dc.lft.to/lastmile_qr_scan"}, "is_reserved": 0, "name": "e3f2f09e41f54adc6f904d7508d2641c", "lon": -77.03873233333333, "type": "electric_scooter", "bike_id": "e3f2f09e41f54adc6f904d7508d2641c", "fusion_lon": 0.0, "lat": 38.91564733333333, "fusion_lat": 0.0}, {"is_disabled": 0, "rental_uris": {"android": "https://dc.lft.to/lastmile_qr_scan", "ios": "https://dc.lft.to/lastmile_qr_scan"}, "is_reserved": 0, "name": "369768f36a9357be886277d00be0bb03", "lon": -77.0210845, "type": "electric_scooter", "bike_id": "369768f36a9357be886277d00be0bb03", "fusion_lon": 0.0, "lat": 38.94096533333333, "fusion_lat": 0.0}, {"is_disabled": 0, "rental_uris": {"android": "https://dc.lft.to/lastmile_qr_scan", "ios": "https://dc.lft.to/lastmile_qr_scan"}, "is_reserved": 0, "name": "fd644ecb3c2f5af4a327e01dfe50a365", "lon": -76.9905245, "type": "electric_scooter", "bike_id": "fd644ecb3c2f5af4a327e01dfe50a365", "fusion_lon": 0.0, "lat": 38.86358216666667, "fusion_lat": 0.0}, {"is_disabled": 0, "rental_uris": {"android": "https://dc.lft.to/lastmile_qr_scan", "ios": "https://dc.lft.to/lastmile_qr_scan"}, "is_reserved": 0, "name": "a322d4dc9d046a6639d54d3abf491f99", "lon": -77.01243416666667, "type": "electric_scooter", "bike_id": "a322d4dc9d046a6639d54d3abf491f99", "fusion_lon": 0.0, "lat": 38.93110716666666, "fusion_lat": 0.0}, {"is_disabled": 0, "rental_uris": {"android": "https://dc.lft.to/lastmile_qr_scan", "ios": "https://dc.lft.to/lastmile_qr_scan"}, "is_reserved": 0, "name": "954486f1728c3966057d543df77ee4ea", "lon": -77.024887, "type": "electric_scooter", "bike_id": "954486f1728c3966057d543df77ee4ea", "fusion_lon": 0.0, "lat": 38.93776416666667, "fusion_lat": 0.0}, {"is_disabled": 0, "rental_uris": {"android": "https://dc.lft.to/lastmile_qr_scan", "ios": "https://dc.lft.to/lastmile_qr_scan"}, "is_reserved": 0, "name": "f8bbe6e7232e6152a85aa61b56e82570", "lon": -77.03865083333334, "type": "electric_scooter", "bike_id": "f8bbe6e7232e6152a85aa61b56e82570", "fusion_lon": 0.0, "lat": 38.92154466666667, "fusion_lat": 0.0}, {"is_disabled": 0, "rental_uris": {"android": "https://dc.lft.to/lastmile_qr_scan", "ios": "https://dc.lft.to/lastmile_qr_scan"}, "is_reserved": 0, "name": "c9b37d91b5d8c0cd05792ed98fd470d0", "lon": -77.0439945, "type": "electric_scooter", "bike_id": "c9b37d91b5d8c0cd05792ed98fd470d0", "fusion_lon": 0.0, "lat": 38.9294835, "fusion_lat": 0.0}, {"is_disabled": 0, "rental_uris": {"android": "https://dc.lft.to/lastmile_qr_scan", "ios": "https://dc.lft.to/lastmile_qr_scan"}, "is_reserved": 0, "name": "5c92adeb2e06bade695f463011749aad", "lon": -77.11524633333333, "type": "electric_bike", "bike_id": "5c92adeb2e06bade695f463011749aad", "fusion_lon": 0.0, "lat": 38.854919333333335, "fusion_lat": 0.0}, {"is_disabled": 0, "rental_uris": {"android": "https://dc.lft.to/lastmile_qr_scan", "ios": "https://dc.lft.to/lastmile_qr_scan"}, "is_reserved": 0, "name": "554d79cc756d944d3a3144e8c88c0879", "lon": -77.020506, "type": "electric_scooter", "bike_id": "554d79cc756d944d3a3144e8c88c0879", "fusion_lon": 0.0, "lat": 38.95873133333333, "fusion_lat": 0.0}, {"is_disabled": 0, "rental_uris": {"android": "https://dc.lft.to/lastmile_qr_scan", "ios": "https://dc.lft.to/lastmile_qr_scan"}, "is_reserved": 0, "name": "d2618dacc1d58ed26bf46ee8df3466f5", "lon": -77.05386616666667, "type": "electric_scooter", "bike_id": "d2618dacc1d58ed26bf46ee8df3466f5", "fusion_lon": 0.0, "lat": 38.91063116666667, "fusion_lat": 0.0}, {"is_disabled": 0, "rental_uris": {"android": "https://dc.lft.to/lastmile_qr_scan", "ios": "https://dc.lft.to/lastmile_qr_scan"}, "is_reserved": 0, "name": "25cb00016609d5b5da9974e0100dbdae", "lon": -77.0738355, "type": "electric_bike", "bike_id": "25cb00016609d5b5da9974e0100dbdae", "fusion_lon": 0.0, "lat": 38.9617715, "fusion_lat": 0.0}, {"is_disabled": 0, "rental_uris": {"android": "https://dc.lft.to/lastmile_qr_scan", "ios": "https://dc.lft.to/lastmile_qr_scan"}, "is_reserved": 0, "name": "4c2f66011a7da3d4a5efa84ad753a99b", "lon": -77.0038615, "type": "electric_scooter", "bike_id": "4c2f66011a7da3d4a5efa84ad753a99b", "fusion_lon": 0.0, "lat": 38.91075083333333, "fusion_lat": 0.0}, {"is_disabled": 0, "rental_uris": {"android": "https://dc.lft.to/lastmile_qr_scan", "ios": "https://dc.lft.to/lastmile_qr_scan"}, "is_reserved": 0, "name": "86520a5ad3c20886b6add20ad20a640c", "lon": -77.0354605, "type": "electric_scooter", "bike_id": "86520a5ad3c20886b6add20ad20a640c", "fusion_lon": 0.0, "lat": 38.92424, "fusion_lat": 0.0}, {"is_disabled": 0, "rental_uris": {"android": "https://dc.lft.to/lastmile_qr_scan", "ios": "https://dc.lft.to/lastmile_qr_scan"}, "is_reserved": 0, "name": "6dc413326bd203a876715d635d81c8b5", "lon": -76.94283633333333, "type": "electric_scooter", "bike_id": "6dc413326bd203a876715d635d81c8b5", "fusion_lon": 0.0, "lat": 38.883052, "fusion_lat": 0.0}, {"is_disabled": 0, "rental_uris": {"android": "https://dc.lft.to/lastmile_qr_scan", "ios": "https://dc.lft.to/lastmile_qr_scan"}, "is_reserved": 0, "name": "ee1eb609fe995c13f55535824f809d99", "lon": -77.01207766666667, "type": "electric_scooter", "bike_id": "ee1eb609fe995c13f55535824f809d99", "fusion_lon": 0.0, "lat": 38.91822916666667, "fusion_lat": 0.0}, {"is_disabled": 0, "rental_uris": {"android": "https://dc.lft.to/lastmile_qr_scan", "ios": "https://dc.lft.to/lastmile_qr_scan"}, "is_reserved": 0, "name": "0013eeba8746048983225ce91f1ebb93", "lon": -76.92229216666667, "type": "electric_scooter", "bike_id": "0013eeba8746048983225ce91f1ebb93", "fusion_lon": 0.0, "lat": 38.90001, "fusion_lat": 0.0}, {"is_disabled": 0, "rental_uris": {"android": "https://dc.lft.to/lastmile_qr_scan", "ios": "https://dc.lft.to/lastmile_qr_scan"}, "is_reserved": 0, "name": "955f16d0137bd47ddc7e8578fd3ae187", "lon": -77.021544, "type": "electric_scooter", "bike_id": "955f16d0137bd47ddc7e8578fd3ae187", "fusion_lon": 0.0, "lat": 38.89922633333333, "fusion_lat": 0.0}, {"is_disabled": 0, "rental_uris": {"android": "https://dc.lft.to/lastmile_qr_scan", "ios": "https://dc.lft.to/lastmile_qr_scan"}, "is_reserved": 0, "name": "e983798deedf47ab504499bbd669ae17", "lon": -77.03317566666666, "type": "electric_scooter", "bike_id": "e983798deedf47ab504499bbd669ae17", "fusion_lon": 0.0, "lat": 38.9182125, "fusion_lat": 0.0}, {"is_disabled": 0, "rental_uris": {"android": "https://dc.lft.to/lastmile_qr_scan", "ios": "https://dc.lft.to/lastmile_qr_scan"}, "is_reserved": 0, "name": "64b72006ce0eb6247e7a71c5da4e6a4b", "lon": -77.0385105, "type": "electric_scooter", "bike_id": "64b72006ce0eb6247e7a71c5da4e6a4b", "fusion_lon": 0.0, "lat": 38.932024166666665, "fusion_lat": 0.0}, {"is_disabled": 0, "rental_uris": {"android": "https://dc.lft.to/lastmile_qr_scan", "ios": "https://dc.lft.to/lastmile_qr_scan"}, "is_reserved": 0, "name": "7f60983a2ab9cbd8720bb4b78c359f69", "lon": -77.05208983333333, "type": "electric_scooter", "bike_id": "7f60983a2ab9cbd8720bb4b78c359f69", "fusion_lon": 0.0, "lat": 38.92479016666667, "fusion_lat": 0.0}, {"is_disabled": 0, "rental_uris": {"android": "https://dc.lft.to/lastmile_qr_scan", "ios": "https://dc.lft.to/lastmile_qr_scan"}, "is_reserved": 0, "name": "5c113896bb785690778d347a3269d0d7", "lon": -76.94632483333334, "type": "electric_scooter", "bike_id": "5c113896bb785690778d347a3269d0d7", "fusion_lon": 0.0, "lat": 38.8983525, "fusion_lat": 0.0}, {"is_disabled": 0, "rental_uris": {"android": "https://dc.lft.to/lastmile_qr_scan", "ios": "https://dc.lft.to/lastmile_qr_scan"}, "is_reserved": 0, "name": "2fafb10921bfd4e5145d331837489335", "lon": -77.05001583333333, "type": "electric_scooter", "bike_id": "2fafb10921bfd4e5145d331837489335", "fusion_lon": 0.0, "lat": 38.905134, "fusion_lat": 0.0}, {"is_disabled": 0, "rental_uris": {"android": "https://dc.lft.to/lastmile_qr_scan", "ios": "https://dc.lft.to/lastmile_qr_scan"}, "is_reserved": 0, "name": "d13288b8da5ab1fc16d20e8597acf2e3", "lon": -77.05937783333333, "type": "electric_scooter", "bike_id": "d13288b8da5ab1fc16d20e8597acf2e3", "fusion_lon": 0.0, "lat": 38.93681316666667, "fusion_lat": 0.0}, {"is_disabled": 0, "rental_uris": {"android": "https://dc.lft.to/lastmile_qr_scan", "ios": "https://dc.lft.to/lastmile_qr_scan"}, "is_reserved": 0, "name": "5506a6e01ec9ec8757a55f6ce8b9a94e", "lon": -77.03248483333333, "type": "electric_scooter", "bike_id": "5506a6e01ec9ec8757a55f6ce8b9a94e", "fusion_lon": 0.0, "lat": 38.93697566666667, "fusion_lat": 0.0}, {"is_disabled": 0, "rental_uris": {"android": "https://dc.lft.to/lastmile_qr_scan", "ios": "https://dc.lft.to/lastmile_qr_scan"}, "is_reserved": 0, "name": "c742840bd880b6998cf320e466d821d8", "lon": -77.03051633333334, "type": "electric_scooter", "bike_id": "c742840bd880b6998cf320e466d821d8", "fusion_lon": 0.0, "lat": 38.923753, "fusion_lat": 0.0}, {"is_disabled": 0, "rental_uris": {"android": "https://dc.lft.to/lastmile_qr_scan", "ios": "https://dc.lft.to/lastmile_qr_scan"}, "is_reserved": 0, "name": "84e9ec0aa850daa26b4e4b18c809d925", "lon": -77.02580816666666, "type": "electric_scooter", "bike_id": "84e9ec0aa850daa26b4e4b18c809d925", "fusion_lon": 0.0, "lat": 38.920333666666664, "fusion_lat": 0.0}, {"is_disabled": 0, "rental_uris": {"android": "https://dc.lft.to/lastmile_qr_scan", "ios": "https://dc.lft.to/lastmile_qr_scan"}, "is_reserved": 0, "name": "fe07ca05640905af0073c6ad2e3718d7", "lon": -76.99834733333333, "type": "electric_scooter", "bike_id": "fe07ca05640905af0073c6ad2e3718d7", "fusion_lon": 0.0, "lat": 38.90881383333333, "fusion_lat": 0.0}, {"is_disabled": 0, "rental_uris": {"android": "https://dc.lft.to/lastmile_qr_scan", "ios": "https://dc.lft.to/lastmile_qr_scan"}, "is_reserved": 0, "name": "6c962ef2de938e56d090dbdc18a2673c", "lon": -77.045569, "type": "electric_scooter", "bike_id": "6c962ef2de938e56d090dbdc18a2673c", "fusion_lon": 0.0, "lat": 38.913125, "fusion_lat": 0.0}, {"is_disabled": 0, "rental_uris": {"android": "https://dc.lft.to/lastmile_qr_scan", "ios": "https://dc.lft.to/lastmile_qr_scan"}, "is_reserved": 0, "name": "016f82e26732dbaf55e0fdad96ff5e44", "lon": -77.00761366666667, "type": "electric_scooter", "bike_id": "016f82e26732dbaf55e0fdad96ff5e44", "fusion_lon": 0.0, "lat": 38.9037965, "fusion_lat": 0.0}, {"is_disabled": 0, "rental_uris": {"android": "https://dc.lft.to/lastmile_qr_scan", "ios": "https://dc.lft.to/lastmile_qr_scan"}, "is_reserved": 0, "name": "79508569634f06d76d5b696effc29ec7", "lon": -77.04222016666667, "type": "electric_scooter", "bike_id": "79508569634f06d76d5b696effc29ec7", "fusion_lon": 0.0, "lat": 38.9077695, "fusion_lat": 0.0}, {"is_disabled": 0, "rental_uris": {"android": "https://dc.lft.to/lastmile_qr_scan", "ios": "https://dc.lft.to/lastmile_qr_scan"}, "is_reserved": 0, "name": "612ffb2e3f5c78534fec4be2593a9c68", "lon": -77.03852266666667, "type": "electric_scooter", "bike_id": "612ffb2e3f5c78534fec4be2593a9c68", "fusion_lon": 0.0, "lat": 38.918367833333335, "fusion_lat": 0.0}, {"is_disabled": 0, "rental_uris": {"android": "https://dc.lft.to/lastmile_qr_scan", "ios": "https://dc.lft.to/lastmile_qr_scan"}, "is_reserved": 0, "name": "cbdccbc1f597d16a89798b930f0d48ae", "lon": -76.998641, "type": "electric_scooter", "bike_id": "cbdccbc1f597d16a89798b930f0d48ae", "fusion_lon": 0.0, "lat": 38.900301166666665, "fusion_lat": 0.0}, {"is_disabled": 0, "rental_uris": {"android": "https://dc.lft.to/lastmile_qr_scan", "ios": "https://dc.lft.to/lastmile_qr_scan"}, "is_reserved": 0, "name": "9d679a952a7429449347bc92663050dd", "lon": -76.99863316666666, "type": "electric_scooter", "bike_id": "9d679a952a7429449347bc92663050dd", "fusion_lon": 0.0, "lat": 38.90025133333333, "fusion_lat": 0.0}, {"is_disabled": 0, "rental_uris": {"android": "https://dc.lft.to/lastmile_qr_scan", "ios": "https://dc.lft.to/lastmile_qr_scan"}, "is_reserved": 0, "name": "1b83a843fbf608a5523f2073c105cb4d", "lon": -76.98318416666666, "type": "electric_bike", "bike_id": "1b83a843fbf608a5523f2073c105cb4d", "fusion_lon": 0.0, "lat": 38.9225785, "fusion_lat": 0.0}, {"is_disabled": 0, "rental_uris": {"android": "https://dc.lft.to/lastmile_qr_scan", "ios": "https://dc.lft.to/lastmile_qr_scan"}, "is_reserved": 0, "name": "7c38b0a8cbeabd93ce69794393cbe28b", "lon": -77.0525235, "type": "electric_scooter", "bike_id": "7c38b0a8cbeabd93ce69794393cbe28b", "fusion_lon": 0.0, "lat": 38.927378833333336, "fusion_lat": 0.0}, {"is_disabled": 0, "rental_uris": {"android": "https://dc.lft.to/lastmile_qr_scan", "ios": "https://dc.lft.to/lastmile_qr_scan"}, "is_reserved": 0, "name": "1a7fe73e0bf1ff479e944767ede9bca3", "lon": -77.05292583333333, "type": "electric_scooter", "bike_id": "1a7fe73e0bf1ff479e944767ede9bca3", "fusion_lon": 0.0, "lat": 38.90335366666667, "fusion_lat": 0.0}, {"is_disabled": 0, "rental_uris": {"android": "https://dc.lft.to/lastmile_qr_scan", "ios": "https://dc.lft.to/lastmile_qr_scan"}, "is_reserved": 0, "name": "4d267eb12b10bfb92a6b0f2851cbbffe", "lon": -77.01658516666667, "type": "electric_bike", "bike_id": "4d267eb12b10bfb92a6b0f2851cbbffe", "fusion_lon": 0.0, "lat": 38.9543445, "fusion_lat": 0.0}, {"is_disabled": 0, "rental_uris": {"android": "https://dc.lft.to/lastmile_qr_scan", "ios": "https://dc.lft.to/lastmile_qr_scan"}, "is_reserved": 0, "name": "6dcd16fc57c831258e019c9a491f98d2", "lon": -77.03267483333333, "type": "electric_scooter", "bike_id": "6dcd16fc57c831258e019c9a491f98d2", "fusion_lon": 0.0, "lat": 38.93328616666667, "fusion_lat": 0.0}, {"is_disabled": 0, "rental_uris": {"android": "https://dc.lft.to/lastmile_qr_scan", "ios": "https://dc.lft.to/lastmile_qr_scan"}, "is_reserved": 0, "name": "f599a105a8cd3a9edf5694e82e1d1e39", "lon": -76.98711183333333, "type": "electric_scooter", "bike_id": "f599a105a8cd3a9edf5694e82e1d1e39", "fusion_lon": 0.0, "lat": 38.867007, "fusion_lat": 0.0}, {"is_disabled": 0, "rental_uris": {"android": "https://dc.lft.to/lastmile_qr_scan", "ios": "https://dc.lft.to/lastmile_qr_scan"}, "is_reserved": 0, "name": "71d42631ffc6ecc00442c92b76c85912", "lon": -77.00591683333333, "type": "electric_scooter", "bike_id": "71d42631ffc6ecc00442c92b76c85912", "fusion_lon": 0.0, "lat": 38.905822666666666, "fusion_lat": 0.0}, {"is_disabled": 0, "rental_uris": {"android": "https://dc.lft.to/lastmile_qr_scan", "ios": "https://dc.lft.to/lastmile_qr_scan"}, "is_reserved": 0, "name": "4889c1e39c2be96d79e9fe678b108d5a", "lon": -76.94998816666667, "type": "electric_scooter", "bike_id": "4889c1e39c2be96d79e9fe678b108d5a", "fusion_lon": 0.0, "lat": 38.893962333333334, "fusion_lat": 0.0}, {"is_disabled": 0, "rental_uris": {"android": "https://dc.lft.to/lastmile_qr_scan", "ios": "https://dc.lft.to/lastmile_qr_scan"}, "is_reserved": 0, "name": "3bfc49a5a52511390430c422311ffa7e", "lon": -77.0269285, "type": "electric_scooter", "bike_id": "3bfc49a5a52511390430c422311ffa7e", "fusion_lon": 0.0, "lat": 38.907364, "fusion_lat": 0.0}, {"is_disabled": 0, "rental_uris": {"android": "https://dc.lft.to/lastmile_qr_scan", "ios": "https://dc.lft.to/lastmile_qr_scan"}, "is_reserved": 0, "name": "7afa58fd04ded94321df9f28e7119163", "lon": -77.00915383333333, "type": "electric_scooter", "bike_id": "7afa58fd04ded94321df9f28e7119163", "fusion_lon": 0.0, "lat": 38.89780716666667, "fusion_lat": 0.0}, {"is_disabled": 0, "rental_uris": {"android": "https://dc.lft.to/lastmile_qr_scan", "ios": "https://dc.lft.to/lastmile_qr_scan"}, "is_reserved": 0, "name": "c46420135fe0c60289b112bad643e50d", "lon": -77.04205766666666, "type": "electric_scooter", "bike_id": "c46420135fe0c60289b112bad643e50d", "fusion_lon": 0.0, "lat": 38.9297595, "fusion_lat": 0.0}, {"is_disabled": 0, "rental_uris": {"android": "https://dc.lft.to/lastmile_qr_scan", "ios": "https://dc.lft.to/lastmile_qr_scan"}, "is_reserved": 0, "name": "3e21fe5caba2b26d360597c6599013f2", "lon": -77.02272, "type": "electric_scooter", "bike_id": "3e21fe5caba2b26d360597c6599013f2", "fusion_lon": 0.0, "lat": 38.92742833333333, "fusion_lat": 0.0}, {"is_disabled": 0, "rental_uris": {"android": "https://dc.lft.to/lastmile_qr_scan", "ios": "https://dc.lft.to/lastmile_qr_scan"}, "is_reserved": 0, "name": "d49d7c74e534d95595323f4ebdd93609", "lon": -77.04149866666667, "type": "electric_scooter", "bike_id": "d49d7c74e534d95595323f4ebdd93609", "fusion_lon": 0.0, "lat": 38.910220833333334, "fusion_lat": 0.0}, {"is_disabled": 0, "rental_uris": {"android": "https://dc.lft.to/lastmile_qr_scan", "ios": "https://dc.lft.to/lastmile_qr_scan"}, "is_reserved": 0, "name": "afb1161681d8e53039cadfd0e7e83fa6", "lon": -76.94707233333334, "type": "electric_scooter", "bike_id": "afb1161681d8e53039cadfd0e7e83fa6", "fusion_lon": 0.0, "lat": 38.897366, "fusion_lat": 0.0}, {"is_disabled": 0, "rental_uris": {"android": "https://dc.lft.to/lastmile_qr_scan", "ios": "https://dc.lft.to/lastmile_qr_scan"}, "is_reserved": 0, "name": "b2bdbec6733534190a38b8e06e6b9a45", "lon": -77.0012115, "type": "electric_bike", "bike_id": "b2bdbec6733534190a38b8e06e6b9a45", "fusion_lon": 0.0, "lat": 38.999352333333334, "fusion_lat": 0.0}, {"is_disabled": 0, "rental_uris": {"android": "https://dc.lft.to/lastmile_qr_scan", "ios": "https://dc.lft.to/lastmile_qr_scan"}, "is_reserved": 0, "name": "5decf35e6d9d1e6505da15ba6fdb8a7b", "lon": -77.0181505, "type": "electric_scooter", "bike_id": "5decf35e6d9d1e6505da15ba6fdb8a7b", "fusion_lon": 0.0, "lat": 38.90395266666667, "fusion_lat": 0.0}, {"is_disabled": 0, "rental_uris": {"android": "https://dc.lft.to/lastmile_qr_scan", "ios": "https://dc.lft.to/lastmile_qr_scan"}, "is_reserved": 0, "name": "cd70261059b803aacc632e392d9b1559", "lon": -76.992267, "type": "electric_scooter", "bike_id": "cd70261059b803aacc632e392d9b1559", "fusion_lon": 0.0, "lat": 38.898914833333336, "fusion_lat": 0.0}, {"is_disabled": 0, "rental_uris": {"android": "https://dc.lft.to/lastmile_qr_scan", "ios": "https://dc.lft.to/lastmile_qr_scan"}, "is_reserved": 0, "name": "9ad249cae3ca7f1809f752a9d79a1524", "lon": -77.03056683333334, "type": "electric_scooter", "bike_id": "9ad249cae3ca7f1809f752a9d79a1524", "fusion_lon": 0.0, "lat": 38.95633316666667, "fusion_lat": 0.0}, {"is_disabled": 0, "rental_uris": {"android": "https://dc.lft.to/lastmile_qr_scan", "ios": "https://dc.lft.to/lastmile_qr_scan"}, "is_reserved": 0, "name": "774022b36e36917807e6b77101dcebc1", "lon": -77.02567616666667, "type": "electric_scooter", "bike_id": "774022b36e36917807e6b77101dcebc1", "fusion_lon": 0.0, "lat": 38.899403166666666, "fusion_lat": 0.0}, {"is_disabled": 0, "rental_uris": {"android": "https://dc.lft.to/lastmile_qr_scan", "ios": "https://dc.lft.to/lastmile_qr_scan"}, "is_reserved": 0, "name": "52d59a1143b85a0ddb9df5fd4f00b3ab", "lon": -77.04123083333333, "type": "electric_scooter", "bike_id": "52d59a1143b85a0ddb9df5fd4f00b3ab", "fusion_lon": 0.0, "lat": 38.91707616666667, "fusion_lat": 0.0}, {"is_disabled": 0, "rental_uris": {"android": "https://dc.lft.to/lastmile_qr_scan", "ios": "https://dc.lft.to/lastmile_qr_scan"}, "is_reserved": 0, "name": "9916fafc93b0882fbdd0ee9326af0894", "lon": -76.99690666666666, "type": "electric_scooter", "bike_id": "9916fafc93b0882fbdd0ee9326af0894", "fusion_lon": 0.0, "lat": 38.8603905, "fusion_lat": 0.0}, {"is_disabled": 0, "rental_uris": {"android": "https://dc.lft.to/lastmile_qr_scan", "ios": "https://dc.lft.to/lastmile_qr_scan"}, "is_reserved": 0, "name": "516ebda86c5c17ba65cdef65bbe46d35", "lon": -77.147658, "type": "electric_bike", "bike_id": "516ebda86c5c17ba65cdef65bbe46d35", "fusion_lon": 0.0, "lat": 39.09595783333334, "fusion_lat": 0.0}, {"is_disabled": 0, "rental_uris": {"android": "https://dc.lft.to/lastmile_qr_scan", "ios": "https://dc.lft.to/lastmile_qr_scan"}, "is_reserved": 0, "name": "4f723a8c86c4711ba91c897e6d4f8ea6", "lon": -77.0025975, "type": "electric_scooter", "bike_id": "4f723a8c86c4711ba91c897e6d4f8ea6", "fusion_lon": 0.0, "lat": 38.911833, "fusion_lat": 0.0}, {"is_disabled": 0, "rental_uris": {"android": "https://dc.lft.to/lastmile_qr_scan", "ios": "https://dc.lft.to/lastmile_qr_scan"}, "is_reserved": 0, "name": "4a1b74ea52855044054bc3be8752973c", "lon": -77.03612916666667, "type": "electric_scooter", "bike_id": "4a1b74ea52855044054bc3be8752973c", "fusion_lon": 0.0, "lat": 38.93154366666667, "fusion_lat": 0.0}, {"is_disabled": 0, "rental_uris": {"android": "https://dc.lft.to/lastmile_qr_scan", "ios": "https://dc.lft.to/lastmile_qr_scan"}, "is_reserved": 0, "name": "6add7adb2aa85bf9cd88339a44b2e8af", "lon": -77.09587, "type": "electric_bike", "bike_id": "6add7adb2aa85bf9cd88339a44b2e8af", "fusion_lon": 0.0, "lat": 38.83792716666667, "fusion_lat": 0.0}, {"is_disabled": 0, "rental_uris": {"android": "https://dc.lft.to/lastmile_qr_scan", "ios": "https://dc.lft.to/lastmile_qr_scan"}, "is_reserved": 0, "name": "cec7586f5652ff27edae33ec7e8217ca", "lon": -76.94884583333334, "type": "electric_scooter", "bike_id": "cec7586f5652ff27edae33ec7e8217ca", "fusion_lon": 0.0, "lat": 38.895110333333335, "fusion_lat": 0.0}, {"is_disabled": 0, "rental_uris": {"android": "https://dc.lft.to/lastmile_qr_scan", "ios": "https://dc.lft.to/lastmile_qr_scan"}, "is_reserved": 0, "name": "a35f6d600b4886a9c3f73f55385db7c8", "lon": -77.034946, "type": "electric_scooter", "bike_id": "a35f6d600b4886a9c3f73f55385db7c8", "fusion_lon": 0.0, "lat": 38.921562333333334, "fusion_lat": 0.0}, {"is_disabled": 0, "rental_uris": {"android": "https://dc.lft.to/lastmile_qr_scan", "ios": "https://dc.lft.to/lastmile_qr_scan"}, "is_reserved": 0, "name": "1d9b0321bafada869a279d9870e24678", "lon": -77.04786633333333, "type": "electric_bike", "bike_id": "1d9b0321bafada869a279d9870e24678", "fusion_lon": 0.0, "lat": 38.9193555, "fusion_lat": 0.0}, {"is_disabled": 0, "rental_uris": {"android": "https://dc.lft.to/lastmile_qr_scan", "ios": "https://dc.lft.to/lastmile_qr_scan"}, "is_reserved": 0, "name": "308872caaecc1e5663fdf221a7894971", "lon": -77.023715, "type": "electric_scooter", "bike_id": "308872caaecc1e5663fdf221a7894971", "fusion_lon": 0.0, "lat": 38.9140735, "fusion_lat": 0.0}, {"is_disabled": 0, "rental_uris": {"android": "https://dc.lft.to/lastmile_qr_scan", "ios": "https://dc.lft.to/lastmile_qr_scan"}, "is_reserved": 0, "name": "cf84dcabf42d29e682768e55a206dfe5", "lon": -77.1526945, "type": "electric_bike", "bike_id": "cf84dcabf42d29e682768e55a206dfe5", "fusion_lon": 0.0, "lat": 39.105664833333336, "fusion_lat": 0.0}, {"is_disabled": 0, "rental_uris": {"android": "https://dc.lft.to/lastmile_qr_scan", "ios": "https://dc.lft.to/lastmile_qr_scan"}, "is_reserved": 0, "name": "3cbd706d2b432689eca85bf2d720110b", "lon": -77.0395965, "type": "electric_scooter", "bike_id": "3cbd706d2b432689eca85bf2d720110b", "fusion_lon": 0.0, "lat": 38.89906233333333, "fusion_lat": 0.0}, {"is_disabled": 0, "rental_uris": {"android": "https://dc.lft.to/lastmile_qr_scan", "ios": "https://dc.lft.to/lastmile_qr_scan"}, "is_reserved": 0, "name": "66558b9fa03a4c5d38a936f8ced6e014", "lon": -76.9683945, "type": "electric_bike", "bike_id": "66558b9fa03a4c5d38a936f8ced6e014", "fusion_lon": 0.0, "lat": 38.924481, "fusion_lat": 0.0}, {"is_disabled": 0, "rental_uris": {"android": "https://dc.lft.to/lastmile_qr_scan", "ios": "https://dc.lft.to/lastmile_qr_scan"}, "is_reserved": 0, "name": "5d6d696a4119bfcd8a824a13104b3d9b", "lon": -77.0320495, "type": "electric_scooter", "bike_id": "5d6d696a4119bfcd8a824a13104b3d9b", "fusion_lon": 0.0, "lat": 38.91821, "fusion_lat": 0.0}, {"is_disabled": 0, "rental_uris": {"android": "https://dc.lft.to/lastmile_qr_scan", "ios": "https://dc.lft.to/lastmile_qr_scan"}, "is_reserved": 0, "name": "d330dda9b92f17948363006621498c5a", "lon": -77.0344615, "type": "electric_scooter", "bike_id": "d330dda9b92f17948363006621498c5a", "fusion_lon": 0.0, "lat": 38.96425033333333, "fusion_lat": 0.0}, {"is_disabled": 0, "rental_uris": {"android": "https://dc.lft.to/lastmile_qr_scan", "ios": "https://dc.lft.to/lastmile_qr_scan"}, "is_reserved": 0, "name": "5a644d60e7071a12e9d4854dac147cf0", "lon": -77.04841583333334, "type": "electric_scooter", "bike_id": "5a644d60e7071a12e9d4854dac147cf0", "fusion_lon": 0.0, "lat": 38.8884275, "fusion_lat": 0.0}, {"is_disabled": 0, "rental_uris": {"android": "https://dc.lft.to/lastmile_qr_scan", "ios": "https://dc.lft.to/lastmile_qr_scan"}, "is_reserved": 0, "name": "a6c67d28c86b2b56037925fb107dc565", "lon": -76.91598833333333, "type": "electric_bike", "bike_id": "a6c67d28c86b2b56037925fb107dc565", "fusion_lon": 0.0, "lat": 38.879862333333335, "fusion_lat": 0.0}, {"is_disabled": 0, "rental_uris": {"android": "https://dc.lft.to/lastmile_qr_scan", "ios": "https://dc.lft.to/lastmile_qr_scan"}, "is_reserved": 0, "name": "07c4549ce27b117e055c780731024067", "lon": -77.04125416666666, "type": "electric_scooter", "bike_id": "07c4549ce27b117e055c780731024067", "fusion_lon": 0.0, "lat": 38.9310155, "fusion_lat": 0.0}, {"is_disabled": 0, "rental_uris": {"android": "https://dc.lft.to/lastmile_qr_scan", "ios": "https://dc.lft.to/lastmile_qr_scan"}, "is_reserved": 0, "name": "cf4e77fa47dc43c032c26351345cac4f", "lon": -77.03839633333334, "type": "electric_scooter", "bike_id": "cf4e77fa47dc43c032c26351345cac4f", "fusion_lon": 0.0, "lat": 38.93246966666667, "fusion_lat": 0.0}, {"is_disabled": 0, "rental_uris": {"android": "https://dc.lft.to/lastmile_qr_scan", "ios": "https://dc.lft.to/lastmile_qr_scan"}, "is_reserved": 0, "name": "d35ab70de5a96d66a307ca0abb1d84e9", "lon": -77.02702416666666, "type": "electric_scooter", "bike_id": "d35ab70de5a96d66a307ca0abb1d84e9", "fusion_lon": 0.0, "lat": 38.94979283333333, "fusion_lat": 0.0}, {"is_disabled": 0, "rental_uris": {"android": "https://dc.lft.to/lastmile_qr_scan", "ios": "https://dc.lft.to/lastmile_qr_scan"}, "is_reserved": 0, "name": "269c92a9c924d4a36343006f7f25b38d", "lon": -77.03571416666666, "type": "electric_scooter", "bike_id": "269c92a9c924d4a36343006f7f25b38d", "fusion_lon": 0.0, "lat": 38.918186166666665, "fusion_lat": 0.0}, {"is_disabled": 0, "rental_uris": {"android": "https://dc.lft.to/lastmile_qr_scan", "ios": "https://dc.lft.to/lastmile_qr_scan"}, "is_reserved": 0, "name": "b23a5e66f1d916a82e19a5c850e0bd44", "lon": -77.01371983333334, "type": "electric_scooter", "bike_id": "b23a5e66f1d916a82e19a5c850e0bd44", "fusion_lon": 0.0, "lat": 38.91042233333334, "fusion_lat": 0.0}, {"is_disabled": 0, "rental_uris": {"android": "https://dc.lft.to/lastmile_qr_scan", "ios": "https://dc.lft.to/lastmile_qr_scan"}, "is_reserved": 0, "name": "9a4af7dfa74504243cb7cd90e61d4df6", "lon": -77.09566983333333, "type": "electric_bike", "bike_id": "9a4af7dfa74504243cb7cd90e61d4df6", "fusion_lon": 0.0, "lat": 38.917003, "fusion_lat": 0.0}, {"is_disabled": 0, "rental_uris": {"android": "https://dc.lft.to/lastmile_qr_scan", "ios": "https://dc.lft.to/lastmile_qr_scan"}, "is_reserved": 0, "name": "72d6a6732d77b33a5c73df8d8c00c2a5", "lon": -77.04387033333333, "type": "electric_scooter", "bike_id": "72d6a6732d77b33a5c73df8d8c00c2a5", "fusion_lon": 0.0, "lat": 38.90279066666667, "fusion_lat": 0.0}, {"is_disabled": 0, "rental_uris": {"android": "https://dc.lft.to/lastmile_qr_scan", "ios": "https://dc.lft.to/lastmile_qr_scan"}, "is_reserved": 0, "name": "8d6aa6211be692f082b2a4f862d96d6f", "lon": -77.02223833333333, "type": "electric_scooter", "bike_id": "8d6aa6211be692f082b2a4f862d96d6f", "fusion_lon": 0.0, "lat": 38.912719333333335, "fusion_lat": 0.0}, {"is_disabled": 0, "rental_uris": {"android": "https://dc.lft.to/lastmile_qr_scan", "ios": "https://dc.lft.to/lastmile_qr_scan"}, "is_reserved": 0, "name": "77d205942024ea1a895f977cb8f09115", "lon": -77.03829033333334, "type": "electric_scooter", "bike_id": "77d205942024ea1a895f977cb8f09115", "fusion_lon": 0.0, "lat": 38.911112333333335, "fusion_lat": 0.0}, {"is_disabled": 0, "rental_uris": {"android": "https://dc.lft.to/lastmile_qr_scan", "ios": "https://dc.lft.to/lastmile_qr_scan"}, "is_reserved": 0, "name": "25a3d13dc4b160713f53e139ed8d080c", "lon": -76.99001583333333, "type": "electric_scooter", "bike_id": "25a3d13dc4b160713f53e139ed8d080c", "fusion_lon": 0.0, "lat": 38.8650825, "fusion_lat": 0.0}, {"is_disabled": 0, "rental_uris": {"android": "https://dc.lft.to/lastmile_qr_scan", "ios": "https://dc.lft.to/lastmile_qr_scan"}, "is_reserved": 0, "name": "793470f2c8bcc9b0d4a68c3cb6689b1a", "lon": -76.95540033333333, "type": "electric_bike", "bike_id": "793470f2c8bcc9b0d4a68c3cb6689b1a", "fusion_lon": 0.0, "lat": 38.94801566666667, "fusion_lat": 0.0}, {"is_disabled": 0, "rental_uris": {"android": "https://dc.lft.to/lastmile_qr_scan", "ios": "https://dc.lft.to/lastmile_qr_scan"}, "is_reserved": 0, "name": "aca26ad58145fe0cad98e4538b24cd96", "lon": -77.01895533333334, "type": "electric_scooter", "bike_id": "aca26ad58145fe0cad98e4538b24cd96", "fusion_lon": 0.0, "lat": 38.912204833333334, "fusion_lat": 0.0}, {"is_disabled": 0, "rental_uris": {"android": "https://dc.lft.to/lastmile_qr_scan", "ios": "https://dc.lft.to/lastmile_qr_scan"}, "is_reserved": 0, "name": "3eb4128023b035fe3380c1ab827cf60d", "lon": -77.02227066666667, "type": "electric_scooter", "bike_id": "3eb4128023b035fe3380c1ab827cf60d", "fusion_lon": 0.0, "lat": 38.905626166666664, "fusion_lat": 0.0}, {"is_disabled": 0, "rental_uris": {"android": "https://dc.lft.to/lastmile_qr_scan", "ios": "https://dc.lft.to/lastmile_qr_scan"}, "is_reserved": 0, "name": "77fdcff2282a7278f1a4cfedf657a652", "lon": -77.00396983333333, "type": "electric_scooter", "bike_id": "77fdcff2282a7278f1a4cfedf657a652", "fusion_lon": 0.0, "lat": 38.8765575, "fusion_lat": 0.0}, {"is_disabled": 0, "rental_uris": {"android": "https://dc.lft.to/lastmile_qr_scan", "ios": "https://dc.lft.to/lastmile_qr_scan"}, "is_reserved": 0, "name": "6f038f4f862962d7bc058b2ae641eade", "lon": -76.9495525, "type": "electric_bike", "bike_id": "6f038f4f862962d7bc058b2ae641eade", "fusion_lon": 0.0, "lat": 38.935056833333334, "fusion_lat": 0.0}, {"is_disabled": 0, "rental_uris": {"android": "https://dc.lft.to/lastmile_qr_scan", "ios": "https://dc.lft.to/lastmile_qr_scan"}, "is_reserved": 0, "name": "1901d9cea1a84144b8066096b7f4ba83", "lon": -76.9896725, "type": "electric_scooter", "bike_id": "1901d9cea1a84144b8066096b7f4ba83", "fusion_lon": 0.0, "lat": 38.902519166666664, "fusion_lat": 0.0}, {"is_disabled": 0, "rental_uris": {"android": "https://dc.lft.to/lastmile_qr_scan", "ios": "https://dc.lft.to/lastmile_qr_scan"}, "is_reserved": 0, "name": "1dbee8de9b81209cb034de7840c6d7ed", "lon": -77.039094, "type": "electric_scooter", "bike_id": "1dbee8de9b81209cb034de7840c6d7ed", "fusion_lon": 0.0, "lat": 38.9024905, "fusion_lat": 0.0}, {"is_disabled": 0, "rental_uris": {"android": "https://dc.lft.to/lastmile_qr_scan", "ios": "https://dc.lft.to/lastmile_qr_scan"}, "is_reserved": 0, "name": "5cc80eb4b64f2d6d47f6396bd9a00e44", "lon": -77.03133583333333, "type": "electric_scooter", "bike_id": "5cc80eb4b64f2d6d47f6396bd9a00e44", "fusion_lon": 0.0, "lat": 38.916231, "fusion_lat": 0.0}, {"is_disabled": 0, "rental_uris": {"android": "https://dc.lft.to/lastmile_qr_scan", "ios": "https://dc.lft.to/lastmile_qr_scan"}, "is_reserved": 0, "name": "0f56f7fc966e126d33c3e13c975e527d", "lon": -77.05005033333333, "type": "electric_scooter", "bike_id": "0f56f7fc966e126d33c3e13c975e527d", "fusion_lon": 0.0, "lat": 38.8922915, "fusion_lat": 0.0}, {"is_disabled": 0, "rental_uris": {"android": "https://dc.lft.to/lastmile_qr_scan", "ios": "https://dc.lft.to/lastmile_qr_scan"}, "is_reserved": 0, "name": "ba95092df7107b0e2c1b2ead6a597caf", "lon": -77.01630666666667, "type": "electric_scooter", "bike_id": "ba95092df7107b0e2c1b2ead6a597caf", "fusion_lon": 0.0, "lat": 38.87257016666667, "fusion_lat": 0.0}, {"is_disabled": 0, "rental_uris": {"android": "https://dc.lft.to/lastmile_qr_scan", "ios": "https://dc.lft.to/lastmile_qr_scan"}, "is_reserved": 0, "name": "d53a4e8dac53d2b5de1f7d980404a2cf", "lon": -77.01102, "type": "electric_scooter", "bike_id": "d53a4e8dac53d2b5de1f7d980404a2cf", "fusion_lon": 0.0, "lat": 38.90355816666667, "fusion_lat": 0.0}, {"is_disabled": 0, "rental_uris": {"android": "https://dc.lft.to/lastmile_qr_scan", "ios": "https://dc.lft.to/lastmile_qr_scan"}, "is_reserved": 0, "name": "4d7b10badd6343513bd5bed9b5fa057f", "lon": -77.00433383333333, "type": "electric_scooter", "bike_id": "4d7b10badd6343513bd5bed9b5fa057f", "fusion_lon": 0.0, "lat": 38.83811033333333, "fusion_lat": 0.0}, {"is_disabled": 0, "rental_uris": {"android": "https://dc.lft.to/lastmile_qr_scan", "ios": "https://dc.lft.to/lastmile_qr_scan"}, "is_reserved": 0, "name": "4a997f9a3c99b00ae42f2ba20932824c", "lon": -77.03193816666666, "type": "electric_scooter", "bike_id": "4a997f9a3c99b00ae42f2ba20932824c", "fusion_lon": 0.0, "lat": 38.91924366666667, "fusion_lat": 0.0}, {"is_disabled": 0, "rental_uris": {"android": "https://dc.lft.to/lastmile_qr_scan", "ios": "https://dc.lft.to/lastmile_qr_scan"}, "is_reserved": 0, "name": "0ac22f1b8cbf2d84b87f5db773e2f883", "lon": -76.9995975, "type": "electric_scooter", "bike_id": "0ac22f1b8cbf2d84b87f5db773e2f883", "fusion_lon": 0.0, "lat": 38.84286183333333, "fusion_lat": 0.0}, {"is_disabled": 0, "rental_uris": {"android": "https://dc.lft.to/lastmile_qr_scan", "ios": "https://dc.lft.to/lastmile_qr_scan"}, "is_reserved": 0, "name": "69547b233564d50efe281512a3dd5ec4", "lon": -77.0466905, "type": "electric_scooter", "bike_id": "69547b233564d50efe281512a3dd5ec4", "fusion_lon": 0.0, "lat": 38.907394833333335, "fusion_lat": 0.0}, {"is_disabled": 0, "rental_uris": {"android": "https://dc.lft.to/lastmile_qr_scan", "ios": "https://dc.lft.to/lastmile_qr_scan"}, "is_reserved": 0, "name": "f89a45e577d24e6822bbd3c2d1c06cbd", "lon": -77.06109266666667, "type": "electric_scooter", "bike_id": "f89a45e577d24e6822bbd3c2d1c06cbd", "fusion_lon": 0.0, "lat": 38.943587666666666, "fusion_lat": 0.0}, {"is_disabled": 0, "rental_uris": {"android": "https://dc.lft.to/lastmile_qr_scan", "ios": "https://dc.lft.to/lastmile_qr_scan"}, "is_reserved": 0, "name": "4fa3ee3f60c86f80c20ed8a7b6fadf7a", "lon": -76.99168333333333, "type": "electric_bike", "bike_id": "4fa3ee3f60c86f80c20ed8a7b6fadf7a", "fusion_lon": 0.0, "lat": 38.972641833333334, "fusion_lat": 0.0}, {"is_disabled": 0, "rental_uris": {"android": "https://dc.lft.to/lastmile_qr_scan", "ios": "https://dc.lft.to/lastmile_qr_scan"}, "is_reserved": 0, "name": "691b45b78d7a5faee42bcb0091466845", "lon": -77.06169233333334, "type": "electric_bike", "bike_id": "691b45b78d7a5faee42bcb0091466845", "fusion_lon": 0.0, "lat": 38.81268633333333, "fusion_lat": 0.0}, {"is_disabled": 0, "rental_uris": {"android": "https://dc.lft.to/lastmile_qr_scan", "ios": "https://dc.lft.to/lastmile_qr_scan"}, "is_reserved": 0, "name": "5911a345c86dbc948a831245742a118d", "lon": -77.02405516666667, "type": "electric_scooter", "bike_id": "5911a345c86dbc948a831245742a118d", "fusion_lon": 0.0, "lat": 38.916846666666665, "fusion_lat": 0.0}, {"is_disabled": 0, "rental_uris": {"android": "https://dc.lft.to/lastmile_qr_scan", "ios": "https://dc.lft.to/lastmile_qr_scan"}, "is_reserved": 0, "name": "6fae434a008bbc234a95881d7b95a628", "lon": -77.02960033333333, "type": "electric_scooter", "bike_id": "6fae434a008bbc234a95881d7b95a628", "fusion_lon": 0.0, "lat": 38.8983895, "fusion_lat": 0.0}, {"is_disabled": 0, "rental_uris": {"android": "https://dc.lft.to/lastmile_qr_scan", "ios": "https://dc.lft.to/lastmile_qr_scan"}, "is_reserved": 0, "name": "717eb9819a04c7b2e67011b5ca3cfa4a", "lon": -77.079019, "type": "electric_bike", "bike_id": "717eb9819a04c7b2e67011b5ca3cfa4a", "fusion_lon": 0.0, "lat": 38.83934083333333, "fusion_lat": 0.0}, {"is_disabled": 0, "rental_uris": {"android": "https://dc.lft.to/lastmile_qr_scan", "ios": "https://dc.lft.to/lastmile_qr_scan"}, "is_reserved": 0, "name": "5aa89111af30218edd00ca2abce2aebc", "lon": -77.00121433333334, "type": "electric_scooter", "bike_id": "5aa89111af30218edd00ca2abce2aebc", "fusion_lon": 0.0, "lat": 38.91243683333333, "fusion_lat": 0.0}, {"is_disabled": 0, "rental_uris": {"android": "https://dc.lft.to/lastmile_qr_scan", "ios": "https://dc.lft.to/lastmile_qr_scan"}, "is_reserved": 0, "name": "84fb9636413dea62bd1e030a1d3de804", "lon": -77.01634466666667, "type": "electric_scooter", "bike_id": "84fb9636413dea62bd1e030a1d3de804", "fusion_lon": 0.0, "lat": 38.89868533333333, "fusion_lat": 0.0}, {"is_disabled": 0, "rental_uris": {"android": "https://dc.lft.to/lastmile_qr_scan", "ios": "https://dc.lft.to/lastmile_qr_scan"}, "is_reserved": 0, "name": "38cb0bbb3ef6a12e1147b6b7660fec38", "lon": -77.02808183333333, "type": "electric_scooter", "bike_id": "38cb0bbb3ef6a12e1147b6b7660fec38", "fusion_lon": 0.0, "lat": 38.917616, "fusion_lat": 0.0}, {"is_disabled": 0, "rental_uris": {"android": "https://dc.lft.to/lastmile_qr_scan", "ios": "https://dc.lft.to/lastmile_qr_scan"}, "is_reserved": 0, "name": "f36d26b930bfc7011557798fc86eb9eb", "lon": -77.0101175, "type": "electric_scooter", "bike_id": "f36d26b930bfc7011557798fc86eb9eb", "fusion_lon": 0.0, "lat": 38.87970116666666, "fusion_lat": 0.0}, {"is_disabled": 0, "rental_uris": {"android": "https://dc.lft.to/lastmile_qr_scan", "ios": "https://dc.lft.to/lastmile_qr_scan"}, "is_reserved": 0, "name": "6d81dc3537dcaa60f671444f9f85b56c", "lon": -76.994799, "type": "electric_scooter", "bike_id": "6d81dc3537dcaa60f671444f9f85b56c", "fusion_lon": 0.0, "lat": 38.9322595, "fusion_lat": 0.0}, {"is_disabled": 0, "rental_uris": {"android": "https://dc.lft.to/lastmile_qr_scan", "ios": "https://dc.lft.to/lastmile_qr_scan"}, "is_reserved": 0, "name": "49c9b01c591d081e867a123760ac2ddb", "lon": -77.00895933333334, "type": "electric_scooter", "bike_id": "49c9b01c591d081e867a123760ac2ddb", "fusion_lon": 0.0, "lat": 38.8954345, "fusion_lat": 0.0}, {"is_disabled": 0, "rental_uris": {"android": "https://dc.lft.to/lastmile_qr_scan", "ios": "https://dc.lft.to/lastmile_qr_scan"}, "is_reserved": 0, "name": "8b00b50a1111195009ab19751f6b9f17", "lon": -77.03396666666667, "type": "electric_scooter", "bike_id": "8b00b50a1111195009ab19751f6b9f17", "fusion_lon": 0.0, "lat": 38.91971616666667, "fusion_lat": 0.0}, {"is_disabled": 0, "rental_uris": {"android": "https://dc.lft.to/lastmile_qr_scan", "ios": "https://dc.lft.to/lastmile_qr_scan"}, "is_reserved": 0, "name": "9cc646d6d1379ae2adfdc150336537e8", "lon": -77.01628316666667, "type": "electric_scooter", "bike_id": "9cc646d6d1379ae2adfdc150336537e8", "fusion_lon": 0.0, "lat": 38.89864016666667, "fusion_lat": 0.0}, {"is_disabled": 0, "rental_uris": {"android": "https://dc.lft.to/lastmile_qr_scan", "ios": "https://dc.lft.to/lastmile_qr_scan"}, "is_reserved": 0, "name": "e064d9544ead65d8ad1365618c693bec", "lon": -77.03467183333333, "type": "electric_scooter", "bike_id": "e064d9544ead65d8ad1365618c693bec", "fusion_lon": 0.0, "lat": 38.9138905, "fusion_lat": 0.0}, {"is_disabled": 0, "rental_uris": {"android": "https://dc.lft.to/lastmile_qr_scan", "ios": "https://dc.lft.to/lastmile_qr_scan"}, "is_reserved": 0, "name": "d840550c3c44c2a3b870eaa0ae890b0f", "lon": -77.04673883333334, "type": "electric_scooter", "bike_id": "d840550c3c44c2a3b870eaa0ae890b0f", "fusion_lon": 0.0, "lat": 38.915898166666665, "fusion_lat": 0.0}, {"is_disabled": 0, "rental_uris": {"android": "https://dc.lft.to/lastmile_qr_scan", "ios": "https://dc.lft.to/lastmile_qr_scan"}, "is_reserved": 0, "name": "14a6486bbfe149b2361e9cafa8395638", "lon": -77.0246585, "type": "electric_scooter", "bike_id": "14a6486bbfe149b2361e9cafa8395638", "fusion_lon": 0.0, "lat": 38.9390105, "fusion_lat": 0.0}, {"is_disabled": 0, "rental_uris": {"android": "https://dc.lft.to/lastmile_qr_scan", "ios": "https://dc.lft.to/lastmile_qr_scan"}, "is_reserved": 0, "name": "134f62168f7c085bf48b70db70e2e6b9", "lon": -77.04478816666666, "type": "electric_scooter", "bike_id": "134f62168f7c085bf48b70db70e2e6b9", "fusion_lon": 0.0, "lat": 38.9065205, "fusion_lat": 0.0}, {"is_disabled": 0, "rental_uris": {"android": "https://dc.lft.to/lastmile_qr_scan", "ios": "https://dc.lft.to/lastmile_qr_scan"}, "is_reserved": 0, "name": "d64f32074861e6902aa0fac4da2c1413", "lon": -76.9375715, "type": "electric_scooter", "bike_id": "d64f32074861e6902aa0fac4da2c1413", "fusion_lon": 0.0, "lat": 38.89035366666667, "fusion_lat": 0.0}, {"is_disabled": 0, "rental_uris": {"android": "https://dc.lft.to/lastmile_qr_scan", "ios": "https://dc.lft.to/lastmile_qr_scan"}, "is_reserved": 0, "name": "2dc3056bf5c5a2f9d94ba945ad391d15", "lon": -77.353116, "type": "electric_bike", "bike_id": "2dc3056bf5c5a2f9d94ba945ad391d15", "fusion_lon": 0.0, "lat": 38.9500875, "fusion_lat": 0.0}, {"is_disabled": 0, "rental_uris": {"android": "https://dc.lft.to/lastmile_qr_scan", "ios": "https://dc.lft.to/lastmile_qr_scan"}, "is_reserved": 0, "name": "aff1ff604b0adcf805bc3b472c75b16b", "lon": -77.03853533333333, "type": "electric_scooter", "bike_id": "aff1ff604b0adcf805bc3b472c75b16b", "fusion_lon": 0.0, "lat": 38.91716016666667, "fusion_lat": 0.0}, {"is_disabled": 0, "rental_uris": {"android": "https://dc.lft.to/lastmile_qr_scan", "ios": "https://dc.lft.to/lastmile_qr_scan"}, "is_reserved": 0, "name": "43085ffde5a39351c4526da91fd521ce", "lon": -77.04179383333333, "type": "electric_scooter", "bike_id": "43085ffde5a39351c4526da91fd521ce", "fusion_lon": 0.0, "lat": 38.91663066666667, "fusion_lat": 0.0}, {"is_disabled": 0, "rental_uris": {"android": "https://dc.lft.to/lastmile_qr_scan", "ios": "https://dc.lft.to/lastmile_qr_scan"}, "is_reserved": 0, "name": "cc16bb069fd462de6a67f4b64d8ecd1e", "lon": -77.03452566666667, "type": "electric_scooter", "bike_id": "cc16bb069fd462de6a67f4b64d8ecd1e", "fusion_lon": 0.0, "lat": 38.9065625, "fusion_lat": 0.0}, {"is_disabled": 0, "rental_uris": {"android": "https://dc.lft.to/lastmile_qr_scan", "ios": "https://dc.lft.to/lastmile_qr_scan"}, "is_reserved": 0, "name": "65049be156b321c5ffbb960383618e7f", "lon": -77.02943133333333, "type": "electric_scooter", "bike_id": "65049be156b321c5ffbb960383618e7f", "fusion_lon": 0.0, "lat": 38.91706883333333, "fusion_lat": 0.0}, {"is_disabled": 0, "rental_uris": {"android": "https://dc.lft.to/lastmile_qr_scan", "ios": "https://dc.lft.to/lastmile_qr_scan"}, "is_reserved": 0, "name": "25f0c87137ae72a3904e82fb5bf69bf4", "lon": -77.04318283333333, "type": "electric_bike", "bike_id": "25f0c87137ae72a3904e82fb5bf69bf4", "fusion_lon": 0.0, "lat": 38.83125966666667, "fusion_lat": 0.0}, {"is_disabled": 0, "rental_uris": {"android": "https://dc.lft.to/lastmile_qr_scan", "ios": "https://dc.lft.to/lastmile_qr_scan"}, "is_reserved": 0, "name": "d0fd9285b50c2000e2679d3efb45b5db", "lon": -77.039955, "type": "electric_scooter", "bike_id": "d0fd9285b50c2000e2679d3efb45b5db", "fusion_lon": 0.0, "lat": 38.9181365, "fusion_lat": 0.0}, {"is_disabled": 0, "rental_uris": {"android": "https://dc.lft.to/lastmile_qr_scan", "ios": "https://dc.lft.to/lastmile_qr_scan"}, "is_reserved": 0, "name": "feb78aeaa3edc6b7f938bcad8d3ca0f6", "lon": -77.02958033333333, "type": "electric_scooter", "bike_id": "feb78aeaa3edc6b7f938bcad8d3ca0f6", "fusion_lon": 0.0, "lat": 38.89837216666667, "fusion_lat": 0.0}, {"is_disabled": 0, "rental_uris": {"android": "https://dc.lft.to/lastmile_qr_scan", "ios": "https://dc.lft.to/lastmile_qr_scan"}, "is_reserved": 0, "name": "2f1cce28c39b8b436f70234123ffd2c7", "lon": -77.03213616666666, "type": "electric_scooter", "bike_id": "2f1cce28c39b8b436f70234123ffd2c7", "fusion_lon": 0.0, "lat": 38.906591, "fusion_lat": 0.0}, {"is_disabled": 0, "rental_uris": {"android": "https://dc.lft.to/lastmile_qr_scan", "ios": "https://dc.lft.to/lastmile_qr_scan"}, "is_reserved": 0, "name": "498f555615af33aa0c953068b0377e82", "lon": -77.00571416666666, "type": "electric_scooter", "bike_id": "498f555615af33aa0c953068b0377e82", "fusion_lon": 0.0, "lat": 38.876512, "fusion_lat": 0.0}, {"is_disabled": 0, "rental_uris": {"android": "https://dc.lft.to/lastmile_qr_scan", "ios": "https://dc.lft.to/lastmile_qr_scan"}, "is_reserved": 0, "name": "b541558b63500e30059bd8310a9a4996", "lon": -76.98846083333333, "type": "electric_scooter", "bike_id": "b541558b63500e30059bd8310a9a4996", "fusion_lon": 0.0, "lat": 38.88580866666667, "fusion_lat": 0.0}, {"is_disabled": 0, "rental_uris": {"android": "https://dc.lft.to/lastmile_qr_scan", "ios": "https://dc.lft.to/lastmile_qr_scan"}, "is_reserved": 0, "name": "3e17e8feab688bc2d8681eeaf5492b62", "lon": -77.02689933333333, "type": "electric_scooter", "bike_id": "3e17e8feab688bc2d8681eeaf5492b62", "fusion_lon": 0.0, "lat": 38.9023645, "fusion_lat": 0.0}, {"is_disabled": 0, "rental_uris": {"android": "https://dc.lft.to/lastmile_qr_scan", "ios": "https://dc.lft.to/lastmile_qr_scan"}, "is_reserved": 0, "name": "fa0834482727fbde198de9f9b9080246", "lon": -77.01279283333334, "type": "electric_scooter", "bike_id": "fa0834482727fbde198de9f9b9080246", "fusion_lon": 0.0, "lat": 38.89986416666667, "fusion_lat": 0.0}, {"is_disabled": 0, "rental_uris": {"android": "https://dc.lft.to/lastmile_qr_scan", "ios": "https://dc.lft.to/lastmile_qr_scan"}, "is_reserved": 0, "name": "2c7a876eddee9a2a46ef0d0fab737f10", "lon": -76.96518566666667, "type": "electric_scooter", "bike_id": "2c7a876eddee9a2a46ef0d0fab737f10", "fusion_lon": 0.0, "lat": 38.8508125, "fusion_lat": 0.0}, {"is_disabled": 0, "rental_uris": {"android": "https://dc.lft.to/lastmile_qr_scan", "ios": "https://dc.lft.to/lastmile_qr_scan"}, "is_reserved": 0, "name": "4c2bd00dd8eaec1fb5031c092026f0ae", "lon": -77.03819233333333, "type": "electric_scooter", "bike_id": "4c2bd00dd8eaec1fb5031c092026f0ae", "fusion_lon": 0.0, "lat": 38.909702833333334, "fusion_lat": 0.0}, {"is_disabled": 0, "rental_uris": {"android": "https://dc.lft.to/lastmile_qr_scan", "ios": "https://dc.lft.to/lastmile_qr_scan"}, "is_reserved": 0, "name": "30ad2f4674ed95b0521aa5581f7d5245", "lon": -77.007596, "type": "electric_scooter", "bike_id": "30ad2f4674ed95b0521aa5581f7d5245", "fusion_lon": 0.0, "lat": 38.91028283333333, "fusion_lat": 0.0}, {"is_disabled": 0, "rental_uris": {"android": "https://dc.lft.to/lastmile_qr_scan", "ios": "https://dc.lft.to/lastmile_qr_scan"}, "is_reserved": 0, "name": "1d4981747203b97a41da3550f9f07678", "lon": -77.008635, "type": "electric_bike", "bike_id": "1d4981747203b97a41da3550f9f07678", "fusion_lon": 0.0, "lat": 38.827312166666665, "fusion_lat": 0.0}, {"is_disabled": 0, "rental_uris": {"android": "https://dc.lft.to/lastmile_qr_scan", "ios": "https://dc.lft.to/lastmile_qr_scan"}, "is_reserved": 0, "name": "26f820f1652da55609accd27d0c1cc7f", "lon": -77.026912, "type": "electric_scooter", "bike_id": "26f820f1652da55609accd27d0c1cc7f", "fusion_lon": 0.0, "lat": 38.91134683333333, "fusion_lat": 0.0}, {"is_disabled": 0, "rental_uris": {"android": "https://dc.lft.to/lastmile_qr_scan", "ios": "https://dc.lft.to/lastmile_qr_scan"}, "is_reserved": 0, "name": "83098a1d9995fce9bd88001c075dcd48", "lon": -76.98335416666667, "type": "electric_scooter", "bike_id": "83098a1d9995fce9bd88001c075dcd48", "fusion_lon": 0.0, "lat": 38.895475, "fusion_lat": 0.0}, {"is_disabled": 0, "rental_uris": {"android": "https://dc.lft.to/lastmile_qr_scan", "ios": "https://dc.lft.to/lastmile_qr_scan"}, "is_reserved": 0, "name": "d8167f29b137ccf280dbe69ee77f4fed", "lon": -77.01749333333333, "type": "electric_scooter", "bike_id": "d8167f29b137ccf280dbe69ee77f4fed", "fusion_lon": 0.0, "lat": 38.87714283333333, "fusion_lat": 0.0}, {"is_disabled": 0, "rental_uris": {"android": "https://dc.lft.to/lastmile_qr_scan", "ios": "https://dc.lft.to/lastmile_qr_scan"}, "is_reserved": 0, "name": "ccc0d135884c59a345f576896fe20d5f", "lon": -77.041558, "type": "electric_scooter", "bike_id": "ccc0d135884c59a345f576896fe20d5f", "fusion_lon": 0.0, "lat": 38.901453, "fusion_lat": 0.0}, {"is_disabled": 0, "rental_uris": {"android": "https://dc.lft.to/lastmile_qr_scan", "ios": "https://dc.lft.to/lastmile_qr_scan"}, "is_reserved": 0, "name": "88f0b2eb193c55d3554deeb431d77827", "lon": -77.05329216666667, "type": "electric_scooter", "bike_id": "88f0b2eb193c55d3554deeb431d77827", "fusion_lon": 0.0, "lat": 38.9231505, "fusion_lat": 0.0}, {"is_disabled": 0, "rental_uris": {"android": "https://dc.lft.to/lastmile_qr_scan", "ios": "https://dc.lft.to/lastmile_qr_scan"}, "is_reserved": 0, "name": "a021ded7da4b91bc25d1a13d9dac2dfb", "lon": -77.029333, "type": "electric_scooter", "bike_id": "a021ded7da4b91bc25d1a13d9dac2dfb", "fusion_lon": 0.0, "lat": 38.882222666666664, "fusion_lat": 0.0}, {"is_disabled": 0, "rental_uris": {"android": "https://dc.lft.to/lastmile_qr_scan", "ios": "https://dc.lft.to/lastmile_qr_scan"}, "is_reserved": 0, "name": "f093b9251abaea193f048eea9d3190ca", "lon": -77.03193433333334, "type": "electric_scooter", "bike_id": "f093b9251abaea193f048eea9d3190ca", "fusion_lon": 0.0, "lat": 38.916788833333335, "fusion_lat": 0.0}, {"is_disabled": 0, "rental_uris": {"android": "https://dc.lft.to/lastmile_qr_scan", "ios": "https://dc.lft.to/lastmile_qr_scan"}, "is_reserved": 0, "name": "b488cad12d670c8ce8c9aaf4287a2426", "lon": -77.038111, "type": "electric_scooter", "bike_id": "b488cad12d670c8ce8c9aaf4287a2426", "fusion_lon": 0.0, "lat": 38.91554566666667, "fusion_lat": 0.0}, {"is_disabled": 0, "rental_uris": {"android": "https://dc.lft.to/lastmile_qr_scan", "ios": "https://dc.lft.to/lastmile_qr_scan"}, "is_reserved": 0, "name": "ac09314a2700f48c314924e0cde3e46a", "lon": -77.0342705, "type": "electric_scooter", "bike_id": "ac09314a2700f48c314924e0cde3e46a", "fusion_lon": 0.0, "lat": 38.911956333333336, "fusion_lat": 0.0}, {"is_disabled": 0, "rental_uris": {"android": "https://dc.lft.to/lastmile_qr_scan", "ios": "https://dc.lft.to/lastmile_qr_scan"}, "is_reserved": 0, "name": "65619dfe6b6e4a8f41947e2460ca1d8a", "lon": -76.9964465, "type": "electric_scooter", "bike_id": "65619dfe6b6e4a8f41947e2460ca1d8a", "fusion_lon": 0.0, "lat": 38.88719966666667, "fusion_lat": 0.0}, {"is_disabled": 0, "rental_uris": {"android": "https://dc.lft.to/lastmile_qr_scan", "ios": "https://dc.lft.to/lastmile_qr_scan"}, "is_reserved": 0, "name": "6c0ad554de39ea5aefc6e1e54d26bc44", "lon": -77.03856283333333, "type": "electric_scooter", "bike_id": "6c0ad554de39ea5aefc6e1e54d26bc44", "fusion_lon": 0.0, "lat": 38.91683966666667, "fusion_lat": 0.0}, {"is_disabled": 0, "rental_uris": {"android": "https://dc.lft.to/lastmile_qr_scan", "ios": "https://dc.lft.to/lastmile_qr_scan"}, "is_reserved": 0, "name": "4b5f9ffaca177c00add8b663fd586458", "lon": -77.01749883333333, "type": "electric_scooter", "bike_id": "4b5f9ffaca177c00add8b663fd586458", "fusion_lon": 0.0, "lat": 38.90378166666667, "fusion_lat": 0.0}, {"is_disabled": 0, "rental_uris": {"android": "https://dc.lft.to/lastmile_qr_scan", "ios": "https://dc.lft.to/lastmile_qr_scan"}, "is_reserved": 0, "name": "d692321e98e99df24d07ccafdcb3c99d", "lon": -77.0323795, "type": "electric_scooter", "bike_id": "d692321e98e99df24d07ccafdcb3c99d", "fusion_lon": 0.0, "lat": 38.904498833333335, "fusion_lat": 0.0}, {"is_disabled": 0, "rental_uris": {"android": "https://dc.lft.to/lastmile_qr_scan", "ios": "https://dc.lft.to/lastmile_qr_scan"}, "is_reserved": 0, "name": "6311a76f873af1950884b94a30ac90e9", "lon": -77.05790816666666, "type": "electric_scooter", "bike_id": "6311a76f873af1950884b94a30ac90e9", "fusion_lon": 0.0, "lat": 38.90516366666667, "fusion_lat": 0.0}, {"is_disabled": 0, "rental_uris": {"android": "https://dc.lft.to/lastmile_qr_scan", "ios": "https://dc.lft.to/lastmile_qr_scan"}, "is_reserved": 0, "name": "f2ec4713b7864db15f13e45218d023e5", "lon": -77.05742966666666, "type": "electric_scooter", "bike_id": "f2ec4713b7864db15f13e45218d023e5", "fusion_lon": 0.0, "lat": 38.9335195, "fusion_lat": 0.0}, {"is_disabled": 0, "rental_uris": {"android": "https://dc.lft.to/lastmile_qr_scan", "ios": "https://dc.lft.to/lastmile_qr_scan"}, "is_reserved": 0, "name": "8f95babb3ce9580fcbe513c1b2b8e5ff", "lon": -77.040482, "type": "electric_scooter", "bike_id": "8f95babb3ce9580fcbe513c1b2b8e5ff", "fusion_lon": 0.0, "lat": 38.905777, "fusion_lat": 0.0}, {"is_disabled": 0, "rental_uris": {"android": "https://dc.lft.to/lastmile_qr_scan", "ios": "https://dc.lft.to/lastmile_qr_scan"}, "is_reserved": 0, "name": "2fef137451ef6a7ab79cf465d5cc8c23", "lon": -77.0317115, "type": "electric_scooter", "bike_id": "2fef137451ef6a7ab79cf465d5cc8c23", "fusion_lon": 0.0, "lat": 38.91419883333333, "fusion_lat": 0.0}, {"is_disabled": 0, "rental_uris": {"android": "https://dc.lft.to/lastmile_qr_scan", "ios": "https://dc.lft.to/lastmile_qr_scan"}, "is_reserved": 0, "name": "008c21e30c19610bad6e801d4276ffb5", "lon": -77.03849816666667, "type": "electric_scooter", "bike_id": "008c21e30c19610bad6e801d4276ffb5", "fusion_lon": 0.0, "lat": 38.90125066666667, "fusion_lat": 0.0}, {"is_disabled": 0, "rental_uris": {"android": "https://dc.lft.to/lastmile_qr_scan", "ios": "https://dc.lft.to/lastmile_qr_scan"}, "is_reserved": 0, "name": "a3c540fda856cfffb9a8d109d75d6f54", "lon": -77.04299383333333, "type": "electric_scooter", "bike_id": "a3c540fda856cfffb9a8d109d75d6f54", "fusion_lon": 0.0, "lat": 38.913387666666665, "fusion_lat": 0.0}, {"is_disabled": 0, "rental_uris": {"android": "https://dc.lft.to/lastmile_qr_scan", "ios": "https://dc.lft.to/lastmile_qr_scan"}, "is_reserved": 0, "name": "92dea3da164c7e2aed7fb0ce8c05dca8", "lon": -77.0238665, "type": "electric_scooter", "bike_id": "92dea3da164c7e2aed7fb0ce8c05dca8", "fusion_lon": 0.0, "lat": 38.908691166666664, "fusion_lat": 0.0}, {"is_disabled": 0, "rental_uris": {"android": "https://dc.lft.to/lastmile_qr_scan", "ios": "https://dc.lft.to/lastmile_qr_scan"}, "is_reserved": 0, "name": "103772d3c208e235814f7c86a9396ecf", "lon": -77.0424435, "type": "electric_scooter", "bike_id": "103772d3c208e235814f7c86a9396ecf", "fusion_lon": 0.0, "lat": 38.919331166666666, "fusion_lat": 0.0}, {"is_disabled": 0, "rental_uris": {"android": "https://dc.lft.to/lastmile_qr_scan", "ios": "https://dc.lft.to/lastmile_qr_scan"}, "is_reserved": 0, "name": "4566c79197bc54023341ecbb9466e293", "lon": -77.01533433333333, "type": "electric_scooter", "bike_id": "4566c79197bc54023341ecbb9466e293", "fusion_lon": 0.0, "lat": 38.884884166666666, "fusion_lat": 0.0}, {"is_disabled": 0, "rental_uris": {"android": "https://dc.lft.to/lastmile_qr_scan", "ios": "https://dc.lft.to/lastmile_qr_scan"}, "is_reserved": 0, "name": "71944ca40c6ca2aef0b6dd43f44a40b8", "lon": -77.01877766666667, "type": "electric_scooter", "bike_id": "71944ca40c6ca2aef0b6dd43f44a40b8", "fusion_lon": 0.0, "lat": 38.90051966666667, "fusion_lat": 0.0}, {"is_disabled": 0, "rental_uris": {"android": "https://dc.lft.to/lastmile_qr_scan", "ios": "https://dc.lft.to/lastmile_qr_scan"}, "is_reserved": 0, "name": "ae2d446943a35468f0b0b5453020660e", "lon": -77.03061983333333, "type": "electric_scooter", "bike_id": "ae2d446943a35468f0b0b5453020660e", "fusion_lon": 0.0, "lat": 38.925832666666665, "fusion_lat": 0.0}, {"is_disabled": 0, "rental_uris": {"android": "https://dc.lft.to/lastmile_qr_scan", "ios": "https://dc.lft.to/lastmile_qr_scan"}, "is_reserved": 0, "name": "a55b4e3c4bc08a22ab6d093d9b09e439", "lon": -76.98706583333333, "type": "electric_scooter", "bike_id": "a55b4e3c4bc08a22ab6d093d9b09e439", "fusion_lon": 0.0, "lat": 38.865382833333335, "fusion_lat": 0.0}, {"is_disabled": 0, "rental_uris": {"android": "https://dc.lft.to/lastmile_qr_scan", "ios": "https://dc.lft.to/lastmile_qr_scan"}, "is_reserved": 0, "name": "ecb8cf899d73748e2a138ced92d97210", "lon": -77.03579, "type": "electric_scooter", "bike_id": "ecb8cf899d73748e2a138ced92d97210", "fusion_lon": 0.0, "lat": 38.907556166666666, "fusion_lat": 0.0}, {"is_disabled": 0, "rental_uris": {"android": "https://dc.lft.to/lastmile_qr_scan", "ios": "https://dc.lft.to/lastmile_qr_scan"}, "is_reserved": 0, "name": "d2b3656e5e660b5d7d5cb6b6297d37b5", "lon": -77.0704915, "type": "electric_bike", "bike_id": "d2b3656e5e660b5d7d5cb6b6297d37b5", "fusion_lon": 0.0, "lat": 38.82447533333333, "fusion_lat": 0.0}, {"is_disabled": 0, "rental_uris": {"android": "https://dc.lft.to/lastmile_qr_scan", "ios": "https://dc.lft.to/lastmile_qr_scan"}, "is_reserved": 0, "name": "bca94f8f94d000c71c27266bbca33a06", "lon": -77.02845283333333, "type": "electric_scooter", "bike_id": "bca94f8f94d000c71c27266bbca33a06", "fusion_lon": 0.0, "lat": 38.9043305, "fusion_lat": 0.0}, {"is_disabled": 0, "rental_uris": {"android": "https://dc.lft.to/lastmile_qr_scan", "ios": "https://dc.lft.to/lastmile_qr_scan"}, "is_reserved": 0, "name": "4cfab6998c8435e731b3813bd2aadc55", "lon": -77.02602666666667, "type": "electric_scooter", "bike_id": "4cfab6998c8435e731b3813bd2aadc55", "fusion_lon": 0.0, "lat": 38.88425183333333, "fusion_lat": 0.0}, {"is_disabled": 0, "rental_uris": {"android": "https://dc.lft.to/lastmile_qr_scan", "ios": "https://dc.lft.to/lastmile_qr_scan"}, "is_reserved": 0, "name": "d34b7a60afa5cef0afa9b53b709f93b5", "lon": -77.12814983333334, "type": "electric_bike", "bike_id": "d34b7a60afa5cef0afa9b53b709f93b5", "fusion_lon": 0.0, "lat": 38.86529683333333, "fusion_lat": 0.0}, {"is_disabled": 0, "rental_uris": {"android": "https://dc.lft.to/lastmile_qr_scan", "ios": "https://dc.lft.to/lastmile_qr_scan"}, "is_reserved": 0, "name": "99fdabbfcafd0ecb0285372fa5919d4b", "lon": -77.04512333333334, "type": "electric_scooter", "bike_id": "99fdabbfcafd0ecb0285372fa5919d4b", "fusion_lon": 0.0, "lat": 38.88604866666667, "fusion_lat": 0.0}, {"is_disabled": 0, "rental_uris": {"android": "https://dc.lft.to/lastmile_qr_scan", "ios": "https://dc.lft.to/lastmile_qr_scan"}, "is_reserved": 0, "name": "1ed6c2ca6c8b424e9d53f19a5de8b1c5", "lon": -77.005938, "type": "electric_scooter", "bike_id": "1ed6c2ca6c8b424e9d53f19a5de8b1c5", "fusion_lon": 0.0, "lat": 38.905686833333334, "fusion_lat": 0.0}, {"is_disabled": 0, "rental_uris": {"android": "https://dc.lft.to/lastmile_qr_scan", "ios": "https://dc.lft.to/lastmile_qr_scan"}, "is_reserved": 0, "name": "11e966915b2416a75dd7b29b2b99351c", "lon": -77.04159883333334, "type": "electric_scooter", "bike_id": "11e966915b2416a75dd7b29b2b99351c", "fusion_lon": 0.0, "lat": 38.91574983333334, "fusion_lat": 0.0}, {"is_disabled": 0, "rental_uris": {"android": "https://dc.lft.to/lastmile_qr_scan", "ios": "https://dc.lft.to/lastmile_qr_scan"}, "is_reserved": 0, "name": "ec9518add7d14a2f175c9f170b88f724", "lon": -77.01748416666666, "type": "electric_scooter", "bike_id": "ec9518add7d14a2f175c9f170b88f724", "fusion_lon": 0.0, "lat": 38.883281333333336, "fusion_lat": 0.0}, {"is_disabled": 0, "rental_uris": {"android": "https://dc.lft.to/lastmile_qr_scan", "ios": "https://dc.lft.to/lastmile_qr_scan"},