{"data": {"bikes": [{"fusion_lat": 0.0, "fusion_lon": 0.0, "rental_uris": {"android": "https://dc.lft.to/lastmile_qr_scan", "ios": "https://dc.lft.to/lastmile_qr_scan"}, "lon": -77.0500695, "name": "191c34438a3fd835adedd838320b1b98", "is_disabled": 0, "is_reserved": 0, "bike_id": "191c34438a3fd835adedd838320b1b98", "lat": 38.904036, "type": "electric_scooter"}, {"fusion_lat": 0.0, "fusion_lon": 0.0, "rental_uris": {"android": "https://dc.lft.to/lastmile_qr_scan", "ios": "https://dc.lft.to/lastmile_qr_scan"}, "lon": -77.097167, "name": "942635a8c31c32ff9a45ffc5ed40c064", "is_disabled": 0, "is_reserved": 0, "bike_id": "942635a8c31c32ff9a45ffc5ed40c064", "lat": 38.950957333333335, "type": "electric_scooter"}, {"fusion_lat": 0.0, "fusion_lon": 0.0, "rental_uris": {"android": "https://dc.lft.to/lastmile_qr_scan", "ios": "https://dc.lft.to/lastmile_qr_scan"}, "lon": -77.02214216666667, "name": "2560a6c5401ba64b2b7fcd81c939634d", "is_disabled": 0, "is_reserved": 0, "bike_id": "2560a6c5401ba64b2b7fcd81c939634d", "lat": 38.924693500000004, "type": "electric_scooter"}, {"fusion_lat": 0.0, "fusion_lon": 0.0, "rental_uris": {"android": "https://dc.lft.to/lastmile_qr_scan", "ios": "https://dc.lft.to/lastmile_qr_scan"}, "lon": -77.0442385, "name": "61bee4e15f8a5e99d98934c08a0a5119", "is_disabled": 0, "is_reserved": 0, "bike_id": "61bee4e15f8a5e99d98934c08a0a5119", "lat": 38.91007, "type": "electric_scooter"}, {"fusion_lat": 0.0, "fusion_lon": 0.0, "rental_uris": {"android": "https://dc.lft.to/lastmile_qr_scan", "ios": "https://dc.lft.to/lastmile_qr_scan"}, "lon": -77.035902, "name": "81b9690c9520517aa12666fe2f2e18a5", "is_disabled": 0, "is_reserved": 0, "bike_id": "81b9690c9520517aa12666fe2f2e18a5", "lat": 38.931466666666665, "type": "electric_scooter"}, {"fusion_lat": 0.0, "fusion_lon": 0.0, "rental_uris": {"android": "https://dc.lft.to/lastmile_qr_scan", "ios": "https://dc.lft.to/lastmile_qr_scan"}, "lon": -77.02715116666667, "name": "352e4b9678ba995b22fbe610a3f10bb6", "is_disabled": 0, "is_reserved": 0, "bike_id": "352e4b9678ba995b22fbe610a3f10bb6", "lat": 38.907773, "type": "electric_scooter"}, {"fusion_lat": 0.0, "fusion_lon": 0.0, "rental_uris": {"android": "https://dc.lft.to/lastmile_qr_scan", "ios": "https://dc.lft.to/lastmile_qr_scan"}, "lon": -77.02392216666667, "name": "9c072631b6148f56f7f43f4353b24e1e", "is_disabled": 0, "is_reserved": 0, "bike_id": "9c072631b6148f56f7f43f4353b24e1e", "lat": 38.9068955, "type": "electric_scooter"}, {"fusion_lat": 0.0, "fusion_lon": 0.0, "rental_uris": {"android": "https://dc.lft.to/lastmile_qr_scan", "ios": "https://dc.lft.to/lastmile_qr_scan"}, "lon": -77.035618, "name": "688429af09da48c944a5c0afde86d117", "is_disabled": 0, "is_reserved": 0, "bike_id": "688429af09da48c944a5c0afde86d117", "lat": 38.90734283333333, "type": "electric_scooter"}, {"fusion_lat": 0.0, "fusion_lon": 0.0, "rental_uris": {"android": "https://dc.lft.to/lastmile_qr_scan", "ios": "https://dc.lft.to/lastmile_qr_scan"}, "lon": -76.96703183333334, "name": "acf1cdce6add9fdd72a4463c75c4878b", "is_disabled": 0, "is_reserved": 0, "bike_id": "acf1cdce6add9fdd72a4463c75c4878b", "lat": 38.860357, "type": "electric_scooter"}, {"fusion_lat": 0.0, "fusion_lon": 0.0, "rental_uris": {"android": "https://dc.lft.to/lastmile_qr_scan", "ios": "https://dc.lft.to/lastmile_qr_scan"}, "lon": -77.00711516666667, "name": "7e362e2521affb8c239f1aff9b42cb99", "is_disabled": 0, "is_reserved": 0, "bike_id": "7e362e2521affb8c239f1aff9b42cb99", "lat": 38.8848655, "type": "electric_scooter"}, {"fusion_lat": 0.0, "fusion_lon": 0.0, "rental_uris": {"android": "https://dc.lft.to/lastmile_qr_scan", "ios": "https://dc.lft.to/lastmile_qr_scan"}, "lon": -77.04669083333333, "name": "779993d600ced7b47926874a20c2d132", "is_disabled": 0, "is_reserved": 0, "bike_id": "779993d600ced7b47926874a20c2d132", "lat": 38.89896866666667, "type": "electric_scooter"}, {"fusion_lat": 0.0, "fusion_lon": 0.0, "rental_uris": {"android": "https://dc.lft.to/lastmile_qr_scan", "ios": "https://dc.lft.to/lastmile_qr_scan"}, "lon": -77.04249033333333, "name": "57c93b27fc39ebe37e43c741418c6b02", "is_disabled": 0, "is_reserved": 0, "bike_id": "57c93b27fc39ebe37e43c741418c6b02", "lat": 38.922746, "type": "electric_scooter"}, {"fusion_lat": 0.0, "fusion_lon": 0.0, "rental_uris": {"android": "https://dc.lft.to/lastmile_qr_scan", "ios": "https://dc.lft.to/lastmile_qr_scan"}, "lon": -77.05044816666667, "name": "091f4d2bd4cabffd266dcc22ee34afb0", "is_disabled": 0, "is_reserved": 0, "bike_id": "091f4d2bd4cabffd266dcc22ee34afb0", "lat": 38.923614666666666, "type": "electric_scooter"}, {"fusion_lat": 0.0, "fusion_lon": 0.0, "rental_uris": {"android": "https://dc.lft.to/lastmile_qr_scan", "ios": "https://dc.lft.to/lastmile_qr_scan"}, "lon": -77.071657, "name": "c5467320d05549faa19c1f315a08e72f", "is_disabled": 0, "is_reserved": 0, "bike_id": "c5467320d05549faa19c1f315a08e72f", "lat": 38.90774916666667, "type": "electric_scooter"}, {"fusion_lat": 0.0, "fusion_lon": 0.0, "rental_uris": {"android": "https://dc.lft.to/lastmile_qr_scan", "ios": "https://dc.lft.to/lastmile_qr_scan"}, "lon": -77.0487495, "name": "e7dc8805bc7c519f3c2b54644a57b853", "is_disabled": 0, "is_reserved": 0, "bike_id": "e7dc8805bc7c519f3c2b54644a57b853", "lat": 38.90223733333333, "type": "electric_scooter"}, {"fusion_lat": 0.0, "fusion_lon": 0.0, "rental_uris": {"android": "https://dc.lft.to/lastmile_qr_scan", "ios": "https://dc.lft.to/lastmile_qr_scan"}, "lon": -76.98216716666667, "name": "93429e6dc5d8eee9ef56ce6fafdcf7ec", "is_disabled": 0, "is_reserved": 0, "bike_id": "93429e6dc5d8eee9ef56ce6fafdcf7ec", "lat": 38.98508316666667, "type": "electric_bike"}, {"fusion_lat": 0.0, "fusion_lon": 0.0, "rental_uris": {"android": "https://dc.lft.to/lastmile_qr_scan", "ios": "https://dc.lft.to/lastmile_qr_scan"}, "lon": -77.00373766666667, "name": "4f0a0356229ad8c2e372796b73682019", "is_disabled": 0, "is_reserved": 0, "bike_id": "4f0a0356229ad8c2e372796b73682019", "lat": 38.876348166666666, "type": "electric_scooter"}, {"fusion_lat": 0.0, "fusion_lon": 0.0, "rental_uris": {"android": "https://dc.lft.to/lastmile_qr_scan", "ios": "https://dc.lft.to/lastmile_qr_scan"}, "lon": -77.03590216666667, "name": "7d95b4803334e5e6e3c4a72858485101", "is_disabled": 0, "is_reserved": 0, "bike_id": "7d95b4803334e5e6e3c4a72858485101", "lat": 38.931468333333335, "type": "electric_scooter"}, {"fusion_lat": 0.0, "fusion_lon": 0.0, "rental_uris": {"android": "https://dc.lft.to/lastmile_qr_scan", "ios": "https://dc.lft.to/lastmile_qr_scan"}, "lon": -77.02965516666667, "name": "0498fd2e857851b44c3478491f189513", "is_disabled": 0, "is_reserved": 0, "bike_id": "0498fd2e857851b44c3478491f189513", "lat": 38.92335683333334, "type": "electric_scooter"}, {"fusion_lat": 0.0, "fusion_lon": 0.0, "rental_uris": {"android": "https://dc.lft.to/lastmile_qr_scan", "ios": "https://dc.lft.to/lastmile_qr_scan"}, "lon": -77.0440495, "name": "b32e1dac91841f7e0e42a0d300851a8a", "is_disabled": 0, "is_reserved": 0, "bike_id": "b32e1dac91841f7e0e42a0d300851a8a", "lat": 38.934270166666664, "type": "electric_scooter"}, {"fusion_lat": 0.0, "fusion_lon": 0.0, "rental_uris": {"android": "https://dc.lft.to/lastmile_qr_scan", "ios": "https://dc.lft.to/lastmile_qr_scan"}, "lon": -77.044947, "name": "c3ad4b1f3cea6e92f423fa736df9b65b", "is_disabled": 0, "is_reserved": 0, "bike_id": "c3ad4b1f3cea6e92f423fa736df9b65b", "lat": 38.903802666666664, "type": "electric_bike"}, {"fusion_lat": 0.0, "fusion_lon": 0.0, "rental_uris": {"android": "https://dc.lft.to/lastmile_qr_scan", "ios": "https://dc.lft.to/lastmile_qr_scan"}, "lon": -77.01982583333333, "name": "befb6c093979a3e4fa9c09ce8b2ce499", "is_disabled": 0, "is_reserved": 0, "bike_id": "befb6c093979a3e4fa9c09ce8b2ce499", "lat": 38.90501116666667, "type": "electric_scooter"}, {"fusion_lat": 0.0, "fusion_lon": 0.0, "rental_uris": {"android": "https://dc.lft.to/lastmile_qr_scan", "ios": "https://dc.lft.to/lastmile_qr_scan"}, "lon": -77.02048866666667, "name": "f9fed17cbe2062be91ed658e9d034285", "is_disabled": 0, "is_reserved": 0, "bike_id": "f9fed17cbe2062be91ed658e9d034285", "lat": 38.923334, "type": "electric_scooter"}, {"fusion_lat": 0.0, "fusion_lon": 0.0, "rental_uris": {"android": "https://dc.lft.to/lastmile_qr_scan", "ios": "https://dc.lft.to/lastmile_qr_scan"}, "lon": -76.99953133333334, "name": "558357cc0e2888861211e6182417870a", "is_disabled": 0, "is_reserved": 0, "bike_id": "558357cc0e2888861211e6182417870a", "lat": 38.90862, "type": "electric_scooter"}, {"fusion_lat": 0.0, "fusion_lon": 0.0, "rental_uris": {"android": "https://dc.lft.to/lastmile_qr_scan", "ios": "https://dc.lft.to/lastmile_qr_scan"}, "lon": -77.03315133333334, "name": "6c70b5b5a8a10aed86e5579b6d1afeaa", "is_disabled": 0, "is_reserved": 0, "bike_id": "6c70b5b5a8a10aed86e5579b6d1afeaa", "lat": 38.9388535, "type": "electric_scooter"}, {"fusion_lat": 0.0, "fusion_lon": 0.0, "rental_uris": {"android": "https://dc.lft.to/lastmile_qr_scan", "ios": "https://dc.lft.to/lastmile_qr_scan"}, "lon": -77.0309525, "name": "773606ffa4085caa26e78002b4d230cc", "is_disabled": 0, "is_reserved": 0, "bike_id": "773606ffa4085caa26e78002b4d230cc", "lat": 38.92380466666667, "type": "electric_scooter"}, {"fusion_lat": 0.0, "fusion_lon": 0.0, "rental_uris": {"android": "https://dc.lft.to/lastmile_qr_scan", "ios": "https://dc.lft.to/lastmile_qr_scan"}, "lon": -77.03221116666667, "name": "ac841892d3c1152dbfe2806c564e152a", "is_disabled": 0, "is_reserved": 0, "bike_id": "ac841892d3c1152dbfe2806c564e152a", "lat": 38.91404266666667, "type": "electric_scooter"}, {"fusion_lat": 0.0, "fusion_lon": 0.0, "rental_uris": {"android": "https://dc.lft.to/lastmile_qr_scan", "ios": "https://dc.lft.to/lastmile_qr_scan"}, "lon": -76.97820683333333, "name": "95e87f3857e3384d7c6dadfb4fd5f095", "is_disabled": 0, "is_reserved": 0, "bike_id": "95e87f3857e3384d7c6dadfb4fd5f095", "lat": 38.89842733333333, "type": "electric_scooter"}, {"fusion_lat": 0.0, "fusion_lon": 0.0, "rental_uris": {"android": "https://dc.lft.to/lastmile_qr_scan", "ios": "https://dc.lft.to/lastmile_qr_scan"}, "lon": -76.98878916666666, "name": "1bcdec21c2297051785ae9cd3e555881", "is_disabled": 0, "is_reserved": 0, "bike_id": "1bcdec21c2297051785ae9cd3e555881", "lat": 38.86659433333333, "type": "electric_scooter"}, {"fusion_lat": 0.0, "fusion_lon": 0.0, "rental_uris": {"android": "https://dc.lft.to/lastmile_qr_scan", "ios": "https://dc.lft.to/lastmile_qr_scan"}, "lon": -77.02330066666667, "name": "dea692ca9a499873e7879b4aa0f8e118", "is_disabled": 0, "is_reserved": 0, "bike_id": "dea692ca9a499873e7879b4aa0f8e118", "lat": 38.9084015, "type": "electric_scooter"}, {"fusion_lat": 0.0, "fusion_lon": 0.0, "rental_uris": {"android": "https://dc.lft.to/lastmile_qr_scan", "ios": "https://dc.lft.to/lastmile_qr_scan"}, "lon": -77.22890666666666, "name": "002589d5ba4dd7ae98530d7fc47c700e", "is_disabled": 0, "is_reserved": 0, "bike_id": "002589d5ba4dd7ae98530d7fc47c700e", "lat": 38.909556, "type": "electric_bike"}, {"fusion_lat": 0.0, "fusion_lon": 0.0, "rental_uris": {"android": "https://dc.lft.to/lastmile_qr_scan", "ios": "https://dc.lft.to/lastmile_qr_scan"}, "lon": -77.04890216666666, "name": "b7cb81dd6c12e8772e2ff6e604b4bff1", "is_disabled": 0, "is_reserved": 0, "bike_id": "b7cb81dd6c12e8772e2ff6e604b4bff1", "lat": 38.89753066666667, "type": "electric_scooter"}, {"fusion_lat": 0.0, "fusion_lon": 0.0, "rental_uris": {"android": "https://dc.lft.to/lastmile_qr_scan", "ios": "https://dc.lft.to/lastmile_qr_scan"}, "lon": -77.03382466666666, "name": "169ea1a8f41f6a01a545293991f345b4", "is_disabled": 0, "is_reserved": 0, "bike_id": "169ea1a8f41f6a01a545293991f345b4", "lat": 38.92349983333333, "type": "electric_scooter"}, {"fusion_lat": 0.0, "fusion_lon": 0.0, "rental_uris": {"android": "https://dc.lft.to/lastmile_qr_scan", "ios": "https://dc.lft.to/lastmile_qr_scan"}, "lon": -77.00252566666667, "name": "84f6c7facd59d24f62a2d9e8af629f56", "is_disabled": 0, "is_reserved": 0, "bike_id": "84f6c7facd59d24f62a2d9e8af629f56", "lat": 38.8800725, "type": "electric_scooter"}, {"fusion_lat": 0.0, "fusion_lon": 0.0, "rental_uris": {"android": "https://dc.lft.to/lastmile_qr_scan", "ios": "https://dc.lft.to/lastmile_qr_scan"}, "lon": -77.03312216666667, "name": "403bc03f88232af73c7a2489cf2b3d1f", "is_disabled": 0, "is_reserved": 0, "bike_id": "403bc03f88232af73c7a2489cf2b3d1f", "lat": 38.898155833333334, "type": "electric_scooter"}, {"fusion_lat": 0.0, "fusion_lon": 0.0, "rental_uris": {"android": "https://dc.lft.to/lastmile_qr_scan", "ios": "https://dc.lft.to/lastmile_qr_scan"}, "lon": -77.02965733333333, "name": "3377d326f49e09b5eef05d45e8b3eac1", "is_disabled": 0, "is_reserved": 0, "bike_id": "3377d326f49e09b5eef05d45e8b3eac1", "lat": 38.922635166666666, "type": "electric_scooter"}, {"fusion_lat": 0.0, "fusion_lon": 0.0, "rental_uris": {"android": "https://dc.lft.to/lastmile_qr_scan", "ios": "https://dc.lft.to/lastmile_qr_scan"}, "lon": -77.0321965, "name": "791f55e056e74532c143318d947655ba", "is_disabled": 0, "is_reserved": 0, "bike_id": "791f55e056e74532c143318d947655ba", "lat": 38.89224566666667, "type": "electric_scooter"}, {"fusion_lat": 0.0, "fusion_lon": 0.0, "rental_uris": {"android": "https://dc.lft.to/lastmile_qr_scan", "ios": "https://dc.lft.to/lastmile_qr_scan"}, "lon": -77.020188, "name": "beb8047adef43005fbe7b6c2d5a8676e", "is_disabled": 0, "is_reserved": 0, "bike_id": "beb8047adef43005fbe7b6c2d5a8676e", "lat": 38.897722333333334, "type": "electric_scooter"}, {"fusion_lat": 0.0, "fusion_lon": 0.0, "rental_uris": {"android": "https://dc.lft.to/lastmile_qr_scan", "ios": "https://dc.lft.to/lastmile_qr_scan"}, "lon": -77.0196375, "name": "8f829ada128e0cc7bfce7fd48f0238d8", "is_disabled": 0, "is_reserved": 0, "bike_id": "8f829ada128e0cc7bfce7fd48f0238d8", "lat": 38.89354633333333, "type": "electric_scooter"}, {"fusion_lat": 0.0, "fusion_lon": 0.0, "rental_uris": {"android": "https://dc.lft.to/lastmile_qr_scan", "ios": "https://dc.lft.to/lastmile_qr_scan"}, "lon": -77.02167533333333, "name": "e5874a1b7689315ad32727d9e9cf17f4", "is_disabled": 0, "is_reserved": 0, "bike_id": "e5874a1b7689315ad32727d9e9cf17f4", "lat": 38.89730183333333, "type": "electric_scooter"}, {"fusion_lat": 0.0, "fusion_lon": 0.0, "rental_uris": {"android": "https://dc.lft.to/lastmile_qr_scan", "ios": "https://dc.lft.to/lastmile_qr_scan"}, "lon": -77.0030275, "name": "16a71429654daccb8cec61330c5d32fb", "is_disabled": 0, "is_reserved": 0, "bike_id": "16a71429654daccb8cec61330c5d32fb", "lat": 38.8772065, "type": "electric_scooter"}, {"fusion_lat": 0.0, "fusion_lon": 0.0, "rental_uris": {"android": "https://dc.lft.to/lastmile_qr_scan", "ios": "https://dc.lft.to/lastmile_qr_scan"}, "lon": -77.00326333333334, "name": "0ddfd8f7dd19c66f9fa550eaf6241c4a", "is_disabled": 0, "is_reserved": 0, "bike_id": "0ddfd8f7dd19c66f9fa550eaf6241c4a", "lat": 38.88499433333333, "type": "electric_scooter"}, {"fusion_lat": 0.0, "fusion_lon": 0.0, "rental_uris": {"android": "https://dc.lft.to/lastmile_qr_scan", "ios": "https://dc.lft.to/lastmile_qr_scan"}, "lon": -77.02711466666666, "name": "afa7337acffba3a388d6d2a4e06d584c", "is_disabled": 0, "is_reserved": 0, "bike_id": "afa7337acffba3a388d6d2a4e06d584c", "lat": 38.881280333333336, "type": "electric_scooter"}, {"fusion_lat": 0.0, "fusion_lon": 0.0, "rental_uris": {"android": "https://dc.lft.to/lastmile_qr_scan", "ios": "https://dc.lft.to/lastmile_qr_scan"}, "lon": -77.01221383333333, "name": "fe9540ebe2d095a5eea1c635ee630d34", "is_disabled": 0, "is_reserved": 0, "bike_id": "fe9540ebe2d095a5eea1c635ee630d34", "lat": 38.9259965, "type": "electric_scooter"}, {"fusion_lat": 0.0, "fusion_lon": 0.0, "rental_uris": {"android": "https://dc.lft.to/lastmile_qr_scan", "ios": "https://dc.lft.to/lastmile_qr_scan"}, "lon": -77.0398755, "name": "f0de9c931ba7f687fb3e78e70218ebd4", "is_disabled": 0, "is_reserved": 0, "bike_id": "f0de9c931ba7f687fb3e78e70218ebd4", "lat": 38.90145116666667, "type": "electric_scooter"}, {"fusion_lat": 0.0, "fusion_lon": 0.0, "rental_uris": {"android": "https://dc.lft.to/lastmile_qr_scan", "ios": "https://dc.lft.to/lastmile_qr_scan"}, "lon": -77.03317083333333, "name": "a045d882c7dd12c48f3f52cf098c554a", "is_disabled": 0, "is_reserved": 0, "bike_id": "a045d882c7dd12c48f3f52cf098c554a", "lat": 38.915633, "type": "electric_scooter"}, {"fusion_lat": 0.0, "fusion_lon": 0.0, "rental_uris": {"android": "https://dc.lft.to/lastmile_qr_scan", "ios": "https://dc.lft.to/lastmile_qr_scan"}, "lon": -76.98270683333334, "name": "eba8d8e80f4907df93619ac6cb92fb7a", "is_disabled": 0, "is_reserved": 0, "bike_id": "eba8d8e80f4907df93619ac6cb92fb7a", "lat": 38.867566833333335, "type": "electric_scooter"}, {"fusion_lat": 0.0, "fusion_lon": 0.0, "rental_uris": {"android": "https://dc.lft.to/lastmile_qr_scan", "ios": "https://dc.lft.to/lastmile_qr_scan"}, "lon": -77.04972783333334, "name": "ef03435f6ccd97615c0aebdbc2105620", "is_disabled": 0, "is_reserved": 0, "bike_id": "ef03435f6ccd97615c0aebdbc2105620", "lat": 38.91784466666667, "type": "electric_scooter"}, {"fusion_lat": 0.0, "fusion_lon": 0.0, "rental_uris": {"android": "https://dc.lft.to/lastmile_qr_scan", "ios": "https://dc.lft.to/lastmile_qr_scan"}, "lon": -77.033053, "name": "7e71d292104734ea10f8ac389cad54de", "is_disabled": 0, "is_reserved": 0, "bike_id": "7e71d292104734ea10f8ac389cad54de", "lat": 38.956342, "type": "electric_scooter"}, {"fusion_lat": 0.0, "fusion_lon": 0.0, "rental_uris": {"android": "https://dc.lft.to/lastmile_qr_scan", "ios": "https://dc.lft.to/lastmile_qr_scan"}, "lon": -77.048745, "name": "715dd4bb21d4dea579e2f3b12f6cc44d", "is_disabled": 0, "is_reserved": 0, "bike_id": "715dd4bb21d4dea579e2f3b12f6cc44d", "lat": 38.90975983333333, "type": "electric_scooter"}, {"fusion_lat": 0.0, "fusion_lon": 0.0, "rental_uris": {"android": "https://dc.lft.to/lastmile_qr_scan", "ios": "https://dc.lft.to/lastmile_qr_scan"}, "lon": -77.0330735, "name": "ed7ee7eb22fb586bf63fec033f175486", "is_disabled": 0, "is_reserved": 0, "bike_id": "ed7ee7eb22fb586bf63fec033f175486", "lat": 38.95630283333333, "type": "electric_scooter"}, {"fusion_lat": 0.0, "fusion_lon": 0.0, "rental_uris": {"android": "https://dc.lft.to/lastmile_qr_scan", "ios": "https://dc.lft.to/lastmile_qr_scan"}, "lon": -76.968175, "name": "209128b7a880c83ff896d5ec98aa44c0", "is_disabled": 0, "is_reserved": 0, "bike_id": "209128b7a880c83ff896d5ec98aa44c0", "lat": 38.8472, "type": "electric_scooter"}, {"fusion_lat": 0.0, "fusion_lon": 0.0, "rental_uris": {"android": "https://dc.lft.to/lastmile_qr_scan", "ios": "https://dc.lft.to/lastmile_qr_scan"}, "lon": -77.002575, "name": "0b23f4745191abdfc1f504c1a0ed7fb9", "is_disabled": 0, "is_reserved": 0, "bike_id": "0b23f4745191abdfc1f504c1a0ed7fb9", "lat": 38.89485533333333, "type": "electric_scooter"}, {"fusion_lat": 0.0, "fusion_lon": 0.0, "rental_uris": {"android": "https://dc.lft.to/lastmile_qr_scan", "ios": "https://dc.lft.to/lastmile_qr_scan"}, "lon": -77.04270016666666, "name": "bc9c1ef1c6b1f838a0ce52d3cb1de7ea", "is_disabled": 0, "is_reserved": 0, "bike_id": "bc9c1ef1c6b1f838a0ce52d3cb1de7ea", "lat": 38.922367666666666, "type": "electric_scooter"}, {"fusion_lat": 0.0, "fusion_lon": 0.0, "rental_uris": {"android": "https://dc.lft.to/lastmile_qr_scan", "ios": "https://dc.lft.to/lastmile_qr_scan"}, "lon": -77.01680833333333, "name": "7bf00725d0e39df046383f1ffb767fb0", "is_disabled": 0, "is_reserved": 0, "bike_id": "7bf00725d0e39df046383f1ffb767fb0", "lat": 38.92046216666667, "type": "electric_scooter"}, {"fusion_lat": 0.0, "fusion_lon": 0.0, "rental_uris": {"android": "https://dc.lft.to/lastmile_qr_scan", "ios": "https://dc.lft.to/lastmile_qr_scan"}, "lon": -76.9376505, "name": "99cc86f33ae7e5cb2d136ae51a850899", "is_disabled": 0, "is_reserved": 0, "bike_id": "99cc86f33ae7e5cb2d136ae51a850899", "lat": 38.899431, "type": "electric_scooter"}, {"fusion_lat": 0.0, "fusion_lon": 0.0, "rental_uris": {"android": "https://dc.lft.to/lastmile_qr_scan", "ios": "https://dc.lft.to/lastmile_qr_scan"}, "lon": -77.01420883333333, "name": "1e8313ece055ac3348bee1ac331df27b", "is_disabled": 0, "is_reserved": 0, "bike_id": "1e8313ece055ac3348bee1ac331df27b", "lat": 38.928384666666666, "type": "electric_scooter"}, {"fusion_lat": 0.0, "fusion_lon": 0.0, "rental_uris": {"android": "https://dc.lft.to/lastmile_qr_scan", "ios": "https://dc.lft.to/lastmile_qr_scan"}, "lon": -77.03845433333333, "name": "5ff9cd7b6e4a546834e10915e80ff6d6", "is_disabled": 0, "is_reserved": 0, "bike_id": "5ff9cd7b6e4a546834e10915e80ff6d6", "lat": 38.90279016666667, "type": "electric_scooter"}, {"fusion_lat": 0.0, "fusion_lon": 0.0, "rental_uris": {"android": "https://dc.lft.to/lastmile_qr_scan", "ios": "https://dc.lft.to/lastmile_qr_scan"}, "lon": -77.04024966666667, "name": "b7910c07e4a4b1f4ec74fcbd3f7ec566", "is_disabled": 0, "is_reserved": 0, "bike_id": "b7910c07e4a4b1f4ec74fcbd3f7ec566", "lat": 38.905860833333335, "type": "electric_scooter"}, {"fusion_lat": 0.0, "fusion_lon": 0.0, "rental_uris": {"android": "https://dc.lft.to/lastmile_qr_scan", "ios": "https://dc.lft.to/lastmile_qr_scan"}, "lon": -77.0034965, "name": "cf6dade9085051ddaec0830ce60ad341", "is_disabled": 0, "is_reserved": 0, "bike_id": "cf6dade9085051ddaec0830ce60ad341", "lat": 38.87720233333334, "type": "electric_scooter"}, {"fusion_lat": 0.0, "fusion_lon": 0.0, "rental_uris": {"android": "https://dc.lft.to/lastmile_qr_scan", "ios": "https://dc.lft.to/lastmile_qr_scan"}, "lon": -77.04390633333334, "name": "50c4ceacd3306594ba14c8f2a24d6f57", "is_disabled": 0, "is_reserved": 0, "bike_id": "50c4ceacd3306594ba14c8f2a24d6f57", "lat": 38.902334833333335, "type": "electric_scooter"}, {"fusion_lat": 0.0, "fusion_lon": 0.0, "rental_uris": {"android": "https://dc.lft.to/lastmile_qr_scan", "ios": "https://dc.lft.to/lastmile_qr_scan"}, "lon": -77.045778, "name": "b4b9d55d827d83325d6f2afefb46d793", "is_disabled": 0, "is_reserved": 0, "bike_id": "b4b9d55d827d83325d6f2afefb46d793", "lat": 38.90270683333333, "type": "electric_scooter"}, {"fusion_lat": 0.0, "fusion_lon": 0.0, "rental_uris": {"android": "https://dc.lft.to/lastmile_qr_scan", "ios": "https://dc.lft.to/lastmile_qr_scan"}, "lon": -76.98698666666667, "name": "c01098b812d4d6b999724627de27ce49", "is_disabled": 0, "is_reserved": 0, "bike_id": "c01098b812d4d6b999724627de27ce49", "lat": 38.8672005, "type": "electric_scooter"}, {"fusion_lat": 0.0, "fusion_lon": 0.0, "rental_uris": {"android": "https://dc.lft.to/lastmile_qr_scan", "ios": "https://dc.lft.to/lastmile_qr_scan"}, "lon": -76.98682, "name": "87bb4450787bba16f4ee3ace758053c7", "is_disabled": 0, "is_reserved": 0, "bike_id": "87bb4450787bba16f4ee3ace758053c7", "lat": 38.91288216666667, "type": "electric_scooter"}, {"fusion_lat": 0.0, "fusion_lon": 0.0, "rental_uris": {"android": "https://dc.lft.to/lastmile_qr_scan", "ios": "https://dc.lft.to/lastmile_qr_scan"}, "lon": -77.03189016666667, "name": "9801c483381c87ceeeca8f9a07fa7539", "is_disabled": 0, "is_reserved": 0, "bike_id": "9801c483381c87ceeeca8f9a07fa7539", "lat": 38.9185335, "type": "electric_scooter"}, {"fusion_lat": 0.0, "fusion_lon": 0.0, "rental_uris": {"android": "https://dc.lft.to/lastmile_qr_scan", "ios": "https://dc.lft.to/lastmile_qr_scan"}, "lon": -77.04132433333334, "name": "522c0f7d023780d1827d3a3c07e12064", "is_disabled": 0, "is_reserved": 0, "bike_id": "522c0f7d023780d1827d3a3c07e12064", "lat": 38.92256416666667, "type": "electric_scooter"}, {"fusion_lat": 0.0, "fusion_lon": 0.0, "rental_uris": {"android": "https://dc.lft.to/lastmile_qr_scan", "ios": "https://dc.lft.to/lastmile_qr_scan"}, "lon": -77.05000833333334, "name": "676368bc007f9fb52290f6c862fbfe84", "is_disabled": 0, "is_reserved": 0, "bike_id": "676368bc007f9fb52290f6c862fbfe84", "lat": 38.89229316666667, "type": "electric_scooter"}, {"fusion_lat": 0.0, "fusion_lon": 0.0, "rental_uris": {"android": "https://dc.lft.to/lastmile_qr_scan", "ios": "https://dc.lft.to/lastmile_qr_scan"}, "lon": -77.0372645, "name": "393f4c727332593689e0bacbd133c0f5", "is_disabled": 0, "is_reserved": 0, "bike_id": "393f4c727332593689e0bacbd133c0f5", "lat": 38.9069355, "type": "electric_scooter"}, {"fusion_lat": 0.0, "fusion_lon": 0.0, "rental_uris": {"android": "https://dc.lft.to/lastmile_qr_scan", "ios": "https://dc.lft.to/lastmile_qr_scan"}, "lon": -77.02015333333334, "name": "4f8fda3aea389a43ae2abd1947b2b344", "is_disabled": 0, "is_reserved": 0, "bike_id": "4f8fda3aea389a43ae2abd1947b2b344", "lat": 38.89771533333333, "type": "electric_scooter"}, {"fusion_lat": 0.0, "fusion_lon": 0.0, "rental_uris": {"android": "https://dc.lft.to/lastmile_qr_scan", "ios": "https://dc.lft.to/lastmile_qr_scan"}, "lon": -77.03554583333333, "name": "c9b7a5818face1f88461546069feb445", "is_disabled": 0, "is_reserved": 0, "bike_id": "c9b7a5818face1f88461546069feb445", "lat": 38.901458166666664, "type": "electric_scooter"}, {"fusion_lat": 0.0, "fusion_lon": 0.0, "rental_uris": {"android": "https://dc.lft.to/lastmile_qr_scan", "ios": "https://dc.lft.to/lastmile_qr_scan"}, "lon": -77.02709866666666, "name": "1eb2785fd377b4d5c6f2f22bca695dbb", "is_disabled": 0, "is_reserved": 0, "bike_id": "1eb2785fd377b4d5c6f2f22bca695dbb", "lat": 38.91718916666667, "type": "electric_scooter"}, {"fusion_lat": 0.0, "fusion_lon": 0.0, "rental_uris": {"android": "https://dc.lft.to/lastmile_qr_scan", "ios": "https://dc.lft.to/lastmile_qr_scan"}, "lon": -77.027072, "name": "8cab998e974d355a15da1a41c8f304f5", "is_disabled": 0, "is_reserved": 0, "bike_id": "8cab998e974d355a15da1a41c8f304f5", "lat": 38.90666816666667, "type": "electric_scooter"}, {"fusion_lat": 0.0, "fusion_lon": 0.0, "rental_uris": {"android": "https://dc.lft.to/lastmile_qr_scan", "ios": "https://dc.lft.to/lastmile_qr_scan"}, "lon": -76.9797455, "name": "1a6a549a0389af44e1877f295e857ee5", "is_disabled": 0, "is_reserved": 0, "bike_id": "1a6a549a0389af44e1877f295e857ee5", "lat": 38.897401333333335, "type": "electric_scooter"}, {"fusion_lat": 0.0, "fusion_lon": 0.0, "rental_uris": {"android": "https://dc.lft.to/lastmile_qr_scan", "ios": "https://dc.lft.to/lastmile_qr_scan"}, "lon": -77.03336083333333, "name": "12db31cfac0e6a4375ec6df013c2c174", "is_disabled": 0, "is_reserved": 0, "bike_id": "12db31cfac0e6a4375ec6df013c2c174", "lat": 38.9025275, "type": "electric_scooter"}, {"fusion_lat": 0.0, "fusion_lon": 0.0, "rental_uris": {"android": "https://dc.lft.to/lastmile_qr_scan", "ios": "https://dc.lft.to/lastmile_qr_scan"}, "lon": -77.03941083333333, "name": "b3aba41376593b2dcd175c24be547234", "is_disabled": 0, "is_reserved": 0, "bike_id": "b3aba41376593b2dcd175c24be547234", "lat": 38.9081305, "type": "electric_scooter"}, {"fusion_lat": 0.0, "fusion_lon": 0.0, "rental_uris": {"android": "https://dc.lft.to/lastmile_qr_scan", "ios": "https://dc.lft.to/lastmile_qr_scan"}, "lon": -76.9856965, "name": "b765ca8b8810613aa03aa422758c14c8", "is_disabled": 0, "is_reserved": 0, "bike_id": "b765ca8b8810613aa03aa422758c14c8", "lat": 38.86679633333333, "type": "electric_scooter"}, {"fusion_lat": 0.0, "fusion_lon": 0.0, "rental_uris": {"android": "https://dc.lft.to/lastmile_qr_scan", "ios": "https://dc.lft.to/lastmile_qr_scan"}, "lon": -77.0092325, "name": "6089f7e53bf364785f6a2a5f5408b54b", "is_disabled": 0, "is_reserved": 0, "bike_id": "6089f7e53bf364785f6a2a5f5408b54b", "lat": 38.896361, "type": "electric_scooter"}, {"fusion_lat": 0.0, "fusion_lon": 0.0, "rental_uris": {"android": "https://dc.lft.to/lastmile_qr_scan", "ios": "https://dc.lft.to/lastmile_qr_scan"}, "lon": -77.034505, "name": "c93821dea072f6a72e3cca3fbed75e4e", "is_disabled": 0, "is_reserved": 0, "bike_id": "c93821dea072f6a72e3cca3fbed75e4e", "lat": 38.9056215, "type": "electric_scooter"}, {"fusion_lat": 0.0, "fusion_lon": 0.0, "rental_uris": {"android": "https://dc.lft.to/lastmile_qr_scan", "ios": "https://dc.lft.to/lastmile_qr_scan"}, "lon": -77.05071583333333, "name": "b0eaa80abc95c5549f1c3e0bbb3b054c", "is_disabled": 0, "is_reserved": 0, "bike_id": "b0eaa80abc95c5549f1c3e0bbb3b054c", "lat": 38.925315833333336, "type": "electric_scooter"}, {"fusion_lat": 0.0, "fusion_lon": 0.0, "rental_uris": {"android": "https://dc.lft.to/lastmile_qr_scan", "ios": "https://dc.lft.to/lastmile_qr_scan"}, "lon": -77.08186233333333, "name": "0743d0dc1efb067d0b42e5319e73b1c7", "is_disabled": 0, "is_reserved": 0, "bike_id": "0743d0dc1efb067d0b42e5319e73b1c7", "lat": 38.935482666666665, "type": "electric_scooter"}, {"fusion_lat": 0.0, "fusion_lon": 0.0, "rental_uris": {"android": "https://dc.lft.to/lastmile_qr_scan", "ios": "https://dc.lft.to/lastmile_qr_scan"}, "lon": -77.02985216666667, "name": "c83a299a17c6b5cca534d4144da91463", "is_disabled": 0, "is_reserved": 0, "bike_id": "c83a299a17c6b5cca534d4144da91463", "lat": 38.8993555, "type": "electric_scooter"}, {"fusion_lat": 0.0, "fusion_lon": 0.0, "rental_uris": {"android": "https://dc.lft.to/lastmile_qr_scan", "ios": "https://dc.lft.to/lastmile_qr_scan"}, "lon": -77.02207533333333, "name": "43eb6e466269245dd9d12171d0177e8e", "is_disabled": 0, "is_reserved": 0, "bike_id": "43eb6e466269245dd9d12171d0177e8e", "lat": 38.901725166666665, "type": "electric_scooter"}, {"fusion_lat": 0.0, "fusion_lon": 0.0, "rental_uris": {"android": "https://dc.lft.to/lastmile_qr_scan", "ios": "https://dc.lft.to/lastmile_qr_scan"}, "lon": -77.0401925, "name": "b866f5730aef296eb630af660c5aefee", "is_disabled": 0, "is_reserved": 0, "bike_id": "b866f5730aef296eb630af660c5aefee", "lat": 38.924495666666665, "type": "electric_scooter"}, {"fusion_lat": 0.0, "fusion_lon": 0.0, "rental_uris": {"android": "https://dc.lft.to/lastmile_qr_scan", "ios": "https://dc.lft.to/lastmile_qr_scan"}, "lon": -76.99067183333334, "name": "7180011d1e785f2e04fac618514ab53d", "is_disabled": 0, "is_reserved": 0, "bike_id": "7180011d1e785f2e04fac618514ab53d", "lat": 38.89815766666667, "type": "electric_bike"}, {"fusion_lat": 0.0, "fusion_lon": 0.0, "rental_uris": {"android": "https://dc.lft.to/lastmile_qr_scan", "ios": "https://dc.lft.to/lastmile_qr_scan"}, "lon": -77.041527, "name": "5068e8974577105cc65ccc672fb1f559", "is_disabled": 0, "is_reserved": 0, "bike_id": "5068e8974577105cc65ccc672fb1f559", "lat": 38.919729333333336, "type": "electric_scooter"}, {"fusion_lat": 0.0, "fusion_lon": 0.0, "rental_uris": {"android": "https://dc.lft.to/lastmile_qr_scan", "ios": "https://dc.lft.to/lastmile_qr_scan"}, "lon": -76.946527, "name": "cc428e41a08a4db3c09cc0c2426df1a6", "is_disabled": 0, "is_reserved": 0, "bike_id": "cc428e41a08a4db3c09cc0c2426df1a6", "lat": 38.8982635, "type": "electric_scooter"}, {"fusion_lat": 0.0, "fusion_lon": 0.0, "rental_uris": {"android": "https://dc.lft.to/lastmile_qr_scan", "ios": "https://dc.lft.to/lastmile_qr_scan"}, "lon": -77.02975233333333, "name": "a3be63d58b9aff3af46d9ea2a998a37f", "is_disabled": 0, "is_reserved": 0, "bike_id": "a3be63d58b9aff3af46d9ea2a998a37f", "lat": 38.92263966666667, "type": "electric_scooter"}, {"fusion_lat": 0.0, "fusion_lon": 0.0, "rental_uris": {"android": "https://dc.lft.to/lastmile_qr_scan", "ios": "https://dc.lft.to/lastmile_qr_scan"}, "lon": -77.043511, "name": "ebc8c05cc4e2d35999a1c4c77dd39622", "is_disabled": 0, "is_reserved": 0, "bike_id": "ebc8c05cc4e2d35999a1c4c77dd39622", "lat": 38.9001695, "type": "electric_scooter"}, {"fusion_lat": 0.0, "fusion_lon": 0.0, "rental_uris": {"android": "https://dc.lft.to/lastmile_qr_scan", "ios": "https://dc.lft.to/lastmile_qr_scan"}, "lon": -77.02124316666666, "name": "f6d9f504a1eae1c223db490a739fd1ee", "is_disabled": 0, "is_reserved": 0, "bike_id": "f6d9f504a1eae1c223db490a739fd1ee", "lat": 38.922366333333336, "type": "electric_scooter"}, {"fusion_lat": 0.0, "fusion_lon": 0.0, "rental_uris": {"android": "https://dc.lft.to/lastmile_qr_scan", "ios": "https://dc.lft.to/lastmile_qr_scan"}, "lon": -77.00580366666667, "name": "7fd96f9cc5be0bc54aa0efeffad73110", "is_disabled": 0, "is_reserved": 0, "bike_id": "7fd96f9cc5be0bc54aa0efeffad73110", "lat": 38.929371833333335, "type": "electric_scooter"}, {"fusion_lat": 0.0, "fusion_lon": 0.0, "rental_uris": {"android": "https://dc.lft.to/lastmile_qr_scan", "ios": "https://dc.lft.to/lastmile_qr_scan"}, "lon": -77.00196916666667, "name": "8668eb45b17adfdee29074a333a486a7", "is_disabled": 0, "is_reserved": 0, "bike_id": "8668eb45b17adfdee29074a333a486a7", "lat": 38.876763, "type": "electric_scooter"}, {"fusion_lat": 0.0, "fusion_lon": 0.0, "rental_uris": {"android": "https://dc.lft.to/lastmile_qr_scan", "ios": "https://dc.lft.to/lastmile_qr_scan"}, "lon": -77.089198, "name": "e1c384c2e082c3001e181e0603ce077f", "is_disabled": 0, "is_reserved": 0, "bike_id": "e1c384c2e082c3001e181e0603ce077f", "lat": 38.863345, "type": "electric_bike"}, {"fusion_lat": 0.0, "fusion_lon": 0.0, "rental_uris": {"android": "https://dc.lft.to/lastmile_qr_scan", "ios": "https://dc.lft.to/lastmile_qr_scan"}, "lon": -77.08655516666667, "name": "42399205670eb0df7c291cfa407ba4b7", "is_disabled": 0, "is_reserved": 0, "bike_id": "42399205670eb0df7c291cfa407ba4b7", "lat": 38.86245183333333, "type": "electric_bike"}, {"fusion_lat": 0.0, "fusion_lon": 0.0, "rental_uris": {"android": "https://dc.lft.to/lastmile_qr_scan", "ios": "https://dc.lft.to/lastmile_qr_scan"}, "lon": -77.00867116666667, "name": "24d501486cf8afebabc2f00f3f2c7a8e", "is_disabled": 0, "is_reserved": 0, "bike_id": "24d501486cf8afebabc2f00f3f2c7a8e", "lat": 38.96459016666667, "type": "electric_bike"}, {"fusion_lat": 0.0, "fusion_lon": 0.0, "rental_uris": {"android": "https://dc.lft.to/lastmile_qr_scan", "ios": "https://dc.lft.to/lastmile_qr_scan"}, "lon": -77.0240575, "name": "ac2500d746e5e7205340aaf911572a62", "is_disabled": 0, "is_reserved": 0, "bike_id": "ac2500d746e5e7205340aaf911572a62", "lat": 38.896859166666665, "type": "electric_scooter"}, {"fusion_lat": 0.0, "fusion_lon": 0.0, "rental_uris": {"android": "https://dc.lft.to/lastmile_qr_scan", "ios": "https://dc.lft.to/lastmile_qr_scan"}, "lon": -76.95752983333334, "name": "1aba7c3c925f436e61a33d0a560b45e2", "is_disabled": 0, "is_reserved": 0, "bike_id": "1aba7c3c925f436e61a33d0a560b45e2", "lat": 38.8842505, "type": "electric_scooter"}, {"fusion_lat": 0.0, "fusion_lon": 0.0, "rental_uris": {"android": "https://dc.lft.to/lastmile_qr_scan", "ios": "https://dc.lft.to/lastmile_qr_scan"}, "lon": -77.03642133333334, "name": "d7f2beadd9dd94f130b9e7a114893233", "is_disabled": 0, "is_reserved": 0, "bike_id": "d7f2beadd9dd94f130b9e7a114893233", "lat": 38.917316166666666, "type": "electric_scooter"}, {"fusion_lat": 0.0, "fusion_lon": 0.0, "rental_uris": {"android": "https://dc.lft.to/lastmile_qr_scan", "ios": "https://dc.lft.to/lastmile_qr_scan"}, "lon": -76.99793266666667, "name": "7eb7d0bd51afc9617b3ae841ce0c2f4a", "is_disabled": 0, "is_reserved": 0, "bike_id": "7eb7d0bd51afc9617b3ae841ce0c2f4a", "lat": 38.95086416666667, "type": "electric_bike"}, {"fusion_lat": 0.0, "fusion_lon": 0.0, "rental_uris": {"android": "https://dc.lft.to/lastmile_qr_scan", "ios": "https://dc.lft.to/lastmile_qr_scan"}, "lon": -77.18741866666667, "name": "2bc6139dbe7f65bc7e368385f1e81b1d", "is_disabled": 0, "is_reserved": 0, "bike_id": "2bc6139dbe7f65bc7e368385f1e81b1d", "lat": 38.893505166666664, "type": "electric_bike"}, {"fusion_lat": 0.0, "fusion_lon": 0.0, "rental_uris": {"android": "https://dc.lft.to/lastmile_qr_scan", "ios": "https://dc.lft.to/lastmile_qr_scan"}, "lon": -77.00457316666666, "name": "6cdc22226f97115fbec347ec0d5432af", "is_disabled": 0, "is_reserved": 0, "bike_id": "6cdc22226f97115fbec347ec0d5432af", "lat": 38.905669, "type": "electric_scooter"}, {"fusion_lat": 0.0, "fusion_lon": 0.0, "rental_uris": {"android": "https://dc.lft.to/lastmile_qr_scan", "ios": "https://dc.lft.to/lastmile_qr_scan"}, "lon": -77.04514616666667, "name": "97ff3b4ac7bb0290b994553911ef9dbc", "is_disabled": 0, "is_reserved": 0, "bike_id": "97ff3b4ac7bb0290b994553911ef9dbc", "lat": 38.90372833333333, "type": "electric_scooter"}, {"fusion_lat": 0.0, "fusion_lon": 0.0, "rental_uris": {"android": "https://dc.lft.to/lastmile_qr_scan", "ios": "https://dc.lft.to/lastmile_qr_scan"}, "lon": -77.0331915, "name": "09c0fe03f41c3043a21276e745ac0368", "is_disabled": 0, "is_reserved": 0, "bike_id": "09c0fe03f41c3043a21276e745ac0368", "lat": 38.9131245, "type": "electric_scooter"}, {"fusion_lat": 0.0, "fusion_lon": 0.0, "rental_uris": {"android": "https://dc.lft.to/lastmile_qr_scan", "ios": "https://dc.lft.to/lastmile_qr_scan"}, "lon": -77.0427885, "name": "833eed83cba8a98968809b73c0b3f642", "is_disabled": 0, "is_reserved": 0, "bike_id": "833eed83cba8a98968809b73c0b3f642", "lat": 38.907367666666666, "type": "electric_scooter"}, {"fusion_lat": 0.0, "fusion_lon": 0.0, "rental_uris": {"android": "https://dc.lft.to/lastmile_qr_scan", "ios": "https://dc.lft.to/lastmile_qr_scan"}, "lon": -77.02706716666667, "name": "b1292915267708b814e74473c5cc2c3b", "is_disabled": 0, "is_reserved": 0, "bike_id": "b1292915267708b814e74473c5cc2c3b", "lat": 38.9066905, "type": "electric_scooter"}, {"fusion_lat": 0.0, "fusion_lon": 0.0, "rental_uris": {"android": "https://dc.lft.to/lastmile_qr_scan", "ios": "https://dc.lft.to/lastmile_qr_scan"}, "lon": -76.99014316666667, "name": "8aa071b40dac79568c9308bd3a97d547", "is_disabled": 0, "is_reserved": 0, "bike_id": "8aa071b40dac79568c9308bd3a97d547", "lat": 38.865117833333336, "type": "electric_scooter"}, {"fusion_lat": 0.0, "fusion_lon": 0.0, "rental_uris": {"android": "https://dc.lft.to/lastmile_qr_scan", "ios": "https://dc.lft.to/lastmile_qr_scan"}, "lon": -77.03953066666666, "name": "9a47ac8a234bca968ef25a7a9c2c95fe", "is_disabled": 0, "is_reserved": 0, "bike_id": "9a47ac8a234bca968ef25a7a9c2c95fe", "lat": 38.89622583333333, "type": "electric_scooter"}, {"fusion_lat": 0.0, "fusion_lon": 0.0, "rental_uris": {"android": "https://dc.lft.to/lastmile_qr_scan", "ios": "https://dc.lft.to/lastmile_qr_scan"}, "lon": -77.00296933333334, "name": "23c2b23277c9112f955ad7b0d775fc4a", "is_disabled": 0, "is_reserved": 0, "bike_id": "23c2b23277c9112f955ad7b0d775fc4a", "lat": 38.83372133333334, "type": "electric_bike"}, {"fusion_lat": 0.0, "fusion_lon": 0.0, "rental_uris": {"android": "https://dc.lft.to/lastmile_qr_scan", "ios": "https://dc.lft.to/lastmile_qr_scan"}, "lon": -77.019472, "name": "2b1d3aa416e0ba9a58e88c2f73a66fd0", "is_disabled": 0, "is_reserved": 0, "bike_id": "2b1d3aa416e0ba9a58e88c2f73a66fd0", "lat": 38.922511, "type": "electric_scooter"}, {"fusion_lat": 0.0, "fusion_lon": 0.0, "rental_uris": {"android": "https://dc.lft.to/lastmile_qr_scan", "ios": "https://dc.lft.to/lastmile_qr_scan"}, "lon": -77.0199655, "name": "ed857e8c387c04cb07113bd7dd45570c", "is_disabled": 0, "is_reserved": 0, "bike_id": "ed857e8c387c04cb07113bd7dd45570c", "lat": 38.9136105, "type": "electric_scooter"}, {"fusion_lat": 0.0, "fusion_lon": 0.0, "rental_uris": {"android": "https://dc.lft.to/lastmile_qr_scan", "ios": "https://dc.lft.to/lastmile_qr_scan"}, "lon": -77.02119866666666, "name": "6b18678ded5f7907a440970467555878", "is_disabled": 0, "is_reserved": 0, "bike_id": "6b18678ded5f7907a440970467555878", "lat": 38.922666, "type": "electric_scooter"}, {"fusion_lat": 0.0, "fusion_lon": 0.0, "rental_uris": {"android": "https://dc.lft.to/lastmile_qr_scan", "ios": "https://dc.lft.to/lastmile_qr_scan"}, "lon": -77.0525025, "name": "61a3bb23340e0998b507ef91c746829f", "is_disabled": 0, "is_reserved": 0, "bike_id": "61a3bb23340e0998b507ef91c746829f", "lat": 38.927816666666665, "type": "electric_scooter"}, {"fusion_lat": 0.0, "fusion_lon": 0.0, "rental_uris": {"android": "https://dc.lft.to/lastmile_qr_scan", "ios": "https://dc.lft.to/lastmile_qr_scan"}, "lon": -77.0322685, "name": "14c41c4d2030c5dc78a6b6a758ffa3d5", "is_disabled": 0, "is_reserved": 0, "bike_id": "14c41c4d2030c5dc78a6b6a758ffa3d5", "lat": 38.92586133333333, "type": "electric_scooter"}, {"fusion_lat": 0.0, "fusion_lon": 0.0, "rental_uris": {"android": "https://dc.lft.to/lastmile_qr_scan", "ios": "https://dc.lft.to/lastmile_qr_scan"}, "lon": -77.00334616666666, "name": "b0d19a307f0c093b09799d3e9169f6dc", "is_disabled": 0, "is_reserved": 0, "bike_id": "b0d19a307f0c093b09799d3e9169f6dc", "lat": 38.8771755, "type": "electric_scooter"}, {"fusion_lat": 0.0, "fusion_lon": 0.0, "rental_uris": {"android": "https://dc.lft.to/lastmile_qr_scan", "ios": "https://dc.lft.to/lastmile_qr_scan"}, "lon": -77.0273985, "name": "c5e3284b35a79d5cd4bc2debaf5db848", "is_disabled": 0, "is_reserved": 0, "bike_id": "c5e3284b35a79d5cd4bc2debaf5db848", "lat": 38.89732683333333, "type": "electric_scooter"}, {"fusion_lat": 0.0, "fusion_lon": 0.0, "rental_uris": {"android": "https://dc.lft.to/lastmile_qr_scan", "ios": "https://dc.lft.to/lastmile_qr_scan"}, "lon": -77.03443816666666, "name": "1cf92ac98315b944e527818aadaecf6f", "is_disabled": 0, "is_reserved": 0, "bike_id": "1cf92ac98315b944e527818aadaecf6f", "lat": 38.90324616666667, "type": "electric_scooter"}, {"fusion_lat": 0.0, "fusion_lon": 0.0, "rental_uris": {"android": "https://dc.lft.to/lastmile_qr_scan", "ios": "https://dc.lft.to/lastmile_qr_scan"}, "lon": -77.0229365, "name": "b89200e51b67c2d49b8a8951a52613e2", "is_disabled": 0, "is_reserved": 0, "bike_id": "b89200e51b67c2d49b8a8951a52613e2", "lat": 38.928172333333336, "type": "electric_scooter"}, {"fusion_lat": 0.0, "fusion_lon": 0.0, "rental_uris": {"android": "https://dc.lft.to/lastmile_qr_scan", "ios": "https://dc.lft.to/lastmile_qr_scan"}, "lon": -77.00914733333333, "name": "954f06b71f20c601804ee7592c5855d8", "is_disabled": 0, "is_reserved": 0, "bike_id": "954f06b71f20c601804ee7592c5855d8", "lat": 38.8988255, "type": "electric_scooter"}, {"fusion_lat": 0.0, "fusion_lon": 0.0, "rental_uris": {"android": "https://dc.lft.to/lastmile_qr_scan", "ios": "https://dc.lft.to/lastmile_qr_scan"}, "lon": -77.00039883333334, "name": "67102d3b0e4823c0d0455bea436bd4e0", "is_disabled": 0, "is_reserved": 0, "bike_id": "67102d3b0e4823c0d0455bea436bd4e0", "lat": 38.8743755, "type": "electric_scooter"}, {"fusion_lat": 0.0, "fusion_lon": 0.0, "rental_uris": {"android": "https://dc.lft.to/lastmile_qr_scan", "ios": "https://dc.lft.to/lastmile_qr_scan"}, "lon": -77.00294666666667, "name": "9fcc4c2a0ecc10d7dcb1ee2ad595aca2", "is_disabled": 0, "is_reserved": 0, "bike_id": "9fcc4c2a0ecc10d7dcb1ee2ad595aca2", "lat": 38.89490983333334, "type": "electric_scooter"}, {"fusion_lat": 0.0, "fusion_lon": 0.0, "rental_uris": {"android": "https://dc.lft.to/lastmile_qr_scan", "ios": "https://dc.lft.to/lastmile_qr_scan"}, "lon": -76.95286983333334, "name": "006bb748491b9bd2667db1ad55e98e7e", "is_disabled": 0, "is_reserved": 0, "bike_id": "006bb748491b9bd2667db1ad55e98e7e", "lat": 38.862361, "type": "electric_bike"}, {"fusion_lat": 0.0, "fusion_lon": 0.0, "rental_uris": {"android": "https://dc.lft.to/lastmile_qr_scan", "ios": "https://dc.lft.to/lastmile_qr_scan"}, "lon": -77.024201, "name": "12ddf3aab6465c805e807d30e3e1e266", "is_disabled": 0, "is_reserved": 0, "bike_id": "12ddf3aab6465c805e807d30e3e1e266", "lat": 38.89685166666667, "type": "electric_scooter"}, {"fusion_lat": 0.0, "fusion_lon": 0.0, "rental_uris": {"android": "https://dc.lft.to/lastmile_qr_scan", "ios": "https://dc.lft.to/lastmile_qr_scan"}, "lon": -77.01186666666666, "name": "350c91e51c0e369851a88e351af9a0fd", "is_disabled": 0, "is_reserved": 0, "bike_id": "350c91e51c0e369851a88e351af9a0fd", "lat": 38.90026433333333, "type": "electric_scooter"}, {"fusion_lat": 0.0, "fusion_lon": 0.0, "rental_uris": {"android": "https://dc.lft.to/lastmile_qr_scan", "ios": "https://dc.lft.to/lastmile_qr_scan"}, "lon": -77.04155433333334, "name": "83b0935715d431ca8ea0f78ae70d3879", "is_disabled": 0, "is_reserved": 0, "bike_id": "83b0935715d431ca8ea0f78ae70d3879", "lat": 38.90519783333333, "type": "electric_scooter"}, {"fusion_lat": 0.0, "fusion_lon": 0.0, "rental_uris": {"android": "https://dc.lft.to/lastmile_qr_scan", "ios": "https://dc.lft.to/lastmile_qr_scan"}, "lon": -77.0604315, "name": "366f6ba886d27999df9bcccae934bdce", "is_disabled": 0, "is_reserved": 0, "bike_id": "366f6ba886d27999df9bcccae934bdce", "lat": 38.939116, "type": "electric_scooter"}, {"fusion_lat": 0.0, "fusion_lon": 0.0, "rental_uris": {"android": "https://dc.lft.to/lastmile_qr_scan", "ios": "https://dc.lft.to/lastmile_qr_scan"}, "lon": -76.96372833333334, "name": "d018469a7b26ac9f275b9c349d8c8a42", "is_disabled": 0, "is_reserved": 0, "bike_id": "d018469a7b26ac9f275b9c349d8c8a42", "lat": 38.94890516666667, "type": "electric_bike"}, {"fusion_lat": 0.0, "fusion_lon": 0.0, "rental_uris": {"android": "https://dc.lft.to/lastmile_qr_scan", "ios": "https://dc.lft.to/lastmile_qr_scan"}, "lon": -77.044349, "name": "694eff6c05ca4fdea9262d2785697057", "is_disabled": 0, "is_reserved": 0, "bike_id": "694eff6c05ca4fdea9262d2785697057", "lat": 38.89611266666667, "type": "electric_scooter"}, {"fusion_lat": 0.0, "fusion_lon": 0.0, "rental_uris": {"android": "https://dc.lft.to/lastmile_qr_scan", "ios": "https://dc.lft.to/lastmile_qr_scan"}, "lon": -77.03299966666667, "name": "36c647ab4ef07ae5722fdda27b989dbe", "is_disabled": 0, "is_reserved": 0, "bike_id": "36c647ab4ef07ae5722fdda27b989dbe", "lat": 38.92453833333333, "type": "electric_scooter"}, {"fusion_lat": 0.0, "fusion_lon": 0.0, "rental_uris": {"android": "https://dc.lft.to/lastmile_qr_scan", "ios": "https://dc.lft.to/lastmile_qr_scan"}, "lon": -77.04167233333334, "name": "2b2683a89163c8b00c3cf88a8a975182", "is_disabled": 0, "is_reserved": 0, "bike_id": "2b2683a89163c8b00c3cf88a8a975182", "lat": 38.901133, "type": "electric_scooter"}, {"fusion_lat": 0.0, "fusion_lon": 0.0, "rental_uris": {"android": "https://dc.lft.to/lastmile_qr_scan", "ios": "https://dc.lft.to/lastmile_qr_scan"}, "lon": -77.03794333333333, "name": "ddad20e6f03f1ddac171259306e67bb7", "is_disabled": 0, "is_reserved": 0, "bike_id": "ddad20e6f03f1ddac171259306e67bb7", "lat": 38.996681833333334, "type": "electric_bike"}, {"fusion_lat": 0.0, "fusion_lon": 0.0, "rental_uris": {"android": "https://dc.lft.to/lastmile_qr_scan", "ios": "https://dc.lft.to/lastmile_qr_scan"}, "lon": -77.02711616666667, "name": "72d9eb4c7e789b2807da7b571eabed3d", "is_disabled": 0, "is_reserved": 0, "bike_id": "72d9eb4c7e789b2807da7b571eabed3d", "lat": 38.90668066666667, "type": "electric_scooter"}, {"fusion_lat": 0.0, "fusion_lon": 0.0, "rental_uris": {"android": "https://dc.lft.to/lastmile_qr_scan", "ios": "https://dc.lft.to/lastmile_qr_scan"}, "lon": -77.05025533333334, "name": "72b8d1f7360e1eebad087be932c48fe5", "is_disabled": 0, "is_reserved": 0, "bike_id": "72b8d1f7360e1eebad087be932c48fe5", "lat": 38.89656133333333, "type": "electric_scooter"}, {"fusion_lat": 0.0, "fusion_lon": 0.0, "rental_uris": {"android": "https://dc.lft.to/lastmile_qr_scan", "ios": "https://dc.lft.to/lastmile_qr_scan"}, "lon": -77.03158883333333, "name": "216a5d1541105e90f2184409bb94bcfa", "is_disabled": 0, "is_reserved": 0, "bike_id": "216a5d1541105e90f2184409bb94bcfa", "lat": 38.902188833333334, "type": "electric_scooter"}, {"fusion_lat": 0.0, "fusion_lon": 0.0, "rental_uris": {"android": "https://dc.lft.to/lastmile_qr_scan", "ios": "https://dc.lft.to/lastmile_qr_scan"}, "lon": -77.013938, "name": "cb5219e6fea7bfbd1263cce736026668", "is_disabled": 0, "is_reserved": 0, "bike_id": "cb5219e6fea7bfbd1263cce736026668", "lat": 38.94229833333333, "type": "electric_scooter"}, {"fusion_lat": 0.0, "fusion_lon": 0.0, "rental_uris": {"android": "https://dc.lft.to/lastmile_qr_scan", "ios": "https://dc.lft.to/lastmile_qr_scan"}, "lon": -77.02698166666667, "name": "463b06cef3cfe45a1de56ae7f55e81ae", "is_disabled": 0, "is_reserved": 0, "bike_id": "463b06cef3cfe45a1de56ae7f55e81ae", "lat": 38.92581283333333, "type": "electric_scooter"}, {"fusion_lat": 0.0, "fusion_lon": 0.0, "rental_uris": {"android": "https://dc.lft.to/lastmile_qr_scan", "ios": "https://dc.lft.to/lastmile_qr_scan"}, "lon": -76.9541295, "name": "da4512ee1a2cb99830806fd52adff93f", "is_disabled": 0, "is_reserved": 0, "bike_id": "da4512ee1a2cb99830806fd52adff93f", "lat": 38.889971333333335, "type": "electric_scooter"}, {"fusion_lat": 0.0, "fusion_lon": 0.0, "rental_uris": {"android": "https://dc.lft.to/lastmile_qr_scan", "ios": "https://dc.lft.to/lastmile_qr_scan"}, "lon": -77.0449505, "name": "432161f2fd1186286d3f42dd89d9fbce", "is_disabled": 0, "is_reserved": 0, "bike_id": "432161f2fd1186286d3f42dd89d9fbce", "lat": 38.90863866666667, "type": "electric_scooter"}, {"fusion_lat": 0.0, "fusion_lon": 0.0, "rental_uris": {"android": "https://dc.lft.to/lastmile_qr_scan", "ios": "https://dc.lft.to/lastmile_qr_scan"}, "lon": -77.02353333333333, "name": "d84ce3f09f08631ca2b74b5049235192", "is_disabled": 0, "is_reserved": 0, "bike_id": "d84ce3f09f08631ca2b74b5049235192", "lat": 38.93049383333334, "type": "electric_scooter"}, {"fusion_lat": 0.0, "fusion_lon": 0.0, "rental_uris": {"android": "https://dc.lft.to/lastmile_qr_scan", "ios": "https://dc.lft.to/lastmile_qr_scan"}, "lon": -77.02283733333333, "name": "9a59bf2f0d02785276aee7d50c86a0eb", "is_disabled": 0, "is_reserved": 0, "bike_id": "9a59bf2f0d02785276aee7d50c86a0eb", "lat": 38.9252055, "type": "electric_scooter"}, {"fusion_lat": 0.0, "fusion_lon": 0.0, "rental_uris": {"android": "https://dc.lft.to/lastmile_qr_scan", "ios": "https://dc.lft.to/lastmile_qr_scan"}, "lon": -77.04217333333334, "name": "d8f2df7202ca5ed614e5283c77c0c774", "is_disabled": 0, "is_reserved": 0, "bike_id": "d8f2df7202ca5ed614e5283c77c0c774", "lat": 38.92317533333333, "type": "electric_scooter"}, {"fusion_lat": 0.0, "fusion_lon": 0.0, "rental_uris": {"android": "https://dc.lft.to/lastmile_qr_scan", "ios": "https://dc.lft.to/lastmile_qr_scan"}, "lon": -77.04827583333334, "name": "c8ead1f5ef068be49dc8d6f1096981af", "is_disabled": 0, "is_reserved": 0, "bike_id": "c8ead1f5ef068be49dc8d6f1096981af", "lat": 38.9184045, "type": "electric_scooter"}, {"fusion_lat": 0.0, "fusion_lon": 0.0, "rental_uris": {"android": "https://dc.lft.to/lastmile_qr_scan", "ios": "https://dc.lft.to/lastmile_qr_scan"}, "lon": -77.04674016666667, "name": "8b9b67571058afdcdb72b982ccf8feae", "is_disabled": 0, "is_reserved": 0, "bike_id": "8b9b67571058afdcdb72b982ccf8feae", "lat": 38.89560766666666, "type": "electric_scooter"}, {"fusion_lat": 0.0, "fusion_lon": 0.0, "rental_uris": {"android": "https://dc.lft.to/lastmile_qr_scan", "ios": "https://dc.lft.to/lastmile_qr_scan"}, "lon": -77.03186733333334, "name": "630485c5e43ab1ffdaa57cc0c0b538c6", "is_disabled": 0, "is_reserved": 0, "bike_id": "630485c5e43ab1ffdaa57cc0c0b538c6", "lat": 38.91320733333333, "type": "electric_scooter"}, {"fusion_lat": 0.0, "fusion_lon": 0.0, "rental_uris": {"android": "https://dc.lft.to/lastmile_qr_scan", "ios": "https://dc.lft.to/lastmile_qr_scan"}, "lon": -76.98085866666666, "name": "038ee30565b404a48306cef8a78824e4", "is_disabled": 0, "is_reserved": 0, "bike_id": "038ee30565b404a48306cef8a78824e4", "lat": 38.9224425, "type": "electric_scooter"}, {"fusion_lat": 0.0, "fusion_lon": 0.0, "rental_uris": {"android": "https://dc.lft.to/lastmile_qr_scan", "ios": "https://dc.lft.to/lastmile_qr_scan"}, "lon": -76.996001, "name": "6cddc36e1b5ca93435210967e92511dd", "is_disabled": 0, "is_reserved": 0, "bike_id": "6cddc36e1b5ca93435210967e92511dd", "lat": 38.856875, "type": "electric_scooter"}, {"fusion_lat": 0.0, "fusion_lon": 0.0, "rental_uris": {"android": "https://dc.lft.to/lastmile_qr_scan", "ios": "https://dc.lft.to/lastmile_qr_scan"}, "lon": -77.02345983333333, "name": "38d37872bba75319d993c9cf213755ae", "is_disabled": 0, "is_reserved": 0, "bike_id": "38d37872bba75319d993c9cf213755ae", "lat": 38.893899833333336, "type": "electric_scooter"}, {"fusion_lat": 0.0, "fusion_lon": 0.0, "rental_uris": {"android": "https://dc.lft.to/lastmile_qr_scan", "ios": "https://dc.lft.to/lastmile_qr_scan"}, "lon": -77.02697316666666, "name": "048fcaf345fa99154a0804ecd6d8c2fb", "is_disabled": 0, "is_reserved": 0, "bike_id": "048fcaf345fa99154a0804ecd6d8c2fb", "lat": 38.898308666666665, "type": "electric_scooter"}, {"fusion_lat": 0.0, "fusion_lon": 0.0, "rental_uris": {"android": "https://dc.lft.to/lastmile_qr_scan", "ios": "https://dc.lft.to/lastmile_qr_scan"}, "lon": -77.0434105, "name": "5825f7c427d6669ee9fcf428bb9a38f0", "is_disabled": 0, "is_reserved": 0, "bike_id": "5825f7c427d6669ee9fcf428bb9a38f0", "lat": 38.928176, "type": "electric_scooter"}, {"fusion_lat": 0.0, "fusion_lon": 0.0, "rental_uris": {"android": "https://dc.lft.to/lastmile_qr_scan", "ios": "https://dc.lft.to/lastmile_qr_scan"}, "lon": -77.0076955, "name": "ba73d904972bcf08bb71be67f75d68ba", "is_disabled": 0, "is_reserved": 0, "bike_id": "ba73d904972bcf08bb71be67f75d68ba", "lat": 38.90711433333333, "type": "electric_scooter"}, {"fusion_lat": 0.0, "fusion_lon": 0.0, "rental_uris": {"android": "https://dc.lft.to/lastmile_qr_scan", "ios": "https://dc.lft.to/lastmile_qr_scan"}, "lon": -77.04892033333333, "name": "b4d97a41a83a3ae502ec126127dc4b77", "is_disabled": 0, "is_reserved": 0, "bike_id": "b4d97a41a83a3ae502ec126127dc4b77", "lat": 38.897613166666666, "type": "electric_scooter"}, {"fusion_lat": 0.0, "fusion_lon": 0.0, "rental_uris": {"android": "https://dc.lft.to/lastmile_qr_scan", "ios": "https://dc.lft.to/lastmile_qr_scan"}, "lon": -77.0325035, "name": "36aa041906b8c47e0367831b87c27a8e", "is_disabled": 0, "is_reserved": 0, "bike_id": "36aa041906b8c47e0367831b87c27a8e", "lat": 38.90145, "type": "electric_scooter"}, {"fusion_lat": 0.0, "fusion_lon": 0.0, "rental_uris": {"android": "https://dc.lft.to/lastmile_qr_scan", "ios": "https://dc.lft.to/lastmile_qr_scan"}, "lon": -77.04017216666666, "name": "be4ededdaa401c63996d77aa67193ad9", "is_disabled": 0, "is_reserved": 0, "bike_id": "be4ededdaa401c63996d77aa67193ad9", "lat": 38.908436333333334, "type": "electric_bike"}, {"fusion_lat": 0.0, "fusion_lon": 0.0, "rental_uris": {"android": "https://dc.lft.to/lastmile_qr_scan", "ios": "https://dc.lft.to/lastmile_qr_scan"}, "lon": -76.99498983333334, "name": "71e14061d9faf71bdca7de6944decb4c", "is_disabled": 0, "is_reserved": 0, "bike_id": "71e14061d9faf71bdca7de6944decb4c", "lat": 38.909788, "type": "electric_scooter"}, {"fusion_lat": 0.0, "fusion_lon": 0.0, "rental_uris": {"android": "https://dc.lft.to/lastmile_qr_scan", "ios": "https://dc.lft.to/lastmile_qr_scan"}, "lon": -77.00682966666666, "name": "af8ea97a3ccc738e3c6467df36a7524d", "is_disabled": 0, "is_reserved": 0, "bike_id": "af8ea97a3ccc738e3c6467df36a7524d", "lat": 38.871713, "type": "electric_scooter"}, {"fusion_lat": 0.0, "fusion_lon": 0.0, "rental_uris": {"android": "https://dc.lft.to/lastmile_qr_scan", "ios": "https://dc.lft.to/lastmile_qr_scan"}, "lon": -77.03253033333333, "name": "2b8d4a6e9de283a0777c31fa6c1f7a2f", "is_disabled": 0, "is_reserved": 0, "bike_id": "2b8d4a6e9de283a0777c31fa6c1f7a2f", "lat": 38.929283833333336, "type": "electric_scooter"}, {"fusion_lat": 0.0, "fusion_lon": 0.0, "rental_uris": {"android": "https://dc.lft.to/lastmile_qr_scan", "ios": "https://dc.lft.to/lastmile_qr_scan"}, "lon": -77.042706, "name": "44cd8eea092a20cf744a15a34cdc6721", "is_disabled": 0, "is_reserved": 0, "bike_id": "44cd8eea092a20cf744a15a34cdc6721", "lat": 38.90857716666667, "type": "electric_scooter"}, {"fusion_lat": 0.0, "fusion_lon": 0.0, "rental_uris": {"android": "https://dc.lft.to/lastmile_qr_scan", "ios": "https://dc.lft.to/lastmile_qr_scan"}, "lon": -77.02015966666667, "name": "21a16f7e31adfd62957425392bbebcdf", "is_disabled": 0, "is_reserved": 0, "bike_id": "21a16f7e31adfd62957425392bbebcdf", "lat": 38.89536833333333, "type": "electric_scooter"}, {"fusion_lat": 0.0, "fusion_lon": 0.0, "rental_uris": {"android": "https://dc.lft.to/lastmile_qr_scan", "ios": "https://dc.lft.to/lastmile_qr_scan"}, "lon": -77.021609, "name": "28810aae95aa8660ee507fb7d1d095c6", "is_disabled": 0, "is_reserved": 0, "bike_id": "28810aae95aa8660ee507fb7d1d095c6", "lat": 38.926118333333335, "type": "electric_scooter"}, {"fusion_lat": 0.0, "fusion_lon": 0.0, "rental_uris": {"android": "https://dc.lft.to/lastmile_qr_scan", "ios": "https://dc.lft.to/lastmile_qr_scan"}, "lon": -77.11078516666667, "name": "60a712a8b940c1dc2fbc48462d3af98e", "is_disabled": 0, "is_reserved": 0, "bike_id": "60a712a8b940c1dc2fbc48462d3af98e", "lat": 39.01218316666667, "type": "electric_bike"}, {"fusion_lat": 0.0, "fusion_lon": 0.0, "rental_uris": {"android": "https://dc.lft.to/lastmile_qr_scan", "ios": "https://dc.lft.to/lastmile_qr_scan"}, "lon": -77.017594, "name": "82ffd62e8ee32379e3038e297bd6f73c", "is_disabled": 0, "is_reserved": 0, "bike_id": "82ffd62e8ee32379e3038e297bd6f73c", "lat": 38.877247833333335, "type": "electric_scooter"}, {"fusion_lat": 0.0, "fusion_lon": 0.0, "rental_uris": {"android": "https://dc.lft.to/lastmile_qr_scan", "ios": "https://dc.lft.to/lastmile_qr_scan"}, "lon": -77.02422533333333, "name": "c146ef1798c1080738e84335e8cc9695", "is_disabled": 0, "is_reserved": 0, "bike_id": "c146ef1798c1080738e84335e8cc9695", "lat": 38.93704816666666, "type": "electric_scooter"}, {"fusion_lat": 0.0, "fusion_lon": 0.0, "rental_uris": {"android": "https://dc.lft.to/lastmile_qr_scan", "ios": "https://dc.lft.to/lastmile_qr_scan"}, "lon": -77.0155575, "name": "d6f291d29eb2c66468834f5c58d3f5b1", "is_disabled": 0, "is_reserved": 0, "bike_id": "d6f291d29eb2c66468834f5c58d3f5b1", "lat": 38.9267675, "type": "electric_scooter"}, {"fusion_lat": 0.0, "fusion_lon": 0.0, "rental_uris": {"android": "https://dc.lft.to/lastmile_qr_scan", "ios": "https://dc.lft.to/lastmile_qr_scan"}, "lon": -77.06007583333333, "name": "c950402282fcc611c79cf74648c5160a", "is_disabled": 0, "is_reserved": 0, "bike_id": "c950402282fcc611c79cf74648c5160a", "lat": 38.936393333333335, "type": "electric_scooter"}, {"fusion_lat": 0.0, "fusion_lon": 0.0, "rental_uris": {"android": "https://dc.lft.to/lastmile_qr_scan", "ios": "https://dc.lft.to/lastmile_qr_scan"}, "lon": -76.97955133333333, "name": "baee3b2edd6505b1627a5f2a0df825f2", "is_disabled": 0, "is_reserved": 0, "bike_id": "baee3b2edd6505b1627a5f2a0df825f2", "lat": 38.905003666666666, "type": "electric_scooter"}, {"fusion_lat": 0.0, "fusion_lon": 0.0, "rental_uris": {"android": "https://dc.lft.to/lastmile_qr_scan", "ios": "https://dc.lft.to/lastmile_qr_scan"}, "lon": -77.02205216666667, "name": "0b7dc0343cd4166d125137592561622d", "is_disabled": 0, "is_reserved": 0, "bike_id": "0b7dc0343cd4166d125137592561622d", "lat": 38.88724083333334, "type": "electric_scooter"}, {"fusion_lat": 0.0, "fusion_lon": 0.0, "rental_uris": {"android": "https://dc.lft.to/lastmile_qr_scan", "ios": "https://dc.lft.to/lastmile_qr_scan"}, "lon": -77.02709716666666, "name": "2d6c7abcbb4598c10f5fac30ca8ed957", "is_disabled": 0, "is_reserved": 0, "bike_id": "2d6c7abcbb4598c10f5fac30ca8ed957", "lat": 38.906721833333336, "type": "electric_scooter"}, {"fusion_lat": 0.0, "fusion_lon": 0.0, "rental_uris": {"android": "https://dc.lft.to/lastmile_qr_scan", "ios": "https://dc.lft.to/lastmile_qr_scan"}, "lon": -76.99062366666666, "name": "44ce137bef786888e6a0e89673443c20", "is_disabled": 0, "is_reserved": 0, "bike_id": "44ce137bef786888e6a0e89673443c20", "lat": 38.8637295, "type": "electric_scooter"}, {"fusion_lat": 0.0, "fusion_lon": 0.0, "rental_uris": {"android": "https://dc.lft.to/lastmile_qr_scan", "ios": "https://dc.lft.to/lastmile_qr_scan"}, "lon": -77.01167283333334, "name": "79aae53ab4384ea5c93430d744ed780d", "is_disabled": 0, "is_reserved": 0, "bike_id": "79aae53ab4384ea5c93430d744ed780d", "lat": 38.89620333333333, "type": "electric_scooter"}, {"fusion_lat": 0.0, "fusion_lon": 0.0, "rental_uris": {"android": "https://dc.lft.to/lastmile_qr_scan", "ios": "https://dc.lft.to/lastmile_qr_scan"}, "lon": -76.96054, "name": "5f492d81d01a21953e73204722c254ae", "is_disabled": 0, "is_reserved": 0, "bike_id": "5f492d81d01a21953e73204722c254ae", "lat": 38.96732983333333, "type": "electric_bike"}, {"fusion_lat": 0.0, "fusion_lon": 0.0, "rental_uris": {"android": "https://dc.lft.to/lastmile_qr_scan", "ios": "https://dc.lft.to/lastmile_qr_scan"}, "lon": -77.0058585, "name": "cee21e003f9ede9ff511ff8b6dc6ba3e", "is_disabled": 0, "is_reserved": 0, "bike_id": "cee21e003f9ede9ff511ff8b6dc6ba3e", "lat": 38.875654833333336, "type": "electric_scooter"}, {"fusion_lat": 0.0, "fusion_lon": 0.0, "rental_uris": {"android": "https://dc.lft.to/lastmile_qr_scan", "ios": "https://dc.lft.to/lastmile_qr_scan"}, "lon": -77.02203933333334, "name": "dd1a8c56736896836604d0c88a48158c", "is_disabled": 0, "is_reserved": 0, "bike_id": "dd1a8c56736896836604d0c88a48158c", "lat": 38.9246705, "type": "electric_scooter"}, {"fusion_lat": 0.0, "fusion_lon": 0.0, "rental_uris": {"android": "https://dc.lft.to/lastmile_qr_scan", "ios": "https://dc.lft.to/lastmile_qr_scan"}, "lon": -77.03635466666667, "name": "d8b8150c55c569a4cc3b73a9cfdef493", "is_disabled": 0, "is_reserved": 0, "bike_id": "d8b8150c55c569a4cc3b73a9cfdef493", "lat": 38.930650166666666, "type": "electric_scooter"}, {"fusion_lat": 0.0, "fusion_lon": 0.0, "rental_uris": {"android": "https://dc.lft.to/lastmile_qr_scan", "ios": "https://dc.lft.to/lastmile_qr_scan"}, "lon": -77.04898283333333, "name": "f4a2bb26e03a9ab901fc55e0ca991b5d", "is_disabled": 0, "is_reserved": 0, "bike_id": "f4a2bb26e03a9ab901fc55e0ca991b5d", "lat": 38.903030666666666, "type": "electric_scooter"}, {"fusion_lat": 0.0, "fusion_lon": 0.0, "rental_uris": {"android": "https://dc.lft.to/lastmile_qr_scan", "ios": "https://dc.lft.to/lastmile_qr_scan"}, "lon": -77.01974716666666, "name": "3064ef52dbc12e11c57672eb1afb72bf", "is_disabled": 0, "is_reserved": 0, "bike_id": "3064ef52dbc12e11c57672eb1afb72bf", "lat": 38.880361666666666, "type": "electric_scooter"}, {"fusion_lat": 0.0, "fusion_lon": 0.0, "rental_uris": {"android": "https://dc.lft.to/lastmile_qr_scan", "ios": "https://dc.lft.to/lastmile_qr_scan"}, "lon": -76.96909016666666, "name": "1962b4c2a6b0b2a2db7c89d1ba49960e", "is_disabled": 0, "is_reserved": 0, "bike_id": "1962b4c2a6b0b2a2db7c89d1ba49960e", "lat": 38.846089, "type": "electric_bike"}, {"fusion_lat": 0.0, "fusion_lon": 0.0, "rental_uris": {"android": "https://dc.lft.to/lastmile_qr_scan", "ios": "https://dc.lft.to/lastmile_qr_scan"}, "lon": -77.02154383333334, "name": "9c3fd0b05cce30a233cdd1c20a47d73a", "is_disabled": 0, "is_reserved": 0, "bike_id": "9c3fd0b05cce30a233cdd1c20a47d73a", "lat": 38.926019333333336, "type": "electric_scooter"}, {"fusion_lat": 0.0, "fusion_lon": 0.0, "rental_uris": {"android": "https://dc.lft.to/lastmile_qr_scan", "ios": "https://dc.lft.to/lastmile_qr_scan"}, "lon": -77.01745183333334, "name": "3f65dfe1a2cb9ec1e97b10660f063d97", "is_disabled": 0, "is_reserved": 0, "bike_id": "3f65dfe1a2cb9ec1e97b10660f063d97", "lat": 38.886422, "type": "electric_scooter"}, {"fusion_lat": 0.0, "fusion_lon": 0.0, "rental_uris": {"android": "https://dc.lft.to/lastmile_qr_scan", "ios": "https://dc.lft.to/lastmile_qr_scan"}, "lon": -77.0253495, "name": "ee933bd303a2ed49dffdf932d19b856b", "is_disabled": 0, "is_reserved": 0, "bike_id": "ee933bd303a2ed49dffdf932d19b856b", "lat": 38.93586066666667, "type": "electric_scooter"}, {"fusion_lat": 0.0, "fusion_lon": 0.0, "rental_uris": {"android": "https://dc.lft.to/lastmile_qr_scan", "ios": "https://dc.lft.to/lastmile_qr_scan"}, "lon": -77.0176125, "name": "80a7d0d572ca18badd1cfe29b26fffa0", "is_disabled": 0, "is_reserved": 0, "bike_id": "80a7d0d572ca18badd1cfe29b26fffa0", "lat": 38.9027235, "type": "electric_scooter"}, {"fusion_lat": 0.0, "fusion_lon": 0.0, "rental_uris": {"android": "https://dc.lft.to/lastmile_qr_scan", "ios": "https://dc.lft.to/lastmile_qr_scan"}, "lon": -76.95508216666667, "name": "7786310e70ed2cb00a28c890170ff45e", "is_disabled": 0, "is_reserved": 0, "bike_id": "7786310e70ed2cb00a28c890170ff45e", "lat": 38.9392075, "type": "electric_bike"}, {"fusion_lat": 0.0, "fusion_lon": 0.0, "rental_uris": {"android": "https://dc.lft.to/lastmile_qr_scan", "ios": "https://dc.lft.to/lastmile_qr_scan"}, "lon": -77.04354233333333, "name": "ef5f54210d5cf4bdcf514b8ad778e172", "is_disabled": 0, "is_reserved": 0, "bike_id": "ef5f54210d5cf4bdcf514b8ad778e172", "lat": 38.907619833333335, "type": "electric_scooter"}, {"fusion_lat": 0.0, "fusion_lon": 0.0, "rental_uris": {"android": "https://dc.lft.to/lastmile_qr_scan", "ios": "https://dc.lft.to/lastmile_qr_scan"}, "lon": -77.01414783333334, "name": "c20d5fe682dd91165bd191ba091e9fcb", "is_disabled": 0, "is_reserved": 0, "bike_id": "c20d5fe682dd91165bd191ba091e9fcb", "lat": 38.928551, "type": "electric_scooter"}, {"fusion_lat": 0.0, "fusion_lon": 0.0, "rental_uris": {"android": "https://dc.lft.to/lastmile_qr_scan", "ios": "https://dc.lft.to/lastmile_qr_scan"}, "lon": -76.999473, "name": "bc7192662a561daea56d4eb2874499ed", "is_disabled": 0, "is_reserved": 0, "bike_id": "bc7192662a561daea56d4eb2874499ed", "lat": 38.84290883333333, "type": "electric_scooter"}, {"fusion_lat": 0.0, "fusion_lon": 0.0, "rental_uris": {"android": "https://dc.lft.to/lastmile_qr_scan", "ios": "https://dc.lft.to/lastmile_qr_scan"}, "lon": -77.032524, "name": "d611b1f385ec04450d99fae0ff917af0", "is_disabled": 0, "is_reserved": 0, "bike_id": "d611b1f385ec04450d99fae0ff917af0", "lat": 38.905461, "type": "electric_scooter"}, {"fusion_lat": 0.0, "fusion_lon": 0.0, "rental_uris": {"android": "https://dc.lft.to/lastmile_qr_scan", "ios": "https://dc.lft.to/lastmile_qr_scan"}, "lon": -77.02409666666667, "name": "266de5f7968e6d7ba799daa21b13c7d8", "is_disabled": 0, "is_reserved": 0, "bike_id": "266de5f7968e6d7ba799daa21b13c7d8", "lat": 38.87983583333333, "type": "electric_scooter"}, {"fusion_lat": 0.0, "fusion_lon": 0.0, "rental_uris": {"android": "https://dc.lft.to/lastmile_qr_scan", "ios": "https://dc.lft.to/lastmile_qr_scan"}, "lon": -77.019045, "name": "98863a9f13d3a4c4f72d810257c8e91a", "is_disabled": 0, "is_reserved": 0, "bike_id": "98863a9f13d3a4c4f72d810257c8e91a", "lat": 38.9235715, "type": "electric_scooter"}, {"fusion_lat": 0.0, "fusion_lon": 0.0, "rental_uris": {"android": "https://dc.lft.to/lastmile_qr_scan", "ios": "https://dc.lft.to/lastmile_qr_scan"}, "lon": -77.01985566666667, "name": "8a30f099301303d8e9206555aac6e059", "is_disabled": 0, "is_reserved": 0, "bike_id": "8a30f099301303d8e9206555aac6e059", "lat": 38.8837735, "type": "electric_bike"}, {"fusion_lat": 0.0, "fusion_lon": 0.0, "rental_uris": {"android": "https://dc.lft.to/lastmile_qr_scan", "ios": "https://dc.lft.to/lastmile_qr_scan"}, "lon": -76.98422233333334, "name": "0964810f6854b2fe7fa7818fa29c1c1f", "is_disabled": 0, "is_reserved": 0, "bike_id": "0964810f6854b2fe7fa7818fa29c1c1f", "lat": 38.926409666666665, "type": "electric_bike"}, {"fusion_lat": 0.0, "fusion_lon": 0.0, "rental_uris": {"android": "https://dc.lft.to/lastmile_qr_scan", "ios": "https://dc.lft.to/lastmile_qr_scan"}, "lon": -77.02533016666666, "name": "c710b4cae9f3241aef581ab7cae54519", "is_disabled": 0, "is_reserved": 0, "bike_id": "c710b4cae9f3241aef581ab7cae54519", "lat": 38.92289516666666, "type": "electric_scooter"}, {"fusion_lat": 0.0, "fusion_lon": 0.0, "rental_uris": {"android": "https://dc.lft.to/lastmile_qr_scan", "ios": "https://dc.lft.to/lastmile_qr_scan"}, "lon": -77.05483816666667, "name": "eabfdf712dd0204689f8dd73b2234076", "is_disabled": 0, "is_reserved": 0, "bike_id": "eabfdf712dd0204689f8dd73b2234076", "lat": 38.90473183333334, "type": "electric_bike"}, {"fusion_lat": 0.0, "fusion_lon": 0.0, "rental_uris": {"android": "https://dc.lft.to/lastmile_qr_scan", "ios": "https://dc.lft.to/lastmile_qr_scan"}, "lon": -77.03446766666667, "name": "1a6a32463986cd5a9983052ec095292e", "is_disabled": 0, "is_reserved": 0, "bike_id": "1a6a32463986cd5a9983052ec095292e", "lat": 38.90322, "type": "electric_scooter"}, {"fusion_lat": 0.0, "fusion_lon": 0.0, "rental_uris": {"android": "https://dc.lft.to/lastmile_qr_scan", "ios": "https://dc.lft.to/lastmile_qr_scan"}, "lon": -77.03377733333333, "name": "1c102a4991a4ed1475e2bae58842b0b5", "is_disabled": 0, "is_reserved": 0, "bike_id": "1c102a4991a4ed1475e2bae58842b0b5", "lat": 38.90292066666667, "type": "electric_bike"}, {"fusion_lat": 0.0, "fusion_lon": 0.0, "rental_uris": {"android": "https://dc.lft.to/lastmile_qr_scan", "ios": "https://dc.lft.to/lastmile_qr_scan"}, "lon": -77.0143185, "name": "827f3403c804abfee3326ab80629039c", "is_disabled": 0, "is_reserved": 0, "bike_id": "827f3403c804abfee3326ab80629039c", "lat": 38.9146655, "type": "electric_scooter"}, {"fusion_lat": 0.0, "fusion_lon": 0.0, "rental_uris": {"android": "https://dc.lft.to/lastmile_qr_scan", "ios": "https://dc.lft.to/lastmile_qr_scan"}, "lon": -76.98337633333334, "name": "a977aed365e077e6e87e0fa63dc88789", "is_disabled": 0, "is_reserved": 0, "bike_id": "a977aed365e077e6e87e0fa63dc88789", "lat": 38.86564333333333, "type": "electric_scooter"}, {"fusion_lat": 0.0, "fusion_lon": 0.0, "rental_uris": {"android": "https://dc.lft.to/lastmile_qr_scan", "ios": "https://dc.lft.to/lastmile_qr_scan"}, "lon": -77.07752766666667, "name": "d90ecaa7e895453d685c331909c44ea8", "is_disabled": 0, "is_reserved": 0, "bike_id": "d90ecaa7e895453d685c331909c44ea8", "lat": 38.919958666666666, "type": "electric_scooter"}, {"fusion_lat": 0.0, "fusion_lon": 0.0, "rental_uris": {"android": "https://dc.lft.to/lastmile_qr_scan", "ios": "https://dc.lft.to/lastmile_qr_scan"}, "lon": -77.0468685, "name": "0f336f9418342ef144c7ced391ae7c6e", "is_disabled": 0, "is_reserved": 0, "bike_id": "0f336f9418342ef144c7ced391ae7c6e", "lat": 38.892194833333335, "type": "electric_scooter"}, {"fusion_lat": 0.0, "fusion_lon": 0.0, "rental_uris": {"android": "https://dc.lft.to/lastmile_qr_scan", "ios": "https://dc.lft.to/lastmile_qr_scan"}, "lon": -77.038774, "name": "9004ca969353ae3bc9f19438e0b47985", "is_disabled": 0, "is_reserved": 0, "bike_id": "9004ca969353ae3bc9f19438e0b47985", "lat": 38.90633583333333, "type": "electric_scooter"}, {"fusion_lat": 0.0, "fusion_lon": 0.0, "rental_uris": {"android": "https://dc.lft.to/lastmile_qr_scan", "ios": "https://dc.lft.to/lastmile_qr_scan"}, "lon": -77.00695333333333, "name": "06c775f79aab07b2bc49b924c96e4eac", "is_disabled": 0, "is_reserved": 0, "bike_id": "06c775f79aab07b2bc49b924c96e4eac", "lat": 38.905996, "type": "electric_scooter"}, {"fusion_lat": 0.0, "fusion_lon": 0.0, "rental_uris": {"android": "https://dc.lft.to/lastmile_qr_scan", "ios": "https://dc.lft.to/lastmile_qr_scan"}, "lon": -77.00891016666667, "name": "c907961385f93c7043ade7e02ec2d932", "is_disabled": 0, "is_reserved": 0, "bike_id": "c907961385f93c7043ade7e02ec2d932", "lat": 38.968291, "type": "electric_scooter"}, {"fusion_lat": 0.0, "fusion_lon": 0.0, "rental_uris": {"android": "https://dc.lft.to/lastmile_qr_scan", "ios": "https://dc.lft.to/lastmile_qr_scan"}, "lon": -77.05107916666667, "name": "a1d69217626de9481577cd710b0bf2ee", "is_disabled": 0, "is_reserved": 0, "bike_id": "a1d69217626de9481577cd710b0bf2ee", "lat": 38.923588, "type": "electric_scooter"}, {"fusion_lat": 0.0, "fusion_lon": 0.0, "rental_uris": {"android": "https://dc.lft.to/lastmile_qr_scan", "ios": "https://dc.lft.to/lastmile_qr_scan"}, "lon": -77.027922, "name": "c672dd5ac5bfa0d2b40e7d87c69ab21a", "is_disabled": 0, "is_reserved": 0, "bike_id": "c672dd5ac5bfa0d2b40e7d87c69ab21a", "lat": 38.96042816666667, "type": "electric_scooter"}, {"fusion_lat": 0.0, "fusion_lon": 0.0, "rental_uris": {"android": "https://dc.lft.to/lastmile_qr_scan", "ios": "https://dc.lft.to/lastmile_qr_scan"}, "lon": -77.10854416666666, "name": "1e413c68456546b90c151414328b6e6d", "is_disabled": 0, "is_reserved": 0, "bike_id": "1e413c68456546b90c151414328b6e6d", "lat": 38.872326666666666, "type": "electric_bike"}, {"fusion_lat": 0.0, "fusion_lon": 0.0, "rental_uris": {"android": "https://dc.lft.to/lastmile_qr_scan", "ios": "https://dc.lft.to/lastmile_qr_scan"}, "lon": -77.02230233333333, "name": "6bf8413f591b25fd74fe0d0267a9c6b9", "is_disabled": 0, "is_reserved": 0, "bike_id": "6bf8413f591b25fd74fe0d0267a9c6b9", "lat": 38.887645, "type": "electric_scooter"}, {"fusion_lat": 0.0, "fusion_lon": 0.0, "rental_uris": {"android": "https://dc.lft.to/lastmile_qr_scan", "ios": "https://dc.lft.to/lastmile_qr_scan"}, "lon": -77.02201466666666, "name": "4585a83ddd963ee8a3a57cc524737db2", "is_disabled": 0, "is_reserved": 0, "bike_id": "4585a83ddd963ee8a3a57cc524737db2", "lat": 38.89575583333333, "type": "electric_scooter"}, {"fusion_lat": 0.0, "fusion_lon": 0.0, "rental_uris": {"android": "https://dc.lft.to/lastmile_qr_scan", "ios": "https://dc.lft.to/lastmile_qr_scan"}, "lon": -77.03556266666666, "name": "45088ccc25972c01a0fa1dfa7c882691", "is_disabled": 0, "is_reserved": 0, "bike_id": "45088ccc25972c01a0fa1dfa7c882691", "lat": 38.90361016666667, "type": "electric_scooter"}, {"fusion_lat": 0.0, "fusion_lon": 0.0, "rental_uris": {"android": "https://dc.lft.to/lastmile_qr_scan", "ios": "https://dc.lft.to/lastmile_qr_scan"}, "lon": -77.03372116666667, "name": "b1a0ca7a238a79ea4cd97a089c384103", "is_disabled": 0, "is_reserved": 0, "bike_id": "b1a0ca7a238a79ea4cd97a089c384103", "lat": 38.923579833333335, "type": "electric_scooter"}, {"fusion_lat": 0.0, "fusion_lon": 0.0, "rental_uris": {"android": "https://dc.lft.to/lastmile_qr_scan", "ios": "https://dc.lft.to/lastmile_qr_scan"}, "lon": -77.03355416666666, "name": "072107f069406ee6fd5abce91a3c6301", "is_disabled": 0, "is_reserved": 0, "bike_id": "072107f069406ee6fd5abce91a3c6301", "lat": 38.886968833333334, "type": "electric_scooter"}, {"fusion_lat": 0.0, "fusion_lon": 0.0, "rental_uris": {"android": "https://dc.lft.to/lastmile_qr_scan", "ios": "https://dc.lft.to/lastmile_qr_scan"}, "lon": -77.022036, "name": "fabde8eb0f136736e34c608ca5a1cbae", "is_disabled": 0, "is_reserved": 0, "bike_id": "fabde8eb0f136736e34c608ca5a1cbae", "lat": 38.9247265, "type": "electric_scooter"}, {"fusion_lat": 0.0, "fusion_lon": 0.0, "rental_uris": {"android": "https://dc.lft.to/lastmile_qr_scan", "ios": "https://dc.lft.to/lastmile_qr_scan"}, "lon": -77.03315816666667, "name": "0f3b09a3ce4d5c10ab5fea903141a98d", "is_disabled": 0, "is_reserved": 0, "bike_id": "0f3b09a3ce4d5c10ab5fea903141a98d", "lat": 38.92160916666667, "type": "electric_scooter"}, {"fusion_lat": 0.0, "fusion_lon": 0.0, "rental_uris": {"android": "https://dc.lft.to/lastmile_qr_scan", "ios": "https://dc.lft.to/lastmile_qr_scan"}, "lon": -77.04142516666667, "name": "0b1c45cda4b185699f7892b6518a3db7", "is_disabled": 0, "is_reserved": 0, "bike_id": "0b1c45cda4b185699f7892b6518a3db7", "lat": 38.903875666666664, "type": "electric_scooter"}, {"fusion_lat": 0.0, "fusion_lon": 0.0, "rental_uris": {"android": "https://dc.lft.to/lastmile_qr_scan", "ios": "https://dc.lft.to/lastmile_qr_scan"}, "lon": -77.022279, "name": "eefdf2d98b2401bf4c693f55823aeecd", "is_disabled": 0, "is_reserved": 0, "bike_id": "eefdf2d98b2401bf4c693f55823aeecd", "lat": 38.892182166666665, "type": "electric_scooter"}, {"fusion_lat": 0.0, "fusion_lon": 0.0, "rental_uris": {"android": "https://dc.lft.to/lastmile_qr_scan", "ios": "https://dc.lft.to/lastmile_qr_scan"}, "lon": -77.03405616666667, "name": "ed39dddc5d1bf78c0f053a5cae8fcc14", "is_disabled": 0, "is_reserved": 0, "bike_id": "ed39dddc5d1bf78c0f053a5cae8fcc14", "lat": 38.924348, "type": "electric_scooter"}, {"fusion_lat": 0.0, "fusion_lon": 0.0, "rental_uris": {"android": "https://dc.lft.to/lastmile_qr_scan", "ios": "https://dc.lft.to/lastmile_qr_scan"}, "lon": -77.028284, "name": "8acc335cee2655a0cf42e4182269ecc1", "is_disabled": 0, "is_reserved": 0, "bike_id": "8acc335cee2655a0cf42e4182269ecc1", "lat": 38.887302166666665, "type": "electric_scooter"}, {"fusion_lat": 0.0, "fusion_lon": 0.0, "rental_uris": {"android": "https://dc.lft.to/lastmile_qr_scan", "ios": "https://dc.lft.to/lastmile_qr_scan"}, "lon": -77.0326675, "name": "75a92b5d44561d5a3755eab703e16b30", "is_disabled": 0, "is_reserved": 0, "bike_id": "75a92b5d44561d5a3755eab703e16b30", "lat": 38.93770333333333, "type": "electric_scooter"}, {"fusion_lat": 0.0, "fusion_lon": 0.0, "rental_uris": {"android": "https://dc.lft.to/lastmile_qr_scan", "ios": "https://dc.lft.to/lastmile_qr_scan"}, "lon": -77.034282, "name": "0046b58dcf9a6b877c831a9cd7a2b7c4", "is_disabled": 0, "is_reserved": 0, "bike_id": "0046b58dcf9a6b877c831a9cd7a2b7c4", "lat": 38.966169666666666, "type": "electric_bike"}, {"fusion_lat": 0.0, "fusion_lon": 0.0, "rental_uris": {"android": "https://dc.lft.to/lastmile_qr_scan", "ios": "https://dc.lft.to/lastmile_qr_scan"}, "lon": -77.03285483333333, "name": "b30460583043f76ced9de28f6dc9c8dd", "is_disabled": 0, "is_reserved": 0, "bike_id": "b30460583043f76ced9de28f6dc9c8dd", "lat": 38.9227635, "type": "electric_scooter"}, {"fusion_lat": 0.0, "fusion_lon": 0.0, "rental_uris": {"android": "https://dc.lft.to/lastmile_qr_scan", "ios": "https://dc.lft.to/lastmile_qr_scan"}, "lon": -76.94543183333333, "name": "265ede2c572eb3d599918dae1026b7fb", "is_disabled": 0, "is_reserved": 0, "bike_id": "265ede2c572eb3d599918dae1026b7fb", "lat": 38.8995945, "type": "electric_scooter"}, {"fusion_lat": 0.0, "fusion_lon": 0.0, "rental_uris": {"android": "https://dc.lft.to/lastmile_qr_scan", "ios": "https://dc.lft.to/lastmile_qr_scan"}, "lon": -77.01224266666667, "name": "17480393460bc19e8b577f8a23114536", "is_disabled": 0, "is_reserved": 0, "bike_id": "17480393460bc19e8b577f8a23114536", "lat": 38.897456, "type": "electric_scooter"}, {"fusion_lat": 0.0, "fusion_lon": 0.0, "rental_uris": {"android": "https://dc.lft.to/lastmile_qr_scan", "ios": "https://dc.lft.to/lastmile_qr_scan"}, "lon": -76.97098866666667, "name": "681e432b281060cfb126b76e9bc4db7b", "is_disabled": 0, "is_reserved": 0, "bike_id": "681e432b281060cfb126b76e9bc4db7b", "lat": 38.87059883333333, "type": "electric_scooter"}, {"fusion_lat": 0.0, "fusion_lon": 0.0, "rental_uris": {"android": "https://dc.lft.to/lastmile_qr_scan", "ios": "https://dc.lft.to/lastmile_qr_scan"}, "lon": -77.04074883333334, "name": "03b52959c4a1485e3b851da543a3d470", "is_disabled": 0, "is_reserved": 0, "bike_id": "03b52959c4a1485e3b851da543a3d470", "lat": 38.9038025, "type": "electric_scooter"}, {"fusion_lat": 0.0, "fusion_lon": 0.0, "rental_uris": {"android": "https://dc.lft.to/lastmile_qr_scan", "ios": "https://dc.lft.to/lastmile_qr_scan"}, "lon": -77.02092133333333, "name": "94ac1f61fe381b19f6150af95dc595d7", "is_disabled": 0, "is_reserved": 0, "bike_id": "94ac1f61fe381b19f6150af95dc595d7", "lat": 38.921632, "type": "electric_scooter"}, {"fusion_lat": 0.0, "fusion_lon": 0.0, "rental_uris": {"android": "https://dc.lft.to/lastmile_qr_scan", "ios": "https://dc.lft.to/lastmile_qr_scan"}, "lon": -77.20136666666667, "name": "75fbf0aaf7076f47e10a9d0906488b1a", "is_disabled": 0, "is_reserved": 0, "bike_id": "75fbf0aaf7076f47e10a9d0906488b1a", "lat": 38.922175833333334, "type": "electric_bike"}, {"fusion_lat": 0.0, "fusion_lon": 0.0, "rental_uris": {"android": "https://dc.lft.to/lastmile_qr_scan", "ios": "https://dc.lft.to/lastmile_qr_scan"}, "lon": -77.048616, "name": "82185001ea457cbdac49a8f145f9c09d", "is_disabled": 0, "is_reserved": 0, "bike_id": "82185001ea457cbdac49a8f145f9c09d", "lat": 38.9095675, "type": "electric_bike"}, {"fusion_lat": 0.0, "fusion_lon": 0.0, "rental_uris": {"android": "https://dc.lft.to/lastmile_qr_scan", "ios": "https://dc.lft.to/lastmile_qr_scan"}, "lon": -77.0498975, "name": "4ddc64b9fccf1614057e5f1280e41fe1", "is_disabled": 0, "is_reserved": 0, "bike_id": "4ddc64b9fccf1614057e5f1280e41fe1", "lat": 38.90124216666667, "type": "electric_scooter"}, {"fusion_lat": 0.0, "fusion_lon": 0.0, "rental_uris": {"android": "https://dc.lft.to/lastmile_qr_scan", "ios": "https://dc.lft.to/lastmile_qr_scan"}, "lon": -76.93188266666667, "name": "acac29fb8f162d8503e5e1a70a5acc36", "is_disabled": 0, "is_reserved": 0, "bike_id": "acac29fb8f162d8503e5e1a70a5acc36", "lat": 38.89875416666667, "type": "electric_scooter"}, {"fusion_lat": 0.0, "fusion_lon": 0.0, "rental_uris": {"android": "https://dc.lft.to/lastmile_qr_scan", "ios": "https://dc.lft.to/lastmile_qr_scan"}, "lon": -76.9715885, "name": "7ac660acd5f1f9456ba26ac311f59a42", "is_disabled": 0, "is_reserved": 0, "bike_id": "7ac660acd5f1f9456ba26ac311f59a42", "lat": 38.924355, "type": "electric_bike"}, {"fusion_lat": 0.0, "fusion_lon": 0.0, "rental_uris": {"android": "https://dc.lft.to/lastmile_qr_scan", "ios": "https://dc.lft.to/lastmile_qr_scan"}, "lon": -77.0770025, "name": "d765f9fea2a6685a92ee2f70a16747cd", "is_disabled": 0, "is_reserved": 0, "bike_id": "d765f9fea2a6685a92ee2f70a16747cd", "lat": 38.9438335, "type": "electric_scooter"}, {"fusion_lat": 0.0, "fusion_lon": 0.0, "rental_uris": {"android": "https://dc.lft.to/lastmile_qr_scan", "ios": "https://dc.lft.to/lastmile_qr_scan"}, "lon": -77.03997116666666, "name": "7d63a26585dae05f2ecfdc2258e92124", "is_disabled": 0, "is_reserved": 0, "bike_id": "7d63a26585dae05f2ecfdc2258e92124", "lat": 38.9243495, "type": "electric_scooter"}, {"fusion_lat": 0.0, "fusion_lon": 0.0, "rental_uris": {"android": "https://dc.lft.to/lastmile_qr_scan", "ios": "https://dc.lft.to/lastmile_qr_scan"}, "lon": -77.031671, "name": "4bfd52e03453b72d8b3bfc11ef443512", "is_disabled": 0, "is_reserved": 0, "bike_id": "4bfd52e03453b72d8b3bfc11ef443512", "lat": 38.8938885, "type": "electric_scooter"}, {"fusion_lat": 0.0, "fusion_lon": 0.0, "rental_uris": {"android": "https://dc.lft.to/lastmile_qr_scan", "ios": "https://dc.lft.to/lastmile_qr_scan"}, "lon": -77.02222633333334, "name": "71d9afa0fad232e1fcfb23f89ace6a0e", "is_disabled": 0, "is_reserved": 0, "bike_id": "71d9afa0fad232e1fcfb23f89ace6a0e", "lat": 38.90308533333334, "type": "electric_scooter"}, {"fusion_lat": 0.0, "fusion_lon": 0.0, "rental_uris": {"android": "https://dc.lft.to/lastmile_qr_scan", "ios": "https://dc.lft.to/lastmile_qr_scan"}, "lon": -77.032777, "name": "1c3a5a1a0dc9ccd617d999c9c04c6a02", "is_disabled": 0, "is_reserved": 0, "bike_id": "1c3a5a1a0dc9ccd617d999c9c04c6a02", "lat": 38.9162405, "type": "electric_scooter"}, {"fusion_lat": 0.0, "fusion_lon": 0.0, "rental_uris": {"android": "https://dc.lft.to/lastmile_qr_scan", "ios": "https://dc.lft.to/lastmile_qr_scan"}, "lon": -77.07699583333333, "name": "87dfcc945bfe48d2e04d2b61a170613f", "is_disabled": 0, "is_reserved": 0, "bike_id": "87dfcc945bfe48d2e04d2b61a170613f", "lat": 38.94383933333334, "type": "electric_scooter"}, {"fusion_lat": 0.0, "fusion_lon": 0.0, "rental_uris": {"android": "https://dc.lft.to/lastmile_qr_scan", "ios": "https://dc.lft.to/lastmile_qr_scan"}, "lon": -77.12653916666666, "name": "d075d5fd3156032250544b4fbc04785c", "is_disabled": 0, "is_reserved": 0, "bike_id": "d075d5fd3156032250544b4fbc04785c", "lat": 38.81507916666666, "type": "electric_bike"}, {"fusion_lat": 0.0, "fusion_lon": 0.0, "rental_uris": {"android": "https://dc.lft.to/lastmile_qr_scan", "ios": "https://dc.lft.to/lastmile_qr_scan"}, "lon": -77.02622033333333, "name": "a63d8c1e930fb0bba0a88f3578870060", "is_disabled": 0, "is_reserved": 0, "bike_id": "a63d8c1e930fb0bba0a88f3578870060", "lat": 38.90063283333333, "type": "electric_scooter"}, {"fusion_lat": 0.0, "fusion_lon": 0.0, "rental_uris": {"android": "https://dc.lft.to/lastmile_qr_scan", "ios": "https://dc.lft.to/lastmile_qr_scan"}, "lon": -76.98544916666667, "name": "8d65bfd80940ae83548b140d04359bf2", "is_disabled": 0, "is_reserved": 0, "bike_id": "8d65bfd80940ae83548b140d04359bf2", "lat": 38.86688916666667, "type": "electric_scooter"}, {"fusion_lat": 0.0, "fusion_lon": 0.0, "rental_uris": {"android": "https://dc.lft.to/lastmile_qr_scan", "ios": "https://dc.lft.to/lastmile_qr_scan"}, "lon": -77.014246, "name": "83fd467de26b5a3ef751beaffe4f3b5b", "is_disabled": 0, "is_reserved": 0, "bike_id": "83fd467de26b5a3ef751beaffe4f3b5b", "lat": 38.97215283333333, "type": "electric_bike"}, {"fusion_lat": 0.0, "fusion_lon": 0.0, "rental_uris": {"android": "https://dc.lft.to/lastmile_qr_scan", "ios": "https://dc.lft.to/lastmile_qr_scan"}, "lon": -77.02222016666667, "name": "b862eca5a629632d3dfa3744592dd697", "is_disabled": 0, "is_reserved": 0, "bike_id": "b862eca5a629632d3dfa3744592dd697", "lat": 38.924653, "type": "electric_scooter"}, {"fusion_lat": 0.0, "fusion_lon": 0.0, "rental_uris": {"android": "https://dc.lft.to/lastmile_qr_scan", "ios": "https://dc.lft.to/lastmile_qr_scan"}, "lon": -76.98385466666667, "name": "47039f4c5bb32776a9d50fd641463b5f", "is_disabled": 0, "is_reserved": 0, "bike_id": "47039f4c5bb32776a9d50fd641463b5f", "lat": 38.86665283333333, "type": "electric_scooter"}, {"fusion_lat": 0.0, "fusion_lon": 0.0, "rental_uris": {"android": "https://dc.lft.to/lastmile_qr_scan", "ios": "https://dc.lft.to/lastmile_qr_scan"}, "lon": -76.99247933333334, "name": "a1690aee179776587003fb82c68cadf8", "is_disabled": 0, "is_reserved": 0, "bike_id": "a1690aee179776587003fb82c68cadf8", "lat": 38.794652666666664, "type": "electric_bike"}, {"fusion_lat": 0.0, "fusion_lon": 0.0, "rental_uris": {"android": "https://dc.lft.to/lastmile_qr_scan", "ios": "https://dc.lft.to/lastmile_qr_scan"}, "lon": -77.0386115, "name": "9a9f3a894e031549d9bdcbe77041c22f", "is_disabled": 0, "is_reserved": 0, "bike_id": "9a9f3a894e031549d9bdcbe77041c22f", "lat": 38.90633666666667, "type": "electric_scooter"}, {"fusion_lat": 0.0, "fusion_lon": 0.0, "rental_uris": {"android": "https://dc.lft.to/lastmile_qr_scan", "ios": "https://dc.lft.to/lastmile_qr_scan"}, "lon": -77.02491616666667, "name": "1f0e8449bb46601bd7e441dd92793281", "is_disabled": 0, "is_reserved": 0, "bike_id": "1f0e8449bb46601bd7e441dd92793281", "lat": 38.941848666666665, "type": "electric_scooter"}, {"fusion_lat": 0.0, "fusion_lon": 0.0, "rental_uris": {"android": "https://dc.lft.to/lastmile_qr_scan", "ios": "https://dc.lft.to/lastmile_qr_scan"}, "lon": -76.97537033333333, "name": "ec8d140872235b8118b82e71a582f066", "is_disabled": 0, "is_reserved": 0, "bike_id": "ec8d140872235b8118b82e71a582f066", "lat": 38.903227, "type": "electric_scooter"}, {"fusion_lat": 0.0, "fusion_lon": 0.0, "rental_uris": {"android": "https://dc.lft.to/lastmile_qr_scan", "ios": "https://dc.lft.to/lastmile_qr_scan"}, "lon": -77.043664, "name": "9ba2a7ce28f18cdbb76f1a23eafbe550", "is_disabled": 0, "is_reserved": 0, "bike_id": "9ba2a7ce28f18cdbb76f1a23eafbe550", "lat": 38.907425, "type": "electric_scooter"}, {"fusion_lat": 0.0, "fusion_lon": 0.0, "rental_uris": {"android": "https://dc.lft.to/lastmile_qr_scan", "ios": "https://dc.lft.to/lastmile_qr_scan"}, "lon": -76.93728866666666, "name": "036d253a734fe19965a506f936e38426", "is_disabled": 0, "is_reserved": 0, "bike_id": "036d253a734fe19965a506f936e38426", "lat": 38.89023366666667, "type": "electric_scooter"}, {"fusion_lat": 0.0, "fusion_lon": 0.0, "rental_uris": {"android": "https://dc.lft.to/lastmile_qr_scan", "ios": "https://dc.lft.to/lastmile_qr_scan"}, "lon": -76.9908445, "name": "99cecdb7d2b437a77eabc154d9d1b46a", "is_disabled": 0, "is_reserved": 0, "bike_id": "99cecdb7d2b437a77eabc154d9d1b46a", "lat": 38.94257966666667, "type": "electric_bike"}, {"fusion_lat": 0.0, "fusion_lon": 0.0, "rental_uris": {"android": "https://dc.lft.to/lastmile_qr_scan", "ios": "https://dc.lft.to/lastmile_qr_scan"}, "lon": -76.9494195, "name": "9dff411b891dd71abd0092459549405a", "is_disabled": 0, "is_reserved": 0, "bike_id": "9dff411b891dd71abd0092459549405a", "lat": 38.893588666666666, "type": "electric_scooter"}, {"fusion_lat": 0.0, "fusion_lon": 0.0, "rental_uris": {"android": "https://dc.lft.to/lastmile_qr_scan", "ios": "https://dc.lft.to/lastmile_qr_scan"}, "lon": -77.00909016666667, "name": "d1791074131b86fd7ced8745e959fc6c", "is_disabled": 0, "is_reserved": 0, "bike_id": "d1791074131b86fd7ced8745e959fc6c", "lat": 38.89609033333333, "type": "electric_scooter"}, {"fusion_lat": 0.0, "fusion_lon": 0.0, "rental_uris": {"android": "https://dc.lft.to/lastmile_qr_scan", "ios": "https://dc.lft.to/lastmile_qr_scan"}, "lon": -77.08760183333334, "name": "e1270ce82964f63ccdec4b4de7ce563e", "is_disabled": 0, "is_reserved": 0, "bike_id": "e1270ce82964f63ccdec4b4de7ce563e", "lat": 38.80651833333334, "type": "electric_bike"}, {"fusion_lat": 0.0, "fusion_lon": 0.0, "rental_uris": {"android": "https://dc.lft.to/lastmile_qr_scan", "ios": "https://dc.lft.to/lastmile_qr_scan"}, "lon": -77.01890166666666, "name": "50c3420d4628f30b8cc58572b4582b26", "is_disabled": 0, "is_reserved": 0, "bike_id": "50c3420d4628f30b8cc58572b4582b26", "lat": 38.9051715, "type": "electric_scooter"}, {"fusion_lat": 0.0, "fusion_lon": 0.0, "rental_uris": {"android": "https://dc.lft.to/lastmile_qr_scan", "ios": "https://dc.lft.to/lastmile_qr_scan"}, "lon": -77.01266716666666, "name": "69bde6606262d83b3827d467dd19a7cc", "is_disabled": 0, "is_reserved": 0, "bike_id": "69bde6606262d83b3827d467dd19a7cc", "lat": 38.91539066666667, "type": "electric_scooter"}, {"fusion_lat": 0.0, "fusion_lon": 0.0, "rental_uris": {"android": "https://dc.lft.to/lastmile_qr_scan", "ios": "https://dc.lft.to/lastmile_qr_scan"}, "lon": -77.04477333333334, "name": "17a97dd6f208eba4ff426e01d171999c", "is_disabled": 0, "is_reserved": 0, "bike_id": "17a97dd6f208eba4ff426e01d171999c", "lat": 38.90475983333333, "type": "electric_scooter"}, {"fusion_lat": 0.0, "fusion_lon": 0.0, "rental_uris": {"android": "https://dc.lft.to/lastmile_qr_scan", "ios": "https://dc.lft.to/lastmile_qr_scan"}, "lon": -77.0020835, "name": "e681dfdf819a6db5062adfbf6fc84292", "is_disabled": 0, "is_reserved": 0, "bike_id": "e681dfdf819a6db5062adfbf6fc84292", "lat": 38.895224166666665, "type": "electric_scooter"}, {"fusion_lat": 0.0, "fusion_lon": 0.0, "rental_uris": {"android": "https://dc.lft.to/lastmile_qr_scan", "ios": "https://dc.lft.to/lastmile_qr_scan"}, "lon": -77.0363365, "name": "b8f7bbbd7996398dec2c364f1182aab2", "is_disabled": 0, "is_reserved": 0, "bike_id": "b8f7bbbd7996398dec2c364f1182aab2", "lat": 38.9068615, "type": "electric_scooter"}, {"fusion_lat": 0.0, "fusion_lon": 0.0, "rental_uris": {"android": "https://dc.lft.to/lastmile_qr_scan", "ios": "https://dc.lft.to/lastmile_qr_scan"}, "lon": -77.014171, "name": "899a2c2df82aba1af477a2d0ca22a36c", "is_disabled": 0, "is_reserved": 0, "bike_id": "899a2c2df82aba1af477a2d0ca22a36c", "lat": 38.928406, "type": "electric_scooter"}, {"fusion_lat": 0.0, "fusion_lon": 0.0, "rental_uris": {"android": "https://dc.lft.to/lastmile_qr_scan", "ios": "https://dc.lft.to/lastmile_qr_scan"}, "lon": -76.9464015, "name": "e46fa8dd7564ac98de8a8654c655dbbd", "is_disabled": 0, "is_reserved": 0, "bike_id": "e46fa8dd7564ac98de8a8654c655dbbd", "lat": 38.8986585, "type": "electric_scooter"}, {"fusion_lat": 0.0, "fusion_lon": 0.0, "rental_uris": {"android": "https://dc.lft.to/lastmile_qr_scan", "ios": "https://dc.lft.to/lastmile_qr_scan"}, "lon": -76.99496933333333, "name": "22ea20c85fad6273202d9c18ad756ecf", "is_disabled": 0, "is_reserved": 0, "bike_id": "22ea20c85fad6273202d9c18ad756ecf", "lat": 38.86239533333333, "type": "electric_scooter"}, {"fusion_lat": 0.0, "fusion_lon": 0.0, "rental_uris": {"android": "https://dc.lft.to/lastmile_qr_scan", "ios": "https://dc.lft.to/lastmile_qr_scan"}, "lon": -77.03174333333334, "name": "be2c951de3e01c5c532899165b5686b3", "is_disabled": 0, "is_reserved": 0, "bike_id": "be2c951de3e01c5c532899165b5686b3", "lat": 38.916792, "type": "electric_scooter"}, {"fusion_lat": 0.0, "fusion_lon": 0.0, "rental_uris": {"android": "https://dc.lft.to/lastmile_qr_scan", "ios": "https://dc.lft.to/lastmile_qr_scan"}, "lon": -76.9732835, "name": "f3599afdb5b2b8d52becfef46aa6d13f", "is_disabled": 0, "is_reserved": 0, "bike_id": "f3599afdb5b2b8d52becfef46aa6d13f", "lat": 38.86515583333333, "type": "electric_scooter"}, {"fusion_lat": 0.0, "fusion_lon": 0.0, "rental_uris": {"android": "https://dc.lft.to/lastmile_qr_scan", "ios": "https://dc.lft.to/lastmile_qr_scan"}, "lon": -77.04510233333333, "name": "54975a6c21473c7a0a21865c48c7c2f2", "is_disabled": 0, "is_reserved": 0, "bike_id": "54975a6c21473c7a0a21865c48c7c2f2", "lat": 38.886008333333336, "type": "electric_scooter"}, {"fusion_lat": 0.0, "fusion_lon": 0.0, "rental_uris": {"android": "https://dc.lft.to/lastmile_qr_scan", "ios": "https://dc.lft.to/lastmile_qr_scan"}, "lon": -77.04149166666667, "name": "c8354a89786d1a2836cf974508e0b921", "is_disabled": 0, "is_reserved": 0, "bike_id": "c8354a89786d1a2836cf974508e0b921", "lat": 38.906102833333335, "type": "electric_scooter"}, {"fusion_lat": 0.0, "fusion_lon": 0.0, "rental_uris": {"android": "https://dc.lft.to/lastmile_qr_scan", "ios": "https://dc.lft.to/lastmile_qr_scan"}, "lon": -77.0424235, "name": "db7d8f024969f9b8e8540363d4cbc6bc", "is_disabled": 0, "is_reserved": 0, "bike_id": "db7d8f024969f9b8e8540363d4cbc6bc", "lat": 38.9227015, "type": "electric_scooter"}, {"fusion_lat": 0.0, "fusion_lon": 0.0, "rental_uris": {"android": "https://dc.lft.to/lastmile_qr_scan", "ios": "https://dc.lft.to/lastmile_qr_scan"}, "lon": -77.021278, "name": "9c2d17803051daba6776683befd43f09", "is_disabled": 0, "is_reserved": 0, "bike_id": "9c2d17803051daba6776683befd43f09", "lat": 38.923133666666665, "type": "electric_scooter"}, {"fusion_lat": 0.0, "fusion_lon": 0.0, "rental_uris": {"android": "https://dc.lft.to/lastmile_qr_scan", "ios": "https://dc.lft.to/lastmile_qr_scan"}, "lon": -77.02938166666667, "name": "3bd82a652ccbc6d7a41a6a97d963132c", "is_disabled": 0, "is_reserved": 0, "bike_id": "3bd82a652ccbc6d7a41a6a97d963132c", "lat": 38.917010166666664, "type": "electric_scooter"}, {"fusion_lat": 0.0, "fusion_lon": 0.0, "rental_uris": {"android": "https://dc.lft.to/lastmile_qr_scan", "ios": "https://dc.lft.to/lastmile_qr_scan"}, "lon": -77.0238455, "name": "f7d94265d8131ba0d54fe14fed7031d4", "is_disabled": 0, "is_reserved": 0, "bike_id": "f7d94265d8131ba0d54fe14fed7031d4", "lat": 38.892278166666664, "type": "electric_scooter"}, {"fusion_lat": 0.0, "fusion_lon": 0.0, "rental_uris": {"android": "https://dc.lft.to/lastmile_qr_scan", "ios": "https://dc.lft.to/lastmile_qr_scan"}, "lon": -77.02711416666666, "name": "c640b34c689144d7dd660d30d1fa6e7a", "is_disabled": 0, "is_reserved": 0, "bike_id": "c640b34c689144d7dd660d30d1fa6e7a", "lat": 38.9154625, "type": "electric_scooter"}, {"fusion_lat": 0.0, "fusion_lon": 0.0, "rental_uris": {"android": "https://dc.lft.to/lastmile_qr_scan", "ios": "https://dc.lft.to/lastmile_qr_scan"}, "lon": -77.00067516666667, "name": "c06d82054021f73d56887dbe7b465bd8", "is_disabled": 0, "is_reserved": 0, "bike_id": "c06d82054021f73d56887dbe7b465bd8", "lat": 38.873871666666666, "type": "electric_scooter"}, {"fusion_lat": 0.0, "fusion_lon": 0.0, "rental_uris": {"android": "https://dc.lft.to/lastmile_qr_scan", "ios": "https://dc.lft.to/lastmile_qr_scan"}, "lon": -76.985608, "name": "0998f953b6b9b6673c6bc01e39bb83ad", "is_disabled": 0, "is_reserved": 0, "bike_id": "0998f953b6b9b6673c6bc01e39bb83ad", "lat": 38.8837465, "type": "electric_scooter"}, {"fusion_lat": 0.0, "fusion_lon": 0.0, "rental_uris": {"android": "https://dc.lft.to/lastmile_qr_scan", "ios": "https://dc.lft.to/lastmile_qr_scan"}, "lon": -77.04347583333333, "name": "0660b4b090bef12cf9e5a676b8ddec78", "is_disabled": 0, "is_reserved": 0, "bike_id": "0660b4b090bef12cf9e5a676b8ddec78", "lat": 38.90809866666667, "type": "electric_scooter"}, {"fusion_lat": 0.0, "fusion_lon": 0.0, "rental_uris": {"android": "https://dc.lft.to/lastmile_qr_scan", "ios": "https://dc.lft.to/lastmile_qr_scan"}, "lon": -77.04259566666667, "name": "21b52b1695ef25e4107ccd4bbef784b3", "is_disabled": 0, "is_reserved": 0, "bike_id": "21b52b1695ef25e4107ccd4bbef784b3", "lat": 38.903473, "type": "electric_scooter"}, {"fusion_lat": 0.0, "fusion_lon": 0.0, "rental_uris": {"android": "https://dc.lft.to/lastmile_qr_scan", "ios": "https://dc.lft.to/lastmile_qr_scan"}, "lon": -77.02151433333333, "name": "06df0b4c261279e426e085e517fa06a6", "is_disabled": 0, "is_reserved": 0, "bike_id": "06df0b4c261279e426e085e517fa06a6", "lat": 38.914147166666666, "type": "electric_scooter"}, {"fusion_lat": 0.0, "fusion_lon": 0.0, "rental_uris": {"android": "https://dc.lft.to/lastmile_qr_scan", "ios": "https://dc.lft.to/lastmile_qr_scan"}, "lon": -77.0647165, "name": "f7746b7a668f584708e667f018afcedb", "is_disabled": 0, "is_reserved": 0, "bike_id": "f7746b7a668f584708e667f018afcedb", "lat": 38.97378666666667, "type": "electric_bike"}, {"fusion_lat": 0.0, "fusion_lon": 0.0, "rental_uris": {"android": "https://dc.lft.to/lastmile_qr_scan", "ios": "https://dc.lft.to/lastmile_qr_scan"}, "lon": -77.03847133333333, "name": "073ab390de83ac76b349e58e476c5290", "is_disabled": 0, "is_reserved": 0, "bike_id": "073ab390de83ac76b349e58e476c5290", "lat": 38.908786166666665, "type": "electric_scooter"}, {"fusion_lat": 0.0, "fusion_lon": 0.0, "rental_uris": {"android": "https://dc.lft.to/lastmile_qr_scan", "ios": "https://dc.lft.to/lastmile_qr_scan"}, "lon": -77.05506583333333, "name": "2a0d7685e1d61ddec74a95d37b3a659c", "is_disabled": 0, "is_reserved": 0, "bike_id": "2a0d7685e1d61ddec74a95d37b3a659c", "lat": 38.928351666666664, "type": "electric_scooter"}, {"fusion_lat": 0.0, "fusion_lon": 0.0, "rental_uris": {"android": "https://dc.lft.to/lastmile_qr_scan", "ios": "https://dc.lft.to/lastmile_qr_scan"}, "lon": -77.0377185, "name": "fca857aaca9a03110b86d819c274e405", "is_disabled": 0, "is_reserved": 0, "bike_id": "fca857aaca9a03110b86d819c274e405", "lat": 38.90256483333334, "type": "electric_scooter"}, {"fusion_lat": 0.0, "fusion_lon": 0.0, "rental_uris": {"android": "https://dc.lft.to/lastmile_qr_scan", "ios": "https://dc.lft.to/lastmile_qr_scan"}, "lon": -77.05219066666666, "name": "3ba4e4b8bd02913188fbe4dc7e7489c2", "is_disabled": 0, "is_reserved": 0, "bike_id": "3ba4e4b8bd02913188fbe4dc7e7489c2", "lat": 38.92445883333333, "type": "electric_scooter"}, {"fusion_lat": 0.0, "fusion_lon": 0.0, "rental_uris": {"android": "https://dc.lft.to/lastmile_qr_scan", "ios": "https://dc.lft.to/lastmile_qr_scan"}, "lon": -77.03643066666666, "name": "fbe50d70e49f5a184e1ff85964e95680", "is_disabled": 0, "is_reserved": 0, "bike_id": "fbe50d70e49f5a184e1ff85964e95680", "lat": 38.91733816666667, "type": "electric_scooter"}, {"fusion_lat": 0.0, "fusion_lon": 0.0, "rental_uris": {"android": "https://dc.lft.to/lastmile_qr_scan", "ios": "https://dc.lft.to/lastmile_qr_scan"}, "lon": -76.94633716666667, "name": "87952a6fc69cf734b104977153c0f150", "is_disabled": 0, "is_reserved": 0, "bike_id": "87952a6fc69cf734b104977153c0f150", "lat": 38.898635166666665, "type": "electric_scooter"}, {"fusion_lat": 0.0, "fusion_lon": 0.0, "rental_uris": {"android": "https://dc.lft.to/lastmile_qr_scan", "ios": "https://dc.lft.to/lastmile_qr_scan"}, "lon": -77.02386166666666, "name": "c2c1f41678befaa0a4a2f7c8e0681c91", "is_disabled": 0, "is_reserved": 0, "bike_id": "c2c1f41678befaa0a4a2f7c8e0681c91", "lat": 38.912746, "type": "electric_scooter"}, {"fusion_lat": 0.0, "fusion_lon": 0.0, "rental_uris": {"android": "https://dc.lft.to/lastmile_qr_scan", "ios": "https://dc.lft.to/lastmile_qr_scan"}, "lon": -77.024423, "name": "95b0ff83e99e2ad81400edcb4d5c1bfa", "is_disabled": 0, "is_reserved": 0, "bike_id": "95b0ff83e99e2ad81400edcb4d5c1bfa", "lat": 38.90561366666667, "type": "electric_scooter"}, {"fusion_lat": 0.0, "fusion_lon": 0.0, "rental_uris": {"android": "https://dc.lft.to/lastmile_qr_scan", "ios": "https://dc.lft.to/lastmile_qr_scan"}, "lon": -77.04017683333333, "name": "fe349fac7c2b56cd7b82dacf2196f140", "is_disabled": 0, "is_reserved": 0, "bike_id": "fe349fac7c2b56cd7b82dacf2196f140", "lat": 38.92447766666667, "type": "electric_scooter"}, {"fusion_lat": 0.0, "fusion_lon": 0.0, "rental_uris": {"android": "https://dc.lft.to/lastmile_qr_scan", "ios": "https://dc.lft.to/lastmile_qr_scan"}, "lon": -77.05010716666666, "name": "b2bc2ed46043eee13a8d9a6b77eb4020", "is_disabled": 0, "is_reserved": 0, "bike_id": "b2bc2ed46043eee13a8d9a6b77eb4020", "lat": 38.901277, "type": "electric_scooter"}, {"fusion_lat": 0.0, "fusion_lon": 0.0, "rental_uris": {"android": "https://dc.lft.to/lastmile_qr_scan", "ios": "https://dc.lft.to/lastmile_qr_scan"}, "lon": -77.0440255, "name": "5fe52da7171d5453d3da53466e1b5006", "is_disabled": 0, "is_reserved": 0, "bike_id": "5fe52da7171d5453d3da53466e1b5006", "lat": 38.92949683333333, "type": "electric_scooter"}, {"fusion_lat": 0.0, "fusion_lon": 0.0, "rental_uris": {"android": "https://dc.lft.to/lastmile_qr_scan", "ios": "https://dc.lft.to/lastmile_qr_scan"}, "lon": -76.99232016666667, "name": "71d1b70605d683135230b51e455b341e", "is_disabled": 0, "is_reserved": 0, "bike_id": "71d1b70605d683135230b51e455b341e", "lat": 38.90784516666667, "type": "electric_scooter"}, {"fusion_lat": 0.0, "fusion_lon": 0.0, "rental_uris": {"android": "https://dc.lft.to/lastmile_qr_scan", "ios": "https://dc.lft.to/lastmile_qr_scan"},