{"data": {"bikes": [{"bike_id": "9058f2ceee403be9516e20caa7619f81", "is_reserved": 0, "fusion_lon": 0.0, "lat": 38.940974, "is_disabled": 0, "name": "9058f2ceee403be9516e20caa7619f81", "fusion_lat": 0.0, "rental_uris": {"ios": "https://dc.lft.to/lastmile_qr_scan", "android": "https://dc.lft.to/lastmile_qr_scan"}, "lon": -77.03276533333333, "type": "electric_scooter"}, {"bike_id": "d1cb873fafc6679d2b6c2e2eee1fd1d6", "is_reserved": 0, "fusion_lon": 0.0, "lat": 38.924489333333334, "is_disabled": 0, "name": "d1cb873fafc6679d2b6c2e2eee1fd1d6", "fusion_lat": 0.0, "rental_uris": {"ios": "https://dc.lft.to/lastmile_qr_scan", "android": "https://dc.lft.to/lastmile_qr_scan"}, "lon": -77.033764, "type": "electric_scooter"}, {"bike_id": "8ef39f4d4d14355e7b9414c413594350", "is_reserved": 0, "fusion_lon": 0.0, "lat": 38.91048266666667, "is_disabled": 0, "name": "8ef39f4d4d14355e7b9414c413594350", "fusion_lat": 0.0, "rental_uris": {"ios": "https://dc.lft.to/lastmile_qr_scan", "android": "https://dc.lft.to/lastmile_qr_scan"}, "lon": -77.01510466666667, "type": "electric_scooter"}, {"bike_id": "5cb13a2acc3684fe8bf65052ae334dd2", "is_reserved": 0, "fusion_lon": 0.0, "lat": 38.86416416666667, "is_disabled": 0, "name": "5cb13a2acc3684fe8bf65052ae334dd2", "fusion_lat": 0.0, "rental_uris": {"ios": "https://dc.lft.to/lastmile_qr_scan", "android": "https://dc.lft.to/lastmile_qr_scan"}, "lon": -76.97464, "type": "electric_scooter"}, {"bike_id": "f35eda84a5be8fd8ee32d94f675d483c", "is_reserved": 0, "fusion_lon": 0.0, "lat": 38.97236683333333, "is_disabled": 0, "name": "f35eda84a5be8fd8ee32d94f675d483c", "fusion_lat": 0.0, "rental_uris": {"ios": "https://dc.lft.to/lastmile_qr_scan", "android": "https://dc.lft.to/lastmile_qr_scan"}, "lon": -77.02714433333334, "type": "electric_scooter"}, {"bike_id": "a093dc9b3060f6245aee613138c0ca2d", "is_reserved": 0, "fusion_lon": 0.0, "lat": 38.908288666666664, "is_disabled": 0, "name": "a093dc9b3060f6245aee613138c0ca2d", "fusion_lat": 0.0, "rental_uris": {"ios": "https://dc.lft.to/lastmile_qr_scan", "android": "https://dc.lft.to/lastmile_qr_scan"}, "lon": -77.04468066666666, "type": "electric_scooter"}, {"bike_id": "9fa257cc46c3881114b1167ccb3a6b45", "is_reserved": 0, "fusion_lon": 0.0, "lat": 38.9320195, "is_disabled": 0, "name": "9fa257cc46c3881114b1167ccb3a6b45", "fusion_lat": 0.0, "rental_uris": {"ios": "https://dc.lft.to/lastmile_qr_scan", "android": "https://dc.lft.to/lastmile_qr_scan"}, "lon": -77.03852516666667, "type": "electric_scooter"}, {"bike_id": "6cffcdca3398861e23a2824c60a85e85", "is_reserved": 0, "fusion_lon": 0.0, "lat": 38.9079585, "is_disabled": 0, "name": "6cffcdca3398861e23a2824c60a85e85", "fusion_lat": 0.0, "rental_uris": {"ios": "https://dc.lft.to/lastmile_qr_scan", "android": "https://dc.lft.to/lastmile_qr_scan"}, "lon": -77.04870716666667, "type": "electric_scooter"}, {"bike_id": "6d1eff8682786592fa4aa5208ee0a0ca", "is_reserved": 0, "fusion_lon": 0.0, "lat": 38.88590266666667, "is_disabled": 0, "name": "6d1eff8682786592fa4aa5208ee0a0ca", "fusion_lat": 0.0, "rental_uris": {"ios": "https://dc.lft.to/lastmile_qr_scan", "android": "https://dc.lft.to/lastmile_qr_scan"}, "lon": -76.95262666666666, "type": "electric_scooter"}, {"bike_id": "75ffd3c45dd3ffbe37dc0b05fc865cb2", "is_reserved": 0, "fusion_lon": 0.0, "lat": 38.945191, "is_disabled": 0, "name": "75ffd3c45dd3ffbe37dc0b05fc865cb2", "fusion_lat": 0.0, "rental_uris": {"ios": "https://dc.lft.to/lastmile_qr_scan", "android": "https://dc.lft.to/lastmile_qr_scan"}, "lon": -77.0067435, "type": "electric_bike"}, {"bike_id": "f654523198848de0fc2489dd51cf54cd", "is_reserved": 0, "fusion_lon": 0.0, "lat": 38.91951683333333, "is_disabled": 0, "name": "f654523198848de0fc2489dd51cf54cd", "fusion_lat": 0.0, "rental_uris": {"ios": "https://dc.lft.to/lastmile_qr_scan", "android": "https://dc.lft.to/lastmile_qr_scan"}, "lon": -77.03200933333333, "type": "electric_scooter"}, {"bike_id": "f84fa2ef29ec91a1cd171e123151523e", "is_reserved": 0, "fusion_lon": 0.0, "lat": 38.86418316666666, "is_disabled": 0, "name": "f84fa2ef29ec91a1cd171e123151523e", "fusion_lat": 0.0, "rental_uris": {"ios": "https://dc.lft.to/lastmile_qr_scan", "android": "https://dc.lft.to/lastmile_qr_scan"}, "lon": -76.98050683333334, "type": "electric_scooter"}, {"bike_id": "bc4ab18e0835c382a8320cb67ee1b32f", "is_reserved": 0, "fusion_lon": 0.0, "lat": 38.899891833333335, "is_disabled": 0, "name": "bc4ab18e0835c382a8320cb67ee1b32f", "fusion_lat": 0.0, "rental_uris": {"ios": "https://dc.lft.to/lastmile_qr_scan", "android": "https://dc.lft.to/lastmile_qr_scan"}, "lon": -76.9949615, "type": "electric_scooter"}, {"bike_id": "8fb7f2a4fc3d7cd72eb73cef5a6fd02b", "is_reserved": 0, "fusion_lon": 0.0, "lat": 38.83235766666667, "is_disabled": 0, "name": "8fb7f2a4fc3d7cd72eb73cef5a6fd02b", "fusion_lat": 0.0, "rental_uris": {"ios": "https://dc.lft.to/lastmile_qr_scan", "android": "https://dc.lft.to/lastmile_qr_scan"}, "lon": -76.94625166666667, "type": "electric_bike"}, {"bike_id": "67dd389bfe775597cb72c9894ccf1432", "is_reserved": 0, "fusion_lon": 0.0, "lat": 38.89529066666667, "is_disabled": 0, "name": "67dd389bfe775597cb72c9894ccf1432", "fusion_lat": 0.0, "rental_uris": {"ios": "https://dc.lft.to/lastmile_qr_scan", "android": "https://dc.lft.to/lastmile_qr_scan"}, "lon": -77.033495, "type": "electric_scooter"}, {"bike_id": "a0c9e6612bc53a4b7465ad21e781dc6b", "is_reserved": 0, "fusion_lon": 0.0, "lat": 38.924371666666666, "is_disabled": 0, "name": "a0c9e6612bc53a4b7465ad21e781dc6b", "fusion_lat": 0.0, "rental_uris": {"ios": "https://dc.lft.to/lastmile_qr_scan", "android": "https://dc.lft.to/lastmile_qr_scan"}, "lon": -77.02035283333333, "type": "electric_scooter"}, {"bike_id": "e08a25934196928232db881b07ac8208", "is_reserved": 0, "fusion_lon": 0.0, "lat": 38.914093333333334, "is_disabled": 0, "name": "e08a25934196928232db881b07ac8208", "fusion_lat": 0.0, "rental_uris": {"ios": "https://dc.lft.to/lastmile_qr_scan", "android": "https://dc.lft.to/lastmile_qr_scan"}, "lon": -77.04565283333334, "type": "electric_scooter"}, {"bike_id": "c25bb85629dc3f02854f563afbc8a87a", "is_reserved": 0, "fusion_lon": 0.0, "lat": 38.90588016666667, "is_disabled": 0, "name": "c25bb85629dc3f02854f563afbc8a87a", "fusion_lat": 0.0, "rental_uris": {"ios": "https://dc.lft.to/lastmile_qr_scan", "android": "https://dc.lft.to/lastmile_qr_scan"}, "lon": -77.06519216666666, "type": "electric_scooter"}, {"bike_id": "f992f3099a01076a5398877e46286e14", "is_reserved": 0, "fusion_lon": 0.0, "lat": 38.92053766666667, "is_disabled": 0, "name": "f992f3099a01076a5398877e46286e14", "fusion_lat": 0.0, "rental_uris": {"ios": "https://dc.lft.to/lastmile_qr_scan", "android": "https://dc.lft.to/lastmile_qr_scan"}, "lon": -77.03394616666667, "type": "electric_scooter"}, {"bike_id": "9786b87cb27d671840f7fa7ffc2e6ef1", "is_reserved": 0, "fusion_lon": 0.0, "lat": 38.9112095, "is_disabled": 0, "name": "9786b87cb27d671840f7fa7ffc2e6ef1", "fusion_lat": 0.0, "rental_uris": {"ios": "https://dc.lft.to/lastmile_qr_scan", "android": "https://dc.lft.to/lastmile_qr_scan"}, "lon": -77.0465395, "type": "electric_scooter"}, {"bike_id": "5025ef4c0d2f2f71323df62edf5a1225", "is_reserved": 0, "fusion_lon": 0.0, "lat": 38.90515533333333, "is_disabled": 0, "name": "5025ef4c0d2f2f71323df62edf5a1225", "fusion_lat": 0.0, "rental_uris": {"ios": "https://dc.lft.to/lastmile_qr_scan", "android": "https://dc.lft.to/lastmile_qr_scan"}, "lon": -77.06384416666667, "type": "electric_scooter"}, {"bike_id": "b207428793d1373c2d53f237d9b3c889", "is_reserved": 0, "fusion_lon": 0.0, "lat": 38.9057685, "is_disabled": 0, "name": "b207428793d1373c2d53f237d9b3c889", "fusion_lat": 0.0, "rental_uris": {"ios": "https://dc.lft.to/lastmile_qr_scan", "android": "https://dc.lft.to/lastmile_qr_scan"}, "lon": -77.046723, "type": "electric_scooter"}, {"bike_id": "f6ce46ff6ec0d6829e82574b5d340092", "is_reserved": 0, "fusion_lon": 0.0, "lat": 38.920640166666665, "is_disabled": 0, "name": "f6ce46ff6ec0d6829e82574b5d340092", "fusion_lat": 0.0, "rental_uris": {"ios": "https://dc.lft.to/lastmile_qr_scan", "android": "https://dc.lft.to/lastmile_qr_scan"}, "lon": -77.03307266666667, "type": "electric_bike"}, {"bike_id": "c639fe13e06e384bf51129dd26c269cd", "is_reserved": 0, "fusion_lon": 0.0, "lat": 38.90556766666667, "is_disabled": 0, "name": "c639fe13e06e384bf51129dd26c269cd", "fusion_lat": 0.0, "rental_uris": {"ios": "https://dc.lft.to/lastmile_qr_scan", "android": "https://dc.lft.to/lastmile_qr_scan"}, "lon": -77.03628266666666, "type": "electric_scooter"}, {"bike_id": "aa8838307aa7c32533af754f5e7180e5", "is_reserved": 0, "fusion_lon": 0.0, "lat": 38.919698, "is_disabled": 0, "name": "aa8838307aa7c32533af754f5e7180e5", "fusion_lat": 0.0, "rental_uris": {"ios": "https://dc.lft.to/lastmile_qr_scan", "android": "https://dc.lft.to/lastmile_qr_scan"}, "lon": -77.00100683333334, "type": "electric_scooter"}, {"bike_id": "856d633875c1700e3b04edde2a035aef", "is_reserved": 0, "fusion_lon": 0.0, "lat": 38.92319416666667, "is_disabled": 0, "name": "856d633875c1700e3b04edde2a035aef", "fusion_lat": 0.0, "rental_uris": {"ios": "https://dc.lft.to/lastmile_qr_scan", "android": "https://dc.lft.to/lastmile_qr_scan"}, "lon": -77.038615, "type": "electric_scooter"}, {"bike_id": "483b8f2ff06bd85b606ca0b583bbee61", "is_reserved": 0, "fusion_lon": 0.0, "lat": 38.896628666666665, "is_disabled": 0, "name": "483b8f2ff06bd85b606ca0b583bbee61", "fusion_lat": 0.0, "rental_uris": {"ios": "https://dc.lft.to/lastmile_qr_scan", "android": "https://dc.lft.to/lastmile_qr_scan"}, "lon": -77.02964516666667, "type": "electric_scooter"}, {"bike_id": "2ef1730b0d2e70fe86b0826a5bea4f8d", "is_reserved": 0, "fusion_lon": 0.0, "lat": 38.92347783333334, "is_disabled": 0, "name": "2ef1730b0d2e70fe86b0826a5bea4f8d", "fusion_lat": 0.0, "rental_uris": {"ios": "https://dc.lft.to/lastmile_qr_scan", "android": "https://dc.lft.to/lastmile_qr_scan"}, "lon": -77.0189675, "type": "electric_scooter"}, {"bike_id": "67c279296300dde3851157bd2dad7d59", "is_reserved": 0, "fusion_lon": 0.0, "lat": 38.95779733333333, "is_disabled": 0, "name": "67c279296300dde3851157bd2dad7d59", "fusion_lat": 0.0, "rental_uris": {"ios": "https://dc.lft.to/lastmile_qr_scan", "android": "https://dc.lft.to/lastmile_qr_scan"}, "lon": -77.02750116666667, "type": "electric_bike"}, {"bike_id": "2707d33fc0df1803b2a76316b2c39537", "is_reserved": 0, "fusion_lon": 0.0, "lat": 38.923244, "is_disabled": 0, "name": "2707d33fc0df1803b2a76316b2c39537", "fusion_lat": 0.0, "rental_uris": {"ios": "https://dc.lft.to/lastmile_qr_scan", "android": "https://dc.lft.to/lastmile_qr_scan"}, "lon": -77.04389033333334, "type": "electric_scooter"}, {"bike_id": "466e2fafd8904caf2d9b41cf78107a0e", "is_reserved": 0, "fusion_lon": 0.0, "lat": 38.920677833333336, "is_disabled": 0, "name": "466e2fafd8904caf2d9b41cf78107a0e", "fusion_lat": 0.0, "rental_uris": {"ios": "https://dc.lft.to/lastmile_qr_scan", "android": "https://dc.lft.to/lastmile_qr_scan"}, "lon": -76.9778995, "type": "electric_scooter"}, {"bike_id": "627abf3d4a1dbb5e4a552983cb5ba883", "is_reserved": 0, "fusion_lon": 0.0, "lat": 38.90973566666667, "is_disabled": 0, "name": "627abf3d4a1dbb5e4a552983cb5ba883", "fusion_lat": 0.0, "rental_uris": {"ios": "https://dc.lft.to/lastmile_qr_scan", "android": "https://dc.lft.to/lastmile_qr_scan"}, "lon": -77.04871433333334, "type": "electric_scooter"}, {"bike_id": "d6d3f1c765f4af9912fd556815a8c78c", "is_reserved": 0, "fusion_lon": 0.0, "lat": 38.885322, "is_disabled": 0, "name": "d6d3f1c765f4af9912fd556815a8c78c", "fusion_lat": 0.0, "rental_uris": {"ios": "https://dc.lft.to/lastmile_qr_scan", "android": "https://dc.lft.to/lastmile_qr_scan"}, "lon": -77.00574833333333, "type": "electric_scooter"}, {"bike_id": "5e29859f246e11e0ff26ab57d16a52e7", "is_reserved": 0, "fusion_lon": 0.0, "lat": 38.90276033333333, "is_disabled": 0, "name": "5e29859f246e11e0ff26ab57d16a52e7", "fusion_lat": 0.0, "rental_uris": {"ios": "https://dc.lft.to/lastmile_qr_scan", "android": "https://dc.lft.to/lastmile_qr_scan"}, "lon": -77.0385125, "type": "electric_scooter"}, {"bike_id": "7c89cfe691bbf0046b55890a1a7bd70e", "is_reserved": 0, "fusion_lon": 0.0, "lat": 38.86663133333333, "is_disabled": 0, "name": "7c89cfe691bbf0046b55890a1a7bd70e", "fusion_lat": 0.0, "rental_uris": {"ios": "https://dc.lft.to/lastmile_qr_scan", "android": "https://dc.lft.to/lastmile_qr_scan"}, "lon": -76.98906366666667, "type": "electric_scooter"}, {"bike_id": "603838e9afd60929fc7e95761ae3dccb", "is_reserved": 0, "fusion_lon": 0.0, "lat": 38.898945499999996, "is_disabled": 0, "name": "603838e9afd60929fc7e95761ae3dccb", "fusion_lat": 0.0, "rental_uris": {"ios": "https://dc.lft.to/lastmile_qr_scan", "android": "https://dc.lft.to/lastmile_qr_scan"}, "lon": -77.03949616666667, "type": "electric_scooter"}, {"bike_id": "55ac4739ff06ea8c539244de8c7aaf5f", "is_reserved": 0, "fusion_lon": 0.0, "lat": 38.897445166666664, "is_disabled": 0, "name": "55ac4739ff06ea8c539244de8c7aaf5f", "fusion_lat": 0.0, "rental_uris": {"ios": "https://dc.lft.to/lastmile_qr_scan", "android": "https://dc.lft.to/lastmile_qr_scan"}, "lon": -77.04362883333333, "type": "electric_scooter"}, {"bike_id": "a6a8a2b8fd02532b9a73f6446afbf915", "is_reserved": 0, "fusion_lon": 0.0, "lat": 38.933581833333335, "is_disabled": 0, "name": "a6a8a2b8fd02532b9a73f6446afbf915", "fusion_lat": 0.0, "rental_uris": {"ios": "https://dc.lft.to/lastmile_qr_scan", "android": "https://dc.lft.to/lastmile_qr_scan"}, "lon": -77.06935083333333, "type": "electric_scooter"}, {"bike_id": "17eeaa03f23344b9448c0b9c9c4fc884", "is_reserved": 0, "fusion_lon": 0.0, "lat": 38.911243166666665, "is_disabled": 0, "name": "17eeaa03f23344b9448c0b9c9c4fc884", "fusion_lat": 0.0, "rental_uris": {"ios": "https://dc.lft.to/lastmile_qr_scan", "android": "https://dc.lft.to/lastmile_qr_scan"}, "lon": -77.02184966666667, "type": "electric_scooter"}, {"bike_id": "53defde787dc942d140dd4ab5dee1e71", "is_reserved": 0, "fusion_lon": 0.0, "lat": 38.894800333333336, "is_disabled": 0, "name": "53defde787dc942d140dd4ab5dee1e71", "fusion_lat": 0.0, "rental_uris": {"ios": "https://dc.lft.to/lastmile_qr_scan", "android": "https://dc.lft.to/lastmile_qr_scan"}, "lon": -77.02207366666667, "type": "electric_scooter"}, {"bike_id": "39c88c5922886b44bf16af09e6b1ea52", "is_reserved": 0, "fusion_lon": 0.0, "lat": 38.91495166666667, "is_disabled": 0, "name": "39c88c5922886b44bf16af09e6b1ea52", "fusion_lat": 0.0, "rental_uris": {"ios": "https://dc.lft.to/lastmile_qr_scan", "android": "https://dc.lft.to/lastmile_qr_scan"}, "lon": -77.02693833333333, "type": "electric_scooter"}, {"bike_id": "7f2a9934a6162fdd40226970082c67a4", "is_reserved": 0, "fusion_lon": 0.0, "lat": 38.899252833333335, "is_disabled": 0, "name": "7f2a9934a6162fdd40226970082c67a4", "fusion_lat": 0.0, "rental_uris": {"ios": "https://dc.lft.to/lastmile_qr_scan", "android": "https://dc.lft.to/lastmile_qr_scan"}, "lon": -77.05417133333333, "type": "electric_scooter"}, {"bike_id": "3d5dd5696639e64a3cd475422d7921cd", "is_reserved": 0, "fusion_lon": 0.0, "lat": 38.946139, "is_disabled": 0, "name": "3d5dd5696639e64a3cd475422d7921cd", "fusion_lat": 0.0, "rental_uris": {"ios": "https://dc.lft.to/lastmile_qr_scan", "android": "https://dc.lft.to/lastmile_qr_scan"}, "lon": -77.03510733333333, "type": "electric_scooter"}, {"bike_id": "78dec06ceaa6bb2f884d9034d76d583a", "is_reserved": 0, "fusion_lon": 0.0, "lat": 38.9492425, "is_disabled": 0, "name": "78dec06ceaa6bb2f884d9034d76d583a", "fusion_lat": 0.0, "rental_uris": {"ios": "https://dc.lft.to/lastmile_qr_scan", "android": "https://dc.lft.to/lastmile_qr_scan"}, "lon": -77.01933316666667, "type": "electric_scooter"}, {"bike_id": "9d991dab4cf30e041af250f217aa1860", "is_reserved": 0, "fusion_lon": 0.0, "lat": 38.94323266666667, "is_disabled": 0, "name": "9d991dab4cf30e041af250f217aa1860", "fusion_lat": 0.0, "rental_uris": {"ios": "https://dc.lft.to/lastmile_qr_scan", "android": "https://dc.lft.to/lastmile_qr_scan"}, "lon": -77.07389283333333, "type": "electric_scooter"}, {"bike_id": "12825787835470b866ab033774e0a1c3", "is_reserved": 0, "fusion_lon": 0.0, "lat": 38.909779, "is_disabled": 0, "name": "12825787835470b866ab033774e0a1c3", "fusion_lat": 0.0, "rental_uris": {"ios": "https://dc.lft.to/lastmile_qr_scan", "android": "https://dc.lft.to/lastmile_qr_scan"}, "lon": -77.06710783333334, "type": "electric_scooter"}, {"bike_id": "fb25a2161a0753fe80be043c1959328b", "is_reserved": 0, "fusion_lon": 0.0, "lat": 38.8831245, "is_disabled": 0, "name": "fb25a2161a0753fe80be043c1959328b", "fusion_lat": 0.0, "rental_uris": {"ios": "https://dc.lft.to/lastmile_qr_scan", "android": "https://dc.lft.to/lastmile_qr_scan"}, "lon": -77.01772566666666, "type": "electric_scooter"}, {"bike_id": "440ac840e2a023b2c362db2a8044eff5", "is_reserved": 0, "fusion_lon": 0.0, "lat": 38.905804333333336, "is_disabled": 0, "name": "440ac840e2a023b2c362db2a8044eff5", "fusion_lat": 0.0, "rental_uris": {"ios": "https://dc.lft.to/lastmile_qr_scan", "android": "https://dc.lft.to/lastmile_qr_scan"}, "lon": -77.02473866666666, "type": "electric_scooter"}, {"bike_id": "9f09a957d76da73c71c7b8b65aa66c20", "is_reserved": 0, "fusion_lon": 0.0, "lat": 38.931147, "is_disabled": 0, "name": "9f09a957d76da73c71c7b8b65aa66c20", "fusion_lat": 0.0, "rental_uris": {"ios": "https://dc.lft.to/lastmile_qr_scan", "android": "https://dc.lft.to/lastmile_qr_scan"}, "lon": -77.020942, "type": "electric_scooter"}, {"bike_id": "f8d9d2cb35713b7e6db12cc876662b10", "is_reserved": 0, "fusion_lon": 0.0, "lat": 38.908956833333335, "is_disabled": 0, "name": "f8d9d2cb35713b7e6db12cc876662b10", "fusion_lat": 0.0, "rental_uris": {"ios": "https://dc.lft.to/lastmile_qr_scan", "android": "https://dc.lft.to/lastmile_qr_scan"}, "lon": -77.02694683333333, "type": "electric_scooter"}, {"bike_id": "9b8032c3a2287fd98735daba464867e2", "is_reserved": 0, "fusion_lon": 0.0, "lat": 38.91280583333333, "is_disabled": 0, "name": "9b8032c3a2287fd98735daba464867e2", "fusion_lat": 0.0, "rental_uris": {"ios": "https://dc.lft.to/lastmile_qr_scan", "android": "https://dc.lft.to/lastmile_qr_scan"}, "lon": -77.02301416666667, "type": "electric_scooter"}, {"bike_id": "612a0f2ca0bd7bf7d50e7cde90bb98a3", "is_reserved": 0, "fusion_lon": 0.0, "lat": 38.918806000000004, "is_disabled": 0, "name": "612a0f2ca0bd7bf7d50e7cde90bb98a3", "fusion_lat": 0.0, "rental_uris": {"ios": "https://dc.lft.to/lastmile_qr_scan", "android": "https://dc.lft.to/lastmile_qr_scan"}, "lon": -76.971593, "type": "electric_scooter"}, {"bike_id": "d1ef584843722386fd90b06222f88d23", "is_reserved": 0, "fusion_lon": 0.0, "lat": 38.90385083333334, "is_disabled": 0, "name": "d1ef584843722386fd90b06222f88d23", "fusion_lat": 0.0, "rental_uris": {"ios": "https://dc.lft.to/lastmile_qr_scan", "android": "https://dc.lft.to/lastmile_qr_scan"}, "lon": -77.04448116666667, "type": "electric_scooter"}, {"bike_id": "f30a77747c0f40d2751f14d597f934f4", "is_reserved": 0, "fusion_lon": 0.0, "lat": 38.90261483333333, "is_disabled": 0, "name": "f30a77747c0f40d2751f14d597f934f4", "fusion_lat": 0.0, "rental_uris": {"ios": "https://dc.lft.to/lastmile_qr_scan", "android": "https://dc.lft.to/lastmile_qr_scan"}, "lon": -77.03936816666666, "type": "electric_scooter"}, {"bike_id": "84dad8668967a702f13907326d4162f2", "is_reserved": 0, "fusion_lon": 0.0, "lat": 38.941783, "is_disabled": 0, "name": "84dad8668967a702f13907326d4162f2", "fusion_lat": 0.0, "rental_uris": {"ios": "https://dc.lft.to/lastmile_qr_scan", "android": "https://dc.lft.to/lastmile_qr_scan"}, "lon": -77.036536, "type": "electric_scooter"}, {"bike_id": "9c24c02edb44b31344cb33dfff726d7c", "is_reserved": 0, "fusion_lon": 0.0, "lat": 38.9024595, "is_disabled": 0, "name": "9c24c02edb44b31344cb33dfff726d7c", "fusion_lat": 0.0, "rental_uris": {"ios": "https://dc.lft.to/lastmile_qr_scan", "android": "https://dc.lft.to/lastmile_qr_scan"}, "lon": -77.00196333333334, "type": "electric_scooter"}, {"bike_id": "9b91244c78d5ee074bcc3b43140c3bcb", "is_reserved": 0, "fusion_lon": 0.0, "lat": 38.936992000000004, "is_disabled": 0, "name": "9b91244c78d5ee074bcc3b43140c3bcb", "fusion_lat": 0.0, "rental_uris": {"ios": "https://dc.lft.to/lastmile_qr_scan", "android": "https://dc.lft.to/lastmile_qr_scan"}, "lon": -77.02979283333333, "type": "electric_bike"}, {"bike_id": "3a0546704fd0353575fa86367d750a31", "is_reserved": 0, "fusion_lon": 0.0, "lat": 38.91333216666666, "is_disabled": 0, "name": "3a0546704fd0353575fa86367d750a31", "fusion_lat": 0.0, "rental_uris": {"ios": "https://dc.lft.to/lastmile_qr_scan", "android": "https://dc.lft.to/lastmile_qr_scan"}, "lon": -77.04814733333333, "type": "electric_scooter"}, {"bike_id": "3a791ad3aa5b0185c8368dcab477627c", "is_reserved": 0, "fusion_lon": 0.0, "lat": 38.900234166666664, "is_disabled": 0, "name": "3a791ad3aa5b0185c8368dcab477627c", "fusion_lat": 0.0, "rental_uris": {"ios": "https://dc.lft.to/lastmile_qr_scan", "android": "https://dc.lft.to/lastmile_qr_scan"}, "lon": -77.03303366666667, "type": "electric_scooter"}, {"bike_id": "7c9e3fb76543b182bf68836aa38bcccc", "is_reserved": 0, "fusion_lon": 0.0, "lat": 38.89824266666667, "is_disabled": 0, "name": "7c9e3fb76543b182bf68836aa38bcccc", "fusion_lat": 0.0, "rental_uris": {"ios": "https://dc.lft.to/lastmile_qr_scan", "android": "https://dc.lft.to/lastmile_qr_scan"}, "lon": -77.03218983333333, "type": "electric_scooter"}, {"bike_id": "5b9146661ee0cd2e63514912e1a39262", "is_reserved": 0, "fusion_lon": 0.0, "lat": 38.882894, "is_disabled": 0, "name": "5b9146661ee0cd2e63514912e1a39262", "fusion_lat": 0.0, "rental_uris": {"ios": "https://dc.lft.to/lastmile_qr_scan", "android": "https://dc.lft.to/lastmile_qr_scan"}, "lon": -76.98612216666666, "type": "electric_scooter"}, {"bike_id": "079a5d271134e5206c0027b6ef4fdc4d", "is_reserved": 0, "fusion_lon": 0.0, "lat": 38.91980483333333, "is_disabled": 0, "name": "079a5d271134e5206c0027b6ef4fdc4d", "fusion_lat": 0.0, "rental_uris": {"ios": "https://dc.lft.to/lastmile_qr_scan", "android": "https://dc.lft.to/lastmile_qr_scan"}, "lon": -77.04443483333333, "type": "electric_scooter"}, {"bike_id": "8a229bba5249c317e4cecbc36e441472", "is_reserved": 0, "fusion_lon": 0.0, "lat": 38.936763166666665, "is_disabled": 0, "name": "8a229bba5249c317e4cecbc36e441472", "fusion_lat": 0.0, "rental_uris": {"ios": "https://dc.lft.to/lastmile_qr_scan", "android": "https://dc.lft.to/lastmile_qr_scan"}, "lon": -76.951985, "type": "electric_bike"}, {"bike_id": "e07a41bda65a1fdd33b4fb2bc2b11d05", "is_reserved": 0, "fusion_lon": 0.0, "lat": 38.909171666666666, "is_disabled": 0, "name": "e07a41bda65a1fdd33b4fb2bc2b11d05", "fusion_lat": 0.0, "rental_uris": {"ios": "https://dc.lft.to/lastmile_qr_scan", "android": "https://dc.lft.to/lastmile_qr_scan"}, "lon": -77.03843216666667, "type": "electric_scooter"}, {"bike_id": "1cf5d129f44683093238e51da361f8f8", "is_reserved": 0, "fusion_lon": 0.0, "lat": 38.87189633333333, "is_disabled": 0, "name": "1cf5d129f44683093238e51da361f8f8", "fusion_lat": 0.0, "rental_uris": {"ios": "https://dc.lft.to/lastmile_qr_scan", "android": "https://dc.lft.to/lastmile_qr_scan"}, "lon": -77.01372583333334, "type": "electric_scooter"}, {"bike_id": "7fed549626f4d5d5a319a920ed44989f", "is_reserved": 0, "fusion_lon": 0.0, "lat": 38.928833166666664, "is_disabled": 0, "name": "7fed549626f4d5d5a319a920ed44989f", "fusion_lat": 0.0, "rental_uris": {"ios": "https://dc.lft.to/lastmile_qr_scan", "android": "https://dc.lft.to/lastmile_qr_scan"}, "lon": -77.04040966666666, "type": "electric_scooter"}, {"bike_id": "4072e01792284cbbaffc6be809d8a977", "is_reserved": 0, "fusion_lon": 0.0, "lat": 38.9195025, "is_disabled": 0, "name": "4072e01792284cbbaffc6be809d8a977", "fusion_lat": 0.0, "rental_uris": {"ios": "https://dc.lft.to/lastmile_qr_scan", "android": "https://dc.lft.to/lastmile_qr_scan"}, "lon": -76.9789355, "type": "electric_bike"}, {"bike_id": "479d5cc4ec117e18d48cb77c4d02c03f", "is_reserved": 0, "fusion_lon": 0.0, "lat": 38.900159333333335, "is_disabled": 0, "name": "479d5cc4ec117e18d48cb77c4d02c03f", "fusion_lat": 0.0, "rental_uris": {"ios": "https://dc.lft.to/lastmile_qr_scan", "android": "https://dc.lft.to/lastmile_qr_scan"}, "lon": -76.99763933333334, "type": "electric_scooter"}, {"bike_id": "fe0ee00b0b8d0630918b69a7073c7311", "is_reserved": 0, "fusion_lon": 0.0, "lat": 38.88503433333333, "is_disabled": 0, "name": "fe0ee00b0b8d0630918b69a7073c7311", "fusion_lat": 0.0, "rental_uris": {"ios": "https://dc.lft.to/lastmile_qr_scan", "android": "https://dc.lft.to/lastmile_qr_scan"}, "lon": -77.01724533333334, "type": "electric_scooter"}, {"bike_id": "d2d14556398601c6f3fbbcfe932ba25b", "is_reserved": 0, "fusion_lon": 0.0, "lat": 38.884002333333335, "is_disabled": 0, "name": "d2d14556398601c6f3fbbcfe932ba25b", "fusion_lat": 0.0, "rental_uris": {"ios": "https://dc.lft.to/lastmile_qr_scan", "android": "https://dc.lft.to/lastmile_qr_scan"}, "lon": -76.9606895, "type": "electric_bike"}, {"bike_id": "d5cf7783755ef437a153f2d24c8ee154", "is_reserved": 0, "fusion_lon": 0.0, "lat": 38.906735833333336, "is_disabled": 0, "name": "d5cf7783755ef437a153f2d24c8ee154", "fusion_lat": 0.0, "rental_uris": {"ios": "https://dc.lft.to/lastmile_qr_scan", "android": "https://dc.lft.to/lastmile_qr_scan"}, "lon": -77.03838783333333, "type": "electric_scooter"}, {"bike_id": "daf6b375417fef588c016019fdae0e7e", "is_reserved": 0, "fusion_lon": 0.0, "lat": 38.9114765, "is_disabled": 0, "name": "daf6b375417fef588c016019fdae0e7e", "fusion_lat": 0.0, "rental_uris": {"ios": "https://dc.lft.to/lastmile_qr_scan", "android": "https://dc.lft.to/lastmile_qr_scan"}, "lon": -77.041588, "type": "electric_scooter"}, {"bike_id": "ab92c3fd137effaa29251021053792c9", "is_reserved": 0, "fusion_lon": 0.0, "lat": 38.93982916666667, "is_disabled": 0, "name": "ab92c3fd137effaa29251021053792c9", "fusion_lat": 0.0, "rental_uris": {"ios": "https://dc.lft.to/lastmile_qr_scan", "android": "https://dc.lft.to/lastmile_qr_scan"}, "lon": -77.02890933333333, "type": "electric_scooter"}, {"bike_id": "f6961ffd83363fd1199343c1f2154651", "is_reserved": 0, "fusion_lon": 0.0, "lat": 38.9180565, "is_disabled": 0, "name": "f6961ffd83363fd1199343c1f2154651", "fusion_lat": 0.0, "rental_uris": {"ios": "https://dc.lft.to/lastmile_qr_scan", "android": "https://dc.lft.to/lastmile_qr_scan"}, "lon": -77.033043, "type": "electric_scooter"}, {"bike_id": "b0ecc3d86030e0b48ba938287c7924a9", "is_reserved": 0, "fusion_lon": 0.0, "lat": 38.913303166666665, "is_disabled": 0, "name": "b0ecc3d86030e0b48ba938287c7924a9", "fusion_lat": 0.0, "rental_uris": {"ios": "https://dc.lft.to/lastmile_qr_scan", "android": "https://dc.lft.to/lastmile_qr_scan"}, "lon": -77.03263016666666, "type": "electric_scooter"}, {"bike_id": "efa3e1e9152af06b3ce34f8915bd2d4a", "is_reserved": 0, "fusion_lon": 0.0, "lat": 38.93666066666667, "is_disabled": 0, "name": "efa3e1e9152af06b3ce34f8915bd2d4a", "fusion_lat": 0.0, "rental_uris": {"ios": "https://dc.lft.to/lastmile_qr_scan", "android": "https://dc.lft.to/lastmile_qr_scan"}, "lon": -77.0593365, "type": "electric_scooter"}, {"bike_id": "58453ec131d1f3bf4c449c5c59d8c8d9", "is_reserved": 0, "fusion_lon": 0.0, "lat": 38.894292, "is_disabled": 0, "name": "58453ec131d1f3bf4c449c5c59d8c8d9", "fusion_lat": 0.0, "rental_uris": {"ios": "https://dc.lft.to/lastmile_qr_scan", "android": "https://dc.lft.to/lastmile_qr_scan"}, "lon": -77.02622283333334, "type": "electric_scooter"}, {"bike_id": "40e18bd2b8ec7edd5ce268423c69c3b7", "is_reserved": 0, "fusion_lon": 0.0, "lat": 38.90375616666667, "is_disabled": 0, "name": "40e18bd2b8ec7edd5ce268423c69c3b7", "fusion_lat": 0.0, "rental_uris": {"ios": "https://dc.lft.to/lastmile_qr_scan", "android": "https://dc.lft.to/lastmile_qr_scan"}, "lon": -77.04498183333334, "type": "electric_scooter"}, {"bike_id": "2e28f5bccfb71cc1d08f9a0eb0a77b03", "is_reserved": 0, "fusion_lon": 0.0, "lat": 38.89555933333333, "is_disabled": 0, "name": "2e28f5bccfb71cc1d08f9a0eb0a77b03", "fusion_lat": 0.0, "rental_uris": {"ios": "https://dc.lft.to/lastmile_qr_scan", "android": "https://dc.lft.to/lastmile_qr_scan"}, "lon": -76.95030233333334, "type": "electric_scooter"}, {"bike_id": "009910298a25184003f86caa70c702eb", "is_reserved": 0, "fusion_lon": 0.0, "lat": 38.8595605, "is_disabled": 0, "name": "009910298a25184003f86caa70c702eb", "fusion_lat": 0.0, "rental_uris": {"ios": "https://dc.lft.to/lastmile_qr_scan", "android": "https://dc.lft.to/lastmile_qr_scan"}, "lon": -76.99100766666666, "type": "electric_scooter"}, {"bike_id": "502768abb548aed40dd07153a7e860f7", "is_reserved": 0, "fusion_lon": 0.0, "lat": 38.90816216666666, "is_disabled": 0, "name": "502768abb548aed40dd07153a7e860f7", "fusion_lat": 0.0, "rental_uris": {"ios": "https://dc.lft.to/lastmile_qr_scan", "android": "https://dc.lft.to/lastmile_qr_scan"}, "lon": -77.03421083333333, "type": "electric_scooter"}, {"bike_id": "9080f71f484537a0f68d7acc6298d5d9", "is_reserved": 0, "fusion_lon": 0.0, "lat": 38.921755166666664, "is_disabled": 0, "name": "9080f71f484537a0f68d7acc6298d5d9", "fusion_lat": 0.0, "rental_uris": {"ios": "https://dc.lft.to/lastmile_qr_scan", "android": "https://dc.lft.to/lastmile_qr_scan"}, "lon": -77.025371, "type": "electric_scooter"}, {"bike_id": "9aab604c0f597c12dd1a76966ecaab3d", "is_reserved": 0, "fusion_lon": 0.0, "lat": 38.920439333333334, "is_disabled": 0, "name": "9aab604c0f597c12dd1a76966ecaab3d", "fusion_lat": 0.0, "rental_uris": {"ios": "https://dc.lft.to/lastmile_qr_scan", "android": "https://dc.lft.to/lastmile_qr_scan"}, "lon": -77.02413566666667, "type": "electric_scooter"}, {"bike_id": "5f2084b810b77e04d31c4e8b6989d10a", "is_reserved": 0, "fusion_lon": 0.0, "lat": 38.81312166666667, "is_disabled": 0, "name": "5f2084b810b77e04d31c4e8b6989d10a", "fusion_lat": 0.0, "rental_uris": {"ios": "https://dc.lft.to/lastmile_qr_scan", "android": "https://dc.lft.to/lastmile_qr_scan"}, "lon": -77.05097233333333, "type": "electric_bike"}, {"bike_id": "5520f966dc3ceead3d1c71aa47af0d3b", "is_reserved": 0, "fusion_lon": 0.0, "lat": 38.907214333333336, "is_disabled": 0, "name": "5520f966dc3ceead3d1c71aa47af0d3b", "fusion_lat": 0.0, "rental_uris": {"ios": "https://dc.lft.to/lastmile_qr_scan", "android": "https://dc.lft.to/lastmile_qr_scan"}, "lon": -77.04343433333334, "type": "electric_scooter"}, {"bike_id": "7fb7176364e4996a7033304e23dccfb9", "is_reserved": 0, "fusion_lon": 0.0, "lat": 38.90781, "is_disabled": 0, "name": "7fb7176364e4996a7033304e23dccfb9", "fusion_lat": 0.0, "rental_uris": {"ios": "https://dc.lft.to/lastmile_qr_scan", "android": "https://dc.lft.to/lastmile_qr_scan"}, "lon": -77.042647, "type": "electric_scooter"}, {"bike_id": "749ae9f9d70b7993cd7fa071cccbf784", "is_reserved": 0, "fusion_lon": 0.0, "lat": 38.966258333333336, "is_disabled": 0, "name": "749ae9f9d70b7993cd7fa071cccbf784", "fusion_lat": 0.0, "rental_uris": {"ios": "https://dc.lft.to/lastmile_qr_scan", "android": "https://dc.lft.to/lastmile_qr_scan"}, "lon": -76.97667033333333, "type": "electric_bike"}, {"bike_id": "bf1b1e82aac0bdf0a23dd77c39c76246", "is_reserved": 0, "fusion_lon": 0.0, "lat": 38.95265583333333, "is_disabled": 0, "name": "bf1b1e82aac0bdf0a23dd77c39c76246", "fusion_lat": 0.0, "rental_uris": {"ios": "https://dc.lft.to/lastmile_qr_scan", "android": "https://dc.lft.to/lastmile_qr_scan"}, "lon": -77.02562566666667, "type": "electric_scooter"}, {"bike_id": "8efe6b6308706126830feb50ba782b8c", "is_reserved": 0, "fusion_lon": 0.0, "lat": 38.866974166666665, "is_disabled": 0, "name": "8efe6b6308706126830feb50ba782b8c", "fusion_lat": 0.0, "rental_uris": {"ios": "https://dc.lft.to/lastmile_qr_scan", "android": "https://dc.lft.to/lastmile_qr_scan"}, "lon": -76.98712566666667, "type": "electric_scooter"}, {"bike_id": "5afb5d1f0fe99d5562c39588f56c9292", "is_reserved": 0, "fusion_lon": 0.0, "lat": 38.89955666666667, "is_disabled": 0, "name": "5afb5d1f0fe99d5562c39588f56c9292", "fusion_lat": 0.0, "rental_uris": {"ios": "https://dc.lft.to/lastmile_qr_scan", "android": "https://dc.lft.to/lastmile_qr_scan"}, "lon": -77.03180116666667, "type": "electric_scooter"}, {"bike_id": "8080b72c6583ef4d121bc2d60bcc1a2a", "is_reserved": 0, "fusion_lon": 0.0, "lat": 38.89224816666667, "is_disabled": 0, "name": "8080b72c6583ef4d121bc2d60bcc1a2a", "fusion_lat": 0.0, "rental_uris": {"ios": "https://dc.lft.to/lastmile_qr_scan", "android": "https://dc.lft.to/lastmile_qr_scan"}, "lon": -77.0321895, "type": "electric_scooter"}, {"bike_id": "50a60f5bcab44005b6381c93aae9692a", "is_reserved": 0, "fusion_lon": 0.0, "lat": 38.90971566666666, "is_disabled": 0, "name": "50a60f5bcab44005b6381c93aae9692a", "fusion_lat": 0.0, "rental_uris": {"ios": "https://dc.lft.to/lastmile_qr_scan", "android": "https://dc.lft.to/lastmile_qr_scan"}, "lon": -77.03867416666667, "type": "electric_scooter"}, {"bike_id": "4cb1d364278e0f37f2f21b5c7c90d3e0", "is_reserved": 0, "fusion_lon": 0.0, "lat": 38.907684, "is_disabled": 0, "name": "4cb1d364278e0f37f2f21b5c7c90d3e0", "fusion_lat": 0.0, "rental_uris": {"ios": "https://dc.lft.to/lastmile_qr_scan", "android": "https://dc.lft.to/lastmile_qr_scan"}, "lon": -77.06913733333333, "type": "electric_scooter"}, {"bike_id": "f3d37e2760a16f2caa156869aaacaafd", "is_reserved": 0, "fusion_lon": 0.0, "lat": 38.9336165, "is_disabled": 0, "name": "f3d37e2760a16f2caa156869aaacaafd", "fusion_lat": 0.0, "rental_uris": {"ios": "https://dc.lft.to/lastmile_qr_scan", "android": "https://dc.lft.to/lastmile_qr_scan"}, "lon": -77.02648516666666, "type": "electric_scooter"}, {"bike_id": "c6f55fbb4feb60bd730590497f250a8d", "is_reserved": 0, "fusion_lon": 0.0, "lat": 38.91668416666667, "is_disabled": 0, "name": "c6f55fbb4feb60bd730590497f250a8d", "fusion_lat": 0.0, "rental_uris": {"ios": "https://dc.lft.to/lastmile_qr_scan", "android": "https://dc.lft.to/lastmile_qr_scan"}, "lon": -77.023053, "type": "electric_scooter"}, {"bike_id": "a2c8e7b35a168550638d0e6feac3a82d", "is_reserved": 0, "fusion_lon": 0.0, "lat": 38.939784, "is_disabled": 0, "name": "a2c8e7b35a168550638d0e6feac3a82d", "fusion_lat": 0.0, "rental_uris": {"ios": "https://dc.lft.to/lastmile_qr_scan", "android": "https://dc.lft.to/lastmile_qr_scan"}, "lon": -77.02893533333334, "type": "electric_scooter"}, {"bike_id": "8a97a032c77c53725d5c20667a5db194", "is_reserved": 0, "fusion_lon": 0.0, "lat": 38.920490666666666, "is_disabled": 0, "name": "8a97a032c77c53725d5c20667a5db194", "fusion_lat": 0.0, "rental_uris": {"ios": "https://dc.lft.to/lastmile_qr_scan", "android": "https://dc.lft.to/lastmile_qr_scan"}, "lon": -77.03388666666666, "type": "electric_scooter"}, {"bike_id": "e969a7e0c9b81ea4de2a2de0e302c8e5", "is_reserved": 0, "fusion_lon": 0.0, "lat": 38.918814, "is_disabled": 0, "name": "e969a7e0c9b81ea4de2a2de0e302c8e5", "fusion_lat": 0.0, "rental_uris": {"ios": "https://dc.lft.to/lastmile_qr_scan", "android": "https://dc.lft.to/lastmile_qr_scan"}, "lon": -77.04459283333334, "type": "electric_scooter"}, {"bike_id": "119ab5a54e065d2a57daa5412fcd6af9", "is_reserved": 0, "fusion_lon": 0.0, "lat": 38.999358, "is_disabled": 0, "name": "119ab5a54e065d2a57daa5412fcd6af9", "fusion_lat": 0.0, "rental_uris": {"ios": "https://dc.lft.to/lastmile_qr_scan", "android": "https://dc.lft.to/lastmile_qr_scan"}, "lon": -77.01766833333333, "type": "electric_bike"}, {"bike_id": "53211a3e5da60ed6124164487cfd4b04", "is_reserved": 0, "fusion_lon": 0.0, "lat": 38.914818, "is_disabled": 0, "name": "53211a3e5da60ed6124164487cfd4b04", "fusion_lat": 0.0, "rental_uris": {"ios": "https://dc.lft.to/lastmile_qr_scan", "android": "https://dc.lft.to/lastmile_qr_scan"}, "lon": -77.02180016666667, "type": "electric_scooter"}, {"bike_id": "687b763082860617344098ba6f89ccc6", "is_reserved": 0, "fusion_lon": 0.0, "lat": 38.9216615, "is_disabled": 0, "name": "687b763082860617344098ba6f89ccc6", "fusion_lat": 0.0, "rental_uris": {"ios": "https://dc.lft.to/lastmile_qr_scan", "android": "https://dc.lft.to/lastmile_qr_scan"}, "lon": -77.04216716666667, "type": "electric_scooter"}, {"bike_id": "3d27eba33689200600e4f79a9efaafe1", "is_reserved": 0, "fusion_lon": 0.0, "lat": 38.901680166666665, "is_disabled": 0, "name": "3d27eba33689200600e4f79a9efaafe1", "fusion_lat": 0.0, "rental_uris": {"ios": "https://dc.lft.to/lastmile_qr_scan", "android": "https://dc.lft.to/lastmile_qr_scan"}, "lon": -76.98068683333334, "type": "electric_scooter"}, {"bike_id": "517d87fd0b584b074564f0b23ec51136", "is_reserved": 0, "fusion_lon": 0.0, "lat": 38.96387166666667, "is_disabled": 0, "name": "517d87fd0b584b074564f0b23ec51136", "fusion_lat": 0.0, "rental_uris": {"ios": "https://dc.lft.to/lastmile_qr_scan", "android": "https://dc.lft.to/lastmile_qr_scan"}, "lon": -77.03499916666667, "type": "electric_scooter"}, {"bike_id": "216022543f1ec8e4ea5ac52009d9296a", "is_reserved": 0, "fusion_lon": 0.0, "lat": 38.92327433333333, "is_disabled": 0, "name": "216022543f1ec8e4ea5ac52009d9296a", "fusion_lat": 0.0, "rental_uris": {"ios": "https://dc.lft.to/lastmile_qr_scan", "android": "https://dc.lft.to/lastmile_qr_scan"}, "lon": -77.03768016666666, "type": "electric_scooter"}, {"bike_id": "bac9535b69691824aa74cec30db5f9a0", "is_reserved": 0, "fusion_lon": 0.0, "lat": 38.918769, "is_disabled": 0, "name": "bac9535b69691824aa74cec30db5f9a0", "fusion_lat": 0.0, "rental_uris": {"ios": "https://dc.lft.to/lastmile_qr_scan", "android": "https://dc.lft.to/lastmile_qr_scan"}, "lon": -77.02964333333334, "type": "electric_scooter"}, {"bike_id": "2039e45905dd6ffb99d3e4b9d7e76bc9", "is_reserved": 0, "fusion_lon": 0.0, "lat": 38.91885683333334, "is_disabled": 0, "name": "2039e45905dd6ffb99d3e4b9d7e76bc9", "fusion_lat": 0.0, "rental_uris": {"ios": "https://dc.lft.to/lastmile_qr_scan", "android": "https://dc.lft.to/lastmile_qr_scan"}, "lon": -77.03907366666667, "type": "electric_scooter"}, {"bike_id": "4d3d92ea400bc03692c83f28ee3d080c", "is_reserved": 0, "fusion_lon": 0.0, "lat": 38.9039235, "is_disabled": 0, "name": "4d3d92ea400bc03692c83f28ee3d080c", "fusion_lat": 0.0, "rental_uris": {"ios": "https://dc.lft.to/lastmile_qr_scan", "android": "https://dc.lft.to/lastmile_qr_scan"}, "lon": -77.04460933333333, "type": "electric_scooter"}, {"bike_id": "9d0d370993d5d1b67108df6ff8a95588", "is_reserved": 0, "fusion_lon": 0.0, "lat": 38.8990235, "is_disabled": 0, "name": "9d0d370993d5d1b67108df6ff8a95588", "fusion_lat": 0.0, "rental_uris": {"ios": "https://dc.lft.to/lastmile_qr_scan", "android": "https://dc.lft.to/lastmile_qr_scan"}, "lon": -77.03964133333334, "type": "electric_scooter"}, {"bike_id": "bcd9419c8a910ba801d9524c0fa04940", "is_reserved": 0, "fusion_lon": 0.0, "lat": 38.896166, "is_disabled": 0, "name": "bcd9419c8a910ba801d9524c0fa04940", "fusion_lat": 0.0, "rental_uris": {"ios": "https://dc.lft.to/lastmile_qr_scan", "android": "https://dc.lft.to/lastmile_qr_scan"}, "lon": -76.955768, "type": "electric_scooter"}, {"bike_id": "c21e7b68d562dc3b0afd642336f819b1", "is_reserved": 0, "fusion_lon": 0.0, "lat": 38.9497075, "is_disabled": 0, "name": "c21e7b68d562dc3b0afd642336f819b1", "fusion_lat": 0.0, "rental_uris": {"ios": "https://dc.lft.to/lastmile_qr_scan", "android": "https://dc.lft.to/lastmile_qr_scan"}, "lon": -77.078919, "type": "electric_scooter"}, {"bike_id": "2abc8b30f0ae4df8d94de31669c6b750", "is_reserved": 0, "fusion_lon": 0.0, "lat": 38.91773666666667, "is_disabled": 0, "name": "2abc8b30f0ae4df8d94de31669c6b750", "fusion_lat": 0.0, "rental_uris": {"ios": "https://dc.lft.to/lastmile_qr_scan", "android": "https://dc.lft.to/lastmile_qr_scan"}, "lon": -77.04058466666666, "type": "electric_scooter"}, {"bike_id": "6af1f259b96f0e720e520526dd5753e0", "is_reserved": 0, "fusion_lon": 0.0, "lat": 38.911036, "is_disabled": 0, "name": "6af1f259b96f0e720e520526dd5753e0", "fusion_lat": 0.0, "rental_uris": {"ios": "https://dc.lft.to/lastmile_qr_scan", "android": "https://dc.lft.to/lastmile_qr_scan"}, "lon": -77.002169, "type": "electric_scooter"}, {"bike_id": "40b85fbb6343884f9d9fcdafa6d937c0", "is_reserved": 0, "fusion_lon": 0.0, "lat": 38.900214, "is_disabled": 0, "name": "40b85fbb6343884f9d9fcdafa6d937c0", "fusion_lat": 0.0, "rental_uris": {"ios": "https://dc.lft.to/lastmile_qr_scan", "android": "https://dc.lft.to/lastmile_qr_scan"}, "lon": -76.9978585, "type": "electric_scooter"}, {"bike_id": "ed413f0eb7a12f55e22a7bfa2875f25d", "is_reserved": 0, "fusion_lon": 0.0, "lat": 38.90015833333333, "is_disabled": 0, "name": "ed413f0eb7a12f55e22a7bfa2875f25d", "fusion_lat": 0.0, "rental_uris": {"ios": "https://dc.lft.to/lastmile_qr_scan", "android": "https://dc.lft.to/lastmile_qr_scan"}, "lon": -76.99745683333333, "type": "electric_scooter"}, {"bike_id": "f12c378a001a3e98c4f2939129becb52", "is_reserved": 0, "fusion_lon": 0.0, "lat": 38.8386205, "is_disabled": 0, "name": "f12c378a001a3e98c4f2939129becb52", "fusion_lat": 0.0, "rental_uris": {"ios": "https://dc.lft.to/lastmile_qr_scan", "android": "https://dc.lft.to/lastmile_qr_scan"}, "lon": -77.0886335, "type": "electric_bike"}, {"bike_id": "0e102c2a13e337617ef7cd5893f05576", "is_reserved": 0, "fusion_lon": 0.0, "lat": 38.898133333333334, "is_disabled": 0, "name": "0e102c2a13e337617ef7cd5893f05576", "fusion_lat": 0.0, "rental_uris": {"ios": "https://dc.lft.to/lastmile_qr_scan", "android": "https://dc.lft.to/lastmile_qr_scan"}, "lon": -77.00627866666666, "type": "electric_scooter"}, {"bike_id": "73a2c7e5c77af681e3c1e0b80f9fc432", "is_reserved": 0, "fusion_lon": 0.0, "lat": 38.9038805, "is_disabled": 0, "name": "73a2c7e5c77af681e3c1e0b80f9fc432", "fusion_lat": 0.0, "rental_uris": {"ios": "https://dc.lft.to/lastmile_qr_scan", "android": "https://dc.lft.to/lastmile_qr_scan"}, "lon": -77.04377283333334, "type": "electric_scooter"}, {"bike_id": "8250cbb0fbe1122bc0eba6cf7fc96e2b", "is_reserved": 0, "fusion_lon": 0.0, "lat": 38.926670333333334, "is_disabled": 0, "name": "8250cbb0fbe1122bc0eba6cf7fc96e2b", "fusion_lat": 0.0, "rental_uris": {"ios": "https://dc.lft.to/lastmile_qr_scan", "android": "https://dc.lft.to/lastmile_qr_scan"}, "lon": -77.031189, "type": "electric_scooter"}, {"bike_id": "6c7967287a4bc7717b80d48fea1d3ec7", "is_reserved": 0, "fusion_lon": 0.0, "lat": 38.904754833333335, "is_disabled": 0, "name": "6c7967287a4bc7717b80d48fea1d3ec7", "fusion_lat": 0.0, "rental_uris": {"ios": "https://dc.lft.to/lastmile_qr_scan", "android": "https://dc.lft.to/lastmile_qr_scan"}, "lon": -77.00733766666667, "type": "electric_scooter"}, {"bike_id": "48ecc4ff4c973da575a2361853b498f2", "is_reserved": 0, "fusion_lon": 0.0, "lat": 38.92869016666667, "is_disabled": 0, "name": "48ecc4ff4c973da575a2361853b498f2", "fusion_lat": 0.0, "rental_uris": {"ios": "https://dc.lft.to/lastmile_qr_scan", "android": "https://dc.lft.to/lastmile_qr_scan"}, "lon": -77.02730533333333, "type": "electric_scooter"}, {"bike_id": "eff18c663c1e068a6440ab8239f7163f", "is_reserved": 0, "fusion_lon": 0.0, "lat": 38.9732345, "is_disabled": 0, "name": "eff18c663c1e068a6440ab8239f7163f", "fusion_lat": 0.0, "rental_uris": {"ios": "https://dc.lft.to/lastmile_qr_scan", "android": "https://dc.lft.to/lastmile_qr_scan"}, "lon": -77.02151266666667, "type": "electric_bike"}, {"bike_id": "0c34652f9e95e2c80326a20e3deb37d7", "is_reserved": 0, "fusion_lon": 0.0, "lat": 38.903218833333334, "is_disabled": 0, "name": "0c34652f9e95e2c80326a20e3deb37d7", "fusion_lat": 0.0, "rental_uris": {"ios": "https://dc.lft.to/lastmile_qr_scan", "android": "https://dc.lft.to/lastmile_qr_scan"}, "lon": -77.03845133333333, "type": "electric_scooter"}, {"bike_id": "9a0b4e008cf560798036553a39f4bc9b", "is_reserved": 0, "fusion_lon": 0.0, "lat": 38.91711983333333, "is_disabled": 0, "name": "9a0b4e008cf560798036553a39f4bc9b", "fusion_lat": 0.0, "rental_uris": {"ios": "https://dc.lft.to/lastmile_qr_scan", "android": "https://dc.lft.to/lastmile_qr_scan"}, "lon": -77.03243966666666, "type": "electric_scooter"}, {"bike_id": "9c0def9468fa0d929f76b2a95c24fd90", "is_reserved": 0, "fusion_lon": 0.0, "lat": 38.873343, "is_disabled": 0, "name": "9c0def9468fa0d929f76b2a95c24fd90", "fusion_lat": 0.0, "rental_uris": {"ios": "https://dc.lft.to/lastmile_qr_scan", "android": "https://dc.lft.to/lastmile_qr_scan"}, "lon": -77.1061865, "type": "electric_bike"}, {"bike_id": "9ecdc39d456a96fd1ced3bc6d2942633", "is_reserved": 0, "fusion_lon": 0.0, "lat": 38.895487333333335, "is_disabled": 0, "name": "9ecdc39d456a96fd1ced3bc6d2942633", "fusion_lat": 0.0, "rental_uris": {"ios": "https://dc.lft.to/lastmile_qr_scan", "android": "https://dc.lft.to/lastmile_qr_scan"}, "lon": -77.00915116666667, "type": "electric_scooter"}, {"bike_id": "54f473f5e00f3a13df6e620b1aa83eda", "is_reserved": 0, "fusion_lon": 0.0, "lat": 38.887639, "is_disabled": 0, "name": "54f473f5e00f3a13df6e620b1aa83eda", "fusion_lat": 0.0, "rental_uris": {"ios": "https://dc.lft.to/lastmile_qr_scan", "android": "https://dc.lft.to/lastmile_qr_scan"}, "lon": -76.98054733333333, "type": "electric_scooter"}, {"bike_id": "53bc7036345b7025bf80be28c113712b", "is_reserved": 0, "fusion_lon": 0.0, "lat": 38.90787866666667, "is_disabled": 0, "name": "53bc7036345b7025bf80be28c113712b", "fusion_lat": 0.0, "rental_uris": {"ios": "https://dc.lft.to/lastmile_qr_scan", "android": "https://dc.lft.to/lastmile_qr_scan"}, "lon": -77.04291666666667, "type": "electric_scooter"}, {"bike_id": "f28bed6a11b1c3d177bcf70235f8d94c", "is_reserved": 0, "fusion_lon": 0.0, "lat": 38.935086, "is_disabled": 0, "name": "f28bed6a11b1c3d177bcf70235f8d94c", "fusion_lat": 0.0, "rental_uris": {"ios": "https://dc.lft.to/lastmile_qr_scan", "android": "https://dc.lft.to/lastmile_qr_scan"}, "lon": -77.01997433333334, "type": "electric_scooter"}, {"bike_id": "76bf6ae4f9bf2ed5aeccc8df49910fe6", "is_reserved": 0, "fusion_lon": 0.0, "lat": 38.899027, "is_disabled": 0, "name": "76bf6ae4f9bf2ed5aeccc8df49910fe6", "fusion_lat": 0.0, "rental_uris": {"ios": "https://dc.lft.to/lastmile_qr_scan", "android": "https://dc.lft.to/lastmile_qr_scan"}, "lon": -77.03325, "type": "electric_scooter"}, {"bike_id": "9bf005b7c45cf5e67e3df8e91fc7c9d7", "is_reserved": 0, "fusion_lon": 0.0, "lat": 38.94039433333333, "is_disabled": 0, "name": "9bf005b7c45cf5e67e3df8e91fc7c9d7", "fusion_lat": 0.0, "rental_uris": {"ios": "https://dc.lft.to/lastmile_qr_scan", "android": "https://dc.lft.to/lastmile_qr_scan"}, "lon": -77.02903183333333, "type": "electric_scooter"}, {"bike_id": "87ecdd53bde8f34b8e8f241900ce78f0", "is_reserved": 0, "fusion_lon": 0.0, "lat": 38.94368216666667, "is_disabled": 0, "name": "87ecdd53bde8f34b8e8f241900ce78f0", "fusion_lat": 0.0, "rental_uris": {"ios": "https://dc.lft.to/lastmile_qr_scan", "android": "https://dc.lft.to/lastmile_qr_scan"}, "lon": -77.02181816666666, "type": "electric_scooter"}, {"bike_id": "519b01fd2ac11e430f47c27301212dd3", "is_reserved": 0, "fusion_lon": 0.0, "lat": 38.9709245, "is_disabled": 0, "name": "519b01fd2ac11e430f47c27301212dd3", "fusion_lat": 0.0, "rental_uris": {"ios": "https://dc.lft.to/lastmile_qr_scan", "android": "https://dc.lft.to/lastmile_qr_scan"}, "lon": -77.06965683333334, "type": "electric_bike"}, {"bike_id": "061bbe7b0960e4fd004f414be884e60d", "is_reserved": 0, "fusion_lon": 0.0, "lat": 38.924080333333336, "is_disabled": 0, "name": "061bbe7b0960e4fd004f414be884e60d", "fusion_lat": 0.0, "rental_uris": {"ios": "https://dc.lft.to/lastmile_qr_scan", "android": "https://dc.lft.to/lastmile_qr_scan"}, "lon": -77.02957816666667, "type": "electric_scooter"}, {"bike_id": "c908cfcaa97f1c436dfc96dcd1a9c0eb", "is_reserved": 0, "fusion_lon": 0.0, "lat": 38.9263485, "is_disabled": 0, "name": "c908cfcaa97f1c436dfc96dcd1a9c0eb", "fusion_lat": 0.0, "rental_uris": {"ios": "https://dc.lft.to/lastmile_qr_scan", "android": "https://dc.lft.to/lastmile_qr_scan"}, "lon": -77.03787233333334, "type": "electric_scooter"}, {"bike_id": "1dee57e98abb92b72f91f863cdbade93", "is_reserved": 0, "fusion_lon": 0.0, "lat": 38.92585116666667, "is_disabled": 0, "name": "1dee57e98abb92b72f91f863cdbade93", "fusion_lat": 0.0, "rental_uris": {"ios": "https://dc.lft.to/lastmile_qr_scan", "android": "https://dc.lft.to/lastmile_qr_scan"}, "lon": -77.00475616666667, "type": "electric_scooter"}, {"bike_id": "27dd1548d94aa35801fb9f098c1784f7", "is_reserved": 0, "fusion_lon": 0.0, "lat": 38.89341533333333, "is_disabled": 0, "name": "27dd1548d94aa35801fb9f098c1784f7", "fusion_lat": 0.0, "rental_uris": {"ios": "https://dc.lft.to/lastmile_qr_scan", "android": "https://dc.lft.to/lastmile_qr_scan"}, "lon": -76.98444416666666, "type": "electric_scooter"}, {"bike_id": "c4c2528b5cba413affc3e97edbd3a0ce", "is_reserved": 0, "fusion_lon": 0.0, "lat": 38.93586333333333, "is_disabled": 0, "name": "c4c2528b5cba413affc3e97edbd3a0ce", "fusion_lat": 0.0, "rental_uris": {"ios": "https://dc.lft.to/lastmile_qr_scan", "android": "https://dc.lft.to/lastmile_qr_scan"}, "lon": -77.0276115, "type": "electric_scooter"}, {"bike_id": "6bf7f330b858af8111af6fd7ccc16a38", "is_reserved": 0, "fusion_lon": 0.0, "lat": 38.885007333333334, "is_disabled": 0, "name": "6bf7f330b858af8111af6fd7ccc16a38", "fusion_lat": 0.0, "rental_uris": {"ios": "https://dc.lft.to/lastmile_qr_scan", "android": "https://dc.lft.to/lastmile_qr_scan"}, "lon": -77.015447, "type": "electric_scooter"}, {"bike_id": "b880630c39ba046ca7eac748df2c97db", "is_reserved": 0, "fusion_lon": 0.0, "lat": 38.913323166666665, "is_disabled": 0, "name": "b880630c39ba046ca7eac748df2c97db", "fusion_lat": 0.0, "rental_uris": {"ios": "https://dc.lft.to/lastmile_qr_scan", "android": "https://dc.lft.to/lastmile_qr_scan"}, "lon": -77.048691, "type": "electric_scooter"}, {"bike_id": "f8c669625b7ed8702fd01a8a96232950", "is_reserved": 0, "fusion_lon": 0.0, "lat": 38.91710166666667, "is_disabled": 0, "name": "f8c669625b7ed8702fd01a8a96232950", "fusion_lat": 0.0, "rental_uris": {"ios": "https://dc.lft.to/lastmile_qr_scan", "android": "https://dc.lft.to/lastmile_qr_scan"}, "lon": -77.03460266666667, "type": "electric_scooter"}, {"bike_id": "506d73c47e7d3ee7dba160c568332ac9", "is_reserved": 0, "fusion_lon": 0.0, "lat": 38.90010183333333, "is_disabled": 0, "name": "506d73c47e7d3ee7dba160c568332ac9", "fusion_lat": 0.0, "rental_uris": {"ios": "https://dc.lft.to/lastmile_qr_scan", "android": "https://dc.lft.to/lastmile_qr_scan"}, "lon": -76.9911975, "type": "electric_scooter"}, {"bike_id": "303d5e198637212996f6b80d7a788451", "is_reserved": 0, "fusion_lon": 0.0, "lat": 38.9265315, "is_disabled": 0, "name": "303d5e198637212996f6b80d7a788451", "fusion_lat": 0.0, "rental_uris": {"ios": "https://dc.lft.to/lastmile_qr_scan", "android": "https://dc.lft.to/lastmile_qr_scan"}, "lon": -77.03714616666667, "type": "electric_scooter"}, {"bike_id": "c2bd26e76de3edc45516cfee2178b73e", "is_reserved": 0, "fusion_lon": 0.0, "lat": 38.878394166666666, "is_disabled": 0, "name": "c2bd26e76de3edc45516cfee2178b73e", "fusion_lat": 0.0, "rental_uris": {"ios": "https://dc.lft.to/lastmile_qr_scan", "android": "https://dc.lft.to/lastmile_qr_scan"}, "lon": -77.00484233333333, "type": "electric_scooter"}, {"bike_id": "cef5e4e764ebe3f5eefbecfb6d27f2b3", "is_reserved": 0, "fusion_lon": 0.0, "lat": 38.927593333333334, "is_disabled": 0, "name": "cef5e4e764ebe3f5eefbecfb6d27f2b3", "fusion_lat": 0.0, "rental_uris": {"ios": "https://dc.lft.to/lastmile_qr_scan", "android": "https://dc.lft.to/lastmile_qr_scan"}, "lon": -77.02686133333333, "type": "electric_scooter"}, {"bike_id": "8455a401b01622b98b5ea869a5dcab57", "is_reserved": 0, "fusion_lon": 0.0, "lat": 38.8903355, "is_disabled": 0, "name": "8455a401b01622b98b5ea869a5dcab57", "fusion_lat": 0.0, "rental_uris": {"ios": "https://dc.lft.to/lastmile_qr_scan", "android": "https://dc.lft.to/lastmile_qr_scan"}, "lon": -76.93626383333333, "type": "electric_scooter"}, {"bike_id": "59c06655f4507703dcba6d78300b720d", "is_reserved": 0, "fusion_lon": 0.0, "lat": 38.853131166666664, "is_disabled": 0, "name": "59c06655f4507703dcba6d78300b720d", "fusion_lat": 0.0, "rental_uris": {"ios": "https://dc.lft.to/lastmile_qr_scan", "android": "https://dc.lft.to/lastmile_qr_scan"}, "lon": -76.980246, "type": "electric_bike"}, {"bike_id": "cb668b385e51bb6e9f5770204b9d9c96", "is_reserved": 0, "fusion_lon": 0.0, "lat": 38.89883483333333, "is_disabled": 0, "name": "cb668b385e51bb6e9f5770204b9d9c96", "fusion_lat": 0.0, "rental_uris": {"ios": "https://dc.lft.to/lastmile_qr_scan", "android": "https://dc.lft.to/lastmile_qr_scan"}, "lon": -77.0328845, "type": "electric_scooter"}, {"bike_id": "7b96625f6df4fb4498aeda8974d747c7", "is_reserved": 0, "fusion_lon": 0.0, "lat": 38.88491466666667, "is_disabled": 0, "name": "7b96625f6df4fb4498aeda8974d747c7", "fusion_lat": 0.0, "rental_uris": {"ios": "https://dc.lft.to/lastmile_qr_scan", "android": "https://dc.lft.to/lastmile_qr_scan"}, "lon": -77.0072815, "type": "electric_scooter"}, {"bike_id": "c565ad5aa13443dd2e2167b3ecb2c75b", "is_reserved": 0, "fusion_lon": 0.0, "lat": 38.89819983333334, "is_disabled": 0, "name": "c565ad5aa13443dd2e2167b3ecb2c75b", "fusion_lat": 0.0, "rental_uris": {"ios": "https://dc.lft.to/lastmile_qr_scan", "android": "https://dc.lft.to/lastmile_qr_scan"}, "lon": -77.032983, "type": "electric_scooter"}, {"bike_id": "8c00c8237b320bbec7c9a443a50d1877", "is_reserved": 0, "fusion_lon": 0.0, "lat": 38.9029795, "is_disabled": 0, "name": "8c00c8237b320bbec7c9a443a50d1877", "fusion_lat": 0.0, "rental_uris": {"ios": "https://dc.lft.to/lastmile_qr_scan", "android": "https://dc.lft.to/lastmile_qr_scan"}, "lon": -77.03363933333333, "type": "electric_scooter"}, {"bike_id": "a111fa3b7845d54f90e82f8db9ff8ff2", "is_reserved": 0, "fusion_lon": 0.0, "lat": 38.91587833333333, "is_disabled": 0, "name": "a111fa3b7845d54f90e82f8db9ff8ff2", "fusion_lat": 0.0, "rental_uris": {"ios": "https://dc.lft.to/lastmile_qr_scan", "android": "https://dc.lft.to/lastmile_qr_scan"}, "lon": -77.03174066666666, "type": "electric_scooter"}, {"bike_id": "5523f63360092caae37b57cfc79a7bd0", "is_reserved": 0, "fusion_lon": 0.0, "lat": 38.8427175, "is_disabled": 0, "name": "5523f63360092caae37b57cfc79a7bd0", "fusion_lat": 0.0, "rental_uris": {"ios": "https://dc.lft.to/lastmile_qr_scan", "android": "https://dc.lft.to/lastmile_qr_scan"}, "lon": -76.98840516666667, "type": "electric_bike"}, {"bike_id": "0cf519c756bcfacebb6529a913a514e7", "is_reserved": 0, "fusion_lon": 0.0, "lat": 38.89832283333333, "is_disabled": 0, "name": "0cf519c756bcfacebb6529a913a514e7", "fusion_lat": 0.0, "rental_uris": {"ios": "https://dc.lft.to/lastmile_qr_scan", "android": "https://dc.lft.to/lastmile_qr_scan"}, "lon": -77.03356833333333, "type": "electric_scooter"}, {"bike_id": "eed98becfa6b1558a1cb84f3800da031", "is_reserved": 0, "fusion_lon": 0.0, "lat": 38.900324, "is_disabled": 0, "name": "eed98becfa6b1558a1cb84f3800da031", "fusion_lat": 0.0, "rental_uris": {"ios": "https://dc.lft.to/lastmile_qr_scan", "android": "https://dc.lft.to/lastmile_qr_scan"}, "lon": -77.01158083333333, "type": "electric_scooter"}, {"bike_id": "75234f979163670374ca28fac440e5ae", "is_reserved": 0, "fusion_lon": 0.0, "lat": 38.914255, "is_disabled": 0, "name": "75234f979163670374ca28fac440e5ae", "fusion_lat": 0.0, "rental_uris": {"ios": "https://dc.lft.to/lastmile_qr_scan", "android": "https://dc.lft.to/lastmile_qr_scan"}, "lon": -77.041619, "type": "electric_scooter"}, {"bike_id": "54685fba3b706934878e2ab76807654c", "is_reserved": 0, "fusion_lon": 0.0, "lat": 38.89226566666667, "is_disabled": 0, "name": "54685fba3b706934878e2ab76807654c", "fusion_lat": 0.0, "rental_uris": {"ios": "https://dc.lft.to/lastmile_qr_scan", "android": "https://dc.lft.to/lastmile_qr_scan"}, "lon": -77.02205683333334, "type": "electric_scooter"}, {"bike_id": "b2897355394374a0dbf41c214731df27", "is_reserved": 0, "fusion_lon": 0.0, "lat": 38.839377166666665, "is_disabled": 0, "name": "b2897355394374a0dbf41c214731df27", "fusion_lat": 0.0, "rental_uris": {"ios": "https://dc.lft.to/lastmile_qr_scan", "android": "https://dc.lft.to/lastmile_qr_scan"}, "lon": -77.07901116666666, "type": "electric_bike"}, {"bike_id": "6b2645b82d12b57f68fa193c09a93ec9", "is_reserved": 0, "fusion_lon": 0.0, "lat": 38.8804665, "is_disabled": 0, "name": "6b2645b82d12b57f68fa193c09a93ec9", "fusion_lat": 0.0, "rental_uris": {"ios": "https://dc.lft.to/lastmile_qr_scan", "android": "https://dc.lft.to/lastmile_qr_scan"}, "lon": -77.01326883333333, "type": "electric_bike"}, {"bike_id": "aaa02326ad97c61215fb7b33edb121dd", "is_reserved": 0, "fusion_lon": 0.0, "lat": 38.91193833333333, "is_disabled": 0, "name": "aaa02326ad97c61215fb7b33edb121dd", "fusion_lat": 0.0, "rental_uris": {"ios": "https://dc.lft.to/lastmile_qr_scan", "android": "https://dc.lft.to/lastmile_qr_scan"}, "lon": -77.03265, "type": "electric_scooter"}, {"bike_id": "47737c028a54f1548c454b0f1e999783", "is_reserved": 0, "fusion_lon": 0.0, "lat": 38.92760216666667, "is_disabled": 0, "name": "47737c028a54f1548c454b0f1e999783", "fusion_lat": 0.0, "rental_uris": {"ios": "https://dc.lft.to/lastmile_qr_scan", "android": "https://dc.lft.to/lastmile_qr_scan"}, "lon": -77.0324505, "type": "electric_scooter"}, {"bike_id": "678927d6a46c56e379a2195bf8bfac2d", "is_reserved": 0, "fusion_lon": 0.0, "lat": 38.91252816666667, "is_disabled": 0, "name": "678927d6a46c56e379a2195bf8bfac2d", "fusion_lat": 0.0, "rental_uris": {"ios": "https://dc.lft.to/lastmile_qr_scan", "android": "https://dc.lft.to/lastmile_qr_scan"}, "lon": -77.03643416666667, "type": "electric_scooter"}, {"bike_id": "05b89419c049e64e5e3052e1c0333ff9", "is_reserved": 0, "fusion_lon": 0.0, "lat": 38.90514016666667, "is_disabled": 0, "name": "05b89419c049e64e5e3052e1c0333ff9", "fusion_lat": 0.0, "rental_uris": {"ios": "https://dc.lft.to/lastmile_qr_scan", "android": "https://dc.lft.to/lastmile_qr_scan"}, "lon": -77.06752416666667, "type": "electric_scooter"}, {"bike_id": "3ae0a2d1f4f1b5fe76378ec1f5c49f8d", "is_reserved": 0, "fusion_lon": 0.0, "lat": 38.932430333333336, "is_disabled": 0, "name": "3ae0a2d1f4f1b5fe76378ec1f5c49f8d", "fusion_lat": 0.0, "rental_uris": {"ios": "https://dc.lft.to/lastmile_qr_scan", "android": "https://dc.lft.to/lastmile_qr_scan"}, "lon": -77.03896399999999, "type": "electric_scooter"}, {"bike_id": "a8f19e73974519eb54dbb12152fb8fb0", "is_reserved": 0, "fusion_lon": 0.0, "lat": 38.93303316666667, "is_disabled": 0, "name": "a8f19e73974519eb54dbb12152fb8fb0", "fusion_lat": 0.0, "rental_uris": {"ios": "https://dc.lft.to/lastmile_qr_scan", "android": "https://dc.lft.to/lastmile_qr_scan"}, "lon": -77.028515, "type": "electric_scooter"}, {"bike_id": "fbc399fdff8941946fd5d75a82f2d544", "is_reserved": 0, "fusion_lon": 0.0, "lat": 38.90854316666667, "is_disabled": 0, "name": "fbc399fdff8941946fd5d75a82f2d544", "fusion_lat": 0.0, "rental_uris": {"ios": "https://dc.lft.to/lastmile_qr_scan", "android": "https://dc.lft.to/lastmile_qr_scan"}, "lon": -77.0272835, "type": "electric_scooter"}, {"bike_id": "5e39b056a4603d1790ca73d1a5cbb0e0", "is_reserved": 0, "fusion_lon": 0.0, "lat": 38.93393183333333, "is_disabled": 0, "name": "5e39b056a4603d1790ca73d1a5cbb0e0", "fusion_lat": 0.0, "rental_uris": {"ios": "https://dc.lft.to/lastmile_qr_scan", "android": "https://dc.lft.to/lastmile_qr_scan"}, "lon": -77.03578766666666, "type": "electric_scooter"}, {"bike_id": "8b3a12fb6de6b4a35cda47668ad47fae", "is_reserved": 0, "fusion_lon": 0.0, "lat": 38.906880666666666, "is_disabled": 0, "name": "8b3a12fb6de6b4a35cda47668ad47fae", "fusion_lat": 0.0, "rental_uris": {"ios": "https://dc.lft.to/lastmile_qr_scan", "android": "https://dc.lft.to/lastmile_qr_scan"}, "lon": -77.045254, "type": "electric_scooter"}, {"bike_id": "575292df4770c500ea9da256642cce58", "is_reserved": 0, "fusion_lon": 0.0, "lat": 38.909157, "is_disabled": 0, "name": "575292df4770c500ea9da256642cce58", "fusion_lat": 0.0, "rental_uris": {"ios": "https://dc.lft.to/lastmile_qr_scan", "android": "https://dc.lft.to/lastmile_qr_scan"}, "lon": -77.00922266666667, "type": "electric_scooter"}, {"bike_id": "9ded60611ecabd0047b2a446e2e2ac24", "is_reserved": 0, "fusion_lon": 0.0, "lat": 38.92028233333333, "is_disabled": 0, "name": "9ded60611ecabd0047b2a446e2e2ac24", "fusion_lat": 0.0, "rental_uris": {"ios": "https://dc.lft.to/lastmile_qr_scan", "android": "https://dc.lft.to/lastmile_qr_scan"}, "lon": -77.02797683333333, "type": "electric_scooter"}, {"bike_id": "2742cc4c7e678c207ecec36ded28e430", "is_reserved": 0, "fusion_lon": 0.0, "lat": 38.89227483333333, "is_disabled": 0, "name": "2742cc4c7e678c207ecec36ded28e430", "fusion_lat": 0.0, "rental_uris": {"ios": "https://dc.lft.to/lastmile_qr_scan", "android": "https://dc.lft.to/lastmile_qr_scan"}, "lon": -77.02204783333333, "type": "electric_scooter"}, {"bike_id": "d6409ff90bc178ed83a8adfab734f174", "is_reserved": 0, "fusion_lon": 0.0, "lat": 38.89221216666667, "is_disabled": 0, "name": "d6409ff90bc178ed83a8adfab734f174", "fusion_lat": 0.0, "rental_uris": {"ios": "https://dc.lft.to/lastmile_qr_scan", "android": "https://dc.lft.to/lastmile_qr_scan"}, "lon": -77.10779116666667, "type": "electric_bike"}, {"bike_id": "7718f44e47fa8660ba74d55ce54e0956", "is_reserved": 0, "fusion_lon": 0.0, "lat": 38.897294, "is_disabled": 0, "name": "7718f44e47fa8660ba74d55ce54e0956", "fusion_lat": 0.0, "rental_uris": {"ios": "https://dc.lft.to/lastmile_qr_scan", "android": "https://dc.lft.to/lastmile_qr_scan"}, "lon": -77.05469533333333, "type": "electric_scooter"}, {"bike_id": "85cf1077aeb1d3a1c11c93c458e07048", "is_reserved": 0, "fusion_lon": 0.0, "lat": 38.94291033333333, "is_disabled": 0, "name": "85cf1077aeb1d3a1c11c93c458e07048", "fusion_lat": 0.0, "rental_uris": {"ios": "https://dc.lft.to/lastmile_qr_scan", "android": "https://dc.lft.to/lastmile_qr_scan"}, "lon": -77.021771, "type": "electric_scooter"}, {"bike_id": "a94f10c4c8f164d328cf087531774bd3", "is_reserved": 0, "fusion_lon": 0.0, "lat": 38.906002, "is_disabled": 0, "name": "a94f10c4c8f164d328cf087531774bd3", "fusion_lat": 0.0, "rental_uris": {"ios": "https://dc.lft.to/lastmile_qr_scan", "android": "https://dc.lft.to/lastmile_qr_scan"}, "lon": -77.0131755, "type": "electric_scooter"}, {"bike_id": "f002356de7ceff3a4fd5026d17a6b094", "is_reserved": 0, "fusion_lon": 0.0, "lat": 38.934187, "is_disabled": 0, "name": "f002356de7ceff3a4fd5026d17a6b094", "fusion_lat": 0.0, "rental_uris": {"ios": "https://dc.lft.to/lastmile_qr_scan", "android": "https://dc.lft.to/lastmile_qr_scan"}, "lon": -77.04307233333333, "type": "electric_scooter"}, {"bike_id": "e30ccf0cdd58adb49ce7b0dfca87279e", "is_reserved": 0, "fusion_lon": 0.0, "lat": 38.891973166666666, "is_disabled": 0, "name": "e30ccf0cdd58adb49ce7b0dfca87279e", "fusion_lat": 0.0, "rental_uris": {"ios": "https://dc.lft.to/lastmile_qr_scan", "android": "https://dc.lft.to/lastmile_qr_scan"}, "lon": -77.00242983333334, "type": "electric_bike"}, {"bike_id": "4fef72ca0c804f8299d7479403a557a2", "is_reserved": 0, "fusion_lon": 0.0, "lat": 38.91192383333333, "is_disabled": 0, "name": "4fef72ca0c804f8299d7479403a557a2", "fusion_lat": 0.0, "rental_uris": {"ios": "https://dc.lft.to/lastmile_qr_scan", "android": "https://dc.lft.to/lastmile_qr_scan"}, "lon": -77.00218583333333, "type": "electric_scooter"}, {"bike_id": "62221a7690acbcd2c5660cc4a6a180d1", "is_reserved": 0, "fusion_lon": 0.0, "lat": 38.89193483333333, "is_disabled": 0, "name": "62221a7690acbcd2c5660cc4a6a180d1", "fusion_lat": 0.0, "rental_uris": {"ios": "https://dc.lft.to/lastmile_qr_scan", "android": "https://dc.lft.to/lastmile_qr_scan"}, "lon": -77.029808, "type": "electric_scooter"}, {"bike_id": "bf258fa1e108d1bd9108a936624262c6", "is_reserved": 0, "fusion_lon": 0.0, "lat": 38.8979995, "is_disabled": 0, "name": "bf258fa1e108d1bd9108a936624262c6", "fusion_lat": 0.0, "rental_uris": {"ios": "https://dc.lft.to/lastmile_qr_scan", "android": "https://dc.lft.to/lastmile_qr_scan"}, "lon": -77.032985, "type": "electric_scooter"}, {"bike_id": "b19cac67c4260f0697757a220416ee0c", "is_reserved": 0, "fusion_lon": 0.0, "lat": 38.9224125, "is_disabled": 0, "name": "b19cac67c4260f0697757a220416ee0c", "fusion_lat": 0.0, "rental_uris": {"ios": "https://dc.lft.to/lastmile_qr_scan", "android": "https://dc.lft.to/lastmile_qr_scan"}, "lon": -77.01009633333334, "type": "electric_scooter"}, {"bike_id": "1b168f055b1b523b49779ec26a40c8bf", "is_reserved": 0, "fusion_lon": 0.0, "lat": 38.90719966666666, "is_disabled": 0, "name": "1b168f055b1b523b49779ec26a40c8bf", "fusion_lat": 0.0, "rental_uris": {"ios": "https://dc.lft.to/lastmile_qr_scan", "android": "https://dc.lft.to/lastmile_qr_scan"}, "lon": -77.0464695, "type": "electric_scooter"}, {"bike_id": "1a73c1b520ef75be624d9f33704cab20", "is_reserved": 0, "fusion_lon": 0.0, "lat": 38.92849566666666, "is_disabled": 0, "name": "1a73c1b520ef75be624d9f33704cab20", "fusion_lat": 0.0, "rental_uris": {"ios": "https://dc.lft.to/lastmile_qr_scan", "android": "https://dc.lft.to/lastmile_qr_scan"}, "lon": -77.05429666666667, "type": "electric_scooter"}, {"bike_id": "57c1cf350961a3b071dc3130b28b1dc0", "is_reserved": 0, "fusion_lon": 0.0, "lat": 38.896232833333336, "is_disabled": 0, "name": "57c1cf350961a3b071dc3130b28b1dc0", "fusion_lat": 0.0, "rental_uris": {"ios": "https://dc.lft.to/lastmile_qr_scan", "android": "https://dc.lft.to/lastmile_qr_scan"}, "lon": -76.99851066666666, "type": "electric_scooter"}, {"bike_id": "f9aebe92b7283db7db3545ca6b74d670", "is_reserved": 0, "fusion_lon": 0.0, "lat": 38.89479383333333, "is_disabled": 0, "name": "f9aebe92b7283db7db3545ca6b74d670", "fusion_lat": 0.0, "rental_uris": {"ios": "https://dc.lft.to/lastmile_qr_scan", "android": "https://dc.lft.to/lastmile_qr_scan"}, "lon": -77.02299483333333, "type": "electric_scooter"}, {"bike_id": "3341a189f5d19319b27af4471187e65c", "is_reserved": 0, "fusion_lon": 0.0, "lat": 38.9027705, "is_disabled": 0, "name": "3341a189f5d19319b27af4471187e65c", "fusion_lat": 0.0, "rental_uris": {"ios": "https://dc.lft.to/lastmile_qr_scan", "android": "https://dc.lft.to/lastmile_qr_scan"}, "lon": -77.05907566666667, "type": "electric_scooter"}, {"bike_id": "996aced59c2444f2805ad17f2ae94563", "is_reserved": 0, "fusion_lon": 0.0, "lat": 38.90726083333333, "is_disabled": 0, "name": "996aced59c2444f2805ad17f2ae94563", "fusion_lat": 0.0, "rental_uris": {"ios": "https://dc.lft.to/lastmile_qr_scan", "android": "https://dc.lft.to/lastmile_qr_scan"}, "lon": -77.043429, "type": "electric_scooter"}, {"bike_id": "22f0c3e00b772800de751c9ffd9157e1", "is_reserved": 0, "fusion_lon": 0.0, "lat": 38.89382716666667, "is_disabled": 0, "name": "22f0c3e00b772800de751c9ffd9157e1", "fusion_lat": 0.0, "rental_uris": {"ios": "https://dc.lft.to/lastmile_qr_scan", "android": "https://dc.lft.to/lastmile_qr_scan"}, "lon": -77.02255716666667, "type": "electric_bike"}, {"bike_id": "cbfa22d5dfb58a4746a74053b913de9c", "is_reserved": 0, "fusion_lon": 0.0, "lat": 38.92900616666667, "is_disabled": 0, "name": "cbfa22d5dfb58a4746a74053b913de9c", "fusion_lat": 0.0, "rental_uris": {"ios": "https://dc.lft.to/lastmile_qr_scan", "android": "https://dc.lft.to/lastmile_qr_scan"}, "lon": -77.03168466666666, "type": "electric_scooter"}, {"bike_id": "280a9deaac95fced19ec5015972dc232", "is_reserved": 0, "fusion_lon": 0.0, "lat": 38.89631416666667, "is_disabled": 0, "name": "280a9deaac95fced19ec5015972dc232", "fusion_lat": 0.0, "rental_uris": {"ios": "https://dc.lft.to/lastmile_qr_scan", "android": "https://dc.lft.to/lastmile_qr_scan"}, "lon": -77.028135, "type": "electric_scooter"}, {"bike_id": "290b8a4733b7218bf8c97c6dfa9d79c3", "is_reserved": 0, "fusion_lon": 0.0, "lat": 38.907929, "is_disabled": 0, "name": "290b8a4733b7218bf8c97c6dfa9d79c3", "fusion_lat": 0.0, "rental_uris": {"ios": "https://dc.lft.to/lastmile_qr_scan", "android": "https://dc.lft.to/lastmile_qr_scan"}, "lon": -77.00964283333333, "type": "electric_scooter"}, {"bike_id": "7ade92816f988274951274c77b0743dd", "is_reserved": 0, "fusion_lon": 0.0, "lat": 38.869064, "is_disabled": 0, "name": "7ade92816f988274951274c77b0743dd", "fusion_lat": 0.0, "rental_uris": {"ios": "https://dc.lft.to/lastmile_qr_scan", "android": "https://dc.lft.to/lastmile_qr_scan"}, "lon": -77.1317735, "type": "electric_bike"}, {"bike_id": "0bc4a6d17513265b0117ed61488ebbf7", "is_reserved": 0, "fusion_lon": 0.0, "lat": 38.915506666666666, "is_disabled": 0, "name": "0bc4a6d17513265b0117ed61488ebbf7", "fusion_lat": 0.0, "rental_uris": {"ios": "https://dc.lft.to/lastmile_qr_scan", "android": "https://dc.lft.to/lastmile_qr_scan"}, "lon": -77.038559, "type": "electric_scooter"}, {"bike_id": "c3e78a8f2d30ebf49cadf90ba6c9f98e", "is_reserved": 0, "fusion_lon": 0.0, "lat": 38.9068505, "is_disabled": 0, "name": "c3e78a8f2d30ebf49cadf90ba6c9f98e", "fusion_lat": 0.0, "rental_uris": {"ios": "https://dc.lft.to/lastmile_qr_scan", "android": "https://dc.lft.to/lastmile_qr_scan"}, "lon": -77.01348266666666, "type": "electric_scooter"}, {"bike_id": "c46f8c2e69851d9286d38a16c742a04a", "is_reserved": 0, "fusion_lon": 0.0, "lat": 38.9279315, "is_disabled": 0, "name": "c46f8c2e69851d9286d38a16c742a04a", "fusion_lat": 0.0, "rental_uris": {"ios": "https://dc.lft.to/lastmile_qr_scan", "android": "https://dc.lft.to/lastmile_qr_scan"}, "lon": -77.03197883333333, "type": "electric_scooter"}, {"bike_id": "d66689a61634376f2ed0e8511d7a61cb", "is_reserved": 0, "fusion_lon": 0.0, "lat": 38.89007466666666, "is_disabled": 0, "name": "d66689a61634376f2ed0e8511d7a61cb", "fusion_lat": 0.0, "rental_uris": {"ios": "https://dc.lft.to/lastmile_qr_scan", "android": "https://dc.lft.to/lastmile_qr_scan"}, "lon": -77.04891083333334, "type": "electric_scooter"}, {"bike_id": "887a73e4ae86a22c113648f8a1339f26", "is_reserved": 0, "fusion_lon": 0.0, "lat": 38.9141445, "is_disabled": 0, "name": "887a73e4ae86a22c113648f8a1339f26", "fusion_lat": 0.0, "rental_uris": {"ios": "https://dc.lft.to/lastmile_qr_scan", "android": "https://dc.lft.to/lastmile_qr_scan"}, "lon": -77.0413765, "type": "electric_scooter"}, {"bike_id": "b645b41bcb5514d66b21dde36e95fe5b", "is_reserved": 0, "fusion_lon": 0.0, "lat": 38.91338533333333, "is_disabled": 0, "name": "b645b41bcb5514d66b21dde36e95fe5b", "fusion_lat": 0.0, "rental_uris": {"ios": "https://dc.lft.to/lastmile_qr_scan", "android": "https://dc.lft.to/lastmile_qr_scan"}, "lon": -77.03116833333333, "type": "electric_scooter"}, {"bike_id": "7b94fd26d3bc9044b1fe4a50f4d93ef8", "is_reserved": 0, "fusion_lon": 0.0, "lat": 38.908634, "is_disabled": 0, "name": "7b94fd26d3bc9044b1fe4a50f4d93ef8", "fusion_lat": 0.0, "rental_uris": {"ios": "https://dc.lft.to/lastmile_qr_scan", "android": "https://dc.lft.to/lastmile_qr_scan"}, "lon": -76.99954966666667, "type": "electric_scooter"}, {"bike_id": "da6996c3160fc110961f25e5aa7474da", "is_reserved": 0, "fusion_lon": 0.0, "lat": 38.9061295, "is_disabled": 0, "name": "da6996c3160fc110961f25e5aa7474da", "fusion_lat": 0.0, "rental_uris": {"ios": "https://dc.lft.to/lastmile_qr_scan", "android": "https://dc.lft.to/lastmile_qr_scan"}, "lon": -77.05146233333333, "type": "electric_scooter"}, {"bike_id": "3effc938762be6bc68a387eea19329d3", "is_reserved": 0, "fusion_lon": 0.0, "lat": 38.900360666666664, "is_disabled": 0, "name": "3effc938762be6bc68a387eea19329d3", "fusion_lat": 0.0, "rental_uris": {"ios": "https://dc.lft.to/lastmile_qr_scan", "android": "https://dc.lft.to/lastmile_qr_scan"}, "lon": -77.002134, "type": "electric_scooter"}, {"bike_id": "14553bc2b84bf0e7124bb68099c837ca", "is_reserved": 0, "fusion_lon": 0.0, "lat": 38.896822666666665, "is_disabled": 0, "name": "14553bc2b84bf0e7124bb68099c837ca", "fusion_lat": 0.0, "rental_uris": {"ios": "https://dc.lft.to/lastmile_qr_scan", "android": "https://dc.lft.to/lastmile_qr_scan"}, "lon": -76.99620933333334, "type": "electric_scooter"}, {"bike_id": "d604d79a5fb9d734d521db0d67dda49e", "is_reserved": 0, "fusion_lon": 0.0, "lat": 38.867098, "is_disabled": 0, "name": "d604d79a5fb9d734d521db0d67dda49e", "fusion_lat": 0.0, "rental_uris": {"ios": "https://dc.lft.to/lastmile_qr_scan", "android": "https://dc.lft.to/lastmile_qr_scan"}, "lon": -76.987197, "type": "electric_scooter"}, {"bike_id": "783f393548b6071c7b10fae864b8989b", "is_reserved": 0, "fusion_lon": 0.0, "lat": 38.904378666666666, "is_disabled": 0, "name": "783f393548b6071c7b10fae864b8989b", "fusion_lat": 0.0, "rental_uris": {"ios": "https://dc.lft.to/lastmile_qr_scan", "android": "https://dc.lft.to/lastmile_qr_scan"}, "lon": -77.017081, "type": "electric_scooter"}, {"bike_id": "3496f24f50489124b4db2ae2a7264c6f", "is_reserved": 0, "fusion_lon": 0.0, "lat": 38.842915, "is_disabled": 0, "name": "3496f24f50489124b4db2ae2a7264c6f", "fusion_lat": 0.0, "rental_uris": {"ios": "https://dc.lft.to/lastmile_qr_scan", "android": "https://dc.lft.to/lastmile_qr_scan"}, "lon": -76.99950283333334, "type": "electric_scooter"}, {"bike_id": "e12bc71b1d930b8cbf2da1741e27aeb8", "is_reserved": 0, "fusion_lon": 0.0, "lat": 38.9173995, "is_disabled": 0, "name": "e12bc71b1d930b8cbf2da1741e27aeb8", "fusion_lat": 0.0, "rental_uris": {"ios": "https://dc.lft.to/lastmile_qr_scan", "android": "https://dc.lft.to/lastmile_qr_scan"}, "lon": -77.007514, "type": "electric_scooter"}, {"bike_id": "e9e9e3994d2e156ea00dc7d5a0730906", "is_reserved": 0, "fusion_lon": 0.0, "lat": 38.9036695, "is_disabled": 0, "name": "e9e9e3994d2e156ea00dc7d5a0730906", "fusion_lat": 0.0, "rental_uris": {"ios": "https://dc.lft.to/lastmile_qr_scan", "android": "https://dc.lft.to/lastmile_qr_scan"}, "lon": -77.01902733333333, "type": "electric_scooter"}, {"bike_id": "69005baab4c83d40511f5c1c40e08aee", "is_reserved": 0, "fusion_lon": 0.0, "lat": 38.90755566666667, "is_disabled": 0, "name": "69005baab4c83d40511f5c1c40e08aee", "fusion_lat": 0.0, "rental_uris": {"ios": "https://dc.lft.to/lastmile_qr_scan", "android": "https://dc.lft.to/lastmile_qr_scan"}, "lon": -77.00079133333334, "type": "electric_scooter"}, {"bike_id": "d0ff99f42231883a7cb44379d8a80d71", "is_reserved": 0, "fusion_lon": 0.0, "lat": 38.94050566666667, "is_disabled": 0, "name": "d0ff99f42231883a7cb44379d8a80d71", "fusion_lat": 0.0, "rental_uris": {"ios": "https://dc.lft.to/lastmile_qr_scan", "android": "https://dc.lft.to/lastmile_qr_scan"}, "lon": -77.092678, "type": "electric_scooter"}, {"bike_id": "667ba437cb8214e66ec8899cc650c1e0", "is_reserved": 0, "fusion_lon": 0.0, "lat": 38.90309333333333, "is_disabled": 0, "name": "667ba437cb8214e66ec8899cc650c1e0", "fusion_lat": 0.0, "rental_uris": {"ios": "https://dc.lft.to/lastmile_qr_scan", "android": "https://dc.lft.to/lastmile_qr_scan"}, "lon": -77.03864933333334, "type": "electric_scooter"}, {"bike_id": "e21f49b9f3bc3ae0a5ac04443c4141ac", "is_reserved": 0, "fusion_lon": 0.0, "lat": 38.974279333333335, "is_disabled": 0, "name": "e21f49b9f3bc3ae0a5ac04443c4141ac", "fusion_lat": 0.0, "rental_uris": {"ios": "https://dc.lft.to/lastmile_qr_scan", "android": "https://dc.lft.to/lastmile_qr_scan"}, "lon": -77.01520916666666, "type": "electric_scooter"}, {"bike_id": "fa3a6f0f278b34c5755c90b6eeb87af9", "is_reserved": 0, "fusion_lon": 0.0, "lat": 38.927425, "is_disabled": 0, "name": "fa3a6f0f278b34c5755c90b6eeb87af9", "fusion_lat": 0.0, "rental_uris": {"ios": "https://dc.lft.to/lastmile_qr_scan", "android": "https://dc.lft.to/lastmile_qr_scan"}, "lon": -77.012035, "type": "electric_scooter"}, {"bike_id": "70b4307ffaa89ffee9a954373b086d85", "is_reserved": 0, "fusion_lon": 0.0, "lat": 38.943962, "is_disabled": 0, "name": "70b4307ffaa89ffee9a954373b086d85", "fusion_lat": 0.0, "rental_uris": {"ios": "https://dc.lft.to/lastmile_qr_scan", "android": "https://dc.lft.to/lastmile_qr_scan"}, "lon": -77.0389205, "type": "electric_scooter"}, {"bike_id": "6f357a0fa03802bb3b0bf6c11b5efa7e", "is_reserved": 0, "fusion_lon": 0.0, "lat": 38.90579316666667, "is_disabled": 0, "name": "6f357a0fa03802bb3b0bf6c11b5efa7e", "fusion_lat": 0.0, "rental_uris": {"ios": "https://dc.lft.to/lastmile_qr_scan", "android": "https://dc.lft.to/lastmile_qr_scan"}, "lon": -77.046661, "type": "electric_scooter"}, {"bike_id": "1a08f76637556dedd0447b1b74709c7d", "is_reserved": 0, "fusion_lon": 0.0, "lat": 38.89872066666667, "is_disabled": 0, "name": "1a08f76637556dedd0447b1b74709c7d", "fusion_lat": 0.0, "rental_uris": {"ios": "https://dc.lft.to/lastmile_qr_scan", "android": "https://dc.lft.to/lastmile_qr_scan"}, "lon": -76.93159366666667, "type": "electric_scooter"}, {"bike_id": "764d5a1ceb8c080256b8a34c00912cf4", "is_reserved": 0, "fusion_lon": 0.0, "lat": 38.901253, "is_disabled": 0, "name": "764d5a1ceb8c080256b8a34c00912cf4", "fusion_lat": 0.0, "rental_uris": {"ios": "https://dc.lft.to/lastmile_qr_scan", "android": "https://dc.lft.to/lastmile_qr_scan"}, "lon": -77.04362966666666, "type": "electric_scooter"}, {"bike_id": "e66aec52ba2a6ac8ec53fce534415653", "is_reserved": 0, "fusion_lon": 0.0, "lat": 38.912429, "is_disabled": 0, "name": "e66aec52ba2a6ac8ec53fce534415653", "fusion_lat": 0.0, "rental_uris": {"ios": "https://dc.lft.to/lastmile_qr_scan", "android": "https://dc.lft.to/lastmile_qr_scan"}, "lon": -77.01615666666666, "type": "electric_scooter"}, {"bike_id": "28c508e8678a09a16dd5e303cef9ed3d", "is_reserved": 0, "fusion_lon": 0.0, "lat": 38.924892, "is_disabled": 0, "name": "28c508e8678a09a16dd5e303cef9ed3d", "fusion_lat": 0.0, "rental_uris": {"ios": "https://dc.lft.to/lastmile_qr_scan", "android": "https://dc.lft.to/lastmile_qr_scan"}, "lon": -77.02716166666667, "type": "electric_scooter"}, {"bike_id": "f8b6e4680aac038848e8e83bed85d61e", "is_reserved": 0, "fusion_lon": 0.0, "lat": 38.92156516666667, "is_disabled": 0, "name": "f8b6e4680aac038848e8e83bed85d61e", "fusion_lat": 0.0, "rental_uris": {"ios": "https://dc.lft.to/lastmile_qr_scan", "android": "https://dc.lft.to/lastmile_qr_scan"}, "lon": -77.0329145, "type": "electric_scooter"}, {"bike_id": "53533440fea05ade201e2dcb51c7e28d", "is_reserved": 0, "fusion_lon": 0.0, "lat": 38.91780333333333, "is_disabled": 0, "name": "53533440fea05ade201e2dcb51c7e28d", "fusion_lat": 0.0, "rental_uris": {"ios": "https://dc.lft.to/lastmile_qr_scan", "android": "https://dc.lft.to/lastmile_qr_scan"}, "lon": -77.0231005, "type": "electric_scooter"}, {"bike_id": "dbb7de057e664241effc0cf7ae31bf40", "is_reserved": 0, "fusion_lon": 0.0, "lat": 38.917216, "is_disabled": 0, "name": "dbb7de057e664241effc0cf7ae31bf40", "fusion_lat": 0.0, "rental_uris": {"ios": "https://dc.lft.to/lastmile_qr_scan", "android": "https://dc.lft.to/lastmile_qr_scan"}, "lon": -77.03836616666666, "type": "electric_scooter"}, {"bike_id": "28907c235ba82185e39e04308d8a04ad", "is_reserved": 0, "fusion_lon": 0.0, "lat": 38.926264833333335, "is_disabled": 0, "name": "28907c235ba82185e39e04308d8a04ad", "fusion_lat": 0.0, "rental_uris": {"ios": "https://dc.lft.to/lastmile_qr_scan", "android": "https://dc.lft.to/lastmile_qr_scan"}, "lon": -77.033159, "type": "electric_bike"}, {"bike_id": "de6a231b5cb67adf6a6eb118658ec7a1", "is_reserved": 0, "fusion_lon": 0.0, "lat": 38.914027, "is_disabled": 0, "name": "de6a231b5cb67adf6a6eb118658ec7a1", "fusion_lat": 0.0, "rental_uris": {"ios": "https://dc.lft.to/lastmile_qr_scan", "android": "https://dc.lft.to/lastmile_qr_scan"}, "lon": -77.00154183333333, "type": "electric_scooter"}, {"bike_id": "46f92b7cad65e69ede63ca0ccdb60091", "is_reserved": 0, "fusion_lon": 0.0, "lat": 38.9127155, "is_disabled": 0, "name": "46f92b7cad65e69ede63ca0ccdb60091", "fusion_lat": 0.0, "rental_uris": {"ios": "https://dc.lft.to/lastmile_qr_scan", "android": "https://dc.lft.to/lastmile_qr_scan"}, "lon": -77.0221055, "type": "electric_scooter"}, {"bike_id": "c3e8b31e01558a14db4b3352d0c400da", "is_reserved": 0, "fusion_lon": 0.0, "lat": 38.90964833333334, "is_disabled": 0, "name": "c3e8b31e01558a14db4b3352d0c400da", "fusion_lat": 0.0, "rental_uris": {"ios": "https://dc.lft.to/lastmile_qr_scan", "android": "https://dc.lft.to/lastmile_qr_scan"}, "lon": -77.02720383333333, "type": "electric_scooter"}, {"bike_id": "de8968be71d8737366d146673db9b311", "is_reserved": 0, "fusion_lon": 0.0, "lat": 38.9207345, "is_disabled": 0, "name": "de8968be71d8737366d146673db9b311", "fusion_lat": 0.0, "rental_uris": {"ios": "https://dc.lft.to/lastmile_qr_scan", "android": "https://dc.lft.to/lastmile_qr_scan"}, "lon": -77.0242375, "type": "electric_scooter"}, {"bike_id": "28ba673c3f21691809cc27aed08841ab", "is_reserved": 0, "fusion_lon": 0.0, "lat": 38.93956566666667, "is_disabled": 0, "name": "28ba673c3f21691809cc27aed08841ab", "fusion_lat": 0.0, "rental_uris": {"ios": "https://dc.lft.to/lastmile_qr_scan", "android": "https://dc.lft.to/lastmile_qr_scan"}, "lon": -77.03273116666666, "type": "electric_scooter"}, {"bike_id": "ea60677d047668e25f38e5553049c8d2", "is_reserved": 0, "fusion_lon": 0.0, "lat": 38.892224666666664, "is_disabled": 0, "name": "ea60677d047668e25f38e5553049c8d2", "fusion_lat": 0.0, "rental_uris": {"ios": "https://dc.lft.to/lastmile_qr_scan", "android": "https://dc.lft.to/lastmile_qr_scan"}, "lon": -77.028362, "type": "electric_scooter"}, {"bike_id": "9cf69c9acf36de7a820f2c0bdb2d976f", "is_reserved": 0, "fusion_lon": 0.0, "lat": 38.90892266666667, "is_disabled": 0, "name": "9cf69c9acf36de7a820f2c0bdb2d976f", "fusion_lat": 0.0, "rental_uris": {"ios": "https://dc.lft.to/lastmile_qr_scan", "android": "https://dc.lft.to/lastmile_qr_scan"}, "lon": -77.02317, "type": "electric_scooter"}, {"bike_id": "42298d0161fe2e0fd832d4d38e053827", "is_reserved": 0, "fusion_lon": 0.0, "lat": 38.899894333333336, "is_disabled": 0, "name": "42298d0161fe2e0fd832d4d38e053827", "fusion_lat": 0.0, "rental_uris": {"ios": "https://dc.lft.to/lastmile_qr_scan", "android": "https://dc.lft.to/lastmile_qr_scan"}, "lon": -77.02163483333334, "type": "electric_scooter"}, {"bike_id": "5c2d068b72f9b5fb74d3e19cea2fbc71", "is_reserved": 0, "fusion_lon": 0.0, "lat": 38.865917833333334, "is_disabled": 0, "name": "5c2d068b72f9b5fb74d3e19cea2fbc71", "fusion_lat": 0.0, "rental_uris": {"ios": "https://dc.lft.to/lastmile_qr_scan", "android": "https://dc.lft.to/lastmile_qr_scan"}, "lon": -76.9323305, "type": "electric_bike"}, {"bike_id": "60bb0a5968f4fc47b2ab7f9681dc6f2d", "is_reserved": 0, "fusion_lon": 0.0, "lat": 38.941819833333334, "is_disabled": 0, "name": "60bb0a5968f4fc47b2ab7f9681dc6f2d", "fusion_lat": 0.0, "rental_uris": {"ios": "https://dc.lft.to/lastmile_qr_scan", "android": "https://dc.lft.to/lastmile_qr_scan"}, "lon": -77.02531216666667, "type": "electric_scooter"}, {"bike_id": "bef0acd75db3695aea883ad80bb54cc2", "is_reserved": 0, "fusion_lon": 0.0, "lat": 38.89739933333333, "is_disabled": 0, "name": "bef0acd75db3695aea883ad80bb54cc2", "fusion_lat": 0.0, "rental_uris": {"ios": "https://dc.lft.to/lastmile_qr_scan", "android": "https://dc.lft.to/lastmile_qr_scan"}, "lon": -77.02704183333333, "type": "electric_scooter"}, {"bike_id": "2c8ec4e0bb5e243a2b089baabb8785d2", "is_reserved": 0, "fusion_lon": 0.0, "lat": 38.892327333333334, "is_disabled": 0, "name": "2c8ec4e0bb5e243a2b089baabb8785d2", "fusion_lat": 0.0, "rental_uris": {"ios": "https://dc.lft.to/lastmile_qr_scan", "android": "https://dc.lft.to/lastmile_qr_scan"}, "lon": -77.02579383333334, "type": "electric_scooter"}, {"bike_id": "313691e82be20b36c4f3cade370b75cf", "is_reserved": 0, "fusion_lon": 0.0, "lat": 38.91973183333333, "is_disabled": 0, "name": "313691e82be20b36c4f3cade370b75cf", "fusion_lat": 0.0, "rental_uris": {"ios": "https://dc.lft.to/lastmile_qr_scan", "android": "https://dc.lft.to/lastmile_qr_scan"}, "lon": -77.023941, "type": "electric_scooter"}, {"bike_id": "033d1ff33bfef881083ef1a961ec14aa", "is_reserved": 0, "fusion_lon": 0.0, "lat": 38.916647833333336, "is_disabled": 0, "name": "033d1ff33bfef881083ef1a961ec14aa", "fusion_lat": 0.0, "rental_uris": {"ios": "https://dc.lft.to/lastmile_qr_scan", "android": "https://dc.lft.to/lastmile_qr_scan"}, "lon": -77.0361825, "type": "electric_scooter"}, {"bike_id": "d648e68018578a6f44ac6446de3fcdd2", "is_reserved": 0, "fusion_lon": 0.0, "lat": 38.90286016666667, "is_disabled": 0, "name": "d648e68018578a6f44ac6446de3fcdd2", "fusion_lat": 0.0, "rental_uris": {"ios": "https://dc.lft.to/lastmile_qr_scan", "android": "https://dc.lft.to/lastmile_qr_scan"}, "lon": -77.04065266666667, "type": "electric_scooter"}, {"bike_id": "6794c09bcab19149dcae8c1029accffa", "is_reserved": 0, "fusion_lon": 0.0, "lat": 38.806929333333336, "is_disabled": 0, "name": "6794c09bcab19149dcae8c1029accffa", "fusion_lat": 0.0, "rental_uris": {"ios": "https://dc.lft.to/lastmile_qr_scan", "android": "https://dc.lft.to/lastmile_qr_scan"}, "lon": -77.05964433333334, "type": "electric_bike"}, {"bike_id": "a7d44e31b66ab3c6bc4da06c854c8694", "is_reserved": 0, "fusion_lon": 0.0, "lat": 38.85224683333333, "is_disabled": 0, "name": "a7d44e31b66ab3c6bc4da06c854c8694", "fusion_lat": 0.0, "rental_uris": {"ios": "https://dc.lft.to/lastmile_qr_scan", "android": "https://dc.lft.to/lastmile_qr_scan"}, "lon": -77.1295105, "type": "electric_bike"}, {"bike_id": "3af5e6bca4cb98156737d96add0a7879", "is_reserved": 0, "fusion_lon": 0.0, "lat": 38.9395225, "is_disabled": 0, "name": "3af5e6bca4cb98156737d96add0a7879", "fusion_lat": 0.0, "rental_uris": {"ios": "https://dc.lft.to/lastmile_qr_scan", "android": "https://dc.lft.to/lastmile_qr_scan"}, "lon": -77.03271316666667, "type": "electric_scooter"}, {"bike_id": "0600c612208141bb4a0aa00dfa385493", "is_reserved": 0, "fusion_lon": 0.0, "lat": 38.927456166666666, "is_disabled": 0, "name": "0600c612208141bb4a0aa00dfa385493", "fusion_lat": 0.0, "rental_uris": {"ios": "https://dc.lft.to/lastmile_qr_scan", "android": "https://dc.lft.to/lastmile_qr_scan"}, "lon": -77.053813, "type": "electric_scooter"}, {"bike_id": "25fc0f1a0b2f8c3760163cd238feaa64", "is_reserved": 0, "fusion_lon": 0.0, "lat": 38.9207815, "is_disabled": 0, "name": "25fc0f1a0b2f8c3760163cd238feaa64", "fusion_lat": 0.0, "rental_uris": {"ios": "https://dc.lft.to/lastmile_qr_scan", "android": "https://dc.lft.to/lastmile_qr_scan"}, "lon": -77.02531983333333, "type": "electric_scooter"}, {"bike_id": "eb30ad1872b7062f688b6e6671f6395b", "is_reserved": 0, "fusion_lon": 0.0, "lat": 38.984622333333334, "is_disabled": 0, "name": "eb30ad1872b7062f688b6e6671f6395b", "fusion_lat": 0.0, "rental_uris": {"ios": "https://dc.lft.to/lastmile_qr_scan", "android": "https://dc.lft.to/lastmile_qr_scan"}, "lon": -76.95529016666667, "type": "electric_bike"}, {"bike_id": "33f19957d148edff30f7a8719d5d33a7", "is_reserved": 0, "fusion_lon": 0.0, "lat": 38.9279185, "is_disabled": 0, "name": "33f19957d148edff30f7a8719d5d33a7", "fusion_lat": 0.0, "rental_uris": {"ios": "https://dc.lft.to/lastmile_qr_scan", "android": "https://dc.lft.to/lastmile_qr_scan"}, "lon": -77.03140033333334, "type": "electric_scooter"}, {"bike_id": "1be004e16489ac4312a3f7e587cdf681", "is_reserved": 0, "fusion_lon": 0.0, "lat": 38.865661333333335, "is_disabled": 0, "name": "1be004e16489ac4312a3f7e587cdf681", "fusion_lat": 0.0, "rental_uris": {"ios": "https://dc.lft.to/lastmile_qr_scan", "android": "https://dc.lft.to/lastmile_qr_scan"}, "lon": -76.9895695, "type": "electric_scooter"}, {"bike_id": "bb793bdd930ff7f6b3087c33fb04e557", "is_reserved": 0, "fusion_lon": 0.0, "lat": 38.905682, "is_disabled": 0, "name": "bb793bdd930ff7f6b3087c33fb04e557", "fusion_lat": 0.0, "rental_uris": {"ios": "https://dc.lft.to/lastmile_qr_scan", "android": "https://dc.lft.to/lastmile_qr_scan"}, "lon": -77.02968433333334, "type": "electric_scooter"}, {"bike_id": "301b4ec36c94f47e0e29f809ddb2ec56", "is_reserved": 0, "fusion_lon": 0.0, "lat": 38.900422, "is_disabled": 0, "name": "301b4ec36c94f47e0e29f809ddb2ec56", "fusion_lat": 0.0, "rental_uris": {"ios": "https://dc.lft.to/lastmile_qr_scan", "android": "https://dc.lft.to/lastmile_qr_scan"}, "lon": -77.00755316666667, "type": "electric_scooter"}, {"bike_id": "c439f0f3db54a3dd77084152251d75d3", "is_reserved": 0, "fusion_lon": 0.0, "lat": 38.91260466666667, "is_disabled": 0, "name": "c439f0f3db54a3dd77084152251d75d3", "fusion_lat": 0.0, "rental_uris": {"ios": "https://dc.lft.to/lastmile_qr_scan", "android": "https://dc.lft.to/lastmile_qr_scan"}, "lon": -77.03770616666667, "type": "electric_scooter"}, {"bike_id": "9c1ce78abf6f7c0cc21e2165c669d0e7", "is_reserved": 0, "fusion_lon": 0.0, "lat": 38.891059, "is_disabled": 0, "name": "9c1ce78abf6f7c0cc21e2165c669d0e7", "fusion_lat": 0.0, "rental_uris": {"ios": "https://dc.lft.to/lastmile_qr_scan", "android": "https://dc.lft.to/lastmile_qr_scan"}, "lon": -76.987053, "type": "electric_scooter"}, {"bike_id": "4a7b5b17c72eb32b139bd5edf70b7a18", "is_reserved": 0, "fusion_lon": 0.0, "lat": 38.85919466666667, "is_disabled": 0, "name": "4a7b5b17c72eb32b139bd5edf70b7a18", "fusion_lat": 0.0, "rental_uris": {"ios": "https://dc.lft.to/lastmile_qr_scan", "android": "https://dc.lft.to/lastmile_qr_scan"}, "lon": -76.98981416666666, "type": "electric_scooter"}, {"bike_id": "a3eff72830950be87e8764c56f68a18c", "is_reserved": 0, "fusion_lon": 0.0, "lat": 38.909737, "is_disabled": 0, "name": "a3eff72830950be87e8764c56f68a18c", "fusion_lat": 0.0, "rental_uris": {"ios": "https://dc.lft.to/lastmile_qr_scan", "android": "https://dc.lft.to/lastmile_qr_scan"}, "lon": -77.02389733333334, "type": "electric_scooter"}, {"bike_id": "9030e0534de44648c7f4d4d6a6c5c0f7", "is_reserved": 0, "fusion_lon": 0.0, "lat": 38.925049333333334, "is_disabled": 0, "name": "9030e0534de44648c7f4d4d6a6c5c0f7", "fusion_lat": 0.0, "rental_uris": {"ios": "https://dc.lft.to/lastmile_qr_scan", "android": "https://dc.lft.to/lastmile_qr_scan"}, "lon": -77.02166333333334, "type": "electric_scooter"}, {"bike_id": "732d831e3d486fa7eaf6ddf06bb9f459", "is_reserved": 0, "fusion_lon": 0.0, "lat": 38.922449, "is_disabled": 0, "name": "732d831e3d486fa7eaf6ddf06bb9f459", "fusion_lat": 0.0, "rental_uris": {"ios": "https://dc.lft.to/lastmile_qr_scan", "android": "https://dc.lft.to/lastmile_qr_scan"}, "lon": -77.03084166666666, "type": "electric_scooter"}, {"bike_id": "8876f955412c60bdcf23cf0b86d5d06a", "is_reserved": 0, "fusion_lon": 0.0, "lat": 38.87087783333333, "is_disabled": 0, "name": "8876f955412c60bdcf23cf0b86d5d06a", "fusion_lat": 0.0, "rental_uris": {"ios": "https://dc.lft.to/lastmile_qr_scan", "android": "https://dc.lft.to/lastmile_qr_scan"}, "lon": -77.01211783333333, "type": "electric_bike"}, {"bike_id": "b23a01e417c74707324b7005b5f1d49e", "is_reserved": 0, "fusion_lon": 0.0, "lat": 38.9003095, "is_disabled": 0, "name": "b23a01e417c74707324b7005b5f1d49e", "fusion_lat": 0.0, "rental_uris": {"ios": "https://dc.lft.to/lastmile_qr_scan", "android": "https://dc.lft.to/lastmile_qr_scan"}, "lon": -76.98750683333333, "type": "electric_scooter"}, {"bike_id": "e2db945d8e485f67d5f264d60994b299", "is_reserved": 0, "fusion_lon": 0.0, "lat": 38.91802366666667, "is_disabled": 0, "name": "e2db945d8e485f67d5f264d60994b299", "fusion_lat": 0.0, "rental_uris": {"ios": "https://dc.lft.to/lastmile_qr_scan", "android": "https://dc.lft.to/lastmile_qr_scan"}, "lon": -77.03561466666666, "type": "electric_scooter"}, {"bike_id": "34c70fc888019bfdd410457d93d0fa85", "is_reserved": 0, "fusion_lon": 0.0, "lat": 38.8790575, "is_disabled": 0, "name": "34c70fc888019bfdd410457d93d0fa85", "fusion_lat": 0.0, "rental_uris": {"ios": "https://dc.lft.to/lastmile_qr_scan", "android": "https://dc.lft.to/lastmile_qr_scan"}, "lon": -77.02161766666667, "type": "electric_scooter"}, {"bike_id": "f9fb5fa1e3c6c441cdf3735363fa3dc2", "is_reserved": 0, "fusion_lon": 0.0, "lat": 38.90620783333333, "is_disabled": 0, "name": "f9fb5fa1e3c6c441cdf3735363fa3dc2", "fusion_lat": 0.0, "rental_uris": {"ios": "https://dc.lft.to/lastmile_qr_scan", "android": "https://dc.lft.to/lastmile_qr_scan"}, "lon": -76.98609416666666, "type": "electric_bike"}, {"bike_id": "836d0dca302216ee34ec849f449d588a", "is_reserved": 0, "fusion_lon": 0.0, "lat": 38.89679733333333, "is_disabled": 0, "name": "836d0dca302216ee34ec849f449d588a", "fusion_lat": 0.0, "rental_uris": {"ios": "https://dc.lft.to/lastmile_qr_scan", "android": "https://dc.lft.to/lastmile_qr_scan"}, "lon": -76.99625516666667, "type": "electric_scooter"}, {"bike_id": "93b32cac14ef97b9b5a406944ca284a8", "is_reserved": 0, "fusion_lon": 0.0, "lat": 38.90875666666667, "is_disabled": 0, "name": "93b32cac14ef97b9b5a406944ca284a8", "fusion_lat": 0.0, "rental_uris": {"ios": "https://dc.lft.to/lastmile_qr_scan", "android": "https://dc.lft.to/lastmile_qr_scan"}, "lon": -77.03282116666666, "type": "electric_scooter"}, {"bike_id": "6a53ebe424ac0e97634014a11f879767", "is_reserved": 0, "fusion_lon": 0.0, "lat": 38.8636925, "is_disabled": 0, "name": "6a53ebe424ac0e97634014a11f879767", "fusion_lat": 0.0, "rental_uris": {"ios": "https://dc.lft.to/lastmile_qr_scan", "android": "https://dc.lft.to/lastmile_qr_scan"}, "lon": -77.0135985, "type": "electric_scooter"}, {"bike_id": "656ca86de9ea4cca11cdf1e6f426c0c6", "is_reserved": 0, "fusion_lon": 0.0, "lat": 38.9296145, "is_disabled": 0, "name": "656ca86de9ea4cca11cdf1e6f426c0c6", "fusion_lat": 0.0, "rental_uris": {"ios": "https://dc.lft.to/lastmile_qr_scan", "android": "https://dc.lft.to/lastmile_qr_scan"}, "lon": -77.011482, "type": "electric_scooter"}, {"bike_id": "9970e28a059d9b2fbada4e1a235aa75a", "is_reserved": 0, "fusion_lon": 0.0, "lat": 38.905299666666664, "is_disabled": 0, "name": "9970e28a059d9b2fbada4e1a235aa75a", "fusion_lat": 0.0, "rental_uris": {"ios": "https://dc.lft.to/lastmile_qr_scan", "android": "https://dc.lft.to/lastmile_qr_scan"}, "lon": -77.0576455, "type": "electric_scooter"}, {"bike_id": "c4d0dd91f7f2e6d3a3478869ef18f58f", "is_reserved": 0, "fusion_lon": 0.0, "lat": 38.917981166666664, "is_disabled": 0, "name": "c4d0dd91f7f2e6d3a3478869ef18f58f", "fusion_lat": 0.0, "rental_uris": {"ios": "https://dc.lft.to/lastmile_qr_scan", "android": "https://dc.lft.to/lastmile_qr_scan"}, "lon": -77.03433016666666, "type": "electric_scooter"}, {"bike_id": "82853a54e86150bc0dd0966c7a4e274e", "is_reserved": 0, "fusion_lon": 0.0, "lat": 38.84573366666667, "is_disabled": 0, "name": "82853a54e86150bc0dd0966c7a4e274e", "fusion_lat": 0.0, "rental_uris": {"ios": "https://dc.lft.to/lastmile_qr_scan", "android": "https://dc.lft.to/lastmile_qr_scan"}, "lon": -77.09621816666667, "type": "electric_bike"}, {"bike_id": "b4dc49ecde7053d9f48f820f9426d092", "is_reserved": 0, "fusion_lon": 0.0, "lat": 38.921645166666664, "is_disabled": 0, "name": "b4dc49ecde7053d9f48f820f9426d092", "fusion_lat": 0.0, "rental_uris": {"ios": "https://dc.lft.to/lastmile_qr_scan", "android": "https://dc.lft.to/lastmile_qr_scan"}, "lon": -77.04692433333334, "type": "electric_scooter"}, {"bike_id": "95a7cd522e6bc0a19c853f41fef65092", "is_reserved": 0, "fusion_lon": 0.0, "lat": 38.92738466666667, "is_disabled": 0, "name": "95a7cd522e6bc0a19c853f41fef65092", "fusion_lat": 0.0, "rental_uris": {"ios": "https://dc.lft.to/lastmile_qr_scan", "android": "https://dc.lft.to/lastmile_qr_scan"}, "lon": -77.036407, "type": "electric_bike"}, {"bike_id": "735c19494769d960951cc04529c53fb9", "is_reserved": 0, "fusion_lon": 0.0, "lat": 38.92330116666667, "is_disabled": 0, "name": "735c19494769d960951cc04529c53fb9", "fusion_lat": 0.0, "rental_uris": {"ios": "https://dc.lft.to/lastmile_qr_scan", "android": "https://dc.lft.to/lastmile_qr_scan"}, "lon": -77.03504833333334, "type": "electric_scooter"}, {"bike_id": "521c8d9f3238bfcf4b0c213e1517876c", "is_reserved": 0, "fusion_lon": 0.0, "lat": 38.90460233333334, "is_disabled": 0, "name": "521c8d9f3238bfcf4b0c213e1517876c", "fusion_lat": 0.0, "rental_uris": {"ios": "https://dc.lft.to/lastmile_qr_scan", "android": "https://dc.lft.to/lastmile_qr_scan"}, "lon": -77.02897933333334, "type": "electric_scooter"}, {"bike_id": "8850999c6bd226a45798c59afaa823cc", "is_reserved": 0, "fusion_lon": 0.0, "lat": 38.8961885, "is_disabled": 0, "name": "8850999c6bd226a45798c59afaa823cc", "fusion_lat": 0.0, "rental_uris": {"ios": "https://dc.lft.to/lastmile_qr_scan", "android": "https://dc.lft.to/lastmile_qr_scan"}, "lon": -77.0004975, "type": "electric_bike"}, {"bike_id": "9fce734f20ef7b7b95ea125716b3b8b4", "is_reserved": 0, "fusion_lon": 0.0, "lat": 38.90039433333333, "is_disabled": 0, "name": "9fce734f20ef7b7b95ea125716b3b8b4", "fusion_lat": 0.0, "rental_uris": {"ios": "https://dc.lft.to/lastmile_qr_scan", "android": "https://dc.lft.to/lastmile_qr_scan"}, "lon": -77.01162083333334, "type": "electric_scooter"}, {"bike_id": "82c473236e2f0f38e6a85ded5d7a577d", "is_reserved": 0, "fusion_lon": 0.0, "lat": 38.915577666666664, "is_disabled": 0, "name": "82c473236e2f0f38e6a85ded5d7a577d", "fusion_lat": 0.0, "rental_uris": {"ios": "https://dc.lft.to/lastmile_qr_scan", "android": "https://dc.lft.to/lastmile_qr_scan"}, "lon": -77.03867583333333, "type": "electric_scooter"}, {"bike_id": "e7ed68fc198523bed5768682a8496cb8", "is_reserved": 0, "fusion_lon": 0.0, "lat": 38.894816166666665, "is_disabled": 0, "name": "e7ed68fc198523bed5768682a8496cb8", "fusion_lat": 0.0, "rental_uris": {"ios": "https://dc.lft.to/lastmile_qr_scan", "android": "https://dc.lft.to/lastmile_qr_scan"}, "lon": -77.04995416666667, "type": "electric_scooter"}, {"bike_id": "cc9318ef06c4064f0c5a4f108e5ea5f2", "is_reserved": 0, "fusion_lon": 0.0, "lat": 38.923726, "is_disabled": 0, "name": "cc9318ef06c4064f0c5a4f108e5ea5f2", "fusion_lat": 0.0, "rental_uris": {"ios": "https://dc.lft.to/lastmile_qr_scan", "android": "https://dc.lft.to/lastmile_qr_scan"}, "lon": -77.02066833333333, "type": "electric_scooter"}, {"bike_id": "0d6e29869c5e06923d08e2a1a58a7609", "is_reserved": 0, "fusion_lon": 0.0, "lat": 38.89727333333333, "is_disabled": 0, "name": "0d6e29869c5e06923d08e2a1a58a7609", "fusion_lat": 0.0, "rental_uris": {"ios": "https://dc.lft.to/lastmile_qr_scan", "android": "https://dc.lft.to/lastmile_qr_scan"}, "lon": -77.04633883333334, "type": "electric_scooter"}, {"bike_id": "133a9f50b4e004c58e21ca39d8504e35", "is_reserved": 0, "fusion_lon": 0.0, "lat": 38.9080195, "is_disabled": 0, "name": "133a9f50b4e004c58e21ca39d8504e35", "fusion_lat": 0.0, "rental_uris": {"ios": "https://dc.lft.to/lastmile_qr_scan", "android": "https://dc.lft.to/lastmile_qr_scan"}, "lon": -77.034501, "type": "electric_scooter"}, {"bike_id": "8904e57b6d5f0f90777e9da937b7e276", "is_reserved": 0, "fusion_lon": 0.0, "lat": 38.877349, "is_disabled": 0, "name": "8904e57b6d5f0f90777e9da937b7e276", "fusion_lat": 0.0, "rental_uris": {"ios": "https://dc.lft.to/lastmile_qr_scan", "android": "https://dc.lft.to/lastmile_qr_scan"}, "lon": -76.97282883333334, "type": "electric_scooter"}, {"bike_id": "0e51b83ae109a7731fba72cb78a7744a", "is_reserved": 0, "fusion_lon": 0.0, "lat": 38.902871833333336, "is_disabled": 0, "name": "0e51b83ae109a7731fba72cb78a7744a", "fusion_lat": 0.0, "rental_uris": {"ios": "https://dc.lft.to/lastmile_qr_scan", "android": "https://dc.lft.to/lastmile_qr_scan"}, "lon": -77.01649466666667, "type": "electric_bike"}, {"bike_id": "9bd4e200b783ce32135affe1ee90257b", "is_reserved": 0, "fusion_lon": 0.0, "lat": 38.86200983333333, "is_disabled": 0, "name": "9bd4e200b783ce32135affe1ee90257b", "fusion_lat": 0.0, "rental_uris": {"ios": "https://dc.lft.to/lastmile_qr_scan", "android": "https://dc.lft.to/lastmile_qr_scan"}, "lon": -76.99463133333333, "type": "electric_scooter"}, {"bike_id": "1ce5fadab3d32aeabd3079d4b721fea0", "is_reserved": 0, "fusion_lon": 0.0, "lat": 38.935003333333334, "is_disabled": 0, "name": "1ce5fadab3d32aeabd3079d4b721fea0", "fusion_lat": 0.0, "rental_uris": {"ios": "https://dc.lft.to/lastmile_qr_scan", "android": "https://dc.lft.to/lastmile_qr_scan"}, "lon": -77.02718983333334, "type": "electric_scooter"}, {"bike_id": "e186cd0927fdd2ea3aeeee10c7440ada", "is_reserved": 0, "fusion_lon": 0.0, "lat": 38.93976266666667, "is_disabled": 0, "name": "e186cd0927fdd2ea3aeeee10c7440ada", "fusion_lat": 0.0, "rental_uris": {"ios": "https://dc.lft.to/lastmile_qr_scan", "android": "https://dc.lft.to/lastmile_qr_scan"}, "lon": -77.03588666666667, "type": "electric_scooter"}, {"bike_id": "b17a770f052dd408fa217b60de6cc7de", "is_reserved": 0, "fusion_lon": 0.0, "lat": 38.91973, "is_disabled": 0, "name": "b17a770f052dd408fa217b60de6cc7de", "fusion_lat": 0.0, "rental_uris": {"ios": "https://dc.lft.to/lastmile_qr_scan", "android": "https://dc.lft.to/lastmile_qr_scan"}, "lon": -77.02387133333333, "type": "electric_scooter"}, {"bike_id": "b78436c232128466117f65f0477c5dea", "is_reserved": 0, "fusion_lon": 0.0, "lat": 38.9299175, "is_disabled": 0, "name": "b78436c232128466117f65f0477c5dea", "fusion_lat": 0.0, "rental_uris": {"ios": "https://dc.lft.to/lastmile_qr_scan", "android": "https://dc.lft.to/lastmile_qr_scan"}, "lon": -77.07938266666666, "type": "electric_scooter"},