{"data": {"bikes": [{"lon": -77.03079366666667, "fusion_lon": 0.0, "bike_id": "2cd5b3a894c39a5e0499276593a17a7d", "type": "electric_scooter", "name": "2cd5b3a894c39a5e0499276593a17a7d", "rental_uris": {"android": "https://dc.lft.to/lastmile_qr_scan", "ios": "https://dc.lft.to/lastmile_qr_scan"}, "is_disabled": 0, "fusion_lat": 0.0, "lat": 38.92871133333333, "is_reserved": 0}, {"lon": -77.04179216666667, "fusion_lon": 0.0, "bike_id": "5f21a947675687abeb466825ed60d458", "type": "electric_scooter", "name": "5f21a947675687abeb466825ed60d458", "rental_uris": {"android": "https://dc.lft.to/lastmile_qr_scan", "ios": "https://dc.lft.to/lastmile_qr_scan"}, "is_disabled": 0, "fusion_lat": 0.0, "lat": 38.926210833333336, "is_reserved": 0}, {"lon": -77.03037133333333, "fusion_lon": 0.0, "bike_id": "d562fd5fe1828bc545df392162af5ee5", "type": "electric_scooter", "name": "d562fd5fe1828bc545df392162af5ee5", "rental_uris": {"android": "https://dc.lft.to/lastmile_qr_scan", "ios": "https://dc.lft.to/lastmile_qr_scan"}, "is_disabled": 0, "fusion_lat": 0.0, "lat": 38.91682266666667, "is_reserved": 0}, {"lon": -77.009272, "fusion_lon": 0.0, "bike_id": "b84b1eb08f1acd0e0c0fbbe080cd0217", "type": "electric_scooter", "name": "b84b1eb08f1acd0e0c0fbbe080cd0217", "rental_uris": {"android": "https://dc.lft.to/lastmile_qr_scan", "ios": "https://dc.lft.to/lastmile_qr_scan"}, "is_disabled": 0, "fusion_lat": 0.0, "lat": 38.896099166666666, "is_reserved": 0}, {"lon": -77.01481333333334, "fusion_lon": 0.0, "bike_id": "b7660d2f48c22cce66590aa58e5981e3", "type": "electric_scooter", "name": "b7660d2f48c22cce66590aa58e5981e3", "rental_uris": {"android": "https://dc.lft.to/lastmile_qr_scan", "ios": "https://dc.lft.to/lastmile_qr_scan"}, "is_disabled": 0, "fusion_lat": 0.0, "lat": 38.9175155, "is_reserved": 0}, {"lon": -76.93736933333334, "fusion_lon": 0.0, "bike_id": "8ff2b88e562981f546f607981b86d518", "type": "electric_scooter", "name": "8ff2b88e562981f546f607981b86d518", "rental_uris": {"android": "https://dc.lft.to/lastmile_qr_scan", "ios": "https://dc.lft.to/lastmile_qr_scan"}, "is_disabled": 0, "fusion_lat": 0.0, "lat": 38.89017333333334, "is_reserved": 0}, {"lon": -77.0280915, "fusion_lon": 0.0, "bike_id": "71b59d728ac5b675401b1c7db36a62f7", "type": "electric_scooter", "name": "71b59d728ac5b675401b1c7db36a62f7", "rental_uris": {"android": "https://dc.lft.to/lastmile_qr_scan", "ios": "https://dc.lft.to/lastmile_qr_scan"}, "is_disabled": 0, "fusion_lat": 0.0, "lat": 38.899028666666666, "is_reserved": 0}, {"lon": -76.99492316666667, "fusion_lon": 0.0, "bike_id": "b272f965a45aaa46bb0caccf786ca021", "type": "electric_scooter", "name": "b272f965a45aaa46bb0caccf786ca021", "rental_uris": {"android": "https://dc.lft.to/lastmile_qr_scan", "ios": "https://dc.lft.to/lastmile_qr_scan"}, "is_disabled": 0, "fusion_lat": 0.0, "lat": 38.862449166666664, "is_reserved": 0}, {"lon": -77.025337, "fusion_lon": 0.0, "bike_id": "7c1f5ac02b941db3039fa12a5ac305a8", "type": "electric_scooter", "name": "7c1f5ac02b941db3039fa12a5ac305a8", "rental_uris": {"android": "https://dc.lft.to/lastmile_qr_scan", "ios": "https://dc.lft.to/lastmile_qr_scan"}, "is_disabled": 0, "fusion_lat": 0.0, "lat": 38.918378833333335, "is_reserved": 0}, {"lon": -77.01785833333334, "fusion_lon": 0.0, "bike_id": "9b9a9f67e9b91810142d50bd2006884b", "type": "electric_scooter", "name": "9b9a9f67e9b91810142d50bd2006884b", "rental_uris": {"android": "https://dc.lft.to/lastmile_qr_scan", "ios": "https://dc.lft.to/lastmile_qr_scan"}, "is_disabled": 0, "fusion_lat": 0.0, "lat": 38.92035033333333, "is_reserved": 0}, {"lon": -76.9611585, "fusion_lon": 0.0, "bike_id": "a8f3e7fbd990c4340bb4ceb1940e1a4e", "type": "electric_scooter", "name": "a8f3e7fbd990c4340bb4ceb1940e1a4e", "rental_uris": {"android": "https://dc.lft.to/lastmile_qr_scan", "ios": "https://dc.lft.to/lastmile_qr_scan"}, "is_disabled": 0, "fusion_lat": 0.0, "lat": 38.88427866666667, "is_reserved": 0}, {"lon": -77.04871716666666, "fusion_lon": 0.0, "bike_id": "7e4807be9e047201e45b7f3f03a5ea50", "type": "electric_scooter", "name": "7e4807be9e047201e45b7f3f03a5ea50", "rental_uris": {"android": "https://dc.lft.to/lastmile_qr_scan", "ios": "https://dc.lft.to/lastmile_qr_scan"}, "is_disabled": 0, "fusion_lat": 0.0, "lat": 38.909751166666666, "is_reserved": 0}, {"lon": -77.036002, "fusion_lon": 0.0, "bike_id": "60a80b4b2f7c24d205d52062f584d73d", "type": "electric_scooter", "name": "60a80b4b2f7c24d205d52062f584d73d", "rental_uris": {"android": "https://dc.lft.to/lastmile_qr_scan", "ios": "https://dc.lft.to/lastmile_qr_scan"}, "is_disabled": 0, "fusion_lat": 0.0, "lat": 38.93144983333333, "is_reserved": 0}, {"lon": -76.97442266666667, "fusion_lon": 0.0, "bike_id": "8c02156dc721cdc1a37ea5f1916f2168", "type": "electric_scooter", "name": "8c02156dc721cdc1a37ea5f1916f2168", "rental_uris": {"android": "https://dc.lft.to/lastmile_qr_scan", "ios": "https://dc.lft.to/lastmile_qr_scan"}, "is_disabled": 0, "fusion_lat": 0.0, "lat": 38.90239866666667, "is_reserved": 0}, {"lon": -76.98562133333333, "fusion_lon": 0.0, "bike_id": "246b0384aed06fe783d8219ac5a3076a", "type": "electric_scooter", "name": "246b0384aed06fe783d8219ac5a3076a", "rental_uris": {"android": "https://dc.lft.to/lastmile_qr_scan", "ios": "https://dc.lft.to/lastmile_qr_scan"}, "is_disabled": 0, "fusion_lat": 0.0, "lat": 38.866802166666666, "is_reserved": 0}, {"lon": -77.02761233333334, "fusion_lon": 0.0, "bike_id": "f80ba87c1258f2397be229c9326fc495", "type": "electric_scooter", "name": "f80ba87c1258f2397be229c9326fc495", "rental_uris": {"android": "https://dc.lft.to/lastmile_qr_scan", "ios": "https://dc.lft.to/lastmile_qr_scan"}, "is_disabled": 0, "fusion_lat": 0.0, "lat": 38.913446666666665, "is_reserved": 0}, {"lon": -76.9994565, "fusion_lon": 0.0, "bike_id": "67807d623ecbf7739914b3fc77ba430d", "type": "electric_scooter", "name": "67807d623ecbf7739914b3fc77ba430d", "rental_uris": {"android": "https://dc.lft.to/lastmile_qr_scan", "ios": "https://dc.lft.to/lastmile_qr_scan"}, "is_disabled": 0, "fusion_lat": 0.0, "lat": 38.842956, "is_reserved": 0}, {"lon": -77.00571716666667, "fusion_lon": 0.0, "bike_id": "ca1901cd30c4a302198e97ace5abae2d", "type": "electric_scooter", "name": "ca1901cd30c4a302198e97ace5abae2d", "rental_uris": {"android": "https://dc.lft.to/lastmile_qr_scan", "ios": "https://dc.lft.to/lastmile_qr_scan"}, "is_disabled": 0, "fusion_lat": 0.0, "lat": 38.876564, "is_reserved": 0}, {"lon": -77.0485225, "fusion_lon": 0.0, "bike_id": "3827da5326bd6daf4207b79139093617", "type": "electric_scooter", "name": "3827da5326bd6daf4207b79139093617", "rental_uris": {"android": "https://dc.lft.to/lastmile_qr_scan", "ios": "https://dc.lft.to/lastmile_qr_scan"}, "is_disabled": 0, "fusion_lat": 0.0, "lat": 38.89938033333333, "is_reserved": 0}, {"lon": -76.9854355, "fusion_lon": 0.0, "bike_id": "db4c5f55c5cb3bf8af37446554f4e8a5", "type": "electric_bike", "name": "db4c5f55c5cb3bf8af37446554f4e8a5", "rental_uris": {"android": "https://dc.lft.to/lastmile_qr_scan", "ios": "https://dc.lft.to/lastmile_qr_scan"}, "is_disabled": 0, "fusion_lat": 0.0, "lat": 38.892484833333334, "is_reserved": 0}, {"lon": -76.99471333333334, "fusion_lon": 0.0, "bike_id": "08cd5277cde55bb55236f59aaeff86c8", "type": "electric_scooter", "name": "08cd5277cde55bb55236f59aaeff86c8", "rental_uris": {"android": "https://dc.lft.to/lastmile_qr_scan", "ios": "https://dc.lft.to/lastmile_qr_scan"}, "is_disabled": 0, "fusion_lat": 0.0, "lat": 38.9051755, "is_reserved": 0}, {"lon": -77.027889, "fusion_lon": 0.0, "bike_id": "b6446e51c1494d5737876115117e9fb2", "type": "electric_scooter", "name": "b6446e51c1494d5737876115117e9fb2", "rental_uris": {"android": "https://dc.lft.to/lastmile_qr_scan", "ios": "https://dc.lft.to/lastmile_qr_scan"}, "is_disabled": 0, "fusion_lat": 0.0, "lat": 38.93061733333333, "is_reserved": 0}, {"lon": -76.983619, "fusion_lon": 0.0, "bike_id": "5c98316cc83048eb02f157dbb02916c0", "type": "electric_scooter", "name": "5c98316cc83048eb02f157dbb02916c0", "rental_uris": {"android": "https://dc.lft.to/lastmile_qr_scan", "ios": "https://dc.lft.to/lastmile_qr_scan"}, "is_disabled": 0, "fusion_lat": 0.0, "lat": 38.91497416666667, "is_reserved": 0}, {"lon": -77.0340395, "fusion_lon": 0.0, "bike_id": "c06b5054adbd49c172984d63d714e34b", "type": "electric_scooter", "name": "c06b5054adbd49c172984d63d714e34b", "rental_uris": {"android": "https://dc.lft.to/lastmile_qr_scan", "ios": "https://dc.lft.to/lastmile_qr_scan"}, "is_disabled": 0, "fusion_lat": 0.0, "lat": 38.924407, "is_reserved": 0}, {"lon": -77.02432666666667, "fusion_lon": 0.0, "bike_id": "53f86329b698eebb1742e6a147cf166a", "type": "electric_scooter", "name": "53f86329b698eebb1742e6a147cf166a", "rental_uris": {"android": "https://dc.lft.to/lastmile_qr_scan", "ios": "https://dc.lft.to/lastmile_qr_scan"}, "is_disabled": 0, "fusion_lat": 0.0, "lat": 38.879676, "is_reserved": 0}, {"lon": -77.04341, "fusion_lon": 0.0, "bike_id": "ab4978bb641150c6f737454060b86335", "type": "electric_scooter", "name": "ab4978bb641150c6f737454060b86335", "rental_uris": {"android": "https://dc.lft.to/lastmile_qr_scan", "ios": "https://dc.lft.to/lastmile_qr_scan"}, "is_disabled": 0, "fusion_lat": 0.0, "lat": 38.89690933333333, "is_reserved": 0}, {"lon": -77.05397516666666, "fusion_lon": 0.0, "bike_id": "fa0ee75d3527d9130d5e302d25a9bcfb", "type": "electric_bike", "name": "fa0ee75d3527d9130d5e302d25a9bcfb", "rental_uris": {"android": "https://dc.lft.to/lastmile_qr_scan", "ios": "https://dc.lft.to/lastmile_qr_scan"}, "is_disabled": 0, "fusion_lat": 0.0, "lat": 38.80453516666667, "is_reserved": 0}, {"lon": -76.98077816666667, "fusion_lon": 0.0, "bike_id": "cef039f6cd13b90865f92231380b37b5", "type": "electric_scooter", "name": "cef039f6cd13b90865f92231380b37b5", "rental_uris": {"android": "https://dc.lft.to/lastmile_qr_scan", "ios": "https://dc.lft.to/lastmile_qr_scan"}, "is_disabled": 0, "fusion_lat": 0.0, "lat": 38.89962516666667, "is_reserved": 0}, {"lon": -77.032186, "fusion_lon": 0.0, "bike_id": "53abe42fefa99dbcada66d14b17ce72f", "type": "electric_scooter", "name": "53abe42fefa99dbcada66d14b17ce72f", "rental_uris": {"android": "https://dc.lft.to/lastmile_qr_scan", "ios": "https://dc.lft.to/lastmile_qr_scan"}, "is_disabled": 0, "fusion_lat": 0.0, "lat": 38.909718833333336, "is_reserved": 0}, {"lon": -77.052156, "fusion_lon": 0.0, "bike_id": "7c9274bb8d6da3d29bb676ae361c1339", "type": "electric_scooter", "name": "7c9274bb8d6da3d29bb676ae361c1339", "rental_uris": {"android": "https://dc.lft.to/lastmile_qr_scan", "ios": "https://dc.lft.to/lastmile_qr_scan"}, "is_disabled": 0, "fusion_lat": 0.0, "lat": 38.92482316666667, "is_reserved": 0}, {"lon": -77.03313233333333, "fusion_lon": 0.0, "bike_id": "55c263855c4b71b41e2ac07d7134da1e", "type": "electric_scooter", "name": "55c263855c4b71b41e2ac07d7134da1e", "rental_uris": {"android": "https://dc.lft.to/lastmile_qr_scan", "ios": "https://dc.lft.to/lastmile_qr_scan"}, "is_disabled": 0, "fusion_lat": 0.0, "lat": 38.89888083333334, "is_reserved": 0}, {"lon": -77.04787933333333, "fusion_lon": 0.0, "bike_id": "0e843b23bf88db8bf9ae668c01732854", "type": "electric_scooter", "name": "0e843b23bf88db8bf9ae668c01732854", "rental_uris": {"android": "https://dc.lft.to/lastmile_qr_scan", "ios": "https://dc.lft.to/lastmile_qr_scan"}, "is_disabled": 0, "fusion_lat": 0.0, "lat": 38.89737216666666, "is_reserved": 0}, {"lon": -77.024077, "fusion_lon": 0.0, "bike_id": "bf6f5c45e348ec3b6f073df046b2f76f", "type": "electric_scooter", "name": "bf6f5c45e348ec3b6f073df046b2f76f", "rental_uris": {"android": "https://dc.lft.to/lastmile_qr_scan", "ios": "https://dc.lft.to/lastmile_qr_scan"}, "is_disabled": 0, "fusion_lat": 0.0, "lat": 38.91419716666667, "is_reserved": 0}, {"lon": -77.01761883333333, "fusion_lon": 0.0, "bike_id": "bb3387112690e377c126ef1d173759c0", "type": "electric_scooter", "name": "bb3387112690e377c126ef1d173759c0", "rental_uris": {"android": "https://dc.lft.to/lastmile_qr_scan", "ios": "https://dc.lft.to/lastmile_qr_scan"}, "is_disabled": 0, "fusion_lat": 0.0, "lat": 38.877944, "is_reserved": 0}, {"lon": -77.040914, "fusion_lon": 0.0, "bike_id": "975028ae311c13f50d6c8995190d1698", "type": "electric_scooter", "name": "975028ae311c13f50d6c8995190d1698", "rental_uris": {"android": "https://dc.lft.to/lastmile_qr_scan", "ios": "https://dc.lft.to/lastmile_qr_scan"}, "is_disabled": 0, "fusion_lat": 0.0, "lat": 38.911123, "is_reserved": 0}, {"lon": -77.051952, "fusion_lon": 0.0, "bike_id": "c6877562d0402896f35f93cbeda4771c", "type": "electric_scooter", "name": "c6877562d0402896f35f93cbeda4771c", "rental_uris": {"android": "https://dc.lft.to/lastmile_qr_scan", "ios": "https://dc.lft.to/lastmile_qr_scan"}, "is_disabled": 0, "fusion_lat": 0.0, "lat": 38.903096166666664, "is_reserved": 0}, {"lon": -77.00034416666666, "fusion_lon": 0.0, "bike_id": "82661db6c5a715ae1889882349c7217d", "type": "electric_scooter", "name": "82661db6c5a715ae1889882349c7217d", "rental_uris": {"android": "https://dc.lft.to/lastmile_qr_scan", "ios": "https://dc.lft.to/lastmile_qr_scan"}, "is_disabled": 0, "fusion_lat": 0.0, "lat": 38.894234833333336, "is_reserved": 0}, {"lon": -77.00620233333333, "fusion_lon": 0.0, "bike_id": "70550119b9374d34899b298f469ce35d", "type": "electric_scooter", "name": "70550119b9374d34899b298f469ce35d", "rental_uris": {"android": "https://dc.lft.to/lastmile_qr_scan", "ios": "https://dc.lft.to/lastmile_qr_scan"}, "is_disabled": 0, "fusion_lat": 0.0, "lat": 38.899840833333336, "is_reserved": 0}, {"lon": -77.00488166666666, "fusion_lon": 0.0, "bike_id": "b33ef7c0f530ea45637aef35a7d18674", "type": "electric_scooter", "name": "b33ef7c0f530ea45637aef35a7d18674", "rental_uris": {"android": "https://dc.lft.to/lastmile_qr_scan", "ios": "https://dc.lft.to/lastmile_qr_scan"}, "is_disabled": 0, "fusion_lat": 0.0, "lat": 38.8747055, "is_reserved": 0}, {"lon": -77.022577, "fusion_lon": 0.0, "bike_id": "62f3695cd69d222cb89546ae6c0814e4", "type": "electric_scooter", "name": "62f3695cd69d222cb89546ae6c0814e4", "rental_uris": {"android": "https://dc.lft.to/lastmile_qr_scan", "ios": "https://dc.lft.to/lastmile_qr_scan"}, "is_disabled": 0, "fusion_lat": 0.0, "lat": 38.8961375, "is_reserved": 0}, {"lon": -77.0718495, "fusion_lon": 0.0, "bike_id": "a4484dab1c157e734ca6c6ceb09e029d", "type": "electric_scooter", "name": "a4484dab1c157e734ca6c6ceb09e029d", "rental_uris": {"android": "https://dc.lft.to/lastmile_qr_scan", "ios": "https://dc.lft.to/lastmile_qr_scan"}, "is_disabled": 0, "fusion_lat": 0.0, "lat": 38.90911533333333, "is_reserved": 0}, {"lon": -77.02306566666667, "fusion_lon": 0.0, "bike_id": "bcd35fe899ab7c634f4cdc8bf08a2531", "type": "electric_scooter", "name": "bcd35fe899ab7c634f4cdc8bf08a2531", "rental_uris": {"android": "https://dc.lft.to/lastmile_qr_scan", "ios": "https://dc.lft.to/lastmile_qr_scan"}, "is_disabled": 0, "fusion_lat": 0.0, "lat": 38.908698, "is_reserved": 0}, {"lon": -77.03867816666667, "fusion_lon": 0.0, "bike_id": "f3ef0a67051f688aa10c3b9d942631cf", "type": "electric_scooter", "name": "f3ef0a67051f688aa10c3b9d942631cf", "rental_uris": {"android": "https://dc.lft.to/lastmile_qr_scan", "ios": "https://dc.lft.to/lastmile_qr_scan"}, "is_disabled": 0, "fusion_lat": 0.0, "lat": 38.91267116666667, "is_reserved": 0}, {"lon": -77.02416833333334, "fusion_lon": 0.0, "bike_id": "9c246a07cd0cb62bf3d7c04177dc0d0e", "type": "electric_scooter", "name": "9c246a07cd0cb62bf3d7c04177dc0d0e", "rental_uris": {"android": "https://dc.lft.to/lastmile_qr_scan", "ios": "https://dc.lft.to/lastmile_qr_scan"}, "is_disabled": 0, "fusion_lat": 0.0, "lat": 38.920742, "is_reserved": 0}, {"lon": -77.0270355, "fusion_lon": 0.0, "bike_id": "e6559c5c70e51b43e05e8c59871d123f", "type": "electric_scooter", "name": "e6559c5c70e51b43e05e8c59871d123f", "rental_uris": {"android": "https://dc.lft.to/lastmile_qr_scan", "ios": "https://dc.lft.to/lastmile_qr_scan"}, "is_disabled": 0, "fusion_lat": 0.0, "lat": 38.89840916666667, "is_reserved": 0}, {"lon": -77.01765916666666, "fusion_lon": 0.0, "bike_id": "04df0d299a82fa84ff85a873add91d4c", "type": "electric_scooter", "name": "04df0d299a82fa84ff85a873add91d4c", "rental_uris": {"android": "https://dc.lft.to/lastmile_qr_scan", "ios": "https://dc.lft.to/lastmile_qr_scan"}, "is_disabled": 0, "fusion_lat": 0.0, "lat": 38.872173, "is_reserved": 0}, {"lon": -76.94939483333333, "fusion_lon": 0.0, "bike_id": "e13d4fda5fb066d7760e8eef3ae9e9f9", "type": "electric_scooter", "name": "e13d4fda5fb066d7760e8eef3ae9e9f9", "rental_uris": {"android": "https://dc.lft.to/lastmile_qr_scan", "ios": "https://dc.lft.to/lastmile_qr_scan"}, "is_disabled": 0, "fusion_lat": 0.0, "lat": 38.893585, "is_reserved": 0}, {"lon": -77.033426, "fusion_lon": 0.0, "bike_id": "9c6dfac06a975758f73c0f35fe78c874", "type": "electric_scooter", "name": "9c6dfac06a975758f73c0f35fe78c874", "rental_uris": {"android": "https://dc.lft.to/lastmile_qr_scan", "ios": "https://dc.lft.to/lastmile_qr_scan"}, "is_disabled": 0, "fusion_lat": 0.0, "lat": 38.921546666666664, "is_reserved": 0}, {"lon": -77.04002916666667, "fusion_lon": 0.0, "bike_id": "a81458184d6712679290b52aa53f2f1d", "type": "electric_scooter", "name": "a81458184d6712679290b52aa53f2f1d", "rental_uris": {"android": "https://dc.lft.to/lastmile_qr_scan", "ios": "https://dc.lft.to/lastmile_qr_scan"}, "is_disabled": 0, "fusion_lat": 0.0, "lat": 38.9181585, "is_reserved": 0}, {"lon": -76.95758316666667, "fusion_lon": 0.0, "bike_id": "4451d45dd19481942a9902fff8adbf85", "type": "electric_scooter", "name": "4451d45dd19481942a9902fff8adbf85", "rental_uris": {"android": "https://dc.lft.to/lastmile_qr_scan", "ios": "https://dc.lft.to/lastmile_qr_scan"}, "is_disabled": 0, "fusion_lat": 0.0, "lat": 38.88429683333333, "is_reserved": 0}, {"lon": -77.038566, "fusion_lon": 0.0, "bike_id": "f3cfea6d01d1818e5099772e6a8fe8e3", "type": "electric_scooter", "name": "f3cfea6d01d1818e5099772e6a8fe8e3", "rental_uris": {"android": "https://dc.lft.to/lastmile_qr_scan", "ios": "https://dc.lft.to/lastmile_qr_scan"}, "is_disabled": 0, "fusion_lat": 0.0, "lat": 38.9101855, "is_reserved": 0}, {"lon": -77.072802, "fusion_lon": 0.0, "bike_id": "bb931510b0fd53dfead7554f87a738a2", "type": "electric_scooter", "name": "bb931510b0fd53dfead7554f87a738a2", "rental_uris": {"android": "https://dc.lft.to/lastmile_qr_scan", "ios": "https://dc.lft.to/lastmile_qr_scan"}, "is_disabled": 0, "fusion_lat": 0.0, "lat": 38.93470883333333, "is_reserved": 0}, {"lon": -77.03892783333333, "fusion_lon": 0.0, "bike_id": "9d3baf9ba3c401251b4ee4f8d8109e63", "type": "electric_scooter", "name": "9d3baf9ba3c401251b4ee4f8d8109e63", "rental_uris": {"android": "https://dc.lft.to/lastmile_qr_scan", "ios": "https://dc.lft.to/lastmile_qr_scan"}, "is_disabled": 0, "fusion_lat": 0.0, "lat": 38.921394666666664, "is_reserved": 0}, {"lon": -77.03167866666666, "fusion_lon": 0.0, "bike_id": "a5c4565506de1cd56e91c5b4d7863802", "type": "electric_scooter", "name": "a5c4565506de1cd56e91c5b4d7863802", "rental_uris": {"android": "https://dc.lft.to/lastmile_qr_scan", "ios": "https://dc.lft.to/lastmile_qr_scan"}, "is_disabled": 0, "fusion_lat": 0.0, "lat": 38.921031666666664, "is_reserved": 0}, {"lon": -77.01133983333334, "fusion_lon": 0.0, "bike_id": "a6f63a8ef4bb57d0173b52198c3351fe", "type": "electric_scooter", "name": "a6f63a8ef4bb57d0173b52198c3351fe", "rental_uris": {"android": "https://dc.lft.to/lastmile_qr_scan", "ios": "https://dc.lft.to/lastmile_qr_scan"}, "is_disabled": 0, "fusion_lat": 0.0, "lat": 38.900189833333336, "is_reserved": 0}, {"lon": -77.01324583333333, "fusion_lon": 0.0, "bike_id": "7640086996af90f32e11ea5d30bee352", "type": "electric_scooter", "name": "7640086996af90f32e11ea5d30bee352", "rental_uris": {"android": "https://dc.lft.to/lastmile_qr_scan", "ios": "https://dc.lft.to/lastmile_qr_scan"}, "is_disabled": 0, "fusion_lat": 0.0, "lat": 38.906041, "is_reserved": 0}, {"lon": -77.02729933333333, "fusion_lon": 0.0, "bike_id": "9b02f7d3f9a7820689018b6aea8ee4b6", "type": "electric_scooter", "name": "9b02f7d3f9a7820689018b6aea8ee4b6", "rental_uris": {"android": "https://dc.lft.to/lastmile_qr_scan", "ios": "https://dc.lft.to/lastmile_qr_scan"}, "is_disabled": 0, "fusion_lat": 0.0, "lat": 38.897383, "is_reserved": 0}, {"lon": -77.0384295, "fusion_lon": 0.0, "bike_id": "7b93f01789c501e6d6d4928e58ce9147", "type": "electric_scooter", "name": "7b93f01789c501e6d6d4928e58ce9147", "rental_uris": {"android": "https://dc.lft.to/lastmile_qr_scan", "ios": "https://dc.lft.to/lastmile_qr_scan"}, "is_disabled": 0, "fusion_lat": 0.0, "lat": 38.91616583333333, "is_reserved": 0}, {"lon": -77.02294133333334, "fusion_lon": 0.0, "bike_id": "19ba68b81cbfd3b328d9c7cbec77f3b4", "type": "electric_scooter", "name": "19ba68b81cbfd3b328d9c7cbec77f3b4", "rental_uris": {"android": "https://dc.lft.to/lastmile_qr_scan", "ios": "https://dc.lft.to/lastmile_qr_scan"}, "is_disabled": 0, "fusion_lat": 0.0, "lat": 38.927484666666665, "is_reserved": 0}, {"lon": -77.0453945, "fusion_lon": 0.0, "bike_id": "70ed9df80e3f1b17b82c89b23e79211f", "type": "electric_scooter", "name": "70ed9df80e3f1b17b82c89b23e79211f", "rental_uris": {"android": "https://dc.lft.to/lastmile_qr_scan", "ios": "https://dc.lft.to/lastmile_qr_scan"}, "is_disabled": 0, "fusion_lat": 0.0, "lat": 38.9315725, "is_reserved": 0}, {"lon": -77.02458883333334, "fusion_lon": 0.0, "bike_id": "761ffdafcc02e39cbd2d9d1d881adc51", "type": "electric_scooter", "name": "761ffdafcc02e39cbd2d9d1d881adc51", "rental_uris": {"android": "https://dc.lft.to/lastmile_qr_scan", "ios": "https://dc.lft.to/lastmile_qr_scan"}, "is_disabled": 0, "fusion_lat": 0.0, "lat": 38.931002166666666, "is_reserved": 0}, {"lon": -77.0705915, "fusion_lon": 0.0, "bike_id": "7db4ceef542fc70492c0290174afc021", "type": "electric_scooter", "name": "7db4ceef542fc70492c0290174afc021", "rental_uris": {"android": "https://dc.lft.to/lastmile_qr_scan", "ios": "https://dc.lft.to/lastmile_qr_scan"}, "is_disabled": 0, "fusion_lat": 0.0, "lat": 38.8963565, "is_reserved": 0}, {"lon": -76.98718266666667, "fusion_lon": 0.0, "bike_id": "8cd28c15d8c9f2c9fef3b82cf901cf6c", "type": "electric_scooter", "name": "8cd28c15d8c9f2c9fef3b82cf901cf6c", "rental_uris": {"android": "https://dc.lft.to/lastmile_qr_scan", "ios": "https://dc.lft.to/lastmile_qr_scan"}, "is_disabled": 0, "fusion_lat": 0.0, "lat": 38.866273, "is_reserved": 0}, {"lon": -77.02554683333334, "fusion_lon": 0.0, "bike_id": "170e21cec625c20756faa5b27dbccec3", "type": "electric_bike", "name": "170e21cec625c20756faa5b27dbccec3", "rental_uris": {"android": "https://dc.lft.to/lastmile_qr_scan", "ios": "https://dc.lft.to/lastmile_qr_scan"}, "is_disabled": 0, "fusion_lat": 0.0, "lat": 38.99710433333333, "is_reserved": 0}, {"lon": -77.02167083333333, "fusion_lon": 0.0, "bike_id": "8921eed6b6da96d673d20c572929f8cf", "type": "electric_scooter", "name": "8921eed6b6da96d673d20c572929f8cf", "rental_uris": {"android": "https://dc.lft.to/lastmile_qr_scan", "ios": "https://dc.lft.to/lastmile_qr_scan"}, "is_disabled": 0, "fusion_lat": 0.0, "lat": 38.9429665, "is_reserved": 0}, {"lon": -76.95590233333333, "fusion_lon": 0.0, "bike_id": "4f9a6e5f53f8ff718dba5b8819ceda30", "type": "electric_scooter", "name": "4f9a6e5f53f8ff718dba5b8819ceda30", "rental_uris": {"android": "https://dc.lft.to/lastmile_qr_scan", "ios": "https://dc.lft.to/lastmile_qr_scan"}, "is_disabled": 0, "fusion_lat": 0.0, "lat": 38.887617666666664, "is_reserved": 0}, {"lon": -77.005795, "fusion_lon": 0.0, "bike_id": "f2753ea82cbfe383431e7c91c2902eec", "type": "electric_scooter", "name": "f2753ea82cbfe383431e7c91c2902eec", "rental_uris": {"android": "https://dc.lft.to/lastmile_qr_scan", "ios": "https://dc.lft.to/lastmile_qr_scan"}, "is_disabled": 0, "fusion_lat": 0.0, "lat": 38.87584733333333, "is_reserved": 0}, {"lon": -77.03843416666666, "fusion_lon": 0.0, "bike_id": "4da744c44923efab194680ef1c34886f", "type": "electric_scooter", "name": "4da744c44923efab194680ef1c34886f", "rental_uris": {"android": "https://dc.lft.to/lastmile_qr_scan", "ios": "https://dc.lft.to/lastmile_qr_scan"}, "is_disabled": 0, "fusion_lat": 0.0, "lat": 38.906709, "is_reserved": 0}, {"lon": -77.12016766666666, "fusion_lon": 0.0, "bike_id": "b6669f91d3f196c4b77c0cf7c4ea4305", "type": "electric_bike", "name": "b6669f91d3f196c4b77c0cf7c4ea4305", "rental_uris": {"android": "https://dc.lft.to/lastmile_qr_scan", "ios": "https://dc.lft.to/lastmile_qr_scan"}, "is_disabled": 0, "fusion_lat": 0.0, "lat": 38.8579105, "is_reserved": 0}, {"lon": -77.0331775, "fusion_lon": 0.0, "bike_id": "2eae2a6c17fbdb4bab387af9cb702b1e", "type": "electric_scooter", "name": "2eae2a6c17fbdb4bab387af9cb702b1e", "rental_uris": {"android": "https://dc.lft.to/lastmile_qr_scan", "ios": "https://dc.lft.to/lastmile_qr_scan"}, "is_disabled": 0, "fusion_lat": 0.0, "lat": 38.89811983333333, "is_reserved": 0}, {"lon": -77.11467783333333, "fusion_lon": 0.0, "bike_id": "6a34624938c37dee25132234d70a64da", "type": "electric_bike", "name": "6a34624938c37dee25132234d70a64da", "rental_uris": {"android": "https://dc.lft.to/lastmile_qr_scan", "ios": "https://dc.lft.to/lastmile_qr_scan"}, "is_disabled": 0, "fusion_lat": 0.0, "lat": 38.841475, "is_reserved": 0}, {"lon": -77.03194483333333, "fusion_lon": 0.0, "bike_id": "48d83cd850a12e61722b239610cff2bd", "type": "electric_scooter", "name": "48d83cd850a12e61722b239610cff2bd", "rental_uris": {"android": "https://dc.lft.to/lastmile_qr_scan", "ios": "https://dc.lft.to/lastmile_qr_scan"}, "is_disabled": 0, "fusion_lat": 0.0, "lat": 38.901317166666665, "is_reserved": 0}, {"lon": -76.94893216666667, "fusion_lon": 0.0, "bike_id": "de66e0b57e24b1c672377bb8a9093883", "type": "electric_scooter", "name": "de66e0b57e24b1c672377bb8a9093883", "rental_uris": {"android": "https://dc.lft.to/lastmile_qr_scan", "ios": "https://dc.lft.to/lastmile_qr_scan"}, "is_disabled": 0, "fusion_lat": 0.0, "lat": 38.89535733333334, "is_reserved": 0}, {"lon": -77.03402733333333, "fusion_lon": 0.0, "bike_id": "730430ba7e9f09a74dc6d5de8021c904", "type": "electric_scooter", "name": "730430ba7e9f09a74dc6d5de8021c904", "rental_uris": {"android": "https://dc.lft.to/lastmile_qr_scan", "ios": "https://dc.lft.to/lastmile_qr_scan"}, "is_disabled": 0, "fusion_lat": 0.0, "lat": 38.924489666666666, "is_reserved": 0}, {"lon": -77.11411416666667, "fusion_lon": 0.0, "bike_id": "57aa53a14b163d373cc290f8e4975400", "type": "electric_bike", "name": "57aa53a14b163d373cc290f8e4975400", "rental_uris": {"android": "https://dc.lft.to/lastmile_qr_scan", "ios": "https://dc.lft.to/lastmile_qr_scan"}, "is_disabled": 0, "fusion_lat": 0.0, "lat": 38.85529566666666, "is_reserved": 0}, {"lon": -77.05860166666666, "fusion_lon": 0.0, "bike_id": "40b502b1414cc6ebd9e591ab22d28b38", "type": "electric_scooter", "name": "40b502b1414cc6ebd9e591ab22d28b38", "rental_uris": {"android": "https://dc.lft.to/lastmile_qr_scan", "ios": "https://dc.lft.to/lastmile_qr_scan"}, "is_disabled": 0, "fusion_lat": 0.0, "lat": 38.936082, "is_reserved": 0}, {"lon": -77.03209066666666, "fusion_lon": 0.0, "bike_id": "7766a492c29affad79ac15748a0a19f5", "type": "electric_scooter", "name": "7766a492c29affad79ac15748a0a19f5", "rental_uris": {"android": "https://dc.lft.to/lastmile_qr_scan", "ios": "https://dc.lft.to/lastmile_qr_scan"}, "is_disabled": 0, "fusion_lat": 0.0, "lat": 38.91518266666667, "is_reserved": 0}, {"lon": -76.94408316666667, "fusion_lon": 0.0, "bike_id": "e7bac80c8d077696d8dd061a3339782c", "type": "electric_bike", "name": "e7bac80c8d077696d8dd061a3339782c", "rental_uris": {"android": "https://dc.lft.to/lastmile_qr_scan", "ios": "https://dc.lft.to/lastmile_qr_scan"}, "is_disabled": 0, "fusion_lat": 0.0, "lat": 38.99226316666667, "is_reserved": 0}, {"lon": -77.03460466666667, "fusion_lon": 0.0, "bike_id": "7cf965b1936eec97d11bc8c1b4aca08b", "type": "electric_scooter", "name": "7cf965b1936eec97d11bc8c1b4aca08b", "rental_uris": {"android": "https://dc.lft.to/lastmile_qr_scan", "ios": "https://dc.lft.to/lastmile_qr_scan"}, "is_disabled": 0, "fusion_lat": 0.0, "lat": 38.908410333333336, "is_reserved": 0}, {"lon": -77.02945933333334, "fusion_lon": 0.0, "bike_id": "cc348cfc76198ac908635168414a9ecf", "type": "electric_scooter", "name": "cc348cfc76198ac908635168414a9ecf", "rental_uris": {"android": "https://dc.lft.to/lastmile_qr_scan", "ios": "https://dc.lft.to/lastmile_qr_scan"}, "is_disabled": 0, "fusion_lat": 0.0, "lat": 38.90784133333333, "is_reserved": 0}, {"lon": -77.04174366666666, "fusion_lon": 0.0, "bike_id": "8a1bc5afcfd85344ca8757c9deba483c", "type": "electric_scooter", "name": "8a1bc5afcfd85344ca8757c9deba483c", "rental_uris": {"android": "https://dc.lft.to/lastmile_qr_scan", "ios": "https://dc.lft.to/lastmile_qr_scan"}, "is_disabled": 0, "fusion_lat": 0.0, "lat": 38.9154725, "is_reserved": 0}, {"lon": -77.02795683333333, "fusion_lon": 0.0, "bike_id": "57740023b0c6efcb2331e4f5e37781cd", "type": "electric_scooter", "name": "57740023b0c6efcb2331e4f5e37781cd", "rental_uris": {"android": "https://dc.lft.to/lastmile_qr_scan", "ios": "https://dc.lft.to/lastmile_qr_scan"}, "is_disabled": 0, "fusion_lat": 0.0, "lat": 38.9021735, "is_reserved": 0}, {"lon": -77.03903883333334, "fusion_lon": 0.0, "bike_id": "2fc6f09d76601e70bbffe59a6ebfe554", "type": "electric_scooter", "name": "2fc6f09d76601e70bbffe59a6ebfe554", "rental_uris": {"android": "https://dc.lft.to/lastmile_qr_scan", "ios": "https://dc.lft.to/lastmile_qr_scan"}, "is_disabled": 0, "fusion_lat": 0.0, "lat": 38.922737833333336, "is_reserved": 0}, {"lon": -77.0402285, "fusion_lon": 0.0, "bike_id": "98492a5e3b4a8aaada8783f06f79acf3", "type": "electric_scooter", "name": "98492a5e3b4a8aaada8783f06f79acf3", "rental_uris": {"android": "https://dc.lft.to/lastmile_qr_scan", "ios": "https://dc.lft.to/lastmile_qr_scan"}, "is_disabled": 0, "fusion_lat": 0.0, "lat": 38.902844, "is_reserved": 0}, {"lon": -76.98761933333333, "fusion_lon": 0.0, "bike_id": "1bd8d956620f21a216961f3d49e87cd3", "type": "electric_scooter", "name": "1bd8d956620f21a216961f3d49e87cd3", "rental_uris": {"android": "https://dc.lft.to/lastmile_qr_scan", "ios": "https://dc.lft.to/lastmile_qr_scan"}, "is_disabled": 0, "fusion_lat": 0.0, "lat": 38.9002945, "is_reserved": 0}, {"lon": -76.985642, "fusion_lon": 0.0, "bike_id": "7488a35520decb974476d790cf81ff03", "type": "electric_scooter", "name": "7488a35520decb974476d790cf81ff03", "rental_uris": {"android": "https://dc.lft.to/lastmile_qr_scan", "ios": "https://dc.lft.to/lastmile_qr_scan"}, "is_disabled": 0, "fusion_lat": 0.0, "lat": 38.8668365, "is_reserved": 0}, {"lon": -76.98607483333333, "fusion_lon": 0.0, "bike_id": "d21cc86aa1bb1e1144435993d303426c", "type": "electric_scooter", "name": "d21cc86aa1bb1e1144435993d303426c", "rental_uris": {"android": "https://dc.lft.to/lastmile_qr_scan", "ios": "https://dc.lft.to/lastmile_qr_scan"}, "is_disabled": 0, "fusion_lat": 0.0, "lat": 38.882761, "is_reserved": 0}, {"lon": -77.02085783333334, "fusion_lon": 0.0, "bike_id": "c68cebec828c71569539674e66788a57", "type": "electric_scooter", "name": "c68cebec828c71569539674e66788a57", "rental_uris": {"android": "https://dc.lft.to/lastmile_qr_scan", "ios": "https://dc.lft.to/lastmile_qr_scan"}, "is_disabled": 0, "fusion_lat": 0.0, "lat": 38.881851166666664, "is_reserved": 0}, {"lon": -76.9860305, "fusion_lon": 0.0, "bike_id": "f291b57e4132a0f5b45c227a470768a7", "type": "electric_scooter", "name": "f291b57e4132a0f5b45c227a470768a7", "rental_uris": {"android": "https://dc.lft.to/lastmile_qr_scan", "ios": "https://dc.lft.to/lastmile_qr_scan"}, "is_disabled": 0, "fusion_lat": 0.0, "lat": 38.899969666666664, "is_reserved": 0}, {"lon": -77.03059, "fusion_lon": 0.0, "bike_id": "a5472dbac60a7e45970ab2df11070d31", "type": "electric_scooter", "name": "a5472dbac60a7e45970ab2df11070d31", "rental_uris": {"android": "https://dc.lft.to/lastmile_qr_scan", "ios": "https://dc.lft.to/lastmile_qr_scan"}, "is_disabled": 0, "fusion_lat": 0.0, "lat": 38.9168195, "is_reserved": 0}, {"lon": -77.03830233333333, "fusion_lon": 0.0, "bike_id": "a887db7e37be9ed4c5101d4a9aa8d847", "type": "electric_scooter", "name": "a887db7e37be9ed4c5101d4a9aa8d847", "rental_uris": {"android": "https://dc.lft.to/lastmile_qr_scan", "ios": "https://dc.lft.to/lastmile_qr_scan"}, "is_disabled": 0, "fusion_lat": 0.0, "lat": 38.902902166666664, "is_reserved": 0}, {"lon": -76.9463695, "fusion_lon": 0.0, "bike_id": "dfbe69a04498882375916c3ebbb386b8", "type": "electric_scooter", "name": "dfbe69a04498882375916c3ebbb386b8", "rental_uris": {"android": "https://dc.lft.to/lastmile_qr_scan", "ios": "https://dc.lft.to/lastmile_qr_scan"}, "is_disabled": 0, "fusion_lat": 0.0, "lat": 38.89861366666667, "is_reserved": 0}, {"lon": -77.04011733333333, "fusion_lon": 0.0, "bike_id": "ba973a936dd637df6b6efca99ce8710c", "type": "electric_scooter", "name": "ba973a936dd637df6b6efca99ce8710c", "rental_uris": {"android": "https://dc.lft.to/lastmile_qr_scan", "ios": "https://dc.lft.to/lastmile_qr_scan"}, "is_disabled": 0, "fusion_lat": 0.0, "lat": 38.921715, "is_reserved": 0}, {"lon": -77.02968733333333, "fusion_lon": 0.0, "bike_id": "2b087a9151620def1cd578b38183dcd4", "type": "electric_scooter", "name": "2b087a9151620def1cd578b38183dcd4", "rental_uris": {"android": "https://dc.lft.to/lastmile_qr_scan", "ios": "https://dc.lft.to/lastmile_qr_scan"}, "is_disabled": 0, "fusion_lat": 0.0, "lat": 38.90489566666667, "is_reserved": 0}, {"lon": -76.965267, "fusion_lon": 0.0, "bike_id": "38b3a9ed3250d8f4bd0ab32cba26c19c", "type": "electric_scooter", "name": "38b3a9ed3250d8f4bd0ab32cba26c19c", "rental_uris": {"android": "https://dc.lft.to/lastmile_qr_scan", "ios": "https://dc.lft.to/lastmile_qr_scan"}, "is_disabled": 0, "fusion_lat": 0.0, "lat": 38.876255666666665, "is_reserved": 0}, {"lon": -77.05413016666667, "fusion_lon": 0.0, "bike_id": "187c8f3b7f2af12ed3e890652a153183", "type": "electric_bike", "name": "187c8f3b7f2af12ed3e890652a153183", "rental_uris": {"android": "https://dc.lft.to/lastmile_qr_scan", "ios": "https://dc.lft.to/lastmile_qr_scan"}, "is_disabled": 0, "fusion_lat": 0.0, "lat": 38.93531733333333, "is_reserved": 0}, {"lon": -76.9754775, "fusion_lon": 0.0, "bike_id": "562a99cfb599e9e7b667f71ca60cdcfe", "type": "electric_scooter", "name": "562a99cfb599e9e7b667f71ca60cdcfe", "rental_uris": {"android": "https://dc.lft.to/lastmile_qr_scan", "ios": "https://dc.lft.to/lastmile_qr_scan"}, "is_disabled": 0, "fusion_lat": 0.0, "lat": 38.903220166666664, "is_reserved": 0}, {"lon": -77.023724, "fusion_lon": 0.0, "bike_id": "8065875fd863a8c6588522a8209a44d6", "type": "electric_scooter", "name": "8065875fd863a8c6588522a8209a44d6", "rental_uris": {"android": "https://dc.lft.to/lastmile_qr_scan", "ios": "https://dc.lft.to/lastmile_qr_scan"}, "is_disabled": 0, "fusion_lat": 0.0, "lat": 38.9021315, "is_reserved": 0}, {"lon": -76.93027633333334, "fusion_lon": 0.0, "bike_id": "bb62b72dc311dd6bccac030fa59af35f", "type": "electric_scooter", "name": "bb62b72dc311dd6bccac030fa59af35f", "rental_uris": {"android": "https://dc.lft.to/lastmile_qr_scan", "ios": "https://dc.lft.to/lastmile_qr_scan"}, "is_disabled": 0, "fusion_lat": 0.0, "lat": 38.90165783333333, "is_reserved": 0}, {"lon": -77.001402, "fusion_lon": 0.0, "bike_id": "458c6abb89f74e37b43e7c621e540e99", "type": "electric_scooter", "name": "458c6abb89f74e37b43e7c621e540e99", "rental_uris": {"android": "https://dc.lft.to/lastmile_qr_scan", "ios": "https://dc.lft.to/lastmile_qr_scan"}, "is_disabled": 0, "fusion_lat": 0.0, "lat": 38.873112666666664, "is_reserved": 0}, {"lon": -77.0830905, "fusion_lon": 0.0, "bike_id": "c39c03fb612147eac9443e4d7708f0b0", "type": "electric_scooter", "name": "c39c03fb612147eac9443e4d7708f0b0", "rental_uris": {"android": "https://dc.lft.to/lastmile_qr_scan", "ios": "https://dc.lft.to/lastmile_qr_scan"}, "is_disabled": 0, "fusion_lat": 0.0, "lat": 38.928552833333335, "is_reserved": 0}, {"lon": -77.03219583333333, "fusion_lon": 0.0, "bike_id": "4a93ddbd02ba17db794ddfbfb31d0bc7", "type": "electric_scooter", "name": "4a93ddbd02ba17db794ddfbfb31d0bc7", "rental_uris": {"android": "https://dc.lft.to/lastmile_qr_scan", "ios": "https://dc.lft.to/lastmile_qr_scan"}, "is_disabled": 0, "fusion_lat": 0.0, "lat": 38.925945166666665, "is_reserved": 0}, {"lon": -76.9725445, "fusion_lon": 0.0, "bike_id": "cc5865792be64705ebe2ff9cafd6a89f", "type": "electric_bike", "name": "cc5865792be64705ebe2ff9cafd6a89f", "rental_uris": {"android": "https://dc.lft.to/lastmile_qr_scan", "ios": "https://dc.lft.to/lastmile_qr_scan"}, "is_disabled": 0, "fusion_lat": 0.0, "lat": 38.95746183333333, "is_reserved": 0}, {"lon": -77.01691183333334, "fusion_lon": 0.0, "bike_id": "2d3ca22c8dc97326f1d0a55b59bf5ae5", "type": "electric_scooter", "name": "2d3ca22c8dc97326f1d0a55b59bf5ae5", "rental_uris": {"android": "https://dc.lft.to/lastmile_qr_scan", "ios": "https://dc.lft.to/lastmile_qr_scan"}, "is_disabled": 0, "fusion_lat": 0.0, "lat": 38.97493016666667, "is_reserved": 0}, {"lon": -77.03456416666667, "fusion_lon": 0.0, "bike_id": "36fe7511cb0563693d73d88788fec117", "type": "electric_scooter", "name": "36fe7511cb0563693d73d88788fec117", "rental_uris": {"android": "https://dc.lft.to/lastmile_qr_scan", "ios": "https://dc.lft.to/lastmile_qr_scan"}, "is_disabled": 0, "fusion_lat": 0.0, "lat": 38.90426316666667, "is_reserved": 0}, {"lon": -77.04489083333333, "fusion_lon": 0.0, "bike_id": "304487a9765360713ee1205e8a137da5", "type": "electric_scooter", "name": "304487a9765360713ee1205e8a137da5", "rental_uris": {"android": "https://dc.lft.to/lastmile_qr_scan", "ios": "https://dc.lft.to/lastmile_qr_scan"}, "is_disabled": 0, "fusion_lat": 0.0, "lat": 38.897541833333335, "is_reserved": 0}, {"lon": -77.01406683333333, "fusion_lon": 0.0, "bike_id": "8f33722f24e632fa25fc3a9d98e3103f", "type": "electric_scooter", "name": "8f33722f24e632fa25fc3a9d98e3103f", "rental_uris": {"android": "https://dc.lft.to/lastmile_qr_scan", "ios": "https://dc.lft.to/lastmile_qr_scan"}, "is_disabled": 0, "fusion_lat": 0.0, "lat": 38.94235066666667, "is_reserved": 0}, {"lon": -77.01979533333333, "fusion_lon": 0.0, "bike_id": "95d47bc7cc9da41059353dbd261efd02", "type": "electric_scooter", "name": "95d47bc7cc9da41059353dbd261efd02", "rental_uris": {"android": "https://dc.lft.to/lastmile_qr_scan", "ios": "https://dc.lft.to/lastmile_qr_scan"}, "is_disabled": 0, "fusion_lat": 0.0, "lat": 38.887224333333336, "is_reserved": 0}, {"lon": -77.01077933333333, "fusion_lon": 0.0, "bike_id": "5bbdda99ee399284e96ff392e674cefa", "type": "electric_scooter", "name": "5bbdda99ee399284e96ff392e674cefa", "rental_uris": {"android": "https://dc.lft.to/lastmile_qr_scan", "ios": "https://dc.lft.to/lastmile_qr_scan"}, "is_disabled": 0, "fusion_lat": 0.0, "lat": 38.90961583333333, "is_reserved": 0}, {"lon": -77.02634883333333, "fusion_lon": 0.0, "bike_id": "17428ec6f864385f4845fc71c88b2bca", "type": "electric_scooter", "name": "17428ec6f864385f4845fc71c88b2bca", "rental_uris": {"android": "https://dc.lft.to/lastmile_qr_scan", "ios": "https://dc.lft.to/lastmile_qr_scan"}, "is_disabled": 0, "fusion_lat": 0.0, "lat": 38.894626333333335, "is_reserved": 0}, {"lon": -77.035837, "fusion_lon": 0.0, "bike_id": "911b07a01565cc8cd5932ddcf33007c7", "type": "electric_scooter", "name": "911b07a01565cc8cd5932ddcf33007c7", "rental_uris": {"android": "https://dc.lft.to/lastmile_qr_scan", "ios": "https://dc.lft.to/lastmile_qr_scan"}, "is_disabled": 0, "fusion_lat": 0.0, "lat": 38.903799666666664, "is_reserved": 0}, {"lon": -77.01525083333334, "fusion_lon": 0.0, "bike_id": "22d09243878b980913b09f5cf7172c93", "type": "electric_bike", "name": "22d09243878b980913b09f5cf7172c93", "rental_uris": {"android": "https://dc.lft.to/lastmile_qr_scan", "ios": "https://dc.lft.to/lastmile_qr_scan"}, "is_disabled": 0, "fusion_lat": 0.0, "lat": 38.9512615, "is_reserved": 0}, {"lon": -76.97365666666667, "fusion_lon": 0.0, "bike_id": "d8fbfc589f3ab5b53810273996ab2ad5", "type": "electric_bike", "name": "d8fbfc589f3ab5b53810273996ab2ad5", "rental_uris": {"android": "https://dc.lft.to/lastmile_qr_scan", "ios": "https://dc.lft.to/lastmile_qr_scan"}, "is_disabled": 0, "fusion_lat": 0.0, "lat": 38.9631775, "is_reserved": 0}, {"lon": -77.04083966666667, "fusion_lon": 0.0, "bike_id": "5307307ba65b61a20c6f91bc3ed6ba91", "type": "electric_scooter", "name": "5307307ba65b61a20c6f91bc3ed6ba91", "rental_uris": {"android": "https://dc.lft.to/lastmile_qr_scan", "ios": "https://dc.lft.to/lastmile_qr_scan"}, "is_disabled": 0, "fusion_lat": 0.0, "lat": 38.907066666666665, "is_reserved": 0}, {"lon": -77.04645783333333, "fusion_lon": 0.0, "bike_id": "6507108bc7119d45629106d3f2641c68", "type": "electric_scooter", "name": "6507108bc7119d45629106d3f2641c68", "rental_uris": {"android": "https://dc.lft.to/lastmile_qr_scan", "ios": "https://dc.lft.to/lastmile_qr_scan"}, "is_disabled": 0, "fusion_lat": 0.0, "lat": 38.902229, "is_reserved": 0}, {"lon": -76.9463995, "fusion_lon": 0.0, "bike_id": "e75bd86a4cc4dc572c34f3fe744de457", "type": "electric_scooter", "name": "e75bd86a4cc4dc572c34f3fe744de457", "rental_uris": {"android": "https://dc.lft.to/lastmile_qr_scan", "ios": "https://dc.lft.to/lastmile_qr_scan"}, "is_disabled": 0, "fusion_lat": 0.0, "lat": 38.898612, "is_reserved": 0}, {"lon": -77.0420085, "fusion_lon": 0.0, "bike_id": "b119f5be20bb783e8b144d0fb40a4b47", "type": "electric_scooter", "name": "b119f5be20bb783e8b144d0fb40a4b47", "rental_uris": {"android": "https://dc.lft.to/lastmile_qr_scan", "ios": "https://dc.lft.to/lastmile_qr_scan"}, "is_disabled": 0, "fusion_lat": 0.0, "lat": 38.92098816666667, "is_reserved": 0}, {"lon": -77.1252795, "fusion_lon": 0.0, "bike_id": "4e34a8573e394cd3599413e2d44dff63", "type": "electric_bike", "name": "4e34a8573e394cd3599413e2d44dff63", "rental_uris": {"android": "https://dc.lft.to/lastmile_qr_scan", "ios": "https://dc.lft.to/lastmile_qr_scan"}, "is_disabled": 0, "fusion_lat": 0.0, "lat": 39.05636416666667, "is_reserved": 0}, {"lon": -76.97169316666667, "fusion_lon": 0.0, "bike_id": "47dadf75909bb9bfa4ecec94bb9bcc0b", "type": "electric_scooter", "name": "47dadf75909bb9bfa4ecec94bb9bcc0b", "rental_uris": {"android": "https://dc.lft.to/lastmile_qr_scan", "ios": "https://dc.lft.to/lastmile_qr_scan"}, "is_disabled": 0, "fusion_lat": 0.0, "lat": 38.8613925, "is_reserved": 0}, {"lon": -77.05728616666667, "fusion_lon": 0.0, "bike_id": "170a0acb58f098afaad95efdd3339c7c", "type": "electric_scooter", "name": "170a0acb58f098afaad95efdd3339c7c", "rental_uris": {"android": "https://dc.lft.to/lastmile_qr_scan", "ios": "https://dc.lft.to/lastmile_qr_scan"}, "is_disabled": 0, "fusion_lat": 0.0, "lat": 38.933651833333336, "is_reserved": 0}, {"lon": -77.07164616666667, "fusion_lon": 0.0, "bike_id": "4f3d0d47bb3fc22c2b1a31708372291d", "type": "electric_scooter", "name": "4f3d0d47bb3fc22c2b1a31708372291d", "rental_uris": {"android": "https://dc.lft.to/lastmile_qr_scan", "ios": "https://dc.lft.to/lastmile_qr_scan"}, "is_disabled": 0, "fusion_lat": 0.0, "lat": 38.938218166666665, "is_reserved": 0}, {"lon": -76.9900545, "fusion_lon": 0.0, "bike_id": "5e359f3c19091cdd2902b0d75ef4ecea", "type": "electric_scooter", "name": "5e359f3c19091cdd2902b0d75ef4ecea", "rental_uris": {"android": "https://dc.lft.to/lastmile_qr_scan", "ios": "https://dc.lft.to/lastmile_qr_scan"}, "is_disabled": 0, "fusion_lat": 0.0, "lat": 38.9038875, "is_reserved": 0}, {"lon": -77.02452666666667, "fusion_lon": 0.0, "bike_id": "a59f2834576830a4aa1315564f68a39f", "type": "electric_scooter", "name": "a59f2834576830a4aa1315564f68a39f", "rental_uris": {"android": "https://dc.lft.to/lastmile_qr_scan", "ios": "https://dc.lft.to/lastmile_qr_scan"}, "is_disabled": 0, "fusion_lat": 0.0, "lat": 38.908610333333336, "is_reserved": 0}, {"lon": -77.0122485, "fusion_lon": 0.0, "bike_id": "28950aaa257051c67c04b58583794f1f", "type": "electric_scooter", "name": "28950aaa257051c67c04b58583794f1f", "rental_uris": {"android": "https://dc.lft.to/lastmile_qr_scan", "ios": "https://dc.lft.to/lastmile_qr_scan"}, "is_disabled": 0, "fusion_lat": 0.0, "lat": 38.91545583333333, "is_reserved": 0}, {"lon": -77.06062033333333, "fusion_lon": 0.0, "bike_id": "4351da36f88b7abd88886a80e20a8fcf", "type": "electric_scooter", "name": "4351da36f88b7abd88886a80e20a8fcf", "rental_uris": {"android": "https://dc.lft.to/lastmile_qr_scan", "ios": "https://dc.lft.to/lastmile_qr_scan"}, "is_disabled": 0, "fusion_lat": 0.0, "lat": 38.9433725, "is_reserved": 0}, {"lon": -77.02322983333333, "fusion_lon": 0.0, "bike_id": "137c310f8d056cf884c0e915f66019f6", "type": "electric_scooter", "name": "137c310f8d056cf884c0e915f66019f6", "rental_uris": {"android": "https://dc.lft.to/lastmile_qr_scan", "ios": "https://dc.lft.to/lastmile_qr_scan"}, "is_disabled": 0, "fusion_lat": 0.0, "lat": 38.9294245, "is_reserved": 0}, {"lon": -77.01252166666667, "fusion_lon": 0.0, "bike_id": "a1edf54a446ad94f6a72ae2404c0c899", "type": "electric_scooter", "name": "a1edf54a446ad94f6a72ae2404c0c899", "rental_uris": {"android": "https://dc.lft.to/lastmile_qr_scan", "ios": "https://dc.lft.to/lastmile_qr_scan"}, "is_disabled": 0, "fusion_lat": 0.0, "lat": 38.91807516666667, "is_reserved": 0}, {"lon": -77.02597216666666, "fusion_lon": 0.0, "bike_id": "d1919b692ea1d3b10ed64c5b5ac38b7d", "type": "electric_scooter", "name": "d1919b692ea1d3b10ed64c5b5ac38b7d", "rental_uris": {"android": "https://dc.lft.to/lastmile_qr_scan", "ios": "https://dc.lft.to/lastmile_qr_scan"}, "is_disabled": 0, "fusion_lat": 0.0, "lat": 38.90671016666667, "is_reserved": 0}, {"lon": -77.09990633333334, "fusion_lon": 0.0, "bike_id": "669e8b8bd4cd7b2595c492b17c571711", "type": "electric_bike", "name": "669e8b8bd4cd7b2595c492b17c571711", "rental_uris": {"android": "https://dc.lft.to/lastmile_qr_scan", "ios": "https://dc.lft.to/lastmile_qr_scan"}, "is_disabled": 0, "fusion_lat": 0.0, "lat": 38.858986333333334, "is_reserved": 0}, {"lon": -76.9902955, "fusion_lon": 0.0, "bike_id": "6c608217d212cd07c74af2b9868074ec", "type": "electric_scooter", "name": "6c608217d212cd07c74af2b9868074ec", "rental_uris": {"android": "https://dc.lft.to/lastmile_qr_scan", "ios": "https://dc.lft.to/lastmile_qr_scan"}, "is_disabled": 0, "fusion_lat": 0.0, "lat": 38.88880733333333, "is_reserved": 0}, {"lon": -77.01948483333334, "fusion_lon": 0.0, "bike_id": "efa7ba8171936760cb2c89b8ab0b7fcd", "type": "electric_scooter", "name": "efa7ba8171936760cb2c89b8ab0b7fcd", "rental_uris": {"android": "https://dc.lft.to/lastmile_qr_scan", "ios": "https://dc.lft.to/lastmile_qr_scan"}, "is_disabled": 0, "fusion_lat": 0.0, "lat": 38.92419666666667, "is_reserved": 0}, {"lon": -77.040041, "fusion_lon": 0.0, "bike_id": "8662c99d6fd9b96be7ea9a52a0c5542b", "type": "electric_scooter", "name": "8662c99d6fd9b96be7ea9a52a0c5542b", "rental_uris": {"android": "https://dc.lft.to/lastmile_qr_scan", "ios": "https://dc.lft.to/lastmile_qr_scan"}, "is_disabled": 0, "fusion_lat": 0.0, "lat": 38.90355666666667, "is_reserved": 0}, {"lon": -77.041451, "fusion_lon": 0.0, "bike_id": "78f940d57adeefa3ce8fcd8c22c1a516", "type": "electric_scooter", "name": "78f940d57adeefa3ce8fcd8c22c1a516", "rental_uris": {"android": "https://dc.lft.to/lastmile_qr_scan", "ios": "https://dc.lft.to/lastmile_qr_scan"}, "is_disabled": 0, "fusion_lat": 0.0, "lat": 38.91686283333333, "is_reserved": 0}, {"lon": -77.04603266666666, "fusion_lon": 0.0, "bike_id": "e6e1c568787b4ebefdd60cfc724b40c6", "type": "electric_scooter", "name": "e6e1c568787b4ebefdd60cfc724b40c6", "rental_uris": {"android": "https://dc.lft.to/lastmile_qr_scan", "ios": "https://dc.lft.to/lastmile_qr_scan"}, "is_disabled": 0, "fusion_lat": 0.0, "lat": 38.915149, "is_reserved": 0}, {"lon": -77.02197466666667, "fusion_lon": 0.0, "bike_id": "2cceaaaeb7f6f3c723b817d07fa52712", "type": "electric_scooter", "name": "2cceaaaeb7f6f3c723b817d07fa52712", "rental_uris": {"android": "https://dc.lft.to/lastmile_qr_scan", "ios": "https://dc.lft.to/lastmile_qr_scan"}, "is_disabled": 0, "fusion_lat": 0.0, "lat": 38.8962745, "is_reserved": 0}, {"lon": -77.023991, "fusion_lon": 0.0, "bike_id": "1ff5a90f544bec8660cf8b712a7a6509", "type": "electric_scooter", "name": "1ff5a90f544bec8660cf8b712a7a6509", "rental_uris": {"android": "https://dc.lft.to/lastmile_qr_scan", "ios": "https://dc.lft.to/lastmile_qr_scan"}, "is_disabled": 0, "fusion_lat": 0.0, "lat": 38.916746, "is_reserved": 0}, {"lon": -77.0353255, "fusion_lon": 0.0, "bike_id": "9d08e8de687cb46a8fab4a15afc1f04f", "type": "electric_scooter", "name": "9d08e8de687cb46a8fab4a15afc1f04f", "rental_uris": {"android": "https://dc.lft.to/lastmile_qr_scan", "ios": "https://dc.lft.to/lastmile_qr_scan"}, "is_disabled": 0, "fusion_lat": 0.0, "lat": 38.925197833333335, "is_reserved": 0}, {"lon": -77.02174366666667, "fusion_lon": 0.0, "bike_id": "7833986cce5773adc874dd9b9adfcdd1", "type": "electric_scooter", "name": "7833986cce5773adc874dd9b9adfcdd1", "rental_uris": {"android": "https://dc.lft.to/lastmile_qr_scan", "ios": "https://dc.lft.to/lastmile_qr_scan"}, "is_disabled": 0, "fusion_lat": 0.0, "lat": 38.9429805, "is_reserved": 0}, {"lon": -77.01984466666667, "fusion_lon": 0.0, "bike_id": "6be111077f2a2b907541c1e498a01ceb", "type": "electric_scooter", "name": "6be111077f2a2b907541c1e498a01ceb", "rental_uris": {"android": "https://dc.lft.to/lastmile_qr_scan", "ios": "https://dc.lft.to/lastmile_qr_scan"}, "is_disabled": 0, "fusion_lat": 0.0, "lat": 38.93082416666667, "is_reserved": 0}, {"lon": -77.06350933333333, "fusion_lon": 0.0, "bike_id": "9a55dcd422baa43f2656e62315f095ab", "type": "electric_scooter", "name": "9a55dcd422baa43f2656e62315f095ab", "rental_uris": {"android": "https://dc.lft.to/lastmile_qr_scan", "ios": "https://dc.lft.to/lastmile_qr_scan"}, "is_disabled": 0, "fusion_lat": 0.0, "lat": 38.94437516666667, "is_reserved": 0}, {"lon": -77.04558883333333, "fusion_lon": 0.0, "bike_id": "736e5dd1a3f5de3377fab6bdea52ad13", "type": "electric_scooter", "name": "736e5dd1a3f5de3377fab6bdea52ad13", "rental_uris": {"android": "https://dc.lft.to/lastmile_qr_scan", "ios": "https://dc.lft.to/lastmile_qr_scan"}, "is_disabled": 0, "fusion_lat": 0.0, "lat": 38.917737, "is_reserved": 0}, {"lon": -77.04117316666667, "fusion_lon": 0.0, "bike_id": "7c14cd0940554c40c1796b536a580a82", "type": "electric_scooter", "name": "7c14cd0940554c40c1796b536a580a82", "rental_uris": {"android": "https://dc.lft.to/lastmile_qr_scan", "ios": "https://dc.lft.to/lastmile_qr_scan"}, "is_disabled": 0, "fusion_lat": 0.0, "lat": 38.93357816666666, "is_reserved": 0}, {"lon": -77.02578633333333, "fusion_lon": 0.0, "bike_id": "1d04c0da7978694ffb419b3c86ab902c", "type": "electric_scooter", "name": "1d04c0da7978694ffb419b3c86ab902c", "rental_uris": {"android": "https://dc.lft.to/lastmile_qr_scan", "ios": "https://dc.lft.to/lastmile_qr_scan"}, "is_disabled": 0, "fusion_lat": 0.0, "lat": 38.92524016666667, "is_reserved": 0}, {"lon": -77.02950866666667, "fusion_lon": 0.0, "bike_id": "ab56fb678c1c6afc6bd65135310e4d7a", "type": "electric_scooter", "name": "ab56fb678c1c6afc6bd65135310e4d7a", "rental_uris": {"android": "https://dc.lft.to/lastmile_qr_scan", "ios": "https://dc.lft.to/lastmile_qr_scan"}, "is_disabled": 0, "fusion_lat": 0.0, "lat": 38.917167166666665, "is_reserved": 0}, {"lon": -77.00781, "fusion_lon": 0.0, "bike_id": "07fd658c36712203adfa5da2f07ba2e2", "type": "electric_scooter", "name": "07fd658c36712203adfa5da2f07ba2e2", "rental_uris": {"android": "https://dc.lft.to/lastmile_qr_scan", "ios": "https://dc.lft.to/lastmile_qr_scan"}, "is_disabled": 0, "fusion_lat": 0.0, "lat": 38.917334833333335, "is_reserved": 0}, {"lon": -77.03452883333334, "fusion_lon": 0.0, "bike_id": "109307e6313c2b850022477f86266e56", "type": "electric_scooter", "name": "109307e6313c2b850022477f86266e56", "rental_uris": {"android": "https://dc.lft.to/lastmile_qr_scan", "ios": "https://dc.lft.to/lastmile_qr_scan"}, "is_disabled": 0, "fusion_lat": 0.0, "lat": 38.90825566666667, "is_reserved": 0}, {"lon": -77.12976316666666, "fusion_lon": 0.0, "bike_id": "c026fb29b18204c4627e2dee47bd9a8e", "type": "electric_bike", "name": "c026fb29b18204c4627e2dee47bd9a8e", "rental_uris": {"android": "https://dc.lft.to/lastmile_qr_scan", "ios": "https://dc.lft.to/lastmile_qr_scan"}, "is_disabled": 0, "fusion_lat": 0.0, "lat": 38.79988316666667, "is_reserved": 0}, {"lon": -76.98337733333334, "fusion_lon": 0.0, "bike_id": "1d45223decaa6e6e68f014c7ec66d4a9", "type": "electric_scooter", "name": "1d45223decaa6e6e68f014c7ec66d4a9", "rental_uris": {"android": "https://dc.lft.to/lastmile_qr_scan", "ios": "https://dc.lft.to/lastmile_qr_scan"}, "is_disabled": 0, "fusion_lat": 0.0, "lat": 38.865643666666664, "is_reserved": 0}, {"lon": -77.0239285, "fusion_lon": 0.0, "bike_id": "b853aaced3442717fdf97a9e5df1301d", "type": "electric_scooter", "name": "b853aaced3442717fdf97a9e5df1301d", "rental_uris": {"android": "https://dc.lft.to/lastmile_qr_scan", "ios": "https://dc.lft.to/lastmile_qr_scan"}, "is_disabled": 0, "fusion_lat": 0.0, "lat": 38.920728833333335, "is_reserved": 0}, {"lon": -77.01806833333333, "fusion_lon": 0.0, "bike_id": "568b22451cd0259e02192d7390fdb31b", "type": "electric_scooter", "name": "568b22451cd0259e02192d7390fdb31b", "rental_uris": {"android": "https://dc.lft.to/lastmile_qr_scan", "ios": "https://dc.lft.to/lastmile_qr_scan"}, "is_disabled": 0, "fusion_lat": 0.0, "lat": 38.904226333333334, "is_reserved": 0}, {"lon": -77.11081033333333, "fusion_lon": 0.0, "bike_id": "f8b88666256f32c62725c82c0fa641b8", "type": "electric_bike", "name": "f8b88666256f32c62725c82c0fa641b8", "rental_uris": {"android": "https://dc.lft.to/lastmile_qr_scan", "ios": "https://dc.lft.to/lastmile_qr_scan"}, "is_disabled": 0, "fusion_lat": 0.0, "lat": 39.01218866666667, "is_reserved": 0}, {"lon": -77.04281333333333, "fusion_lon": 0.0, "bike_id": "3b503cb42b91ba2e541a1f842481af91", "type": "electric_scooter", "name": "3b503cb42b91ba2e541a1f842481af91", "rental_uris": {"android": "https://dc.lft.to/lastmile_qr_scan", "ios": "https://dc.lft.to/lastmile_qr_scan"}, "is_disabled": 0, "fusion_lat": 0.0, "lat": 38.908657, "is_reserved": 0}, {"lon": -77.00678783333333, "fusion_lon": 0.0, "bike_id": "8740a1aa713e8171a2e865eebd6bba2b", "type": "electric_scooter", "name": "8740a1aa713e8171a2e865eebd6bba2b", "rental_uris": {"android": "https://dc.lft.to/lastmile_qr_scan", "ios": "https://dc.lft.to/lastmile_qr_scan"}, "is_disabled": 0, "fusion_lat": 0.0, "lat": 38.871719666666664, "is_reserved": 0}, {"lon": -77.025314, "fusion_lon": 0.0, "bike_id": "e2a07aca04e345f657f6d5bfd2f593c7", "type": "electric_scooter", "name": "e2a07aca04e345f657f6d5bfd2f593c7", "rental_uris": {"android": "https://dc.lft.to/lastmile_qr_scan", "ios": "https://dc.lft.to/lastmile_qr_scan"}, "is_disabled": 0, "fusion_lat": 0.0, "lat": 38.9456095, "is_reserved": 0}, {"lon": -77.03676783333333, "fusion_lon": 0.0, "bike_id": "dcd8f5b6394adeb46e97a87ce6c516df", "type": "electric_scooter", "name": "dcd8f5b6394adeb46e97a87ce6c516df", "rental_uris": {"android": "https://dc.lft.to/lastmile_qr_scan", "ios": "https://dc.lft.to/lastmile_qr_scan"}, "is_disabled": 0, "fusion_lat": 0.0, "lat": 38.9364935, "is_reserved": 0}, {"lon": -77.0490705, "fusion_lon": 0.0, "bike_id": "e0025eeb2bcad2a8ea81dcaf18d83d4f", "type": "electric_scooter", "name": "e0025eeb2bcad2a8ea81dcaf18d83d4f", "rental_uris": {"android": "https://dc.lft.to/lastmile_qr_scan", "ios": "https://dc.lft.to/lastmile_qr_scan"}, "is_disabled": 0, "fusion_lat": 0.0, "lat": 38.9159855, "is_reserved": 0}, {"lon": -77.03791766666667, "fusion_lon": 0.0, "bike_id": "f61d0efc3643a415d50676b4bddc1122", "type": "electric_scooter", "name": "f61d0efc3643a415d50676b4bddc1122", "rental_uris": {"android": "https://dc.lft.to/lastmile_qr_scan", "ios": "https://dc.lft.to/lastmile_qr_scan"}, "is_disabled": 0, "fusion_lat": 0.0, "lat": 38.921881166666665, "is_reserved": 0}, {"lon": -77.06008166666666, "fusion_lon": 0.0, "bike_id": "fb928b8139275fb995256ed2466631ec", "type": "electric_scooter", "name": "fb928b8139275fb995256ed2466631ec", "rental_uris": {"android": "https://dc.lft.to/lastmile_qr_scan", "ios": "https://dc.lft.to/lastmile_qr_scan"}, "is_disabled": 0, "fusion_lat": 0.0, "lat": 38.9364325, "is_reserved": 0}, {"lon": -76.979559, "fusion_lon": 0.0, "bike_id": "22b5a0c4dbd1557e6719ef9308b86b45", "type": "electric_scooter", "name": "22b5a0c4dbd1557e6719ef9308b86b45", "rental_uris": {"android": "https://dc.lft.to/lastmile_qr_scan", "ios": "https://dc.lft.to/lastmile_qr_scan"}, "is_disabled": 0, "fusion_lat": 0.0, "lat": 38.905038833333336, "is_reserved": 0}, {"lon": -77.02422133333333, "fusion_lon": 0.0, "bike_id": "a870d49b13fd0d5db7bf5a772b3ec507", "type": "electric_scooter", "name": "a870d49b13fd0d5db7bf5a772b3ec507", "rental_uris": {"android": "https://dc.lft.to/lastmile_qr_scan", "ios": "https://dc.lft.to/lastmile_qr_scan"}, "is_disabled": 0, "fusion_lat": 0.0, "lat": 38.920654166666665, "is_reserved": 0}, {"lon": -77.02179383333333, "fusion_lon": 0.0, "bike_id": "dddc71ad9d012b00ba631aa2c882ddc4", "type": "electric_scooter", "name": "dddc71ad9d012b00ba631aa2c882ddc4", "rental_uris": {"android": "https://dc.lft.to/lastmile_qr_scan", "ios": "https://dc.lft.to/lastmile_qr_scan"}, "is_disabled": 0, "fusion_lat": 0.0, "lat": 38.90568, "is_reserved": 0}, {"lon": -77.00294366666667, "fusion_lon": 0.0, "bike_id": "df6f01453a1c12a432d819183677143a", "type": "electric_scooter", "name": "df6f01453a1c12a432d819183677143a", "rental_uris": {"android": "https://dc.lft.to/lastmile_qr_scan", "ios": "https://dc.lft.to/lastmile_qr_scan"}, "is_disabled": 0, "fusion_lat": 0.0, "lat": 38.918145333333335, "is_reserved": 0}, {"lon": -77.00233133333333, "fusion_lon": 0.0, "bike_id": "ac801c96c95ed411693519be2ff648b6", "type": "electric_scooter", "name": "ac801c96c95ed411693519be2ff648b6", "rental_uris": {"android": "https://dc.lft.to/lastmile_qr_scan", "ios": "https://dc.lft.to/lastmile_qr_scan"}, "is_disabled": 0, "fusion_lat": 0.0, "lat": 38.87486116666667, "is_reserved": 0}, {"lon": -76.987168, "fusion_lon": 0.0, "bike_id": "8bf5665b31b5ecbe15eea94ef34e8ebb", "type": "electric_scooter", "name": "8bf5665b31b5ecbe15eea94ef34e8ebb", "rental_uris": {"android": "https://dc.lft.to/lastmile_qr_scan", "ios": "https://dc.lft.to/lastmile_qr_scan"}, "is_disabled": 0, "fusion_lat": 0.0, "lat": 38.866285, "is_reserved": 0}, {"lon": -76.995851, "fusion_lon": 0.0, "bike_id": "fe38a04c3c44d3cb87c9589a2d1687bd", "type": "electric_scooter", "name": "fe38a04c3c44d3cb87c9589a2d1687bd", "rental_uris": {"android": "https://dc.lft.to/lastmile_qr_scan", "ios": "https://dc.lft.to/lastmile_qr_scan"}, "is_disabled": 0, "fusion_lat": 0.0, "lat": 38.851775333333336, "is_reserved": 0}, {"lon": -77.0319125, "fusion_lon": 0.0, "bike_id": "04ad0bd6ad1bd4b6166582063eafdf06", "type": "electric_scooter", "name": "04ad0bd6ad1bd4b6166582063eafdf06", "rental_uris": {"android": "https://dc.lft.to/lastmile_qr_scan", "ios": "https://dc.lft.to/lastmile_qr_scan"}, "is_disabled": 0, "fusion_lat": 0.0, "lat": 38.91622483333333, "is_reserved": 0}, {"lon": -77.00061133333334, "fusion_lon": 0.0, "bike_id": "cb1b1f49c468b645740e47a061aab731", "type": "electric_scooter", "name": "cb1b1f49c468b645740e47a061aab731", "rental_uris": {"android": "https://dc.lft.to/lastmile_qr_scan", "ios": "https://dc.lft.to/lastmile_qr_scan"}, "is_disabled": 0, "fusion_lat": 0.0, "lat": 38.876850166666664, "is_reserved": 0}, {"lon": -77.02816233333333, "fusion_lon": 0.0, "bike_id": "5e651dedd41ed5cab27da7c44ca055a6", "type": "electric_scooter", "name": "5e651dedd41ed5cab27da7c44ca055a6", "rental_uris": {"android": "https://dc.lft.to/lastmile_qr_scan", "ios": "https://dc.lft.to/lastmile_qr_scan"}, "is_disabled": 0, "fusion_lat": 0.0, "lat": 38.916470833333335, "is_reserved": 0}, {"lon": -77.053096, "fusion_lon": 0.0, "bike_id": "9fe3516f903c85b3be33d8ce007110e3", "type": "electric_scooter", "name": "9fe3516f903c85b3be33d8ce007110e3", "rental_uris": {"android": "https://dc.lft.to/lastmile_qr_scan", "ios": "https://dc.lft.to/lastmile_qr_scan"}, "is_disabled": 0, "fusion_lat": 0.0, "lat": 38.906467666666664, "is_reserved": 0}, {"lon": -76.95186083333333, "fusion_lon": 0.0, "bike_id": "81b8c8fec4412bc1c5060ae35f5473e0", "type": "electric_scooter", "name": "81b8c8fec4412bc1c5060ae35f5473e0", "rental_uris": {"android": "https://dc.lft.to/lastmile_qr_scan", "ios": "https://dc.lft.to/lastmile_qr_scan"}, "is_disabled": 0, "fusion_lat": 0.0, "lat": 38.891307166666664, "is_reserved": 0}, {"lon": -76.97616233333333, "fusion_lon": 0.0, "bike_id": "85524b6408b2ee8b6a2b62901a0ce254", "type": "electric_scooter", "name": "85524b6408b2ee8b6a2b62901a0ce254", "rental_uris": {"android": "https://dc.lft.to/lastmile_qr_scan", "ios": "https://dc.lft.to/lastmile_qr_scan"}, "is_disabled": 0, "fusion_lat": 0.0, "lat": 38.89280683333333, "is_reserved": 0}, {"lon": -77.040358, "fusion_lon": 0.0, "bike_id": "21d73a3ace2a488acfd56eb47cc7ced2", "type": "electric_scooter", "name": "21d73a3ace2a488acfd56eb47cc7ced2", "rental_uris": {"android": "https://dc.lft.to/lastmile_qr_scan", "ios": "https://dc.lft.to/lastmile_qr_scan"}, "is_disabled": 0, "fusion_lat": 0.0, "lat": 38.905522, "is_reserved": 0}, {"lon": -77.03734683333333, "fusion_lon": 0.0, "bike_id": "2d2bbc390b4f92f4d2d4a097ed2a55a6", "type": "electric_scooter", "name": "2d2bbc390b4f92f4d2d4a097ed2a55a6", "rental_uris": {"android": "https://dc.lft.to/lastmile_qr_scan", "ios": "https://dc.lft.to/lastmile_qr_scan"}, "is_disabled": 0, "fusion_lat": 0.0, "lat": 38.903619666666664, "is_reserved": 0}, {"lon": -77.03995283333333, "fusion_lon": 0.0, "bike_id": "242bb34561e1e7ea90a792d7f28a48a8", "type": "electric_bike", "name": "242bb34561e1e7ea90a792d7f28a48a8", "rental_uris": {"android": "https://dc.lft.to/lastmile_qr_scan", "ios": "https://dc.lft.to/lastmile_qr_scan"}, "is_disabled": 0, "fusion_lat": 0.0, "lat": 38.996317, "is_reserved": 0}, {"lon": -76.998538, "fusion_lon": 0.0, "bike_id": "f4a9f97cc3f5b34f30284d623120e17e", "type": "electric_scooter", "name": "f4a9f97cc3f5b34f30284d623120e17e", "rental_uris": {"android": "https://dc.lft.to/lastmile_qr_scan", "ios": "https://dc.lft.to/lastmile_qr_scan"}, "is_disabled": 0, "fusion_lat": 0.0, "lat": 38.89189183333333, "is_reserved": 0}, {"lon": -77.036562, "fusion_lon": 0.0, "bike_id": "245fc739bf0e4c211bd9d035160c50b6", "type": "electric_scooter", "name": "245fc739bf0e4c211bd9d035160c50b6", "rental_uris": {"android": "https://dc.lft.to/lastmile_qr_scan", "ios": "https://dc.lft.to/lastmile_qr_scan"}, "is_disabled": 0, "fusion_lat": 0.0, "lat": 38.922134, "is_reserved": 0}, {"lon": -77.03825333333333, "fusion_lon": 0.0, "bike_id": "191409531560bb18e2e649d34db3e49a", "type": "electric_scooter", "name": "191409531560bb18e2e649d34db3e49a", "rental_uris": {"android": "https://dc.lft.to/lastmile_qr_scan", "ios": "https://dc.lft.to/lastmile_qr_scan"}, "is_disabled": 0, "fusion_lat": 0.0, "lat": 38.907933166666666, "is_reserved": 0}, {"lon": -77.04285366666667, "fusion_lon": 0.0, "bike_id": "707bd31b73a2a15cbee10a407bc4b613", "type": "electric_scooter", "name": "707bd31b73a2a15cbee10a407bc4b613", "rental_uris": {"android": "https://dc.lft.to/lastmile_qr_scan", "ios": "https://dc.lft.to/lastmile_qr_scan"}, "is_disabled": 0, "fusion_lat": 0.0, "lat": 38.90654033333333, "is_reserved": 0}, {"lon": -77.00842566666667, "fusion_lon": 0.0, "bike_id": "65a10c5c012f163e57d16fd411635b01", "type": "electric_scooter", "name": "65a10c5c012f163e57d16fd411635b01", "rental_uris": {"android": "https://dc.lft.to/lastmile_qr_scan", "ios": "https://dc.lft.to/lastmile_qr_scan"}, "is_disabled": 0, "fusion_lat": 0.0, "lat": 38.910424166666665, "is_reserved": 0}, {"lon": -77.00627816666666, "fusion_lon": 0.0, "bike_id": "4453b114d73d8fa91efe9eba13f9f816", "type": "electric_scooter", "name": "4453b114d73d8fa91efe9eba13f9f816", "rental_uris": {"android": "https://dc.lft.to/lastmile_qr_scan", "ios": "https://dc.lft.to/lastmile_qr_scan"}, "is_disabled": 0, "fusion_lat": 0.0, "lat": 38.871737333333336, "is_reserved": 0}, {"lon": -77.04356316666667, "fusion_lon": 0.0, "bike_id": "3b73dbc1dccfd75b459b407c1d910011", "type": "electric_scooter", "name": "3b73dbc1dccfd75b459b407c1d910011", "rental_uris": {"android": "https://dc.lft.to/lastmile_qr_scan", "ios": "https://dc.lft.to/lastmile_qr_scan"}, "is_disabled": 0, "fusion_lat": 0.0, "lat": 38.897453, "is_reserved": 0}, {"lon": -77.07461716666667, "fusion_lon": 0.0, "bike_id": "cf9d83950ee9129457d108d8467888f9", "type": "electric_scooter", "name": "cf9d83950ee9129457d108d8467888f9", "rental_uris": {"android": "https://dc.lft.to/lastmile_qr_scan", "ios": "https://dc.lft.to/lastmile_qr_scan"}, "is_disabled": 0, "fusion_lat": 0.0, "lat": 38.93560816666667, "is_reserved": 0}, {"lon": -77.0275975, "fusion_lon": 0.0, "bike_id": "ca5a7be81cc7b77a594295b1bc1f8326", "type": "electric_scooter", "name": "ca5a7be81cc7b77a594295b1bc1f8326", "rental_uris": {"android": "https://dc.lft.to/lastmile_qr_scan", "ios": "https://dc.lft.to/lastmile_qr_scan"}, "is_disabled": 0, "fusion_lat": 0.0, "lat": 38.91702516666667, "is_reserved": 0}, {"lon": -77.0238085, "fusion_lon": 0.0, "bike_id": "d36384777cf4fcb316c25e40f6032a79", "type": "electric_scooter", "name": "d36384777cf4fcb316c25e40f6032a79", "rental_uris": {"android": "https://dc.lft.to/lastmile_qr_scan", "ios": "https://dc.lft.to/lastmile_qr_scan"}, "is_disabled": 0, "fusion_lat": 0.0, "lat": 38.89730633333333, "is_reserved": 0}, {"lon": -77.02666666666667, "fusion_lon": 0.0, "bike_id": "b6180b9f77d0f7d62e09293da2c764f0", "type": "electric_scooter", "name": "b6180b9f77d0f7d62e09293da2c764f0", "rental_uris": {"android": "https://dc.lft.to/lastmile_qr_scan", "ios": "https://dc.lft.to/lastmile_qr_scan"}, "is_disabled": 0, "fusion_lat": 0.0, "lat": 38.9170605, "is_reserved": 0}, {"lon": -77.0337615, "fusion_lon": 0.0, "bike_id": "23b0a83c77865c5e37bcf93ffea8c336", "type": "electric_scooter", "name": "23b0a83c77865c5e37bcf93ffea8c336", "rental_uris": {"android": "https://dc.lft.to/lastmile_qr_scan", "ios": "https://dc.lft.to/lastmile_qr_scan"}, "is_disabled": 0, "fusion_lat": 0.0, "lat": 38.92163566666667, "is_reserved": 0}, {"lon": -77.02648933333333, "fusion_lon": 0.0, "bike_id": "123a8ebdaa63d0eaae83b0a133c2eeb6", "type": "electric_scooter", "name": "123a8ebdaa63d0eaae83b0a133c2eeb6", "rental_uris": {"android": "https://dc.lft.to/lastmile_qr_scan", "ios": "https://dc.lft.to/lastmile_qr_scan"}, "is_disabled": 0, "fusion_lat": 0.0, "lat": 38.938658833333335, "is_reserved": 0}, {"lon": -77.0070545, "fusion_lon": 0.0, "bike_id": "0e8535087dfd999846c7adaeaeb8e73a", "type": "electric_scooter", "name": "0e8535087dfd999846c7adaeaeb8e73a", "rental_uris": {"android": "https://dc.lft.to/lastmile_qr_scan", "ios": "https://dc.lft.to/lastmile_qr_scan"}, "is_disabled": 0, "fusion_lat": 0.0, "lat": 38.877858833333335, "is_reserved": 0}, {"lon": -76.98892583333334, "fusion_lon": 0.0, "bike_id": "42e7de4401afa856f4afa06a1bacd665", "type": "electric_scooter", "name": "42e7de4401afa856f4afa06a1bacd665", "rental_uris": {"android": "https://dc.lft.to/lastmile_qr_scan", "ios": "https://dc.lft.to/lastmile_qr_scan"}, "is_disabled": 0, "fusion_lat": 0.0, "lat": 38.86661983333333, "is_reserved": 0}, {"lon": -77.02184066666666, "fusion_lon": 0.0, "bike_id": "378d24c99fef3101f42d15c7f9be4aa1", "type": "electric_scooter", "name": "378d24c99fef3101f42d15c7f9be4aa1", "rental_uris": {"android": "https://dc.lft.to/lastmile_qr_scan", "ios": "https://dc.lft.to/lastmile_qr_scan"}, "is_disabled": 0, "fusion_lat": 0.0, "lat": 38.91211583333333, "is_reserved": 0}, {"lon": -77.0297435, "fusion_lon": 0.0, "bike_id": "1e7dad7e397db9f75a288ddf3ba36c40", "type": "electric_scooter", "name": "1e7dad7e397db9f75a288ddf3ba36c40", "rental_uris": {"android": "https://dc.lft.to/lastmile_qr_scan", "ios": "https://dc.lft.to/lastmile_qr_scan"}, "is_disabled": 0, "fusion_lat": 0.0, "lat": 38.916603, "is_reserved": 0}, {"lon": -77.03437933333333, "fusion_lon": 0.0, "bike_id": "b5f89eabf017da8c85a9fda9951e9dc2", "type": "electric_scooter", "name": "b5f89eabf017da8c85a9fda9951e9dc2", "rental_uris": {"android": "https://dc.lft.to/lastmile_qr_scan", "ios": "https://dc.lft.to/lastmile_qr_scan"}, "is_disabled": 0, "fusion_lat": 0.0, "lat": 38.90700966666667, "is_reserved": 0}, {"lon": -77.03033566666667, "fusion_lon": 0.0, "bike_id": "0c9eaff6ec1e4273565c2af4fa36fcc7", "type": "electric_scooter", "name": "0c9eaff6ec1e4273565c2af4fa36fcc7", "rental_uris": {"android": "https://dc.lft.to/lastmile_qr_scan", "ios": "https://dc.lft.to/lastmile_qr_scan"}, "is_disabled": 0, "fusion_lat": 0.0, "lat": 38.904864333333336, "is_reserved": 0}, {"lon": -77.04177516666667, "fusion_lon": 0.0, "bike_id": "7af1abb1f8404a5d3c1abc16dce79824", "type": "electric_scooter", "name": "7af1abb1f8404a5d3c1abc16dce79824", "rental_uris": {"android": "https://dc.lft.to/lastmile_qr_scan", "ios": "https://dc.lft.to/lastmile_qr_scan"}, "is_disabled": 0, "fusion_lat": 0.0, "lat": 38.91907, "is_reserved": 0}, {"lon": -77.027371, "fusion_lon": 0.0, "bike_id": "1cd8243102683d4f9242034e0c451428", "type": "electric_scooter", "name": "1cd8243102683d4f9242034e0c451428", "rental_uris": {"android": "https://dc.lft.to/lastmile_qr_scan", "ios": "https://dc.lft.to/lastmile_qr_scan"}, "is_disabled": 0, "fusion_lat": 0.0, "lat": 38.894865833333334, "is_reserved": 0}, {"lon": -77.03853033333333, "fusion_lon": 0.0, "bike_id": "6d077b562b8b5e16758129d78b457551", "type": "electric_scooter", "name": "6d077b562b8b5e16758129d78b457551", "rental_uris": {"android": "https://dc.lft.to/lastmile_qr_scan", "ios": "https://dc.lft.to/lastmile_qr_scan"}, "is_disabled": 0, "fusion_lat": 0.0, "lat": 38.915446, "is_reserved": 0}, {"lon": -77.02107233333334, "fusion_lon": 0.0, "bike_id": "e87cacc17bd3a7777faafbacb71c8339", "type": "electric_scooter", "name": "e87cacc17bd3a7777faafbacb71c8339", "rental_uris": {"android": "https://dc.lft.to/lastmile_qr_scan", "ios": "https://dc.lft.to/lastmile_qr_scan"}, "is_disabled": 0, "fusion_lat": 0.0, "lat": 38.88509416666667, "is_reserved": 0}, {"lon": -77.02751816666667, "fusion_lon": 0.0, "bike_id": "8a1df6cf21f2a5fadf60e590c4d5dcc1", "type": "electric_scooter", "name": "8a1df6cf21f2a5fadf60e590c4d5dcc1", "rental_uris": {"android": "https://dc.lft.to/lastmile_qr_scan", "ios": "https://dc.lft.to/lastmile_qr_scan"}, "is_disabled": 0, "fusion_lat": 0.0, "lat": 38.902665666666664, "is_reserved": 0}, {"lon": -77.02404083333333, "fusion_lon": 0.0, "bike_id": "68ccb56631f63f84c21e77c1ce12ad3b", "type": "electric_bike", "name": "68ccb56631f63f84c21e77c1ce12ad3b", "rental_uris": {"android": "https://dc.lft.to/lastmile_qr_scan", "ios": "https://dc.lft.to/lastmile_qr_scan"}, "is_disabled": 0, "fusion_lat": 0.0, "lat": 38.957082, "is_reserved": 0}, {"lon": -77.03865633333334, "fusion_lon": 0.0, "bike_id": "50dc359365003c0f248d019a1d51b7fe", "type": "electric_scooter", "name": "50dc359365003c0f248d019a1d51b7fe", "rental_uris": {"android": "https://dc.lft.to/lastmile_qr_scan", "ios": "https://dc.lft.to/lastmile_qr_scan"}, "is_disabled": 0, "fusion_lat": 0.0, "lat": 38.91021666666666, "is_reserved": 0}, {"lon": -77.061823, "fusion_lon": 0.0, "bike_id": "f14b5cad187a8d7ab612a314ee440480", "type": "electric_scooter", "name": "f14b5cad187a8d7ab612a314ee440480", "rental_uris": {"android": "https://dc.lft.to/lastmile_qr_scan", "ios": "https://dc.lft.to/lastmile_qr_scan"}, "is_disabled": 0, "fusion_lat": 0.0, "lat": 38.90336466666667, "is_reserved": 0}, {"lon": -77.00878216666666, "fusion_lon": 0.0, "bike_id": "4c51aec0384cc253419350026fa252e6", "type": "electric_scooter", "name": "4c51aec0384cc253419350026fa252e6", "rental_uris": {"android": "https://dc.lft.to/lastmile_qr_scan", "ios": "https://dc.lft.to/lastmile_qr_scan"}, "is_disabled": 0, "fusion_lat": 0.0, "lat": 38.8794745, "is_reserved": 0}, {"lon": -76.954148, "fusion_lon": 0.0, "bike_id": "91efddede39b2b79d5ba20424ec326b3", "type": "electric_bike", "name": "91efddede39b2b79d5ba20424ec326b3", "rental_uris": {"android": "https://dc.lft.to/lastmile_qr_scan", "ios": "https://dc.lft.to/lastmile_qr_scan"}, "is_disabled": 0, "fusion_lat": 0.0, "lat": 38.884142, "is_reserved": 0}, {"lon": -76.99789133333333, "fusion_lon": 0.0, "bike_id": "0963933f8b5cb98233dbade1317ee4a7", "type": "electric_scooter", "name": "0963933f8b5cb98233dbade1317ee4a7", "rental_uris": {"android": "https://dc.lft.to/lastmile_qr_scan", "ios": "https://dc.lft.to/lastmile_qr_scan"}, "is_disabled": 0, "fusion_lat": 0.0, "lat": 38.908721, "is_reserved": 0}, {"lon": -77.058509, "fusion_lon": 0.0, "bike_id": "abaafa40d835dba33db319340cd40ee3", "type": "electric_scooter", "name": "abaafa40d835dba33db319340cd40ee3", "rental_uris": {"android": "https://dc.lft.to/lastmile_qr_scan", "ios": "https://dc.lft.to/lastmile_qr_scan"}, "is_disabled": 0, "fusion_lat": 0.0, "lat": 38.93053116666667, "is_reserved": 0}, {"lon": -77.05291233333334, "fusion_lon": 0.0, "bike_id": "90ebe4209ece2c125e644791e8f588f3", "type": "electric_scooter", "name": "90ebe4209ece2c125e644791e8f588f3", "rental_uris": {"android": "https://dc.lft.to/lastmile_qr_scan", "ios": "https://dc.lft.to/lastmile_qr_scan"}, "is_disabled": 0, "fusion_lat": 0.0, "lat": 38.90346983333333, "is_reserved": 0}, {"lon": -77.02789283333334, "fusion_lon": 0.0, "bike_id": "47c5f0099a0b42fd2adaab6f8bb6adb2", "type": "electric_scooter", "name": "47c5f0099a0b42fd2adaab6f8bb6adb2", "rental_uris": {"android": "https://dc.lft.to/lastmile_qr_scan", "ios": "https://dc.lft.to/lastmile_qr_scan"}, "is_disabled": 0, "fusion_lat": 0.0, "lat": 38.939296666666664, "is_reserved": 0}, {"lon": -77.02814633333334, "fusion_lon": 0.0, "bike_id": "b4c8786a4cbc4a4c75df3f110571963b", "type": "electric_scooter", "name": "b4c8786a4cbc4a4c75df3f110571963b", "rental_uris": {"android": "https://dc.lft.to/lastmile_qr_scan", "ios": "https://dc.lft.to/lastmile_qr_scan"}, "is_disabled": 0, "fusion_lat": 0.0, "lat": 38.916867333333336, "is_reserved": 0}, {"lon": -77.031774, "fusion_lon": 0.0, "bike_id": "781b8ad44d029bbad69910be6a9b3369", "type": "electric_scooter", "name": "781b8ad44d029bbad69910be6a9b3369", "rental_uris": {"android": "https://dc.lft.to/lastmile_qr_scan", "ios": "https://dc.lft.to/lastmile_qr_scan"}, "is_disabled": 0, "fusion_lat": 0.0, "lat": 38.915539333333335, "is_reserved": 0}, {"lon": -77.04225433333333, "fusion_lon": 0.0, "bike_id": "fb393f7e5bf527bda8da017bfa663678", "type": "electric_scooter", "name": "fb393f7e5bf527bda8da017bfa663678", "rental_uris": {"android": "https://dc.lft.to/lastmile_qr_scan", "ios": "https://dc.lft.to/lastmile_qr_scan"}, "is_disabled": 0, "fusion_lat": 0.0, "lat": 38.92626833333333, "is_reserved": 0}, {"lon": -77.00339516666666, "fusion_lon": 0.0, "bike_id": "9300e2029d49020df183fca214a11f56", "type": "electric_scooter", "name": "9300e2029d49020df183fca214a11f56", "rental_uris": {"android": "https://dc.lft.to/lastmile_qr_scan", "ios": "https://dc.lft.to/lastmile_qr_scan"}, "is_disabled": 0, "fusion_lat": 0.0, "lat": 38.895241166666665, "is_reserved": 0}, {"lon": -76.996939, "fusion_lon": 0.0, "bike_id": "bc2f0d4b4b5707552b1697b756f7e3d8", "type": "electric_scooter", "name": "bc2f0d4b4b5707552b1697b756f7e3d8", "rental_uris": {"android": "https://dc.lft.to/lastmile_qr_scan", "ios": "https://dc.lft.to/lastmile_qr_scan"}, "is_disabled": 0, "fusion_lat": 0.0, "lat": 38.88421683333333, "is_reserved": 0}, {"lon": -76.99220966666667, "fusion_lon": 0.0, "bike_id": "57efb49e4d81d01a1ab73cb8138ea796", "type": "electric_bike", "name": "57efb49e4d81d01a1ab73cb8138ea796", "rental_uris": {"android": "https://dc.lft.to/lastmile_qr_scan", "ios": "https://dc.lft.to/lastmile_qr_scan"}, "is_disabled": 0, "fusion_lat": 0.0, "lat": 38.94024366666667, "is_reserved": 0}, {"lon": -77.026215, "fusion_lon": 0.0, "bike_id": "46008b0fc7a5326d018dcc0d12fc81f8", "type": "electric_scooter", "name": "46008b0fc7a5326d018dcc0d12fc81f8", "rental_uris": {"android": "https://dc.lft.to/lastmile_qr_scan", "ios": "https://dc.lft.to/lastmile_qr_scan"}, "is_disabled": 0, "fusion_lat": 0.0, "lat": 38.8982715, "is_reserved": 0}, {"lon": -77.1068605, "fusion_lon": 0.0, "bike_id": "c2bc474358a5dd6ca246484e333cd3ec", "type": "electric_bike", "name": "c2bc474358a5dd6ca246484e333cd3ec", "rental_uris": {"android": "https://dc.lft.to/lastmile_qr_scan", "ios": "https://dc.lft.to/lastmile_qr_scan"}, "is_disabled": 0, "fusion_lat": 0.0, "lat": 38.86448866666667, "is_reserved": 0}, {"lon": -77.05149033333333, "fusion_lon": 0.0, "bike_id": "9f4ea816129fe10e97a1261204df876c", "type": "electric_scooter", "name": "9f4ea816129fe10e97a1261204df876c", "rental_uris": {"android": "https://dc.lft.to/lastmile_qr_scan", "ios": "https://dc.lft.to/lastmile_qr_scan"}, "is_disabled": 0, "fusion_lat": 0.0, "lat": 38.92374083333333, "is_reserved": 0}, {"lon": -77.05734316666667, "fusion_lon": 0.0, "bike_id": "dbf69877438b1db76ab606979c34a5ab", "type": "electric_scooter", "name": "dbf69877438b1db76ab606979c34a5ab", "rental_uris": {"android": "https://dc.lft.to/lastmile_qr_scan", "ios": "https://dc.lft.to/lastmile_qr_scan"}, "is_disabled": 0, "fusion_lat": 0.0, "lat": 38.9336435, "is_reserved": 0}, {"lon": -77.03172166666667, "fusion_lon": 0.0, "bike_id": "92fa92101e5ee35395c7de6660d8bef0", "type": "electric_scooter", "name": "92fa92101e5ee35395c7de6660d8bef0", "rental_uris": {"android": "https://dc.lft.to/lastmile_qr_scan", "ios": "https://dc.lft.to/lastmile_qr_scan"}, "is_disabled": 0, "fusion_lat": 0.0, "lat": 38.90421116666667, "is_reserved": 0}, {"lon": -77.0089365, "fusion_lon": 0.0, "bike_id": "a141d774abea3138612852167c9e4c29", "type": "electric_scooter", "name": "a141d774abea3138612852167c9e4c29", "rental_uris": {"android": "https://dc.lft.to/lastmile_qr_scan", "ios": "https://dc.lft.to/lastmile_qr_scan"}, "is_disabled": 0, "fusion_lat": 0.0, "lat": 38.885016, "is_reserved": 0}, {"lon": -77.05583466666667, "fusion_lon": 0.0, "bike_id": "1012abc42d6b1149e19ff9989a7d40e2", "type": "electric_scooter", "name": "1012abc42d6b1149e19ff9989a7d40e2", "rental_uris": {"android": "https://dc.lft.to/lastmile_qr_scan", "ios": "https://dc.lft.to/lastmile_qr_scan"}, "is_disabled": 0, "fusion_lat": 0.0, "lat": 38.93429966666667, "is_reserved": 0}, {"lon": -77.03909866666666, "fusion_lon": 0.0, "bike_id": "8ea61408ea8f804015ef5a806a84284c", "type": "electric_scooter", "name": "8ea61408ea8f804015ef5a806a84284c", "rental_uris": {"android": "https://dc.lft.to/lastmile_qr_scan", "ios": "https://dc.lft.to/lastmile_qr_scan"}, "is_disabled": 0, "fusion_lat": 0.0, "lat": 38.9048995, "is_reserved": 0}, {"lon": -77.04935016666667, "fusion_lon": 0.0, "bike_id": "1adb6157ffd39b6cb541f1db1aee818a", "type": "electric_bike", "name": "1adb6157ffd39b6cb541f1db1aee818a", "rental_uris": {"android": "https://dc.lft.to/lastmile_qr_scan", "ios": "https://dc.lft.to/lastmile_qr_scan"}, "is_disabled": 0, "fusion_lat": 0.0, "lat": 38.8545135, "is_reserved": 0}, {"lon": -77.03831233333334, "fusion_lon": 0.0, "bike_id": "3fd9cc5773aabe2496d491096d3ab7ca", "type": "electric_scooter", "name": "3fd9cc5773aabe2496d491096d3ab7ca", "rental_uris": {"android": "https://dc.lft.to/lastmile_qr_scan", "ios": "https://dc.lft.to/lastmile_qr_scan"}, "is_disabled": 0, "fusion_lat": 0.0, "lat": 38.915050666666666, "is_reserved": 0}, {"lon": -77.04014933333333, "fusion_lon": 0.0, "bike_id": "7585390bdac304187dad00243a143858", "type": "electric_scooter", "name": "7585390bdac304187dad00243a143858", "rental_uris": {"android": "https://dc.lft.to/lastmile_qr_scan", "ios": "https://dc.lft.to/lastmile_qr_scan"}, "is_disabled": 0, "fusion_lat": 0.0, "lat": 38.89642666666667, "is_reserved": 0}, {"lon": -77.02357583333334, "fusion_lon": 0.0, "bike_id": "bac248e1199866106d64ea3c97b4d78b", "type": "electric_scooter", "name": "bac248e1199866106d64ea3c97b4d78b", "rental_uris": {"android": "https://dc.lft.to/lastmile_qr_scan", "ios": "https://dc.lft.to/lastmile_qr_scan"}, "is_disabled": 0, "fusion_lat": 0.0, "lat": 38.9374355, "is_reserved": 0}, {"lon": -77.02485583333333, "fusion_lon": 0.0, "bike_id": "2f31ea24cffe3d34a29caf294710f99c", "type": "electric_scooter", "name": "2f31ea24cffe3d34a29caf294710f99c", "rental_uris": {"android": "https://dc.lft.to/lastmile_qr_scan", "ios": "https://dc.lft.to/lastmile_qr_scan"}, "is_disabled": 0, "fusion_lat": 0.0, "lat": 38.91700866666667, "is_reserved": 0}, {"lon": -77.04572516666667, "fusion_lon": 0.0, "bike_id": "4e6b0313c5036ae8b7ee0539c2fec905", "type": "electric_scooter", "name": "4e6b0313c5036ae8b7ee0539c2fec905", "rental_uris": {"android": "https://dc.lft.to/lastmile_qr_scan", "ios": "https://dc.lft.to/lastmile_qr_scan"}, "is_disabled": 0, "fusion_lat": 0.0, "lat": 38.921263833333335, "is_reserved": 0}, {"lon": -77.03209133333333, "fusion_lon": 0.0, "bike_id": "c2df074f67d11a7c27f4c80f5ea517a8", "type": "electric_scooter", "name": "c2df074f67d11a7c27f4c80f5ea517a8", "rental_uris": {"android": "https://dc.lft.to/lastmile_qr_scan", "ios": "https://dc.lft.to/lastmile_qr_scan"}, "is_disabled": 0, "fusion_lat": 0.0, "lat": 38.92790766666667, "is_reserved": 0}, {"lon": -77.02493766666667, "fusion_lon": 0.0, "bike_id": "28968c77265344dfbc9992e237d775f5", "type": "electric_scooter", "name": "28968c77265344dfbc9992e237d775f5", "rental_uris": {"android": "https://dc.lft.to/lastmile_qr_scan", "ios": "https://dc.lft.to/lastmile_qr_scan"}, "is_disabled": 0, "fusion_lat": 0.0, "lat": 38.94093783333334, "is_reserved": 0}, {"lon": -77.03241766666666, "fusion_lon": 0.0, "bike_id": "2f027907f4fa2a32f1ad9139e220b39a", "type": "electric_scooter", "name": "2f027907f4fa2a32f1ad9139e220b39a", "rental_uris": {"android": "https://dc.lft.to/lastmile_qr_scan", "ios": "https://dc.lft.to/lastmile_qr_scan"}, "is_disabled": 0, "fusion_lat": 0.0, "lat": 38.9274745, "is_reserved": 0}, {"lon": -77.04192433333333, "fusion_lon": 0.0, "bike_id": "77fe48ec7e248cbf2aa25a5f25019543", "type": "electric_scooter", "name": "77fe48ec7e248cbf2aa25a5f25019543", "rental_uris": {"android": "https://dc.lft.to/lastmile_qr_scan", "ios": "https://dc.lft.to/lastmile_qr_scan"}, "is_disabled": 0, "fusion_lat": 0.0, "lat": 38.9210205, "is_reserved": 0}, {"lon": -77.03043733333334, "fusion_lon": 0.0, "bike_id": "6f3d98088042781274426f8e54f11a90", "type": "electric_scooter", "name": "6f3d98088042781274426f8e54f11a90", "rental_uris": {"android": "https://dc.lft.to/lastmile_qr_scan", "ios": "https://dc.lft.to/lastmile_qr_scan"}, "is_disabled": 0, "fusion_lat": 0.0, "lat": 38.917070833333334, "is_reserved": 0}, {"lon": -77.03517633333334, "fusion_lon": 0.0, "bike_id": "fda2b710286785fffd8bf8ef1d1bdd45", "type": "electric_scooter", "name": "fda2b710286785fffd8bf8ef1d1bdd45", "rental_uris": {"android": "https://dc.lft.to/lastmile_qr_scan", "ios": "https://dc.lft.to/lastmile_qr_scan"}, "is_disabled": 0, "fusion_lat": 0.0, "lat": 38.921727833333335, "is_reserved": 0}, {"lon": -77.03176066666667, "fusion_lon": 0.0, "bike_id": "abdfb79e7812e27e553c80cc510360de", "type": "electric_scooter", "name": "abdfb79e7812e27e553c80cc510360de", "rental_uris": {"android": "https://dc.lft.to/lastmile_qr_scan", "ios": "https://dc.lft.to/lastmile_qr_scan"}, "is_disabled": 0, "fusion_lat": 0.0, "lat": 38.91418083333333, "is_reserved": 0}, {"lon": -76.9204805, "fusion_lon": 0.0, "bike_id": "aaa1f49b34b9186f0d7bb6de9740d909", "type": "electric_bike", "name": "aaa1f49b34b9186f0d7bb6de9740d909", "rental_uris": {"android": "https://dc.lft.to/lastmile_qr_scan", "ios": "https://dc.lft.to/lastmile_qr_scan"}, "is_disabled": 0, "fusion_lat": 0.0, "lat": 38.89736633333333, "is_reserved": 0}, {"lon": -77.02613383333333, "fusion_lon": 0.0, "bike_id": "6d041642d707942d4b2d24d97f4234d9", "type": "electric_scooter", "name": "6d041642d707942d4b2d24d97f4234d9", "rental_uris": {"android": "https://dc.lft.to/lastmile_qr_scan", "ios": "https://dc.lft.to/lastmile_qr_scan"}, "is_disabled": 0, "fusion_lat": 0.0, "lat": 38.95183983333333, "is_reserved": 0}, {"lon": -77.005643, "fusion_lon": 0.0, "bike_id": "49523abe5db59e1939b85fdfa3d07948", "type": "electric_scooter", "name": "49523abe5db59e1939b85fdfa3d07948", "rental_uris": {"android": "https://dc.lft.to/lastmile_qr_scan", "ios": "https://dc.lft.to/lastmile_qr_scan"}, "is_disabled": 0, "fusion_lat": 0.0, "lat": 38.87472233333333, "is_reserved": 0}, {"lon": -77.02786116666667, "fusion_lon": 0.0, "bike_id": "afd3ff929194236255fbe207ff04aebf", "type": "electric_scooter", "name": "afd3ff929194236255fbe207ff04aebf", "rental_uris": {"android": "https://dc.lft.to/lastmile_qr_scan", "ios": "https://dc.lft.to/lastmile_qr_scan"}, "is_disabled": 0, "fusion_lat": 0.0, "lat": 38.89618333333333, "is_reserved": 0}, {"lon": -77.03671616666666, "fusion_lon": 0.0, "bike_id": "16febabdb2d718f0f5cb36e0c2f92787", "type": "electric_scooter", "name": "16febabdb2d718f0f5cb36e0c2f92787", "rental_uris": {"android": "https://dc.lft.to/lastmile_qr_scan", "ios": "https://dc.lft.to/lastmile_qr_scan"}, "is_disabled": 0, "fusion_lat": 0.0, "lat": 38.9226155, "is_reserved": 0}, {"lon": -77.03473416666667, "fusion_lon": 0.0, "bike_id": "40edfa037e3aa96788f3b7b75bbb7979", "type": "electric_scooter", "name": "40edfa037e3aa96788f3b7b75bbb7979", "rental_uris": {"android": "https://dc.lft.to/lastmile_qr_scan", "ios": "https://dc.lft.to/lastmile_qr_scan"}, "is_disabled": 0, "fusion_lat": 0.0, "lat": 38.91710066666667, "is_reserved": 0}, {"lon": -77.0498685, "fusion_lon": 0.0, "bike_id": "f86a78cac2838caed87a5cfad0f72227", "type": "electric_scooter", "name": "f86a78cac2838caed87a5cfad0f72227", "rental_uris": {"android": "https://dc.lft.to/lastmile_qr_scan", "ios": "https://dc.lft.to/lastmile_qr_scan"}, "is_disabled": 0, "fusion_lat": 0.0, "lat": 38.90114833333333, "is_reserved": 0}, {"lon": -77.02955933333334, "fusion_lon": 0.0, "bike_id": "89c50fbd7b89b66e1462e118c07e248a", "type": "electric_scooter", "name": "89c50fbd7b89b66e1462e118c07e248a", "rental_uris": {"android": "https://dc.lft.to/lastmile_qr_scan", "ios": "https://dc.lft.to/lastmile_qr_scan"}, "is_disabled": 0, "fusion_lat": 0.0, "lat": 38.90740066666667, "is_reserved": 0}, {"lon": -77.03282, "fusion_lon": 0.0, "bike_id": "dc84cb850edca2c9b7b2f332c9848a11", "type": "electric_scooter", "name": "dc84cb850edca2c9b7b2f332c9848a11", "rental_uris": {"android": "https://dc.lft.to/lastmile_qr_scan", "ios": "https://dc.lft.to/lastmile_qr_scan"}, "is_disabled": 0, "fusion_lat": 0.0, "lat": 38.9198245, "is_reserved": 0}, {"lon": -77.01225266666667, "fusion_lon": 0.0, "bike_id": "3ee1c39d3688a5805dfe5915895bc6c5", "type": "electric_scooter", "name": "3ee1c39d3688a5805dfe5915895bc6c5", "rental_uris": {"android": "https://dc.lft.to/lastmile_qr_scan", "ios": "https://dc.lft.to/lastmile_qr_scan"}, "is_disabled": 0, "fusion_lat": 0.0, "lat": 38.91436366666667, "is_reserved": 0}, {"lon": -76.93185, "fusion_lon": 0.0, "bike_id": "fadf87c36ba6d74985b2aa431314e96b", "type": "electric_scooter", "name": "fadf87c36ba6d74985b2aa431314e96b", "rental_uris": {"android": "https://dc.lft.to/lastmile_qr_scan", "ios": "https://dc.lft.to/lastmile_qr_scan"}, "is_disabled": 0, "fusion_lat": 0.0, "lat": 38.898789666666666, "is_reserved": 0}, {"lon": -77.02446916666666, "fusion_lon": 0.0, "bike_id": "23fcfdb7fc23e065140b237469fe81f5", "type": "electric_scooter", "name": "23fcfdb7fc23e065140b237469fe81f5", "rental_uris": {"android": "https://dc.lft.to/lastmile_qr_scan", "ios": "https://dc.lft.to/lastmile_qr_scan"}, "is_disabled": 0, "fusion_lat": 0.0, "lat": 38.94946383333333, "is_reserved": 0}, {"lon": -77.03401816666667, "fusion_lon": 0.0, "bike_id": "28cd10da42730b36d8af99344b2ce837", "type": "electric_scooter", "name": "28cd10da42730b36d8af99344b2ce837", "rental_uris": {"android": "https://dc.lft.to/lastmile_qr_scan", "ios": "https://dc.lft.to/lastmile_qr_scan"}, "is_disabled": 0, "fusion_lat": 0.0, "lat": 38.91265583333333, "is_reserved": 0}, {"lon": -77.0103545, "fusion_lon": 0.0, "bike_id": "b88a88220e1b2a0769c388cc3490d390", "type": "electric_scooter", "name": "b88a88220e1b2a0769c388cc3490d390", "rental_uris": {"android": "https://dc.lft.to/lastmile_qr_scan", "ios": "https://dc.lft.to/lastmile_qr_scan"}, "is_disabled": 0, "fusion_lat": 0.0, "lat": 38.922379, "is_reserved": 0}, {"lon": -77.023042, "fusion_lon": 0.0, "bike_id": "43ce1898934223c21904430f2598215b", "type": "electric_scooter", "name": "43ce1898934223c21904430f2598215b", "rental_uris": {"android": "https://dc.lft.to/lastmile_qr_scan", "ios": "https://dc.lft.to/lastmile_qr_scan"}, "is_disabled": 0, "fusion_lat": 0.0, "lat": 38.90853166666667, "is_reserved": 0}, {"lon": -77.04127416666667, "fusion_lon": 0.0, "bike_id": "293b0783fc668919afda9c41418a8b26", "type": "electric_scooter", "name": "293b0783fc668919afda9c41418a8b26", "rental_uris": {"android": "https://dc.lft.to/lastmile_qr_scan", "ios": "https://dc.lft.to/lastmile_qr_scan"}, "is_disabled": 0, "fusion_lat": 0.0, "lat": 38.921317333333334, "is_reserved": 0}, {"lon": -77.0248355, "fusion_lon": 0.0, "bike_id": "d8ca3a51f26ecec3f5ae8454411da0a0", "type": "electric_scooter", "name": "d8ca3a51f26ecec3f5ae8454411da0a0", "rental_uris": {"android": "https://dc.lft.to/lastmile_qr_scan", "ios": "https://dc.lft.to/lastmile_qr_scan"}, "is_disabled": 0, "fusion_lat": 0.0, "lat": 38.95784866666666, "is_reserved": 0}, {"lon": -77.0380975, "fusion_lon": 0.0, "bike_id": "4e0b3f8d816574a5102cc3ca00fc460a", "type": "electric_scooter", "name": "4e0b3f8d816574a5102cc3ca00fc460a", "rental_uris": {"android": "https://dc.lft.to/lastmile_qr_scan", "ios": "https://dc.lft.to/lastmile_qr_scan"}, "is_disabled": 0, "fusion_lat": 0.0, "lat": 38.92064516666667, "is_reserved": 0}, {"lon": -77.03571083333334, "fusion_lon": 0.0, "bike_id": "b3684654f1e0dad3a8fca570d0120ed3", "type": "electric_scooter", "name": "b3684654f1e0dad3a8fca570d0120ed3", "rental_uris": {"android": "https://dc.lft.to/lastmile_qr_scan", "ios": "https://dc.lft.to/lastmile_qr_scan"}, "is_disabled": 0, "fusion_lat": 0.0, "lat": 38.91123116666667, "is_reserved": 0}, {"lon": -76.9463855, "fusion_lon": 0.0, "bike_id": "f35d1e1818e8c6f48186662c2ddde7bd", "type": "electric_scooter", "name": "f35d1e1818e8c6f48186662c2ddde7bd", "rental_uris": {"android": "https://dc.lft.to/lastmile_qr_scan", "ios": "https://dc.lft.to/lastmile_qr_scan"}, "is_disabled": 0, "fusion_lat": 0.0, "lat": 38.898687333333335, "is_reserved": 0}, {"lon": -76.93729533333334, "fusion_lon": 0.0, "bike_id": "3ac8a9db56f40d18fd45c0da5fcd1262", "type": "electric_scooter", "name": "3ac8a9db56f40d18fd45c0da5fcd1262", "rental_uris": {"android": "https://dc.lft.to/lastmile_qr_scan", "ios": "https://dc.lft.to/lastmile_qr_scan"}, "is_disabled": 0, "fusion_lat": 0.0, "lat": 38.8902565, "is_reserved": 0}, {"lon": -77.02568733333334, "fusion_lon": 0.0, "bike_id": "8417515acb849fe2ec63c8cef1684869", "type": "electric_scooter", "name": "8417515acb849fe2ec63c8cef1684869", "rental_uris": {"android": "https://dc.lft.to/lastmile_qr_scan", "ios": "https://dc.lft.to/lastmile_qr_scan"}, "is_disabled": 0, "fusion_lat": 0.0, "lat": 38.88743133333333, "is_reserved": 0}, {"lon": -77.03822216666667, "fusion_lon": 0.0, "bike_id": "2ea1060536fd0c2ac61060b3a6e0300b", "type": "electric_scooter", "name": "2ea1060536fd0c2ac61060b3a6e0300b", "rental_uris": {"android": "https://dc.lft.to/lastmile_qr_scan", "ios": "https://dc.lft.to/lastmile_qr_scan"}, "is_disabled": 0, "fusion_lat": 0.0, "lat": 38.908402333333335, "is_reserved": 0}, {"lon": -76.99713683333333, "fusion_lon": 0.0, "bike_id": "49d971f55bce9ee9779b642a3904a61d", "type": "electric_scooter", "name": "49d971f55bce9ee9779b642a3904a61d", "rental_uris": {"android": "https://dc.lft.to/lastmile_qr_scan", "ios": "https://dc.lft.to/lastmile_qr_scan"}, "is_disabled": 0, "fusion_lat": 0.0, "lat": 38.9109545, "is_reserved": 0}, {"lon": -77.03086633333334, "fusion_lon": 0.0, "bike_id": "66fa5e12ff935129b4aff67a247bfddb", "type": "electric_scooter", "name": "66fa5e12ff935129b4aff67a247bfddb", "rental_uris": {"android": "https://dc.lft.to/lastmile_qr_scan", "ios": "https://dc.lft.to/lastmile_qr_scan"}, "is_disabled": 0, "fusion_lat": 0.0, "lat": 38.922536666666666, "is_reserved": 0}, {"lon": -77.03722716666667, "fusion_lon": 0.0, "bike_id": "ebe0e3475dae4251692939914e339886", "type": "electric_scooter", "name": "ebe0e3475dae4251692939914e339886", "rental_uris": {"android": "https://dc.lft.to/lastmile_qr_scan", "ios": "https://dc.lft.to/lastmile_qr_scan"}, "is_disabled": 0, "fusion_lat": 0.0, "lat": 38.92660883333333, "is_reserved": 0}, {"lon": -77.0586225, "fusion_lon": 0.0, "bike_id": "c2aea0d97c40936cedb3e37afff04030", "type": "electric_scooter", "name": "c2aea0d97c40936cedb3e37afff04030", "rental_uris": {"android": "https://dc.lft.to/lastmile_qr_scan", "ios": "https://dc.lft.to/lastmile_qr_scan"}, "is_disabled": 0, "fusion_lat": 0.0, "lat": 38.93608733333333, "is_reserved": 0}, {"lon": -77.02150016666667, "fusion_lon": 0.0, "bike_id": "3155e07bbb048067edd6569b269958fe", "type": "electric_scooter", "name": "3155e07bbb048067edd6569b269958fe", "rental_uris": {"android": "https://dc.lft.to/lastmile_qr_scan", "ios": "https://dc.lft.to/lastmile_qr_scan"}, "is_disabled": 0, "fusion_lat": 0.0, "lat": 38.924552, "is_reserved": 0}, {"lon": -77.00133933333333, "fusion_lon": 0.0, "bike_id": "5fa4f169adce63a3382830f18d649ad6", "type": "electric_scooter", "name": "5fa4f169adce63a3382830f18d649ad6", "rental_uris": {"android": "https://dc.lft.to/lastmile_qr_scan", "ios": "https://dc.lft.to/lastmile_qr_scan"}, "is_disabled": 0, "fusion_lat": 0.0, "lat": 38.87881466666666, "is_reserved": 0}, {"lon": -77.03730883333333, "fusion_lon": 0.0, "bike_id": "a5ab6dc7d78cbe6b6eb17ee08814878a", "type": "electric_scooter", "name": "a5ab6dc7d78cbe6b6eb17ee08814878a", "rental_uris": {"android": "https://dc.lft.to/lastmile_qr_scan", "ios": "https://dc.lft.to/lastmile_qr_scan"}, "is_disabled": 0, "fusion_lat": 0.0, "lat": 38.911394, "is_reserved": 0}, {"lon": -77.03781916666667, "fusion_lon": 0.0, "bike_id": "5c7ccded9a2fc2f8c060d05b1dd49e6c", "type": "electric_scooter", "name": "5c7ccded9a2fc2f8c060d05b1dd49e6c", "rental_uris": {"android": "https://dc.lft.to/lastmile_qr_scan", "ios": "https://dc.lft.to/lastmile_qr_scan"}, "is_disabled": 0, "fusion_lat": 0.0, "lat": 38.93069233333333, "is_reserved": 0}, {"lon": -77.033161, "fusion_lon": 0.0, "bike_id": "196db283bd00a55f1e8eb4db7c5fafe1", "type": "electric_scooter", "name": "196db283bd00a55f1e8eb4db7c5fafe1", "rental_uris": {"android": "https://dc.lft.to/lastmile_qr_scan", "ios": "https://dc.lft.to/lastmile_qr_scan"}, "is_disabled": 0, "fusion_lat": 0.0, "lat": 38.910408833333335, "is_reserved": 0}, {"lon": -76.93341616666666, "fusion_lon": 0.0, "bike_id": "ea6192d84b582e71dd8a7e9bce9f046d", "type": "electric_scooter", "name": "ea6192d84b582e71dd8a7e9bce9f046d", "rental_uris": {"android": "https://dc.lft.to/lastmile_qr_scan", "ios": "https://dc.lft.to/lastmile_qr_scan"}, "is_disabled": 0, "fusion_lat": 0.0, "lat": 38.908674833333336, "is_reserved": 0}, {"lon": -77.02174966666666, "fusion_lon": 0.0, "bike_id": "f20ab545b2876bf0489a8bdab1131899", "type": "electric_scooter", "name": "f20ab545b2876bf0489a8bdab1131899", "rental_uris": {"android": "https://dc.lft.to/lastmile_qr_scan", "ios": "https://dc.lft.to/lastmile_qr_scan"}, "is_disabled": 0, "fusion_lat": 0.0, "lat": 38.9057115, "is_reserved": 0}, {"lon": -77.01947, "fusion_lon": 0.0, "bike_id": "0fab76ce0ceca3e54e1fb4d04342197a", "type": "electric_scooter", "name": "0fab76ce0ceca3e54e1fb4d04342197a", "rental_uris": {"android": "https://dc.lft.to/lastmile_qr_scan", "ios": "https://dc.lft.to/lastmile_qr_scan"}, "is_disabled": 0, "fusion_lat": 0.0, "lat": 38.923257, "is_reserved": 0}, {"lon": -77.01774166666667, "fusion_lon": 0.0, "bike_id": "a756bd7640d4ca2c472dcd365c82eb5b", "type": "electric_scooter", "name": "a756bd7640d4ca2c472dcd365c82eb5b", "rental_uris": {"android": "https://dc.lft.to/lastmile_qr_scan", "ios": "https://dc.lft.to/lastmile_qr_scan"}, "is_disabled": 0, "fusion_lat": 0.0, "lat": 38.87757366666666, "is_reserved": 0}, {"lon": -77.02712966666667, "fusion_lon": 0.0, "bike_id": "33c0ba0cf855e9272770f726c37d7c3b", "type": "electric_scooter", "name": "33c0ba0cf855e9272770f726c37d7c3b", "rental_uris": {"android": "https://dc.lft.to/lastmile_qr_scan", "ios": "https://dc.lft.to/lastmile_qr_scan"}, "is_disabled": 0, "fusion_lat": 0.0, "lat": 38.9279245, "is_reserved": 0}, {"lon": -77.03108516666667, "fusion_lon": 0.0, "bike_id": "a6c56f6bb9dcbbb13e9fddc340616b64", "type": "electric_scooter", "name": "a6c56f6bb9dcbbb13e9fddc340616b64", "rental_uris": {"android": "https://dc.lft.to/lastmile_qr_scan", "ios": "https://dc.lft.to/lastmile_qr_scan"}, "is_disabled": 0, "fusion_lat": 0.0, "lat": 38.919226333333334, "is_reserved": 0}, {"lon": -77.024932, "fusion_lon": 0.0, "bike_id": "831f101973e55fc9c17e144d4a130e37", "type": "electric_scooter", "name": "831f101973e55fc9c17e144d4a130e37", "rental_uris": {"android": "https://dc.lft.to/lastmile_qr_scan", "ios": "https://dc.lft.to/lastmile_qr_scan"}, "is_disabled": 0, "fusion_lat": 0.0, "lat": 38.919458, "is_reserved": 0}, {"lon": -77.024304, "fusion_lon": 0.0, "bike_id": "16fd9a0c7f274a3165f141cce51c4c93", "type": "electric_scooter", "name": "16fd9a0c7f274a3165f141cce51c4c93", "rental_uris": {"android": "https://dc.lft.to/lastmile_qr_scan", "ios": "https://dc.lft.to/lastmile_qr_scan"}, "is_disabled": 0, "fusion_lat": 0.0, "lat": 38.92654983333333, "is_reserved": 0}, {"lon": -77.05237766666667, "fusion_lon": 0.0, "bike_id": "657edf045084c77bccf2f07f801de46d", "type": "electric_scooter", "name": "657edf045084c77bccf2f07f801de46d", "rental_uris": {"android": "https://dc.lft.to/lastmile_qr_scan", "ios": "https://dc.lft.to/lastmile_qr_scan"}, "is_disabled": 0, "fusion_lat": 0.0, "lat": 38.92509, "is_reserved": 0}, {"lon": -76.9597005, "fusion_lon": 0.0, "bike_id": "eec5dd8fcba7d8eca945808b3c809928", "type": "electric_bike", "name": "eec5dd8fcba7d8eca945808b3c809928", "rental_uris": {"android": "https://dc.lft.to/lastmile_qr_scan", "ios": "https://dc.lft.to/lastmile_qr_scan"}, "is_disabled": 0, "fusion_lat": 0.0, "lat": 38.94806783333333, "is_reserved": 0}, {"lon": -77.05391733333333, "fusion_lon": 0.0, "bike_id": "eb29cf986b2e2889eb563c25921bc8a8", "type": "electric_scooter", "name": "eb29cf986b2e2889eb563c25921bc8a8", "rental_uris": {"android": "https://dc.lft.to/lastmile_qr_scan", "ios": "https://dc.lft.to/lastmile_qr_scan"}, "is_disabled": 0, "fusion_lat": 0.0, "lat": 38.9012825, "is_reserved": 0}, {"lon": -76.98624, "fusion_lon": 0.0, "bike_id": "6f18bbc16b4e23bb3412a8a94647d96c", "type": "electric_scooter", "name": "6f18bbc16b4e23bb3412a8a94647d96c", "rental_uris": {"android": "https://dc.lft.to/lastmile_qr_scan", "ios": "https://dc.lft.to/lastmile_qr_scan"}, "is_disabled": 0, "fusion_lat": 0.0, "lat": 38.859729333333334, "is_reserved": 0}, {"lon": -77.02712766666667, "fusion_lon": 0.0, "bike_id": "cb556e56a2d1f53cf37a81e8c3eb772a", "type": "electric_scooter", "name": "cb556e56a2d1f53cf37a81e8c3eb772a", "rental_uris": {"android": "https://dc.lft.to/lastmile_qr_scan", "ios": "https://dc.lft.to/lastmile_qr_scan"}, "is_disabled": 0, "fusion_lat": 0.0, "lat": 38.917215166666665, "is_reserved": 0}, {"lon": -76.93394683333334, "fusion_lon": 0.0, "bike_id": "0658bf71ffabd0a89efc860f60fd68b6", "type": "electric_scooter", "name": "0658bf71ffabd0a89efc860f60fd68b6", "rental_uris": {"android": "https://dc.lft.to/lastmile_qr_scan", "ios": "https://dc.lft.to/lastmile_qr_scan"}, "is_disabled": 0, "fusion_lat": 0.0, "lat": 38.898897, "is_reserved": 0}, {"lon": -77.02968533333333, "fusion_lon": 0.0, "bike_id": "a788b7917264e90cdeac1ddece3042ff", "type": "electric_scooter", "name": "a788b7917264e90cdeac1ddece3042ff", "rental_uris": {"android": "https://dc.lft.to/lastmile_qr_scan", "ios": "https://dc.lft.to/lastmile_qr_scan"}, "is_disabled": 0, "fusion_lat": 0.0, "lat": 38.9177775, "is_reserved": 0}, {"lon": -77.03430033333333, "fusion_lon": 0.0, "bike_id": "ba77c5b661843ae5587471e97d6ba9c2", "type": "electric_scooter", "name": "ba77c5b661843ae5587471e97d6ba9c2", "rental_uris": {"android": "https://dc.lft.to/lastmile_qr_scan", "ios": "https://dc.lft.to/lastmile_qr_scan"}, "is_disabled": 0, "fusion_lat": 0.0, "lat": 38.909808, "is_reserved": 0},