{"data": {"bikes": [{"is_disabled": 0, "fusion_lon": 0.0, "fusion_lat": 0.0, "lat": 38.90579666666667, "type": "electric_scooter", "lon": -77.02612866666666, "bike_id": "2ffc19142dfb7bfc5b421434e3266ebf", "rental_uris": {"android": "https://dc.lft.to/lastmile_qr_scan", "ios": "https://dc.lft.to/lastmile_qr_scan"}, "name": "2ffc19142dfb7bfc5b421434e3266ebf", "is_reserved": 0}, {"is_disabled": 0, "fusion_lon": 0.0, "fusion_lat": 0.0, "lat": 38.91666216666667, "type": "electric_scooter", "lon": -77.02268866666667, "bike_id": "d019e711476419fa686070ad48ba50ba", "rental_uris": {"android": "https://dc.lft.to/lastmile_qr_scan", "ios": "https://dc.lft.to/lastmile_qr_scan"}, "name": "d019e711476419fa686070ad48ba50ba", "is_reserved": 0}, {"is_disabled": 0, "fusion_lon": 0.0, "fusion_lat": 0.0, "lat": 38.8381155, "type": "electric_scooter", "lon": -77.00436683333334, "bike_id": "196b0c6fe362e35f97749791dbbf6019", "rental_uris": {"android": "https://dc.lft.to/lastmile_qr_scan", "ios": "https://dc.lft.to/lastmile_qr_scan"}, "name": "196b0c6fe362e35f97749791dbbf6019", "is_reserved": 0}, {"is_disabled": 0, "fusion_lon": 0.0, "fusion_lat": 0.0, "lat": 38.916778666666666, "type": "electric_scooter", "lon": -77.02969333333333, "bike_id": "291ca2d506f6a857b3f03be5ac34202c", "rental_uris": {"android": "https://dc.lft.to/lastmile_qr_scan", "ios": "https://dc.lft.to/lastmile_qr_scan"}, "name": "291ca2d506f6a857b3f03be5ac34202c", "is_reserved": 0}, {"is_disabled": 0, "fusion_lon": 0.0, "fusion_lat": 0.0, "lat": 38.902467333333334, "type": "electric_scooter", "lon": -76.98976516666667, "bike_id": "587922d8334d867212f0dd4b9fbf3a76", "rental_uris": {"android": "https://dc.lft.to/lastmile_qr_scan", "ios": "https://dc.lft.to/lastmile_qr_scan"}, "name": "587922d8334d867212f0dd4b9fbf3a76", "is_reserved": 0}, {"is_disabled": 0, "fusion_lon": 0.0, "fusion_lat": 0.0, "lat": 38.93501366666667, "type": "electric_bike", "lon": -76.94954566666667, "bike_id": "ba1ffffab7dee0422b55d32b8839f378", "rental_uris": {"android": "https://dc.lft.to/lastmile_qr_scan", "ios": "https://dc.lft.to/lastmile_qr_scan"}, "name": "ba1ffffab7dee0422b55d32b8839f378", "is_reserved": 0}, {"is_disabled": 0, "fusion_lon": 0.0, "fusion_lat": 0.0, "lat": 38.88610166666667, "type": "electric_scooter", "lon": -76.995028, "bike_id": "0a3d95727e29990ab040faee95b0642d", "rental_uris": {"android": "https://dc.lft.to/lastmile_qr_scan", "ios": "https://dc.lft.to/lastmile_qr_scan"}, "name": "0a3d95727e29990ab040faee95b0642d", "is_reserved": 0}, {"is_disabled": 0, "fusion_lon": 0.0, "fusion_lat": 0.0, "lat": 38.8428475, "type": "electric_scooter", "lon": -76.99963666666666, "bike_id": "a62f649a2e3178bea285a457182b6330", "rental_uris": {"android": "https://dc.lft.to/lastmile_qr_scan", "ios": "https://dc.lft.to/lastmile_qr_scan"}, "name": "a62f649a2e3178bea285a457182b6330", "is_reserved": 0}, {"is_disabled": 0, "fusion_lon": 0.0, "fusion_lat": 0.0, "lat": 38.91716533333334, "type": "electric_scooter", "lon": -77.03857933333333, "bike_id": "c592e8990ee6b6db7297c8a2cc0f03a1", "rental_uris": {"android": "https://dc.lft.to/lastmile_qr_scan", "ios": "https://dc.lft.to/lastmile_qr_scan"}, "name": "c592e8990ee6b6db7297c8a2cc0f03a1", "is_reserved": 0}, {"is_disabled": 0, "fusion_lon": 0.0, "fusion_lat": 0.0, "lat": 39.10007316666667, "type": "electric_bike", "lon": -77.18651816666667, "bike_id": "47ea5d4b8b8704327f6782f0eb563eaf", "rental_uris": {"android": "https://dc.lft.to/lastmile_qr_scan", "ios": "https://dc.lft.to/lastmile_qr_scan"}, "name": "47ea5d4b8b8704327f6782f0eb563eaf", "is_reserved": 0}, {"is_disabled": 0, "fusion_lon": 0.0, "fusion_lat": 0.0, "lat": 38.915710833333335, "type": "electric_scooter", "lon": -77.04172416666667, "bike_id": "299d05acf32e903e9afb0c134021497c", "rental_uris": {"android": "https://dc.lft.to/lastmile_qr_scan", "ios": "https://dc.lft.to/lastmile_qr_scan"}, "name": "299d05acf32e903e9afb0c134021497c", "is_reserved": 0}, {"is_disabled": 0, "fusion_lon": 0.0, "fusion_lat": 0.0, "lat": 38.909142, "type": "electric_scooter", "lon": -77.02283, "bike_id": "ccfd119bd253590a36931f253d6051d5", "rental_uris": {"android": "https://dc.lft.to/lastmile_qr_scan", "ios": "https://dc.lft.to/lastmile_qr_scan"}, "name": "ccfd119bd253590a36931f253d6051d5", "is_reserved": 0}, {"is_disabled": 0, "fusion_lon": 0.0, "fusion_lat": 0.0, "lat": 38.899931, "type": "electric_scooter", "lon": -77.0294595, "bike_id": "d670ef44e385a33e5e6d19832c9444c8", "rental_uris": {"android": "https://dc.lft.to/lastmile_qr_scan", "ios": "https://dc.lft.to/lastmile_qr_scan"}, "name": "d670ef44e385a33e5e6d19832c9444c8", "is_reserved": 0}, {"is_disabled": 0, "fusion_lon": 0.0, "fusion_lat": 0.0, "lat": 38.907300666666664, "type": "electric_scooter", "lon": -77.02366716666667, "bike_id": "e4587b799f8db4f81487213629b07353", "rental_uris": {"android": "https://dc.lft.to/lastmile_qr_scan", "ios": "https://dc.lft.to/lastmile_qr_scan"}, "name": "e4587b799f8db4f81487213629b07353", "is_reserved": 0}, {"is_disabled": 0, "fusion_lon": 0.0, "fusion_lat": 0.0, "lat": 38.905181666666664, "type": "electric_scooter", "lon": -77.025075, "bike_id": "84dbeab02d79a6782d5e6c80c08b2247", "rental_uris": {"android": "https://dc.lft.to/lastmile_qr_scan", "ios": "https://dc.lft.to/lastmile_qr_scan"}, "name": "84dbeab02d79a6782d5e6c80c08b2247", "is_reserved": 0}, {"is_disabled": 0, "fusion_lon": 0.0, "fusion_lat": 0.0, "lat": 38.9320335, "type": "electric_scooter", "lon": -77.03662316666667, "bike_id": "0342efc137593055cca5e230f8ca0ae1", "rental_uris": {"android": "https://dc.lft.to/lastmile_qr_scan", "ios": "https://dc.lft.to/lastmile_qr_scan"}, "name": "0342efc137593055cca5e230f8ca0ae1", "is_reserved": 0}, {"is_disabled": 0, "fusion_lon": 0.0, "fusion_lat": 0.0, "lat": 38.98497016666666, "type": "electric_bike", "lon": -76.98201733333333, "bike_id": "b9635cfb5f981f741f6454675ec01866", "rental_uris": {"android": "https://dc.lft.to/lastmile_qr_scan", "ios": "https://dc.lft.to/lastmile_qr_scan"}, "name": "b9635cfb5f981f741f6454675ec01866", "is_reserved": 0}, {"is_disabled": 0, "fusion_lon": 0.0, "fusion_lat": 0.0, "lat": 38.96596366666667, "type": "electric_bike", "lon": -76.98333666666667, "bike_id": "da24bbd7fb6b5df5b8a3beadea9ca813", "rental_uris": {"android": "https://dc.lft.to/lastmile_qr_scan", "ios": "https://dc.lft.to/lastmile_qr_scan"}, "name": "da24bbd7fb6b5df5b8a3beadea9ca813", "is_reserved": 0}, {"is_disabled": 0, "fusion_lon": 0.0, "fusion_lat": 0.0, "lat": 38.917854166666665, "type": "electric_scooter", "lon": -77.023133, "bike_id": "ea1bc52894a405fb0cd193e399d415a1", "rental_uris": {"android": "https://dc.lft.to/lastmile_qr_scan", "ios": "https://dc.lft.to/lastmile_qr_scan"}, "name": "ea1bc52894a405fb0cd193e399d415a1", "is_reserved": 0}, {"is_disabled": 0, "fusion_lon": 0.0, "fusion_lat": 0.0, "lat": 38.875767833333335, "type": "electric_scooter", "lon": -77.01990866666667, "bike_id": "0588a65e0aa8021bf4b5c92e6e962d65", "rental_uris": {"android": "https://dc.lft.to/lastmile_qr_scan", "ios": "https://dc.lft.to/lastmile_qr_scan"}, "name": "0588a65e0aa8021bf4b5c92e6e962d65", "is_reserved": 0}, {"is_disabled": 0, "fusion_lon": 0.0, "fusion_lat": 0.0, "lat": 38.917928, "type": "electric_scooter", "lon": -77.03664833333333, "bike_id": "9cc01f5e158f09d647ee037ea5fc9c6b", "rental_uris": {"android": "https://dc.lft.to/lastmile_qr_scan", "ios": "https://dc.lft.to/lastmile_qr_scan"}, "name": "9cc01f5e158f09d647ee037ea5fc9c6b", "is_reserved": 0}, {"is_disabled": 0, "fusion_lon": 0.0, "fusion_lat": 0.0, "lat": 38.93397233333334, "type": "electric_scooter", "lon": -77.02730166666667, "bike_id": "1e53cca3036574e8140010f628f9fb42", "rental_uris": {"android": "https://dc.lft.to/lastmile_qr_scan", "ios": "https://dc.lft.to/lastmile_qr_scan"}, "name": "1e53cca3036574e8140010f628f9fb42", "is_reserved": 0}, {"is_disabled": 0, "fusion_lon": 0.0, "fusion_lat": 0.0, "lat": 38.902731, "type": "electric_scooter", "lon": -77.036435, "bike_id": "a1f61a71759f546a26c4e79c5d94203e", "rental_uris": {"android": "https://dc.lft.to/lastmile_qr_scan", "ios": "https://dc.lft.to/lastmile_qr_scan"}, "name": "a1f61a71759f546a26c4e79c5d94203e", "is_reserved": 0}, {"is_disabled": 0, "fusion_lon": 0.0, "fusion_lat": 0.0, "lat": 38.915287666666664, "type": "electric_scooter", "lon": -77.02178833333333, "bike_id": "7db90eba8c55dfbee9303d36a043e041", "rental_uris": {"android": "https://dc.lft.to/lastmile_qr_scan", "ios": "https://dc.lft.to/lastmile_qr_scan"}, "name": "7db90eba8c55dfbee9303d36a043e041", "is_reserved": 0}, {"is_disabled": 0, "fusion_lon": 0.0, "fusion_lat": 0.0, "lat": 38.921522, "type": "electric_scooter", "lon": -77.0351005, "bike_id": "ec485fc7b00e2f875e18f6309c6afb2e", "rental_uris": {"android": "https://dc.lft.to/lastmile_qr_scan", "ios": "https://dc.lft.to/lastmile_qr_scan"}, "name": "ec485fc7b00e2f875e18f6309c6afb2e", "is_reserved": 0}, {"is_disabled": 0, "fusion_lon": 0.0, "fusion_lat": 0.0, "lat": 38.90569633333333, "type": "electric_scooter", "lon": -77.023667, "bike_id": "32fc4d4c823f18d2eacbd0446227b699", "rental_uris": {"android": "https://dc.lft.to/lastmile_qr_scan", "ios": "https://dc.lft.to/lastmile_qr_scan"}, "name": "32fc4d4c823f18d2eacbd0446227b699", "is_reserved": 0}, {"is_disabled": 0, "fusion_lon": 0.0, "fusion_lat": 0.0, "lat": 38.92147833333333, "type": "electric_scooter", "lon": -77.03518983333333, "bike_id": "1ab0a3941cd107f45189b873a8acbdc1", "rental_uris": {"android": "https://dc.lft.to/lastmile_qr_scan", "ios": "https://dc.lft.to/lastmile_qr_scan"}, "name": "1ab0a3941cd107f45189b873a8acbdc1", "is_reserved": 0}, {"is_disabled": 0, "fusion_lon": 0.0, "fusion_lat": 0.0, "lat": 38.90844533333333, "type": "electric_scooter", "lon": -77.02378133333333, "bike_id": "73a8f3b76a2dd7f4d0282a5dac812ca5", "rental_uris": {"android": "https://dc.lft.to/lastmile_qr_scan", "ios": "https://dc.lft.to/lastmile_qr_scan"}, "name": "73a8f3b76a2dd7f4d0282a5dac812ca5", "is_reserved": 0}, {"is_disabled": 0, "fusion_lon": 0.0, "fusion_lat": 0.0, "lat": 38.915485333333336, "type": "electric_scooter", "lon": -77.01235033333333, "bike_id": "232119d5ed3d34c2c8af2fad3440d922", "rental_uris": {"android": "https://dc.lft.to/lastmile_qr_scan", "ios": "https://dc.lft.to/lastmile_qr_scan"}, "name": "232119d5ed3d34c2c8af2fad3440d922", "is_reserved": 0}, {"is_disabled": 0, "fusion_lon": 0.0, "fusion_lat": 0.0, "lat": 38.89260316666667, "type": "electric_scooter", "lon": -77.031866, "bike_id": "2b816057e64317486211f0aeb29ac625", "rental_uris": {"android": "https://dc.lft.to/lastmile_qr_scan", "ios": "https://dc.lft.to/lastmile_qr_scan"}, "name": "2b816057e64317486211f0aeb29ac625", "is_reserved": 0}, {"is_disabled": 0, "fusion_lon": 0.0, "fusion_lat": 0.0, "lat": 38.92316666666667, "type": "electric_scooter", "lon": -77.0420885, "bike_id": "6fe1294e70d098215edfe8287ee8aee1", "rental_uris": {"android": "https://dc.lft.to/lastmile_qr_scan", "ios": "https://dc.lft.to/lastmile_qr_scan"}, "name": "6fe1294e70d098215edfe8287ee8aee1", "is_reserved": 0}, {"is_disabled": 0, "fusion_lon": 0.0, "fusion_lat": 0.0, "lat": 38.92167583333333, "type": "electric_scooter", "lon": -77.03851233333333, "bike_id": "fe517c6153c7e5e9229426a21b3ec7cf", "rental_uris": {"android": "https://dc.lft.to/lastmile_qr_scan", "ios": "https://dc.lft.to/lastmile_qr_scan"}, "name": "fe517c6153c7e5e9229426a21b3ec7cf", "is_reserved": 0}, {"is_disabled": 0, "fusion_lon": 0.0, "fusion_lat": 0.0, "lat": 38.91413633333333, "type": "electric_scooter", "lon": -77.04159, "bike_id": "0324d0b3aa4e30decbdb5df3e8b13b35", "rental_uris": {"android": "https://dc.lft.to/lastmile_qr_scan", "ios": "https://dc.lft.to/lastmile_qr_scan"}, "name": "0324d0b3aa4e30decbdb5df3e8b13b35", "is_reserved": 0}, {"is_disabled": 0, "fusion_lon": 0.0, "fusion_lat": 0.0, "lat": 38.896749666666665, "type": "electric_scooter", "lon": -76.9471285, "bike_id": "da41073c6288bf7d439413cc83d77273", "rental_uris": {"android": "https://dc.lft.to/lastmile_qr_scan", "ios": "https://dc.lft.to/lastmile_qr_scan"}, "name": "da41073c6288bf7d439413cc83d77273", "is_reserved": 0}, {"is_disabled": 0, "fusion_lon": 0.0, "fusion_lat": 0.0, "lat": 38.84841, "type": "electric_bike", "lon": -77.08054783333333, "bike_id": "a661f6aa8c9324526d9ee808c7cddc7e", "rental_uris": {"android": "https://dc.lft.to/lastmile_qr_scan", "ios": "https://dc.lft.to/lastmile_qr_scan"}, "name": "a661f6aa8c9324526d9ee808c7cddc7e", "is_reserved": 0}, {"is_disabled": 0, "fusion_lon": 0.0, "fusion_lat": 0.0, "lat": 38.95351016666667, "type": "electric_bike", "lon": -76.9809095, "bike_id": "05d994f88e1e280f7a9125abbae03e8b", "rental_uris": {"android": "https://dc.lft.to/lastmile_qr_scan", "ios": "https://dc.lft.to/lastmile_qr_scan"}, "name": "05d994f88e1e280f7a9125abbae03e8b", "is_reserved": 0}, {"is_disabled": 0, "fusion_lon": 0.0, "fusion_lat": 0.0, "lat": 38.944519666666665, "type": "electric_scooter", "lon": -77.0636575, "bike_id": "886eb3b28bfd7243c93ec386cd1988cc", "rental_uris": {"android": "https://dc.lft.to/lastmile_qr_scan", "ios": "https://dc.lft.to/lastmile_qr_scan"}, "name": "886eb3b28bfd7243c93ec386cd1988cc", "is_reserved": 0}, {"is_disabled": 0, "fusion_lon": 0.0, "fusion_lat": 0.0, "lat": 38.914212, "type": "electric_scooter", "lon": -77.04161166666667, "bike_id": "b0439a980804fbc97c50d81c48518ba0", "rental_uris": {"android": "https://dc.lft.to/lastmile_qr_scan", "ios": "https://dc.lft.to/lastmile_qr_scan"}, "name": "b0439a980804fbc97c50d81c48518ba0", "is_reserved": 0}, {"is_disabled": 0, "fusion_lon": 0.0, "fusion_lat": 0.0, "lat": 38.900507166666664, "type": "electric_scooter", "lon": -76.997795, "bike_id": "b1157b63d11955bdd2686727a8dafbc7", "rental_uris": {"android": "https://dc.lft.to/lastmile_qr_scan", "ios": "https://dc.lft.to/lastmile_qr_scan"}, "name": "b1157b63d11955bdd2686727a8dafbc7", "is_reserved": 0}, {"is_disabled": 0, "fusion_lon": 0.0, "fusion_lat": 0.0, "lat": 38.849287833333335, "type": "electric_bike", "lon": -77.1001375, "bike_id": "d530b0e8439a3d9d822829a8b0388401", "rental_uris": {"android": "https://dc.lft.to/lastmile_qr_scan", "ios": "https://dc.lft.to/lastmile_qr_scan"}, "name": "d530b0e8439a3d9d822829a8b0388401", "is_reserved": 0}, {"is_disabled": 0, "fusion_lon": 0.0, "fusion_lat": 0.0, "lat": 38.856485666666664, "type": "electric_bike", "lon": -77.085272, "bike_id": "9e1f23ccf5aab0f92d9f00ed8f36c8f3", "rental_uris": {"android": "https://dc.lft.to/lastmile_qr_scan", "ios": "https://dc.lft.to/lastmile_qr_scan"}, "name": "9e1f23ccf5aab0f92d9f00ed8f36c8f3", "is_reserved": 0}, {"is_disabled": 0, "fusion_lon": 0.0, "fusion_lat": 0.0, "lat": 38.894534666666665, "type": "electric_scooter", "lon": -76.9482525, "bike_id": "a9ced8c13277ea76ac7ae1f193200ef6", "rental_uris": {"android": "https://dc.lft.to/lastmile_qr_scan", "ios": "https://dc.lft.to/lastmile_qr_scan"}, "name": "a9ced8c13277ea76ac7ae1f193200ef6", "is_reserved": 0}, {"is_disabled": 0, "fusion_lon": 0.0, "fusion_lat": 0.0, "lat": 38.86248483333333, "type": "electric_scooter", "lon": -76.99531766666666, "bike_id": "9954f8ccb71a74cfc2ea5ee72c357653", "rental_uris": {"android": "https://dc.lft.to/lastmile_qr_scan", "ios": "https://dc.lft.to/lastmile_qr_scan"}, "name": "9954f8ccb71a74cfc2ea5ee72c357653", "is_reserved": 0}, {"is_disabled": 0, "fusion_lon": 0.0, "fusion_lat": 0.0, "lat": 38.866055, "type": "electric_scooter", "lon": -77.010738, "bike_id": "5a09008db2a79718f9a6e10e2d98798a", "rental_uris": {"android": "https://dc.lft.to/lastmile_qr_scan", "ios": "https://dc.lft.to/lastmile_qr_scan"}, "name": "5a09008db2a79718f9a6e10e2d98798a", "is_reserved": 0}, {"is_disabled": 0, "fusion_lon": 0.0, "fusion_lat": 0.0, "lat": 38.93700466666667, "type": "electric_scooter", "lon": -77.05604883333334, "bike_id": "0931c48921e87a287e43f0a5d9f08cce", "rental_uris": {"android": "https://dc.lft.to/lastmile_qr_scan", "ios": "https://dc.lft.to/lastmile_qr_scan"}, "name": "0931c48921e87a287e43f0a5d9f08cce", "is_reserved": 0}, {"is_disabled": 0, "fusion_lon": 0.0, "fusion_lat": 0.0, "lat": 38.925758333333334, "type": "electric_scooter", "lon": -77.032176, "bike_id": "e85a2ac621c483752e4212208586feaf", "rental_uris": {"android": "https://dc.lft.to/lastmile_qr_scan", "ios": "https://dc.lft.to/lastmile_qr_scan"}, "name": "e85a2ac621c483752e4212208586feaf", "is_reserved": 0}, {"is_disabled": 0, "fusion_lon": 0.0, "fusion_lat": 0.0, "lat": 38.9119425, "type": "electric_scooter", "lon": -77.04165883333333, "bike_id": "a58a3de579b24651702a04a0f3735906", "rental_uris": {"android": "https://dc.lft.to/lastmile_qr_scan", "ios": "https://dc.lft.to/lastmile_qr_scan"}, "name": "a58a3de579b24651702a04a0f3735906", "is_reserved": 0}, {"is_disabled": 0, "fusion_lon": 0.0, "fusion_lat": 0.0, "lat": 38.91230183333333, "type": "electric_scooter", "lon": -77.04482866666666, "bike_id": "cc9ec35bd17a954f1b20bba6a2b66221", "rental_uris": {"android": "https://dc.lft.to/lastmile_qr_scan", "ios": "https://dc.lft.to/lastmile_qr_scan"}, "name": "cc9ec35bd17a954f1b20bba6a2b66221", "is_reserved": 0}, {"is_disabled": 0, "fusion_lon": 0.0, "fusion_lat": 0.0, "lat": 38.88608083333333, "type": "electric_scooter", "lon": -77.00576366666667, "bike_id": "1e21542339488d6bcd37f9cba4c9d413", "rental_uris": {"android": "https://dc.lft.to/lastmile_qr_scan", "ios": "https://dc.lft.to/lastmile_qr_scan"}, "name": "1e21542339488d6bcd37f9cba4c9d413", "is_reserved": 0}, {"is_disabled": 0, "fusion_lon": 0.0, "fusion_lat": 0.0, "lat": 38.92055633333333, "type": "electric_scooter", "lon": -76.99884266666666, "bike_id": "8f9062bf3a18588f81b7a3f2ccaf475d", "rental_uris": {"android": "https://dc.lft.to/lastmile_qr_scan", "ios": "https://dc.lft.to/lastmile_qr_scan"}, "name": "8f9062bf3a18588f81b7a3f2ccaf475d", "is_reserved": 0}, {"is_disabled": 0, "fusion_lon": 0.0, "fusion_lat": 0.0, "lat": 38.914192166666666, "type": "electric_scooter", "lon": -77.04157166666667, "bike_id": "4aad66fd25c0dd81fafdc07bd4055ad8", "rental_uris": {"android": "https://dc.lft.to/lastmile_qr_scan", "ios": "https://dc.lft.to/lastmile_qr_scan"}, "name": "4aad66fd25c0dd81fafdc07bd4055ad8", "is_reserved": 0}, {"is_disabled": 0, "fusion_lon": 0.0, "fusion_lat": 0.0, "lat": 38.95639633333333, "type": "electric_scooter", "lon": -77.0910355, "bike_id": "4a3345d4ce865fa8c9e59eccf822707b", "rental_uris": {"android": "https://dc.lft.to/lastmile_qr_scan", "ios": "https://dc.lft.to/lastmile_qr_scan"}, "name": "4a3345d4ce865fa8c9e59eccf822707b", "is_reserved": 0}, {"is_disabled": 0, "fusion_lon": 0.0, "fusion_lat": 0.0, "lat": 38.924246833333335, "type": "electric_scooter", "lon": -77.04483816666666, "bike_id": "283817c28d8c6288e482ceb5b0243e42", "rental_uris": {"android": "https://dc.lft.to/lastmile_qr_scan", "ios": "https://dc.lft.to/lastmile_qr_scan"}, "name": "283817c28d8c6288e482ceb5b0243e42", "is_reserved": 0}, {"is_disabled": 0, "fusion_lon": 0.0, "fusion_lat": 0.0, "lat": 38.944941166666666, "type": "electric_bike", "lon": -76.986563, "bike_id": "daf66dd827f7f5b9ffa9d2c45617c424", "rental_uris": {"android": "https://dc.lft.to/lastmile_qr_scan", "ios": "https://dc.lft.to/lastmile_qr_scan"}, "name": "daf66dd827f7f5b9ffa9d2c45617c424", "is_reserved": 0}, {"is_disabled": 0, "fusion_lon": 0.0, "fusion_lat": 0.0, "lat": 38.935496666666666, "type": "electric_scooter", "lon": -77.058123, "bike_id": "aca9ad6649b8feb171f0be6f60383b0f", "rental_uris": {"android": "https://dc.lft.to/lastmile_qr_scan", "ios": "https://dc.lft.to/lastmile_qr_scan"}, "name": "aca9ad6649b8feb171f0be6f60383b0f", "is_reserved": 0}, {"is_disabled": 0, "fusion_lon": 0.0, "fusion_lat": 0.0, "lat": 38.91173416666667, "type": "electric_scooter", "lon": -77.026993, "bike_id": "82fe2a6bc44538543894218d1952673c", "rental_uris": {"android": "https://dc.lft.to/lastmile_qr_scan", "ios": "https://dc.lft.to/lastmile_qr_scan"}, "name": "82fe2a6bc44538543894218d1952673c", "is_reserved": 0}, {"is_disabled": 0, "fusion_lon": 0.0, "fusion_lat": 0.0, "lat": 38.912617166666664, "type": "electric_scooter", "lon": -77.04157433333333, "bike_id": "23b71eeb54a5745e21f199d452f1a3b8", "rental_uris": {"android": "https://dc.lft.to/lastmile_qr_scan", "ios": "https://dc.lft.to/lastmile_qr_scan"}, "name": "23b71eeb54a5745e21f199d452f1a3b8", "is_reserved": 0}, {"is_disabled": 0, "fusion_lon": 0.0, "fusion_lat": 0.0, "lat": 38.91917616666667, "type": "electric_scooter", "lon": -77.02513416666666, "bike_id": "011871c4c154e5b00bf5a9bbfea8158b", "rental_uris": {"android": "https://dc.lft.to/lastmile_qr_scan", "ios": "https://dc.lft.to/lastmile_qr_scan"}, "name": "011871c4c154e5b00bf5a9bbfea8158b", "is_reserved": 0}, {"is_disabled": 0, "fusion_lon": 0.0, "fusion_lat": 0.0, "lat": 38.9014135, "type": "electric_scooter", "lon": -77.0273395, "bike_id": "582c9d91e82f401fe5b3026be737a36a", "rental_uris": {"android": "https://dc.lft.to/lastmile_qr_scan", "ios": "https://dc.lft.to/lastmile_qr_scan"}, "name": "582c9d91e82f401fe5b3026be737a36a", "is_reserved": 0}, {"is_disabled": 0, "fusion_lon": 0.0, "fusion_lat": 0.0, "lat": 38.89572533333333, "type": "electric_scooter", "lon": -77.02298433333333, "bike_id": "350aba8824d2e1cab733790f58970c8f", "rental_uris": {"android": "https://dc.lft.to/lastmile_qr_scan", "ios": "https://dc.lft.to/lastmile_qr_scan"}, "name": "350aba8824d2e1cab733790f58970c8f", "is_reserved": 0}, {"is_disabled": 0, "fusion_lon": 0.0, "fusion_lat": 0.0, "lat": 38.894698166666664, "type": "electric_scooter", "lon": -77.02283166666666, "bike_id": "30a1a3f357133b035f2747e26aacd037", "rental_uris": {"android": "https://dc.lft.to/lastmile_qr_scan", "ios": "https://dc.lft.to/lastmile_qr_scan"}, "name": "30a1a3f357133b035f2747e26aacd037", "is_reserved": 0}, {"is_disabled": 0, "fusion_lon": 0.0, "fusion_lat": 0.0, "lat": 38.8765985, "type": "electric_scooter", "lon": -77.00399833333333, "bike_id": "5c31b5f7a77cf3ebc52a9020d905b4ab", "rental_uris": {"android": "https://dc.lft.to/lastmile_qr_scan", "ios": "https://dc.lft.to/lastmile_qr_scan"}, "name": "5c31b5f7a77cf3ebc52a9020d905b4ab", "is_reserved": 0}, {"is_disabled": 0, "fusion_lon": 0.0, "fusion_lat": 0.0, "lat": 38.916762, "type": "electric_scooter", "lon": -77.02970933333333, "bike_id": "b4c15ed1eb740c9fd907fa34854911d4", "rental_uris": {"android": "https://dc.lft.to/lastmile_qr_scan", "ios": "https://dc.lft.to/lastmile_qr_scan"}, "name": "b4c15ed1eb740c9fd907fa34854911d4", "is_reserved": 0}, {"is_disabled": 0, "fusion_lon": 0.0, "fusion_lat": 0.0, "lat": 38.941074, "type": "electric_scooter", "lon": -77.061387, "bike_id": "6f8eabc7ee2ac5b93b12edf5923fb87b", "rental_uris": {"android": "https://dc.lft.to/lastmile_qr_scan", "ios": "https://dc.lft.to/lastmile_qr_scan"}, "name": "6f8eabc7ee2ac5b93b12edf5923fb87b", "is_reserved": 0}, {"is_disabled": 0, "fusion_lon": 0.0, "fusion_lat": 0.0, "lat": 38.86697366666667, "type": "electric_scooter", "lon": -76.98714, "bike_id": "edf70f1bdc494943a394126ed641b3a1", "rental_uris": {"android": "https://dc.lft.to/lastmile_qr_scan", "ios": "https://dc.lft.to/lastmile_qr_scan"}, "name": "edf70f1bdc494943a394126ed641b3a1", "is_reserved": 0}, {"is_disabled": 0, "fusion_lon": 0.0, "fusion_lat": 0.0, "lat": 38.91270566666667, "type": "electric_scooter", "lon": -77.02225233333333, "bike_id": "7f8be5f3fc808d9884171e78004944f0", "rental_uris": {"android": "https://dc.lft.to/lastmile_qr_scan", "ios": "https://dc.lft.to/lastmile_qr_scan"}, "name": "7f8be5f3fc808d9884171e78004944f0", "is_reserved": 0}, {"is_disabled": 0, "fusion_lon": 0.0, "fusion_lat": 0.0, "lat": 38.9066365, "type": "electric_scooter", "lon": -77.0435015, "bike_id": "fb90eb1bd932282a4ccd4c04986fbaa0", "rental_uris": {"android": "https://dc.lft.to/lastmile_qr_scan", "ios": "https://dc.lft.to/lastmile_qr_scan"}, "name": "fb90eb1bd932282a4ccd4c04986fbaa0", "is_reserved": 0}, {"is_disabled": 0, "fusion_lon": 0.0, "fusion_lat": 0.0, "lat": 38.90727483333333, "type": "electric_scooter", "lon": -77.03465716666666, "bike_id": "30f60f976f44442182c6b4e15033587c", "rental_uris": {"android": "https://dc.lft.to/lastmile_qr_scan", "ios": "https://dc.lft.to/lastmile_qr_scan"}, "name": "30f60f976f44442182c6b4e15033587c", "is_reserved": 0}, {"is_disabled": 0, "fusion_lon": 0.0, "fusion_lat": 0.0, "lat": 38.86718616666667, "type": "electric_scooter", "lon": -76.98733583333333, "bike_id": "3a0a33270e79ee046f64bc69f4eefb94", "rental_uris": {"android": "https://dc.lft.to/lastmile_qr_scan", "ios": "https://dc.lft.to/lastmile_qr_scan"}, "name": "3a0a33270e79ee046f64bc69f4eefb94", "is_reserved": 0}, {"is_disabled": 0, "fusion_lon": 0.0, "fusion_lat": 0.0, "lat": 38.92604566666667, "type": "electric_scooter", "lon": -77.03776983333333, "bike_id": "7c2d0bb2765c66bfe61ef2581c0b2528", "rental_uris": {"android": "https://dc.lft.to/lastmile_qr_scan", "ios": "https://dc.lft.to/lastmile_qr_scan"}, "name": "7c2d0bb2765c66bfe61ef2581c0b2528", "is_reserved": 0}, {"is_disabled": 0, "fusion_lon": 0.0, "fusion_lat": 0.0, "lat": 38.912775333333336, "type": "electric_scooter", "lon": -77.03861833333333, "bike_id": "793fe5883b9d32ab0b2a709a8b8749dc", "rental_uris": {"android": "https://dc.lft.to/lastmile_qr_scan", "ios": "https://dc.lft.to/lastmile_qr_scan"}, "name": "793fe5883b9d32ab0b2a709a8b8749dc", "is_reserved": 0}, {"is_disabled": 0, "fusion_lon": 0.0, "fusion_lat": 0.0, "lat": 38.897844166666665, "type": "electric_scooter", "lon": -77.05017133333334, "bike_id": "82715dc74d36bbcc14941b2b1f1ecb25", "rental_uris": {"android": "https://dc.lft.to/lastmile_qr_scan", "ios": "https://dc.lft.to/lastmile_qr_scan"}, "name": "82715dc74d36bbcc14941b2b1f1ecb25", "is_reserved": 0}, {"is_disabled": 0, "fusion_lon": 0.0, "fusion_lat": 0.0, "lat": 38.89833016666667, "type": "electric_scooter", "lon": -76.94634216666667, "bike_id": "58d0fff0f452df3e6ff6d79b7c8c4106", "rental_uris": {"android": "https://dc.lft.to/lastmile_qr_scan", "ios": "https://dc.lft.to/lastmile_qr_scan"}, "name": "58d0fff0f452df3e6ff6d79b7c8c4106", "is_reserved": 0}, {"is_disabled": 0, "fusion_lon": 0.0, "fusion_lat": 0.0, "lat": 38.930493166666665, "type": "electric_scooter", "lon": -77.0042055, "bike_id": "dbd3a9f9b5448ff94d34854c60b1ead8", "rental_uris": {"android": "https://dc.lft.to/lastmile_qr_scan", "ios": "https://dc.lft.to/lastmile_qr_scan"}, "name": "dbd3a9f9b5448ff94d34854c60b1ead8", "is_reserved": 0}, {"is_disabled": 0, "fusion_lon": 0.0, "fusion_lat": 0.0, "lat": 38.928728666666665, "type": "electric_scooter", "lon": -77.0344745, "bike_id": "b897045acc140a6068f330525eac57d0", "rental_uris": {"android": "https://dc.lft.to/lastmile_qr_scan", "ios": "https://dc.lft.to/lastmile_qr_scan"}, "name": "b897045acc140a6068f330525eac57d0", "is_reserved": 0}, {"is_disabled": 0, "fusion_lon": 0.0, "fusion_lat": 0.0, "lat": 38.86243, "type": "electric_scooter", "lon": -76.99494366666667, "bike_id": "d7ac18e1a317862acfeb2bbb80ed95d5", "rental_uris": {"android": "https://dc.lft.to/lastmile_qr_scan", "ios": "https://dc.lft.to/lastmile_qr_scan"}, "name": "d7ac18e1a317862acfeb2bbb80ed95d5", "is_reserved": 0}, {"is_disabled": 0, "fusion_lon": 0.0, "fusion_lat": 0.0, "lat": 38.942776, "type": "electric_scooter", "lon": -77.0235385, "bike_id": "649e66c1d71f8e62bad77df696edc654", "rental_uris": {"android": "https://dc.lft.to/lastmile_qr_scan", "ios": "https://dc.lft.to/lastmile_qr_scan"}, "name": "649e66c1d71f8e62bad77df696edc654", "is_reserved": 0}, {"is_disabled": 0, "fusion_lon": 0.0, "fusion_lat": 0.0, "lat": 38.992552833333335, "type": "electric_bike", "lon": -77.04991583333333, "bike_id": "1a57426618618879ab37c0aefbaeb08e", "rental_uris": {"android": "https://dc.lft.to/lastmile_qr_scan", "ios": "https://dc.lft.to/lastmile_qr_scan"}, "name": "1a57426618618879ab37c0aefbaeb08e", "is_reserved": 0}, {"is_disabled": 0, "fusion_lon": 0.0, "fusion_lat": 0.0, "lat": 39.11509366666667, "type": "electric_bike", "lon": -77.19544666666667, "bike_id": "e6a113410ec09dd3184e4214eb805efb", "rental_uris": {"android": "https://dc.lft.to/lastmile_qr_scan", "ios": "https://dc.lft.to/lastmile_qr_scan"}, "name": "e6a113410ec09dd3184e4214eb805efb", "is_reserved": 0}, {"is_disabled": 0, "fusion_lon": 0.0, "fusion_lat": 0.0, "lat": 38.8571275, "type": "electric_bike", "lon": -76.98119883333334, "bike_id": "add8466708904b85dcc1e841ae33fce6", "rental_uris": {"android": "https://dc.lft.to/lastmile_qr_scan", "ios": "https://dc.lft.to/lastmile_qr_scan"}, "name": "add8466708904b85dcc1e841ae33fce6", "is_reserved": 0}, {"is_disabled": 0, "fusion_lon": 0.0, "fusion_lat": 0.0, "lat": 38.911195, "type": "electric_scooter", "lon": -77.03834783333333, "bike_id": "ec89bbf1f4b9019e5612e60faf30cf74", "rental_uris": {"android": "https://dc.lft.to/lastmile_qr_scan", "ios": "https://dc.lft.to/lastmile_qr_scan"}, "name": "ec89bbf1f4b9019e5612e60faf30cf74", "is_reserved": 0}, {"is_disabled": 0, "fusion_lon": 0.0, "fusion_lat": 0.0, "lat": 38.838133, "type": "electric_scooter", "lon": -77.00433766666667, "bike_id": "02e9c68345c3e01225224caf21c3286d", "rental_uris": {"android": "https://dc.lft.to/lastmile_qr_scan", "ios": "https://dc.lft.to/lastmile_qr_scan"}, "name": "02e9c68345c3e01225224caf21c3286d", "is_reserved": 0}, {"is_disabled": 0, "fusion_lon": 0.0, "fusion_lat": 0.0, "lat": 38.915563166666665, "type": "electric_scooter", "lon": -77.03878866666666, "bike_id": "1a826c1b4d1587d3dbc0b6f9a49569c4", "rental_uris": {"android": "https://dc.lft.to/lastmile_qr_scan", "ios": "https://dc.lft.to/lastmile_qr_scan"}, "name": "1a826c1b4d1587d3dbc0b6f9a49569c4", "is_reserved": 0}, {"is_disabled": 0, "fusion_lon": 0.0, "fusion_lat": 0.0, "lat": 38.889602, "type": "electric_scooter", "lon": -76.99148583333333, "bike_id": "e3360223d75eb606830fbd4fdf86dcb1", "rental_uris": {"android": "https://dc.lft.to/lastmile_qr_scan", "ios": "https://dc.lft.to/lastmile_qr_scan"}, "name": "e3360223d75eb606830fbd4fdf86dcb1", "is_reserved": 0}, {"is_disabled": 0, "fusion_lon": 0.0, "fusion_lat": 0.0, "lat": 38.88852966666666, "type": "electric_bike", "lon": -76.97701733333334, "bike_id": "4a68be1970a34cbff65c8015534b6d51", "rental_uris": {"android": "https://dc.lft.to/lastmile_qr_scan", "ios": "https://dc.lft.to/lastmile_qr_scan"}, "name": "4a68be1970a34cbff65c8015534b6d51", "is_reserved": 0}, {"is_disabled": 0, "fusion_lon": 0.0, "fusion_lat": 0.0, "lat": 38.898348166666665, "type": "electric_scooter", "lon": -77.02955366666667, "bike_id": "e7904145f1b2bedb97a5ee92fc2f40c0", "rental_uris": {"android": "https://dc.lft.to/lastmile_qr_scan", "ios": "https://dc.lft.to/lastmile_qr_scan"}, "name": "e7904145f1b2bedb97a5ee92fc2f40c0", "is_reserved": 0}, {"is_disabled": 0, "fusion_lon": 0.0, "fusion_lat": 0.0, "lat": 38.8874675, "type": "electric_scooter", "lon": -77.01430566666667, "bike_id": "844a463bcc4a90cf1eb9dae6df3a1a7d", "rental_uris": {"android": "https://dc.lft.to/lastmile_qr_scan", "ios": "https://dc.lft.to/lastmile_qr_scan"}, "name": "844a463bcc4a90cf1eb9dae6df3a1a7d", "is_reserved": 0}, {"is_disabled": 0, "fusion_lon": 0.0, "fusion_lat": 0.0, "lat": 38.91540833333333, "type": "electric_scooter", "lon": -77.021847, "bike_id": "ad1b4380add9b2c47a3d21d353b4667d", "rental_uris": {"android": "https://dc.lft.to/lastmile_qr_scan", "ios": "https://dc.lft.to/lastmile_qr_scan"}, "name": "ad1b4380add9b2c47a3d21d353b4667d", "is_reserved": 0}, {"is_disabled": 0, "fusion_lon": 0.0, "fusion_lat": 0.0, "lat": 38.86671033333333, "type": "electric_scooter", "lon": -76.98887616666667, "bike_id": "fc118d92df5da8193fb6eb5797f80f92", "rental_uris": {"android": "https://dc.lft.to/lastmile_qr_scan", "ios": "https://dc.lft.to/lastmile_qr_scan"}, "name": "fc118d92df5da8193fb6eb5797f80f92", "is_reserved": 0}, {"is_disabled": 0, "fusion_lon": 0.0, "fusion_lat": 0.0, "lat": 38.9176075, "type": "electric_scooter", "lon": -77.031931, "bike_id": "447c67d5b65901f18cbceca4c2ee6cb5", "rental_uris": {"android": "https://dc.lft.to/lastmile_qr_scan", "ios": "https://dc.lft.to/lastmile_qr_scan"}, "name": "447c67d5b65901f18cbceca4c2ee6cb5", "is_reserved": 0}, {"is_disabled": 0, "fusion_lon": 0.0, "fusion_lat": 0.0, "lat": 38.9103595, "type": "electric_scooter", "lon": -77.03801183333333, "bike_id": "ef76207f8630645b269c55b01956681a", "rental_uris": {"android": "https://dc.lft.to/lastmile_qr_scan", "ios": "https://dc.lft.to/lastmile_qr_scan"}, "name": "ef76207f8630645b269c55b01956681a", "is_reserved": 0}, {"is_disabled": 0, "fusion_lon": 0.0, "fusion_lat": 0.0, "lat": 38.928387666666666, "type": "electric_scooter", "lon": -77.05547933333334, "bike_id": "3a6a155e269cbfbaf19793c8d9535630", "rental_uris": {"android": "https://dc.lft.to/lastmile_qr_scan", "ios": "https://dc.lft.to/lastmile_qr_scan"}, "name": "3a6a155e269cbfbaf19793c8d9535630", "is_reserved": 0}, {"is_disabled": 0, "fusion_lon": 0.0, "fusion_lat": 0.0, "lat": 38.868093333333334, "type": "electric_scooter", "lon": -77.01178783333333, "bike_id": "70012ec836a5569e1e77dc597ac9b0e9", "rental_uris": {"android": "https://dc.lft.to/lastmile_qr_scan", "ios": "https://dc.lft.to/lastmile_qr_scan"}, "name": "70012ec836a5569e1e77dc597ac9b0e9", "is_reserved": 0}, {"is_disabled": 0, "fusion_lon": 0.0, "fusion_lat": 0.0, "lat": 39.05457766666667, "type": "electric_bike", "lon": -77.14331416666667, "bike_id": "3392b19091bd56dcc533490314f7d3c8", "rental_uris": {"android": "https://dc.lft.to/lastmile_qr_scan", "ios": "https://dc.lft.to/lastmile_qr_scan"}, "name": "3392b19091bd56dcc533490314f7d3c8", "is_reserved": 0}, {"is_disabled": 0, "fusion_lon": 0.0, "fusion_lat": 0.0, "lat": 38.8939215, "type": "electric_scooter", "lon": -76.950001, "bike_id": "5fd945c376f3f0f09db0d90ea0777259", "rental_uris": {"android": "https://dc.lft.to/lastmile_qr_scan", "ios": "https://dc.lft.to/lastmile_qr_scan"}, "name": "5fd945c376f3f0f09db0d90ea0777259", "is_reserved": 0}, {"is_disabled": 0, "fusion_lon": 0.0, "fusion_lat": 0.0, "lat": 38.8984615, "type": "electric_scooter", "lon": -77.02178566666667, "bike_id": "237a21f2ca929e9126b1acab440b2d76", "rental_uris": {"android": "https://dc.lft.to/lastmile_qr_scan", "ios": "https://dc.lft.to/lastmile_qr_scan"}, "name": "237a21f2ca929e9126b1acab440b2d76", "is_reserved": 0}, {"is_disabled": 0, "fusion_lon": 0.0, "fusion_lat": 0.0, "lat": 38.94588683333333, "type": "electric_bike", "lon": -77.34412883333333, "bike_id": "d5f7bfec5c40edaf54dc877f54ab2366", "rental_uris": {"android": "https://dc.lft.to/lastmile_qr_scan", "ios": "https://dc.lft.to/lastmile_qr_scan"}, "name": "d5f7bfec5c40edaf54dc877f54ab2366", "is_reserved": 0}, {"is_disabled": 0, "fusion_lon": 0.0, "fusion_lat": 0.0, "lat": 38.89744733333333, "type": "electric_scooter", "lon": -77.04721883333333, "bike_id": "7840da2e0dc7537f80efe1258ecde853", "rental_uris": {"android": "https://dc.lft.to/lastmile_qr_scan", "ios": "https://dc.lft.to/lastmile_qr_scan"}, "name": "7840da2e0dc7537f80efe1258ecde853", "is_reserved": 0}, {"is_disabled": 0, "fusion_lon": 0.0, "fusion_lat": 0.0, "lat": 38.77618183333333, "type": "electric_bike", "lon": -77.08356216666667, "bike_id": "b0f70475e7edfdbfcd618aef14590d68", "rental_uris": {"android": "https://dc.lft.to/lastmile_qr_scan", "ios": "https://dc.lft.to/lastmile_qr_scan"}, "name": "b0f70475e7edfdbfcd618aef14590d68", "is_reserved": 0}, {"is_disabled": 0, "fusion_lon": 0.0, "fusion_lat": 0.0, "lat": 38.90314466666667, "type": "electric_scooter", "lon": -77.02367416666667, "bike_id": "fb0c37a18c4b9b3ed066f75c8a9b1814", "rental_uris": {"android": "https://dc.lft.to/lastmile_qr_scan", "ios": "https://dc.lft.to/lastmile_qr_scan"}, "name": "fb0c37a18c4b9b3ed066f75c8a9b1814", "is_reserved": 0}, {"is_disabled": 0, "fusion_lon": 0.0, "fusion_lat": 0.0, "lat": 38.91727683333333, "type": "electric_scooter", "lon": -77.00513533333333, "bike_id": "aa58accd7da0a359146cac95f15e851d", "rental_uris": {"android": "https://dc.lft.to/lastmile_qr_scan", "ios": "https://dc.lft.to/lastmile_qr_scan"}, "name": "aa58accd7da0a359146cac95f15e851d", "is_reserved": 0}, {"is_disabled": 0, "fusion_lon": 0.0, "fusion_lat": 0.0, "lat": 38.91771716666667, "type": "electric_scooter", "lon": -77.02951, "bike_id": "274f08cf18c2410a764c882e764d97c4", "rental_uris": {"android": "https://dc.lft.to/lastmile_qr_scan", "ios": "https://dc.lft.to/lastmile_qr_scan"}, "name": "274f08cf18c2410a764c882e764d97c4", "is_reserved": 0}, {"is_disabled": 0, "fusion_lon": 0.0, "fusion_lat": 0.0, "lat": 38.9389905, "type": "electric_scooter", "lon": -77.0330465, "bike_id": "23db9ba746c93917f189298bf389347f", "rental_uris": {"android": "https://dc.lft.to/lastmile_qr_scan", "ios": "https://dc.lft.to/lastmile_qr_scan"}, "name": "23db9ba746c93917f189298bf389347f", "is_reserved": 0}, {"is_disabled": 0, "fusion_lon": 0.0, "fusion_lat": 0.0, "lat": 38.896347666666664, "type": "electric_scooter", "lon": -77.02692383333333, "bike_id": "4b3a5264a1cf3ba740ffd48ba9272d86", "rental_uris": {"android": "https://dc.lft.to/lastmile_qr_scan", "ios": "https://dc.lft.to/lastmile_qr_scan"}, "name": "4b3a5264a1cf3ba740ffd48ba9272d86", "is_reserved": 0}, {"is_disabled": 0, "fusion_lon": 0.0, "fusion_lat": 0.0, "lat": 38.919718833333334, "type": "electric_scooter", "lon": -77.03194866666666, "bike_id": "0493d2b3748b5cebc121ad4c37a13fa6", "rental_uris": {"android": "https://dc.lft.to/lastmile_qr_scan", "ios": "https://dc.lft.to/lastmile_qr_scan"}, "name": "0493d2b3748b5cebc121ad4c37a13fa6", "is_reserved": 0}, {"is_disabled": 0, "fusion_lon": 0.0, "fusion_lat": 0.0, "lat": 38.94287666666666, "type": "electric_bike", "lon": -77.06926433333334, "bike_id": "14fdffac9a0bcd50edb2d0a9c89ef1a5", "rental_uris": {"android": "https://dc.lft.to/lastmile_qr_scan", "ios": "https://dc.lft.to/lastmile_qr_scan"}, "name": "14fdffac9a0bcd50edb2d0a9c89ef1a5", "is_reserved": 0}, {"is_disabled": 0, "fusion_lon": 0.0, "fusion_lat": 0.0, "lat": 38.873886166666665, "type": "electric_scooter", "lon": -77.00193083333333, "bike_id": "feb7cfd312f172fe814b7641ab501f6d", "rental_uris": {"android": "https://dc.lft.to/lastmile_qr_scan", "ios": "https://dc.lft.to/lastmile_qr_scan"}, "name": "feb7cfd312f172fe814b7641ab501f6d", "is_reserved": 0}, {"is_disabled": 0, "fusion_lon": 0.0, "fusion_lat": 0.0, "lat": 38.93548933333334, "type": "electric_bike", "lon": -77.08198933333334, "bike_id": "601bde15b653a6bc5a707b767bffe2b2", "rental_uris": {"android": "https://dc.lft.to/lastmile_qr_scan", "ios": "https://dc.lft.to/lastmile_qr_scan"}, "name": "601bde15b653a6bc5a707b767bffe2b2", "is_reserved": 0}, {"is_disabled": 0, "fusion_lon": 0.0, "fusion_lat": 0.0, "lat": 38.906596, "type": "electric_scooter", "lon": -77.04535033333333, "bike_id": "101ed5dbaab15ebb9a2d14b9a6bbd565", "rental_uris": {"android": "https://dc.lft.to/lastmile_qr_scan", "ios": "https://dc.lft.to/lastmile_qr_scan"}, "name": "101ed5dbaab15ebb9a2d14b9a6bbd565", "is_reserved": 0}, {"is_disabled": 0, "fusion_lon": 0.0, "fusion_lat": 0.0, "lat": 38.8669935, "type": "electric_scooter", "lon": -76.98715883333334, "bike_id": "dc4a603c1eeb66822083567349bd227b", "rental_uris": {"android": "https://dc.lft.to/lastmile_qr_scan", "ios": "https://dc.lft.to/lastmile_qr_scan"}, "name": "dc4a603c1eeb66822083567349bd227b", "is_reserved": 0}, {"is_disabled": 0, "fusion_lon": 0.0, "fusion_lat": 0.0, "lat": 38.92578133333333, "type": "electric_scooter", "lon": -77.03213833333334, "bike_id": "37636d449b7649a6b25de5a745f271f4", "rental_uris": {"android": "https://dc.lft.to/lastmile_qr_scan", "ios": "https://dc.lft.to/lastmile_qr_scan"}, "name": "37636d449b7649a6b25de5a745f271f4", "is_reserved": 0}, {"is_disabled": 0, "fusion_lon": 0.0, "fusion_lat": 0.0, "lat": 39.00786, "type": "electric_bike", "lon": -76.99572083333334, "bike_id": "a6f4a5baec085b857eb400a1b96d3e68", "rental_uris": {"android": "https://dc.lft.to/lastmile_qr_scan", "ios": "https://dc.lft.to/lastmile_qr_scan"}, "name": "a6f4a5baec085b857eb400a1b96d3e68", "is_reserved": 0}, {"is_disabled": 0, "fusion_lon": 0.0, "fusion_lat": 0.0, "lat": 38.89977483333333, "type": "electric_scooter", "lon": -77.0461695, "bike_id": "2e12546f8abec81eee147c5cc39ebd73", "rental_uris": {"android": "https://dc.lft.to/lastmile_qr_scan", "ios": "https://dc.lft.to/lastmile_qr_scan"}, "name": "2e12546f8abec81eee147c5cc39ebd73", "is_reserved": 0}, {"is_disabled": 0, "fusion_lon": 0.0, "fusion_lat": 0.0, "lat": 38.90046866666667, "type": "electric_scooter", "lon": -77.00068433333334, "bike_id": "34144a1d536664a6ea29068efd6cc066", "rental_uris": {"android": "https://dc.lft.to/lastmile_qr_scan", "ios": "https://dc.lft.to/lastmile_qr_scan"}, "name": "34144a1d536664a6ea29068efd6cc066", "is_reserved": 0}, {"is_disabled": 0, "fusion_lon": 0.0, "fusion_lat": 0.0, "lat": 38.898418166666666, "type": "electric_scooter", "lon": -76.9463485, "bike_id": "56f47a0ac4a4c6e95d2c857c3a76b7de", "rental_uris": {"android": "https://dc.lft.to/lastmile_qr_scan", "ios": "https://dc.lft.to/lastmile_qr_scan"}, "name": "56f47a0ac4a4c6e95d2c857c3a76b7de", "is_reserved": 0}, {"is_disabled": 0, "fusion_lon": 0.0, "fusion_lat": 0.0, "lat": 38.90157466666667, "type": "electric_scooter", "lon": -77.02206766666667, "bike_id": "d077498c2f03d93ec3bab77b6d931549", "rental_uris": {"android": "https://dc.lft.to/lastmile_qr_scan", "ios": "https://dc.lft.to/lastmile_qr_scan"}, "name": "d077498c2f03d93ec3bab77b6d931549", "is_reserved": 0}, {"is_disabled": 0, "fusion_lon": 0.0, "fusion_lat": 0.0, "lat": 38.912132666666665, "type": "electric_scooter", "lon": -77.03194983333333, "bike_id": "d87c6280e268c3675effe3fa8c1f16c9", "rental_uris": {"android": "https://dc.lft.to/lastmile_qr_scan", "ios": "https://dc.lft.to/lastmile_qr_scan"}, "name": "d87c6280e268c3675effe3fa8c1f16c9", "is_reserved": 0}, {"is_disabled": 0, "fusion_lon": 0.0, "fusion_lat": 0.0, "lat": 38.9200105, "type": "electric_scooter", "lon": -77.02410116666667, "bike_id": "b40ed65d4646dcfd37a453f4a2709dac", "rental_uris": {"android": "https://dc.lft.to/lastmile_qr_scan", "ios": "https://dc.lft.to/lastmile_qr_scan"}, "name": "b40ed65d4646dcfd37a453f4a2709dac", "is_reserved": 0}, {"is_disabled": 0, "fusion_lon": 0.0, "fusion_lat": 0.0, "lat": 38.89307733333333, "type": "electric_scooter", "lon": -77.0123455, "bike_id": "90a61abe4de0b54b5a11b7b0c5ad8563", "rental_uris": {"android": "https://dc.lft.to/lastmile_qr_scan", "ios": "https://dc.lft.to/lastmile_qr_scan"}, "name": "90a61abe4de0b54b5a11b7b0c5ad8563", "is_reserved": 0}, {"is_disabled": 0, "fusion_lon": 0.0, "fusion_lat": 0.0, "lat": 38.920950833333336, "type": "electric_scooter", "lon": -77.03051283333333, "bike_id": "78daa2584fda1177c4548258c5e21efc", "rental_uris": {"android": "https://dc.lft.to/lastmile_qr_scan", "ios": "https://dc.lft.to/lastmile_qr_scan"}, "name": "78daa2584fda1177c4548258c5e21efc", "is_reserved": 0}, {"is_disabled": 0, "fusion_lon": 0.0, "fusion_lat": 0.0, "lat": 38.90241066666667, "type": "electric_scooter", "lon": -77.00210883333334, "bike_id": "b1cf682d4cf9b695cc763d98ee863435", "rental_uris": {"android": "https://dc.lft.to/lastmile_qr_scan", "ios": "https://dc.lft.to/lastmile_qr_scan"}, "name": "b1cf682d4cf9b695cc763d98ee863435", "is_reserved": 0}, {"is_disabled": 0, "fusion_lon": 0.0, "fusion_lat": 0.0, "lat": 38.910894666666664, "type": "electric_scooter", "lon": -77.03853683333334, "bike_id": "3c1c09231e1ba280a926a8c63078a5b6", "rental_uris": {"android": "https://dc.lft.to/lastmile_qr_scan", "ios": "https://dc.lft.to/lastmile_qr_scan"}, "name": "3c1c09231e1ba280a926a8c63078a5b6", "is_reserved": 0}, {"is_disabled": 0, "fusion_lon": 0.0, "fusion_lat": 0.0, "lat": 38.876645, "type": "electric_scooter", "lon": -77.0157255, "bike_id": "ad7e52d481f020c4ae916759a3653b91", "rental_uris": {"android": "https://dc.lft.to/lastmile_qr_scan", "ios": "https://dc.lft.to/lastmile_qr_scan"}, "name": "ad7e52d481f020c4ae916759a3653b91", "is_reserved": 0}, {"is_disabled": 0, "fusion_lon": 0.0, "fusion_lat": 0.0, "lat": 38.908202333333335, "type": "electric_scooter", "lon": -77.04171133333334, "bike_id": "b890db959b9771ef063d40bc773a6f7b", "rental_uris": {"android": "https://dc.lft.to/lastmile_qr_scan", "ios": "https://dc.lft.to/lastmile_qr_scan"}, "name": "b890db959b9771ef063d40bc773a6f7b", "is_reserved": 0}, {"is_disabled": 0, "fusion_lon": 0.0, "fusion_lat": 0.0, "lat": 38.931512, "type": "electric_scooter", "lon": -77.03444833333333, "bike_id": "d24e3a2c8e323826962b6262461d347a", "rental_uris": {"android": "https://dc.lft.to/lastmile_qr_scan", "ios": "https://dc.lft.to/lastmile_qr_scan"}, "name": "d24e3a2c8e323826962b6262461d347a", "is_reserved": 0}, {"is_disabled": 0, "fusion_lon": 0.0, "fusion_lat": 0.0, "lat": 38.953114166666666, "type": "electric_scooter", "lon": -77.03599283333334, "bike_id": "64a22e0cf762bf812a7a3ef7b3b185ff", "rental_uris": {"android": "https://dc.lft.to/lastmile_qr_scan", "ios": "https://dc.lft.to/lastmile_qr_scan"}, "name": "64a22e0cf762bf812a7a3ef7b3b185ff", "is_reserved": 0}, {"is_disabled": 0, "fusion_lon": 0.0, "fusion_lat": 0.0, "lat": 38.930914333333334, "type": "electric_scooter", "lon": -77.025163, "bike_id": "bc61cf6dc8347cce036650a630dffbe8", "rental_uris": {"android": "https://dc.lft.to/lastmile_qr_scan", "ios": "https://dc.lft.to/lastmile_qr_scan"}, "name": "bc61cf6dc8347cce036650a630dffbe8", "is_reserved": 0}, {"is_disabled": 0, "fusion_lon": 0.0, "fusion_lat": 0.0, "lat": 38.903962666666665, "type": "electric_scooter", "lon": -77.02806683333333, "bike_id": "9b67f3c56bd8c3c877139f43ede3ee20", "rental_uris": {"android": "https://dc.lft.to/lastmile_qr_scan", "ios": "https://dc.lft.to/lastmile_qr_scan"}, "name": "9b67f3c56bd8c3c877139f43ede3ee20", "is_reserved": 0}, {"is_disabled": 0, "fusion_lon": 0.0, "fusion_lat": 0.0, "lat": 38.916954, "type": "electric_scooter", "lon": -77.037732, "bike_id": "4b1adf16576332f27d9c2ce22238cdb5", "rental_uris": {"android": "https://dc.lft.to/lastmile_qr_scan", "ios": "https://dc.lft.to/lastmile_qr_scan"}, "name": "4b1adf16576332f27d9c2ce22238cdb5", "is_reserved": 0}, {"is_disabled": 0, "fusion_lon": 0.0, "fusion_lat": 0.0, "lat": 38.9563345, "type": "electric_scooter", "lon": -77.02983316666666, "bike_id": "15bd4ae0cfc6e0beface3eb23910355f", "rental_uris": {"android": "https://dc.lft.to/lastmile_qr_scan", "ios": "https://dc.lft.to/lastmile_qr_scan"}, "name": "15bd4ae0cfc6e0beface3eb23910355f", "is_reserved": 0}, {"is_disabled": 0, "fusion_lon": 0.0, "fusion_lat": 0.0, "lat": 38.91364733333333, "type": "electric_scooter", "lon": -77.03963783333333, "bike_id": "ef420692f531a3d82d04f9cb5835959a", "rental_uris": {"android": "https://dc.lft.to/lastmile_qr_scan", "ios": "https://dc.lft.to/lastmile_qr_scan"}, "name": "ef420692f531a3d82d04f9cb5835959a", "is_reserved": 0}, {"is_disabled": 0, "fusion_lon": 0.0, "fusion_lat": 0.0, "lat": 38.879406833333334, "type": "electric_scooter", "lon": -77.00729683333333, "bike_id": "5e3b10b1bb3adb207c552e702dc9a847", "rental_uris": {"android": "https://dc.lft.to/lastmile_qr_scan", "ios": "https://dc.lft.to/lastmile_qr_scan"}, "name": "5e3b10b1bb3adb207c552e702dc9a847", "is_reserved": 0}, {"is_disabled": 0, "fusion_lon": 0.0, "fusion_lat": 0.0, "lat": 38.88735883333333, "type": "electric_scooter", "lon": -77.01534016666666, "bike_id": "0e1558ef150992ee005b35b1dd2f1d9c", "rental_uris": {"android": "https://dc.lft.to/lastmile_qr_scan", "ios": "https://dc.lft.to/lastmile_qr_scan"}, "name": "0e1558ef150992ee005b35b1dd2f1d9c", "is_reserved": 0}, {"is_disabled": 0, "fusion_lon": 0.0, "fusion_lat": 0.0, "lat": 38.910642833333334, "type": "electric_scooter", "lon": -76.9851005, "bike_id": "67d3960b86b8c98f1bf2fd25eea28ff6", "rental_uris": {"android": "https://dc.lft.to/lastmile_qr_scan", "ios": "https://dc.lft.to/lastmile_qr_scan"}, "name": "67d3960b86b8c98f1bf2fd25eea28ff6", "is_reserved": 0}, {"is_disabled": 0, "fusion_lon": 0.0, "fusion_lat": 0.0, "lat": 38.884123, "type": "electric_bike", "lon": -77.03092533333333, "bike_id": "b2ee9f9da1011f6fba7747d6d1771f3f", "rental_uris": {"android": "https://dc.lft.to/lastmile_qr_scan", "ios": "https://dc.lft.to/lastmile_qr_scan"}, "name": "b2ee9f9da1011f6fba7747d6d1771f3f", "is_reserved": 0}, {"is_disabled": 0, "fusion_lon": 0.0, "fusion_lat": 0.0, "lat": 38.846028, "type": "electric_bike", "lon": -76.96878966666667, "bike_id": "d9ea9237c6a37ffeac1afdf5b75c32e1", "rental_uris": {"android": "https://dc.lft.to/lastmile_qr_scan", "ios": "https://dc.lft.to/lastmile_qr_scan"}, "name": "d9ea9237c6a37ffeac1afdf5b75c32e1", "is_reserved": 0}, {"is_disabled": 0, "fusion_lon": 0.0, "fusion_lat": 0.0, "lat": 38.9289665, "type": "electric_scooter", "lon": -77.03230683333334, "bike_id": "c58df4f7f7970f6bc043e26402b6aa98", "rental_uris": {"android": "https://dc.lft.to/lastmile_qr_scan", "ios": "https://dc.lft.to/lastmile_qr_scan"}, "name": "c58df4f7f7970f6bc043e26402b6aa98", "is_reserved": 0}, {"is_disabled": 0, "fusion_lon": 0.0, "fusion_lat": 0.0, "lat": 38.91992166666667, "type": "electric_scooter", "lon": -76.98396233333334, "bike_id": "f316c659f84ddf04771a8692d860c663", "rental_uris": {"android": "https://dc.lft.to/lastmile_qr_scan", "ios": "https://dc.lft.to/lastmile_qr_scan"}, "name": "f316c659f84ddf04771a8692d860c663", "is_reserved": 0}, {"is_disabled": 0, "fusion_lon": 0.0, "fusion_lat": 0.0, "lat": 38.915468, "type": "electric_scooter", "lon": -77.0236885, "bike_id": "0da347e250657d02e8d7f94ccb320322", "rental_uris": {"android": "https://dc.lft.to/lastmile_qr_scan", "ios": "https://dc.lft.to/lastmile_qr_scan"}, "name": "0da347e250657d02e8d7f94ccb320322", "is_reserved": 0}, {"is_disabled": 0, "fusion_lon": 0.0, "fusion_lat": 0.0, "lat": 38.93303, "type": "electric_scooter", "lon": -77.03267366666667, "bike_id": "6054bb1956684e5a2fb2906d0a41d692", "rental_uris": {"android": "https://dc.lft.to/lastmile_qr_scan", "ios": "https://dc.lft.to/lastmile_qr_scan"}, "name": "6054bb1956684e5a2fb2906d0a41d692", "is_reserved": 0}, {"is_disabled": 0, "fusion_lon": 0.0, "fusion_lat": 0.0, "lat": 38.92244066666667, "type": "electric_scooter", "lon": -77.03664716666667, "bike_id": "de3dea4582ba77060799984ea442a132", "rental_uris": {"android": "https://dc.lft.to/lastmile_qr_scan", "ios": "https://dc.lft.to/lastmile_qr_scan"}, "name": "de3dea4582ba77060799984ea442a132", "is_reserved": 0}, {"is_disabled": 0, "fusion_lon": 0.0, "fusion_lat": 0.0, "lat": 38.915605, "type": "electric_scooter", "lon": -77.0386945, "bike_id": "767584ab478f994d79d7060d4a5573bd", "rental_uris": {"android": "https://dc.lft.to/lastmile_qr_scan", "ios": "https://dc.lft.to/lastmile_qr_scan"}, "name": "767584ab478f994d79d7060d4a5573bd", "is_reserved": 0}, {"is_disabled": 0, "fusion_lon": 0.0, "fusion_lat": 0.0, "lat": 38.89767583333333, "type": "electric_scooter", "lon": -77.05116333333334, "bike_id": "4235a5235032d50a1b88e7a24d5288ed", "rental_uris": {"android": "https://dc.lft.to/lastmile_qr_scan", "ios": "https://dc.lft.to/lastmile_qr_scan"}, "name": "4235a5235032d50a1b88e7a24d5288ed", "is_reserved": 0}, {"is_disabled": 0, "fusion_lon": 0.0, "fusion_lat": 0.0, "lat": 38.88227033333333, "type": "electric_scooter", "lon": -76.99075166666667, "bike_id": "725b8cd342a629aba222835ebf33fe61", "rental_uris": {"android": "https://dc.lft.to/lastmile_qr_scan", "ios": "https://dc.lft.to/lastmile_qr_scan"}, "name": "725b8cd342a629aba222835ebf33fe61", "is_reserved": 0}, {"is_disabled": 0, "fusion_lon": 0.0, "fusion_lat": 0.0, "lat": 38.9177975, "type": "electric_scooter", "lon": -77.03202233333333, "bike_id": "7f4c24810d201ea02ebcb7fae203289d", "rental_uris": {"android": "https://dc.lft.to/lastmile_qr_scan", "ios": "https://dc.lft.to/lastmile_qr_scan"}, "name": "7f4c24810d201ea02ebcb7fae203289d", "is_reserved": 0}, {"is_disabled": 0, "fusion_lon": 0.0, "fusion_lat": 0.0, "lat": 38.915339833333334, "type": "electric_scooter", "lon": -77.0218305, "bike_id": "89e0b760d76e1ca8ca719657f593de5a", "rental_uris": {"android": "https://dc.lft.to/lastmile_qr_scan", "ios": "https://dc.lft.to/lastmile_qr_scan"}, "name": "89e0b760d76e1ca8ca719657f593de5a", "is_reserved": 0}, {"is_disabled": 0, "fusion_lon": 0.0, "fusion_lat": 0.0, "lat": 38.91545816666667, "type": "electric_scooter", "lon": -77.03150766666667, "bike_id": "eec4e99e1adc621fad529e8b07e0169d", "rental_uris": {"android": "https://dc.lft.to/lastmile_qr_scan", "ios": "https://dc.lft.to/lastmile_qr_scan"}, "name": "eec4e99e1adc621fad529e8b07e0169d", "is_reserved": 0}, {"is_disabled": 0, "fusion_lon": 0.0, "fusion_lat": 0.0, "lat": 38.86590733333333, "type": "electric_bike", "lon": -76.93231483333334, "bike_id": "ccc18e064a3d494dd3106c14dd4cd18d", "rental_uris": {"android": "https://dc.lft.to/lastmile_qr_scan", "ios": "https://dc.lft.to/lastmile_qr_scan"}, "name": "ccc18e064a3d494dd3106c14dd4cd18d", "is_reserved": 0}, {"is_disabled": 0, "fusion_lon": 0.0, "fusion_lat": 0.0, "lat": 38.91808066666667, "type": "electric_scooter", "lon": -77.03569366666666, "bike_id": "6cfea5f077177f988ddabdd98e64d44c", "rental_uris": {"android": "https://dc.lft.to/lastmile_qr_scan", "ios": "https://dc.lft.to/lastmile_qr_scan"}, "name": "6cfea5f077177f988ddabdd98e64d44c", "is_reserved": 0}, {"is_disabled": 0, "fusion_lon": 0.0, "fusion_lat": 0.0, "lat": 38.90860816666667, "type": "electric_scooter", "lon": -77.04333433333333, "bike_id": "c589ffe6f9d7e30be2bba36ed61a14eb", "rental_uris": {"android": "https://dc.lft.to/lastmile_qr_scan", "ios": "https://dc.lft.to/lastmile_qr_scan"}, "name": "c589ffe6f9d7e30be2bba36ed61a14eb", "is_reserved": 0}, {"is_disabled": 0, "fusion_lon": 0.0, "fusion_lat": 0.0, "lat": 38.89252666666667, "type": "electric_scooter", "lon": -76.998503, "bike_id": "26fb70cca99e118ebfaccc910ec1464e", "rental_uris": {"android": "https://dc.lft.to/lastmile_qr_scan", "ios": "https://dc.lft.to/lastmile_qr_scan"}, "name": "26fb70cca99e118ebfaccc910ec1464e", "is_reserved": 0}, {"is_disabled": 0, "fusion_lon": 0.0, "fusion_lat": 0.0, "lat": 38.85212816666667, "type": "electric_bike", "lon": -77.12756883333333, "bike_id": "9d502b69cbd21120ef458a8474dea0ef", "rental_uris": {"android": "https://dc.lft.to/lastmile_qr_scan", "ios": "https://dc.lft.to/lastmile_qr_scan"}, "name": "9d502b69cbd21120ef458a8474dea0ef", "is_reserved": 0}, {"is_disabled": 0, "fusion_lon": 0.0, "fusion_lat": 0.0, "lat": 38.919321833333335, "type": "electric_scooter", "lon": -77.0343255, "bike_id": "f2f187efc4e52360bb6e0d305803560f", "rental_uris": {"android": "https://dc.lft.to/lastmile_qr_scan", "ios": "https://dc.lft.to/lastmile_qr_scan"}, "name": "f2f187efc4e52360bb6e0d305803560f", "is_reserved": 0}, {"is_disabled": 0, "fusion_lon": 0.0, "fusion_lat": 0.0, "lat": 38.8974665, "type": "electric_scooter", "lon": -77.047278, "bike_id": "0750ffb1e4807dcce86df350512e44f2", "rental_uris": {"android": "https://dc.lft.to/lastmile_qr_scan", "ios": "https://dc.lft.to/lastmile_qr_scan"}, "name": "0750ffb1e4807dcce86df350512e44f2", "is_reserved": 0}, {"is_disabled": 0, "fusion_lon": 0.0, "fusion_lat": 0.0, "lat": 38.94494983333333, "type": "electric_bike", "lon": -77.0068285, "bike_id": "3005407f7e1937fd350265d14d65483f", "rental_uris": {"android": "https://dc.lft.to/lastmile_qr_scan", "ios": "https://dc.lft.to/lastmile_qr_scan"}, "name": "3005407f7e1937fd350265d14d65483f", "is_reserved": 0}, {"is_disabled": 0, "fusion_lon": 0.0, "fusion_lat": 0.0, "lat": 38.909681666666664, "type": "electric_scooter", "lon": -77.0217395, "bike_id": "2de1175ca9ed627c231a578371f4320e", "rental_uris": {"android": "https://dc.lft.to/lastmile_qr_scan", "ios": "https://dc.lft.to/lastmile_qr_scan"}, "name": "2de1175ca9ed627c231a578371f4320e", "is_reserved": 0}, {"is_disabled": 0, "fusion_lon": 0.0, "fusion_lat": 0.0, "lat": 38.91788916666667, "type": "electric_scooter", "lon": -77.03199833333333, "bike_id": "67cdb72119447e0597e6f0a5e207579d", "rental_uris": {"android": "https://dc.lft.to/lastmile_qr_scan", "ios": "https://dc.lft.to/lastmile_qr_scan"}, "name": "67cdb72119447e0597e6f0a5e207579d", "is_reserved": 0}, {"is_disabled": 0, "fusion_lon": 0.0, "fusion_lat": 0.0, "lat": 38.9058355, "type": "electric_scooter", "lon": -77.007152, "bike_id": "24891ffba64abd62d7f9ceb0a4557cff", "rental_uris": {"android": "https://dc.lft.to/lastmile_qr_scan", "ios": "https://dc.lft.to/lastmile_qr_scan"}, "name": "24891ffba64abd62d7f9ceb0a4557cff", "is_reserved": 0}, {"is_disabled": 0, "fusion_lon": 0.0, "fusion_lat": 0.0, "lat": 38.9282435, "type": "electric_scooter", "lon": -77.03634883333334, "bike_id": "a37c3aca14a6b582bb35852e3a88f20d", "rental_uris": {"android": "https://dc.lft.to/lastmile_qr_scan", "ios": "https://dc.lft.to/lastmile_qr_scan"}, "name": "a37c3aca14a6b582bb35852e3a88f20d", "is_reserved": 0}, {"is_disabled": 0, "fusion_lon": 0.0, "fusion_lat": 0.0, "lat": 38.919988833333335, "type": "electric_scooter", "lon": -77.0327525, "bike_id": "9f82cb60fb2a91fafc4af13bff0402d2", "rental_uris": {"android": "https://dc.lft.to/lastmile_qr_scan", "ios": "https://dc.lft.to/lastmile_qr_scan"}, "name": "9f82cb60fb2a91fafc4af13bff0402d2", "is_reserved": 0}, {"is_disabled": 0, "fusion_lon": 0.0, "fusion_lat": 0.0, "lat": 38.932937, "type": "electric_scooter", "lon": -77.02452133333334, "bike_id": "8a59564ffd971e4b182888848da95101", "rental_uris": {"android": "https://dc.lft.to/lastmile_qr_scan", "ios": "https://dc.lft.to/lastmile_qr_scan"}, "name": "8a59564ffd971e4b182888848da95101", "is_reserved": 0}, {"is_disabled": 0, "fusion_lon": 0.0, "fusion_lat": 0.0, "lat": 38.867105, "type": "electric_scooter", "lon": -76.98734866666666, "bike_id": "555fe30c61eb0f93ce8d45e7789cca5a", "rental_uris": {"android": "https://dc.lft.to/lastmile_qr_scan", "ios": "https://dc.lft.to/lastmile_qr_scan"}, "name": "555fe30c61eb0f93ce8d45e7789cca5a", "is_reserved": 0}, {"is_disabled": 0, "fusion_lon": 0.0, "fusion_lat": 0.0, "lat": 38.87933833333334, "type": "electric_bike", "lon": -77.0146485, "bike_id": "f563bb9bc940a8b57770bf10db4fb38f", "rental_uris": {"android": "https://dc.lft.to/lastmile_qr_scan", "ios": "https://dc.lft.to/lastmile_qr_scan"}, "name": "f563bb9bc940a8b57770bf10db4fb38f", "is_reserved": 0}, {"is_disabled": 0, "fusion_lon": 0.0, "fusion_lat": 0.0, "lat": 38.9104745, "type": "electric_scooter", "lon": -77.0434135, "bike_id": "c26593baaeaa0cb7f4b0b3673f8ea104", "rental_uris": {"android": "https://dc.lft.to/lastmile_qr_scan", "ios": "https://dc.lft.to/lastmile_qr_scan"}, "name": "c26593baaeaa0cb7f4b0b3673f8ea104", "is_reserved": 0}, {"is_disabled": 0, "fusion_lon": 0.0, "fusion_lat": 0.0, "lat": 38.90849466666667, "type": "electric_scooter", "lon": -77.04471266666667, "bike_id": "9b367bebd485121a92589e66a9b1de91", "rental_uris": {"android": "https://dc.lft.to/lastmile_qr_scan", "ios": "https://dc.lft.to/lastmile_qr_scan"}, "name": "9b367bebd485121a92589e66a9b1de91", "is_reserved": 0}, {"is_disabled": 0, "fusion_lon": 0.0, "fusion_lat": 0.0, "lat": 38.915459, "type": "electric_scooter", "lon": -77.038511, "bike_id": "2b3a6deb7377a662a05608d6db113e84", "rental_uris": {"android": "https://dc.lft.to/lastmile_qr_scan", "ios": "https://dc.lft.to/lastmile_qr_scan"}, "name": "2b3a6deb7377a662a05608d6db113e84", "is_reserved": 0}, {"is_disabled": 0, "fusion_lon": 0.0, "fusion_lat": 0.0, "lat": 38.8973835, "type": "electric_scooter", "lon": -77.02162466666667, "bike_id": "c98471cc8f69af0271c728da139cb80f", "rental_uris": {"android": "https://dc.lft.to/lastmile_qr_scan", "ios": "https://dc.lft.to/lastmile_qr_scan"}, "name": "c98471cc8f69af0271c728da139cb80f", "is_reserved": 0}, {"is_disabled": 0, "fusion_lon": 0.0, "fusion_lat": 0.0, "lat": 38.9255175, "type": "electric_scooter", "lon": -77.05296983333334, "bike_id": "f8b9170e7755c81bb6f54193ab7c137f", "rental_uris": {"android": "https://dc.lft.to/lastmile_qr_scan", "ios": "https://dc.lft.to/lastmile_qr_scan"}, "name": "f8b9170e7755c81bb6f54193ab7c137f", "is_reserved": 0}, {"is_disabled": 0, "fusion_lon": 0.0, "fusion_lat": 0.0, "lat": 38.934868333333334, "type": "electric_scooter", "lon": -77.03286566666667, "bike_id": "d75b3a02d5726485f0900b744ec76900", "rental_uris": {"android": "https://dc.lft.to/lastmile_qr_scan", "ios": "https://dc.lft.to/lastmile_qr_scan"}, "name": "d75b3a02d5726485f0900b744ec76900", "is_reserved": 0}, {"is_disabled": 0, "fusion_lon": 0.0, "fusion_lat": 0.0, "lat": 39.000141, "type": "electric_bike", "lon": -76.87283866666667, "bike_id": "eba7eaad6945ccd1a1758c1a88ee0447", "rental_uris": {"android": "https://dc.lft.to/lastmile_qr_scan", "ios": "https://dc.lft.to/lastmile_qr_scan"}, "name": "eba7eaad6945ccd1a1758c1a88ee0447", "is_reserved": 0}, {"is_disabled": 0, "fusion_lon": 0.0, "fusion_lat": 0.0, "lat": 38.9016125, "type": "electric_scooter", "lon": -77.02205733333334, "bike_id": "6158611b3582ee99237961dfb8f5c6c8", "rental_uris": {"android": "https://dc.lft.to/lastmile_qr_scan", "ios": "https://dc.lft.to/lastmile_qr_scan"}, "name": "6158611b3582ee99237961dfb8f5c6c8", "is_reserved": 0}, {"is_disabled": 0, "fusion_lon": 0.0, "fusion_lat": 0.0, "lat": 38.82873, "type": "electric_bike", "lon": -77.11220633333333, "bike_id": "eb64b726124c4471ffebb0fd04aaf402", "rental_uris": {"android": "https://dc.lft.to/lastmile_qr_scan", "ios": "https://dc.lft.to/lastmile_qr_scan"}, "name": "eb64b726124c4471ffebb0fd04aaf402", "is_reserved": 0}, {"is_disabled": 0, "fusion_lon": 0.0, "fusion_lat": 0.0, "lat": 38.917054, "type": "electric_scooter", "lon": -77.028447, "bike_id": "8bb243b6e6dff672e8044976391508fc", "rental_uris": {"android": "https://dc.lft.to/lastmile_qr_scan", "ios": "https://dc.lft.to/lastmile_qr_scan"}, "name": "8bb243b6e6dff672e8044976391508fc", "is_reserved": 0}, {"is_disabled": 0, "fusion_lon": 0.0, "fusion_lat": 0.0, "lat": 38.91823683333333, "type": "electric_scooter", "lon": -77.0401235, "bike_id": "f055291f936b4e68b1d9d39ee335686e", "rental_uris": {"android": "https://dc.lft.to/lastmile_qr_scan", "ios": "https://dc.lft.to/lastmile_qr_scan"}, "name": "f055291f936b4e68b1d9d39ee335686e", "is_reserved": 0}, {"is_disabled": 0, "fusion_lon": 0.0, "fusion_lat": 0.0, "lat": 38.902792833333336, "type": "electric_scooter", "lon": -77.060866, "bike_id": "f6b3745f578e08a76a07d759237c24f4", "rental_uris": {"android": "https://dc.lft.to/lastmile_qr_scan", "ios": "https://dc.lft.to/lastmile_qr_scan"}, "name": "f6b3745f578e08a76a07d759237c24f4", "is_reserved": 0}, {"is_disabled": 0, "fusion_lon": 0.0, "fusion_lat": 0.0, "lat": 38.90759416666667, "type": "electric_scooter", "lon": -77.03193683333333, "bike_id": "2be6d554ae8b770a3c9d4988845e90ac", "rental_uris": {"android": "https://dc.lft.to/lastmile_qr_scan", "ios": "https://dc.lft.to/lastmile_qr_scan"}, "name": "2be6d554ae8b770a3c9d4988845e90ac", "is_reserved": 0}, {"is_disabled": 0, "fusion_lon": 0.0, "fusion_lat": 0.0, "lat": 38.89964766666667, "type": "electric_scooter", "lon": -77.01624283333334, "bike_id": "28e454158da487bfabcfd497e3a32265", "rental_uris": {"android": "https://dc.lft.to/lastmile_qr_scan", "ios": "https://dc.lft.to/lastmile_qr_scan"}, "name": "28e454158da487bfabcfd497e3a32265", "is_reserved": 0}, {"is_disabled": 0, "fusion_lon": 0.0, "fusion_lat": 0.0, "lat": 39.05267, "type": "electric_bike", "lon": -77.04384116666667, "bike_id": "50da0ddf60a8ec7422ceab63a249c2c9", "rental_uris": {"android": "https://dc.lft.to/lastmile_qr_scan", "ios": "https://dc.lft.to/lastmile_qr_scan"}, "name": "50da0ddf60a8ec7422ceab63a249c2c9", "is_reserved": 0}, {"is_disabled": 0, "fusion_lon": 0.0, "fusion_lat": 0.0, "lat": 38.878772166666664, "type": "electric_scooter", "lon": -77.01953366666666, "bike_id": "66c5f3742b382cc02c2a3b29b3af31c2", "rental_uris": {"android": "https://dc.lft.to/lastmile_qr_scan", "ios": "https://dc.lft.to/lastmile_qr_scan"}, "name": "66c5f3742b382cc02c2a3b29b3af31c2", "is_reserved": 0}, {"is_disabled": 0, "fusion_lon": 0.0, "fusion_lat": 0.0, "lat": 38.90964266666667, "type": "electric_scooter", "lon": -77.0395655, "bike_id": "1fff6f88649ca95d9e03f4a4ba1e3e56", "rental_uris": {"android": "https://dc.lft.to/lastmile_qr_scan", "ios": "https://dc.lft.to/lastmile_qr_scan"}, "name": "1fff6f88649ca95d9e03f4a4ba1e3e56", "is_reserved": 0}, {"is_disabled": 0, "fusion_lon": 0.0, "fusion_lat": 0.0, "lat": 38.917021, "type": "electric_bike", "lon": -77.09565616666667, "bike_id": "3811e8ed5f031e849ce6481b1ed6736e", "rental_uris": {"android": "https://dc.lft.to/lastmile_qr_scan", "ios": "https://dc.lft.to/lastmile_qr_scan"}, "name": "3811e8ed5f031e849ce6481b1ed6736e", "is_reserved": 0}, {"is_disabled": 0, "fusion_lon": 0.0, "fusion_lat": 0.0, "lat": 38.94896933333333, "type": "electric_bike", "lon": -76.9636895, "bike_id": "a92201ac3f39c392b26809d0b5a11d8c", "rental_uris": {"android": "https://dc.lft.to/lastmile_qr_scan", "ios": "https://dc.lft.to/lastmile_qr_scan"}, "name": "a92201ac3f39c392b26809d0b5a11d8c", "is_reserved": 0}, {"is_disabled": 0, "fusion_lon": 0.0, "fusion_lat": 0.0, "lat": 38.93367416666667, "type": "electric_scooter", "lon": -77.05755666666667, "bike_id": "b4d698773bae598151bf3a7b798a5129", "rental_uris": {"android": "https://dc.lft.to/lastmile_qr_scan", "ios": "https://dc.lft.to/lastmile_qr_scan"}, "name": "b4d698773bae598151bf3a7b798a5129", "is_reserved": 0}, {"is_disabled": 0, "fusion_lon": 0.0, "fusion_lat": 0.0, "lat": 38.92814683333334, "type": "electric_scooter", "lon": -77.023514, "bike_id": "e76e32bbc95857747aa3dfdb52e0b77a", "rental_uris": {"android": "https://dc.lft.to/lastmile_qr_scan", "ios": "https://dc.lft.to/lastmile_qr_scan"}, "name": "e76e32bbc95857747aa3dfdb52e0b77a", "is_reserved": 0}, {"is_disabled": 0, "fusion_lon": 0.0, "fusion_lat": 0.0, "lat": 38.9341355, "type": "electric_scooter", "lon": -77.01970266666666, "bike_id": "8cae66802160412c2e4956e9f3e6fd31", "rental_uris": {"android": "https://dc.lft.to/lastmile_qr_scan", "ios": "https://dc.lft.to/lastmile_qr_scan"}, "name": "8cae66802160412c2e4956e9f3e6fd31", "is_reserved": 0}, {"is_disabled": 0, "fusion_lon": 0.0, "fusion_lat": 0.0, "lat": 38.92492516666667, "type": "electric_scooter", "lon": -77.03934733333334, "bike_id": "ca6743618c179c3dafde33c63171fd3b", "rental_uris": {"android": "https://dc.lft.to/lastmile_qr_scan", "ios": "https://dc.lft.to/lastmile_qr_scan"}, "name": "ca6743618c179c3dafde33c63171fd3b", "is_reserved": 0}, {"is_disabled": 0, "fusion_lon": 0.0, "fusion_lat": 0.0, "lat": 38.91707983333333, "type": "electric_scooter", "lon": -77.02882766666667, "bike_id": "432bbb95f9741651c0a8489196766994", "rental_uris": {"android": "https://dc.lft.to/lastmile_qr_scan", "ios": "https://dc.lft.to/lastmile_qr_scan"}, "name": "432bbb95f9741651c0a8489196766994", "is_reserved": 0}, {"is_disabled": 0, "fusion_lon": 0.0, "fusion_lat": 0.0, "lat": 38.918088833333336, "type": "electric_scooter", "lon": -77.03567166666667, "bike_id": "7e1f73df63aad87e4124c1818b66ae2f", "rental_uris": {"android": "https://dc.lft.to/lastmile_qr_scan", "ios": "https://dc.lft.to/lastmile_qr_scan"}, "name": "7e1f73df63aad87e4124c1818b66ae2f", "is_reserved": 0}, {"is_disabled": 0, "fusion_lon": 0.0, "fusion_lat": 0.0, "lat": 38.9247775, "type": "electric_scooter", "lon": -77.02999666666666, "bike_id": "c9006150542e4ccb48491d7d6e3c1e76", "rental_uris": {"android": "https://dc.lft.to/lastmile_qr_scan", "ios": "https://dc.lft.to/lastmile_qr_scan"}, "name": "c9006150542e4ccb48491d7d6e3c1e76", "is_reserved": 0}, {"is_disabled": 0, "fusion_lon": 0.0, "fusion_lat": 0.0, "lat": 38.9072985, "type": "electric_scooter", "lon": -77.02371966666666, "bike_id": "aa040933548f7da24366217c196adf82", "rental_uris": {"android": "https://dc.lft.to/lastmile_qr_scan", "ios": "https://dc.lft.to/lastmile_qr_scan"}, "name": "aa040933548f7da24366217c196adf82", "is_reserved": 0}, {"is_disabled": 0, "fusion_lon": 0.0, "fusion_lat": 0.0, "lat": 38.934843, "type": "electric_scooter", "lon": -77.02414316666666, "bike_id": "b40a7eca19fadb295af720b07bcbae8d", "rental_uris": {"android": "https://dc.lft.to/lastmile_qr_scan", "ios": "https://dc.lft.to/lastmile_qr_scan"}, "name": "b40a7eca19fadb295af720b07bcbae8d", "is_reserved": 0}, {"is_disabled": 0, "fusion_lon": 0.0, "fusion_lat": 0.0, "lat": 38.91322316666667, "type": "electric_scooter", "lon": -77.036604, "bike_id": "d4d9effc91d22a3215f14011714743ae", "rental_uris": {"android": "https://dc.lft.to/lastmile_qr_scan", "ios": "https://dc.lft.to/lastmile_qr_scan"}, "name": "d4d9effc91d22a3215f14011714743ae", "is_reserved": 0}, {"is_disabled": 0, "fusion_lon": 0.0, "fusion_lat": 0.0, "lat": 38.920354333333336, "type": "electric_scooter", "lon": -77.01914333333333, "bike_id": "d42e3a86e0afa42e311e9e946a562216", "rental_uris": {"android": "https://dc.lft.to/lastmile_qr_scan", "ios": "https://dc.lft.to/lastmile_qr_scan"}, "name": "d42e3a86e0afa42e311e9e946a562216", "is_reserved": 0}, {"is_disabled": 0, "fusion_lon": 0.0, "fusion_lat": 0.0, "lat": 38.802934666666665, "type": "electric_bike", "lon": -77.03986133333333, "bike_id": "08742387accd7ae8d627afc14b0c660d", "rental_uris": {"android": "https://dc.lft.to/lastmile_qr_scan", "ios": "https://dc.lft.to/lastmile_qr_scan"}, "name": "08742387accd7ae8d627afc14b0c660d", "is_reserved": 0}, {"is_disabled": 0, "fusion_lon": 0.0, "fusion_lat": 0.0, "lat": 38.88739983333333, "type": "electric_scooter", "lon": -77.01534633333333, "bike_id": "292767573eef6e5a4a0289cfcc8be81f", "rental_uris": {"android": "https://dc.lft.to/lastmile_qr_scan", "ios": "https://dc.lft.to/lastmile_qr_scan"}, "name": "292767573eef6e5a4a0289cfcc8be81f", "is_reserved": 0}, {"is_disabled": 0, "fusion_lon": 0.0, "fusion_lat": 0.0, "lat": 38.9194735, "type": "electric_scooter", "lon": -77.01381683333334, "bike_id": "01d70735266b47bc094de9551d120068", "rental_uris": {"android": "https://dc.lft.to/lastmile_qr_scan", "ios": "https://dc.lft.to/lastmile_qr_scan"}, "name": "01d70735266b47bc094de9551d120068", "is_reserved": 0}, {"is_disabled": 0, "fusion_lon": 0.0, "fusion_lat": 0.0, "lat": 38.92251816666667, "type": "electric_scooter", "lon": -77.03292283333333, "bike_id": "254048cf19aeac8fee2114da51a92ffd", "rental_uris": {"android": "https://dc.lft.to/lastmile_qr_scan", "ios": "https://dc.lft.to/lastmile_qr_scan"}, "name": "254048cf19aeac8fee2114da51a92ffd", "is_reserved": 0}, {"is_disabled": 0, "fusion_lon": 0.0, "fusion_lat": 0.0, "lat": 38.928476333333336, "type": "electric_bike", "lon": -77.020619, "bike_id": "468302116e23135731f281f469a45294", "rental_uris": {"android": "https://dc.lft.to/lastmile_qr_scan", "ios": "https://dc.lft.to/lastmile_qr_scan"}, "name": "468302116e23135731f281f469a45294", "is_reserved": 0}, {"is_disabled": 0, "fusion_lon": 0.0, "fusion_lat": 0.0, "lat": 38.88123216666666, "type": "electric_scooter", "lon": -76.99601316666667, "bike_id": "c0ab81793cfbdd4497837e1dabe21316", "rental_uris": {"android": "https://dc.lft.to/lastmile_qr_scan", "ios": "https://dc.lft.to/lastmile_qr_scan"}, "name": "c0ab81793cfbdd4497837e1dabe21316", "is_reserved": 0}, {"is_disabled": 0, "fusion_lon": 0.0, "fusion_lat": 0.0, "lat": 38.952015833333334, "type": "electric_bike", "lon": -77.023715, "bike_id": "6dfbf11bcfe9957663c3efbae96c75cb", "rental_uris": {"android": "https://dc.lft.to/lastmile_qr_scan", "ios": "https://dc.lft.to/lastmile_qr_scan"}, "name": "6dfbf11bcfe9957663c3efbae96c75cb", "is_reserved": 0}, {"is_disabled": 0, "fusion_lon": 0.0, "fusion_lat": 0.0, "lat": 38.9053975, "type": "electric_scooter", "lon": -77.05137316666666, "bike_id": "020b944a34a746c5087e829cbd0bd837", "rental_uris": {"android": "https://dc.lft.to/lastmile_qr_scan", "ios": "https://dc.lft.to/lastmile_qr_scan"}, "name": "020b944a34a746c5087e829cbd0bd837", "is_reserved": 0}, {"is_disabled": 0, "fusion_lon": 0.0, "fusion_lat": 0.0, "lat": 38.896035499999996, "type": "electric_scooter", "lon": -77.0112025, "bike_id": "29baf8a0ed37845a3bc7cbb6fbc18a52", "rental_uris": {"android": "https://dc.lft.to/lastmile_qr_scan", "ios": "https://dc.lft.to/lastmile_qr_scan"}, "name": "29baf8a0ed37845a3bc7cbb6fbc18a52", "is_reserved": 0}, {"is_disabled": 0, "fusion_lon": 0.0, "fusion_lat": 0.0, "lat": 38.956308666666665, "type": "electric_scooter", "lon": -77.02982916666667, "bike_id": "23b43d7e152e0ff7d5032b5ae8d849cf", "rental_uris": {"android": "https://dc.lft.to/lastmile_qr_scan", "ios": "https://dc.lft.to/lastmile_qr_scan"}, "name": "23b43d7e152e0ff7d5032b5ae8d849cf", "is_reserved": 0}, {"is_disabled": 0, "fusion_lon": 0.0, "fusion_lat": 0.0, "lat": 38.8806855, "type": "electric_scooter", "lon": -77.0063695, "bike_id": "6a1ebee773c5682871c1c632c39c43c4", "rental_uris": {"android": "https://dc.lft.to/lastmile_qr_scan", "ios": "https://dc.lft.to/lastmile_qr_scan"}, "name": "6a1ebee773c5682871c1c632c39c43c4", "is_reserved": 0}, {"is_disabled": 0, "fusion_lon": 0.0, "fusion_lat": 0.0, "lat": 38.90574066666667, "type": "electric_scooter", "lon": -77.00713283333333, "bike_id": "22a472b414e306fb381d71141972d60d", "rental_uris": {"android": "https://dc.lft.to/lastmile_qr_scan", "ios": "https://dc.lft.to/lastmile_qr_scan"}, "name": "22a472b414e306fb381d71141972d60d", "is_reserved": 0}, {"is_disabled": 0, "fusion_lon": 0.0, "fusion_lat": 0.0, "lat": 38.91619416666666, "type": "electric_scooter", "lon": -77.024839, "bike_id": "e173b9622a3872130725436316adfe4a", "rental_uris": {"android": "https://dc.lft.to/lastmile_qr_scan", "ios": "https://dc.lft.to/lastmile_qr_scan"}, "name": "e173b9622a3872130725436316adfe4a", "is_reserved": 0}, {"is_disabled": 0, "fusion_lon": 0.0, "fusion_lat": 0.0, "lat": 38.924962666666666, "type": "electric_scooter", "lon": -77.03934483333333, "bike_id": "3018331b4c6e0d7de5a77ffe57a2583c", "rental_uris": {"android": "https://dc.lft.to/lastmile_qr_scan", "ios": "https://dc.lft.to/lastmile_qr_scan"}, "name": "3018331b4c6e0d7de5a77ffe57a2583c", "is_reserved": 0}, {"is_disabled": 0, "fusion_lon": 0.0, "fusion_lat": 0.0, "lat": 38.90591966666667, "type": "electric_scooter", "lon": -77.02382433333334, "bike_id": "3f8ad35e2df32e080d42a16d706c393c", "rental_uris": {"android": "https://dc.lft.to/lastmile_qr_scan", "ios": "https://dc.lft.to/lastmile_qr_scan"}, "name": "3f8ad35e2df32e080d42a16d706c393c", "is_reserved": 0}, {"is_disabled": 0, "fusion_lon": 0.0, "fusion_lat": 0.0, "lat": 38.90978116666667, "type": "electric_scooter", "lon": -77.03444916666666, "bike_id": "742e8e91218973ab9e03353559740111", "rental_uris": {"android": "https://dc.lft.to/lastmile_qr_scan", "ios": "https://dc.lft.to/lastmile_qr_scan"}, "name": "742e8e91218973ab9e03353559740111", "is_reserved": 0}, {"is_disabled": 0, "fusion_lon": 0.0, "fusion_lat": 0.0, "lat": 38.909562666666666, "type": "electric_scooter", "lon": -77.04865666666667, "bike_id": "99aec232b65836e2858bf2be5dca8806", "rental_uris": {"android": "https://dc.lft.to/lastmile_qr_scan", "ios": "https://dc.lft.to/lastmile_qr_scan"}, "name": "99aec232b65836e2858bf2be5dca8806", "is_reserved": 0}, {"is_disabled": 0, "fusion_lon": 0.0, "fusion_lat": 0.0, "lat": 38.850644333333335, "type": "electric_bike", "lon": -76.97333633333334, "bike_id": "6e6efbdb6e715092e6eda1fe55747d70", "rental_uris": {"android": "https://dc.lft.to/lastmile_qr_scan", "ios": "https://dc.lft.to/lastmile_qr_scan"}, "name": "6e6efbdb6e715092e6eda1fe55747d70", "is_reserved": 0}, {"is_disabled": 0, "fusion_lon": 0.0, "fusion_lat": 0.0, "lat": 38.9139225, "type": "electric_scooter", "lon": -77.0385365, "bike_id": "662b940b4b45a558120c8070082973b7", "rental_uris": {"android": "https://dc.lft.to/lastmile_qr_scan", "ios": "https://dc.lft.to/lastmile_qr_scan"}, "name": "662b940b4b45a558120c8070082973b7", "is_reserved": 0}, {"is_disabled": 0, "fusion_lon": 0.0, "fusion_lat": 0.0, "lat": 38.90675566666667, "type": "electric_scooter", "lon": -77.02721033333333, "bike_id": "5741af4441ee15dbdfe2315c3c7c4d30", "rental_uris": {"android": "https://dc.lft.to/lastmile_qr_scan", "ios": "https://dc.lft.to/lastmile_qr_scan"}, "name": "5741af4441ee15dbdfe2315c3c7c4d30", "is_reserved": 0}, {"is_disabled": 0, "fusion_lon": 0.0, "fusion_lat": 0.0, "lat": 38.907286166666665, "type": "electric_scooter", "lon": -77.03190983333333, "bike_id": "64f413031a5e0b2a801c4250aab34893", "rental_uris": {"android": "https://dc.lft.to/lastmile_qr_scan", "ios": "https://dc.lft.to/lastmile_qr_scan"}, "name": "64f413031a5e0b2a801c4250aab34893", "is_reserved": 0}, {"is_disabled": 0, "fusion_lon": 0.0, "fusion_lat": 0.0, "lat": 38.920651, "type": "electric_scooter", "lon": -77.04696533333333, "bike_id": "4eeef61f18b658873212e493ba48b17b", "rental_uris": {"android": "https://dc.lft.to/lastmile_qr_scan", "ios": "https://dc.lft.to/lastmile_qr_scan"}, "name": "4eeef61f18b658873212e493ba48b17b", "is_reserved": 0}, {"is_disabled": 0, "fusion_lon": 0.0, "fusion_lat": 0.0, "lat": 38.8939455, "type": "electric_scooter", "lon": -76.94993916666667, "bike_id": "500aa0e3071d7719e1e072b065c80a9b", "rental_uris": {"android": "https://dc.lft.to/lastmile_qr_scan", "ios": "https://dc.lft.to/lastmile_qr_scan"}, "name": "500aa0e3071d7719e1e072b065c80a9b", "is_reserved": 0}, {"is_disabled": 0, "fusion_lon": 0.0, "fusion_lat": 0.0, "lat": 38.86534066666667, "type": "electric_scooter", "lon": -76.987106, "bike_id": "f84abc07de0cc2b81617a9fae5fb9856", "rental_uris": {"android": "https://dc.lft.to/lastmile_qr_scan", "ios": "https://dc.lft.to/lastmile_qr_scan"}, "name": "f84abc07de0cc2b81617a9fae5fb9856", "is_reserved": 0}, {"is_disabled": 0, "fusion_lon": 0.0, "fusion_lat": 0.0, "lat": 38.905362, "type": "electric_scooter", "lon": -77.05405883333333, "bike_id": "3847daaf6ed26a496a8cbe66c18a6b9e", "rental_uris": {"android": "https://dc.lft.to/lastmile_qr_scan", "ios": "https://dc.lft.to/lastmile_qr_scan"}, "name": "3847daaf6ed26a496a8cbe66c18a6b9e", "is_reserved": 0}, {"is_disabled": 0, "fusion_lon": 0.0, "fusion_lat": 0.0, "lat": 38.91180633333333, "type": "electric_scooter", "lon": -77.03924183333334, "bike_id": "ae6f1e038e2bb674861647a9e0fff072", "rental_uris": {"android": "https://dc.lft.to/lastmile_qr_scan", "ios": "https://dc.lft.to/lastmile_qr_scan"}, "name": "ae6f1e038e2bb674861647a9e0fff072", "is_reserved": 0}, {"is_disabled": 0, "fusion_lon": 0.0, "fusion_lat": 0.0, "lat": 38.910595666666666, "type": "electric_scooter", "lon": -77.0416815, "bike_id": "86f5f27bdac955562c71c5957033e48b", "rental_uris": {"android": "https://dc.lft.to/lastmile_qr_scan", "ios": "https://dc.lft.to/lastmile_qr_scan"}, "name": "86f5f27bdac955562c71c5957033e48b", "is_reserved": 0}, {"is_disabled": 0, "fusion_lon": 0.0, "fusion_lat": 0.0, "lat": 38.881198166666664, "type": "electric_scooter", "lon": -76.99599583333334, "bike_id": "7f24cbc1e90ae58be2e331ceca4540d7", "rental_uris": {"android": "https://dc.lft.to/lastmile_qr_scan", "ios": "https://dc.lft.to/lastmile_qr_scan"}, "name": "7f24cbc1e90ae58be2e331ceca4540d7", "is_reserved": 0}, {"is_disabled": 0, "fusion_lon": 0.0, "fusion_lat": 0.0, "lat": 38.911908333333336, "type": "electric_scooter", "lon": -77.0416415, "bike_id": "97e6e8cf7a422695bffaede66e58b0ab", "rental_uris": {"android": "https://dc.lft.to/lastmile_qr_scan", "ios": "https://dc.lft.to/lastmile_qr_scan"}, "name": "97e6e8cf7a422695bffaede66e58b0ab", "is_reserved": 0}, {"is_disabled": 0, "fusion_lon": 0.0, "fusion_lat": 0.0, "lat": 38.93140916666667, "type": "electric_scooter", "lon": -77.04071216666667, "bike_id": "2107de0ef90d108217cc95663a4f6d6f", "rental_uris": {"android": "https://dc.lft.to/lastmile_qr_scan", "ios": "https://dc.lft.to/lastmile_qr_scan"}, "name": "2107de0ef90d108217cc95663a4f6d6f", "is_reserved": 0}, {"is_disabled": 0, "fusion_lon": 0.0, "fusion_lat": 0.0, "lat": 38.86506516666667, "type": "electric_scooter", "lon": -76.99008466666666, "bike_id": "827565efd6a28274d8c6e9fedfb00dd3", "rental_uris": {"android": "https://dc.lft.to/lastmile_qr_scan", "ios": "https://dc.lft.to/lastmile_qr_scan"}, "name": "827565efd6a28274d8c6e9fedfb00dd3", "is_reserved": 0}, {"is_disabled": 0, "fusion_lon": 0.0, "fusion_lat": 0.0, "lat": 38.897454833333335, "type": "electric_scooter", "lon": -77.0216065, "bike_id": "b3eb85878180c46a7b33f1215bf5ad1e", "rental_uris": {"android": "https://dc.lft.to/lastmile_qr_scan", "ios": "https://dc.lft.to/lastmile_qr_scan"}, "name": "b3eb85878180c46a7b33f1215bf5ad1e", "is_reserved": 0}, {"is_disabled": 0, "fusion_lon": 0.0, "fusion_lat": 0.0, "lat": 38.9142085, "type": "electric_scooter", "lon": -77.03905733333333, "bike_id": "9c4ecbc6d78498674a11b034909ad4af", "rental_uris": {"android": "https://dc.lft.to/lastmile_qr_scan", "ios": "https://dc.lft.to/lastmile_qr_scan"}, "name": "9c4ecbc6d78498674a11b034909ad4af", "is_reserved": 0}, {"is_disabled": 0, "fusion_lon": 0.0, "fusion_lat": 0.0, "lat": 38.87721766666667, "type": "electric_scooter", "lon": -77.01759383333334, "bike_id": "fcb66b967b3bcc973ddfd3190024afd6", "rental_uris": {"android": "https://dc.lft.to/lastmile_qr_scan", "ios": "https://dc.lft.to/lastmile_qr_scan"}, "name": "fcb66b967b3bcc973ddfd3190024afd6", "is_reserved": 0}, {"is_disabled": 0, "fusion_lon": 0.0, "fusion_lat": 0.0, "lat": 38.93697616666667, "type": "electric_bike", "lon": -77.02982216666666, "bike_id": "b45ffbbcbe0c102c3115c91066c1ac36", "rental_uris": {"android": "https://dc.lft.to/lastmile_qr_scan", "ios": "https://dc.lft.to/lastmile_qr_scan"}, "name": "b45ffbbcbe0c102c3115c91066c1ac36", "is_reserved": 0}, {"is_disabled": 0, "fusion_lon": 0.0, "fusion_lat": 0.0, "lat": 38.89752583333333, "type": "electric_scooter", "lon": -77.03359066666667, "bike_id": "35d8ca8789ad078262c242fa59890917", "rental_uris": {"android": "https://dc.lft.to/lastmile_qr_scan", "ios": "https://dc.lft.to/lastmile_qr_scan"}, "name": "35d8ca8789ad078262c242fa59890917", "is_reserved": 0}, {"is_disabled": 0, "fusion_lon": 0.0, "fusion_lat": 0.0, "lat": 38.9181855, "type": "electric_scooter", "lon": -77.03467666666667, "bike_id": "6da6b3145c7279b539ce15e4251093c8", "rental_uris": {"android": "https://dc.lft.to/lastmile_qr_scan", "ios": "https://dc.lft.to/lastmile_qr_scan"}, "name": "6da6b3145c7279b539ce15e4251093c8", "is_reserved": 0}, {"is_disabled": 0, "fusion_lon": 0.0, "fusion_lat": 0.0, "lat": 38.912020166666665, "type": "electric_scooter", "lon": -77.00089333333334, "bike_id": "e20472423fef08c60f1ec21875b29165", "rental_uris": {"android": "https://dc.lft.to/lastmile_qr_scan", "ios": "https://dc.lft.to/lastmile_qr_scan"}, "name": "e20472423fef08c60f1ec21875b29165", "is_reserved": 0}, {"is_disabled": 0, "fusion_lon": 0.0, "fusion_lat": 0.0, "lat": 38.88437733333333, "type": "electric_scooter", "lon": -76.95191066666666, "bike_id": "e2483b84f384469c6ff82f1161e4f33c", "rental_uris": {"android": "https://dc.lft.to/lastmile_qr_scan", "ios": "https://dc.lft.to/lastmile_qr_scan"}, "name": "e2483b84f384469c6ff82f1161e4f33c", "is_reserved": 0}, {"is_disabled": 0, "fusion_lon": 0.0, "fusion_lat": 0.0, "lat": 38.910348666666664, "type": "electric_scooter", "lon": -77.01492466666667, "bike_id": "3b97b5167e3d1ab231c6012afebb6a43", "rental_uris": {"android": "https://dc.lft.to/lastmile_qr_scan", "ios": "https://dc.lft.to/lastmile_qr_scan"}, "name": "3b97b5167e3d1ab231c6012afebb6a43", "is_reserved": 0}, {"is_disabled": 0, "fusion_lon": 0.0, "fusion_lat": 0.0, "lat": 38.91350116666667, "type": "electric_scooter", "lon": -77.03209016666666, "bike_id": "fe5933a1f357a32f896d6440a3a3768a", "rental_uris": {"android": "https://dc.lft.to/lastmile_qr_scan", "ios": "https://dc.lft.to/lastmile_qr_scan"}, "name": "fe5933a1f357a32f896d6440a3a3768a", "is_reserved": 0}, {"is_disabled": 0, "fusion_lon": 0.0, "fusion_lat": 0.0, "lat": 38.909577166666665, "type": "electric_scooter", "lon": -77.02385016666666, "bike_id": "7db808a0261cd9e38e8935155dffa906", "rental_uris": {"android": "https://dc.lft.to/lastmile_qr_scan", "ios": "https://dc.lft.to/lastmile_qr_scan"}, "name": "7db808a0261cd9e38e8935155dffa906", "is_reserved": 0}, {"is_disabled": 0, "fusion_lon": 0.0, "fusion_lat": 0.0, "lat": 38.92228933333333, "type": "electric_scooter", "lon": -76.97530833333333, "bike_id": "e29fba98d336e89ca29b4ae6748d1b36", "rental_uris": {"android": "https://dc.lft.to/lastmile_qr_scan", "ios": "https://dc.lft.to/lastmile_qr_scan"}, "name": "e29fba98d336e89ca29b4ae6748d1b36", "is_reserved": 0}, {"is_disabled": 0, "fusion_lon": 0.0, "fusion_lat": 0.0, "lat": 38.91686983333334, "type": "electric_scooter", "lon": -77.03169816666667, "bike_id": "3b45e00007e3568c184456d38277a501", "rental_uris": {"android": "https://dc.lft.to/lastmile_qr_scan", "ios": "https://dc.lft.to/lastmile_qr_scan"}, "name": "3b45e00007e3568c184456d38277a501", "is_reserved": 0}, {"is_disabled": 0, "fusion_lon": 0.0, "fusion_lat": 0.0, "lat": 38.911831, "type": "electric_scooter", "lon": -77.03984166666666, "bike_id": "3527c809d649f5bc8e5c738795dc6f34", "rental_uris": {"android": "https://dc.lft.to/lastmile_qr_scan", "ios": "https://dc.lft.to/lastmile_qr_scan"}, "name": "3527c809d649f5bc8e5c738795dc6f34", "is_reserved": 0}, {"is_disabled": 0, "fusion_lon": 0.0, "fusion_lat": 0.0, "lat": 38.928876833333334, "type": "electric_scooter", "lon": -77.03257516666666, "bike_id": "1fe4cbf443cc4c76fc6680ac8e21b00b", "rental_uris": {"android": "https://dc.lft.to/lastmile_qr_scan", "ios": "https://dc.lft.to/lastmile_qr_scan"}, "name": "1fe4cbf443cc4c76fc6680ac8e21b00b", "is_reserved": 0}, {"is_disabled": 0, "fusion_lon": 0.0, "fusion_lat": 0.0, "lat": 38.855185166666665, "type": "electric_bike", "lon": -76.98438733333333, "bike_id": "098dd8f74613856dbd84b2e1679635e4", "rental_uris": {"android": "https://dc.lft.to/lastmile_qr_scan", "ios": "https://dc.lft.to/lastmile_qr_scan"}, "name": "098dd8f74613856dbd84b2e1679635e4", "is_reserved": 0}, {"is_disabled": 0, "fusion_lon": 0.0, "fusion_lat": 0.0, "lat": 38.89647866666667, "type": "electric_scooter", "lon": -77.02711066666667, "bike_id": "bdd42ec92923ce55ab897afd324d992e", "rental_uris": {"android": "https://dc.lft.to/lastmile_qr_scan", "ios": "https://dc.lft.to/lastmile_qr_scan"}, "name": "bdd42ec92923ce55ab897afd324d992e", "is_reserved": 0}, {"is_disabled": 0, "fusion_lon": 0.0, "fusion_lat": 0.0, "lat": 38.93637416666667, "type": "electric_scooter", "lon": -77.026956, "bike_id": "6eda78322e7640d8225cc61ec7466db1", "rental_uris": {"android": "https://dc.lft.to/lastmile_qr_scan", "ios": "https://dc.lft.to/lastmile_qr_scan"}, "name": "6eda78322e7640d8225cc61ec7466db1", "is_reserved": 0}, {"is_disabled": 0, "fusion_lon": 0.0, "fusion_lat": 0.0, "lat": 38.89844316666667, "type": "electric_scooter", "lon": -76.94639116666667, "bike_id": "865b83e0f956efbd09195b6cdb660e90", "rental_uris": {"android": "https://dc.lft.to/lastmile_qr_scan", "ios": "https://dc.lft.to/lastmile_qr_scan"}, "name": "865b83e0f956efbd09195b6cdb660e90", "is_reserved": 0}, {"is_disabled": 0, "fusion_lon": 0.0, "fusion_lat": 0.0, "lat": 38.916995166666666, "type": "electric_scooter", "lon": -77.03289966666667, "bike_id": "26768dce5eee5c352c565f8278e52d3e", "rental_uris": {"android": "https://dc.lft.to/lastmile_qr_scan", "ios": "https://dc.lft.to/lastmile_qr_scan"}, "name": "26768dce5eee5c352c565f8278e52d3e", "is_reserved": 0}, {"is_disabled": 0, "fusion_lon": 0.0, "fusion_lat": 0.0, "lat": 38.91806016666666, "type": "electric_scooter", "lon": -77.0268725, "bike_id": "1e38e13f0aaeccab626f09d968ded9c5", "rental_uris": {"android": "https://dc.lft.to/lastmile_qr_scan", "ios": "https://dc.lft.to/lastmile_qr_scan"}, "name": "1e38e13f0aaeccab626f09d968ded9c5", "is_reserved": 0}, {"is_disabled": 0, "fusion_lon": 0.0, "fusion_lat": 0.0, "lat": 38.90482266666667, "type": "electric_scooter", "lon": -77.06220666666667, "bike_id": "e404c297cf72d8fe733eea9901113864", "rental_uris": {"android": "https://dc.lft.to/lastmile_qr_scan", "ios": "https://dc.lft.to/lastmile_qr_scan"}, "name": "e404c297cf72d8fe733eea9901113864", "is_reserved": 0}, {"is_disabled": 0, "fusion_lon": 0.0, "fusion_lat": 0.0, "lat": 38.92425216666667, "type": "electric_scooter", "lon": -77.0355265, "bike_id": "a48061f5b443b59c681888958bf5460f", "rental_uris": {"android": "https://dc.lft.to/lastmile_qr_scan", "ios": "https://dc.lft.to/lastmile_qr_scan"}, "name": "a48061f5b443b59c681888958bf5460f", "is_reserved": 0}, {"is_disabled": 0, "fusion_lon": 0.0, "fusion_lat": 0.0, "lat": 38.99380016666667, "type": "electric_bike", "lon": -77.02398133333334, "bike_id": "9a268e6da2842f1b3f84721a49f55137", "rental_uris": {"android": "https://dc.lft.to/lastmile_qr_scan", "ios": "https://dc.lft.to/lastmile_qr_scan"}, "name": "9a268e6da2842f1b3f84721a49f55137", "is_reserved": 0}, {"is_disabled": 0, "fusion_lon": 0.0, "fusion_lat": 0.0, "lat": 38.90958916666666, "type": "electric_scooter", "lon": -77.04863716666667, "bike_id": "25f5aea33b07891934eedb28324090dc", "rental_uris": {"android": "https://dc.lft.to/lastmile_qr_scan", "ios": "https://dc.lft.to/lastmile_qr_scan"}, "name": "25f5aea33b07891934eedb28324090dc", "is_reserved": 0}, {"is_disabled": 0, "fusion_lon": 0.0, "fusion_lat": 0.0, "lat": 38.892193166666665, "type": "electric_scooter", "lon": -77.03192883333334, "bike_id": "3807b30ad088043f180ddb0993525f9a", "rental_uris": {"android": "https://dc.lft.to/lastmile_qr_scan", "ios": "https://dc.lft.to/lastmile_qr_scan"}, "name": "3807b30ad088043f180ddb0993525f9a", "is_reserved": 0}, {"is_disabled": 0, "fusion_lon": 0.0, "fusion_lat": 0.0, "lat": 38.919313, "type": "electric_scooter", "lon": -77.03431616666667, "bike_id": "54700ab012580140f54462d6f3a55354", "rental_uris": {"android": "https://dc.lft.to/lastmile_qr_scan", "ios": "https://dc.lft.to/lastmile_qr_scan"}, "name": "54700ab012580140f54462d6f3a55354", "is_reserved": 0}, {"is_disabled": 0, "fusion_lon": 0.0, "fusion_lat": 0.0, "lat": 38.9085025, "type": "electric_scooter", "lon": -77.06084033333333, "bike_id": "656fb68a9040a463b54df9b518f828e8", "rental_uris": {"android": "https://dc.lft.to/lastmile_qr_scan", "ios": "https://dc.lft.to/lastmile_qr_scan"}, "name": "656fb68a9040a463b54df9b518f828e8", "is_reserved": 0}, {"is_disabled": 0, "fusion_lon": 0.0, "fusion_lat": 0.0, "lat": 38.917384, "type": "electric_scooter", "lon": -77.03643633333333, "bike_id": "7fe6f0261ce124d5f9f408938192e56d", "rental_uris": {"android": "https://dc.lft.to/lastmile_qr_scan", "ios": "https://dc.lft.to/lastmile_qr_scan"}, "name": "7fe6f0261ce124d5f9f408938192e56d", "is_reserved": 0}, {"is_disabled": 0, "fusion_lon": 0.0, "fusion_lat": 0.0, "lat": 38.8985655, "type": "electric_scooter", "lon": -77.02174533333333, "bike_id": "252e92781f1e2cc2a940876a44e46096", "rental_uris": {"android": "https://dc.lft.to/lastmile_qr_scan", "ios": "https://dc.lft.to/lastmile_qr_scan"}, "name": "252e92781f1e2cc2a940876a44e46096", "is_reserved": 0}, {"is_disabled": 0, "fusion_lon": 0.0, "fusion_lat": 0.0, "lat": 38.908637666666664, "type": "electric_scooter", "lon": -77.04782183333333, "bike_id": "a5b78b6acc49f275c7fb96c9da1d8f24", "rental_uris": {"android": "https://dc.lft.to/lastmile_qr_scan", "ios": "https://dc.lft.to/lastmile_qr_scan"}, "name": "a5b78b6acc49f275c7fb96c9da1d8f24", "is_reserved": 0}, {"is_disabled": 0, "fusion_lon": 0.0, "fusion_lat": 0.0, "lat": 38.93521783333333, "type": "electric_scooter", "lon": -77.06634533333333, "bike_id": "34e60be77b4e39cea56f80cfa4a61948", "rental_uris": {"android": "https://dc.lft.to/lastmile_qr_scan", "ios": "https://dc.lft.to/lastmile_qr_scan"}, "name": "34e60be77b4e39cea56f80cfa4a61948", "is_reserved": 0}, {"is_disabled": 0, "fusion_lon": 0.0, "fusion_lat": 0.0, "lat": 38.86588166666667, "type": "electric_scooter", "lon": -77.01071333333333, "bike_id": "0456c16c4cba61bf2a0f9d2157aff941", "rental_uris": {"android": "https://dc.lft.to/lastmile_qr_scan", "ios": "https://dc.lft.to/lastmile_qr_scan"}, "name": "0456c16c4cba61bf2a0f9d2157aff941", "is_reserved": 0}, {"is_disabled": 0, "fusion_lon": 0.0, "fusion_lat": 0.0, "lat": 38.93676416666667, "type": "electric_scooter", "lon": -77.036272, "bike_id": "d4981efcfccab0443a6c7d1da260b93c", "rental_uris": {"android": "https://dc.lft.to/lastmile_qr_scan", "ios": "https://dc.lft.to/lastmile_qr_scan"}, "name": "d4981efcfccab0443a6c7d1da260b93c", "is_reserved": 0}, {"is_disabled": 0, "fusion_lon": 0.0, "fusion_lat": 0.0, "lat": 38.899684666666666, "type": "electric_scooter", "lon": -77.01627416666666, "bike_id": "8a818805c31a5236ad1c61100ff0ebfc", "rental_uris": {"android": "https://dc.lft.to/lastmile_qr_scan", "ios": "https://dc.lft.to/lastmile_qr_scan"}, "name": "8a818805c31a5236ad1c61100ff0ebfc", "is_reserved": 0}, {"is_disabled": 0, "fusion_lon": 0.0, "fusion_lat": 0.0, "lat": 38.94444033333333, "type": "electric_scooter", "lon": -77.060545, "bike_id": "47a86bb2197f7ae7bd6420ad8ba2a0a9", "rental_uris": {"android": "https://dc.lft.to/lastmile_qr_scan", "ios": "https://dc.lft.to/lastmile_qr_scan"}, "name": "47a86bb2197f7ae7bd6420ad8ba2a0a9", "is_reserved": 0}, {"is_disabled": 0, "fusion_lon": 0.0, "fusion_lat": 0.0, "lat": 38.90075066666667, "type": "electric_scooter", "lon": -77.03922683333333, "bike_id": "635f57d1a0b86a3e985fa4fb868973c5", "rental_uris": {"android": "https://dc.lft.to/lastmile_qr_scan", "ios": "https://dc.lft.to/lastmile_qr_scan"}, "name": "635f57d1a0b86a3e985fa4fb868973c5", "is_reserved": 0}, {"is_disabled": 0, "fusion_lon": 0.0, "fusion_lat": 0.0, "lat": 38.89781383333333, "type": "electric_scooter", "lon": -76.97100183333333, "bike_id": "0ef82c1c8635e1742ff30c975130137b", "rental_uris": {"android": "https://dc.lft.to/lastmile_qr_scan", "ios": "https://dc.lft.to/lastmile_qr_scan"}, "name": "0ef82c1c8635e1742ff30c975130137b", "is_reserved": 0}, {"is_disabled": 0, "fusion_lon": 0.0, "fusion_lat": 0.0, "lat": 38.911987333333336, "type": "electric_scooter", "lon": -77.00083733333334, "bike_id": "5266b9514afb74be2f040fc5f55bc876", "rental_uris": {"android": "https://dc.lft.to/lastmile_qr_scan", "ios": "https://dc.lft.to/lastmile_qr_scan"}, "name": "5266b9514afb74be2f040fc5f55bc876", "is_reserved": 0}, {"is_disabled": 0, "fusion_lon": 0.0, "fusion_lat": 0.0, "lat": 38.91138083333333, "type": "electric_scooter", "lon": -76.98495333333334, "bike_id": "b4f3a418203625d571f52a21faa10970", "rental_uris": {"android": "https://dc.lft.to/lastmile_qr_scan", "ios": "https://dc.lft.to/lastmile_qr_scan"}, "name": "b4f3a418203625d571f52a21faa10970", "is_reserved": 0}, {"is_disabled": 0, "fusion_lon": 0.0, "fusion_lat": 0.0, "lat": 38.91637816666667, "type": "electric_scooter", "lon": -77.05060266666666, "bike_id": "3d237b1d6d6310a54e9e6df03775d5fc", "rental_uris": {"android": "https://dc.lft.to/lastmile_qr_scan", "ios": "https://dc.lft.to/lastmile_qr_scan"}, "name": "3d237b1d6d6310a54e9e6df03775d5fc", "is_reserved": 0}, {"is_disabled": 0, "fusion_lon": 0.0, "fusion_lat": 0.0, "lat": 38.92475316666667, "type": "electric_scooter", "lon": -77.02672366666667, "bike_id": "e1f8ce6f9ef1c7c6b3ae4c87889945f3", "rental_uris": {"android": "https://dc.lft.to/lastmile_qr_scan", "ios": "https://dc.lft.to/lastmile_qr_scan"}, "name": "e1f8ce6f9ef1c7c6b3ae4c87889945f3", "is_reserved": 0}, {"is_disabled": 0, "fusion_lon": 0.0, "fusion_lat": 0.0, "lat": 38.931942666666664, "type": "electric_scooter", "lon": -77.02836466666666, "bike_id": "20d8baadb7de157a69cae9769e3be733", "rental_uris": {"android": "https://dc.lft.to/lastmile_qr_scan", "ios": "https://dc.lft.to/lastmile_qr_scan"}, "name": "20d8baadb7de157a69cae9769e3be733", "is_reserved": 0}, {"is_disabled": 0, "fusion_lon": 0.0, "fusion_lat": 0.0, "lat": 38.897368, "type": "electric_scooter", "lon": -77.01611833333334, "bike_id": "c342f6b45c299c032c170ee99ea36e33", "rental_uris": {"android": "https://dc.lft.to/lastmile_qr_scan", "ios": "https://dc.lft.to/lastmile_qr_scan"}, "name": "c342f6b45c299c032c170ee99ea36e33", "is_reserved": 0}, {"is_disabled": 0, "fusion_lon": 0.0, "fusion_lat": 0.0, "lat": 38.90937566666667, "type": "electric_scooter", "lon": -76.99221683333333, "bike_id": "4afe9b52e2445db8f49a3c26daad9678", "rental_uris": {"android": "https://dc.lft.to/lastmile_qr_scan", "ios": "https://dc.lft.to/lastmile_qr_scan"}, "name": "4afe9b52e2445db8f49a3c26daad9678", "is_reserved": 0}, {"is_disabled": 0, "fusion_lon": 0.0, "fusion_lat": 0.0, "lat": 38.907659333333335, "type": "electric_scooter", "lon": -77.03183633333333, "bike_id": "08fb664bce79987d786c44556d20e8e6", "rental_uris": {"android": "https://dc.lft.to/lastmile_qr_scan", "ios": "https://dc.lft.to/lastmile_qr_scan"}, "name": "08fb664bce79987d786c44556d20e8e6", "is_reserved": 0}, {"is_disabled": 0, "fusion_lon": 0.0, "fusion_lat": 0.0, "lat": 38.907646666666665, "type": "electric_bike", "lon": -77.043453, "bike_id": "592b32aeaa6ccc4811b5c486db5ee0d7", "rental_uris": {"android": "https://dc.lft.to/lastmile_qr_scan", "ios": "https://dc.lft.to/lastmile_qr_scan"}, "name": "592b32aeaa6ccc4811b5c486db5ee0d7", "is_reserved": 0}, {"is_disabled": 0, "fusion_lon": 0.0, "fusion_lat": 0.0, "lat": 38.867396, "type": "electric_scooter", "lon": -76.97942, "bike_id": "6f12ee2100b24df82aee3b96c819363d", "rental_uris": {"android": "https://dc.lft.to/lastmile_qr_scan", "ios": "https://dc.lft.to/lastmile_qr_scan"}, "name": "6f12ee2100b24df82aee3b96c819363d", "is_reserved": 0}, {"is_disabled": 0, "fusion_lon": 0.0, "fusion_lat": 0.0, "lat": 38.909688833333334, "type": "electric_scooter", "lon": -77.02180283333334, "bike_id": "29aa150512030b3f5843fa6b21522dee", "rental_uris": {"android": "https://dc.lft.to/lastmile_qr_scan", "ios": "https://dc.lft.to/lastmile_qr_scan"}, "name": "29aa150512030b3f5843fa6b21522dee", "is_reserved": 0}, {"is_disabled": 0, "fusion_lon": 0.0, "fusion_lat": 0.0, "lat": 38.90682533333333, "type": "electric_bike", "lon": -77.03642833333333, "bike_id": "4dabde9dc2a75cbaddc82553e5756485", "rental_uris": {"android": "https://dc.lft.to/lastmile_qr_scan", "ios": "https://dc.lft.to/lastmile_qr_scan"}, "name": "4dabde9dc2a75cbaddc82553e5756485", "is_reserved": 0}, {"is_disabled": 0, "fusion_lon": 0.0, "fusion_lat": 0.0, "lat": 38.923210833333336, "type": "electric_scooter", "lon": -77.04620066666666, "bike_id": "fdcabf7413a70fefc919d480d7f35a82", "rental_uris": {"android": "https://dc.lft.to/lastmile_qr_scan", "ios": "https://dc.lft.to/lastmile_qr_scan"}, "name": "fdcabf7413a70fefc919d480d7f35a82", "is_reserved": 0}, {"is_disabled": 0, "fusion_lon": 0.0, "fusion_lat": 0.0, "lat": 38.924285, "type": "electric_scooter", "lon": -77.035206, "bike_id": "f6163e0bca9cbc5c1bf8a93083d104b0", "rental_uris": {"android": "https://dc.lft.to/lastmile_qr_scan", "ios": "https://dc.lft.to/lastmile_qr_scan"}, "name": "f6163e0bca9cbc5c1bf8a93083d104b0", "is_reserved": 0}, {"is_disabled": 0, "fusion_lon": 0.0, "fusion_lat": 0.0, "lat": 38.93696966666667, "type": "electric_scooter", "lon": -77.02403516666666, "bike_id": "f92754c59f389c01136bc481e19cf57f", "rental_uris": {"android": "https://dc.lft.to/lastmile_qr_scan", "ios": "https://dc.lft.to/lastmile_qr_scan"}, "name": "f92754c59f389c01136bc481e19cf57f", "is_reserved": 0}, {"is_disabled": 0, "fusion_lon": 0.0, "fusion_lat": 0.0, "lat": 38.91715033333333, "type": "electric_scooter", "lon": -77.038635, "bike_id": "24410833a8933cf07d1d619a19080aca", "rental_uris": {"android": "https://dc.lft.to/lastmile_qr_scan", "ios": "https://dc.lft.to/lastmile_qr_scan"}, "name": "24410833a8933cf07d1d619a19080aca", "is_reserved": 0}, {"is_disabled": 0, "fusion_lon": 0.0, "fusion_lat": 0.0, "lat": 38.9049535, "type": "electric_scooter", "lon": -77.02945283333334, "bike_id": "9a10df3418f540815945acc182e81ae1", "rental_uris": {"android": "https://dc.lft.to/lastmile_qr_scan", "ios": "https://dc.lft.to/lastmile_qr_scan"}, "name": "9a10df3418f540815945acc182e81ae1", "is_reserved": 0}, {"is_disabled": 0, "fusion_lon": 0.0, "fusion_lat": 0.0, "lat": 38.9214675, "type": "electric_scooter", "lon": -77.02962916666667, "bike_id": "e140d5223124fe0a5c917ed9d9191a0f", "rental_uris": {"android": "https://dc.lft.to/lastmile_qr_scan", "ios": "https://dc.lft.to/lastmile_qr_scan"}, "name": "e140d5223124fe0a5c917ed9d9191a0f", "is_reserved": 0}, {"is_disabled": 0, "fusion_lon": 0.0, "fusion_lat": 0.0, "lat": 38.88529466666667, "type": "electric_scooter", "lon": -76.92689416666667, "bike_id": "47cf02f08cf77c8c23ab569d340be580", "rental_uris": {"android": "https://dc.lft.to/lastmile_qr_scan", "ios": "https://dc.lft.to/lastmile_qr_scan"}, "name": "47cf02f08cf77c8c23ab569d340be580", "is_reserved": 0}, {"is_disabled": 0, "fusion_lon": 0.0, "fusion_lat": 0.0, "lat": 38.902657166666664, "type": "electric_scooter", "lon": -77.018183, "bike_id": "dbf9a0a6cb6946d105b88d9150fc2bb9", "rental_uris": {"android": "https://dc.lft.to/lastmile_qr_scan", "ios": "https://dc.lft.to/lastmile_qr_scan"}, "name": "dbf9a0a6cb6946d105b88d9150fc2bb9", "is_reserved": 0},