{"data": {"bikes": [{"is_disabled": 0, "fusion_lon": 0.0, "fusion_lat": 0.0, "lat": 38.970599666666665, "type": "electric_bike", "lon": -76.960523, "bike_id": "6fa0f645530534662b7a6c757c1e459e", "rental_uris": {"android": "https://dc.lft.to/lastmile_qr_scan", "ios": "https://dc.lft.to/lastmile_qr_scan"}, "name": "6fa0f645530534662b7a6c757c1e459e", "is_reserved": 0}, {"is_disabled": 0, "fusion_lon": 0.0, "fusion_lat": 0.0, "lat": 38.92485, "type": "electric_scooter", "lon": -77.026957, "bike_id": "1abc296f47b13c325edd9ed91364bd4d", "rental_uris": {"android": "https://dc.lft.to/lastmile_qr_scan", "ios": "https://dc.lft.to/lastmile_qr_scan"}, "name": "1abc296f47b13c325edd9ed91364bd4d", "is_reserved": 0}, {"is_disabled": 0, "fusion_lon": 0.0, "fusion_lat": 0.0, "lat": 38.901701, "type": "electric_scooter", "lon": -76.993825, "bike_id": "79e5d0f0b1389579f27d253e29c4169e", "rental_uris": {"android": "https://dc.lft.to/lastmile_qr_scan", "ios": "https://dc.lft.to/lastmile_qr_scan"}, "name": "79e5d0f0b1389579f27d253e29c4169e", "is_reserved": 0}, {"is_disabled": 0, "fusion_lon": 0.0, "fusion_lat": 0.0, "lat": 38.885648, "type": "electric_scooter", "lon": -77.00065083333334, "bike_id": "65b974af34725b277b220e73b3c5bad8", "rental_uris": {"android": "https://dc.lft.to/lastmile_qr_scan", "ios": "https://dc.lft.to/lastmile_qr_scan"}, "name": "65b974af34725b277b220e73b3c5bad8", "is_reserved": 0}, {"is_disabled": 0, "fusion_lon": 0.0, "fusion_lat": 0.0, "lat": 38.91729616666667, "type": "electric_scooter", "lon": -76.9917815, "bike_id": "feb2e11cd91219418b15b34e8f5a0204", "rental_uris": {"android": "https://dc.lft.to/lastmile_qr_scan", "ios": "https://dc.lft.to/lastmile_qr_scan"}, "name": "feb2e11cd91219418b15b34e8f5a0204", "is_reserved": 0}, {"is_disabled": 0, "fusion_lon": 0.0, "fusion_lat": 0.0, "lat": 38.898200333333335, "type": "electric_scooter", "lon": -77.028844, "bike_id": "8684313be6ff30154a5733fde713064e", "rental_uris": {"android": "https://dc.lft.to/lastmile_qr_scan", "ios": "https://dc.lft.to/lastmile_qr_scan"}, "name": "8684313be6ff30154a5733fde713064e", "is_reserved": 0}, {"is_disabled": 0, "fusion_lon": 0.0, "fusion_lat": 0.0, "lat": 38.878296666666664, "type": "electric_scooter", "lon": -77.00807083333333, "bike_id": "613024144f185a2fd64deaa1f21694ed", "rental_uris": {"android": "https://dc.lft.to/lastmile_qr_scan", "ios": "https://dc.lft.to/lastmile_qr_scan"}, "name": "613024144f185a2fd64deaa1f21694ed", "is_reserved": 0}, {"is_disabled": 0, "fusion_lon": 0.0, "fusion_lat": 0.0, "lat": 38.90186766666667, "type": "electric_scooter", "lon": -77.03935233333333, "bike_id": "dc48030c96777c1ae685eb7206b323d6", "rental_uris": {"android": "https://dc.lft.to/lastmile_qr_scan", "ios": "https://dc.lft.to/lastmile_qr_scan"}, "name": "dc48030c96777c1ae685eb7206b323d6", "is_reserved": 0}, {"is_disabled": 0, "fusion_lon": 0.0, "fusion_lat": 0.0, "lat": 38.91200033333333, "type": "electric_scooter", "lon": -76.9848605, "bike_id": "bb533b7cd833374030417fb553aa14f7", "rental_uris": {"android": "https://dc.lft.to/lastmile_qr_scan", "ios": "https://dc.lft.to/lastmile_qr_scan"}, "name": "bb533b7cd833374030417fb553aa14f7", "is_reserved": 0}, {"is_disabled": 0, "fusion_lon": 0.0, "fusion_lat": 0.0, "lat": 38.88751533333333, "type": "electric_scooter", "lon": -77.002274, "bike_id": "8f878c743ff637fc6a045092d4619ff9", "rental_uris": {"android": "https://dc.lft.to/lastmile_qr_scan", "ios": "https://dc.lft.to/lastmile_qr_scan"}, "name": "8f878c743ff637fc6a045092d4619ff9", "is_reserved": 0}, {"is_disabled": 0, "fusion_lon": 0.0, "fusion_lat": 0.0, "lat": 38.90180616666667, "type": "electric_scooter", "lon": -77.050315, "bike_id": "628cafa413aa56fd3edb962b68510fae", "rental_uris": {"android": "https://dc.lft.to/lastmile_qr_scan", "ios": "https://dc.lft.to/lastmile_qr_scan"}, "name": "628cafa413aa56fd3edb962b68510fae", "is_reserved": 0}, {"is_disabled": 0, "fusion_lon": 0.0, "fusion_lat": 0.0, "lat": 38.94801983333333, "type": "electric_bike", "lon": -76.9721485, "bike_id": "0ec9e38ca81ee6bc6a2117451b97abee", "rental_uris": {"android": "https://dc.lft.to/lastmile_qr_scan", "ios": "https://dc.lft.to/lastmile_qr_scan"}, "name": "0ec9e38ca81ee6bc6a2117451b97abee", "is_reserved": 0}, {"is_disabled": 0, "fusion_lon": 0.0, "fusion_lat": 0.0, "lat": 38.907727333333334, "type": "electric_scooter", "lon": -77.03275183333334, "bike_id": "d1f9f708a1c987bed1ed504e7d4423d3", "rental_uris": {"android": "https://dc.lft.to/lastmile_qr_scan", "ios": "https://dc.lft.to/lastmile_qr_scan"}, "name": "d1f9f708a1c987bed1ed504e7d4423d3", "is_reserved": 0}, {"is_disabled": 0, "fusion_lon": 0.0, "fusion_lat": 0.0, "lat": 38.975735, "type": "electric_bike", "lon": -76.96404183333334, "bike_id": "8131b3486d0054c9a8d738f3fc246bec", "rental_uris": {"android": "https://dc.lft.to/lastmile_qr_scan", "ios": "https://dc.lft.to/lastmile_qr_scan"}, "name": "8131b3486d0054c9a8d738f3fc246bec", "is_reserved": 0}, {"is_disabled": 0, "fusion_lon": 0.0, "fusion_lat": 0.0, "lat": 38.916176666666665, "type": "electric_scooter", "lon": -77.04355216666667, "bike_id": "b2ea34d4415ebc384471c02e01f01e43", "rental_uris": {"android": "https://dc.lft.to/lastmile_qr_scan", "ios": "https://dc.lft.to/lastmile_qr_scan"}, "name": "b2ea34d4415ebc384471c02e01f01e43", "is_reserved": 0}, {"is_disabled": 0, "fusion_lon": 0.0, "fusion_lat": 0.0, "lat": 38.888163166666665, "type": "electric_bike", "lon": -77.127368, "bike_id": "75f8780c0b95369e132da17a2424bd31", "rental_uris": {"android": "https://dc.lft.to/lastmile_qr_scan", "ios": "https://dc.lft.to/lastmile_qr_scan"}, "name": "75f8780c0b95369e132da17a2424bd31", "is_reserved": 0}, {"is_disabled": 0, "fusion_lon": 0.0, "fusion_lat": 0.0, "lat": 38.9082775, "type": "electric_bike", "lon": -76.9415715, "bike_id": "33b34910b080e10532a554db738dd724", "rental_uris": {"android": "https://dc.lft.to/lastmile_qr_scan", "ios": "https://dc.lft.to/lastmile_qr_scan"}, "name": "33b34910b080e10532a554db738dd724", "is_reserved": 0}, {"is_disabled": 0, "fusion_lon": 0.0, "fusion_lat": 0.0, "lat": 38.887327666666664, "type": "electric_scooter", "lon": -77.02272, "bike_id": "88cd9b6ab6cb487f20ba4bce9f81209b", "rental_uris": {"android": "https://dc.lft.to/lastmile_qr_scan", "ios": "https://dc.lft.to/lastmile_qr_scan"}, "name": "88cd9b6ab6cb487f20ba4bce9f81209b", "is_reserved": 0}, {"is_disabled": 0, "fusion_lon": 0.0, "fusion_lat": 0.0, "lat": 38.99089583333333, "type": "electric_bike", "lon": -76.87493966666666, "bike_id": "ff040e1dab45f09bd814abdc4f4c4615", "rental_uris": {"android": "https://dc.lft.to/lastmile_qr_scan", "ios": "https://dc.lft.to/lastmile_qr_scan"}, "name": "ff040e1dab45f09bd814abdc4f4c4615", "is_reserved": 0}, {"is_disabled": 0, "fusion_lon": 0.0, "fusion_lat": 0.0, "lat": 38.932937833333334, "type": "electric_scooter", "lon": -77.02390466666667, "bike_id": "ef1a494da5d137ad0f12392f46d370ff", "rental_uris": {"android": "https://dc.lft.to/lastmile_qr_scan", "ios": "https://dc.lft.to/lastmile_qr_scan"}, "name": "ef1a494da5d137ad0f12392f46d370ff", "is_reserved": 0}, {"is_disabled": 0, "fusion_lon": 0.0, "fusion_lat": 0.0, "lat": 38.889663666666664, "type": "electric_bike", "lon": -76.94863883333333, "bike_id": "28349891bdaadf051640bcb116715f4c", "rental_uris": {"android": "https://dc.lft.to/lastmile_qr_scan", "ios": "https://dc.lft.to/lastmile_qr_scan"}, "name": "28349891bdaadf051640bcb116715f4c", "is_reserved": 0}, {"is_disabled": 0, "fusion_lon": 0.0, "fusion_lat": 0.0, "lat": 38.916462, "type": "electric_scooter", "lon": -77.021819, "bike_id": "31145a7dab37ac858e9913a637eea5a6", "rental_uris": {"android": "https://dc.lft.to/lastmile_qr_scan", "ios": "https://dc.lft.to/lastmile_qr_scan"}, "name": "31145a7dab37ac858e9913a637eea5a6", "is_reserved": 0}, {"is_disabled": 0, "fusion_lon": 0.0, "fusion_lat": 0.0, "lat": 38.910259333333336, "type": "electric_scooter", "lon": -77.00761283333334, "bike_id": "4b2b06a4e5a7fa7c89bb8ccb0df3c87f", "rental_uris": {"android": "https://dc.lft.to/lastmile_qr_scan", "ios": "https://dc.lft.to/lastmile_qr_scan"}, "name": "4b2b06a4e5a7fa7c89bb8ccb0df3c87f", "is_reserved": 0}, {"is_disabled": 0, "fusion_lon": 0.0, "fusion_lat": 0.0, "lat": 38.913472166666665, "type": "electric_scooter", "lon": -77.01220983333333, "bike_id": "5c3fb12710c55431074a3b6ef7b884d5", "rental_uris": {"android": "https://dc.lft.to/lastmile_qr_scan", "ios": "https://dc.lft.to/lastmile_qr_scan"}, "name": "5c3fb12710c55431074a3b6ef7b884d5", "is_reserved": 0}, {"is_disabled": 0, "fusion_lon": 0.0, "fusion_lat": 0.0, "lat": 38.88056, "type": "electric_scooter", "lon": -77.005597, "bike_id": "9b5fa66650cf5da659b93e749f158547", "rental_uris": {"android": "https://dc.lft.to/lastmile_qr_scan", "ios": "https://dc.lft.to/lastmile_qr_scan"}, "name": "9b5fa66650cf5da659b93e749f158547", "is_reserved": 0}, {"is_disabled": 0, "fusion_lon": 0.0, "fusion_lat": 0.0, "lat": 38.895777333333335, "type": "electric_scooter", "lon": -77.0231345, "bike_id": "b87fc14856c25639c3acce87b2dc99fe", "rental_uris": {"android": "https://dc.lft.to/lastmile_qr_scan", "ios": "https://dc.lft.to/lastmile_qr_scan"}, "name": "b87fc14856c25639c3acce87b2dc99fe", "is_reserved": 0}, {"is_disabled": 0, "fusion_lon": 0.0, "fusion_lat": 0.0, "lat": 38.899921, "type": "electric_scooter", "lon": -77.02914883333334, "bike_id": "399f323450bd46188823036dfd926b70", "rental_uris": {"android": "https://dc.lft.to/lastmile_qr_scan", "ios": "https://dc.lft.to/lastmile_qr_scan"}, "name": "399f323450bd46188823036dfd926b70", "is_reserved": 0}, {"is_disabled": 0, "fusion_lon": 0.0, "fusion_lat": 0.0, "lat": 38.90257316666667, "type": "electric_scooter", "lon": -77.03419383333333, "bike_id": "d1e5ecf927c3394928ccc8aedad766bd", "rental_uris": {"android": "https://dc.lft.to/lastmile_qr_scan", "ios": "https://dc.lft.to/lastmile_qr_scan"}, "name": "d1e5ecf927c3394928ccc8aedad766bd", "is_reserved": 0}, {"is_disabled": 0, "fusion_lon": 0.0, "fusion_lat": 0.0, "lat": 38.97538633333333, "type": "electric_bike", "lon": -76.99526616666667, "bike_id": "2dcfd910c24da2d44e0760e09eb5fbc7", "rental_uris": {"android": "https://dc.lft.to/lastmile_qr_scan", "ios": "https://dc.lft.to/lastmile_qr_scan"}, "name": "2dcfd910c24da2d44e0760e09eb5fbc7", "is_reserved": 0}, {"is_disabled": 0, "fusion_lon": 0.0, "fusion_lat": 0.0, "lat": 38.91703533333333, "type": "electric_scooter", "lon": -77.0329015, "bike_id": "9ff4159b1afd80e099a5990a96433df8", "rental_uris": {"android": "https://dc.lft.to/lastmile_qr_scan", "ios": "https://dc.lft.to/lastmile_qr_scan"}, "name": "9ff4159b1afd80e099a5990a96433df8", "is_reserved": 0}, {"is_disabled": 0, "fusion_lon": 0.0, "fusion_lat": 0.0, "lat": 38.92456283333333, "type": "electric_scooter", "lon": -77.02962466666666, "bike_id": "f810c9e68d7eb8431da816560ea7d4ce", "rental_uris": {"android": "https://dc.lft.to/lastmile_qr_scan", "ios": "https://dc.lft.to/lastmile_qr_scan"}, "name": "f810c9e68d7eb8431da816560ea7d4ce", "is_reserved": 0}, {"is_disabled": 0, "fusion_lon": 0.0, "fusion_lat": 0.0, "lat": 38.86901916666667, "type": "electric_bike", "lon": -77.13175166666667, "bike_id": "1cfa57f870512fec9a4b1eae6351d491", "rental_uris": {"android": "https://dc.lft.to/lastmile_qr_scan", "ios": "https://dc.lft.to/lastmile_qr_scan"}, "name": "1cfa57f870512fec9a4b1eae6351d491", "is_reserved": 0}, {"is_disabled": 0, "fusion_lon": 0.0, "fusion_lat": 0.0, "lat": 38.93578083333333, "type": "electric_bike", "lon": -77.082645, "bike_id": "d7d041b35b9577deb9f7574ccd74324c", "rental_uris": {"android": "https://dc.lft.to/lastmile_qr_scan", "ios": "https://dc.lft.to/lastmile_qr_scan"}, "name": "d7d041b35b9577deb9f7574ccd74324c", "is_reserved": 0}, {"is_disabled": 0, "fusion_lon": 0.0, "fusion_lat": 0.0, "lat": 38.919851666666666, "type": "electric_bike", "lon": -76.9731015, "bike_id": "381e4841fd6deee5567c33cdc0123e87", "rental_uris": {"android": "https://dc.lft.to/lastmile_qr_scan", "ios": "https://dc.lft.to/lastmile_qr_scan"}, "name": "381e4841fd6deee5567c33cdc0123e87", "is_reserved": 0}, {"is_disabled": 0, "fusion_lon": 0.0, "fusion_lat": 0.0, "lat": 38.92328416666667, "type": "electric_scooter", "lon": -77.04316566666667, "bike_id": "3ce460665aeda86c3e12fb77bb9689ee", "rental_uris": {"android": "https://dc.lft.to/lastmile_qr_scan", "ios": "https://dc.lft.to/lastmile_qr_scan"}, "name": "3ce460665aeda86c3e12fb77bb9689ee", "is_reserved": 0}, {"is_disabled": 0, "fusion_lon": 0.0, "fusion_lat": 0.0, "lat": 38.918674, "type": "electric_scooter", "lon": -77.032167, "bike_id": "850ae44c3e5bedee3f26eb9eec402aa2", "rental_uris": {"android": "https://dc.lft.to/lastmile_qr_scan", "ios": "https://dc.lft.to/lastmile_qr_scan"}, "name": "850ae44c3e5bedee3f26eb9eec402aa2", "is_reserved": 0}, {"is_disabled": 0, "fusion_lon": 0.0, "fusion_lat": 0.0, "lat": 38.899289833333334, "type": "electric_scooter", "lon": -77.02960383333334, "bike_id": "6f594d5da3bf3961b571f138461d9ad5", "rental_uris": {"android": "https://dc.lft.to/lastmile_qr_scan", "ios": "https://dc.lft.to/lastmile_qr_scan"}, "name": "6f594d5da3bf3961b571f138461d9ad5", "is_reserved": 0}, {"is_disabled": 0, "fusion_lon": 0.0, "fusion_lat": 0.0, "lat": 38.89935533333333, "type": "electric_scooter", "lon": -77.02168066666667, "bike_id": "19821f93ef92170ba733da72e35dca86", "rental_uris": {"android": "https://dc.lft.to/lastmile_qr_scan", "ios": "https://dc.lft.to/lastmile_qr_scan"}, "name": "19821f93ef92170ba733da72e35dca86", "is_reserved": 0}, {"is_disabled": 0, "fusion_lon": 0.0, "fusion_lat": 0.0, "lat": 38.92289066666667, "type": "electric_bike", "lon": -76.99779, "bike_id": "e5786dc3dab7f0656ea90cf6312187c3", "rental_uris": {"android": "https://dc.lft.to/lastmile_qr_scan", "ios": "https://dc.lft.to/lastmile_qr_scan"}, "name": "e5786dc3dab7f0656ea90cf6312187c3", "is_reserved": 0}, {"is_disabled": 0, "fusion_lon": 0.0, "fusion_lat": 0.0, "lat": 38.93004533333333, "type": "electric_scooter", "lon": -77.0220385, "bike_id": "003bb1c2d091af72445d616ed3a04ba3", "rental_uris": {"android": "https://dc.lft.to/lastmile_qr_scan", "ios": "https://dc.lft.to/lastmile_qr_scan"}, "name": "003bb1c2d091af72445d616ed3a04ba3", "is_reserved": 0}, {"is_disabled": 0, "fusion_lon": 0.0, "fusion_lat": 0.0, "lat": 38.9158705, "type": "electric_bike", "lon": -76.97145783333333, "bike_id": "1ae55f02b2c81d89b6175c14fba25e23", "rental_uris": {"android": "https://dc.lft.to/lastmile_qr_scan", "ios": "https://dc.lft.to/lastmile_qr_scan"}, "name": "1ae55f02b2c81d89b6175c14fba25e23", "is_reserved": 0}, {"is_disabled": 0, "fusion_lon": 0.0, "fusion_lat": 0.0, "lat": 38.916993833333336, "type": "electric_scooter", "lon": -77.03456333333334, "bike_id": "0bdf4fcc89b7c83dcc94863c8fc4eb1b", "rental_uris": {"android": "https://dc.lft.to/lastmile_qr_scan", "ios": "https://dc.lft.to/lastmile_qr_scan"}, "name": "0bdf4fcc89b7c83dcc94863c8fc4eb1b", "is_reserved": 0}, {"is_disabled": 0, "fusion_lon": 0.0, "fusion_lat": 0.0, "lat": 38.8999895, "type": "electric_bike", "lon": -77.02691166666666, "bike_id": "0609698af292c654fb04d326749a195a", "rental_uris": {"android": "https://dc.lft.to/lastmile_qr_scan", "ios": "https://dc.lft.to/lastmile_qr_scan"}, "name": "0609698af292c654fb04d326749a195a", "is_reserved": 0}, {"is_disabled": 0, "fusion_lon": 0.0, "fusion_lat": 0.0, "lat": 38.917049666666664, "type": "electric_scooter", "lon": -77.03668683333333, "bike_id": "8b866f9c0ddb77cbe5731bae4d013628", "rental_uris": {"android": "https://dc.lft.to/lastmile_qr_scan", "ios": "https://dc.lft.to/lastmile_qr_scan"}, "name": "8b866f9c0ddb77cbe5731bae4d013628", "is_reserved": 0}, {"is_disabled": 0, "fusion_lon": 0.0, "fusion_lat": 0.0, "lat": 38.932345166666664, "type": "electric_scooter", "lon": -76.99932983333333, "bike_id": "d1ad33db7387fd925154232054335000", "rental_uris": {"android": "https://dc.lft.to/lastmile_qr_scan", "ios": "https://dc.lft.to/lastmile_qr_scan"}, "name": "d1ad33db7387fd925154232054335000", "is_reserved": 0}, {"is_disabled": 0, "fusion_lon": 0.0, "fusion_lat": 0.0, "lat": 38.93172833333333, "type": "electric_scooter", "lon": -77.02814583333334, "bike_id": "a3bf21104755500edb84fabf7c8a5e88", "rental_uris": {"android": "https://dc.lft.to/lastmile_qr_scan", "ios": "https://dc.lft.to/lastmile_qr_scan"}, "name": "a3bf21104755500edb84fabf7c8a5e88", "is_reserved": 0}, {"is_disabled": 0, "fusion_lon": 0.0, "fusion_lat": 0.0, "lat": 38.91814633333333, "type": "electric_scooter", "lon": -77.01209783333333, "bike_id": "ab7374ba116be6cdf28131aac7061bf3", "rental_uris": {"android": "https://dc.lft.to/lastmile_qr_scan", "ios": "https://dc.lft.to/lastmile_qr_scan"}, "name": "ab7374ba116be6cdf28131aac7061bf3", "is_reserved": 0}, {"is_disabled": 0, "fusion_lon": 0.0, "fusion_lat": 0.0, "lat": 38.888369, "type": "electric_scooter", "lon": -76.91793433333333, "bike_id": "0bbf476bb53bb58bf46b7e7be8831b7b", "rental_uris": {"android": "https://dc.lft.to/lastmile_qr_scan", "ios": "https://dc.lft.to/lastmile_qr_scan"}, "name": "0bbf476bb53bb58bf46b7e7be8831b7b", "is_reserved": 0}, {"is_disabled": 0, "fusion_lon": 0.0, "fusion_lat": 0.0, "lat": 38.8858905, "type": "electric_scooter", "lon": -77.03162416666666, "bike_id": "e2a3e6c5fb73370ac60cdc9cb6897027", "rental_uris": {"android": "https://dc.lft.to/lastmile_qr_scan", "ios": "https://dc.lft.to/lastmile_qr_scan"}, "name": "e2a3e6c5fb73370ac60cdc9cb6897027", "is_reserved": 0}, {"is_disabled": 0, "fusion_lon": 0.0, "fusion_lat": 0.0, "lat": 38.919301833333336, "type": "electric_scooter", "lon": -77.02323783333334, "bike_id": "c65e324db08e88f52fd76004c1cdf4ce", "rental_uris": {"android": "https://dc.lft.to/lastmile_qr_scan", "ios": "https://dc.lft.to/lastmile_qr_scan"}, "name": "c65e324db08e88f52fd76004c1cdf4ce", "is_reserved": 0}, {"is_disabled": 0, "fusion_lon": 0.0, "fusion_lat": 0.0, "lat": 38.907127833333334, "type": "electric_scooter", "lon": -77.02410616666667, "bike_id": "93e7ae7dbd684a585bc99b5c19cfd2b3", "rental_uris": {"android": "https://dc.lft.to/lastmile_qr_scan", "ios": "https://dc.lft.to/lastmile_qr_scan"}, "name": "93e7ae7dbd684a585bc99b5c19cfd2b3", "is_reserved": 0}, {"is_disabled": 0, "fusion_lon": 0.0, "fusion_lat": 0.0, "lat": 38.898538333333335, "type": "electric_scooter", "lon": -77.03989883333334, "bike_id": "f79db1989c748b084c0e989aecff14e1", "rental_uris": {"android": "https://dc.lft.to/lastmile_qr_scan", "ios": "https://dc.lft.to/lastmile_qr_scan"}, "name": "f79db1989c748b084c0e989aecff14e1", "is_reserved": 0}, {"is_disabled": 0, "fusion_lon": 0.0, "fusion_lat": 0.0, "lat": 38.93677666666667, "type": "electric_scooter", "lon": -77.035741, "bike_id": "6259181aae74a7334b28d368a64fb03c", "rental_uris": {"android": "https://dc.lft.to/lastmile_qr_scan", "ios": "https://dc.lft.to/lastmile_qr_scan"}, "name": "6259181aae74a7334b28d368a64fb03c", "is_reserved": 0}, {"is_disabled": 0, "fusion_lon": 0.0, "fusion_lat": 0.0, "lat": 38.8310455, "type": "electric_bike", "lon": -77.04258666666666, "bike_id": "9e4a72aef9eefaec8b3cdce445c76a3f", "rental_uris": {"android": "https://dc.lft.to/lastmile_qr_scan", "ios": "https://dc.lft.to/lastmile_qr_scan"}, "name": "9e4a72aef9eefaec8b3cdce445c76a3f", "is_reserved": 0}, {"is_disabled": 0, "fusion_lon": 0.0, "fusion_lat": 0.0, "lat": 38.906026833333335, "type": "electric_scooter", "lon": -77.062978, "bike_id": "c2844eac0ec9b3beac352d36b4bac9a1", "rental_uris": {"android": "https://dc.lft.to/lastmile_qr_scan", "ios": "https://dc.lft.to/lastmile_qr_scan"}, "name": "c2844eac0ec9b3beac352d36b4bac9a1", "is_reserved": 0}, {"is_disabled": 0, "fusion_lon": 0.0, "fusion_lat": 0.0, "lat": 38.947521, "type": "electric_scooter", "lon": -77.029805, "bike_id": "3bf893169fb3ded518352ae34c6c051a", "rental_uris": {"android": "https://dc.lft.to/lastmile_qr_scan", "ios": "https://dc.lft.to/lastmile_qr_scan"}, "name": "3bf893169fb3ded518352ae34c6c051a", "is_reserved": 0}, {"is_disabled": 0, "fusion_lon": 0.0, "fusion_lat": 0.0, "lat": 38.8976295, "type": "electric_scooter", "lon": -76.99262716666667, "bike_id": "237f5f547599e9af3ed0b6a92bbdae41", "rental_uris": {"android": "https://dc.lft.to/lastmile_qr_scan", "ios": "https://dc.lft.to/lastmile_qr_scan"}, "name": "237f5f547599e9af3ed0b6a92bbdae41", "is_reserved": 0}, {"is_disabled": 0, "fusion_lon": 0.0, "fusion_lat": 0.0, "lat": 38.93109416666667, "type": "electric_scooter", "lon": -77.01245183333333, "bike_id": "98eb29ce3b922b454840891179bb5687", "rental_uris": {"android": "https://dc.lft.to/lastmile_qr_scan", "ios": "https://dc.lft.to/lastmile_qr_scan"}, "name": "98eb29ce3b922b454840891179bb5687", "is_reserved": 0}, {"is_disabled": 0, "fusion_lon": 0.0, "fusion_lat": 0.0, "lat": 38.90523566666667, "type": "electric_scooter", "lon": -77.04977816666667, "bike_id": "c137bb0836f1bdfc903ba9a629e6f1e0", "rental_uris": {"android": "https://dc.lft.to/lastmile_qr_scan", "ios": "https://dc.lft.to/lastmile_qr_scan"}, "name": "c137bb0836f1bdfc903ba9a629e6f1e0", "is_reserved": 0}, {"is_disabled": 0, "fusion_lon": 0.0, "fusion_lat": 0.0, "lat": 38.927442, "type": "electric_scooter", "lon": -77.02485266666666, "bike_id": "683cb1a9f0f3ea789a25006d1ba46b38", "rental_uris": {"android": "https://dc.lft.to/lastmile_qr_scan", "ios": "https://dc.lft.to/lastmile_qr_scan"}, "name": "683cb1a9f0f3ea789a25006d1ba46b38", "is_reserved": 0}, {"is_disabled": 0, "fusion_lon": 0.0, "fusion_lat": 0.0, "lat": 38.9073255, "type": "electric_scooter", "lon": -77.03445016666667, "bike_id": "6d4960029840754bee3bda51f5eb8708", "rental_uris": {"android": "https://dc.lft.to/lastmile_qr_scan", "ios": "https://dc.lft.to/lastmile_qr_scan"}, "name": "6d4960029840754bee3bda51f5eb8708", "is_reserved": 0}, {"is_disabled": 0, "fusion_lon": 0.0, "fusion_lat": 0.0, "lat": 38.90631166666667, "type": "electric_scooter", "lon": -77.0629285, "bike_id": "f6900cde775cbc0ad64e0b925cda7801", "rental_uris": {"android": "https://dc.lft.to/lastmile_qr_scan", "ios": "https://dc.lft.to/lastmile_qr_scan"}, "name": "f6900cde775cbc0ad64e0b925cda7801", "is_reserved": 0}, {"is_disabled": 0, "fusion_lon": 0.0, "fusion_lat": 0.0, "lat": 38.93301833333334, "type": "electric_scooter", "lon": -77.02138316666667, "bike_id": "d0596c6bb2719d262241f2def91b18ad", "rental_uris": {"android": "https://dc.lft.to/lastmile_qr_scan", "ios": "https://dc.lft.to/lastmile_qr_scan"}, "name": "d0596c6bb2719d262241f2def91b18ad", "is_reserved": 0}, {"is_disabled": 0, "fusion_lon": 0.0, "fusion_lat": 0.0, "lat": 38.96217033333333, "type": "electric_scooter", "lon": -77.02801566666666, "bike_id": "80a33f2713d28ff6308f5e7102afe691", "rental_uris": {"android": "https://dc.lft.to/lastmile_qr_scan", "ios": "https://dc.lft.to/lastmile_qr_scan"}, "name": "80a33f2713d28ff6308f5e7102afe691", "is_reserved": 0}, {"is_disabled": 0, "fusion_lon": 0.0, "fusion_lat": 0.0, "lat": 38.86351, "type": "electric_scooter", "lon": -76.99068566666666, "bike_id": "196b5bc2ba15761357410675512cc0b3", "rental_uris": {"android": "https://dc.lft.to/lastmile_qr_scan", "ios": "https://dc.lft.to/lastmile_qr_scan"}, "name": "196b5bc2ba15761357410675512cc0b3", "is_reserved": 0}, {"is_disabled": 0, "fusion_lon": 0.0, "fusion_lat": 0.0, "lat": 38.907730666666666, "type": "electric_scooter", "lon": -77.03191033333333, "bike_id": "38a59e6f9ba531b6529562ec95c1f707", "rental_uris": {"android": "https://dc.lft.to/lastmile_qr_scan", "ios": "https://dc.lft.to/lastmile_qr_scan"}, "name": "38a59e6f9ba531b6529562ec95c1f707", "is_reserved": 0}, {"is_disabled": 0, "fusion_lon": 0.0, "fusion_lat": 0.0, "lat": 38.92794983333334, "type": "electric_scooter", "lon": -77.01406866666666, "bike_id": "91887304ccdb7909783055cc09c1cdee", "rental_uris": {"android": "https://dc.lft.to/lastmile_qr_scan", "ios": "https://dc.lft.to/lastmile_qr_scan"}, "name": "91887304ccdb7909783055cc09c1cdee", "is_reserved": 0}, {"is_disabled": 0, "fusion_lon": 0.0, "fusion_lat": 0.0, "lat": 38.9905975, "type": "electric_bike", "lon": -77.10030533333334, "bike_id": "8219419f9a561b1bcec46a48bc1c6574", "rental_uris": {"android": "https://dc.lft.to/lastmile_qr_scan", "ios": "https://dc.lft.to/lastmile_qr_scan"}, "name": "8219419f9a561b1bcec46a48bc1c6574", "is_reserved": 0}, {"is_disabled": 0, "fusion_lon": 0.0, "fusion_lat": 0.0, "lat": 38.93781666666667, "type": "electric_scooter", "lon": -77.02305016666666, "bike_id": "df740bc62ffc493ce261bd6731c688d7", "rental_uris": {"android": "https://dc.lft.to/lastmile_qr_scan", "ios": "https://dc.lft.to/lastmile_qr_scan"}, "name": "df740bc62ffc493ce261bd6731c688d7", "is_reserved": 0}, {"is_disabled": 0, "fusion_lon": 0.0, "fusion_lat": 0.0, "lat": 38.990889833333334, "type": "electric_bike", "lon": -76.874926, "bike_id": "84392c3af29b5399d1c107ff9fb1e53d", "rental_uris": {"android": "https://dc.lft.to/lastmile_qr_scan", "ios": "https://dc.lft.to/lastmile_qr_scan"}, "name": "84392c3af29b5399d1c107ff9fb1e53d", "is_reserved": 0}, {"is_disabled": 0, "fusion_lon": 0.0, "fusion_lat": 0.0, "lat": 38.90726866666667, "type": "electric_scooter", "lon": -77.040765, "bike_id": "bbf1bf94c53302265c997e9d72d36db0", "rental_uris": {"android": "https://dc.lft.to/lastmile_qr_scan", "ios": "https://dc.lft.to/lastmile_qr_scan"}, "name": "bbf1bf94c53302265c997e9d72d36db0", "is_reserved": 0}, {"is_disabled": 0, "fusion_lon": 0.0, "fusion_lat": 0.0, "lat": 38.8921845, "type": "electric_scooter", "lon": -77.02829716666666, "bike_id": "f18c390a27817f030aeb2a3ea4689e9a", "rental_uris": {"android": "https://dc.lft.to/lastmile_qr_scan", "ios": "https://dc.lft.to/lastmile_qr_scan"}, "name": "f18c390a27817f030aeb2a3ea4689e9a", "is_reserved": 0}, {"is_disabled": 0, "fusion_lon": 0.0, "fusion_lat": 0.0, "lat": 38.874929333333334, "type": "electric_bike", "lon": -77.048994, "bike_id": "4cfd70564073193dfaed0396022cb6b7", "rental_uris": {"android": "https://dc.lft.to/lastmile_qr_scan", "ios": "https://dc.lft.to/lastmile_qr_scan"}, "name": "4cfd70564073193dfaed0396022cb6b7", "is_reserved": 0}, {"is_disabled": 0, "fusion_lon": 0.0, "fusion_lat": 0.0, "lat": 38.905355166666666, "type": "electric_scooter", "lon": -77.06517783333334, "bike_id": "233f64587db78b78ee75d98ee964b5c8", "rental_uris": {"android": "https://dc.lft.to/lastmile_qr_scan", "ios": "https://dc.lft.to/lastmile_qr_scan"}, "name": "233f64587db78b78ee75d98ee964b5c8", "is_reserved": 0}, {"is_disabled": 0, "fusion_lon": 0.0, "fusion_lat": 0.0, "lat": 38.905491166666664, "type": "electric_scooter", "lon": -77.04160016666667, "bike_id": "a4249e0ec92a1a5e327fafffa98c5675", "rental_uris": {"android": "https://dc.lft.to/lastmile_qr_scan", "ios": "https://dc.lft.to/lastmile_qr_scan"}, "name": "a4249e0ec92a1a5e327fafffa98c5675", "is_reserved": 0}, {"is_disabled": 0, "fusion_lon": 0.0, "fusion_lat": 0.0, "lat": 38.89879283333333, "type": "electric_scooter", "lon": -76.93158416666667, "bike_id": "322b7d02a221e388ec4312331cebf195", "rental_uris": {"android": "https://dc.lft.to/lastmile_qr_scan", "ios": "https://dc.lft.to/lastmile_qr_scan"}, "name": "322b7d02a221e388ec4312331cebf195", "is_reserved": 0}, {"is_disabled": 0, "fusion_lon": 0.0, "fusion_lat": 0.0, "lat": 38.9249735, "type": "electric_scooter", "lon": -76.99567183333333, "bike_id": "96add81f9310b22bce851532f34450f0", "rental_uris": {"android": "https://dc.lft.to/lastmile_qr_scan", "ios": "https://dc.lft.to/lastmile_qr_scan"}, "name": "96add81f9310b22bce851532f34450f0", "is_reserved": 0}, {"is_disabled": 0, "fusion_lon": 0.0, "fusion_lat": 0.0, "lat": 38.91175233333333, "type": "electric_scooter", "lon": -77.03183783333333, "bike_id": "ec3590dc31589448f2f766bf26703df0", "rental_uris": {"android": "https://dc.lft.to/lastmile_qr_scan", "ios": "https://dc.lft.to/lastmile_qr_scan"}, "name": "ec3590dc31589448f2f766bf26703df0", "is_reserved": 0}, {"is_disabled": 0, "fusion_lon": 0.0, "fusion_lat": 0.0, "lat": 38.908657166666664, "type": "electric_scooter", "lon": -77.0355455, "bike_id": "8a155fd146b786634f855c81bc41329b", "rental_uris": {"android": "https://dc.lft.to/lastmile_qr_scan", "ios": "https://dc.lft.to/lastmile_qr_scan"}, "name": "8a155fd146b786634f855c81bc41329b", "is_reserved": 0}, {"is_disabled": 0, "fusion_lon": 0.0, "fusion_lat": 0.0, "lat": 38.90624366666667, "type": "electric_bike", "lon": -77.064186, "bike_id": "10bd1148a4a6cc8f00de2763f4ed3b42", "rental_uris": {"android": "https://dc.lft.to/lastmile_qr_scan", "ios": "https://dc.lft.to/lastmile_qr_scan"}, "name": "10bd1148a4a6cc8f00de2763f4ed3b42", "is_reserved": 0}, {"is_disabled": 0, "fusion_lon": 0.0, "fusion_lat": 0.0, "lat": 38.9214945, "type": "electric_scooter", "lon": -77.0351005, "bike_id": "fc6dcc2531b2bcf8dffb1957ba61a79f", "rental_uris": {"android": "https://dc.lft.to/lastmile_qr_scan", "ios": "https://dc.lft.to/lastmile_qr_scan"}, "name": "fc6dcc2531b2bcf8dffb1957ba61a79f", "is_reserved": 0}, {"is_disabled": 0, "fusion_lon": 0.0, "fusion_lat": 0.0, "lat": 38.840950666666664, "type": "electric_bike", "lon": -77.089368, "bike_id": "1ce3091b68cfa58e6b03a22097f0ebf0", "rental_uris": {"android": "https://dc.lft.to/lastmile_qr_scan", "ios": "https://dc.lft.to/lastmile_qr_scan"}, "name": "1ce3091b68cfa58e6b03a22097f0ebf0", "is_reserved": 0}, {"is_disabled": 0, "fusion_lon": 0.0, "fusion_lat": 0.0, "lat": 38.87621266666667, "type": "electric_scooter", "lon": -76.96538, "bike_id": "37d6d7ad77a6746781df78626ce34446", "rental_uris": {"android": "https://dc.lft.to/lastmile_qr_scan", "ios": "https://dc.lft.to/lastmile_qr_scan"}, "name": "37d6d7ad77a6746781df78626ce34446", "is_reserved": 0}, {"is_disabled": 0, "fusion_lon": 0.0, "fusion_lat": 0.0, "lat": 38.94299866666667, "type": "electric_scooter", "lon": -77.02766383333334, "bike_id": "20f3a8cd641621fa2b79f6ddff40fb1b", "rental_uris": {"android": "https://dc.lft.to/lastmile_qr_scan", "ios": "https://dc.lft.to/lastmile_qr_scan"}, "name": "20f3a8cd641621fa2b79f6ddff40fb1b", "is_reserved": 0}, {"is_disabled": 0, "fusion_lon": 0.0, "fusion_lat": 0.0, "lat": 38.911224, "type": "electric_scooter", "lon": -77.0318335, "bike_id": "1770f99c18a7b95dcca85f667d283df6", "rental_uris": {"android": "https://dc.lft.to/lastmile_qr_scan", "ios": "https://dc.lft.to/lastmile_qr_scan"}, "name": "1770f99c18a7b95dcca85f667d283df6", "is_reserved": 0}, {"is_disabled": 0, "fusion_lon": 0.0, "fusion_lat": 0.0, "lat": 38.923293, "type": "electric_scooter", "lon": -77.04186033333333, "bike_id": "750626eb22f165957309bbda12b37146", "rental_uris": {"android": "https://dc.lft.to/lastmile_qr_scan", "ios": "https://dc.lft.to/lastmile_qr_scan"}, "name": "750626eb22f165957309bbda12b37146", "is_reserved": 0}, {"is_disabled": 0, "fusion_lon": 0.0, "fusion_lat": 0.0, "lat": 38.904918333333335, "type": "electric_scooter", "lon": -77.05140766666666, "bike_id": "34b15e669a8e22013718b162629a8772", "rental_uris": {"android": "https://dc.lft.to/lastmile_qr_scan", "ios": "https://dc.lft.to/lastmile_qr_scan"}, "name": "34b15e669a8e22013718b162629a8772", "is_reserved": 0}, {"is_disabled": 0, "fusion_lon": 0.0, "fusion_lat": 0.0, "lat": 38.869565333333334, "type": "electric_scooter", "lon": -76.96031733333334, "bike_id": "2740069c1a42d2a972057982e9b36dba", "rental_uris": {"android": "https://dc.lft.to/lastmile_qr_scan", "ios": "https://dc.lft.to/lastmile_qr_scan"}, "name": "2740069c1a42d2a972057982e9b36dba", "is_reserved": 0}, {"is_disabled": 0, "fusion_lon": 0.0, "fusion_lat": 0.0, "lat": 38.91378, "type": "electric_scooter", "lon": -77.04602766666666, "bike_id": "ddff3db462ffb0583b8b74e014487a89", "rental_uris": {"android": "https://dc.lft.to/lastmile_qr_scan", "ios": "https://dc.lft.to/lastmile_qr_scan"}, "name": "ddff3db462ffb0583b8b74e014487a89", "is_reserved": 0}, {"is_disabled": 0, "fusion_lon": 0.0, "fusion_lat": 0.0, "lat": 38.92977233333333, "type": "electric_scooter", "lon": -77.05503716666666, "bike_id": "fc8dc063e335f0fa9ef96b50a42ca081", "rental_uris": {"android": "https://dc.lft.to/lastmile_qr_scan", "ios": "https://dc.lft.to/lastmile_qr_scan"}, "name": "fc8dc063e335f0fa9ef96b50a42ca081", "is_reserved": 0}, {"is_disabled": 0, "fusion_lon": 0.0, "fusion_lat": 0.0, "lat": 38.90005466666667, "type": "electric_scooter", "lon": -77.03352766666667, "bike_id": "0d56170f0153a28a0432da1e4059dff6", "rental_uris": {"android": "https://dc.lft.to/lastmile_qr_scan", "ios": "https://dc.lft.to/lastmile_qr_scan"}, "name": "0d56170f0153a28a0432da1e4059dff6", "is_reserved": 0}, {"is_disabled": 0, "fusion_lon": 0.0, "fusion_lat": 0.0, "lat": 38.81024166666667, "type": "electric_bike", "lon": -77.08433433333333, "bike_id": "dc88177f82dc5a49df5ee97ff02c7f30", "rental_uris": {"android": "https://dc.lft.to/lastmile_qr_scan", "ios": "https://dc.lft.to/lastmile_qr_scan"}, "name": "dc88177f82dc5a49df5ee97ff02c7f30", "is_reserved": 0}, {"is_disabled": 0, "fusion_lon": 0.0, "fusion_lat": 0.0, "lat": 38.919338333333336, "type": "electric_bike", "lon": -76.97501966666667, "bike_id": "f7efc2b6a912de460fa1b7e1057ab1a7", "rental_uris": {"android": "https://dc.lft.to/lastmile_qr_scan", "ios": "https://dc.lft.to/lastmile_qr_scan"}, "name": "f7efc2b6a912de460fa1b7e1057ab1a7", "is_reserved": 0}, {"is_disabled": 0, "fusion_lon": 0.0, "fusion_lat": 0.0, "lat": 38.900015, "type": "electric_scooter", "lon": -77.03368683333333, "bike_id": "3fe10d9a15f39bc4b58f52665c51133a", "rental_uris": {"android": "https://dc.lft.to/lastmile_qr_scan", "ios": "https://dc.lft.to/lastmile_qr_scan"}, "name": "3fe10d9a15f39bc4b58f52665c51133a", "is_reserved": 0}, {"is_disabled": 0, "fusion_lon": 0.0, "fusion_lat": 0.0, "lat": 38.9212745, "type": "electric_scooter", "lon": -77.04210133333333, "bike_id": "5e8c95344a14628c4c910959e9bf5db5", "rental_uris": {"android": "https://dc.lft.to/lastmile_qr_scan", "ios": "https://dc.lft.to/lastmile_qr_scan"}, "name": "5e8c95344a14628c4c910959e9bf5db5", "is_reserved": 0}, {"is_disabled": 0, "fusion_lon": 0.0, "fusion_lat": 0.0, "lat": 38.94330316666667, "type": "electric_bike", "lon": -77.01477916666667, "bike_id": "f1d196b6c1a6c17587bc43f54cdf4cba", "rental_uris": {"android": "https://dc.lft.to/lastmile_qr_scan", "ios": "https://dc.lft.to/lastmile_qr_scan"}, "name": "f1d196b6c1a6c17587bc43f54cdf4cba", "is_reserved": 0}, {"is_disabled": 0, "fusion_lon": 0.0, "fusion_lat": 0.0, "lat": 38.90557316666667, "type": "electric_scooter", "lon": -77.03668266666666, "bike_id": "b3afa046714c8c3b600b782eef853bfd", "rental_uris": {"android": "https://dc.lft.to/lastmile_qr_scan", "ios": "https://dc.lft.to/lastmile_qr_scan"}, "name": "b3afa046714c8c3b600b782eef853bfd", "is_reserved": 0}, {"is_disabled": 0, "fusion_lon": 0.0, "fusion_lat": 0.0, "lat": 38.89538733333333, "type": "electric_scooter", "lon": -77.015316, "bike_id": "4e04812781dbf0989180ffe3073cc3fe", "rental_uris": {"android": "https://dc.lft.to/lastmile_qr_scan", "ios": "https://dc.lft.to/lastmile_qr_scan"}, "name": "4e04812781dbf0989180ffe3073cc3fe", "is_reserved": 0}, {"is_disabled": 0, "fusion_lon": 0.0, "fusion_lat": 0.0, "lat": 38.93231433333333, "type": "electric_scooter", "lon": -77.03266433333333, "bike_id": "e3f1728e22f30dfcad7d2399fb3d5892", "rental_uris": {"android": "https://dc.lft.to/lastmile_qr_scan", "ios": "https://dc.lft.to/lastmile_qr_scan"}, "name": "e3f1728e22f30dfcad7d2399fb3d5892", "is_reserved": 0}, {"is_disabled": 0, "fusion_lon": 0.0, "fusion_lat": 0.0, "lat": 38.9212775, "type": "electric_scooter", "lon": -77.04440616666666, "bike_id": "c1aa55babc4e45353fa7f468bdb456ba", "rental_uris": {"android": "https://dc.lft.to/lastmile_qr_scan", "ios": "https://dc.lft.to/lastmile_qr_scan"}, "name": "c1aa55babc4e45353fa7f468bdb456ba", "is_reserved": 0}, {"is_disabled": 0, "fusion_lon": 0.0, "fusion_lat": 0.0, "lat": 38.90452, "type": "electric_scooter", "lon": -77.02425283333334, "bike_id": "be86291b4aacad1878abb9027dd5166c", "rental_uris": {"android": "https://dc.lft.to/lastmile_qr_scan", "ios": "https://dc.lft.to/lastmile_qr_scan"}, "name": "be86291b4aacad1878abb9027dd5166c", "is_reserved": 0}, {"is_disabled": 0, "fusion_lon": 0.0, "fusion_lat": 0.0, "lat": 38.9055805, "type": "electric_scooter", "lon": -77.02761633333333, "bike_id": "c243e3780f08a7b30ccbe0a3660e10ee", "rental_uris": {"android": "https://dc.lft.to/lastmile_qr_scan", "ios": "https://dc.lft.to/lastmile_qr_scan"}, "name": "c243e3780f08a7b30ccbe0a3660e10ee", "is_reserved": 0}, {"is_disabled": 0, "fusion_lon": 0.0, "fusion_lat": 0.0, "lat": 38.852789666666666, "type": "electric_bike", "lon": -76.98152666666667, "bike_id": "1cc5adb3be05daf2a535d912642e8e64", "rental_uris": {"android": "https://dc.lft.to/lastmile_qr_scan", "ios": "https://dc.lft.to/lastmile_qr_scan"}, "name": "1cc5adb3be05daf2a535d912642e8e64", "is_reserved": 0}, {"is_disabled": 0, "fusion_lon": 0.0, "fusion_lat": 0.0, "lat": 38.85787, "type": "electric_bike", "lon": -76.98752716666667, "bike_id": "ef62be220ebb47cd8d831c12fbe22924", "rental_uris": {"android": "https://dc.lft.to/lastmile_qr_scan", "ios": "https://dc.lft.to/lastmile_qr_scan"}, "name": "ef62be220ebb47cd8d831c12fbe22924", "is_reserved": 0}, {"is_disabled": 0, "fusion_lon": 0.0, "fusion_lat": 0.0, "lat": 38.884854833333335, "type": "electric_scooter", "lon": -76.92966183333333, "bike_id": "78124407d7f7e4b5528a1fc0d22b4da1", "rental_uris": {"android": "https://dc.lft.to/lastmile_qr_scan", "ios": "https://dc.lft.to/lastmile_qr_scan"}, "name": "78124407d7f7e4b5528a1fc0d22b4da1", "is_reserved": 0}, {"is_disabled": 0, "fusion_lon": 0.0, "fusion_lat": 0.0, "lat": 38.91123616666667, "type": "electric_scooter", "lon": -77.05935583333333, "bike_id": "38a2d61b7d0c1b1acb3cb73e8f7992c9", "rental_uris": {"android": "https://dc.lft.to/lastmile_qr_scan", "ios": "https://dc.lft.to/lastmile_qr_scan"}, "name": "38a2d61b7d0c1b1acb3cb73e8f7992c9", "is_reserved": 0}, {"is_disabled": 0, "fusion_lon": 0.0, "fusion_lat": 0.0, "lat": 38.921595333333336, "type": "electric_scooter", "lon": -77.03400083333334, "bike_id": "e7e81841d340accfc1cef1798013eff0", "rental_uris": {"android": "https://dc.lft.to/lastmile_qr_scan", "ios": "https://dc.lft.to/lastmile_qr_scan"}, "name": "e7e81841d340accfc1cef1798013eff0", "is_reserved": 0}, {"is_disabled": 0, "fusion_lon": 0.0, "fusion_lat": 0.0, "lat": 38.90774233333333, "type": "electric_scooter", "lon": -77.03215883333333, "bike_id": "f7fa8dc04147e4ecd5ef2ccf0a0f7fcd", "rental_uris": {"android": "https://dc.lft.to/lastmile_qr_scan", "ios": "https://dc.lft.to/lastmile_qr_scan"}, "name": "f7fa8dc04147e4ecd5ef2ccf0a0f7fcd", "is_reserved": 0}, {"is_disabled": 0, "fusion_lon": 0.0, "fusion_lat": 0.0, "lat": 38.918138666666664, "type": "electric_scooter", "lon": -77.0417, "bike_id": "6dbae67a2f6f33190da49070ba7ac538", "rental_uris": {"android": "https://dc.lft.to/lastmile_qr_scan", "ios": "https://dc.lft.to/lastmile_qr_scan"}, "name": "6dbae67a2f6f33190da49070ba7ac538", "is_reserved": 0}, {"is_disabled": 0, "fusion_lon": 0.0, "fusion_lat": 0.0, "lat": 38.90268366666667, "type": "electric_scooter", "lon": -77.053353, "bike_id": "7fc7a0f1c8b5fe6c8972f7fda6d0e5d0", "rental_uris": {"android": "https://dc.lft.to/lastmile_qr_scan", "ios": "https://dc.lft.to/lastmile_qr_scan"}, "name": "7fc7a0f1c8b5fe6c8972f7fda6d0e5d0", "is_reserved": 0}, {"is_disabled": 0, "fusion_lon": 0.0, "fusion_lat": 0.0, "lat": 38.89554116666667, "type": "electric_scooter", "lon": -77.021707, "bike_id": "6cf9960396c1157c27b6dc879f875334", "rental_uris": {"android": "https://dc.lft.to/lastmile_qr_scan", "ios": "https://dc.lft.to/lastmile_qr_scan"}, "name": "6cf9960396c1157c27b6dc879f875334", "is_reserved": 0}, {"is_disabled": 0, "fusion_lon": 0.0, "fusion_lat": 0.0, "lat": 38.89268216666667, "type": "electric_scooter", "lon": -77.03206116666667, "bike_id": "20ca8966f5a8676ab4496d5f5610e90d", "rental_uris": {"android": "https://dc.lft.to/lastmile_qr_scan", "ios": "https://dc.lft.to/lastmile_qr_scan"}, "name": "20ca8966f5a8676ab4496d5f5610e90d", "is_reserved": 0}, {"is_disabled": 0, "fusion_lon": 0.0, "fusion_lat": 0.0, "lat": 38.89685333333333, "type": "electric_scooter", "lon": -77.0117775, "bike_id": "7d42a9ec1792aebe3b12cbd620b54c9c", "rental_uris": {"android": "https://dc.lft.to/lastmile_qr_scan", "ios": "https://dc.lft.to/lastmile_qr_scan"}, "name": "7d42a9ec1792aebe3b12cbd620b54c9c", "is_reserved": 0}, {"is_disabled": 0, "fusion_lon": 0.0, "fusion_lat": 0.0, "lat": 38.90866616666667, "type": "electric_scooter", "lon": -77.0301205, "bike_id": "c2c0268d3e3599d3b79ed14e1a536c9a", "rental_uris": {"android": "https://dc.lft.to/lastmile_qr_scan", "ios": "https://dc.lft.to/lastmile_qr_scan"}, "name": "c2c0268d3e3599d3b79ed14e1a536c9a", "is_reserved": 0}, {"is_disabled": 0, "fusion_lon": 0.0, "fusion_lat": 0.0, "lat": 38.89841633333333, "type": "electric_scooter", "lon": -76.94493166666666, "bike_id": "218e1aa42a8fbff617b5d450a400e63a", "rental_uris": {"android": "https://dc.lft.to/lastmile_qr_scan", "ios": "https://dc.lft.to/lastmile_qr_scan"}, "name": "218e1aa42a8fbff617b5d450a400e63a", "is_reserved": 0}, {"is_disabled": 0, "fusion_lon": 0.0, "fusion_lat": 0.0, "lat": 39.02294216666667, "type": "electric_bike", "lon": -77.02100166666666, "bike_id": "b7fc8e137da9b4acf1b3d56f1427c6c8", "rental_uris": {"android": "https://dc.lft.to/lastmile_qr_scan", "ios": "https://dc.lft.to/lastmile_qr_scan"}, "name": "b7fc8e137da9b4acf1b3d56f1427c6c8", "is_reserved": 0}, {"is_disabled": 0, "fusion_lon": 0.0, "fusion_lat": 0.0, "lat": 38.91338416666667, "type": "electric_scooter", "lon": -77.031841, "bike_id": "cdbb6d150041be8fca0cb0152e07e766", "rental_uris": {"android": "https://dc.lft.to/lastmile_qr_scan", "ios": "https://dc.lft.to/lastmile_qr_scan"}, "name": "cdbb6d150041be8fca0cb0152e07e766", "is_reserved": 0}, {"is_disabled": 0, "fusion_lon": 0.0, "fusion_lat": 0.0, "lat": 38.888761833333334, "type": "electric_bike", "lon": -77.02855916666667, "bike_id": "61a75fb0f12bee6fd16df77c0a29c4a4", "rental_uris": {"android": "https://dc.lft.to/lastmile_qr_scan", "ios": "https://dc.lft.to/lastmile_qr_scan"}, "name": "61a75fb0f12bee6fd16df77c0a29c4a4", "is_reserved": 0}, {"is_disabled": 0, "fusion_lon": 0.0, "fusion_lat": 0.0, "lat": 38.90957616666667, "type": "electric_scooter", "lon": -77.04805716666667, "bike_id": "be3014842fe833718de0d7cbc9a80a8b", "rental_uris": {"android": "https://dc.lft.to/lastmile_qr_scan", "ios": "https://dc.lft.to/lastmile_qr_scan"}, "name": "be3014842fe833718de0d7cbc9a80a8b", "is_reserved": 0}, {"is_disabled": 0, "fusion_lon": 0.0, "fusion_lat": 0.0, "lat": 38.960493666666665, "type": "electric_scooter", "lon": -77.08567683333334, "bike_id": "818cd7ec79d3e6039663bbb453148cb9", "rental_uris": {"android": "https://dc.lft.to/lastmile_qr_scan", "ios": "https://dc.lft.to/lastmile_qr_scan"}, "name": "818cd7ec79d3e6039663bbb453148cb9", "is_reserved": 0}, {"is_disabled": 0, "fusion_lon": 0.0, "fusion_lat": 0.0, "lat": 38.90184283333333, "type": "electric_scooter", "lon": -77.05000633333333, "bike_id": "c1bcaa2fcad7bb226a3937173bac9d92", "rental_uris": {"android": "https://dc.lft.to/lastmile_qr_scan", "ios": "https://dc.lft.to/lastmile_qr_scan"}, "name": "c1bcaa2fcad7bb226a3937173bac9d92", "is_reserved": 0}, {"is_disabled": 0, "fusion_lon": 0.0, "fusion_lat": 0.0, "lat": 38.93149983333333, "type": "electric_scooter", "lon": -77.04128933333334, "bike_id": "2007c3eddabae5d9334225ddf867c968", "rental_uris": {"android": "https://dc.lft.to/lastmile_qr_scan", "ios": "https://dc.lft.to/lastmile_qr_scan"}, "name": "2007c3eddabae5d9334225ddf867c968", "is_reserved": 0}, {"is_disabled": 0, "fusion_lon": 0.0, "fusion_lat": 0.0, "lat": 38.89324766666667, "type": "electric_scooter", "lon": -77.02125516666666, "bike_id": "774b7ee03bd128b849b45f0e91514140", "rental_uris": {"android": "https://dc.lft.to/lastmile_qr_scan", "ios": "https://dc.lft.to/lastmile_qr_scan"}, "name": "774b7ee03bd128b849b45f0e91514140", "is_reserved": 0}, {"is_disabled": 0, "fusion_lon": 0.0, "fusion_lat": 0.0, "lat": 38.89551766666666, "type": "electric_scooter", "lon": -76.948779, "bike_id": "35d4b5de7b833ce66fe4d69ce985d97e", "rental_uris": {"android": "https://dc.lft.to/lastmile_qr_scan", "ios": "https://dc.lft.to/lastmile_qr_scan"}, "name": "35d4b5de7b833ce66fe4d69ce985d97e", "is_reserved": 0}, {"is_disabled": 0, "fusion_lon": 0.0, "fusion_lat": 0.0, "lat": 38.8651925, "type": "electric_scooter", "lon": -76.98964566666666, "bike_id": "068ebe0e318a0de84f8e48b2f7eb648f", "rental_uris": {"android": "https://dc.lft.to/lastmile_qr_scan", "ios": "https://dc.lft.to/lastmile_qr_scan"}, "name": "068ebe0e318a0de84f8e48b2f7eb648f", "is_reserved": 0}, {"is_disabled": 0, "fusion_lon": 0.0, "fusion_lat": 0.0, "lat": 38.90699333333333, "type": "electric_scooter", "lon": -77.02695466666667, "bike_id": "bf0c66b70f5ef3a664c9dacc93243f56", "rental_uris": {"android": "https://dc.lft.to/lastmile_qr_scan", "ios": "https://dc.lft.to/lastmile_qr_scan"}, "name": "bf0c66b70f5ef3a664c9dacc93243f56", "is_reserved": 0}, {"is_disabled": 0, "fusion_lon": 0.0, "fusion_lat": 0.0, "lat": 38.98824366666667, "type": "electric_bike", "lon": -76.9874495, "bike_id": "2179ad4cb39cfc053de58a8f69cdb7cb", "rental_uris": {"android": "https://dc.lft.to/lastmile_qr_scan", "ios": "https://dc.lft.to/lastmile_qr_scan"}, "name": "2179ad4cb39cfc053de58a8f69cdb7cb", "is_reserved": 0}, {"is_disabled": 0, "fusion_lon": 0.0, "fusion_lat": 0.0, "lat": 38.885063, "type": "electric_scooter", "lon": -76.99847516666667, "bike_id": "f44a9fe4b32f42aa7cf9cf7e5dc57e38", "rental_uris": {"android": "https://dc.lft.to/lastmile_qr_scan", "ios": "https://dc.lft.to/lastmile_qr_scan"}, "name": "f44a9fe4b32f42aa7cf9cf7e5dc57e38", "is_reserved": 0}, {"is_disabled": 0, "fusion_lon": 0.0, "fusion_lat": 0.0, "lat": 38.920311166666664, "type": "electric_scooter", "lon": -77.02584883333333, "bike_id": "3aa04fd0045b66224c5673784f04f611", "rental_uris": {"android": "https://dc.lft.to/lastmile_qr_scan", "ios": "https://dc.lft.to/lastmile_qr_scan"}, "name": "3aa04fd0045b66224c5673784f04f611", "is_reserved": 0}, {"is_disabled": 0, "fusion_lon": 0.0, "fusion_lat": 0.0, "lat": 38.89520516666666, "type": "electric_scooter", "lon": -77.0283665, "bike_id": "560107453c8e7b2a88c2d5c05a9aaa02", "rental_uris": {"android": "https://dc.lft.to/lastmile_qr_scan", "ios": "https://dc.lft.to/lastmile_qr_scan"}, "name": "560107453c8e7b2a88c2d5c05a9aaa02", "is_reserved": 0}, {"is_disabled": 0, "fusion_lon": 0.0, "fusion_lat": 0.0, "lat": 38.952095166666666, "type": "electric_scooter", "lon": -77.03629716666667, "bike_id": "15a4f67cfa5efd6cd4d2414da210ffd8", "rental_uris": {"android": "https://dc.lft.to/lastmile_qr_scan", "ios": "https://dc.lft.to/lastmile_qr_scan"}, "name": "15a4f67cfa5efd6cd4d2414da210ffd8", "is_reserved": 0}, {"is_disabled": 0, "fusion_lon": 0.0, "fusion_lat": 0.0, "lat": 38.88428183333333, "type": "electric_scooter", "lon": -77.02964016666667, "bike_id": "6a7aa73c9c002fdf2de591adfe33ec55", "rental_uris": {"android": "https://dc.lft.to/lastmile_qr_scan", "ios": "https://dc.lft.to/lastmile_qr_scan"}, "name": "6a7aa73c9c002fdf2de591adfe33ec55", "is_reserved": 0}, {"is_disabled": 0, "fusion_lon": 0.0, "fusion_lat": 0.0, "lat": 38.918741833333335, "type": "electric_scooter", "lon": -77.04457133333334, "bike_id": "c75d6a7cda193c977089deb068a9c73a", "rental_uris": {"android": "https://dc.lft.to/lastmile_qr_scan", "ios": "https://dc.lft.to/lastmile_qr_scan"}, "name": "c75d6a7cda193c977089deb068a9c73a", "is_reserved": 0}, {"is_disabled": 0, "fusion_lon": 0.0, "fusion_lat": 0.0, "lat": 38.90848716666667, "type": "electric_scooter", "lon": -77.05505366666667, "bike_id": "1443cbe04222220ce1b0df75bde56863", "rental_uris": {"android": "https://dc.lft.to/lastmile_qr_scan", "ios": "https://dc.lft.to/lastmile_qr_scan"}, "name": "1443cbe04222220ce1b0df75bde56863", "is_reserved": 0}, {"is_disabled": 0, "fusion_lon": 0.0, "fusion_lat": 0.0, "lat": 38.887423166666665, "type": "electric_scooter", "lon": -77.0143145, "bike_id": "eb9e97e4901752a2ef957c94e46ba936", "rental_uris": {"android": "https://dc.lft.to/lastmile_qr_scan", "ios": "https://dc.lft.to/lastmile_qr_scan"}, "name": "eb9e97e4901752a2ef957c94e46ba936", "is_reserved": 0}, {"is_disabled": 0, "fusion_lon": 0.0, "fusion_lat": 0.0, "lat": 38.9050595, "type": "electric_scooter", "lon": -76.98238283333333, "bike_id": "a53043ac3767006d0f4bd50a56e8ac14", "rental_uris": {"android": "https://dc.lft.to/lastmile_qr_scan", "ios": "https://dc.lft.to/lastmile_qr_scan"}, "name": "a53043ac3767006d0f4bd50a56e8ac14", "is_reserved": 0}, {"is_disabled": 0, "fusion_lon": 0.0, "fusion_lat": 0.0, "lat": 38.92308166666667, "type": "electric_scooter", "lon": -77.04039366666667, "bike_id": "c214bf811ee594512664d7d71b6233d2", "rental_uris": {"android": "https://dc.lft.to/lastmile_qr_scan", "ios": "https://dc.lft.to/lastmile_qr_scan"}, "name": "c214bf811ee594512664d7d71b6233d2", "is_reserved": 0}, {"is_disabled": 0, "fusion_lon": 0.0, "fusion_lat": 0.0, "lat": 38.8978775, "type": "electric_scooter", "lon": -77.00347533333333, "bike_id": "d40b8fad03ddda68005665afb2c381ba", "rental_uris": {"android": "https://dc.lft.to/lastmile_qr_scan", "ios": "https://dc.lft.to/lastmile_qr_scan"}, "name": "d40b8fad03ddda68005665afb2c381ba", "is_reserved": 0}, {"is_disabled": 0, "fusion_lon": 0.0, "fusion_lat": 0.0, "lat": 38.8895535, "type": "electric_scooter", "lon": -76.99143133333334, "bike_id": "8de58b8cd5372a585be25f86660f0618", "rental_uris": {"android": "https://dc.lft.to/lastmile_qr_scan", "ios": "https://dc.lft.to/lastmile_qr_scan"}, "name": "8de58b8cd5372a585be25f86660f0618", "is_reserved": 0}, {"is_disabled": 0, "fusion_lon": 0.0, "fusion_lat": 0.0, "lat": 38.89387, "type": "electric_scooter", "lon": -76.94999566666667, "bike_id": "0462fe6107a4d9fd44bdad0f4a92bb2b", "rental_uris": {"android": "https://dc.lft.to/lastmile_qr_scan", "ios": "https://dc.lft.to/lastmile_qr_scan"}, "name": "0462fe6107a4d9fd44bdad0f4a92bb2b", "is_reserved": 0}, {"is_disabled": 0, "fusion_lon": 0.0, "fusion_lat": 0.0, "lat": 39.054525166666664, "type": "electric_bike", "lon": -77.14321983333333, "bike_id": "7f387231084cf83b71ede2f9edb1b3da", "rental_uris": {"android": "https://dc.lft.to/lastmile_qr_scan", "ios": "https://dc.lft.to/lastmile_qr_scan"}, "name": "7f387231084cf83b71ede2f9edb1b3da", "is_reserved": 0}, {"is_disabled": 0, "fusion_lon": 0.0, "fusion_lat": 0.0, "lat": 38.92836466666667, "type": "electric_scooter", "lon": -77.05543383333334, "bike_id": "1395b7a691e1e0a087834244a88e07a8", "rental_uris": {"android": "https://dc.lft.to/lastmile_qr_scan", "ios": "https://dc.lft.to/lastmile_qr_scan"}, "name": "1395b7a691e1e0a087834244a88e07a8", "is_reserved": 0}, {"is_disabled": 0, "fusion_lon": 0.0, "fusion_lat": 0.0, "lat": 38.886662, "type": "electric_scooter", "lon": -77.00370216666667, "bike_id": "3a7157621f9fd1d446366c95237e0c54", "rental_uris": {"android": "https://dc.lft.to/lastmile_qr_scan", "ios": "https://dc.lft.to/lastmile_qr_scan"}, "name": "3a7157621f9fd1d446366c95237e0c54", "is_reserved": 0}, {"is_disabled": 0, "fusion_lon": 0.0, "fusion_lat": 0.0, "lat": 38.897279, "type": "electric_bike", "lon": -76.905365, "bike_id": "87c02b7767100dd8f2201297502ab684", "rental_uris": {"android": "https://dc.lft.to/lastmile_qr_scan", "ios": "https://dc.lft.to/lastmile_qr_scan"}, "name": "87c02b7767100dd8f2201297502ab684", "is_reserved": 0}, {"is_disabled": 0, "fusion_lon": 0.0, "fusion_lat": 0.0, "lat": 38.913092, "type": "electric_scooter", "lon": -77.04159483333333, "bike_id": "39410ba6ed58ee22a9e6cbb077f9c3f7", "rental_uris": {"android": "https://dc.lft.to/lastmile_qr_scan", "ios": "https://dc.lft.to/lastmile_qr_scan"}, "name": "39410ba6ed58ee22a9e6cbb077f9c3f7", "is_reserved": 0}, {"is_disabled": 0, "fusion_lon": 0.0, "fusion_lat": 0.0, "lat": 39.05203083333333, "type": "electric_bike", "lon": -77.04408466666666, "bike_id": "ce781c39c980472a23ba33fe00cb30d9", "rental_uris": {"android": "https://dc.lft.to/lastmile_qr_scan", "ios": "https://dc.lft.to/lastmile_qr_scan"}, "name": "ce781c39c980472a23ba33fe00cb30d9", "is_reserved": 0}, {"is_disabled": 0, "fusion_lon": 0.0, "fusion_lat": 0.0, "lat": 38.913154, "type": "electric_scooter", "lon": -77.02188683333334, "bike_id": "c988213919c78c8aacdf7792177fa0ed", "rental_uris": {"android": "https://dc.lft.to/lastmile_qr_scan", "ios": "https://dc.lft.to/lastmile_qr_scan"}, "name": "c988213919c78c8aacdf7792177fa0ed", "is_reserved": 0}, {"is_disabled": 0, "fusion_lon": 0.0, "fusion_lat": 0.0, "lat": 38.96817133333333, "type": "electric_scooter", "lon": -77.00888783333333, "bike_id": "12659cf030fa8e05987f1480ff8849ee", "rental_uris": {"android": "https://dc.lft.to/lastmile_qr_scan", "ios": "https://dc.lft.to/lastmile_qr_scan"}, "name": "12659cf030fa8e05987f1480ff8849ee", "is_reserved": 0}, {"is_disabled": 0, "fusion_lon": 0.0, "fusion_lat": 0.0, "lat": 38.9175635, "type": "electric_scooter", "lon": -77.01602466666667, "bike_id": "eb834a21aad43473ea1d8f06d42c8ee8", "rental_uris": {"android": "https://dc.lft.to/lastmile_qr_scan", "ios": "https://dc.lft.to/lastmile_qr_scan"}, "name": "eb834a21aad43473ea1d8f06d42c8ee8", "is_reserved": 0}, {"is_disabled": 0, "fusion_lon": 0.0, "fusion_lat": 0.0, "lat": 38.9063255, "type": "electric_scooter", "lon": -77.03153283333333, "bike_id": "574d4095b6b3009d86ac77fea85ee89a", "rental_uris": {"android": "https://dc.lft.to/lastmile_qr_scan", "ios": "https://dc.lft.to/lastmile_qr_scan"}, "name": "574d4095b6b3009d86ac77fea85ee89a", "is_reserved": 0}, {"is_disabled": 0, "fusion_lon": 0.0, "fusion_lat": 0.0, "lat": 38.92857683333333, "type": "electric_bike", "lon": -76.98934816666667, "bike_id": "5709b0f1e0fe339b4c9b816d63bfabe3", "rental_uris": {"android": "https://dc.lft.to/lastmile_qr_scan", "ios": "https://dc.lft.to/lastmile_qr_scan"}, "name": "5709b0f1e0fe339b4c9b816d63bfabe3", "is_reserved": 0}, {"is_disabled": 0, "fusion_lon": 0.0, "fusion_lat": 0.0, "lat": 38.90353116666667, "type": "electric_scooter", "lon": -77.03466683333333, "bike_id": "70fa5874b8455714e1cf70e7d9d85167", "rental_uris": {"android": "https://dc.lft.to/lastmile_qr_scan", "ios": "https://dc.lft.to/lastmile_qr_scan"}, "name": "70fa5874b8455714e1cf70e7d9d85167", "is_reserved": 0}, {"is_disabled": 0, "fusion_lon": 0.0, "fusion_lat": 0.0, "lat": 38.901842, "type": "electric_scooter", "lon": -77.05004916666667, "bike_id": "9f52838a22733ec4e4caa3b4c1131cd6", "rental_uris": {"android": "https://dc.lft.to/lastmile_qr_scan", "ios": "https://dc.lft.to/lastmile_qr_scan"}, "name": "9f52838a22733ec4e4caa3b4c1131cd6", "is_reserved": 0}, {"is_disabled": 0, "fusion_lon": 0.0, "fusion_lat": 0.0, "lat": 38.916556, "type": "electric_scooter", "lon": -77.04651816666667, "bike_id": "60c54ce21fbd612d099ecf1634964daf", "rental_uris": {"android": "https://dc.lft.to/lastmile_qr_scan", "ios": "https://dc.lft.to/lastmile_qr_scan"}, "name": "60c54ce21fbd612d099ecf1634964daf", "is_reserved": 0}, {"is_disabled": 0, "fusion_lon": 0.0, "fusion_lat": 0.0, "lat": 38.9112275, "type": "electric_scooter", "lon": -77.04092516666667, "bike_id": "88b9537d4b2d4679429ae3d3469a0d68", "rental_uris": {"android": "https://dc.lft.to/lastmile_qr_scan", "ios": "https://dc.lft.to/lastmile_qr_scan"}, "name": "88b9537d4b2d4679429ae3d3469a0d68", "is_reserved": 0}, {"is_disabled": 0, "fusion_lon": 0.0, "fusion_lat": 0.0, "lat": 38.8891115, "type": "electric_scooter", "lon": -76.9800575, "bike_id": "7538509f43efd99997dee252b351d3fb", "rental_uris": {"android": "https://dc.lft.to/lastmile_qr_scan", "ios": "https://dc.lft.to/lastmile_qr_scan"}, "name": "7538509f43efd99997dee252b351d3fb", "is_reserved": 0}, {"is_disabled": 0, "fusion_lon": 0.0, "fusion_lat": 0.0, "lat": 38.90589933333333, "type": "electric_scooter", "lon": -77.06913833333333, "bike_id": "a78b9751baa3d07a0a6333e0de171000", "rental_uris": {"android": "https://dc.lft.to/lastmile_qr_scan", "ios": "https://dc.lft.to/lastmile_qr_scan"}, "name": "a78b9751baa3d07a0a6333e0de171000", "is_reserved": 0}, {"is_disabled": 0, "fusion_lon": 0.0, "fusion_lat": 0.0, "lat": 38.913022, "type": "electric_scooter", "lon": -77.03199983333333, "bike_id": "7b12d590f261dfd6de982c8941eae664", "rental_uris": {"android": "https://dc.lft.to/lastmile_qr_scan", "ios": "https://dc.lft.to/lastmile_qr_scan"}, "name": "7b12d590f261dfd6de982c8941eae664", "is_reserved": 0}, {"is_disabled": 0, "fusion_lon": 0.0, "fusion_lat": 0.0, "lat": 38.924363666666665, "type": "electric_bike", "lon": -76.90756666666667, "bike_id": "5f396416f030f3a974a230cafb08268e", "rental_uris": {"android": "https://dc.lft.to/lastmile_qr_scan", "ios": "https://dc.lft.to/lastmile_qr_scan"}, "name": "5f396416f030f3a974a230cafb08268e", "is_reserved": 0}, {"is_disabled": 0, "fusion_lon": 0.0, "fusion_lat": 0.0, "lat": 38.90033616666667, "type": "electric_scooter", "lon": -77.0340665, "bike_id": "0caad391408111c8f91dcb66cf3df0e5", "rental_uris": {"android": "https://dc.lft.to/lastmile_qr_scan", "ios": "https://dc.lft.to/lastmile_qr_scan"}, "name": "0caad391408111c8f91dcb66cf3df0e5", "is_reserved": 0}, {"is_disabled": 0, "fusion_lon": 0.0, "fusion_lat": 0.0, "lat": 38.917014333333334, "type": "electric_scooter", "lon": -77.02608166666667, "bike_id": "64467d98d51fc2c51e482cdd2e2bde9a", "rental_uris": {"android": "https://dc.lft.to/lastmile_qr_scan", "ios": "https://dc.lft.to/lastmile_qr_scan"}, "name": "64467d98d51fc2c51e482cdd2e2bde9a", "is_reserved": 0}, {"is_disabled": 0, "fusion_lon": 0.0, "fusion_lat": 0.0, "lat": 38.909386833333336, "type": "electric_scooter", "lon": -77.0466775, "bike_id": "82680eeb66360d6b2dff11b220ea890e", "rental_uris": {"android": "https://dc.lft.to/lastmile_qr_scan", "ios": "https://dc.lft.to/lastmile_qr_scan"}, "name": "82680eeb66360d6b2dff11b220ea890e", "is_reserved": 0}, {"is_disabled": 0, "fusion_lon": 0.0, "fusion_lat": 0.0, "lat": 38.96148133333333, "type": "electric_scooter", "lon": -77.02803133333333, "bike_id": "a9a8234e15d1fdb9bb398ec9c1a10c11", "rental_uris": {"android": "https://dc.lft.to/lastmile_qr_scan", "ios": "https://dc.lft.to/lastmile_qr_scan"}, "name": "a9a8234e15d1fdb9bb398ec9c1a10c11", "is_reserved": 0}, {"is_disabled": 0, "fusion_lon": 0.0, "fusion_lat": 0.0, "lat": 38.908223, "type": "electric_scooter", "lon": -77.00142933333333, "bike_id": "99134b1e57ec8443e1c02d1a4491c8cf", "rental_uris": {"android": "https://dc.lft.to/lastmile_qr_scan", "ios": "https://dc.lft.to/lastmile_qr_scan"}, "name": "99134b1e57ec8443e1c02d1a4491c8cf", "is_reserved": 0}, {"is_disabled": 0, "fusion_lon": 0.0, "fusion_lat": 0.0, "lat": 38.907076, "type": "electric_scooter", "lon": -77.063173, "bike_id": "3e400177c561b56b2b014d302183c1db", "rental_uris": {"android": "https://dc.lft.to/lastmile_qr_scan", "ios": "https://dc.lft.to/lastmile_qr_scan"}, "name": "3e400177c561b56b2b014d302183c1db", "is_reserved": 0}, {"is_disabled": 0, "fusion_lon": 0.0, "fusion_lat": 0.0, "lat": 38.887089, "type": "electric_scooter", "lon": -77.02205366666666, "bike_id": "723ef8065e8cc0edd2244d9d35be02b2", "rental_uris": {"android": "https://dc.lft.to/lastmile_qr_scan", "ios": "https://dc.lft.to/lastmile_qr_scan"}, "name": "723ef8065e8cc0edd2244d9d35be02b2", "is_reserved": 0}, {"is_disabled": 0, "fusion_lon": 0.0, "fusion_lat": 0.0, "lat": 38.90258133333333, "type": "electric_scooter", "lon": -77.0001875, "bike_id": "9e12f7b8e37cd12c99802a0558a46dd5", "rental_uris": {"android": "https://dc.lft.to/lastmile_qr_scan", "ios": "https://dc.lft.to/lastmile_qr_scan"}, "name": "9e12f7b8e37cd12c99802a0558a46dd5", "is_reserved": 0}, {"is_disabled": 0, "fusion_lon": 0.0, "fusion_lat": 0.0, "lat": 38.907255, "type": "electric_scooter", "lon": -77.02411916666667, "bike_id": "bfa918d8bcfd47406bc67533e7df79d4", "rental_uris": {"android": "https://dc.lft.to/lastmile_qr_scan", "ios": "https://dc.lft.to/lastmile_qr_scan"}, "name": "bfa918d8bcfd47406bc67533e7df79d4", "is_reserved": 0}, {"is_disabled": 0, "fusion_lon": 0.0, "fusion_lat": 0.0, "lat": 38.9306725, "type": "electric_scooter", "lon": -77.0380125, "bike_id": "46cc7d46ec7fba9695d6cf91080323e4", "rental_uris": {"android": "https://dc.lft.to/lastmile_qr_scan", "ios": "https://dc.lft.to/lastmile_qr_scan"}, "name": "46cc7d46ec7fba9695d6cf91080323e4", "is_reserved": 0}, {"is_disabled": 0, "fusion_lon": 0.0, "fusion_lat": 0.0, "lat": 38.864598, "type": "electric_scooter", "lon": -76.99607283333333, "bike_id": "cf4d72a3eb5163ac5b72c1a4da44b3f7", "rental_uris": {"android": "https://dc.lft.to/lastmile_qr_scan", "ios": "https://dc.lft.to/lastmile_qr_scan"}, "name": "cf4d72a3eb5163ac5b72c1a4da44b3f7", "is_reserved": 0}, {"is_disabled": 0, "fusion_lon": 0.0, "fusion_lat": 0.0, "lat": 38.9408085, "type": "electric_scooter", "lon": -77.06135783333333, "bike_id": "3c2e0fe380c27a3042a663c9f1d5c60b", "rental_uris": {"android": "https://dc.lft.to/lastmile_qr_scan", "ios": "https://dc.lft.to/lastmile_qr_scan"}, "name": "3c2e0fe380c27a3042a663c9f1d5c60b", "is_reserved": 0}, {"is_disabled": 0, "fusion_lon": 0.0, "fusion_lat": 0.0, "lat": 38.95211333333334, "type": "electric_scooter", "lon": -77.036299, "bike_id": "9090cc19e29336595b90787b72694f6f", "rental_uris": {"android": "https://dc.lft.to/lastmile_qr_scan", "ios": "https://dc.lft.to/lastmile_qr_scan"}, "name": "9090cc19e29336595b90787b72694f6f", "is_reserved": 0}, {"is_disabled": 0, "fusion_lon": 0.0, "fusion_lat": 0.0, "lat": 38.89685983333333, "type": "electric_scooter", "lon": -77.00496466666667, "bike_id": "bcd730a76771a1881763f07c9f1ca4d6", "rental_uris": {"android": "https://dc.lft.to/lastmile_qr_scan", "ios": "https://dc.lft.to/lastmile_qr_scan"}, "name": "bcd730a76771a1881763f07c9f1ca4d6", "is_reserved": 0}, {"is_disabled": 0, "fusion_lon": 0.0, "fusion_lat": 0.0, "lat": 38.909455, "type": "electric_scooter", "lon": -77.02177266666666, "bike_id": "b2df36b7b3845fa5d60f1b6389d12c3a", "rental_uris": {"android": "https://dc.lft.to/lastmile_qr_scan", "ios": "https://dc.lft.to/lastmile_qr_scan"}, "name": "b2df36b7b3845fa5d60f1b6389d12c3a", "is_reserved": 0}, {"is_disabled": 0, "fusion_lon": 0.0, "fusion_lat": 0.0, "lat": 38.9008555, "type": "electric_scooter", "lon": -77.04344316666666, "bike_id": "33940d05d60bfdb58a78dede151f28fb", "rental_uris": {"android": "https://dc.lft.to/lastmile_qr_scan", "ios": "https://dc.lft.to/lastmile_qr_scan"}, "name": "33940d05d60bfdb58a78dede151f28fb", "is_reserved": 0}, {"is_disabled": 0, "fusion_lon": 0.0, "fusion_lat": 0.0, "lat": 38.962374833333335, "type": "electric_scooter", "lon": -77.02794983333334, "bike_id": "fbff28ff49a55440de6a12e432573aeb", "rental_uris": {"android": "https://dc.lft.to/lastmile_qr_scan", "ios": "https://dc.lft.to/lastmile_qr_scan"}, "name": "fbff28ff49a55440de6a12e432573aeb", "is_reserved": 0}, {"is_disabled": 0, "fusion_lon": 0.0, "fusion_lat": 0.0, "lat": 38.846170666666666, "type": "electric_scooter", "lon": -76.99631133333334, "bike_id": "bfce5cc71272c607600b74c9c8285486", "rental_uris": {"android": "https://dc.lft.to/lastmile_qr_scan", "ios": "https://dc.lft.to/lastmile_qr_scan"}, "name": "bfce5cc71272c607600b74c9c8285486", "is_reserved": 0}, {"is_disabled": 0, "fusion_lon": 0.0, "fusion_lat": 0.0, "lat": 38.88354183333333, "type": "electric_scooter", "lon": -77.02457733333334, "bike_id": "7d21693f029cad340e887a9391fe102d", "rental_uris": {"android": "https://dc.lft.to/lastmile_qr_scan", "ios": "https://dc.lft.to/lastmile_qr_scan"}, "name": "7d21693f029cad340e887a9391fe102d", "is_reserved": 0}, {"is_disabled": 0, "fusion_lon": 0.0, "fusion_lat": 0.0, "lat": 38.92438466666667, "type": "electric_scooter", "lon": -77.02608616666667, "bike_id": "50f1b741d95f8751814c9c920c69948b", "rental_uris": {"android": "https://dc.lft.to/lastmile_qr_scan", "ios": "https://dc.lft.to/lastmile_qr_scan"}, "name": "50f1b741d95f8751814c9c920c69948b", "is_reserved": 0}, {"is_disabled": 0, "fusion_lon": 0.0, "fusion_lat": 0.0, "lat": 38.927665, "type": "electric_scooter", "lon": -77.0278595, "bike_id": "5217c4c3350b14ba7faa869fa810a00d", "rental_uris": {"android": "https://dc.lft.to/lastmile_qr_scan", "ios": "https://dc.lft.to/lastmile_qr_scan"}, "name": "5217c4c3350b14ba7faa869fa810a00d", "is_reserved": 0}, {"is_disabled": 0, "fusion_lon": 0.0, "fusion_lat": 0.0, "lat": 38.91813616666666, "type": "electric_scooter", "lon": -77.03132116666667, "bike_id": "c28e794c78c8f150447641fab5a168e1", "rental_uris": {"android": "https://dc.lft.to/lastmile_qr_scan", "ios": "https://dc.lft.to/lastmile_qr_scan"}, "name": "c28e794c78c8f150447641fab5a168e1", "is_reserved": 0}, {"is_disabled": 0, "fusion_lon": 0.0, "fusion_lat": 0.0, "lat": 38.86239116666667, "type": "electric_scooter", "lon": -76.994883, "bike_id": "301680d123c9d1630c998fbbfad081dd", "rental_uris": {"android": "https://dc.lft.to/lastmile_qr_scan", "ios": "https://dc.lft.to/lastmile_qr_scan"}, "name": "301680d123c9d1630c998fbbfad081dd", "is_reserved": 0}, {"is_disabled": 0, "fusion_lon": 0.0, "fusion_lat": 0.0, "lat": 38.92230216666667, "type": "electric_scooter", "lon": -76.97530233333333, "bike_id": "d59f9a50eecca272bb778e50ea414551", "rental_uris": {"android": "https://dc.lft.to/lastmile_qr_scan", "ios": "https://dc.lft.to/lastmile_qr_scan"}, "name": "d59f9a50eecca272bb778e50ea414551", "is_reserved": 0}, {"is_disabled": 0, "fusion_lon": 0.0, "fusion_lat": 0.0, "lat": 38.90970466666667, "type": "electric_scooter", "lon": -77.03731666666667, "bike_id": "48fffb0b5612a1a002e6c6f4dd939af1", "rental_uris": {"android": "https://dc.lft.to/lastmile_qr_scan", "ios": "https://dc.lft.to/lastmile_qr_scan"}, "name": "48fffb0b5612a1a002e6c6f4dd939af1", "is_reserved": 0}, {"is_disabled": 0, "fusion_lon": 0.0, "fusion_lat": 0.0, "lat": 38.8846865, "type": "electric_scooter", "lon": -76.95227083333333, "bike_id": "bf3ec02e6a4c46355e43b9b3472d1458", "rental_uris": {"android": "https://dc.lft.to/lastmile_qr_scan", "ios": "https://dc.lft.to/lastmile_qr_scan"}, "name": "bf3ec02e6a4c46355e43b9b3472d1458", "is_reserved": 0}, {"is_disabled": 0, "fusion_lon": 0.0, "fusion_lat": 0.0, "lat": 38.90127566666666, "type": "electric_scooter", "lon": -77.019963, "bike_id": "47892b54c8472ba3e0ca911a8ed01888", "rental_uris": {"android": "https://dc.lft.to/lastmile_qr_scan", "ios": "https://dc.lft.to/lastmile_qr_scan"}, "name": "47892b54c8472ba3e0ca911a8ed01888", "is_reserved": 0}, {"is_disabled": 0, "fusion_lon": 0.0, "fusion_lat": 0.0, "lat": 38.92669033333333, "type": "electric_scooter", "lon": -77.10310516666667, "bike_id": "ebd465f7ca1006aa7b69f2b1d4b17a45", "rental_uris": {"android": "https://dc.lft.to/lastmile_qr_scan", "ios": "https://dc.lft.to/lastmile_qr_scan"}, "name": "ebd465f7ca1006aa7b69f2b1d4b17a45", "is_reserved": 0}, {"is_disabled": 0, "fusion_lon": 0.0, "fusion_lat": 0.0, "lat": 38.918184, "type": "electric_scooter", "lon": -77.034536, "bike_id": "43d168c3323bf4722dea00ab40cc1786", "rental_uris": {"android": "https://dc.lft.to/lastmile_qr_scan", "ios": "https://dc.lft.to/lastmile_qr_scan"}, "name": "43d168c3323bf4722dea00ab40cc1786", "is_reserved": 0}, {"is_disabled": 0, "fusion_lon": 0.0, "fusion_lat": 0.0, "lat": 38.95611066666667, "type": "electric_scooter", "lon": -77.03573716666666, "bike_id": "83ca88d3bbcf148bc05ef228acb12bfd", "rental_uris": {"android": "https://dc.lft.to/lastmile_qr_scan", "ios": "https://dc.lft.to/lastmile_qr_scan"}, "name": "83ca88d3bbcf148bc05ef228acb12bfd", "is_reserved": 0}, {"is_disabled": 0, "fusion_lon": 0.0, "fusion_lat": 0.0, "lat": 38.91957016666667, "type": "electric_scooter", "lon": -77.02710833333333, "bike_id": "b9901e340723b36592b1b64ae6d06dba", "rental_uris": {"android": "https://dc.lft.to/lastmile_qr_scan", "ios": "https://dc.lft.to/lastmile_qr_scan"}, "name": "b9901e340723b36592b1b64ae6d06dba", "is_reserved": 0}, {"is_disabled": 0, "fusion_lon": 0.0, "fusion_lat": 0.0, "lat": 38.910295166666664, "type": "electric_scooter", "lon": -76.99336666666666, "bike_id": "c52fac289722e45b6973450590ee4914", "rental_uris": {"android": "https://dc.lft.to/lastmile_qr_scan", "ios": "https://dc.lft.to/lastmile_qr_scan"}, "name": "c52fac289722e45b6973450590ee4914", "is_reserved": 0}, {"is_disabled": 0, "fusion_lon": 0.0, "fusion_lat": 0.0, "lat": 38.902858333333334, "type": "electric_scooter", "lon": -77.02425216666667, "bike_id": "05abd3edbf9fad912b7b3f2ecc576f2d", "rental_uris": {"android": "https://dc.lft.to/lastmile_qr_scan", "ios": "https://dc.lft.to/lastmile_qr_scan"}, "name": "05abd3edbf9fad912b7b3f2ecc576f2d", "is_reserved": 0}, {"is_disabled": 0, "fusion_lon": 0.0, "fusion_lat": 0.0, "lat": 38.91079833333333, "type": "electric_scooter", "lon": -77.01511483333333, "bike_id": "4dc1a0f685408428ed243ec7adabd8de", "rental_uris": {"android": "https://dc.lft.to/lastmile_qr_scan", "ios": "https://dc.lft.to/lastmile_qr_scan"}, "name": "4dc1a0f685408428ed243ec7adabd8de", "is_reserved": 0}, {"is_disabled": 0, "fusion_lon": 0.0, "fusion_lat": 0.0, "lat": 38.90847566666667, "type": "electric_scooter", "lon": -77.06080233333333, "bike_id": "43a3dd7d747af34aa4393fbccd554a60", "rental_uris": {"android": "https://dc.lft.to/lastmile_qr_scan", "ios": "https://dc.lft.to/lastmile_qr_scan"}, "name": "43a3dd7d747af34aa4393fbccd554a60", "is_reserved": 0}, {"is_disabled": 0, "fusion_lon": 0.0, "fusion_lat": 0.0, "lat": 38.91777883333334, "type": "electric_scooter", "lon": -77.0429715, "bike_id": "ef832bf17dba68c46eb4ba7fbb140e9a", "rental_uris": {"android": "https://dc.lft.to/lastmile_qr_scan", "ios": "https://dc.lft.to/lastmile_qr_scan"}, "name": "ef832bf17dba68c46eb4ba7fbb140e9a", "is_reserved": 0}, {"is_disabled": 0, "fusion_lon": 0.0, "fusion_lat": 0.0, "lat": 38.8735045, "type": "electric_scooter", "lon": -77.017361, "bike_id": "f1dc43631768dcf5a0baf61ce5f7854b", "rental_uris": {"android": "https://dc.lft.to/lastmile_qr_scan", "ios": "https://dc.lft.to/lastmile_qr_scan"}, "name": "f1dc43631768dcf5a0baf61ce5f7854b", "is_reserved": 0}, {"is_disabled": 0, "fusion_lon": 0.0, "fusion_lat": 0.0, "lat": 38.903022666666665, "type": "electric_scooter", "lon": -77.0387675, "bike_id": "fce3c018b4b521aa4c1596cc6b6abefc", "rental_uris": {"android": "https://dc.lft.to/lastmile_qr_scan", "ios": "https://dc.lft.to/lastmile_qr_scan"}, "name": "fce3c018b4b521aa4c1596cc6b6abefc", "is_reserved": 0}, {"is_disabled": 0, "fusion_lon": 0.0, "fusion_lat": 0.0, "lat": 38.9160545, "type": "electric_scooter", "lon": -77.04601733333334, "bike_id": "f9412cc44d7514502323f68078af5611", "rental_uris": {"android": "https://dc.lft.to/lastmile_qr_scan", "ios": "https://dc.lft.to/lastmile_qr_scan"}, "name": "f9412cc44d7514502323f68078af5611", "is_reserved": 0}, {"is_disabled": 0, "fusion_lon": 0.0, "fusion_lat": 0.0, "lat": 38.935218666666664, "type": "electric_scooter", "lon": -77.06633, "bike_id": "dc61804418b0ccdad0b1cc2644902505", "rental_uris": {"android": "https://dc.lft.to/lastmile_qr_scan", "ios": "https://dc.lft.to/lastmile_qr_scan"}, "name": "dc61804418b0ccdad0b1cc2644902505", "is_reserved": 0}, {"is_disabled": 0, "fusion_lon": 0.0, "fusion_lat": 0.0, "lat": 38.896545833333334, "type": "electric_scooter", "lon": -77.026123, "bike_id": "c29e3b388ef839f5eee941c65ec9ab27", "rental_uris": {"android": "https://dc.lft.to/lastmile_qr_scan", "ios": "https://dc.lft.to/lastmile_qr_scan"}, "name": "c29e3b388ef839f5eee941c65ec9ab27", "is_reserved": 0}, {"is_disabled": 0, "fusion_lon": 0.0, "fusion_lat": 0.0, "lat": 38.9363885, "type": "electric_scooter", "lon": -77.02693683333334, "bike_id": "c7dea8b71396c4958b40c7b5723da153", "rental_uris": {"android": "https://dc.lft.to/lastmile_qr_scan", "ios": "https://dc.lft.to/lastmile_qr_scan"}, "name": "c7dea8b71396c4958b40c7b5723da153", "is_reserved": 0}, {"is_disabled": 0, "fusion_lon": 0.0, "fusion_lat": 0.0, "lat": 38.897450166666665, "type": "electric_scooter", "lon": -77.05160316666667, "bike_id": "c5d9de03d53498a646f448b9eeb7e8f4", "rental_uris": {"android": "https://dc.lft.to/lastmile_qr_scan", "ios": "https://dc.lft.to/lastmile_qr_scan"}, "name": "c5d9de03d53498a646f448b9eeb7e8f4", "is_reserved": 0}, {"is_disabled": 0, "fusion_lon": 0.0, "fusion_lat": 0.0, "lat": 38.896536166666664, "type": "electric_scooter", "lon": -77.02702533333333, "bike_id": "6f789a1d315322b5ed1fa00448b6b92e", "rental_uris": {"android": "https://dc.lft.to/lastmile_qr_scan", "ios": "https://dc.lft.to/lastmile_qr_scan"}, "name": "6f789a1d315322b5ed1fa00448b6b92e", "is_reserved": 0}, {"is_disabled": 0, "fusion_lon": 0.0, "fusion_lat": 0.0, "lat": 38.90721383333333, "type": "electric_scooter", "lon": -77.03195216666667, "bike_id": "de9da3a7d1307818d11ee96e0d8a3441", "rental_uris": {"android": "https://dc.lft.to/lastmile_qr_scan", "ios": "https://dc.lft.to/lastmile_qr_scan"}, "name": "de9da3a7d1307818d11ee96e0d8a3441", "is_reserved": 0}, {"is_disabled": 0, "fusion_lon": 0.0, "fusion_lat": 0.0, "lat": 38.89909033333333, "type": "electric_bike", "lon": -76.9857245, "bike_id": "d1ca655854bb7f3313ff96ac2c0cbf8e", "rental_uris": {"android": "https://dc.lft.to/lastmile_qr_scan", "ios": "https://dc.lft.to/lastmile_qr_scan"}, "name": "d1ca655854bb7f3313ff96ac2c0cbf8e", "is_reserved": 0}, {"is_disabled": 0, "fusion_lon": 0.0, "fusion_lat": 0.0, "lat": 38.930807, "type": "electric_scooter", "lon": -77.036294, "bike_id": "e9428631707eb1c7e8534d068a1b7df5", "rental_uris": {"android": "https://dc.lft.to/lastmile_qr_scan", "ios": "https://dc.lft.to/lastmile_qr_scan"}, "name": "e9428631707eb1c7e8534d068a1b7df5", "is_reserved": 0}, {"is_disabled": 0, "fusion_lon": 0.0, "fusion_lat": 0.0, "lat": 38.9066365, "type": "electric_scooter", "lon": -77.027044, "bike_id": "b79f2b85a85b8a427b01e4c4f8f5801a", "rental_uris": {"android": "https://dc.lft.to/lastmile_qr_scan", "ios": "https://dc.lft.to/lastmile_qr_scan"}, "name": "b79f2b85a85b8a427b01e4c4f8f5801a", "is_reserved": 0}, {"is_disabled": 0, "fusion_lon": 0.0, "fusion_lat": 0.0, "lat": 38.91690066666666, "type": "electric_scooter", "lon": -77.0368715, "bike_id": "e0f64ad6704096f2bfb4db41c7886f61", "rental_uris": {"android": "https://dc.lft.to/lastmile_qr_scan", "ios": "https://dc.lft.to/lastmile_qr_scan"}, "name": "e0f64ad6704096f2bfb4db41c7886f61", "is_reserved": 0}, {"is_disabled": 0, "fusion_lon": 0.0, "fusion_lat": 0.0, "lat": 38.924839666666664, "type": "electric_scooter", "lon": -77.02693433333333, "bike_id": "c0e7db5f040d7d5127f3284155d257b7", "rental_uris": {"android": "https://dc.lft.to/lastmile_qr_scan", "ios": "https://dc.lft.to/lastmile_qr_scan"}, "name": "c0e7db5f040d7d5127f3284155d257b7", "is_reserved": 0}, {"is_disabled": 0, "fusion_lon": 0.0, "fusion_lat": 0.0, "lat": 38.869587833333334, "type": "electric_scooter", "lon": -76.97922433333333, "bike_id": "48c48ccb3aa0dfb56626a2d3ac5683be", "rental_uris": {"android": "https://dc.lft.to/lastmile_qr_scan", "ios": "https://dc.lft.to/lastmile_qr_scan"}, "name": "48c48ccb3aa0dfb56626a2d3ac5683be", "is_reserved": 0}, {"is_disabled": 0, "fusion_lon": 0.0, "fusion_lat": 0.0, "lat": 38.897625, "type": "electric_scooter", "lon": -77.02194483333334, "bike_id": "c3488809d55793d8e3821819d1ce9ad2", "rental_uris": {"android": "https://dc.lft.to/lastmile_qr_scan", "ios": "https://dc.lft.to/lastmile_qr_scan"}, "name": "c3488809d55793d8e3821819d1ce9ad2", "is_reserved": 0}, {"is_disabled": 0, "fusion_lon": 0.0, "fusion_lat": 0.0, "lat": 38.928239, "type": "electric_scooter", "lon": -77.0225555, "bike_id": "f5be89bdc3f8e72760a0c2aa6be2d7fe", "rental_uris": {"android": "https://dc.lft.to/lastmile_qr_scan", "ios": "https://dc.lft.to/lastmile_qr_scan"}, "name": "f5be89bdc3f8e72760a0c2aa6be2d7fe", "is_reserved": 0}, {"is_disabled": 0, "fusion_lon": 0.0, "fusion_lat": 0.0, "lat": 38.901784, "type": "electric_scooter", "lon": -77.03924533333333, "bike_id": "b2b7b075aeeda69357ce72d576ea0b81", "rental_uris": {"android": "https://dc.lft.to/lastmile_qr_scan", "ios": "https://dc.lft.to/lastmile_qr_scan"}, "name": "b2b7b075aeeda69357ce72d576ea0b81", "is_reserved": 0}, {"is_disabled": 0, "fusion_lon": 0.0, "fusion_lat": 0.0, "lat": 38.89224733333333, "type": "electric_scooter", "lon": -77.03372, "bike_id": "db2b03a7ad0664224338e6f61f36b5e6", "rental_uris": {"android": "https://dc.lft.to/lastmile_qr_scan", "ios": "https://dc.lft.to/lastmile_qr_scan"}, "name": "db2b03a7ad0664224338e6f61f36b5e6", "is_reserved": 0}, {"is_disabled": 0, "fusion_lon": 0.0, "fusion_lat": 0.0, "lat": 38.89965216666667, "type": "electric_scooter", "lon": -77.0243165, "bike_id": "a2a5a550b8bc2cb072334828d5701ef2", "rental_uris": {"android": "https://dc.lft.to/lastmile_qr_scan", "ios": "https://dc.lft.to/lastmile_qr_scan"}, "name": "a2a5a550b8bc2cb072334828d5701ef2", "is_reserved": 0}, {"is_disabled": 0, "fusion_lon": 0.0, "fusion_lat": 0.0, "lat": 38.905310166666666, "type": "electric_scooter", "lon": -77.0606, "bike_id": "b63bc4379053ddc294b82896c059b54c", "rental_uris": {"android": "https://dc.lft.to/lastmile_qr_scan", "ios": "https://dc.lft.to/lastmile_qr_scan"}, "name": "b63bc4379053ddc294b82896c059b54c", "is_reserved": 0}, {"is_disabled": 0, "fusion_lon": 0.0, "fusion_lat": 0.0, "lat": 38.90831033333333, "type": "electric_scooter", "lon": -76.99689483333333, "bike_id": "108fde9d2eef1b875401d371d24d521a", "rental_uris": {"android": "https://dc.lft.to/lastmile_qr_scan", "ios": "https://dc.lft.to/lastmile_qr_scan"}, "name": "108fde9d2eef1b875401d371d24d521a", "is_reserved": 0}, {"is_disabled": 0, "fusion_lon": 0.0, "fusion_lat": 0.0, "lat": 38.84515716666667, "type": "electric_bike", "lon": -77.07796166666667, "bike_id": "afadcadb03939607738f43f53eb1eb29", "rental_uris": {"android": "https://dc.lft.to/lastmile_qr_scan", "ios": "https://dc.lft.to/lastmile_qr_scan"}, "name": "afadcadb03939607738f43f53eb1eb29", "is_reserved": 0}, {"is_disabled": 0, "fusion_lon": 0.0, "fusion_lat": 0.0, "lat": 38.90159633333333, "type": "electric_scooter", "lon": -77.03174783333333, "bike_id": "c1e1858b7574de5b9bf8d31398d9ccb8", "rental_uris": {"android": "https://dc.lft.to/lastmile_qr_scan", "ios": "https://dc.lft.to/lastmile_qr_scan"}, "name": "c1e1858b7574de5b9bf8d31398d9ccb8", "is_reserved": 0}, {"is_disabled": 0, "fusion_lon": 0.0, "fusion_lat": 0.0, "lat": 38.91681033333333, "type": "electric_scooter", "lon": -77.02716, "bike_id": "d20ec452d79c22ba4969494c8839e496", "rental_uris": {"android": "https://dc.lft.to/lastmile_qr_scan", "ios": "https://dc.lft.to/lastmile_qr_scan"}, "name": "d20ec452d79c22ba4969494c8839e496", "is_reserved": 0}, {"is_disabled": 0, "fusion_lon": 0.0, "fusion_lat": 0.0, "lat": 38.90682316666667, "type": "electric_scooter", "lon": -77.026952, "bike_id": "850e5a25e8dd6bb5d93e6e3117b415da", "rental_uris": {"android": "https://dc.lft.to/lastmile_qr_scan", "ios": "https://dc.lft.to/lastmile_qr_scan"}, "name": "850e5a25e8dd6bb5d93e6e3117b415da", "is_reserved": 0}, {"is_disabled": 0, "fusion_lon": 0.0, "fusion_lat": 0.0, "lat": 38.92048916666667, "type": "electric_scooter", "lon": -77.02612016666667, "bike_id": "8e8342f955f9c8c0d7516643a5be73a4", "rental_uris": {"android": "https://dc.lft.to/lastmile_qr_scan", "ios": "https://dc.lft.to/lastmile_qr_scan"}, "name": "8e8342f955f9c8c0d7516643a5be73a4", "is_reserved": 0}, {"is_disabled": 0, "fusion_lon": 0.0, "fusion_lat": 0.0, "lat": 38.876853, "type": "electric_scooter", "lon": -77.00739666666666, "bike_id": "3b75ccdb7480b585b064311ed77dae5d", "rental_uris": {"android": "https://dc.lft.to/lastmile_qr_scan", "ios": "https://dc.lft.to/lastmile_qr_scan"}, "name": "3b75ccdb7480b585b064311ed77dae5d", "is_reserved": 0}, {"is_disabled": 0, "fusion_lon": 0.0, "fusion_lat": 0.0, "lat": 38.921012166666664, "type": "electric_scooter", "lon": -77.03051216666667, "bike_id": "2647e9ddfda642d9f21bbea2084851ac", "rental_uris": {"android": "https://dc.lft.to/lastmile_qr_scan", "ios": "https://dc.lft.to/lastmile_qr_scan"}, "name": "2647e9ddfda642d9f21bbea2084851ac", "is_reserved": 0}, {"is_disabled": 0, "fusion_lon": 0.0, "fusion_lat": 0.0, "lat": 38.9287205, "type": "electric_scooter", "lon": -77.041315, "bike_id": "320d4922dcf1681a7b99adaf3008c4c1", "rental_uris": {"android": "https://dc.lft.to/lastmile_qr_scan", "ios": "https://dc.lft.to/lastmile_qr_scan"}, "name": "320d4922dcf1681a7b99adaf3008c4c1", "is_reserved": 0}, {"is_disabled": 0, "fusion_lon": 0.0, "fusion_lat": 0.0, "lat": 38.909661666666665, "type": "electric_scooter", "lon": -77.08077833333333, "bike_id": "cb1feeab035a7ef75f9e9ec2d32e7de0", "rental_uris": {"android": "https://dc.lft.to/lastmile_qr_scan", "ios": "https://dc.lft.to/lastmile_qr_scan"}, "name": "cb1feeab035a7ef75f9e9ec2d32e7de0", "is_reserved": 0}, {"is_disabled": 0, "fusion_lon": 0.0, "fusion_lat": 0.0, "lat": 38.904105666666666, "type": "electric_scooter", "lon": -77.02568483333333, "bike_id": "c010f578d1f41631bc03a30df2e4970b", "rental_uris": {"android": "https://dc.lft.to/lastmile_qr_scan", "ios": "https://dc.lft.to/lastmile_qr_scan"}, "name": "c010f578d1f41631bc03a30df2e4970b", "is_reserved": 0}, {"is_disabled": 0, "fusion_lon": 0.0, "fusion_lat": 0.0, "lat": 38.882294333333334, "type": "electric_bike", "lon": -77.11277766666667, "bike_id": "b9f5a00c1f90e2dcc99c20a2b334b0ac", "rental_uris": {"android": "https://dc.lft.to/lastmile_qr_scan", "ios": "https://dc.lft.to/lastmile_qr_scan"}, "name": "b9f5a00c1f90e2dcc99c20a2b334b0ac", "is_reserved": 0}, {"is_disabled": 0, "fusion_lon": 0.0, "fusion_lat": 0.0, "lat": 38.89825833333333, "type": "electric_scooter", "lon": -76.946538, "bike_id": "4a8aeb0a9066f1bfbe1b18cf77175bf2", "rental_uris": {"android": "https://dc.lft.to/lastmile_qr_scan", "ios": "https://dc.lft.to/lastmile_qr_scan"}, "name": "4a8aeb0a9066f1bfbe1b18cf77175bf2", "is_reserved": 0}, {"is_disabled": 0, "fusion_lon": 0.0, "fusion_lat": 0.0, "lat": 38.90053483333333, "type": "electric_scooter", "lon": -77.012905, "bike_id": "489dd0d9821720a19ecfcce34ed83f65", "rental_uris": {"android": "https://dc.lft.to/lastmile_qr_scan", "ios": "https://dc.lft.to/lastmile_qr_scan"}, "name": "489dd0d9821720a19ecfcce34ed83f65", "is_reserved": 0}, {"is_disabled": 0, "fusion_lon": 0.0, "fusion_lat": 0.0, "lat": 38.910891166666666, "type": "electric_scooter", "lon": -77.03856733333333, "bike_id": "fa4fd603eeb049ee3163c02486b0d97a", "rental_uris": {"android": "https://dc.lft.to/lastmile_qr_scan", "ios": "https://dc.lft.to/lastmile_qr_scan"}, "name": "fa4fd603eeb049ee3163c02486b0d97a", "is_reserved": 0}, {"is_disabled": 0, "fusion_lon": 0.0, "fusion_lat": 0.0, "lat": 38.95309616666667, "type": "electric_scooter", "lon": -77.03601516666667, "bike_id": "a9af5ab090733073acebfab589822c85", "rental_uris": {"android": "https://dc.lft.to/lastmile_qr_scan", "ios": "https://dc.lft.to/lastmile_qr_scan"}, "name": "a9af5ab090733073acebfab589822c85", "is_reserved": 0}, {"is_disabled": 0, "fusion_lon": 0.0, "fusion_lat": 0.0, "lat": 38.902379333333336, "type": "electric_scooter", "lon": -77.021465, "bike_id": "ffc5683476362acffc9363932af433a0", "rental_uris": {"android": "https://dc.lft.to/lastmile_qr_scan", "ios": "https://dc.lft.to/lastmile_qr_scan"}, "name": "ffc5683476362acffc9363932af433a0", "is_reserved": 0}, {"is_disabled": 0, "fusion_lon": 0.0, "fusion_lat": 0.0, "lat": 38.8865325, "type": "electric_scooter", "lon": -77.02827133333334, "bike_id": "4fdb8495cfd46b1bf0504124353666ed", "rental_uris": {"android": "https://dc.lft.to/lastmile_qr_scan", "ios": "https://dc.lft.to/lastmile_qr_scan"}, "name": "4fdb8495cfd46b1bf0504124353666ed", "is_reserved": 0}, {"is_disabled": 0, "fusion_lon": 0.0, "fusion_lat": 0.0, "lat": 38.908226, "type": "electric_scooter", "lon": -77.04167716666667, "bike_id": "f92a428fc522aa0f1c3b10e749eeb832", "rental_uris": {"android": "https://dc.lft.to/lastmile_qr_scan", "ios": "https://dc.lft.to/lastmile_qr_scan"}, "name": "f92a428fc522aa0f1c3b10e749eeb832", "is_reserved": 0}, {"is_disabled": 0, "fusion_lon": 0.0, "fusion_lat": 0.0, "lat": 38.916904833333334, "type": "electric_scooter", "lon": -77.0374865, "bike_id": "771f90da09c15564d82da488ce1234a8", "rental_uris": {"android": "https://dc.lft.to/lastmile_qr_scan", "ios": "https://dc.lft.to/lastmile_qr_scan"}, "name": "771f90da09c15564d82da488ce1234a8", "is_reserved": 0}, {"is_disabled": 0, "fusion_lon": 0.0, "fusion_lat": 0.0, "lat": 38.90504983333334, "type": "electric_scooter", "lon": -77.0515525, "bike_id": "6a3f3e7bb6665f90ec5ac1f7bfc83f52", "rental_uris": {"android": "https://dc.lft.to/lastmile_qr_scan", "ios": "https://dc.lft.to/lastmile_qr_scan"}, "name": "6a3f3e7bb6665f90ec5ac1f7bfc83f52", "is_reserved": 0}, {"is_disabled": 0, "fusion_lon": 0.0, "fusion_lat": 0.0, "lat": 38.897274833333334, "type": "electric_scooter", "lon": -77.02499183333333, "bike_id": "4235e334ec35d2ea7659f9a9fe79ec96", "rental_uris": {"android": "https://dc.lft.to/lastmile_qr_scan", "ios": "https://dc.lft.to/lastmile_qr_scan"}, "name": "4235e334ec35d2ea7659f9a9fe79ec96", "is_reserved": 0}, {"is_disabled": 0, "fusion_lon": 0.0, "fusion_lat": 0.0, "lat": 38.88526266666667, "type": "electric_scooter", "lon": -76.99801983333333, "bike_id": "812392b8bc9c1475ca6fdb953a35d1a4", "rental_uris": {"android": "https://dc.lft.to/lastmile_qr_scan", "ios": "https://dc.lft.to/lastmile_qr_scan"}, "name": "812392b8bc9c1475ca6fdb953a35d1a4", "is_reserved": 0}, {"is_disabled": 0, "fusion_lon": 0.0, "fusion_lat": 0.0, "lat": 38.916885666666666, "type": "electric_scooter", "lon": -77.0259585, "bike_id": "ef4e7dff4bd151ccbcef2c6067f9d7d1", "rental_uris": {"android": "https://dc.lft.to/lastmile_qr_scan", "ios": "https://dc.lft.to/lastmile_qr_scan"}, "name": "ef4e7dff4bd151ccbcef2c6067f9d7d1", "is_reserved": 0}, {"is_disabled": 0, "fusion_lon": 0.0, "fusion_lat": 0.0, "lat": 38.858702666666666, "type": "electric_scooter", "lon": -76.99027683333334, "bike_id": "6e14984ed6fb989f275317efab348826", "rental_uris": {"android": "https://dc.lft.to/lastmile_qr_scan", "ios": "https://dc.lft.to/lastmile_qr_scan"}, "name": "6e14984ed6fb989f275317efab348826", "is_reserved": 0}, {"is_disabled": 0, "fusion_lon": 0.0, "fusion_lat": 0.0, "lat": 38.90699633333333, "type": "electric_scooter", "lon": -77.06318183333333, "bike_id": "c80ea42ee91191d26e8f6a706aa7f63f", "rental_uris": {"android": "https://dc.lft.to/lastmile_qr_scan", "ios": "https://dc.lft.to/lastmile_qr_scan"}, "name": "c80ea42ee91191d26e8f6a706aa7f63f", "is_reserved": 0}, {"is_disabled": 0, "fusion_lon": 0.0, "fusion_lat": 0.0, "lat": 38.9072165, "type": "electric_scooter", "lon": -77.03433966666667, "bike_id": "9fb84320506800b92bf0cf6ddb0860cd", "rental_uris": {"android": "https://dc.lft.to/lastmile_qr_scan", "ios": "https://dc.lft.to/lastmile_qr_scan"}, "name": "9fb84320506800b92bf0cf6ddb0860cd", "is_reserved": 0}, {"is_disabled": 0, "fusion_lon": 0.0, "fusion_lat": 0.0, "lat": 38.90773, "type": "electric_scooter", "lon": -77.03199383333333, "bike_id": "3049ca31b2155b33a25112f1952749cb", "rental_uris": {"android": "https://dc.lft.to/lastmile_qr_scan", "ios": "https://dc.lft.to/lastmile_qr_scan"}, "name": "3049ca31b2155b33a25112f1952749cb", "is_reserved": 0}, {"is_disabled": 0, "fusion_lon": 0.0, "fusion_lat": 0.0, "lat": 38.978255, "type": "electric_bike", "lon": -76.92891833333333, "bike_id": "249505da0576f375543f2f51fe938364", "rental_uris": {"android": "https://dc.lft.to/lastmile_qr_scan", "ios": "https://dc.lft.to/lastmile_qr_scan"}, "name": "249505da0576f375543f2f51fe938364", "is_reserved": 0}, {"is_disabled": 0, "fusion_lon": 0.0, "fusion_lat": 0.0, "lat": 38.893679166666665, "type": "electric_scooter", "lon": -76.97817566666667, "bike_id": "0368df0754ec39d98e8a7b9c58f5f8a1", "rental_uris": {"android": "https://dc.lft.to/lastmile_qr_scan", "ios": "https://dc.lft.to/lastmile_qr_scan"}, "name": "0368df0754ec39d98e8a7b9c58f5f8a1", "is_reserved": 0}, {"is_disabled": 0, "fusion_lon": 0.0, "fusion_lat": 0.0, "lat": 38.893080166666664, "type": "electric_scooter", "lon": -77.02201766666667, "bike_id": "8a55198c320893a122f0380e4716f96e", "rental_uris": {"android": "https://dc.lft.to/lastmile_qr_scan", "ios": "https://dc.lft.to/lastmile_qr_scan"}, "name": "8a55198c320893a122f0380e4716f96e", "is_reserved": 0}, {"is_disabled": 0, "fusion_lon": 0.0, "fusion_lat": 0.0, "lat": 38.892032666666665, "type": "electric_scooter", "lon": -76.98810083333333, "bike_id": "468bafc6b206562353fcf368f5565401", "rental_uris": {"android": "https://dc.lft.to/lastmile_qr_scan", "ios": "https://dc.lft.to/lastmile_qr_scan"}, "name": "468bafc6b206562353fcf368f5565401", "is_reserved": 0}, {"is_disabled": 0, "fusion_lon": 0.0, "fusion_lat": 0.0, "lat": 38.92424033333333, "type": "electric_scooter", "lon": -77.05624166666666, "bike_id": "f6b2abf37ed3f317a8e2e678618d0f93", "rental_uris": {"android": "https://dc.lft.to/lastmile_qr_scan", "ios": "https://dc.lft.to/lastmile_qr_scan"}, "name": "f6b2abf37ed3f317a8e2e678618d0f93", "is_reserved": 0}, {"is_disabled": 0, "fusion_lon": 0.0, "fusion_lat": 0.0, "lat": 38.9164855, "type": "electric_scooter", "lon": -77.03451166666666, "bike_id": "fbde542883e55bee016f0e9ce62dfcd0", "rental_uris": {"android": "https://dc.lft.to/lastmile_qr_scan", "ios": "https://dc.lft.to/lastmile_qr_scan"}, "name": "fbde542883e55bee016f0e9ce62dfcd0", "is_reserved": 0}, {"is_disabled": 0, "fusion_lon": 0.0, "fusion_lat": 0.0, "lat": 38.98661716666667, "type": "electric_scooter", "lon": -77.02640966666667, "bike_id": "caf6d851ce8159dd4652dd9cf0a744d5", "rental_uris": {"android": "https://dc.lft.to/lastmile_qr_scan", "ios": "https://dc.lft.to/lastmile_qr_scan"}, "name": "caf6d851ce8159dd4652dd9cf0a744d5", "is_reserved": 0}, {"is_disabled": 0, "fusion_lon": 0.0, "fusion_lat": 0.0, "lat": 38.9147325, "type": "electric_scooter", "lon": -77.04400283333334, "bike_id": "0c08b9d639566f427a2ee775d3bb9511", "rental_uris": {"android": "https://dc.lft.to/lastmile_qr_scan", "ios": "https://dc.lft.to/lastmile_qr_scan"}, "name": "0c08b9d639566f427a2ee775d3bb9511", "is_reserved": 0}, {"is_disabled": 0, "fusion_lon": 0.0, "fusion_lat": 0.0, "lat": 38.91852516666667, "type": "electric_scooter", "lon": -77.02953083333334, "bike_id": "98444e404074ea9600320956fcf98946", "rental_uris": {"android": "https://dc.lft.to/lastmile_qr_scan", "ios": "https://dc.lft.to/lastmile_qr_scan"}, "name": "98444e404074ea9600320956fcf98946", "is_reserved": 0}, {"is_disabled": 0, "fusion_lon": 0.0, "fusion_lat": 0.0, "lat": 38.836066, "type": "electric_bike", "lon": -77.00381216666666, "bike_id": "6f718061430dcd6fd466a413c8352c71", "rental_uris": {"android": "https://dc.lft.to/lastmile_qr_scan", "ios": "https://dc.lft.to/lastmile_qr_scan"}, "name": "6f718061430dcd6fd466a413c8352c71", "is_reserved": 0}, {"is_disabled": 0, "fusion_lon": 0.0, "fusion_lat": 0.0, "lat": 38.932723833333334, "type": "electric_scooter", "lon": -76.9968505, "bike_id": "3ab4bdfba2c593682e6a257a56c54134", "rental_uris": {"android": "https://dc.lft.to/lastmile_qr_scan", "ios": "https://dc.lft.to/lastmile_qr_scan"}, "name": "3ab4bdfba2c593682e6a257a56c54134", "is_reserved": 0}, {"is_disabled": 0, "fusion_lon": 0.0, "fusion_lat": 0.0, "lat": 38.89962083333333, "type": "electric_scooter", "lon": -77.02698716666667, "bike_id": "cbaec9b5c626ea2b0c6c1048e7c68602", "rental_uris": {"android": "https://dc.lft.to/lastmile_qr_scan", "ios": "https://dc.lft.to/lastmile_qr_scan"}, "name": "cbaec9b5c626ea2b0c6c1048e7c68602", "is_reserved": 0}, {"is_disabled": 0, "fusion_lon": 0.0, "fusion_lat": 0.0, "lat": 38.969314, "type": "electric_bike", "lon": -77.02629116666667, "bike_id": "4519f26b1ed6c9d99a4ecdd627b38fdc", "rental_uris": {"android": "https://dc.lft.to/lastmile_qr_scan", "ios": "https://dc.lft.to/lastmile_qr_scan"}, "name": "4519f26b1ed6c9d99a4ecdd627b38fdc", "is_reserved": 0}, {"is_disabled": 0, "fusion_lon": 0.0, "fusion_lat": 0.0, "lat": 38.887507166666666, "type": "electric_scooter", "lon": -76.99614733333334, "bike_id": "a66626a53cc8fec34caf7ba6970395d1", "rental_uris": {"android": "https://dc.lft.to/lastmile_qr_scan", "ios": "https://dc.lft.to/lastmile_qr_scan"}, "name": "a66626a53cc8fec34caf7ba6970395d1", "is_reserved": 0}, {"is_disabled": 0, "fusion_lon": 0.0, "fusion_lat": 0.0, "lat": 38.89904083333333, "type": "electric_scooter", "lon": -76.93389683333334, "bike_id": "fce5162e57c906c088984c82fd96e0e1", "rental_uris": {"android": "https://dc.lft.to/lastmile_qr_scan", "ios": "https://dc.lft.to/lastmile_qr_scan"}, "name": "fce5162e57c906c088984c82fd96e0e1", "is_reserved": 0}, {"is_disabled": 0, "fusion_lon": 0.0, "fusion_lat": 0.0, "lat": 38.916788333333336, "type": "electric_scooter", "lon": -77.029723, "bike_id": "b20f2ce90d26533ee9a28e939a822c22", "rental_uris": {"android": "https://dc.lft.to/lastmile_qr_scan", "ios": "https://dc.lft.to/lastmile_qr_scan"}, "name": "b20f2ce90d26533ee9a28e939a822c22", "is_reserved": 0}, {"is_disabled": 0, "fusion_lon": 0.0, "fusion_lat": 0.0, "lat": 38.876814333333336, "type": "electric_scooter", "lon": -77.01785016666666, "bike_id": "757fe1ac1bc5cb74c1314556f9ced971", "rental_uris": {"android": "https://dc.lft.to/lastmile_qr_scan", "ios": "https://dc.lft.to/lastmile_qr_scan"}, "name": "757fe1ac1bc5cb74c1314556f9ced971", "is_reserved": 0}, {"is_disabled": 0, "fusion_lon": 0.0, "fusion_lat": 0.0, "lat": 38.905403666666665, "type": "electric_scooter", "lon": -77.05700666666667, "bike_id": "b595cb5d614ebfa7b972d4ab88517aae", "rental_uris": {"android": "https://dc.lft.to/lastmile_qr_scan", "ios": "https://dc.lft.to/lastmile_qr_scan"}, "name": "b595cb5d614ebfa7b972d4ab88517aae", "is_reserved": 0}, {"is_disabled": 0, "fusion_lon": 0.0, "fusion_lat": 0.0, "lat": 38.99257516666667, "type": "electric_bike", "lon": -77.04994283333333, "bike_id": "8b488821e03c7c5758c4dfa819253037", "rental_uris": {"android": "https://dc.lft.to/lastmile_qr_scan", "ios": "https://dc.lft.to/lastmile_qr_scan"}, "name": "8b488821e03c7c5758c4dfa819253037", "is_reserved": 0}, {"is_disabled": 0, "fusion_lon": 0.0, "fusion_lat": 0.0, "lat": 38.943055333333334, "type": "electric_scooter", "lon": -77.02353766666667, "bike_id": "dacfe7a93614b2890d5d604f48eb8a45", "rental_uris": {"android": "https://dc.lft.to/lastmile_qr_scan", "ios": "https://dc.lft.to/lastmile_qr_scan"}, "name": "dacfe7a93614b2890d5d604f48eb8a45", "is_reserved": 0}, {"is_disabled": 0, "fusion_lon": 0.0, "fusion_lat": 0.0, "lat": 39.11503483333333, "type": "electric_bike", "lon": -77.19542116666666, "bike_id": "7be06cf3045fd0b38bba0461a0076939", "rental_uris": {"android": "https://dc.lft.to/lastmile_qr_scan", "ios": "https://dc.lft.to/lastmile_qr_scan"}, "name": "7be06cf3045fd0b38bba0461a0076939", "is_reserved": 0}, {"is_disabled": 0, "fusion_lon": 0.0, "fusion_lat": 0.0, "lat": 38.938791, "type": "electric_scooter", "lon": -77.033265, "bike_id": "89ccfa094d148d198605b00839940702", "rental_uris": {"android": "https://dc.lft.to/lastmile_qr_scan", "ios": "https://dc.lft.to/lastmile_qr_scan"}, "name": "89ccfa094d148d198605b00839940702", "is_reserved": 0}, {"is_disabled": 0, "fusion_lon": 0.0, "fusion_lat": 0.0, "lat": 38.930445166666665, "type": "electric_scooter", "lon": -77.00416233333333, "bike_id": "c9bcb6126a88789dd408a01dc625e89f", "rental_uris": {"android": "https://dc.lft.to/lastmile_qr_scan", "ios": "https://dc.lft.to/lastmile_qr_scan"}, "name": "c9bcb6126a88789dd408a01dc625e89f", "is_reserved": 0}, {"is_disabled": 0, "fusion_lon": 0.0, "fusion_lat": 0.0, "lat": 38.838111833333336, "type": "electric_scooter", "lon": -77.0043515, "bike_id": "ea9e9b58148c2db57996f097fc2caa50", "rental_uris": {"android": "https://dc.lft.to/lastmile_qr_scan", "ios": "https://dc.lft.to/lastmile_qr_scan"}, "name": "ea9e9b58148c2db57996f097fc2caa50", "is_reserved": 0}, {"is_disabled": 0, "fusion_lon": 0.0, "fusion_lat": 0.0, "lat": 38.857147166666664, "type": "electric_bike", "lon": -76.98111316666666, "bike_id": "32ca9e983657565ce7783e6152c01c7e", "rental_uris": {"android": "https://dc.lft.to/lastmile_qr_scan", "ios": "https://dc.lft.to/lastmile_qr_scan"}, "name": "32ca9e983657565ce7783e6152c01c7e", "is_reserved": 0}, {"is_disabled": 0, "fusion_lon": 0.0, "fusion_lat": 0.0, "lat": 38.919167, "type": "electric_scooter", "lon": -77.03026666666666, "bike_id": "27fee14f1c0102bb4a223be1ad3340dd", "rental_uris": {"android": "https://dc.lft.to/lastmile_qr_scan", "ios": "https://dc.lft.to/lastmile_qr_scan"}, "name": "27fee14f1c0102bb4a223be1ad3340dd", "is_reserved": 0}, {"is_disabled": 0, "fusion_lon": 0.0, "fusion_lat": 0.0, "lat": 38.91034, "type": "electric_scooter", "lon": -77.01375766666666, "bike_id": "3d742e2479c7d59ff3dbad2df2f3adf4", "rental_uris": {"android": "https://dc.lft.to/lastmile_qr_scan", "ios": "https://dc.lft.to/lastmile_qr_scan"}, "name": "3d742e2479c7d59ff3dbad2df2f3adf4", "is_reserved": 0}, {"is_disabled": 0, "fusion_lon": 0.0, "fusion_lat": 0.0, "lat": 38.922811833333334, "type": "electric_scooter", "lon": -77.023507, "bike_id": "73effa458eb7afa6f10dd3165a3edc3d", "rental_uris": {"android": "https://dc.lft.to/lastmile_qr_scan", "ios": "https://dc.lft.to/lastmile_qr_scan"}, "name": "73effa458eb7afa6f10dd3165a3edc3d", "is_reserved": 0}, {"is_disabled": 0, "fusion_lon": 0.0, "fusion_lat": 0.0, "lat": 38.9091985, "type": "electric_scooter", "lon": -77.03203516666666, "bike_id": "74aec3a18dec0e77a21645cdf33b2d6d", "rental_uris": {"android": "https://dc.lft.to/lastmile_qr_scan", "ios": "https://dc.lft.to/lastmile_qr_scan"}, "name": "74aec3a18dec0e77a21645cdf33b2d6d", "is_reserved": 0}, {"is_disabled": 0, "fusion_lon": 0.0, "fusion_lat": 0.0, "lat": 38.905581833333336, "type": "electric_scooter", "lon": -77.00437783333334, "bike_id": "9e094eba56e1e3db5d70e9e9676e6281", "rental_uris": {"android": "https://dc.lft.to/lastmile_qr_scan", "ios": "https://dc.lft.to/lastmile_qr_scan"}, "name": "9e094eba56e1e3db5d70e9e9676e6281", "is_reserved": 0}, {"is_disabled": 0, "fusion_lon": 0.0, "fusion_lat": 0.0, "lat": 38.94979716666667, "type": "electric_scooter", "lon": -77.02701133333333, "bike_id": "b575070ab0c41f75d49e0a2f98c85acf", "rental_uris": {"android": "https://dc.lft.to/lastmile_qr_scan", "ios": "https://dc.lft.to/lastmile_qr_scan"}, "name": "b575070ab0c41f75d49e0a2f98c85acf", "is_reserved": 0}, {"is_disabled": 0, "fusion_lon": 0.0, "fusion_lat": 0.0, "lat": 38.90516433333333, "type": "electric_scooter", "lon": -77.002133, "bike_id": "4a2480892a03f870f7c581b4d30b6aac", "rental_uris": {"android": "https://dc.lft.to/lastmile_qr_scan", "ios": "https://dc.lft.to/lastmile_qr_scan"}, "name": "4a2480892a03f870f7c581b4d30b6aac", "is_reserved": 0}, {"is_disabled": 0, "fusion_lon": 0.0, "fusion_lat": 0.0, "lat": 38.901297166666666, "type": "electric_scooter", "lon": -77.020073, "bike_id": "c61ffd072b6b0bcb9b6e3aaab9dfaa3e", "rental_uris": {"android": "https://dc.lft.to/lastmile_qr_scan", "ios": "https://dc.lft.to/lastmile_qr_scan"}, "name": "c61ffd072b6b0bcb9b6e3aaab9dfaa3e", "is_reserved": 0}, {"is_disabled": 0, "fusion_lon": 0.0, "fusion_lat": 0.0, "lat": 38.91819783333333, "type": "electric_scooter", "lon": -77.034461, "bike_id": "945864816140ebc6f2f445a09f3d4c82", "rental_uris": {"android": "https://dc.lft.to/lastmile_qr_scan", "ios": "https://dc.lft.to/lastmile_qr_scan"}, "name": "945864816140ebc6f2f445a09f3d4c82", "is_reserved": 0}, {"is_disabled": 0, "fusion_lon": 0.0, "fusion_lat": 0.0, "lat": 38.892161, "type": "electric_scooter", "lon": -77.02260366666667, "bike_id": "e2e3b02d85cd05dba8e5ab9c80f4dfe4", "rental_uris": {"android": "https://dc.lft.to/lastmile_qr_scan", "ios": "https://dc.lft.to/lastmile_qr_scan"}, "name": "e2e3b02d85cd05dba8e5ab9c80f4dfe4", "is_reserved": 0}, {"is_disabled": 0, "fusion_lon": 0.0, "fusion_lat": 0.0, "lat": 38.88993, "type": "electric_scooter", "lon": -77.01502733333334, "bike_id": "cd0d8ef86e7bf8e7cdfb1357ee386e9c", "rental_uris": {"android": "https://dc.lft.to/lastmile_qr_scan", "ios": "https://dc.lft.to/lastmile_qr_scan"}, "name": "cd0d8ef86e7bf8e7cdfb1357ee386e9c", "is_reserved": 0}, {"is_disabled": 0, "fusion_lon": 0.0, "fusion_lat": 0.0, "lat": 38.93501916666666, "type": "electric_bike", "lon": -76.94954783333333, "bike_id": "6f561398dfff52a04814af44698320e1", "rental_uris": {"android": "https://dc.lft.to/lastmile_qr_scan", "ios": "https://dc.lft.to/lastmile_qr_scan"}, "name": "6f561398dfff52a04814af44698320e1", "is_reserved": 0}, {"is_disabled": 0, "fusion_lon": 0.0, "fusion_lat": 0.0, "lat": 38.886249, "type": "electric_scooter", "lon": -76.99850183333334, "bike_id": "77c9093c673cd7db37df275fdb3078da", "rental_uris": {"android": "https://dc.lft.to/lastmile_qr_scan", "ios": "https://dc.lft.to/lastmile_qr_scan"}, "name": "77c9093c673cd7db37df275fdb3078da", "is_reserved": 0},