{"data": {"bikes": [{"lon": -77.027376, "lat": 38.928511, "name": "4663cb8d32805ec8862c4d234b173cd0", "fusion_lat": 0.0, "fusion_lon": 0.0, "rental_uris": {"android": "https://dc.lft.to/lastmile_qr_scan", "ios": "https://dc.lft.to/lastmile_qr_scan"}, "is_reserved": 0, "is_disabled": 0, "type": "electric_scooter", "bike_id": "4663cb8d32805ec8862c4d234b173cd0"}, {"lon": -76.99956366666666, "lat": 38.908693666666665, "name": "aaee955185926c7e0250e7fb48382ac1", "fusion_lat": 0.0, "fusion_lon": 0.0, "rental_uris": {"android": "https://dc.lft.to/lastmile_qr_scan", "ios": "https://dc.lft.to/lastmile_qr_scan"}, "is_reserved": 0, "is_disabled": 0, "type": "electric_scooter", "bike_id": "aaee955185926c7e0250e7fb48382ac1"}, {"lon": -77.0433015, "lat": 38.89641783333333, "name": "9bcfa11d91921530578d7927232beab6", "fusion_lat": 0.0, "fusion_lon": 0.0, "rental_uris": {"android": "https://dc.lft.to/lastmile_qr_scan", "ios": "https://dc.lft.to/lastmile_qr_scan"}, "is_reserved": 0, "is_disabled": 0, "type": "electric_scooter", "bike_id": "9bcfa11d91921530578d7927232beab6"}, {"lon": -77.0518055, "lat": 38.924266333333335, "name": "db1140f6b43a756cb2ec7d0cc1cc30f0", "fusion_lat": 0.0, "fusion_lon": 0.0, "rental_uris": {"android": "https://dc.lft.to/lastmile_qr_scan", "ios": "https://dc.lft.to/lastmile_qr_scan"}, "is_reserved": 0, "is_disabled": 0, "type": "electric_scooter", "bike_id": "db1140f6b43a756cb2ec7d0cc1cc30f0"}, {"lon": -77.03306116666667, "lat": 38.89647766666667, "name": "0b626197939658d39decf575d51d99b3", "fusion_lat": 0.0, "fusion_lon": 0.0, "rental_uris": {"android": "https://dc.lft.to/lastmile_qr_scan", "ios": "https://dc.lft.to/lastmile_qr_scan"}, "is_reserved": 0, "is_disabled": 0, "type": "electric_scooter", "bike_id": "0b626197939658d39decf575d51d99b3"}, {"lon": -77.03837116666666, "lat": 38.9119175, "name": "cce1845cf24de682b96d627a50ff5b83", "fusion_lat": 0.0, "fusion_lon": 0.0, "rental_uris": {"android": "https://dc.lft.to/lastmile_qr_scan", "ios": "https://dc.lft.to/lastmile_qr_scan"}, "is_reserved": 0, "is_disabled": 0, "type": "electric_scooter", "bike_id": "cce1845cf24de682b96d627a50ff5b83"}, {"lon": -77.032386, "lat": 38.91478766666667, "name": "e2f76e026727a8a88b837b73674ae640", "fusion_lat": 0.0, "fusion_lon": 0.0, "rental_uris": {"android": "https://dc.lft.to/lastmile_qr_scan", "ios": "https://dc.lft.to/lastmile_qr_scan"}, "is_reserved": 0, "is_disabled": 0, "type": "electric_scooter", "bike_id": "e2f76e026727a8a88b837b73674ae640"}, {"lon": -77.13231883333333, "lat": 38.86973016666666, "name": "ae339d06e2393171525dccd1c396f3ab", "fusion_lat": 0.0, "fusion_lon": 0.0, "rental_uris": {"android": "https://dc.lft.to/lastmile_qr_scan", "ios": "https://dc.lft.to/lastmile_qr_scan"}, "is_reserved": 0, "is_disabled": 0, "type": "electric_bike", "bike_id": "ae339d06e2393171525dccd1c396f3ab"}, {"lon": -76.98547333333333, "lat": 38.883821166666664, "name": "a1151b7a204299f43c9cfc252c233e3f", "fusion_lat": 0.0, "fusion_lon": 0.0, "rental_uris": {"android": "https://dc.lft.to/lastmile_qr_scan", "ios": "https://dc.lft.to/lastmile_qr_scan"}, "is_reserved": 0, "is_disabled": 0, "type": "electric_scooter", "bike_id": "a1151b7a204299f43c9cfc252c233e3f"}, {"lon": -77.00281066666666, "lat": 38.905603, "name": "b2a8a7fe9984b04269d487d6e3385423", "fusion_lat": 0.0, "fusion_lon": 0.0, "rental_uris": {"android": "https://dc.lft.to/lastmile_qr_scan", "ios": "https://dc.lft.to/lastmile_qr_scan"}, "is_reserved": 0, "is_disabled": 0, "type": "electric_scooter", "bike_id": "b2a8a7fe9984b04269d487d6e3385423"}, {"lon": -77.0366135, "lat": 38.922827166666664, "name": "40fa9c50e06dda6ab39488185174e115", "fusion_lat": 0.0, "fusion_lon": 0.0, "rental_uris": {"android": "https://dc.lft.to/lastmile_qr_scan", "ios": "https://dc.lft.to/lastmile_qr_scan"}, "is_reserved": 0, "is_disabled": 0, "type": "electric_scooter", "bike_id": "40fa9c50e06dda6ab39488185174e115"}, {"lon": -77.0188595, "lat": 38.9119045, "name": "c6e20dd1d3aac5197fdd2429391f1a06", "fusion_lat": 0.0, "fusion_lon": 0.0, "rental_uris": {"android": "https://dc.lft.to/lastmile_qr_scan", "ios": "https://dc.lft.to/lastmile_qr_scan"}, "is_reserved": 0, "is_disabled": 0, "type": "electric_scooter", "bike_id": "c6e20dd1d3aac5197fdd2429391f1a06"}, {"lon": -77.03800683333333, "lat": 38.930242, "name": "d2311f5a4808ad6fc37aaf9739659060", "fusion_lat": 0.0, "fusion_lon": 0.0, "rental_uris": {"android": "https://dc.lft.to/lastmile_qr_scan", "ios": "https://dc.lft.to/lastmile_qr_scan"}, "is_reserved": 0, "is_disabled": 0, "type": "electric_scooter", "bike_id": "d2311f5a4808ad6fc37aaf9739659060"}, {"lon": -76.9900065, "lat": 38.90389366666667, "name": "4625fc8fc5483336d94172f95a45b413", "fusion_lat": 0.0, "fusion_lon": 0.0, "rental_uris": {"android": "https://dc.lft.to/lastmile_qr_scan", "ios": "https://dc.lft.to/lastmile_qr_scan"}, "is_reserved": 0, "is_disabled": 0, "type": "electric_scooter", "bike_id": "4625fc8fc5483336d94172f95a45b413"}, {"lon": -77.0288875, "lat": 38.900307, "name": "ccbca7aaa4ec2db715874603b51544c5", "fusion_lat": 0.0, "fusion_lon": 0.0, "rental_uris": {"android": "https://dc.lft.to/lastmile_qr_scan", "ios": "https://dc.lft.to/lastmile_qr_scan"}, "is_reserved": 0, "is_disabled": 0, "type": "electric_scooter", "bike_id": "ccbca7aaa4ec2db715874603b51544c5"}, {"lon": -76.98447, "lat": 38.89964783333333, "name": "c66819b72a9d5e928f93d35952ff7139", "fusion_lat": 0.0, "fusion_lon": 0.0, "rental_uris": {"android": "https://dc.lft.to/lastmile_qr_scan", "ios": "https://dc.lft.to/lastmile_qr_scan"}, "is_reserved": 0, "is_disabled": 0, "type": "electric_scooter", "bike_id": "c66819b72a9d5e928f93d35952ff7139"}, {"lon": -77.04645566666666, "lat": 38.915675, "name": "607ab436bbb16a4faf90d9011bacf9b6", "fusion_lat": 0.0, "fusion_lon": 0.0, "rental_uris": {"android": "https://dc.lft.to/lastmile_qr_scan", "ios": "https://dc.lft.to/lastmile_qr_scan"}, "is_reserved": 0, "is_disabled": 0, "type": "electric_scooter", "bike_id": "607ab436bbb16a4faf90d9011bacf9b6"}, {"lon": -77.0385375, "lat": 38.9320125, "name": "187079c0046e607d8d8760ad3140aa43", "fusion_lat": 0.0, "fusion_lon": 0.0, "rental_uris": {"android": "https://dc.lft.to/lastmile_qr_scan", "ios": "https://dc.lft.to/lastmile_qr_scan"}, "is_reserved": 0, "is_disabled": 0, "type": "electric_scooter", "bike_id": "187079c0046e607d8d8760ad3140aa43"}, {"lon": -77.03437333333333, "lat": 38.9180685, "name": "b1718e50ec3762f5e2204916c63ec8d1", "fusion_lat": 0.0, "fusion_lon": 0.0, "rental_uris": {"android": "https://dc.lft.to/lastmile_qr_scan", "ios": "https://dc.lft.to/lastmile_qr_scan"}, "is_reserved": 0, "is_disabled": 0, "type": "electric_scooter", "bike_id": "b1718e50ec3762f5e2204916c63ec8d1"}, {"lon": -77.01028833333334, "lat": 38.918053, "name": "0365806b4bfa373207cfe175ed6b1c78", "fusion_lat": 0.0, "fusion_lon": 0.0, "rental_uris": {"android": "https://dc.lft.to/lastmile_qr_scan", "ios": "https://dc.lft.to/lastmile_qr_scan"}, "is_reserved": 0, "is_disabled": 0, "type": "electric_scooter", "bike_id": "0365806b4bfa373207cfe175ed6b1c78"}, {"lon": -77.01838666666667, "lat": 38.913440333333334, "name": "01256d89227c02f7e0be6cbe7d315571", "fusion_lat": 0.0, "fusion_lon": 0.0, "rental_uris": {"android": "https://dc.lft.to/lastmile_qr_scan", "ios": "https://dc.lft.to/lastmile_qr_scan"}, "is_reserved": 0, "is_disabled": 0, "type": "electric_scooter", "bike_id": "01256d89227c02f7e0be6cbe7d315571"}, {"lon": -77.03263133333333, "lat": 38.935277666666664, "name": "ae767fd337b87d3654db802528f284f3", "fusion_lat": 0.0, "fusion_lon": 0.0, "rental_uris": {"android": "https://dc.lft.to/lastmile_qr_scan", "ios": "https://dc.lft.to/lastmile_qr_scan"}, "is_reserved": 0, "is_disabled": 0, "type": "electric_scooter", "bike_id": "ae767fd337b87d3654db802528f284f3"}, {"lon": -76.98125216666666, "lat": 38.89195933333333, "name": "0e6768852ecf871583aafc4820ee500e", "fusion_lat": 0.0, "fusion_lon": 0.0, "rental_uris": {"android": "https://dc.lft.to/lastmile_qr_scan", "ios": "https://dc.lft.to/lastmile_qr_scan"}, "is_reserved": 0, "is_disabled": 0, "type": "electric_scooter", "bike_id": "0e6768852ecf871583aafc4820ee500e"}, {"lon": -77.021997, "lat": 38.916933666666665, "name": "6b0167890b126b0135fbff86e8ad58ce", "fusion_lat": 0.0, "fusion_lon": 0.0, "rental_uris": {"android": "https://dc.lft.to/lastmile_qr_scan", "ios": "https://dc.lft.to/lastmile_qr_scan"}, "is_reserved": 0, "is_disabled": 0, "type": "electric_scooter", "bike_id": "6b0167890b126b0135fbff86e8ad58ce"}, {"lon": -76.9855915, "lat": 38.86891416666667, "name": "e89acbf86bf8a8578687eed1867cbeb1", "fusion_lat": 0.0, "fusion_lon": 0.0, "rental_uris": {"android": "https://dc.lft.to/lastmile_qr_scan", "ios": "https://dc.lft.to/lastmile_qr_scan"}, "is_reserved": 0, "is_disabled": 0, "type": "electric_bike", "bike_id": "e89acbf86bf8a8578687eed1867cbeb1"}, {"lon": -76.95516516666666, "lat": 38.890528, "name": "4a0afa7eefded860638ac8a501c66791", "fusion_lat": 0.0, "fusion_lon": 0.0, "rental_uris": {"android": "https://dc.lft.to/lastmile_qr_scan", "ios": "https://dc.lft.to/lastmile_qr_scan"}, "is_reserved": 0, "is_disabled": 0, "type": "electric_scooter", "bike_id": "4a0afa7eefded860638ac8a501c66791"}, {"lon": -77.06283383333333, "lat": 38.9045575, "name": "1185a88bbc51536280bdb1b333a1fa6a", "fusion_lat": 0.0, "fusion_lon": 0.0, "rental_uris": {"android": "https://dc.lft.to/lastmile_qr_scan", "ios": "https://dc.lft.to/lastmile_qr_scan"}, "is_reserved": 0, "is_disabled": 0, "type": "electric_scooter", "bike_id": "1185a88bbc51536280bdb1b333a1fa6a"}, {"lon": -77.04514083333333, "lat": 38.892211, "name": "c1ccf0895559fc80bf840e7d9439d43d", "fusion_lat": 0.0, "fusion_lon": 0.0, "rental_uris": {"android": "https://dc.lft.to/lastmile_qr_scan", "ios": "https://dc.lft.to/lastmile_qr_scan"}, "is_reserved": 0, "is_disabled": 0, "type": "electric_scooter", "bike_id": "c1ccf0895559fc80bf840e7d9439d43d"}, {"lon": -77.0218155, "lat": 38.91126333333333, "name": "28600ce22cd43df57ad85d07271a237c", "fusion_lat": 0.0, "fusion_lon": 0.0, "rental_uris": {"android": "https://dc.lft.to/lastmile_qr_scan", "ios": "https://dc.lft.to/lastmile_qr_scan"}, "is_reserved": 0, "is_disabled": 0, "type": "electric_scooter", "bike_id": "28600ce22cd43df57ad85d07271a237c"}, {"lon": -77.07661716666667, "lat": 38.9062255, "name": "e130d0cad96154132003ce09571b53b1", "fusion_lat": 0.0, "fusion_lon": 0.0, "rental_uris": {"android": "https://dc.lft.to/lastmile_qr_scan", "ios": "https://dc.lft.to/lastmile_qr_scan"}, "is_reserved": 0, "is_disabled": 0, "type": "electric_scooter", "bike_id": "e130d0cad96154132003ce09571b53b1"}, {"lon": -77.02702216666667, "lat": 38.9094025, "name": "2411dea28084ab7575fea399a33e9ba7", "fusion_lat": 0.0, "fusion_lon": 0.0, "rental_uris": {"android": "https://dc.lft.to/lastmile_qr_scan", "ios": "https://dc.lft.to/lastmile_qr_scan"}, "is_reserved": 0, "is_disabled": 0, "type": "electric_scooter", "bike_id": "2411dea28084ab7575fea399a33e9ba7"}, {"lon": -76.94627583333333, "lat": 38.94623833333333, "name": "98d4a86caed0b16196315bdcd99a0880", "fusion_lat": 0.0, "fusion_lon": 0.0, "rental_uris": {"android": "https://dc.lft.to/lastmile_qr_scan", "ios": "https://dc.lft.to/lastmile_qr_scan"}, "is_reserved": 0, "is_disabled": 0, "type": "electric_bike", "bike_id": "98d4a86caed0b16196315bdcd99a0880"}, {"lon": -76.99060683333333, "lat": 38.90396416666667, "name": "7296b1167e272b2d25b21037d8f557a0", "fusion_lat": 0.0, "fusion_lon": 0.0, "rental_uris": {"android": "https://dc.lft.to/lastmile_qr_scan", "ios": "https://dc.lft.to/lastmile_qr_scan"}, "is_reserved": 0, "is_disabled": 0, "type": "electric_scooter", "bike_id": "7296b1167e272b2d25b21037d8f557a0"}, {"lon": -77.03650466666667, "lat": 38.912728666666666, "name": "2bea9d342c9307dfa778a840197c8626", "fusion_lat": 0.0, "fusion_lon": 0.0, "rental_uris": {"android": "https://dc.lft.to/lastmile_qr_scan", "ios": "https://dc.lft.to/lastmile_qr_scan"}, "is_reserved": 0, "is_disabled": 0, "type": "electric_scooter", "bike_id": "2bea9d342c9307dfa778a840197c8626"}, {"lon": -77.04222733333333, "lat": 38.9110855, "name": "b99b4961185677fc8b79a421740e9319", "fusion_lat": 0.0, "fusion_lon": 0.0, "rental_uris": {"android": "https://dc.lft.to/lastmile_qr_scan", "ios": "https://dc.lft.to/lastmile_qr_scan"}, "is_reserved": 0, "is_disabled": 0, "type": "electric_scooter", "bike_id": "b99b4961185677fc8b79a421740e9319"}, {"lon": -77.03182783333334, "lat": 38.89403933333333, "name": "f545846d2c688d41bd9dbbca88225b0a", "fusion_lat": 0.0, "fusion_lon": 0.0, "rental_uris": {"android": "https://dc.lft.to/lastmile_qr_scan", "ios": "https://dc.lft.to/lastmile_qr_scan"}, "is_reserved": 0, "is_disabled": 0, "type": "electric_scooter", "bike_id": "f545846d2c688d41bd9dbbca88225b0a"}, {"lon": -77.00200883333333, "lat": 38.900674, "name": "31f61309327a9c141e5b03302ccc4a88", "fusion_lat": 0.0, "fusion_lon": 0.0, "rental_uris": {"android": "https://dc.lft.to/lastmile_qr_scan", "ios": "https://dc.lft.to/lastmile_qr_scan"}, "is_reserved": 0, "is_disabled": 0, "type": "electric_scooter", "bike_id": "31f61309327a9c141e5b03302ccc4a88"}, {"lon": -77.00602583333334, "lat": 38.90631716666667, "name": "59b87f3b410cdce8dc548d1d7796065b", "fusion_lat": 0.0, "fusion_lon": 0.0, "rental_uris": {"android": "https://dc.lft.to/lastmile_qr_scan", "ios": "https://dc.lft.to/lastmile_qr_scan"}, "is_reserved": 0, "is_disabled": 0, "type": "electric_scooter", "bike_id": "59b87f3b410cdce8dc548d1d7796065b"}, {"lon": -77.01796866666666, "lat": 38.900992333333335, "name": "0af8db8f63664f62ccb4a182f160b264", "fusion_lat": 0.0, "fusion_lon": 0.0, "rental_uris": {"android": "https://dc.lft.to/lastmile_qr_scan", "ios": "https://dc.lft.to/lastmile_qr_scan"}, "is_reserved": 0, "is_disabled": 0, "type": "electric_scooter", "bike_id": "0af8db8f63664f62ccb4a182f160b264"}, {"lon": -77.02692033333334, "lat": 38.91821683333333, "name": "2bb845d54e65afeecaffde1337bb9e54", "fusion_lat": 0.0, "fusion_lon": 0.0, "rental_uris": {"android": "https://dc.lft.to/lastmile_qr_scan", "ios": "https://dc.lft.to/lastmile_qr_scan"}, "is_reserved": 0, "is_disabled": 0, "type": "electric_scooter", "bike_id": "2bb845d54e65afeecaffde1337bb9e54"}, {"lon": -77.0257755, "lat": 38.90481033333333, "name": "6aa44ce3f099954b38890f31e014bfad", "fusion_lat": 0.0, "fusion_lon": 0.0, "rental_uris": {"android": "https://dc.lft.to/lastmile_qr_scan", "ios": "https://dc.lft.to/lastmile_qr_scan"}, "is_reserved": 0, "is_disabled": 0, "type": "electric_scooter", "bike_id": "6aa44ce3f099954b38890f31e014bfad"}, {"lon": -76.99861983333334, "lat": 38.90021683333333, "name": "cfb900deb6b8344c93acf2d4c4ff47f4", "fusion_lat": 0.0, "fusion_lon": 0.0, "rental_uris": {"android": "https://dc.lft.to/lastmile_qr_scan", "ios": "https://dc.lft.to/lastmile_qr_scan"}, "is_reserved": 0, "is_disabled": 0, "type": "electric_scooter", "bike_id": "cfb900deb6b8344c93acf2d4c4ff47f4"}, {"lon": -76.976193, "lat": 38.89283016666667, "name": "3d08bbd0968297115f34e65d99d02b1b", "fusion_lat": 0.0, "fusion_lon": 0.0, "rental_uris": {"android": "https://dc.lft.to/lastmile_qr_scan", "ios": "https://dc.lft.to/lastmile_qr_scan"}, "is_reserved": 0, "is_disabled": 0, "type": "electric_bike", "bike_id": "3d08bbd0968297115f34e65d99d02b1b"}, {"lon": -77.063916, "lat": 38.92906, "name": "944a9d15f2bf55e5aea011abce8a45f5", "fusion_lat": 0.0, "fusion_lon": 0.0, "rental_uris": {"android": "https://dc.lft.to/lastmile_qr_scan", "ios": "https://dc.lft.to/lastmile_qr_scan"}, "is_reserved": 0, "is_disabled": 0, "type": "electric_scooter", "bike_id": "944a9d15f2bf55e5aea011abce8a45f5"}, {"lon": -77.027744, "lat": 38.8920225, "name": "4a707b0abe9daa95466badf2cf0a9b6d", "fusion_lat": 0.0, "fusion_lon": 0.0, "rental_uris": {"android": "https://dc.lft.to/lastmile_qr_scan", "ios": "https://dc.lft.to/lastmile_qr_scan"}, "is_reserved": 0, "is_disabled": 0, "type": "electric_scooter", "bike_id": "4a707b0abe9daa95466badf2cf0a9b6d"}, {"lon": -77.052958, "lat": 38.8988225, "name": "06a60231a92dbf583fc9eccc74d77f6e", "fusion_lat": 0.0, "fusion_lon": 0.0, "rental_uris": {"android": "https://dc.lft.to/lastmile_qr_scan", "ios": "https://dc.lft.to/lastmile_qr_scan"}, "is_reserved": 0, "is_disabled": 0, "type": "electric_scooter", "bike_id": "06a60231a92dbf583fc9eccc74d77f6e"}, {"lon": -77.0326845, "lat": 38.9292465, "name": "7d1cd52d1d64388f83068647097af2c9", "fusion_lat": 0.0, "fusion_lon": 0.0, "rental_uris": {"android": "https://dc.lft.to/lastmile_qr_scan", "ios": "https://dc.lft.to/lastmile_qr_scan"}, "is_reserved": 0, "is_disabled": 0, "type": "electric_bike", "bike_id": "7d1cd52d1d64388f83068647097af2c9"}, {"lon": -77.03734233333333, "lat": 38.933704666666664, "name": "51ea6cc09490cce2e6fa42b8d49d4490", "fusion_lat": 0.0, "fusion_lon": 0.0, "rental_uris": {"android": "https://dc.lft.to/lastmile_qr_scan", "ios": "https://dc.lft.to/lastmile_qr_scan"}, "is_reserved": 0, "is_disabled": 0, "type": "electric_scooter", "bike_id": "51ea6cc09490cce2e6fa42b8d49d4490"}, {"lon": -77.11242533333333, "lat": 38.85608466666667, "name": "3214eaf57d15b0ad3e7f56285957b9ed", "fusion_lat": 0.0, "fusion_lon": 0.0, "rental_uris": {"android": "https://dc.lft.to/lastmile_qr_scan", "ios": "https://dc.lft.to/lastmile_qr_scan"}, "is_reserved": 0, "is_disabled": 0, "type": "electric_bike", "bike_id": "3214eaf57d15b0ad3e7f56285957b9ed"}, {"lon": -76.99611483333334, "lat": 38.88545883333333, "name": "100e9165259277dc5ecca26a944085c5", "fusion_lat": 0.0, "fusion_lon": 0.0, "rental_uris": {"android": "https://dc.lft.to/lastmile_qr_scan", "ios": "https://dc.lft.to/lastmile_qr_scan"}, "is_reserved": 0, "is_disabled": 0, "type": "electric_scooter", "bike_id": "100e9165259277dc5ecca26a944085c5"}, {"lon": -76.98726233333333, "lat": 38.86712766666667, "name": "0fd777074d610cd12032420da4a52dae", "fusion_lat": 0.0, "fusion_lon": 0.0, "rental_uris": {"android": "https://dc.lft.to/lastmile_qr_scan", "ios": "https://dc.lft.to/lastmile_qr_scan"}, "is_reserved": 0, "is_disabled": 0, "type": "electric_scooter", "bike_id": "0fd777074d610cd12032420da4a52dae"}, {"lon": -77.0163855, "lat": 38.8998565, "name": "4a8b198bf04db8c26552bda21c4e45aa", "fusion_lat": 0.0, "fusion_lon": 0.0, "rental_uris": {"android": "https://dc.lft.to/lastmile_qr_scan", "ios": "https://dc.lft.to/lastmile_qr_scan"}, "is_reserved": 0, "is_disabled": 0, "type": "electric_scooter", "bike_id": "4a8b198bf04db8c26552bda21c4e45aa"}, {"lon": -76.98911, "lat": 38.900303666666666, "name": "d74e920eda5f078f83c74bc96b774fb1", "fusion_lat": 0.0, "fusion_lon": 0.0, "rental_uris": {"android": "https://dc.lft.to/lastmile_qr_scan", "ios": "https://dc.lft.to/lastmile_qr_scan"}, "is_reserved": 0, "is_disabled": 0, "type": "electric_scooter", "bike_id": "d74e920eda5f078f83c74bc96b774fb1"}, {"lon": -77.05729716666667, "lat": 38.93373783333333, "name": "7b2bce7765b32dc61c00d80542506d42", "fusion_lat": 0.0, "fusion_lon": 0.0, "rental_uris": {"android": "https://dc.lft.to/lastmile_qr_scan", "ios": "https://dc.lft.to/lastmile_qr_scan"}, "is_reserved": 0, "is_disabled": 0, "type": "electric_scooter", "bike_id": "7b2bce7765b32dc61c00d80542506d42"}, {"lon": -77.0272115, "lat": 38.90056533333333, "name": "93297e77132f7548994f6eb3fbca1506", "fusion_lat": 0.0, "fusion_lon": 0.0, "rental_uris": {"android": "https://dc.lft.to/lastmile_qr_scan", "ios": "https://dc.lft.to/lastmile_qr_scan"}, "is_reserved": 0, "is_disabled": 0, "type": "electric_scooter", "bike_id": "93297e77132f7548994f6eb3fbca1506"}, {"lon": -77.04508283333334, "lat": 38.91279683333333, "name": "6ed2fc93a710b397b57a7e07686abf1e", "fusion_lat": 0.0, "fusion_lon": 0.0, "rental_uris": {"android": "https://dc.lft.to/lastmile_qr_scan", "ios": "https://dc.lft.to/lastmile_qr_scan"}, "is_reserved": 0, "is_disabled": 0, "type": "electric_scooter", "bike_id": "6ed2fc93a710b397b57a7e07686abf1e"}, {"lon": -77.0110895, "lat": 38.870813166666665, "name": "163d3d5f6ec292493a8e1c3cf4eb12dc", "fusion_lat": 0.0, "fusion_lon": 0.0, "rental_uris": {"android": "https://dc.lft.to/lastmile_qr_scan", "ios": "https://dc.lft.to/lastmile_qr_scan"}, "is_reserved": 0, "is_disabled": 0, "type": "electric_scooter", "bike_id": "163d3d5f6ec292493a8e1c3cf4eb12dc"}, {"lon": -77.0363575, "lat": 38.91809383333333, "name": "5392f1f821ce203414caece04a381bac", "fusion_lat": 0.0, "fusion_lon": 0.0, "rental_uris": {"android": "https://dc.lft.to/lastmile_qr_scan", "ios": "https://dc.lft.to/lastmile_qr_scan"}, "is_reserved": 0, "is_disabled": 0, "type": "electric_scooter", "bike_id": "5392f1f821ce203414caece04a381bac"}, {"lon": -77.02706483333333, "lat": 38.9500245, "name": "30c025ce34f15a3511f5b5bca7739a89", "fusion_lat": 0.0, "fusion_lon": 0.0, "rental_uris": {"android": "https://dc.lft.to/lastmile_qr_scan", "ios": "https://dc.lft.to/lastmile_qr_scan"}, "is_reserved": 0, "is_disabled": 0, "type": "electric_scooter", "bike_id": "30c025ce34f15a3511f5b5bca7739a89"}, {"lon": -77.03294666666666, "lat": 38.956554833333335, "name": "8909789510decdaaa1e1c0b01d389b8e", "fusion_lat": 0.0, "fusion_lon": 0.0, "rental_uris": {"android": "https://dc.lft.to/lastmile_qr_scan", "ios": "https://dc.lft.to/lastmile_qr_scan"}, "is_reserved": 0, "is_disabled": 0, "type": "electric_scooter", "bike_id": "8909789510decdaaa1e1c0b01d389b8e"}, {"lon": -76.993836, "lat": 38.90052466666667, "name": "9b9d91b094cff3b1dcd0cc759c2ace77", "fusion_lat": 0.0, "fusion_lon": 0.0, "rental_uris": {"android": "https://dc.lft.to/lastmile_qr_scan", "ios": "https://dc.lft.to/lastmile_qr_scan"}, "is_reserved": 0, "is_disabled": 0, "type": "electric_scooter", "bike_id": "9b9d91b094cff3b1dcd0cc759c2ace77"}, {"lon": -77.08934366666666, "lat": 38.84093033333333, "name": "ca54225640308193aa61ac981b92fb51", "fusion_lat": 0.0, "fusion_lon": 0.0, "rental_uris": {"android": "https://dc.lft.to/lastmile_qr_scan", "ios": "https://dc.lft.to/lastmile_qr_scan"}, "is_reserved": 0, "is_disabled": 0, "type": "electric_bike", "bike_id": "ca54225640308193aa61ac981b92fb51"}, {"lon": -77.02989166666667, "lat": 38.9562935, "name": "f64594038e8972358281e6aefc42942e", "fusion_lat": 0.0, "fusion_lon": 0.0, "rental_uris": {"android": "https://dc.lft.to/lastmile_qr_scan", "ios": "https://dc.lft.to/lastmile_qr_scan"}, "is_reserved": 0, "is_disabled": 0, "type": "electric_scooter", "bike_id": "f64594038e8972358281e6aefc42942e"}, {"lon": -77.038547, "lat": 38.904790166666665, "name": "0627db3136d215d95a478be6e93dbfed", "fusion_lat": 0.0, "fusion_lon": 0.0, "rental_uris": {"android": "https://dc.lft.to/lastmile_qr_scan", "ios": "https://dc.lft.to/lastmile_qr_scan"}, "is_reserved": 0, "is_disabled": 0, "type": "electric_scooter", "bike_id": "0627db3136d215d95a478be6e93dbfed"}, {"lon": -77.01926866666666, "lat": 38.917270333333335, "name": "5d31f98b2dd8464b20ff9c31adcf85ea", "fusion_lat": 0.0, "fusion_lon": 0.0, "rental_uris": {"android": "https://dc.lft.to/lastmile_qr_scan", "ios": "https://dc.lft.to/lastmile_qr_scan"}, "is_reserved": 0, "is_disabled": 0, "type": "electric_scooter", "bike_id": "5d31f98b2dd8464b20ff9c31adcf85ea"}, {"lon": -77.02256483333333, "lat": 38.92499566666667, "name": "a3175fa3da1ce326106a5c84cdd09830", "fusion_lat": 0.0, "fusion_lon": 0.0, "rental_uris": {"android": "https://dc.lft.to/lastmile_qr_scan", "ios": "https://dc.lft.to/lastmile_qr_scan"}, "is_reserved": 0, "is_disabled": 0, "type": "electric_scooter", "bike_id": "a3175fa3da1ce326106a5c84cdd09830"}, {"lon": -77.03286266666667, "lat": 38.93692433333333, "name": "43f5e95fb43e0274f4a7e8a12fa60ff8", "fusion_lat": 0.0, "fusion_lon": 0.0, "rental_uris": {"android": "https://dc.lft.to/lastmile_qr_scan", "ios": "https://dc.lft.to/lastmile_qr_scan"}, "is_reserved": 0, "is_disabled": 0, "type": "electric_scooter", "bike_id": "43f5e95fb43e0274f4a7e8a12fa60ff8"}, {"lon": -77.04072583333334, "lat": 38.81241433333334, "name": "84466ed5fd8ce49debd5d90180c331d5", "fusion_lat": 0.0, "fusion_lon": 0.0, "rental_uris": {"android": "https://dc.lft.to/lastmile_qr_scan", "ios": "https://dc.lft.to/lastmile_qr_scan"}, "is_reserved": 0, "is_disabled": 0, "type": "electric_bike", "bike_id": "84466ed5fd8ce49debd5d90180c331d5"}, {"lon": -76.99826533333334, "lat": 38.885311333333334, "name": "e5e963f60e9b1e7fc211d34be31482c7", "fusion_lat": 0.0, "fusion_lon": 0.0, "rental_uris": {"android": "https://dc.lft.to/lastmile_qr_scan", "ios": "https://dc.lft.to/lastmile_qr_scan"}, "is_reserved": 0, "is_disabled": 0, "type": "electric_scooter", "bike_id": "e5e963f60e9b1e7fc211d34be31482c7"}, {"lon": -77.031717, "lat": 38.89972783333333, "name": "9f9ceb8c3799d0a3171b549ea532ffb8", "fusion_lat": 0.0, "fusion_lon": 0.0, "rental_uris": {"android": "https://dc.lft.to/lastmile_qr_scan", "ios": "https://dc.lft.to/lastmile_qr_scan"}, "is_reserved": 0, "is_disabled": 0, "type": "electric_scooter", "bike_id": "9f9ceb8c3799d0a3171b549ea532ffb8"}, {"lon": -77.02810266666667, "lat": 38.923607833333335, "name": "a944e020e62ae84d0709bc646fa21973", "fusion_lat": 0.0, "fusion_lon": 0.0, "rental_uris": {"android": "https://dc.lft.to/lastmile_qr_scan", "ios": "https://dc.lft.to/lastmile_qr_scan"}, "is_reserved": 0, "is_disabled": 0, "type": "electric_scooter", "bike_id": "a944e020e62ae84d0709bc646fa21973"}, {"lon": -76.93203766666667, "lat": 38.87232866666667, "name": "476515ad43f94179a01b0508e32654f0", "fusion_lat": 0.0, "fusion_lon": 0.0, "rental_uris": {"android": "https://dc.lft.to/lastmile_qr_scan", "ios": "https://dc.lft.to/lastmile_qr_scan"}, "is_reserved": 0, "is_disabled": 0, "type": "electric_bike", "bike_id": "476515ad43f94179a01b0508e32654f0"}, {"lon": -77.03653466666667, "lat": 38.95493866666666, "name": "6eea7c254291e8976ea15815fcfc8834", "fusion_lat": 0.0, "fusion_lon": 0.0, "rental_uris": {"android": "https://dc.lft.to/lastmile_qr_scan", "ios": "https://dc.lft.to/lastmile_qr_scan"}, "is_reserved": 0, "is_disabled": 0, "type": "electric_scooter", "bike_id": "6eea7c254291e8976ea15815fcfc8834"}, {"lon": -77.019942, "lat": 38.90243, "name": "797efcac746d547629ea03e1a9f1ec63", "fusion_lat": 0.0, "fusion_lon": 0.0, "rental_uris": {"android": "https://dc.lft.to/lastmile_qr_scan", "ios": "https://dc.lft.to/lastmile_qr_scan"}, "is_reserved": 0, "is_disabled": 0, "type": "electric_scooter", "bike_id": "797efcac746d547629ea03e1a9f1ec63"}, {"lon": -76.9466735, "lat": 38.89869783333333, "name": "308a8bc040e7ea6ce1b5b14cace159b3", "fusion_lat": 0.0, "fusion_lon": 0.0, "rental_uris": {"android": "https://dc.lft.to/lastmile_qr_scan", "ios": "https://dc.lft.to/lastmile_qr_scan"}, "is_reserved": 0, "is_disabled": 0, "type": "electric_scooter", "bike_id": "308a8bc040e7ea6ce1b5b14cace159b3"}, {"lon": -77.02613833333334, "lat": 38.8965745, "name": "fbac173c53a8dc1c9c34c9b813051321", "fusion_lat": 0.0, "fusion_lon": 0.0, "rental_uris": {"android": "https://dc.lft.to/lastmile_qr_scan", "ios": "https://dc.lft.to/lastmile_qr_scan"}, "is_reserved": 0, "is_disabled": 0, "type": "electric_scooter", "bike_id": "fbac173c53a8dc1c9c34c9b813051321"}, {"lon": -77.03640333333334, "lat": 38.902870166666666, "name": "ca7cedfec8879da5e97d340e443a0e49", "fusion_lat": 0.0, "fusion_lon": 0.0, "rental_uris": {"android": "https://dc.lft.to/lastmile_qr_scan", "ios": "https://dc.lft.to/lastmile_qr_scan"}, "is_reserved": 0, "is_disabled": 0, "type": "electric_scooter", "bike_id": "ca7cedfec8879da5e97d340e443a0e49"}, {"lon": -77.00334516666666, "lat": 38.893540333333334, "name": "ebf5094108dede5b02c9fec0158c5c2c", "fusion_lat": 0.0, "fusion_lon": 0.0, "rental_uris": {"android": "https://dc.lft.to/lastmile_qr_scan", "ios": "https://dc.lft.to/lastmile_qr_scan"}, "is_reserved": 0, "is_disabled": 0, "type": "electric_scooter", "bike_id": "ebf5094108dede5b02c9fec0158c5c2c"}, {"lon": -77.04741516666667, "lat": 38.9125385, "name": "7bdef24b8fa6292f38e7eb04f1020734", "fusion_lat": 0.0, "fusion_lon": 0.0, "rental_uris": {"android": "https://dc.lft.to/lastmile_qr_scan", "ios": "https://dc.lft.to/lastmile_qr_scan"}, "is_reserved": 0, "is_disabled": 0, "type": "electric_scooter", "bike_id": "7bdef24b8fa6292f38e7eb04f1020734"}, {"lon": -77.0238835, "lat": 38.934270833333336, "name": "42f68f79f6acb2189cc39bd0a587e8c2", "fusion_lat": 0.0, "fusion_lon": 0.0, "rental_uris": {"android": "https://dc.lft.to/lastmile_qr_scan", "ios": "https://dc.lft.to/lastmile_qr_scan"}, "is_reserved": 0, "is_disabled": 0, "type": "electric_scooter", "bike_id": "42f68f79f6acb2189cc39bd0a587e8c2"}, {"lon": -77.0393295, "lat": 38.908280166666664, "name": "6cc673d0314c87eae87d1c7dce4288dd", "fusion_lat": 0.0, "fusion_lon": 0.0, "rental_uris": {"android": "https://dc.lft.to/lastmile_qr_scan", "ios": "https://dc.lft.to/lastmile_qr_scan"}, "is_reserved": 0, "is_disabled": 0, "type": "electric_scooter", "bike_id": "6cc673d0314c87eae87d1c7dce4288dd"}, {"lon": -76.98548983333333, "lat": 38.9102685, "name": "cfd004be96c809c8353e09ad2fb3a9d7", "fusion_lat": 0.0, "fusion_lon": 0.0, "rental_uris": {"android": "https://dc.lft.to/lastmile_qr_scan", "ios": "https://dc.lft.to/lastmile_qr_scan"}, "is_reserved": 0, "is_disabled": 0, "type": "electric_bike", "bike_id": "cfd004be96c809c8353e09ad2fb3a9d7"}, {"lon": -77.0468275, "lat": 38.921328333333335, "name": "ecc7216c3e4c8c25c55603d3839e88d3", "fusion_lat": 0.0, "fusion_lon": 0.0, "rental_uris": {"android": "https://dc.lft.to/lastmile_qr_scan", "ios": "https://dc.lft.to/lastmile_qr_scan"}, "is_reserved": 0, "is_disabled": 0, "type": "electric_scooter", "bike_id": "ecc7216c3e4c8c25c55603d3839e88d3"}, {"lon": -77.00277033333333, "lat": 38.911585, "name": "dbbef52ff62daf66b9d1a9167e0b6ebe", "fusion_lat": 0.0, "fusion_lon": 0.0, "rental_uris": {"android": "https://dc.lft.to/lastmile_qr_scan", "ios": "https://dc.lft.to/lastmile_qr_scan"}, "is_reserved": 0, "is_disabled": 0, "type": "electric_bike", "bike_id": "dbbef52ff62daf66b9d1a9167e0b6ebe"}, {"lon": -77.03703316666666, "lat": 38.926454666666665, "name": "a3435780b00c78103a19ad097c152ed4", "fusion_lat": 0.0, "fusion_lon": 0.0, "rental_uris": {"android": "https://dc.lft.to/lastmile_qr_scan", "ios": "https://dc.lft.to/lastmile_qr_scan"}, "is_reserved": 0, "is_disabled": 0, "type": "electric_scooter", "bike_id": "a3435780b00c78103a19ad097c152ed4"}, {"lon": -77.03164866666667, "lat": 38.909609333333336, "name": "72c7321e92120300a9d01a449389ff6f", "fusion_lat": 0.0, "fusion_lon": 0.0, "rental_uris": {"android": "https://dc.lft.to/lastmile_qr_scan", "ios": "https://dc.lft.to/lastmile_qr_scan"}, "is_reserved": 0, "is_disabled": 0, "type": "electric_scooter", "bike_id": "72c7321e92120300a9d01a449389ff6f"}, {"lon": -77.06342733333334, "lat": 38.90683533333333, "name": "008d96a3312330ecec25756e08d009e5", "fusion_lat": 0.0, "fusion_lon": 0.0, "rental_uris": {"android": "https://dc.lft.to/lastmile_qr_scan", "ios": "https://dc.lft.to/lastmile_qr_scan"}, "is_reserved": 0, "is_disabled": 0, "type": "electric_scooter", "bike_id": "008d96a3312330ecec25756e08d009e5"}, {"lon": -77.03682733333333, "lat": 38.922583833333334, "name": "a002b67b45a3fe7eddaf3b5e449b3c99", "fusion_lat": 0.0, "fusion_lon": 0.0, "rental_uris": {"android": "https://dc.lft.to/lastmile_qr_scan", "ios": "https://dc.lft.to/lastmile_qr_scan"}, "is_reserved": 0, "is_disabled": 0, "type": "electric_scooter", "bike_id": "a002b67b45a3fe7eddaf3b5e449b3c99"}, {"lon": -77.03822316666667, "lat": 38.9206345, "name": "8ae08c209fb2d2fadacf627daa9c76a8", "fusion_lat": 0.0, "fusion_lon": 0.0, "rental_uris": {"android": "https://dc.lft.to/lastmile_qr_scan", "ios": "https://dc.lft.to/lastmile_qr_scan"}, "is_reserved": 0, "is_disabled": 0, "type": "electric_scooter", "bike_id": "8ae08c209fb2d2fadacf627daa9c76a8"}, {"lon": -77.002183, "lat": 38.924717, "name": "d21cbac06b32af2371349d867e29a072", "fusion_lat": 0.0, "fusion_lon": 0.0, "rental_uris": {"android": "https://dc.lft.to/lastmile_qr_scan", "ios": "https://dc.lft.to/lastmile_qr_scan"}, "is_reserved": 0, "is_disabled": 0, "type": "electric_scooter", "bike_id": "d21cbac06b32af2371349d867e29a072"}, {"lon": -77.031332, "lat": 38.91927666666667, "name": "d670e1bb5e20343b0923a68146e75ed8", "fusion_lat": 0.0, "fusion_lon": 0.0, "rental_uris": {"android": "https://dc.lft.to/lastmile_qr_scan", "ios": "https://dc.lft.to/lastmile_qr_scan"}, "is_reserved": 0, "is_disabled": 0, "type": "electric_scooter", "bike_id": "d670e1bb5e20343b0923a68146e75ed8"}, {"lon": -76.93176, "lat": 38.89889016666667, "name": "a595f432eef6ddba40c1ab6d8a21a7c2", "fusion_lat": 0.0, "fusion_lon": 0.0, "rental_uris": {"android": "https://dc.lft.to/lastmile_qr_scan", "ios": "https://dc.lft.to/lastmile_qr_scan"}, "is_reserved": 0, "is_disabled": 0, "type": "electric_scooter", "bike_id": "a595f432eef6ddba40c1ab6d8a21a7c2"}, {"lon": -77.0276575, "lat": 38.913435666666665, "name": "900b395edcba16c87de614e1b6b5fab2", "fusion_lat": 0.0, "fusion_lon": 0.0, "rental_uris": {"android": "https://dc.lft.to/lastmile_qr_scan", "ios": "https://dc.lft.to/lastmile_qr_scan"}, "is_reserved": 0, "is_disabled": 0, "type": "electric_scooter", "bike_id": "900b395edcba16c87de614e1b6b5fab2"}, {"lon": -76.91926416666666, "lat": 38.890772, "name": "d2bb0fcd394080db9c3659f0d437e95d", "fusion_lat": 0.0, "fusion_lon": 0.0, "rental_uris": {"android": "https://dc.lft.to/lastmile_qr_scan", "ios": "https://dc.lft.to/lastmile_qr_scan"}, "is_reserved": 0, "is_disabled": 0, "type": "electric_scooter", "bike_id": "d2bb0fcd394080db9c3659f0d437e95d"}, {"lon": -76.98412233333333, "lat": 38.89998166666667, "name": "495f954282b85d180c73418e65a4708f", "fusion_lat": 0.0, "fusion_lon": 0.0, "rental_uris": {"android": "https://dc.lft.to/lastmile_qr_scan", "ios": "https://dc.lft.to/lastmile_qr_scan"}, "is_reserved": 0, "is_disabled": 0, "type": "electric_scooter", "bike_id": "495f954282b85d180c73418e65a4708f"}, {"lon": -77.04703166666667, "lat": 38.9215995, "name": "1b597fd3e6eab3a94b0f5e6d561e7a6a", "fusion_lat": 0.0, "fusion_lon": 0.0, "rental_uris": {"android": "https://dc.lft.to/lastmile_qr_scan", "ios": "https://dc.lft.to/lastmile_qr_scan"}, "is_reserved": 0, "is_disabled": 0, "type": "electric_scooter", "bike_id": "1b597fd3e6eab3a94b0f5e6d561e7a6a"}, {"lon": -77.00600866666667, "lat": 38.898098166666664, "name": "d4ccd84fabf0a5bb01409406ea41568d", "fusion_lat": 0.0, "fusion_lon": 0.0, "rental_uris": {"android": "https://dc.lft.to/lastmile_qr_scan", "ios": "https://dc.lft.to/lastmile_qr_scan"}, "is_reserved": 0, "is_disabled": 0, "type": "electric_bike", "bike_id": "d4ccd84fabf0a5bb01409406ea41568d"}, {"lon": -77.04572166666667, "lat": 38.91396366666667, "name": "d228990acdd55c4c6bb660b22ba53dc7", "fusion_lat": 0.0, "fusion_lon": 0.0, "rental_uris": {"android": "https://dc.lft.to/lastmile_qr_scan", "ios": "https://dc.lft.to/lastmile_qr_scan"}, "is_reserved": 0, "is_disabled": 0, "type": "electric_scooter", "bike_id": "d228990acdd55c4c6bb660b22ba53dc7"}, {"lon": -77.04478516666667, "lat": 38.910831, "name": "9d5b43541b0c388490add8ff4e9161ff", "fusion_lat": 0.0, "fusion_lon": 0.0, "rental_uris": {"android": "https://dc.lft.to/lastmile_qr_scan", "ios": "https://dc.lft.to/lastmile_qr_scan"}, "is_reserved": 0, "is_disabled": 0, "type": "electric_scooter", "bike_id": "9d5b43541b0c388490add8ff4e9161ff"}, {"lon": -77.00202616666667, "lat": 38.95250566666667, "name": "679b0b439c97a6bea45f4d1676ef1453", "fusion_lat": 0.0, "fusion_lon": 0.0, "rental_uris": {"android": "https://dc.lft.to/lastmile_qr_scan", "ios": "https://dc.lft.to/lastmile_qr_scan"}, "is_reserved": 0, "is_disabled": 0, "type": "electric_scooter", "bike_id": "679b0b439c97a6bea45f4d1676ef1453"}, {"lon": -77.04777066666666, "lat": 38.893624833333334, "name": "c88219b89d28d5dac043499c94d5165d", "fusion_lat": 0.0, "fusion_lon": 0.0, "rental_uris": {"android": "https://dc.lft.to/lastmile_qr_scan", "ios": "https://dc.lft.to/lastmile_qr_scan"}, "is_reserved": 0, "is_disabled": 0, "type": "electric_scooter", "bike_id": "c88219b89d28d5dac043499c94d5165d"}, {"lon": -77.01742716666666, "lat": 38.88735166666667, "name": "bcb6f2ad225b8c6efbc7612c8fc32991", "fusion_lat": 0.0, "fusion_lon": 0.0, "rental_uris": {"android": "https://dc.lft.to/lastmile_qr_scan", "ios": "https://dc.lft.to/lastmile_qr_scan"}, "is_reserved": 0, "is_disabled": 0, "type": "electric_scooter", "bike_id": "bcb6f2ad225b8c6efbc7612c8fc32991"}, {"lon": -77.03214316666667, "lat": 38.894058, "name": "2e92c6134135cf9ae51fa903560df711", "fusion_lat": 0.0, "fusion_lon": 0.0, "rental_uris": {"android": "https://dc.lft.to/lastmile_qr_scan", "ios": "https://dc.lft.to/lastmile_qr_scan"}, "is_reserved": 0, "is_disabled": 0, "type": "electric_scooter", "bike_id": "2e92c6134135cf9ae51fa903560df711"}, {"lon": -77.02276416666666, "lat": 38.90223683333333, "name": "8474f949e62d05bc91c0c15e469b05b3", "fusion_lat": 0.0, "fusion_lon": 0.0, "rental_uris": {"android": "https://dc.lft.to/lastmile_qr_scan", "ios": "https://dc.lft.to/lastmile_qr_scan"}, "is_reserved": 0, "is_disabled": 0, "type": "electric_scooter", "bike_id": "8474f949e62d05bc91c0c15e469b05b3"}, {"lon": -77.00813716666667, "lat": 38.905783666666665, "name": "4d767bb47cd8e94ba8067d234fd80813", "fusion_lat": 0.0, "fusion_lon": 0.0, "rental_uris": {"android": "https://dc.lft.to/lastmile_qr_scan", "ios": "https://dc.lft.to/lastmile_qr_scan"}, "is_reserved": 0, "is_disabled": 0, "type": "electric_scooter", "bike_id": "4d767bb47cd8e94ba8067d234fd80813"}, {"lon": -77.02409933333334, "lat": 38.92020983333333, "name": "5ee4b7f25248071432fb9f646a9c217b", "fusion_lat": 0.0, "fusion_lon": 0.0, "rental_uris": {"android": "https://dc.lft.to/lastmile_qr_scan", "ios": "https://dc.lft.to/lastmile_qr_scan"}, "is_reserved": 0, "is_disabled": 0, "type": "electric_scooter", "bike_id": "5ee4b7f25248071432fb9f646a9c217b"}, {"lon": -77.041195, "lat": 38.91890633333333, "name": "4ca6ab904be97909340ff4dbdee0a0b7", "fusion_lat": 0.0, "fusion_lon": 0.0, "rental_uris": {"android": "https://dc.lft.to/lastmile_qr_scan", "ios": "https://dc.lft.to/lastmile_qr_scan"}, "is_reserved": 0, "is_disabled": 0, "type": "electric_scooter", "bike_id": "4ca6ab904be97909340ff4dbdee0a0b7"}, {"lon": -77.03076466666667, "lat": 38.90047766666667, "name": "a58c775b4c1914855ea407faefb3a0bf", "fusion_lat": 0.0, "fusion_lon": 0.0, "rental_uris": {"android": "https://dc.lft.to/lastmile_qr_scan", "ios": "https://dc.lft.to/lastmile_qr_scan"}, "is_reserved": 0, "is_disabled": 0, "type": "electric_scooter", "bike_id": "a58c775b4c1914855ea407faefb3a0bf"}, {"lon": -77.0483745, "lat": 38.900866666666666, "name": "aa17f088e8d26e69c35d4e5746d2c4f5", "fusion_lat": 0.0, "fusion_lon": 0.0, "rental_uris": {"android": "https://dc.lft.to/lastmile_qr_scan", "ios": "https://dc.lft.to/lastmile_qr_scan"}, "is_reserved": 0, "is_disabled": 0, "type": "electric_scooter", "bike_id": "aa17f088e8d26e69c35d4e5746d2c4f5"}, {"lon": -77.0236205, "lat": 38.9251365, "name": "b5ecbb4110cf1aaa8bdee8cac9f1544e", "fusion_lat": 0.0, "fusion_lon": 0.0, "rental_uris": {"android": "https://dc.lft.to/lastmile_qr_scan", "ios": "https://dc.lft.to/lastmile_qr_scan"}, "is_reserved": 0, "is_disabled": 0, "type": "electric_scooter", "bike_id": "b5ecbb4110cf1aaa8bdee8cac9f1544e"}, {"lon": -77.05302966666666, "lat": 38.925565166666665, "name": "4ea546144a9f4f0905dbe820587f58e8", "fusion_lat": 0.0, "fusion_lon": 0.0, "rental_uris": {"android": "https://dc.lft.to/lastmile_qr_scan", "ios": "https://dc.lft.to/lastmile_qr_scan"}, "is_reserved": 0, "is_disabled": 0, "type": "electric_scooter", "bike_id": "4ea546144a9f4f0905dbe820587f58e8"}, {"lon": -77.03457916666666, "lat": 38.91821233333334, "name": "924bfbbb643862c1aa56e3edb26af340", "fusion_lat": 0.0, "fusion_lon": 0.0, "rental_uris": {"android": "https://dc.lft.to/lastmile_qr_scan", "ios": "https://dc.lft.to/lastmile_qr_scan"}, "is_reserved": 0, "is_disabled": 0, "type": "electric_scooter", "bike_id": "924bfbbb643862c1aa56e3edb26af340"}, {"lon": -76.98326233333333, "lat": 38.86171, "name": "cd46275edfd74fd1d5b5535bfb510ea7", "fusion_lat": 0.0, "fusion_lon": 0.0, "rental_uris": {"android": "https://dc.lft.to/lastmile_qr_scan", "ios": "https://dc.lft.to/lastmile_qr_scan"}, "is_reserved": 0, "is_disabled": 0, "type": "electric_scooter", "bike_id": "cd46275edfd74fd1d5b5535bfb510ea7"}, {"lon": -77.0139005, "lat": 38.928239166666664, "name": "203a4069a93f2ebc4cdc02afbcbb7303", "fusion_lat": 0.0, "fusion_lon": 0.0, "rental_uris": {"android": "https://dc.lft.to/lastmile_qr_scan", "ios": "https://dc.lft.to/lastmile_qr_scan"}, "is_reserved": 0, "is_disabled": 0, "type": "electric_scooter", "bike_id": "203a4069a93f2ebc4cdc02afbcbb7303"}, {"lon": -77.041527, "lat": 38.91898716666667, "name": "22b458de27c1ee7792b294917d076874", "fusion_lat": 0.0, "fusion_lon": 0.0, "rental_uris": {"android": "https://dc.lft.to/lastmile_qr_scan", "ios": "https://dc.lft.to/lastmile_qr_scan"}, "is_reserved": 0, "is_disabled": 0, "type": "electric_scooter", "bike_id": "22b458de27c1ee7792b294917d076874"}, {"lon": -76.95758283333333, "lat": 38.88427083333333, "name": "3d98c77bdccdeda7da66354598c840e6", "fusion_lat": 0.0, "fusion_lon": 0.0, "rental_uris": {"android": "https://dc.lft.to/lastmile_qr_scan", "ios": "https://dc.lft.to/lastmile_qr_scan"}, "is_reserved": 0, "is_disabled": 0, "type": "electric_scooter", "bike_id": "3d98c77bdccdeda7da66354598c840e6"}, {"lon": -77.0318335, "lat": 38.9077595, "name": "92ea32da9cba58caf73fa2686c13aeaa", "fusion_lat": 0.0, "fusion_lon": 0.0, "rental_uris": {"android": "https://dc.lft.to/lastmile_qr_scan", "ios": "https://dc.lft.to/lastmile_qr_scan"}, "is_reserved": 0, "is_disabled": 0, "type": "electric_scooter", "bike_id": "92ea32da9cba58caf73fa2686c13aeaa"}, {"lon": -77.0404425, "lat": 38.927042666666665, "name": "28eae26469ab42d04b36780dbc80b76a", "fusion_lat": 0.0, "fusion_lon": 0.0, "rental_uris": {"android": "https://dc.lft.to/lastmile_qr_scan", "ios": "https://dc.lft.to/lastmile_qr_scan"}, "is_reserved": 0, "is_disabled": 0, "type": "electric_scooter", "bike_id": "28eae26469ab42d04b36780dbc80b76a"}, {"lon": -77.0303375, "lat": 38.915541166666664, "name": "c07e4ea1f5077b6e33c4c1c94f0f4021", "fusion_lat": 0.0, "fusion_lon": 0.0, "rental_uris": {"android": "https://dc.lft.to/lastmile_qr_scan", "ios": "https://dc.lft.to/lastmile_qr_scan"}, "is_reserved": 0, "is_disabled": 0, "type": "electric_scooter", "bike_id": "c07e4ea1f5077b6e33c4c1c94f0f4021"}, {"lon": -77.15268633333334, "lat": 39.105627, "name": "039d118e06845fc13b0fe3b53c36992e", "fusion_lat": 0.0, "fusion_lon": 0.0, "rental_uris": {"android": "https://dc.lft.to/lastmile_qr_scan", "ios": "https://dc.lft.to/lastmile_qr_scan"}, "is_reserved": 0, "is_disabled": 0, "type": "electric_bike", "bike_id": "039d118e06845fc13b0fe3b53c36992e"}, {"lon": -77.0408545, "lat": 38.90574316666667, "name": "b4ff726ad31d3bf3c66574cac51adff9", "fusion_lat": 0.0, "fusion_lon": 0.0, "rental_uris": {"android": "https://dc.lft.to/lastmile_qr_scan", "ios": "https://dc.lft.to/lastmile_qr_scan"}, "is_reserved": 0, "is_disabled": 0, "type": "electric_scooter", "bike_id": "b4ff726ad31d3bf3c66574cac51adff9"}, {"lon": -77.021647, "lat": 38.914356, "name": "ee1b3a5b7061d7e2adabe9e7083cd9ff", "fusion_lat": 0.0, "fusion_lon": 0.0, "rental_uris": {"android": "https://dc.lft.to/lastmile_qr_scan", "ios": "https://dc.lft.to/lastmile_qr_scan"}, "is_reserved": 0, "is_disabled": 0, "type": "electric_scooter", "bike_id": "ee1b3a5b7061d7e2adabe9e7083cd9ff"}, {"lon": -76.9567975, "lat": 38.9472725, "name": "8040203f4314b2db968bbe120b5f1754", "fusion_lat": 0.0, "fusion_lon": 0.0, "rental_uris": {"android": "https://dc.lft.to/lastmile_qr_scan", "ios": "https://dc.lft.to/lastmile_qr_scan"}, "is_reserved": 0, "is_disabled": 0, "type": "electric_bike", "bike_id": "8040203f4314b2db968bbe120b5f1754"}, {"lon": -77.0428615, "lat": 38.907497166666666, "name": "fa73ebc021d0fb72ec24715cc7731d0c", "fusion_lat": 0.0, "fusion_lon": 0.0, "rental_uris": {"android": "https://dc.lft.to/lastmile_qr_scan", "ios": "https://dc.lft.to/lastmile_qr_scan"}, "is_reserved": 0, "is_disabled": 0, "type": "electric_scooter", "bike_id": "fa73ebc021d0fb72ec24715cc7731d0c"}, {"lon": -77.03318833333333, "lat": 38.903048, "name": "817ba265348992533401d2be92da44b1", "fusion_lat": 0.0, "fusion_lon": 0.0, "rental_uris": {"android": "https://dc.lft.to/lastmile_qr_scan", "ios": "https://dc.lft.to/lastmile_qr_scan"}, "is_reserved": 0, "is_disabled": 0, "type": "electric_scooter", "bike_id": "817ba265348992533401d2be92da44b1"}, {"lon": -77.03182233333334, "lat": 38.893625666666665, "name": "ddde8060649b424c3e08d5cbd821f2d2", "fusion_lat": 0.0, "fusion_lon": 0.0, "rental_uris": {"android": "https://dc.lft.to/lastmile_qr_scan", "ios": "https://dc.lft.to/lastmile_qr_scan"}, "is_reserved": 0, "is_disabled": 0, "type": "electric_scooter", "bike_id": "ddde8060649b424c3e08d5cbd821f2d2"}, {"lon": -77.03253366666667, "lat": 38.918151333333334, "name": "8002cc61e0536eb731329c0e324998e5", "fusion_lat": 0.0, "fusion_lon": 0.0, "rental_uris": {"android": "https://dc.lft.to/lastmile_qr_scan", "ios": "https://dc.lft.to/lastmile_qr_scan"}, "is_reserved": 0, "is_disabled": 0, "type": "electric_scooter", "bike_id": "8002cc61e0536eb731329c0e324998e5"}, {"lon": -76.93756383333333, "lat": 38.8903795, "name": "52c548af9d86a2a914664bb8b1314aa0", "fusion_lat": 0.0, "fusion_lon": 0.0, "rental_uris": {"android": "https://dc.lft.to/lastmile_qr_scan", "ios": "https://dc.lft.to/lastmile_qr_scan"}, "is_reserved": 0, "is_disabled": 0, "type": "electric_scooter", "bike_id": "52c548af9d86a2a914664bb8b1314aa0"}, {"lon": -77.06117133333333, "lat": 38.9050045, "name": "a210d83a259f272a8e202e367d006fcd", "fusion_lat": 0.0, "fusion_lon": 0.0, "rental_uris": {"android": "https://dc.lft.to/lastmile_qr_scan", "ios": "https://dc.lft.to/lastmile_qr_scan"}, "is_reserved": 0, "is_disabled": 0, "type": "electric_scooter", "bike_id": "a210d83a259f272a8e202e367d006fcd"}, {"lon": -77.0458425, "lat": 38.90269833333333, "name": "0779e890ab6a981be71d234477d017ea", "fusion_lat": 0.0, "fusion_lon": 0.0, "rental_uris": {"android": "https://dc.lft.to/lastmile_qr_scan", "ios": "https://dc.lft.to/lastmile_qr_scan"}, "is_reserved": 0, "is_disabled": 0, "type": "electric_scooter", "bike_id": "0779e890ab6a981be71d234477d017ea"}, {"lon": -77.011168, "lat": 38.87084, "name": "3d51d74fa7ecf307465f6ed94dead1db", "fusion_lat": 0.0, "fusion_lon": 0.0, "rental_uris": {"android": "https://dc.lft.to/lastmile_qr_scan", "ios": "https://dc.lft.to/lastmile_qr_scan"}, "is_reserved": 0, "is_disabled": 0, "type": "electric_scooter", "bike_id": "3d51d74fa7ecf307465f6ed94dead1db"}, {"lon": -77.02157483333333, "lat": 38.91614933333334, "name": "d0066d36e46077854787dc43913e256d", "fusion_lat": 0.0, "fusion_lon": 0.0, "rental_uris": {"android": "https://dc.lft.to/lastmile_qr_scan", "ios": "https://dc.lft.to/lastmile_qr_scan"}, "is_reserved": 0, "is_disabled": 0, "type": "electric_scooter", "bike_id": "d0066d36e46077854787dc43913e256d"}, {"lon": -76.99459583333334, "lat": 38.8516285, "name": "8c6ac018490ce3e97d44e6a17ba4be12", "fusion_lat": 0.0, "fusion_lon": 0.0, "rental_uris": {"android": "https://dc.lft.to/lastmile_qr_scan", "ios": "https://dc.lft.to/lastmile_qr_scan"}, "is_reserved": 0, "is_disabled": 0, "type": "electric_scooter", "bike_id": "8c6ac018490ce3e97d44e6a17ba4be12"}, {"lon": -76.95114666666667, "lat": 38.88791716666667, "name": "d3f516c416bc95012485a265e5499860", "fusion_lat": 0.0, "fusion_lon": 0.0, "rental_uris": {"android": "https://dc.lft.to/lastmile_qr_scan", "ios": "https://dc.lft.to/lastmile_qr_scan"}, "is_reserved": 0, "is_disabled": 0, "type": "electric_scooter", "bike_id": "d3f516c416bc95012485a265e5499860"}, {"lon": -77.0215745, "lat": 38.892220333333334, "name": "cd56e05b41c988d0b6b7d3c27c3b1b63", "fusion_lat": 0.0, "fusion_lon": 0.0, "rental_uris": {"android": "https://dc.lft.to/lastmile_qr_scan", "ios": "https://dc.lft.to/lastmile_qr_scan"}, "is_reserved": 0, "is_disabled": 0, "type": "electric_scooter", "bike_id": "cd56e05b41c988d0b6b7d3c27c3b1b63"}, {"lon": -77.08050033333333, "lat": 38.84844433333333, "name": "d75f10450dfe03c09aeed9cbe79a000d", "fusion_lat": 0.0, "fusion_lon": 0.0, "rental_uris": {"android": "https://dc.lft.to/lastmile_qr_scan", "ios": "https://dc.lft.to/lastmile_qr_scan"}, "is_reserved": 0, "is_disabled": 0, "type": "electric_bike", "bike_id": "d75f10450dfe03c09aeed9cbe79a000d"}, {"lon": -76.99519016666666, "lat": 38.9002395, "name": "2c34e0ec443f8385129436b7afe9df8c", "fusion_lat": 0.0, "fusion_lon": 0.0, "rental_uris": {"android": "https://dc.lft.to/lastmile_qr_scan", "ios": "https://dc.lft.to/lastmile_qr_scan"}, "is_reserved": 0, "is_disabled": 0, "type": "electric_scooter", "bike_id": "2c34e0ec443f8385129436b7afe9df8c"}, {"lon": -77.0022145, "lat": 38.8944605, "name": "0f81b8e4ce8a6919f96195058d62e6cd", "fusion_lat": 0.0, "fusion_lon": 0.0, "rental_uris": {"android": "https://dc.lft.to/lastmile_qr_scan", "ios": "https://dc.lft.to/lastmile_qr_scan"}, "is_reserved": 0, "is_disabled": 0, "type": "electric_scooter", "bike_id": "0f81b8e4ce8a6919f96195058d62e6cd"}, {"lon": -77.01876983333334, "lat": 38.9097095, "name": "2e2620ecdf996d1527d9ac60c4d38941", "fusion_lat": 0.0, "fusion_lon": 0.0, "rental_uris": {"android": "https://dc.lft.to/lastmile_qr_scan", "ios": "https://dc.lft.to/lastmile_qr_scan"}, "is_reserved": 0, "is_disabled": 0, "type": "electric_scooter", "bike_id": "2e2620ecdf996d1527d9ac60c4d38941"}, {"lon": -77.04577566666667, "lat": 38.90232016666667, "name": "ab053d715ad2c76c10360afdd456b4e8", "fusion_lat": 0.0, "fusion_lon": 0.0, "rental_uris": {"android": "https://dc.lft.to/lastmile_qr_scan", "ios": "https://dc.lft.to/lastmile_qr_scan"}, "is_reserved": 0, "is_disabled": 0, "type": "electric_scooter", "bike_id": "ab053d715ad2c76c10360afdd456b4e8"}, {"lon": -76.947813, "lat": 38.894426833333334, "name": "f0b658fcf32598e1958006ddb4a8e5ec", "fusion_lat": 0.0, "fusion_lon": 0.0, "rental_uris": {"android": "https://dc.lft.to/lastmile_qr_scan", "ios": "https://dc.lft.to/lastmile_qr_scan"}, "is_reserved": 0, "is_disabled": 0, "type": "electric_bike", "bike_id": "f0b658fcf32598e1958006ddb4a8e5ec"}, {"lon": -77.04339116666667, "lat": 38.905468666666664, "name": "f3728c745aae07ad82f8d28e453ec796", "fusion_lat": 0.0, "fusion_lon": 0.0, "rental_uris": {"android": "https://dc.lft.to/lastmile_qr_scan", "ios": "https://dc.lft.to/lastmile_qr_scan"}, "is_reserved": 0, "is_disabled": 0, "type": "electric_scooter", "bike_id": "f3728c745aae07ad82f8d28e453ec796"}, {"lon": -77.03293066666667, "lat": 38.9222445, "name": "c495c07a35a3fe4f3926009ef2869115", "fusion_lat": 0.0, "fusion_lon": 0.0, "rental_uris": {"android": "https://dc.lft.to/lastmile_qr_scan", "ios": "https://dc.lft.to/lastmile_qr_scan"}, "is_reserved": 0, "is_disabled": 0, "type": "electric_scooter", "bike_id": "c495c07a35a3fe4f3926009ef2869115"}, {"lon": -77.0240385, "lat": 38.908637166666665, "name": "835dea475c4d9fb7184ec39b8c8dff43", "fusion_lat": 0.0, "fusion_lon": 0.0, "rental_uris": {"android": "https://dc.lft.to/lastmile_qr_scan", "ios": "https://dc.lft.to/lastmile_qr_scan"}, "is_reserved": 0, "is_disabled": 0, "type": "electric_scooter", "bike_id": "835dea475c4d9fb7184ec39b8c8dff43"}, {"lon": -77.0379, "lat": 38.905698666666666, "name": "9289e85f59c66ebb7e606b4d0409da8d", "fusion_lat": 0.0, "fusion_lon": 0.0, "rental_uris": {"android": "https://dc.lft.to/lastmile_qr_scan", "ios": "https://dc.lft.to/lastmile_qr_scan"}, "is_reserved": 0, "is_disabled": 0, "type": "electric_scooter", "bike_id": "9289e85f59c66ebb7e606b4d0409da8d"}, {"lon": -77.0282825, "lat": 38.93305483333333, "name": "27830cc7726b65cf0da058cd3ee04cd3", "fusion_lat": 0.0, "fusion_lon": 0.0, "rental_uris": {"android": "https://dc.lft.to/lastmile_qr_scan", "ios": "https://dc.lft.to/lastmile_qr_scan"}, "is_reserved": 0, "is_disabled": 0, "type": "electric_scooter", "bike_id": "27830cc7726b65cf0da058cd3ee04cd3"}, {"lon": -77.03130216666666, "lat": 38.9156225, "name": "030a62ffa47a79c7126f2762852cd2ad", "fusion_lat": 0.0, "fusion_lon": 0.0, "rental_uris": {"android": "https://dc.lft.to/lastmile_qr_scan", "ios": "https://dc.lft.to/lastmile_qr_scan"}, "is_reserved": 0, "is_disabled": 0, "type": "electric_scooter", "bike_id": "030a62ffa47a79c7126f2762852cd2ad"}, {"lon": -77.048867, "lat": 38.901908166666665, "name": "0044f371e836fea9b35eb901badaad4a", "fusion_lat": 0.0, "fusion_lon": 0.0, "rental_uris": {"android": "https://dc.lft.to/lastmile_qr_scan", "ios": "https://dc.lft.to/lastmile_qr_scan"}, "is_reserved": 0, "is_disabled": 0, "type": "electric_scooter", "bike_id": "0044f371e836fea9b35eb901badaad4a"}, {"lon": -77.01213283333334, "lat": 38.91516466666667, "name": "d1bc8127875172104d6eef2bd12dfc99", "fusion_lat": 0.0, "fusion_lon": 0.0, "rental_uris": {"android": "https://dc.lft.to/lastmile_qr_scan", "ios": "https://dc.lft.to/lastmile_qr_scan"}, "is_reserved": 0, "is_disabled": 0, "type": "electric_scooter", "bike_id": "d1bc8127875172104d6eef2bd12dfc99"}, {"lon": -76.9774185, "lat": 38.9050395, "name": "ec826b48e8a0ed4cbca9270188ee7234", "fusion_lat": 0.0, "fusion_lon": 0.0, "rental_uris": {"android": "https://dc.lft.to/lastmile_qr_scan", "ios": "https://dc.lft.to/lastmile_qr_scan"}, "is_reserved": 0, "is_disabled": 0, "type": "electric_scooter", "bike_id": "ec826b48e8a0ed4cbca9270188ee7234"}, {"lon": -77.36093033333333, "lat": 38.93958516666667, "name": "dcd77207e18f3a84a0bbb4280b05bc45", "fusion_lat": 0.0, "fusion_lon": 0.0, "rental_uris": {"android": "https://dc.lft.to/lastmile_qr_scan", "ios": "https://dc.lft.to/lastmile_qr_scan"}, "is_reserved": 0, "is_disabled": 0, "type": "electric_bike", "bike_id": "dcd77207e18f3a84a0bbb4280b05bc45"}, {"lon": -76.97983683333334, "lat": 38.877552, "name": "ea348d0c1ba76bb91520d213400f4136", "fusion_lat": 0.0, "fusion_lon": 0.0, "rental_uris": {"android": "https://dc.lft.to/lastmile_qr_scan", "ios": "https://dc.lft.to/lastmile_qr_scan"}, "is_reserved": 0, "is_disabled": 0, "type": "electric_bike", "bike_id": "ea348d0c1ba76bb91520d213400f4136"}, {"lon": -77.025385, "lat": 38.920694, "name": "9d4c26e261213e34c69c27515de88977", "fusion_lat": 0.0, "fusion_lon": 0.0, "rental_uris": {"android": "https://dc.lft.to/lastmile_qr_scan", "ios": "https://dc.lft.to/lastmile_qr_scan"}, "is_reserved": 0, "is_disabled": 0, "type": "electric_scooter", "bike_id": "9d4c26e261213e34c69c27515de88977"}, {"lon": -77.02120333333333, "lat": 38.91413683333333, "name": "d267df43e3f3e48382437695b54e37e3", "fusion_lat": 0.0, "fusion_lon": 0.0, "rental_uris": {"android": "https://dc.lft.to/lastmile_qr_scan", "ios": "https://dc.lft.to/lastmile_qr_scan"}, "is_reserved": 0, "is_disabled": 0, "type": "electric_scooter", "bike_id": "d267df43e3f3e48382437695b54e37e3"}, {"lon": -76.99701433333334, "lat": 38.9110305, "name": "3637b8b9c1125358a200bc3da99138d8", "fusion_lat": 0.0, "fusion_lon": 0.0, "rental_uris": {"android": "https://dc.lft.to/lastmile_qr_scan", "ios": "https://dc.lft.to/lastmile_qr_scan"}, "is_reserved": 0, "is_disabled": 0, "type": "electric_scooter", "bike_id": "3637b8b9c1125358a200bc3da99138d8"}, {"lon": -77.025326, "lat": 38.940910833333334, "name": "b296d023e21e30a0d5981881c096fe2e", "fusion_lat": 0.0, "fusion_lon": 0.0, "rental_uris": {"android": "https://dc.lft.to/lastmile_qr_scan", "ios": "https://dc.lft.to/lastmile_qr_scan"}, "is_reserved": 0, "is_disabled": 0, "type": "electric_scooter", "bike_id": "b296d023e21e30a0d5981881c096fe2e"}, {"lon": -77.04525516666666, "lat": 38.9167125, "name": "6af29b74c68e97fe4d864bb82e921e26", "fusion_lat": 0.0, "fusion_lon": 0.0, "rental_uris": {"android": "https://dc.lft.to/lastmile_qr_scan", "ios": "https://dc.lft.to/lastmile_qr_scan"}, "is_reserved": 0, "is_disabled": 0, "type": "electric_bike", "bike_id": "6af29b74c68e97fe4d864bb82e921e26"}, {"lon": -77.0221025, "lat": 38.91098216666666, "name": "cb0ab62d60c2d13fb5e07bae9bff443b", "fusion_lat": 0.0, "fusion_lon": 0.0, "rental_uris": {"android": "https://dc.lft.to/lastmile_qr_scan", "ios": "https://dc.lft.to/lastmile_qr_scan"}, "is_reserved": 0, "is_disabled": 0, "type": "electric_scooter", "bike_id": "cb0ab62d60c2d13fb5e07bae9bff443b"}, {"lon": -77.02660583333333, "lat": 38.9386465, "name": "a8b967ed21f0992211d121de75feb3d4", "fusion_lat": 0.0, "fusion_lon": 0.0, "rental_uris": {"android": "https://dc.lft.to/lastmile_qr_scan", "ios": "https://dc.lft.to/lastmile_qr_scan"}, "is_reserved": 0, "is_disabled": 0, "type": "electric_scooter", "bike_id": "a8b967ed21f0992211d121de75feb3d4"}, {"lon": -77.00675966666667, "lat": 38.8959275, "name": "792a8eb91b22fb406f6dda983d36b1ee", "fusion_lat": 0.0, "fusion_lon": 0.0, "rental_uris": {"android": "https://dc.lft.to/lastmile_qr_scan", "ios": "https://dc.lft.to/lastmile_qr_scan"}, "is_reserved": 0, "is_disabled": 0, "type": "electric_scooter", "bike_id": "792a8eb91b22fb406f6dda983d36b1ee"}, {"lon": -76.9096325, "lat": 38.854301666666665, "name": "3770c8050efc4a97478f47f95642b098", "fusion_lat": 0.0, "fusion_lon": 0.0, "rental_uris": {"android": "https://dc.lft.to/lastmile_qr_scan", "ios": "https://dc.lft.to/lastmile_qr_scan"}, "is_reserved": 0, "is_disabled": 0, "type": "electric_bike", "bike_id": "3770c8050efc4a97478f47f95642b098"}, {"lon": -77.023073, "lat": 38.917872833333334, "name": "f28914c58685bd4910689bc8c36c5ef6", "fusion_lat": 0.0, "fusion_lon": 0.0, "rental_uris": {"android": "https://dc.lft.to/lastmile_qr_scan", "ios": "https://dc.lft.to/lastmile_qr_scan"}, "is_reserved": 0, "is_disabled": 0, "type": "electric_scooter", "bike_id": "f28914c58685bd4910689bc8c36c5ef6"}, {"lon": -77.0437655, "lat": 38.892233, "name": "55a14686474c482e1e1f31b376617304", "fusion_lat": 0.0, "fusion_lon": 0.0, "rental_uris": {"android": "https://dc.lft.to/lastmile_qr_scan", "ios": "https://dc.lft.to/lastmile_qr_scan"}, "is_reserved": 0, "is_disabled": 0, "type": "electric_scooter", "bike_id": "55a14686474c482e1e1f31b376617304"}, {"lon": -77.01871666666666, "lat": 38.88747933333333, "name": "441b2db473a5f2b638d62392e6a83a69", "fusion_lat": 0.0, "fusion_lon": 0.0, "rental_uris": {"android": "https://dc.lft.to/lastmile_qr_scan", "ios": "https://dc.lft.to/lastmile_qr_scan"}, "is_reserved": 0, "is_disabled": 0, "type": "electric_scooter", "bike_id": "441b2db473a5f2b638d62392e6a83a69"}, {"lon": -77.02586583333333, "lat": 38.904946333333335, "name": "0c2e9f768a1ff1b83dbe1e3d849cf00e", "fusion_lat": 0.0, "fusion_lon": 0.0, "rental_uris": {"android": "https://dc.lft.to/lastmile_qr_scan", "ios": "https://dc.lft.to/lastmile_qr_scan"}, "is_reserved": 0, "is_disabled": 0, "type": "electric_scooter", "bike_id": "0c2e9f768a1ff1b83dbe1e3d849cf00e"}, {"lon": -76.95206783333333, "lat": 38.936757666666665, "name": "56a97ffeb9f8c3613825affd7e8f381b", "fusion_lat": 0.0, "fusion_lon": 0.0, "rental_uris": {"android": "https://dc.lft.to/lastmile_qr_scan", "ios": "https://dc.lft.to/lastmile_qr_scan"}, "is_reserved": 0, "is_disabled": 0, "type": "electric_bike", "bike_id": "56a97ffeb9f8c3613825affd7e8f381b"}, {"lon": -76.99937483333333, "lat": 38.896179333333336, "name": "b0164d69c4dcae2c62191ed6bdee8e15", "fusion_lat": 0.0, "fusion_lon": 0.0, "rental_uris": {"android": "https://dc.lft.to/lastmile_qr_scan", "ios": "https://dc.lft.to/lastmile_qr_scan"}, "is_reserved": 0, "is_disabled": 0, "type": "electric_scooter", "bike_id": "b0164d69c4dcae2c62191ed6bdee8e15"}, {"lon": -77.03450683333334, "lat": 38.9048525, "name": "cd17d845467b30006c0d5ca900af1304", "fusion_lat": 0.0, "fusion_lon": 0.0, "rental_uris": {"android": "https://dc.lft.to/lastmile_qr_scan", "ios": "https://dc.lft.to/lastmile_qr_scan"}, "is_reserved": 0, "is_disabled": 0, "type": "electric_scooter", "bike_id": "cd17d845467b30006c0d5ca900af1304"}, {"lon": -77.04866333333334, "lat": 38.904444, "name": "58102f6390fcbccee13ec9fd823cfa24", "fusion_lat": 0.0, "fusion_lon": 0.0, "rental_uris": {"android": "https://dc.lft.to/lastmile_qr_scan", "ios": "https://dc.lft.to/lastmile_qr_scan"}, "is_reserved": 0, "is_disabled": 0, "type": "electric_scooter", "bike_id": "58102f6390fcbccee13ec9fd823cfa24"}, {"lon": -77.04357233333333, "lat": 38.9111345, "name": "8754f6046a7b40a953faf14777388180", "fusion_lat": 0.0, "fusion_lon": 0.0, "rental_uris": {"android": "https://dc.lft.to/lastmile_qr_scan", "ios": "https://dc.lft.to/lastmile_qr_scan"}, "is_reserved": 0, "is_disabled": 0, "type": "electric_scooter", "bike_id": "8754f6046a7b40a953faf14777388180"}, {"lon": -77.02924966666667, "lat": 38.8951935, "name": "bb6d8b8098271faf84d354f2728df090", "fusion_lat": 0.0, "fusion_lon": 0.0, "rental_uris": {"android": "https://dc.lft.to/lastmile_qr_scan", "ios": "https://dc.lft.to/lastmile_qr_scan"}, "is_reserved": 0, "is_disabled": 0, "type": "electric_scooter", "bike_id": "bb6d8b8098271faf84d354f2728df090"}, {"lon": -77.0676645, "lat": 38.905195, "name": "3a5c547e6e79366ed9b98ffd9c57b7f9", "fusion_lat": 0.0, "fusion_lon": 0.0, "rental_uris": {"android": "https://dc.lft.to/lastmile_qr_scan", "ios": "https://dc.lft.to/lastmile_qr_scan"}, "is_reserved": 0, "is_disabled": 0, "type": "electric_scooter", "bike_id": "3a5c547e6e79366ed9b98ffd9c57b7f9"}, {"lon": -77.01535783333334, "lat": 38.88629366666667, "name": "70fd5567eca5e90f45a2151e89e7a16d", "fusion_lat": 0.0, "fusion_lon": 0.0, "rental_uris": {"android": "https://dc.lft.to/lastmile_qr_scan", "ios": "https://dc.lft.to/lastmile_qr_scan"}, "is_reserved": 0, "is_disabled": 0, "type": "electric_scooter", "bike_id": "70fd5567eca5e90f45a2151e89e7a16d"}, {"lon": -77.03220116666667, "lat": 38.92009933333333, "name": "4e3df24dd0dc228130577ee65ff9adda", "fusion_lat": 0.0, "fusion_lon": 0.0, "rental_uris": {"android": "https://dc.lft.to/lastmile_qr_scan", "ios": "https://dc.lft.to/lastmile_qr_scan"}, "is_reserved": 0, "is_disabled": 0, "type": "electric_scooter", "bike_id": "4e3df24dd0dc228130577ee65ff9adda"}, {"lon": -77.0322435, "lat": 38.9144965, "name": "c627b28278cbe6dbfa5e9391a7924ef3", "fusion_lat": 0.0, "fusion_lon": 0.0, "rental_uris": {"android": "https://dc.lft.to/lastmile_qr_scan", "ios": "https://dc.lft.to/lastmile_qr_scan"}, "is_reserved": 0, "is_disabled": 0, "type": "electric_scooter", "bike_id": "c627b28278cbe6dbfa5e9391a7924ef3"}, {"lon": -76.93185266666667, "lat": 38.89878183333333, "name": "98b65228deb253d336cdecf6a4d5c780", "fusion_lat": 0.0, "fusion_lon": 0.0, "rental_uris": {"android": "https://dc.lft.to/lastmile_qr_scan", "ios": "https://dc.lft.to/lastmile_qr_scan"}, "is_reserved": 0, "is_disabled": 0, "type": "electric_scooter", "bike_id": "98b65228deb253d336cdecf6a4d5c780"}, {"lon": -77.00138933333334, "lat": 38.904102, "name": "00d64eb9b0e40c34e16b6195acd91485", "fusion_lat": 0.0, "fusion_lon": 0.0, "rental_uris": {"android": "https://dc.lft.to/lastmile_qr_scan", "ios": "https://dc.lft.to/lastmile_qr_scan"}, "is_reserved": 0, "is_disabled": 0, "type": "electric_scooter", "bike_id": "00d64eb9b0e40c34e16b6195acd91485"}, {"lon": -76.99061016666667, "lat": 38.900246833333334, "name": "f99e599ec063d2b1d35dfe2e5ed5e735", "fusion_lat": 0.0, "fusion_lon": 0.0, "rental_uris": {"android": "https://dc.lft.to/lastmile_qr_scan", "ios": "https://dc.lft.to/lastmile_qr_scan"}, "is_reserved": 0, "is_disabled": 0, "type": "electric_scooter", "bike_id": "f99e599ec063d2b1d35dfe2e5ed5e735"}, {"lon": -76.96490866666667, "lat": 38.87547933333333, "name": "5b5a14626ec2f4653e31a5ef3a810951", "fusion_lat": 0.0, "fusion_lon": 0.0, "rental_uris": {"android": "https://dc.lft.to/lastmile_qr_scan", "ios": "https://dc.lft.to/lastmile_qr_scan"}, "is_reserved": 0, "is_disabled": 0, "type": "electric_bike", "bike_id": "5b5a14626ec2f4653e31a5ef3a810951"}, {"lon": -77.02832466666666, "lat": 38.91715533333333, "name": "8624122bf818e602a9a4f7bf77c8167c", "fusion_lat": 0.0, "fusion_lon": 0.0, "rental_uris": {"android": "https://dc.lft.to/lastmile_qr_scan", "ios": "https://dc.lft.to/lastmile_qr_scan"}, "is_reserved": 0, "is_disabled": 0, "type": "electric_scooter", "bike_id": "8624122bf818e602a9a4f7bf77c8167c"}, {"lon": -77.043272, "lat": 38.90599483333333, "name": "577f852d42259a064388770df723c659", "fusion_lat": 0.0, "fusion_lon": 0.0, "rental_uris": {"android": "https://dc.lft.to/lastmile_qr_scan", "ios": "https://dc.lft.to/lastmile_qr_scan"}, "is_reserved": 0, "is_disabled": 0, "type": "electric_scooter", "bike_id": "577f852d42259a064388770df723c659"}, {"lon": -77.05005966666667, "lat": 38.892289833333336, "name": "20c184a05fd09f37767a70e8117afa6e", "fusion_lat": 0.0, "fusion_lon": 0.0, "rental_uris": {"android": "https://dc.lft.to/lastmile_qr_scan", "ios": "https://dc.lft.to/lastmile_qr_scan"}, "is_reserved": 0, "is_disabled": 0, "type": "electric_scooter", "bike_id": "20c184a05fd09f37767a70e8117afa6e"}, {"lon": -77.02927016666666, "lat": 38.88217433333333, "name": "849218dc921decd28badc6e649a0bd59", "fusion_lat": 0.0, "fusion_lon": 0.0, "rental_uris": {"android": "https://dc.lft.to/lastmile_qr_scan", "ios": "https://dc.lft.to/lastmile_qr_scan"}, "is_reserved": 0, "is_disabled": 0, "type": "electric_scooter", "bike_id": "849218dc921decd28badc6e649a0bd59"}, {"lon": -77.0186965, "lat": 38.94897566666667, "name": "aee2be79bf4e5ba2e934743ccaa05ef0", "fusion_lat": 0.0, "fusion_lon": 0.0, "rental_uris": {"android": "https://dc.lft.to/lastmile_qr_scan", "ios": "https://dc.lft.to/lastmile_qr_scan"}, "is_reserved": 0, "is_disabled": 0, "type": "electric_scooter", "bike_id": "aee2be79bf4e5ba2e934743ccaa05ef0"}, {"lon": -77.04257483333333, "lat": 38.910333666666666, "name": "ac9a6658c7c5209b11141a9917a1ca47", "fusion_lat": 0.0, "fusion_lon": 0.0, "rental_uris": {"android": "https://dc.lft.to/lastmile_qr_scan", "ios": "https://dc.lft.to/lastmile_qr_scan"}, "is_reserved": 0, "is_disabled": 0, "type": "electric_scooter", "bike_id": "ac9a6658c7c5209b11141a9917a1ca47"}, {"lon": -77.01102166666666, "lat": 38.90575316666666, "name": "1feab759f2351b294815da5edc9bdb8d", "fusion_lat": 0.0, "fusion_lon": 0.0, "rental_uris": {"android": "https://dc.lft.to/lastmile_qr_scan", "ios": "https://dc.lft.to/lastmile_qr_scan"}, "is_reserved": 0, "is_disabled": 0, "type": "electric_scooter", "bike_id": "1feab759f2351b294815da5edc9bdb8d"}, {"lon": -77.05560766666666, "lat": 38.899741, "name": "53c4eee544757a1beb5cf4b805a50dd5", "fusion_lat": 0.0, "fusion_lon": 0.0, "rental_uris": {"android": "https://dc.lft.to/lastmile_qr_scan", "ios": "https://dc.lft.to/lastmile_qr_scan"}, "is_reserved": 0, "is_disabled": 0, "type": "electric_scooter", "bike_id": "53c4eee544757a1beb5cf4b805a50dd5"}, {"lon": -76.9652695, "lat": 38.876292, "name": "2b496fdc61d47d692203d048e3d49c64", "fusion_lat": 0.0, "fusion_lon": 0.0, "rental_uris": {"android": "https://dc.lft.to/lastmile_qr_scan", "ios": "https://dc.lft.to/lastmile_qr_scan"}, "is_reserved": 0, "is_disabled": 0, "type": "electric_scooter", "bike_id": "2b496fdc61d47d692203d048e3d49c64"}, {"lon": -76.98164433333334, "lat": 38.9596735, "name": "b8bfb27152697bb179aa48c7e5ee190f", "fusion_lat": 0.0, "fusion_lon": 0.0, "rental_uris": {"android": "https://dc.lft.to/lastmile_qr_scan", "ios": "https://dc.lft.to/lastmile_qr_scan"}, "is_reserved": 0, "is_disabled": 0, "type": "electric_bike", "bike_id": "b8bfb27152697bb179aa48c7e5ee190f"}, {"lon": -76.94845433333333, "lat": 38.89486616666667, "name": "bbde6e3aa92b41df7a2aef39bae1f9e0", "fusion_lat": 0.0, "fusion_lon": 0.0, "rental_uris": {"android": "https://dc.lft.to/lastmile_qr_scan", "ios": "https://dc.lft.to/lastmile_qr_scan"}, "is_reserved": 0, "is_disabled": 0, "type": "electric_scooter", "bike_id": "bbde6e3aa92b41df7a2aef39bae1f9e0"}, {"lon": -77.04441633333333, "lat": 38.903835, "name": "df363d247dad8310cfd8ee8486872a8e", "fusion_lat": 0.0, "fusion_lon": 0.0, "rental_uris": {"android": "https://dc.lft.to/lastmile_qr_scan", "ios": "https://dc.lft.to/lastmile_qr_scan"}, "is_reserved": 0, "is_disabled": 0, "type": "electric_scooter", "bike_id": "df363d247dad8310cfd8ee8486872a8e"}, {"lon": -77.033534, "lat": 38.908460833333336, "name": "a3fe579cd4842d33a71671d0fb5edd47", "fusion_lat": 0.0, "fusion_lon": 0.0, "rental_uris": {"android": "https://dc.lft.to/lastmile_qr_scan", "ios": "https://dc.lft.to/lastmile_qr_scan"}, "is_reserved": 0, "is_disabled": 0, "type": "electric_scooter", "bike_id": "a3fe579cd4842d33a71671d0fb5edd47"}, {"lon": -77.0975405, "lat": 38.85851383333333, "name": "61cc8fef54e5f0c2feb4c411cf4fb5aa", "fusion_lat": 0.0, "fusion_lon": 0.0, "rental_uris": {"android": "https://dc.lft.to/lastmile_qr_scan", "ios": "https://dc.lft.to/lastmile_qr_scan"}, "is_reserved": 0, "is_disabled": 0, "type": "electric_bike", "bike_id": "61cc8fef54e5f0c2feb4c411cf4fb5aa"}, {"lon": -77.045192, "lat": 38.909741, "name": "698e7bde0712addcb5d3686e00dfae9a", "fusion_lat": 0.0, "fusion_lon": 0.0, "rental_uris": {"android": "https://dc.lft.to/lastmile_qr_scan", "ios": "https://dc.lft.to/lastmile_qr_scan"}, "is_reserved": 0, "is_disabled": 0, "type": "electric_scooter", "bike_id": "698e7bde0712addcb5d3686e00dfae9a"}, {"lon": -77.0255325, "lat": 38.89229816666667, "name": "c95749398554e6c6b3998c52d380976e", "fusion_lat": 0.0, "fusion_lon": 0.0, "rental_uris": {"android": "https://dc.lft.to/lastmile_qr_scan", "ios": "https://dc.lft.to/lastmile_qr_scan"}, "is_reserved": 0, "is_disabled": 0, "type": "electric_scooter", "bike_id": "c95749398554e6c6b3998c52d380976e"}, {"lon": -77.0498905, "lat": 38.901164666666666, "name": "fdc95a6a6cf0fa690f04b2ddcb2a80f9", "fusion_lat": 0.0, "fusion_lon": 0.0, "rental_uris": {"android": "https://dc.lft.to/lastmile_qr_scan", "ios": "https://dc.lft.to/lastmile_qr_scan"}, "is_reserved": 0, "is_disabled": 0, "type": "electric_scooter", "bike_id": "fdc95a6a6cf0fa690f04b2ddcb2a80f9"}, {"lon": -77.0110465, "lat": 38.9035745, "name": "0fb217bda29f85bd7948b73d85da7792", "fusion_lat": 0.0, "fusion_lon": 0.0, "rental_uris": {"android": "https://dc.lft.to/lastmile_qr_scan", "ios": "https://dc.lft.to/lastmile_qr_scan"}, "is_reserved": 0, "is_disabled": 0, "type": "electric_scooter", "bike_id": "0fb217bda29f85bd7948b73d85da7792"}, {"lon": -77.05255416666667, "lat": 38.90239866666667, "name": "394f357d4e4e518940c11d0f45e3c94d", "fusion_lat": 0.0, "fusion_lon": 0.0, "rental_uris": {"android": "https://dc.lft.to/lastmile_qr_scan", "ios": "https://dc.lft.to/lastmile_qr_scan"}, "is_reserved": 0, "is_disabled": 0, "type": "electric_scooter", "bike_id": "394f357d4e4e518940c11d0f45e3c94d"}, {"lon": -77.0049205, "lat": 38.89688016666667, "name": "8361d278f51b76d525433dfea7fe636d", "fusion_lat": 0.0, "fusion_lon": 0.0, "rental_uris": {"android": "https://dc.lft.to/lastmile_qr_scan", "ios": "https://dc.lft.to/lastmile_qr_scan"}, "is_reserved": 0, "is_disabled": 0, "type": "electric_scooter", "bike_id": "8361d278f51b76d525433dfea7fe636d"}, {"lon": -77.025757, "lat": 38.991615333333336, "name": "51a039cf974d80856d29581fbf5fc7b5", "fusion_lat": 0.0, "fusion_lon": 0.0, "rental_uris": {"android": "https://dc.lft.to/lastmile_qr_scan", "ios": "https://dc.lft.to/lastmile_qr_scan"}, "is_reserved": 0, "is_disabled": 0, "type": "electric_bike", "bike_id": "51a039cf974d80856d29581fbf5fc7b5"}, {"lon": -77.02713333333334, "lat": 38.906741, "name": "01adaaad24a574e1d2ff734f9917917b", "fusion_lat": 0.0, "fusion_lon": 0.0, "rental_uris": {"android": "https://dc.lft.to/lastmile_qr_scan", "ios": "https://dc.lft.to/lastmile_qr_scan"}, "is_reserved": 0, "is_disabled": 0, "type": "electric_scooter", "bike_id": "01adaaad24a574e1d2ff734f9917917b"}, {"lon": -76.99028066666666, "lat": 38.86866716666667, "name": "2581099e7d0e23fb2c53c4e1097566cb", "fusion_lat": 0.0, "fusion_lon": 0.0, "rental_uris": {"android": "https://dc.lft.to/lastmile_qr_scan", "ios": "https://dc.lft.to/lastmile_qr_scan"}, "is_reserved": 0, "is_disabled": 0, "type": "electric_scooter", "bike_id": "2581099e7d0e23fb2c53c4e1097566cb"}, {"lon": -77.046618, "lat": 38.89336316666667, "name": "4fd2415597e2c6fef07c03d3206601ac", "fusion_lat": 0.0, "fusion_lon": 0.0, "rental_uris": {"android": "https://dc.lft.to/lastmile_qr_scan", "ios": "https://dc.lft.to/lastmile_qr_scan"}, "is_reserved": 0, "is_disabled": 0, "type": "electric_scooter", "bike_id": "4fd2415597e2c6fef07c03d3206601ac"}, {"lon": -77.0327905, "lat": 38.90417683333333, "name": "1411646ed0778eff42f4c1b8043e6fdf", "fusion_lat": 0.0, "fusion_lon": 0.0, "rental_uris": {"android": "https://dc.lft.to/lastmile_qr_scan", "ios": "https://dc.lft.to/lastmile_qr_scan"}, "is_reserved": 0, "is_disabled": 0, "type": "electric_scooter", "bike_id": "1411646ed0778eff42f4c1b8043e6fdf"}, {"lon": -76.93177883333334, "lat": 38.89887216666666, "name": "a95036aaf05f803f7e1963523c68a7bf", "fusion_lat": 0.0, "fusion_lon": 0.0, "rental_uris": {"android": "https://dc.lft.to/lastmile_qr_scan", "ios": "https://dc.lft.to/lastmile_qr_scan"}, "is_reserved": 0, "is_disabled": 0, "type": "electric_scooter", "bike_id": "a95036aaf05f803f7e1963523c68a7bf"}, {"lon": -77.06117833333333, "lat": 38.90201783333333, "name": "12a835ba9e2e9c9b8479362a002dc32f", "fusion_lat": 0.0, "fusion_lon": 0.0, "rental_uris": {"android": "https://dc.lft.to/lastmile_qr_scan", "ios": "https://dc.lft.to/lastmile_qr_scan"}, "is_reserved": 0, "is_disabled": 0, "type": "electric_scooter", "bike_id": "12a835ba9e2e9c9b8479362a002dc32f"}, {"lon": -77.002076, "lat": 38.90219833333333, "name": "6459e72b6718bbfe2b257af8ba27580b", "fusion_lat": 0.0, "fusion_lon": 0.0, "rental_uris": {"android": "https://dc.lft.to/lastmile_qr_scan", "ios": "https://dc.lft.to/lastmile_qr_scan"}, "is_reserved": 0, "is_disabled": 0, "type": "electric_scooter", "bike_id": "6459e72b6718bbfe2b257af8ba27580b"}, {"lon": -77.03324633333334, "lat": 38.89906033333333, "name": "1fb381fb68b44a4485902d701c95a7f9", "fusion_lat": 0.0, "fusion_lon": 0.0, "rental_uris": {"android": "https://dc.lft.to/lastmile_qr_scan", "ios": "https://dc.lft.to/lastmile_qr_scan"}, "is_reserved": 0, "is_disabled": 0, "type": "electric_scooter", "bike_id": "1fb381fb68b44a4485902d701c95a7f9"}, {"lon": -77.01903783333333, "lat": 38.9023625, "name": "6368319289b2d509fa882be778f669dd", "fusion_lat": 0.0, "fusion_lon": 0.0, "rental_uris": {"android": "https://dc.lft.to/lastmile_qr_scan", "ios": "https://dc.lft.to/lastmile_qr_scan"}, "is_reserved": 0, "is_disabled": 0, "type": "electric_scooter", "bike_id": "6368319289b2d509fa882be778f669dd"}, {"lon": -77.031756, "lat": 38.886269166666665, "name": "3e5399b99663c291da132eece0d0d247", "fusion_lat": 0.0, "fusion_lon": 0.0, "rental_uris": {"android": "https://dc.lft.to/lastmile_qr_scan", "ios": "https://dc.lft.to/lastmile_qr_scan"}, "is_reserved": 0, "is_disabled": 0, "type": "electric_scooter", "bike_id": "3e5399b99663c291da132eece0d0d247"}, {"lon": -77.03263666666666, "lat": 38.9340055, "name": "11f4f9b5f39763275990bd85fe74c097", "fusion_lat": 0.0, "fusion_lon": 0.0, "rental_uris": {"android": "https://dc.lft.to/lastmile_qr_scan", "ios": "https://dc.lft.to/lastmile_qr_scan"}, "is_reserved": 0, "is_disabled": 0, "type": "electric_scooter", "bike_id": "11f4f9b5f39763275990bd85fe74c097"}, {"lon": -76.98416466666667, "lat": 38.85970283333333, "name": "77f1c7dedf7b51289cb704660b065a22", "fusion_lat": 0.0, "fusion_lon": 0.0, "rental_uris": {"android": "https://dc.lft.to/lastmile_qr_scan", "ios": "https://dc.lft.to/lastmile_qr_scan"}, "is_reserved": 0, "is_disabled": 0, "type": "electric_scooter", "bike_id": "77f1c7dedf7b51289cb704660b065a22"}, {"lon": -77.08944866666667, "lat": 38.841098333333335, "name": "d02b597e527fa1630a98cd11bfddf2bf", "fusion_lat": 0.0, "fusion_lon": 0.0, "rental_uris": {"android": "https://dc.lft.to/lastmile_qr_scan", "ios": "https://dc.lft.to/lastmile_qr_scan"}, "is_reserved": 0, "is_disabled": 0, "type": "electric_bike", "bike_id": "d02b597e527fa1630a98cd11bfddf2bf"}, {"lon": -77.05516083333333, "lat": 38.899366666666666, "name": "50a836870ea30e03ad84b7781f7c508a", "fusion_lat": 0.0, "fusion_lon": 0.0, "rental_uris": {"android": "https://dc.lft.to/lastmile_qr_scan", "ios": "https://dc.lft.to/lastmile_qr_scan"}, "is_reserved": 0, "is_disabled": 0, "type": "electric_scooter", "bike_id": "50a836870ea30e03ad84b7781f7c508a"}, {"lon": -77.0027835, "lat": 38.89740716666667, "name": "5a0353bc8f938fc3eea53f8e22c0f23a", "fusion_lat": 0.0, "fusion_lon": 0.0, "rental_uris": {"android": "https://dc.lft.to/lastmile_qr_scan", "ios": "https://dc.lft.to/lastmile_qr_scan"}, "is_reserved": 0, "is_disabled": 0, "type": "electric_scooter", "bike_id": "5a0353bc8f938fc3eea53f8e22c0f23a"}, {"lon": -77.02210633333333, "lat": 38.88766966666667, "name": "b8ba04d56ab0af0de2d00101cfb8f085", "fusion_lat": 0.0, "fusion_lon": 0.0, "rental_uris": {"android": "https://dc.lft.to/lastmile_qr_scan", "ios": "https://dc.lft.to/lastmile_qr_scan"}, "is_reserved": 0, "is_disabled": 0, "type": "electric_scooter", "bike_id": "b8ba04d56ab0af0de2d00101cfb8f085"}, {"lon": -77.01195433333334, "lat": 38.90022283333333, "name": "535e2e5318cfe034d2d9ba20cfd36504", "fusion_lat": 0.0, "fusion_lon": 0.0, "rental_uris": {"android": "https://dc.lft.to/lastmile_qr_scan", "ios": "https://dc.lft.to/lastmile_qr_scan"}, "is_reserved": 0, "is_disabled": 0, "type": "electric_scooter", "bike_id": "535e2e5318cfe034d2d9ba20cfd36504"}, {"lon": -77.11053433333333, "lat": 38.870164833333334, "name": "bc846d58db561620799e424976a0c3b9", "fusion_lat": 0.0, "fusion_lon": 0.0, "rental_uris": {"android": "https://dc.lft.to/lastmile_qr_scan", "ios": "https://dc.lft.to/lastmile_qr_scan"}, "is_reserved": 0, "is_disabled": 0, "type": "electric_bike", "bike_id": "bc846d58db561620799e424976a0c3b9"}, {"lon": -77.02689466666666, "lat": 38.907043333333334, "name": "279b2e3b92557329d5a444d5a8f139a8", "fusion_lat": 0.0, "fusion_lon": 0.0, "rental_uris": {"android": "https://dc.lft.to/lastmile_qr_scan", "ios": "https://dc.lft.to/lastmile_qr_scan"}, "is_reserved": 0, "is_disabled": 0, "type": "electric_scooter", "bike_id": "279b2e3b92557329d5a444d5a8f139a8"}, {"lon": -77.045002, "lat": 38.90771566666667, "name": "359186b8166ebba8c3d1b13518be0e56", "fusion_lat": 0.0, "fusion_lon": 0.0, "rental_uris": {"android": "https://dc.lft.to/lastmile_qr_scan", "ios": "https://dc.lft.to/lastmile_qr_scan"}, "is_reserved": 0, "is_disabled": 0, "type": "electric_scooter", "bike_id": "359186b8166ebba8c3d1b13518be0e56"}, {"lon": -77.03084966666667, "lat": 38.9003455, "name": "874abc4b3e930a05e90f58a072fe6cc5", "fusion_lat": 0.0, "fusion_lon": 0.0, "rental_uris": {"android": "https://dc.lft.to/lastmile_qr_scan", "ios": "https://dc.lft.to/lastmile_qr_scan"}, "is_reserved": 0, "is_disabled": 0, "type": "electric_scooter", "bike_id": "874abc4b3e930a05e90f58a072fe6cc5"}, {"lon": -77.01426616666667, "lat": 38.90041083333333, "name": "f7cbd86727ea6b6c32b1fd462e51f1c4", "fusion_lat": 0.0, "fusion_lon": 0.0, "rental_uris": {"android": "https://dc.lft.to/lastmile_qr_scan", "ios": "https://dc.lft.to/lastmile_qr_scan"}, "is_reserved": 0, "is_disabled": 0, "type": "electric_bike", "bike_id": "f7cbd86727ea6b6c32b1fd462e51f1c4"}, {"lon": -77.04339366666666, "lat": 38.907333666666666, "name": "a5d9039c2c2cddd3cac22e6a22f2d329", "fusion_lat": 0.0, "fusion_lon": 0.0, "rental_uris": {"android": "https://dc.lft.to/lastmile_qr_scan", "ios": "https://dc.lft.to/lastmile_qr_scan"}, "is_reserved": 0, "is_disabled": 0, "type": "electric_scooter", "bike_id": "a5d9039c2c2cddd3cac22e6a22f2d329"}, {"lon": -77.02764516666667, "lat": 38.94291116666667, "name": "c0cd0118f4a96d1aae50338801a18b66", "fusion_lat": 0.0, "fusion_lon": 0.0, "rental_uris": {"android": "https://dc.lft.to/lastmile_qr_scan", "ios": "https://dc.lft.to/lastmile_qr_scan"}, "is_reserved": 0, "is_disabled": 0, "type": "electric_scooter", "bike_id": "c0cd0118f4a96d1aae50338801a18b66"}, {"lon": -77.10514083333334, "lat": 38.92855216666667, "name": "f4c9d6fc2abd1347962163b8fdc09348", "fusion_lat": 0.0, "fusion_lon": 0.0, "rental_uris": {"android": "https://dc.lft.to/lastmile_qr_scan", "ios": "https://dc.lft.to/lastmile_qr_scan"}, "is_reserved": 0, "is_disabled": 0, "type": "electric_bike", "bike_id": "f4c9d6fc2abd1347962163b8fdc09348"}, {"lon": -77.03825766666667, "lat": 38.931425, "name": "c0a709b5829ac2ee3e9c332ba88b2953", "fusion_lat": 0.0, "fusion_lon": 0.0, "rental_uris": {"android": "https://dc.lft.to/lastmile_qr_scan", "ios": "https://dc.lft.to/lastmile_qr_scan"}, "is_reserved": 0, "is_disabled": 0, "type": "electric_scooter", "bike_id": "c0a709b5829ac2ee3e9c332ba88b2953"}, {"lon": -76.931796, "lat": 38.898865666666666, "name": "dfa9e54a8a84cbe13287efb9e993b508", "fusion_lat": 0.0, "fusion_lon": 0.0, "rental_uris": {"android": "https://dc.lft.to/lastmile_qr_scan", "ios": "https://dc.lft.to/lastmile_qr_scan"}, "is_reserved": 0, "is_disabled": 0, "type": "electric_scooter", "bike_id": "dfa9e54a8a84cbe13287efb9e993b508"}, {"lon": -77.00835116666667, "lat": 38.913742666666664, "name": "562ffd7d1acef652870f90c0e4adc73b", "fusion_lat": 0.0, "fusion_lon": 0.0, "rental_uris": {"android": "https://dc.lft.to/lastmile_qr_scan", "ios": "https://dc.lft.to/lastmile_qr_scan"}, "is_reserved": 0, "is_disabled": 0, "type": "electric_scooter", "bike_id": "562ffd7d1acef652870f90c0e4adc73b"}, {"lon": -77.0272605, "lat": 38.951293166666666, "name": "0700ec30299becbd016e103897b22bc7", "fusion_lat": 0.0, "fusion_lon": 0.0, "rental_uris": {"android": "https://dc.lft.to/lastmile_qr_scan", "ios": "https://dc.lft.to/lastmile_qr_scan"}, "is_reserved": 0, "is_disabled": 0, "type": "electric_scooter", "bike_id": "0700ec30299becbd016e103897b22bc7"}, {"lon": -77.00925816666667, "lat": 38.896044833333335, "name": "dc2ed579eb9af08677636bf0f33cab82", "fusion_lat": 0.0, "fusion_lon": 0.0, "rental_uris": {"android": "https://dc.lft.to/lastmile_qr_scan", "ios": "https://dc.lft.to/lastmile_qr_scan"}, "is_reserved": 0, "is_disabled": 0, "type": "electric_scooter", "bike_id": "dc2ed579eb9af08677636bf0f33cab82"}, {"lon": -76.98858366666667, "lat": 38.900276166666664, "name": "c25a78620602d416f9c69d962130d9b5", "fusion_lat": 0.0, "fusion_lon": 0.0, "rental_uris": {"android": "https://dc.lft.to/lastmile_qr_scan", "ios": "https://dc.lft.to/lastmile_qr_scan"}, "is_reserved": 0, "is_disabled": 0, "type": "electric_scooter", "bike_id": "c25a78620602d416f9c69d962130d9b5"}, {"lon": -77.35313283333333, "lat": 38.95001633333333, "name": "5c15483b11c6491fcb3cf3e5fbaf3083", "fusion_lat": 0.0, "fusion_lon": 0.0, "rental_uris": {"android": "https://dc.lft.to/lastmile_qr_scan", "ios": "https://dc.lft.to/lastmile_qr_scan"}, "is_reserved": 0, "is_disabled": 0, "type": "electric_bike", "bike_id": "5c15483b11c6491fcb3cf3e5fbaf3083"}, {"lon": -77.00752816666666, "lat": 38.871161, "name": "a67d76155cbc97ee928a8bc22aa50b03", "fusion_lat": 0.0, "fusion_lon": 0.0, "rental_uris": {"android": "https://dc.lft.to/lastmile_qr_scan", "ios": "https://dc.lft.to/lastmile_qr_scan"}, "is_reserved": 0, "is_disabled": 0, "type": "electric_scooter", "bike_id": "a67d76155cbc97ee928a8bc22aa50b03"}, {"lon": -77.05267433333333, "lat": 38.901797, "name": "995f3a6ae0dc04be8313f53053961f2d", "fusion_lat": 0.0, "fusion_lon": 0.0, "rental_uris": {"android": "https://dc.lft.to/lastmile_qr_scan", "ios": "https://dc.lft.to/lastmile_qr_scan"}, "is_reserved": 0, "is_disabled": 0, "type": "electric_scooter", "bike_id": "995f3a6ae0dc04be8313f53053961f2d"}, {"lon": -77.022118, "lat": 38.88767983333334, "name": "aa3743f541ee5320bca91e8cc61c2918", "fusion_lat": 0.0, "fusion_lon": 0.0, "rental_uris": {"android": "https://dc.lft.to/lastmile_qr_scan", "ios": "https://dc.lft.to/lastmile_qr_scan"}, "is_reserved": 0, "is_disabled": 0, "type": "electric_scooter", "bike_id": "aa3743f541ee5320bca91e8cc61c2918"}, {"lon": -77.04029716666666, "lat": 38.923727, "name": "967a0a1f7bd47963d6316dcf21be5949", "fusion_lat": 0.0, "fusion_lon": 0.0, "rental_uris": {"android": "https://dc.lft.to/lastmile_qr_scan", "ios": "https://dc.lft.to/lastmile_qr_scan"}, "is_reserved": 0, "is_disabled": 0, "type": "electric_scooter", "bike_id": "967a0a1f7bd47963d6316dcf21be5949"}, {"lon": -76.98360333333333, "lat": 38.864867333333336, "name": "79d49043944dc0068032e7851f60c41a", "fusion_lat": 0.0, "fusion_lon": 0.0, "rental_uris": {"android": "https://dc.lft.to/lastmile_qr_scan", "ios": "https://dc.lft.to/lastmile_qr_scan"}, "is_reserved": 0, "is_disabled": 0, "type": "electric_scooter", "bike_id": "79d49043944dc0068032e7851f60c41a"}, {"lon": -77.00339933333333, "lat": 38.893568333333334, "name": "1e7d9e7ea7becb74ba6e39d63dd40d5c", "fusion_lat": 0.0, "fusion_lon": 0.0, "rental_uris": {"android": "https://dc.lft.to/lastmile_qr_scan", "ios": "https://dc.lft.to/lastmile_qr_scan"}, "is_reserved": 0, "is_disabled": 0, "type": "electric_scooter", "bike_id": "1e7d9e7ea7becb74ba6e39d63dd40d5c"}, {"lon": -77.0363625, "lat": 38.91626083333333, "name": "b851a0ef7ceea6303c5140134f821dfe", "fusion_lat": 0.0, "fusion_lon": 0.0, "rental_uris": {"android": "https://dc.lft.to/lastmile_qr_scan", "ios": "https://dc.lft.to/lastmile_qr_scan"}, "is_reserved": 0, "is_disabled": 0, "type": "electric_scooter", "bike_id": "b851a0ef7ceea6303c5140134f821dfe"}, {"lon": -77.03466083333333, "lat": 38.92053383333333, "name": "2674e3ccd1f2c3659fafcb1c437556f2", "fusion_lat": 0.0, "fusion_lon": 0.0, "rental_uris": {"android": "https://dc.lft.to/lastmile_qr_scan", "ios": "https://dc.lft.to/lastmile_qr_scan"}, "is_reserved": 0, "is_disabled": 0, "type": "electric_scooter", "bike_id": "2674e3ccd1f2c3659fafcb1c437556f2"}, {"lon": -76.97091466666667, "lat": 38.878804833333334, "name": "cb38f4c72dabdce363f8b219436b8f8f", "fusion_lat": 0.0, "fusion_lon": 0.0, "rental_uris": {"android": "https://dc.lft.to/lastmile_qr_scan", "ios": "https://dc.lft.to/lastmile_qr_scan"}, "is_reserved": 0, "is_disabled": 0, "type": "electric_scooter", "bike_id": "cb38f4c72dabdce363f8b219436b8f8f"}, {"lon": -76.99778933333333, "lat": 38.922927333333334, "name": "b9ca1f0599b66064a9d2675b0a2db511", "fusion_lat": 0.0, "fusion_lon": 0.0, "rental_uris": {"android": "https://dc.lft.to/lastmile_qr_scan", "ios": "https://dc.lft.to/lastmile_qr_scan"}, "is_reserved": 0, "is_disabled": 0, "type": "electric_scooter", "bike_id": "b9ca1f0599b66064a9d2675b0a2db511"}, {"lon": -77.11431616666667, "lat": 38.85249733333333, "name": "b5bae2585451aefc97cb744ab6ab7239", "fusion_lat": 0.0, "fusion_lon": 0.0, "rental_uris": {"android": "https://dc.lft.to/lastmile_qr_scan", "ios": "https://dc.lft.to/lastmile_qr_scan"}, "is_reserved": 0, "is_disabled": 0, "type": "electric_bike", "bike_id": "b5bae2585451aefc97cb744ab6ab7239"}, {"lon": -77.03832, "lat": 38.911924666666664, "name": "e091c3ea7c8042d552c64c3eb61a6352", "fusion_lat": 0.0, "fusion_lon": 0.0, "rental_uris": {"android": "https://dc.lft.to/lastmile_qr_scan", "ios": "https://dc.lft.to/lastmile_qr_scan"}, "is_reserved": 0, "is_disabled": 0, "type": "electric_scooter", "bike_id": "e091c3ea7c8042d552c64c3eb61a6352"}, {"lon": -77.03215966666667, "lat": 38.89218566666667, "name": "b1854374d79c96a4f08a0fec607d9dc1", "fusion_lat": 0.0, "fusion_lon": 0.0, "rental_uris": {"android": "https://dc.lft.to/lastmile_qr_scan", "ios": "https://dc.lft.to/lastmile_qr_scan"}, "is_reserved": 0, "is_disabled": 0, "type": "electric_scooter", "bike_id": "b1854374d79c96a4f08a0fec607d9dc1"}, {"lon": -77.0336, "lat": 38.903851333333336, "name": "8b87c68ad3994604b1528fb6f92e227f", "fusion_lat": 0.0, "fusion_lon": 0.0, "rental_uris": {"android": "https://dc.lft.to/lastmile_qr_scan", "ios": "https://dc.lft.to/lastmile_qr_scan"}, "is_reserved": 0, "is_disabled": 0, "type": "electric_scooter", "bike_id": "8b87c68ad3994604b1528fb6f92e227f"}, {"lon": -77.0462185, "lat": 38.92233183333333, "name": "713022708cb3f67aaa6d5ab3273c603b", "fusion_lat": 0.0, "fusion_lon": 0.0, "rental_uris": {"android": "https://dc.lft.to/lastmile_qr_scan", "ios": "https://dc.lft.to/lastmile_qr_scan"}, "is_reserved": 0, "is_disabled": 0, "type": "electric_scooter", "bike_id": "713022708cb3f67aaa6d5ab3273c603b"}, {"lon": -77.04351683333333, "lat": 38.90585083333333, "name": "2f3ac4558e97133bfec85e5564d2269a", "fusion_lat": 0.0, "fusion_lon": 0.0, "rental_uris": {"android": "https://dc.lft.to/lastmile_qr_scan", "ios": "https://dc.lft.to/lastmile_qr_scan"}, "is_reserved": 0, "is_disabled": 0, "type": "electric_scooter", "bike_id": "2f3ac4558e97133bfec85e5564d2269a"}, {"lon": -77.015327, "lat": 38.885281, "name": "95a0dc7237287b4a25f98eeaadcdf41a", "fusion_lat": 0.0, "fusion_lon": 0.0, "rental_uris": {"android": "https://dc.lft.to/lastmile_qr_scan", "ios": "https://dc.lft.to/lastmile_qr_scan"}, "is_reserved": 0, "is_disabled": 0, "type": "electric_bike", "bike_id": "95a0dc7237287b4a25f98eeaadcdf41a"}, {"lon": -76.98757766666667, "lat": 38.844982, "name": "6b88ca33f86bd946e18fc89a393e10ed", "fusion_lat": 0.0, "fusion_lon": 0.0, "rental_uris": {"android": "https://dc.lft.to/lastmile_qr_scan", "ios": "https://dc.lft.to/lastmile_qr_scan"}, "is_reserved": 0, "is_disabled": 0, "type": "electric_scooter", "bike_id": "6b88ca33f86bd946e18fc89a393e10ed"}, {"lon": -77.0325695, "lat": 38.929817166666666, "name": "4370f95ed4eb6a465fdb4dd3579487bd", "fusion_lat": 0.0, "fusion_lon": 0.0, "rental_uris": {"android": "https://dc.lft.to/lastmile_qr_scan", "ios": "https://dc.lft.to/lastmile_qr_scan"}, "is_reserved": 0, "is_disabled": 0, "type": "electric_scooter", "bike_id": "4370f95ed4eb6a465fdb4dd3579487bd"}, {"lon": -77.0383695, "lat": 38.9051855, "name": "4a847c854af59a2c83c93018281bd0c3", "fusion_lat": 0.0, "fusion_lon": 0.0, "rental_uris": {"android": "https://dc.lft.to/lastmile_qr_scan", "ios": "https://dc.lft.to/lastmile_qr_scan"}, "is_reserved": 0, "is_disabled": 0, "type": "electric_scooter", "bike_id": "4a847c854af59a2c83c93018281bd0c3"}, {"lon": -76.99616766666666, "lat": 38.88560616666667, "name": "b19e8d3e4dec138d4a9dacb98e1f9901", "fusion_lat": 0.0, "fusion_lon": 0.0, "rental_uris": {"android": "https://dc.lft.to/lastmile_qr_scan", "ios": "https://dc.lft.to/lastmile_qr_scan"}, "is_reserved": 0, "is_disabled": 0, "type": "electric_scooter", "bike_id": "b19e8d3e4dec138d4a9dacb98e1f9901"}, {"lon": -77.05687066666667, "lat": 38.92340466666667, "name": "66521a864f2fe29fa284496a77e054c8", "fusion_lat": 0.0, "fusion_lon": 0.0, "rental_uris": {"android": "https://dc.lft.to/lastmile_qr_scan", "ios": "https://dc.lft.to/lastmile_qr_scan"}, "is_reserved": 0, "is_disabled": 0, "type": "electric_scooter", "bike_id": "66521a864f2fe29fa284496a77e054c8"}, {"lon": -77.00207916666666, "lat": 38.90042583333334, "name": "31496b718ebec03b02cb3df93f317b5d", "fusion_lat": 0.0, "fusion_lon": 0.0, "rental_uris": {"android": "https://dc.lft.to/lastmile_qr_scan", "ios": "https://dc.lft.to/lastmile_qr_scan"}, "is_reserved": 0, "is_disabled": 0, "type": "electric_scooter", "bike_id": "31496b718ebec03b02cb3df93f317b5d"}, {"lon": -76.98232366666667, "lat": 38.867640333333334, "name": "d274f820f883fcdfdaa621373c05c91e", "fusion_lat": 0.0, "fusion_lon": 0.0, "rental_uris": {"android": "https://dc.lft.to/lastmile_qr_scan", "ios": "https://dc.lft.to/lastmile_qr_scan"}, "is_reserved": 0, "is_disabled": 0, "type": "electric_scooter", "bike_id": "d274f820f883fcdfdaa621373c05c91e"}, {"lon": -77.07188916666667, "lat": 38.91996, "name": "62bf178e4c7d2a26ba7bf705d12add48", "fusion_lat": 0.0, "fusion_lon": 0.0, "rental_uris": {"android": "https://dc.lft.to/lastmile_qr_scan", "ios": "https://dc.lft.to/lastmile_qr_scan"}, "is_reserved": 0, "is_disabled": 0, "type": "electric_scooter", "bike_id": "62bf178e4c7d2a26ba7bf705d12add48"}, {"lon": -77.02828633333333, "lat": 38.88745433333333, "name": "a9af88b469924e8353dcc5ec437e1714", "fusion_lat": 0.0, "fusion_lon": 0.0, "rental_uris": {"android": "https://dc.lft.to/lastmile_qr_scan", "ios": "https://dc.lft.to/lastmile_qr_scan"}, "is_reserved": 0, "is_disabled": 0, "type": "electric_scooter", "bike_id": "a9af88b469924e8353dcc5ec437e1714"}, {"lon": -76.984332, "lat": 38.855137, "name": "bf525fe7ae20caf2d59957de138d6cdb", "fusion_lat": 0.0, "fusion_lon": 0.0, "rental_uris": {"android": "https://dc.lft.to/lastmile_qr_scan", "ios": "https://dc.lft.to/lastmile_qr_scan"}, "is_reserved": 0, "is_disabled": 0, "type": "electric_bike", "bike_id": "bf525fe7ae20caf2d59957de138d6cdb"}, {"lon": -77.03523616666666, "lat": 38.93598166666666, "name": "7e20a5a9fd9c76e512f2a47c42b34b99", "fusion_lat": 0.0, "fusion_lon": 0.0, "rental_uris": {"android": "https://dc.lft.to/lastmile_qr_scan", "ios": "https://dc.lft.to/lastmile_qr_scan"}, "is_reserved": 0, "is_disabled": 0, "type": "electric_scooter", "bike_id": "7e20a5a9fd9c76e512f2a47c42b34b99"}, {"lon": -77.05213233333333, "lat": 38.935333666666665, "name": "b6f6090946304c355c44de6ac0ae6ce5", "fusion_lat": 0.0, "fusion_lon": 0.0, "rental_uris": {"android": "https://dc.lft.to/lastmile_qr_scan", "ios": "https://dc.lft.to/lastmile_qr_scan"}, "is_reserved": 0, "is_disabled": 0, "type": "electric_bike", "bike_id": "b6f6090946304c355c44de6ac0ae6ce5"}, {"lon": -77.04329866666667, "lat": 38.91201816666667, "name": "009a260ee7597a763f83763fc111d625", "fusion_lat": 0.0, "fusion_lon": 0.0, "rental_uris": {"android": "https://dc.lft.to/lastmile_qr_scan", "ios": "https://dc.lft.to/lastmile_qr_scan"}, "is_reserved": 0, "is_disabled": 0, "type": "electric_scooter", "bike_id": "009a260ee7597a763f83763fc111d625"}, {"lon": -77.04999783333334, "lat": 38.892298, "name": "39e42920a1c59f07bd27e268e75311a6", "fusion_lat": 0.0, "fusion_lon": 0.0, "rental_uris": {"android": "https://dc.lft.to/lastmile_qr_scan", "ios": "https://dc.lft.to/lastmile_qr_scan"}, "is_reserved": 0, "is_disabled": 0, "type": "electric_scooter", "bike_id": "39e42920a1c59f07bd27e268e75311a6"}, {"lon": -77.06988883333334, "lat": 38.946914166666666, "name": "09cc6617e837e03c4380ac6e472df9b8", "fusion_lat": 0.0, "fusion_lon": 0.0, "rental_uris": {"android": "https://dc.lft.to/lastmile_qr_scan", "ios": "https://dc.lft.to/lastmile_qr_scan"}, "is_reserved": 0, "is_disabled": 0, "type": "electric_scooter", "bike_id": "09cc6617e837e03c4380ac6e472df9b8"}, {"lon": -76.9941085, "lat": 38.910112833333336, "name": "c76527aaa9478aea926c7b2d4d4b324d", "fusion_lat": 0.0, "fusion_lon": 0.0, "rental_uris": {"android": "https://dc.lft.to/lastmile_qr_scan", "ios": "https://dc.lft.to/lastmile_qr_scan"}, "is_reserved": 0, "is_disabled": 0, "type": "electric_scooter", "bike_id": "c76527aaa9478aea926c7b2d4d4b324d"}, {"lon": -77.05264533333333, "lat": 38.9256955, "name": "fd3f464ddaca593291c7c7803f8d5ba6", "fusion_lat": 0.0, "fusion_lon": 0.0, "rental_uris": {"android": "https://dc.lft.to/lastmile_qr_scan", "ios": "https://dc.lft.to/lastmile_qr_scan"}, "is_reserved": 0, "is_disabled": 0, "type": "electric_scooter", "bike_id": "fd3f464ddaca593291c7c7803f8d5ba6"}, {"lon": -76.9806975, "lat": 38.88025233333333, "name": "663e8b0c6ae60507087649e9cd1336a8", "fusion_lat": 0.0, "fusion_lon": 0.0, "rental_uris": {"android": "https://dc.lft.to/lastmile_qr_scan", "ios": "https://dc.lft.to/lastmile_qr_scan"}, "is_reserved": 0, "is_disabled": 0, "type": "electric_scooter", "bike_id": "663e8b0c6ae60507087649e9cd1336a8"}, {"lon": -77.02258283333333, "lat": 38.9282505, "name": "a81f65be0bdf6c6ace2595626696c9cc", "fusion_lat": 0.0, "fusion_lon": 0.0, "rental_uris": {"android": "https://dc.lft.to/lastmile_qr_scan", "ios": "https://dc.lft.to/lastmile_qr_scan"}, "is_reserved": 0, "is_disabled": 0, "type": "electric_scooter", "bike_id": "a81f65be0bdf6c6ace2595626696c9cc"}, {"lon": -76.99829316666667, "lat": 38.90033283333333, "name": "b6ab44ab5d452a43d92b52ed8cb5736f", "fusion_lat": 0.0, "fusion_lon": 0.0, "rental_uris": {"android": "https://dc.lft.to/lastmile_qr_scan", "ios": "https://dc.lft.to/lastmile_qr_scan"}, "is_reserved": 0, "is_disabled": 0, "type": "electric_scooter", "bike_id": "b6ab44ab5d452a43d92b52ed8cb5736f"}, {"lon": -76.99631633333334, "lat": 38.846221166666666, "name": "5d97b2e4097c7ec080a63bf97c71b171", "fusion_lat": 0.0, "fusion_lon": 0.0, "rental_uris": {"android": "https://dc.lft.to/lastmile_qr_scan", "ios": "https://dc.lft.to/lastmile_qr_scan"}, "is_reserved": 0, "is_disabled": 0, "type": "electric_scooter", "bike_id": "5d97b2e4097c7ec080a63bf97c71b171"}, {"lon": -77.12738416666667, "lat": 38.895664833333335, "name": "9dde23e7aed4b580a27a87c9ffa6c46d", "fusion_lat": 0.0, "fusion_lon": 0.0, "rental_uris": {"android": "https://dc.lft.to/lastmile_qr_scan", "ios": "https://dc.lft.to/lastmile_qr_scan"}, "is_reserved": 0, "is_disabled": 0, "type": "electric_bike", "bike_id": "9dde23e7aed4b580a27a87c9ffa6c46d"}, {"lon": -77.0462685, "lat": 38.91914083333333, "name": "c9aa0bfa2c0d446e12ef8074e9e340a4", "fusion_lat": 0.0, "fusion_lon": 0.0, "rental_uris": {"android": "https://dc.lft.to/lastmile_qr_scan", "ios": "https://dc.lft.to/lastmile_qr_scan"}, "is_reserved": 0, "is_disabled": 0, "type": "electric_scooter", "bike_id": "c9aa0bfa2c0d446e12ef8074e9e340a4"}, {"lon": -77.02808433333334, "lat": 38.93060366666667, "name": "080dd0ea9b167582c56dff723d75a674", "fusion_lat": 0.0, "fusion_lon": 0.0, "rental_uris": {"android": "https://dc.lft.to/lastmile_qr_scan", "ios": "https://dc.lft.to/lastmile_qr_scan"}, "is_reserved": 0, "is_disabled": 0, "type": "electric_scooter", "bike_id": "080dd0ea9b167582c56dff723d75a674"}, {"lon": -77.02694366666667, "lat": 38.90940666666667, "name": "50a8ff6e63576a1311427aa84dfb546e", "fusion_lat": 0.0, "fusion_lon": 0.0, "rental_uris": {"android": "https://dc.lft.to/lastmile_qr_scan", "ios": "https://dc.lft.to/lastmile_qr_scan"}, "is_reserved": 0, "is_disabled": 0, "type": "electric_scooter", "bike_id": "50a8ff6e63576a1311427aa84dfb546e"}, {"lon": -77.04148583333334, "lat": 38.915601333333335, "name": "bd958518344f83ff6dc24b6333ea10db", "fusion_lat": 0.0, "fusion_lon": 0.0, "rental_uris": {"android": "https://dc.lft.to/lastmile_qr_scan", "ios": "https://dc.lft.to/lastmile_qr_scan"}, "is_reserved": 0, "is_disabled": 0, "type": "electric_scooter", "bike_id": "bd958518344f83ff6dc24b6333ea10db"}, {"lon": -76.92713133333334, "lat": 38.88768983333333, "name": "9b38db1c17967bfde1bc1961a17612d4", "fusion_lat": 0.0, "fusion_lon": 0.0, "rental_uris": {"android": "https://dc.lft.to/lastmile_qr_scan", "ios": "https://dc.lft.to/lastmile_qr_scan"}, "is_reserved": 0, "is_disabled": 0, "type": "electric_scooter", "bike_id": "9b38db1c17967bfde1bc1961a17612d4"}, {"lon": -76.98021683333333, "lat": 38.90381283333333, "name": "ae58fe6fd55c87e09bf0fae794e4993b", "fusion_lat": 0.0, "fusion_lon": 0.0, "rental_uris": {"android": "https://dc.lft.to/lastmile_qr_scan", "ios": "https://dc.lft.to/lastmile_qr_scan"}, "is_reserved": 0, "is_disabled": 0, "type": "electric_scooter", "bike_id": "ae58fe6fd55c87e09bf0fae794e4993b"}, {"lon": -77.01079366666667, "lat": 38.962641, "name": "8b5ca2ea61a36e42f8486150f8933439", "fusion_lat": 0.0, "fusion_lon": 0.0, "rental_uris": {"android": "https://dc.lft.to/lastmile_qr_scan", "ios": "https://dc.lft.to/lastmile_qr_scan"}, "is_reserved": 0, "is_disabled": 0, "type": "electric_bike", "bike_id": "8b5ca2ea61a36e42f8486150f8933439"}, {"lon": -77.0409005, "lat": 38.905364666666664, "name": "6aeee81f6120332eb6010d943aa5ecf0", "fusion_lat": 0.0, "fusion_lon": 0.0, "rental_uris": {"android": "https://dc.lft.to/lastmile_qr_scan", "ios": "https://dc.lft.to/lastmile_qr_scan"}, "is_reserved": 0, "is_disabled": 0, "type": "electric_scooter", "bike_id": "6aeee81f6120332eb6010d943aa5ecf0"}, {"lon": -77.04057166666666, "lat": 38.91770566666667, "name": "fe6049a5347b2717659b326fc9175d37", "fusion_lat": 0.0, "fusion_lon": 0.0, "rental_uris": {"android": "https://dc.lft.to/lastmile_qr_scan", "ios": "https://dc.lft.to/lastmile_qr_scan"}, "is_reserved": 0, "is_disabled": 0, "type": "electric_scooter", "bike_id": "fe6049a5347b2717659b326fc9175d37"}, {"lon": -77.03105183333334, "lat": 38.93385083333333, "name": "5b0a2ed6175f737a58ef8fd10c857439", "fusion_lat": 0.0, "fusion_lon": 0.0, "rental_uris": {"android": "https://dc.lft.to/lastmile_qr_scan", "ios": "https://dc.lft.to/lastmile_qr_scan"}, "is_reserved": 0, "is_disabled": 0, "type": "electric_scooter", "bike_id": "5b0a2ed6175f737a58ef8fd10c857439"}, {"lon": -76.986166, "lat": 38.85462416666667, "name": "bb5595f41b19da4a738ee0365c03f6f7", "fusion_lat": 0.0, "fusion_lon": 0.0, "rental_uris": {"android": "https://dc.lft.to/lastmile_qr_scan", "ios": "https://dc.lft.to/lastmile_qr_scan"}, "is_reserved": 0, "is_disabled": 0, "type": "electric_scooter", "bike_id": "bb5595f41b19da4a738ee0365c03f6f7"},