{"data": {"bikes": [{"bike_id": "616c696f3b58fdf5ee258dcec79f6ddc", "fusion_lon": 0.0, "lon": -77.03267083333333, "name": "616c696f3b58fdf5ee258dcec79f6ddc", "is_disabled": 0, "rental_uris": {"android": "https://dc.lft.to/lastmile_qr_scan", "ios": "https://dc.lft.to/lastmile_qr_scan"}, "type": "electric_scooter", "lat": 38.93239833333333, "is_reserved": 0, "fusion_lat": 0.0}, {"bike_id": "bf1039c30ac372c745c57a6995a76535", "fusion_lon": 0.0, "lon": -77.0310625, "name": "bf1039c30ac372c745c57a6995a76535", "is_disabled": 0, "rental_uris": {"android": "https://dc.lft.to/lastmile_qr_scan", "ios": "https://dc.lft.to/lastmile_qr_scan"}, "type": "electric_scooter", "lat": 38.919167, "is_reserved": 0, "fusion_lat": 0.0}, {"bike_id": "eef615ba4cd63f44691ce05fdeb5a267", "fusion_lon": 0.0, "lon": -77.029655, "name": "eef615ba4cd63f44691ce05fdeb5a267", "is_disabled": 0, "rental_uris": {"android": "https://dc.lft.to/lastmile_qr_scan", "ios": "https://dc.lft.to/lastmile_qr_scan"}, "type": "electric_scooter", "lat": 38.923680166666664, "is_reserved": 0, "fusion_lat": 0.0}, {"bike_id": "34771ed3bf91ace9fce28dc647cbb200", "fusion_lon": 0.0, "lon": -76.983762, "name": "34771ed3bf91ace9fce28dc647cbb200", "is_disabled": 0, "rental_uris": {"android": "https://dc.lft.to/lastmile_qr_scan", "ios": "https://dc.lft.to/lastmile_qr_scan"}, "type": "electric_bike", "lat": 38.87835833333333, "is_reserved": 0, "fusion_lat": 0.0}, {"bike_id": "738806801c4b01581a97f591c8b9137e", "fusion_lon": 0.0, "lon": -77.03128583333333, "name": "738806801c4b01581a97f591c8b9137e", "is_disabled": 0, "rental_uris": {"android": "https://dc.lft.to/lastmile_qr_scan", "ios": "https://dc.lft.to/lastmile_qr_scan"}, "type": "electric_scooter", "lat": 38.9155355, "is_reserved": 0, "fusion_lat": 0.0}, {"bike_id": "acdecaaf24065caade79d70663c55953", "fusion_lon": 0.0, "lon": -77.03220166666667, "name": "acdecaaf24065caade79d70663c55953", "is_disabled": 0, "rental_uris": {"android": "https://dc.lft.to/lastmile_qr_scan", "ios": "https://dc.lft.to/lastmile_qr_scan"}, "type": "electric_scooter", "lat": 38.9140605, "is_reserved": 0, "fusion_lat": 0.0}, {"bike_id": "537a2513f222aa135bbc30c7c6eff364", "fusion_lon": 0.0, "lon": -77.03436583333334, "name": "537a2513f222aa135bbc30c7c6eff364", "is_disabled": 0, "rental_uris": {"android": "https://dc.lft.to/lastmile_qr_scan", "ios": "https://dc.lft.to/lastmile_qr_scan"}, "type": "electric_scooter", "lat": 38.9072865, "is_reserved": 0, "fusion_lat": 0.0}, {"bike_id": "53fa3ddb10a6db0723e419b4ca2e6114", "fusion_lon": 0.0, "lon": -77.18740766666667, "name": "53fa3ddb10a6db0723e419b4ca2e6114", "is_disabled": 0, "rental_uris": {"android": "https://dc.lft.to/lastmile_qr_scan", "ios": "https://dc.lft.to/lastmile_qr_scan"}, "type": "electric_bike", "lat": 38.893549, "is_reserved": 0, "fusion_lat": 0.0}, {"bike_id": "688406b1e40331a760fe7f15ef878be7", "fusion_lon": 0.0, "lon": -76.99877683333334, "name": "688406b1e40331a760fe7f15ef878be7", "is_disabled": 0, "rental_uris": {"android": "https://dc.lft.to/lastmile_qr_scan", "ios": "https://dc.lft.to/lastmile_qr_scan"}, "type": "electric_scooter", "lat": 38.900296166666664, "is_reserved": 0, "fusion_lat": 0.0}, {"bike_id": "9d07b7da119d6a37f4edcaa88a663bf7", "fusion_lon": 0.0, "lon": -77.0308405, "name": "9d07b7da119d6a37f4edcaa88a663bf7", "is_disabled": 0, "rental_uris": {"android": "https://dc.lft.to/lastmile_qr_scan", "ios": "https://dc.lft.to/lastmile_qr_scan"}, "type": "electric_scooter", "lat": 38.8803665, "is_reserved": 0, "fusion_lat": 0.0}, {"bike_id": "b28b6e693bd48664136ef071f2294ae6", "fusion_lon": 0.0, "lon": -77.0129415, "name": "b28b6e693bd48664136ef071f2294ae6", "is_disabled": 0, "rental_uris": {"android": "https://dc.lft.to/lastmile_qr_scan", "ios": "https://dc.lft.to/lastmile_qr_scan"}, "type": "electric_scooter", "lat": 38.881475, "is_reserved": 0, "fusion_lat": 0.0}, {"bike_id": "c261ca9efd41d8211813a074b1a1f306", "fusion_lon": 0.0, "lon": -77.02050133333333, "name": "c261ca9efd41d8211813a074b1a1f306", "is_disabled": 0, "rental_uris": {"android": "https://dc.lft.to/lastmile_qr_scan", "ios": "https://dc.lft.to/lastmile_qr_scan"}, "type": "electric_scooter", "lat": 38.915596, "is_reserved": 0, "fusion_lat": 0.0}, {"bike_id": "cb733d3d0f12d3f36f69880ed8c421a0", "fusion_lon": 0.0, "lon": -77.04875933333334, "name": "cb733d3d0f12d3f36f69880ed8c421a0", "is_disabled": 0, "rental_uris": {"android": "https://dc.lft.to/lastmile_qr_scan", "ios": "https://dc.lft.to/lastmile_qr_scan"}, "type": "electric_scooter", "lat": 38.90975783333333, "is_reserved": 0, "fusion_lat": 0.0}, {"bike_id": "6e2a240516d79fc4919cc85459472102", "fusion_lon": 0.0, "lon": -77.0080335, "name": "6e2a240516d79fc4919cc85459472102", "is_disabled": 0, "rental_uris": {"android": "https://dc.lft.to/lastmile_qr_scan", "ios": "https://dc.lft.to/lastmile_qr_scan"}, "type": "electric_bike", "lat": 38.949255666666666, "is_reserved": 0, "fusion_lat": 0.0}, {"bike_id": "1d85aafaee3714b2d7f63dd0fdc7263a", "fusion_lon": 0.0, "lon": -77.057657, "name": "1d85aafaee3714b2d7f63dd0fdc7263a", "is_disabled": 0, "rental_uris": {"android": "https://dc.lft.to/lastmile_qr_scan", "ios": "https://dc.lft.to/lastmile_qr_scan"}, "type": "electric_bike", "lat": 38.925145666666666, "is_reserved": 0, "fusion_lat": 0.0}, {"bike_id": "7e09a31efcd1a5fac8e5039e1aef3630", "fusion_lon": 0.0, "lon": -77.03766166666666, "name": "7e09a31efcd1a5fac8e5039e1aef3630", "is_disabled": 0, "rental_uris": {"android": "https://dc.lft.to/lastmile_qr_scan", "ios": "https://dc.lft.to/lastmile_qr_scan"}, "type": "electric_scooter", "lat": 38.906621666666666, "is_reserved": 0, "fusion_lat": 0.0}, {"bike_id": "ba23cb618748e2f6300a68c5dd9c41b7", "fusion_lon": 0.0, "lon": -77.04364933333333, "name": "ba23cb618748e2f6300a68c5dd9c41b7", "is_disabled": 0, "rental_uris": {"android": "https://dc.lft.to/lastmile_qr_scan", "ios": "https://dc.lft.to/lastmile_qr_scan"}, "type": "electric_scooter", "lat": 38.89220366666667, "is_reserved": 0, "fusion_lat": 0.0}, {"bike_id": "c74455e0dda1fbf7e23e75e50ad0e987", "fusion_lon": 0.0, "lon": -77.02414016666667, "name": "c74455e0dda1fbf7e23e75e50ad0e987", "is_disabled": 0, "rental_uris": {"android": "https://dc.lft.to/lastmile_qr_scan", "ios": "https://dc.lft.to/lastmile_qr_scan"}, "type": "electric_scooter", "lat": 38.91690966666667, "is_reserved": 0, "fusion_lat": 0.0}, {"bike_id": "af18e0d4934668cc7b44109e0e28279d", "fusion_lon": 0.0, "lon": -77.05857716666667, "name": "af18e0d4934668cc7b44109e0e28279d", "is_disabled": 0, "rental_uris": {"android": "https://dc.lft.to/lastmile_qr_scan", "ios": "https://dc.lft.to/lastmile_qr_scan"}, "type": "electric_scooter", "lat": 38.936001166666664, "is_reserved": 0, "fusion_lat": 0.0}, {"bike_id": "8a49c1f52528f440b6383281b00117f4", "fusion_lon": 0.0, "lon": -77.02969916666666, "name": "8a49c1f52528f440b6383281b00117f4", "is_disabled": 0, "rental_uris": {"android": "https://dc.lft.to/lastmile_qr_scan", "ios": "https://dc.lft.to/lastmile_qr_scan"}, "type": "electric_scooter", "lat": 38.923239333333335, "is_reserved": 0, "fusion_lat": 0.0}, {"bike_id": "30864432fd36f49af3366262c4f23837", "fusion_lon": 0.0, "lon": -77.0141335, "name": "30864432fd36f49af3366262c4f23837", "is_disabled": 0, "rental_uris": {"android": "https://dc.lft.to/lastmile_qr_scan", "ios": "https://dc.lft.to/lastmile_qr_scan"}, "type": "electric_scooter", "lat": 38.88129083333333, "is_reserved": 0, "fusion_lat": 0.0}, {"bike_id": "b6f22c3194149a94e6bc96f0710799a9", "fusion_lon": 0.0, "lon": -76.99034983333334, "name": "b6f22c3194149a94e6bc96f0710799a9", "is_disabled": 0, "rental_uris": {"android": "https://dc.lft.to/lastmile_qr_scan", "ios": "https://dc.lft.to/lastmile_qr_scan"}, "type": "electric_scooter", "lat": 38.89849916666667, "is_reserved": 0, "fusion_lat": 0.0}, {"bike_id": "e323be2c8fcca85245b074bf7425968d", "fusion_lon": 0.0, "lon": -77.04413483333333, "name": "e323be2c8fcca85245b074bf7425968d", "is_disabled": 0, "rental_uris": {"android": "https://dc.lft.to/lastmile_qr_scan", "ios": "https://dc.lft.to/lastmile_qr_scan"}, "type": "electric_bike", "lat": 39.015677833333335, "is_reserved": 0, "fusion_lat": 0.0}, {"bike_id": "d20acf6b89d38f1fc4e4a07696a43a81", "fusion_lon": 0.0, "lon": -77.05388983333333, "name": "d20acf6b89d38f1fc4e4a07696a43a81", "is_disabled": 0, "rental_uris": {"android": "https://dc.lft.to/lastmile_qr_scan", "ios": "https://dc.lft.to/lastmile_qr_scan"}, "type": "electric_scooter", "lat": 38.91067783333333, "is_reserved": 0, "fusion_lat": 0.0}, {"bike_id": "08bfaee5bd32733e0623549d61d98cdc", "fusion_lon": 0.0, "lon": -76.93158883333334, "name": "08bfaee5bd32733e0623549d61d98cdc", "is_disabled": 0, "rental_uris": {"android": "https://dc.lft.to/lastmile_qr_scan", "ios": "https://dc.lft.to/lastmile_qr_scan"}, "type": "electric_scooter", "lat": 38.8987745, "is_reserved": 0, "fusion_lat": 0.0}, {"bike_id": "a29e74ba266e93c5ea804a59532bd3bd", "fusion_lon": 0.0, "lon": -77.04831083333333, "name": "a29e74ba266e93c5ea804a59532bd3bd", "is_disabled": 0, "rental_uris": {"android": "https://dc.lft.to/lastmile_qr_scan", "ios": "https://dc.lft.to/lastmile_qr_scan"}, "type": "electric_scooter", "lat": 38.9072035, "is_reserved": 0, "fusion_lat": 0.0}, {"bike_id": "a30dc2849cf05214b8d1a20a23a96035", "fusion_lon": 0.0, "lon": -77.033302, "name": "a30dc2849cf05214b8d1a20a23a96035", "is_disabled": 0, "rental_uris": {"android": "https://dc.lft.to/lastmile_qr_scan", "ios": "https://dc.lft.to/lastmile_qr_scan"}, "type": "electric_scooter", "lat": 38.921601833333334, "is_reserved": 0, "fusion_lat": 0.0}, {"bike_id": "ce1dc2f53451d96dba53db9a7f09c1d9", "fusion_lon": 0.0, "lon": -77.04022416666666, "name": "ce1dc2f53451d96dba53db9a7f09c1d9", "is_disabled": 0, "rental_uris": {"android": "https://dc.lft.to/lastmile_qr_scan", "ios": "https://dc.lft.to/lastmile_qr_scan"}, "type": "electric_scooter", "lat": 38.9217565, "is_reserved": 0, "fusion_lat": 0.0}, {"bike_id": "a1ffc346ce6c00cf402eaa1d927138ff", "fusion_lon": 0.0, "lon": -77.029296, "name": "a1ffc346ce6c00cf402eaa1d927138ff", "is_disabled": 0, "rental_uris": {"android": "https://dc.lft.to/lastmile_qr_scan", "ios": "https://dc.lft.to/lastmile_qr_scan"}, "type": "electric_scooter", "lat": 38.9333175, "is_reserved": 0, "fusion_lat": 0.0}, {"bike_id": "9a6d4600c821d073e3459083c5bba504", "fusion_lon": 0.0, "lon": -77.04282416666666, "name": "9a6d4600c821d073e3459083c5bba504", "is_disabled": 0, "rental_uris": {"android": "https://dc.lft.to/lastmile_qr_scan", "ios": "https://dc.lft.to/lastmile_qr_scan"}, "type": "electric_scooter", "lat": 38.914087333333335, "is_reserved": 0, "fusion_lat": 0.0}, {"bike_id": "f2d8a6f6fb4a7d7bae85bf678a85829e", "fusion_lon": 0.0, "lon": -77.04168016666667, "name": "f2d8a6f6fb4a7d7bae85bf678a85829e", "is_disabled": 0, "rental_uris": {"android": "https://dc.lft.to/lastmile_qr_scan", "ios": "https://dc.lft.to/lastmile_qr_scan"}, "type": "electric_bike", "lat": 38.919782166666664, "is_reserved": 0, "fusion_lat": 0.0}, {"bike_id": "eec77d3a4cc094fa66e5a5bb139314f2", "fusion_lon": 0.0, "lon": -77.03658866666666, "name": "eec77d3a4cc094fa66e5a5bb139314f2", "is_disabled": 0, "rental_uris": {"android": "https://dc.lft.to/lastmile_qr_scan", "ios": "https://dc.lft.to/lastmile_qr_scan"}, "type": "electric_scooter", "lat": 38.93482783333333, "is_reserved": 0, "fusion_lat": 0.0}, {"bike_id": "4068372f0b931a7f6b67a2f51fd2173b", "fusion_lon": 0.0, "lon": -77.034405, "name": "4068372f0b931a7f6b67a2f51fd2173b", "is_disabled": 0, "rental_uris": {"android": "https://dc.lft.to/lastmile_qr_scan", "ios": "https://dc.lft.to/lastmile_qr_scan"}, "type": "electric_scooter", "lat": 38.90645966666666, "is_reserved": 0, "fusion_lat": 0.0}, {"bike_id": "0dc42448d21379ce7c8f4713adef623e", "fusion_lon": 0.0, "lon": -77.03189533333334, "name": "0dc42448d21379ce7c8f4713adef623e", "is_disabled": 0, "rental_uris": {"android": "https://dc.lft.to/lastmile_qr_scan", "ios": "https://dc.lft.to/lastmile_qr_scan"}, "type": "electric_scooter", "lat": 38.9210715, "is_reserved": 0, "fusion_lat": 0.0}, {"bike_id": "b8eef8903e6c92d93c0d4e08be44e802", "fusion_lon": 0.0, "lon": -77.03294916666667, "name": "b8eef8903e6c92d93c0d4e08be44e802", "is_disabled": 0, "rental_uris": {"android": "https://dc.lft.to/lastmile_qr_scan", "ios": "https://dc.lft.to/lastmile_qr_scan"}, "type": "electric_scooter", "lat": 38.9564055, "is_reserved": 0, "fusion_lat": 0.0}, {"bike_id": "f17b5b6183734f1be423753deb3399fb", "fusion_lon": 0.0, "lon": -77.03648533333333, "name": "f17b5b6183734f1be423753deb3399fb", "is_disabled": 0, "rental_uris": {"android": "https://dc.lft.to/lastmile_qr_scan", "ios": "https://dc.lft.to/lastmile_qr_scan"}, "type": "electric_scooter", "lat": 38.91318716666667, "is_reserved": 0, "fusion_lat": 0.0}, {"bike_id": "44437ffbd713ac83e27b5f0996e71f37", "fusion_lon": 0.0, "lon": -77.03713216666667, "name": "44437ffbd713ac83e27b5f0996e71f37", "is_disabled": 0, "rental_uris": {"android": "https://dc.lft.to/lastmile_qr_scan", "ios": "https://dc.lft.to/lastmile_qr_scan"}, "type": "electric_scooter", "lat": 38.90965166666667, "is_reserved": 0, "fusion_lat": 0.0}, {"bike_id": "d50f1134cb2a3177400416f3a364bf26", "fusion_lon": 0.0, "lon": -77.00196783333334, "name": "d50f1134cb2a3177400416f3a364bf26", "is_disabled": 0, "rental_uris": {"android": "https://dc.lft.to/lastmile_qr_scan", "ios": "https://dc.lft.to/lastmile_qr_scan"}, "type": "electric_scooter", "lat": 38.9023895, "is_reserved": 0, "fusion_lat": 0.0}, {"bike_id": "daa473aba28f4a934b05a6344a59d915", "fusion_lon": 0.0, "lon": -76.98183183333333, "name": "daa473aba28f4a934b05a6344a59d915", "is_disabled": 0, "rental_uris": {"android": "https://dc.lft.to/lastmile_qr_scan", "ios": "https://dc.lft.to/lastmile_qr_scan"}, "type": "electric_bike", "lat": 38.84633183333333, "is_reserved": 0, "fusion_lat": 0.0}, {"bike_id": "d0c1ef3b3817bb081b29ea0e21e2bf07", "fusion_lon": 0.0, "lon": -77.0021445, "name": "d0c1ef3b3817bb081b29ea0e21e2bf07", "is_disabled": 0, "rental_uris": {"android": "https://dc.lft.to/lastmile_qr_scan", "ios": "https://dc.lft.to/lastmile_qr_scan"}, "type": "electric_scooter", "lat": 38.90036516666667, "is_reserved": 0, "fusion_lat": 0.0}, {"bike_id": "49254e6e77b850d5a6ebbba893687709", "fusion_lon": 0.0, "lon": -77.03239333333333, "name": "49254e6e77b850d5a6ebbba893687709", "is_disabled": 0, "rental_uris": {"android": "https://dc.lft.to/lastmile_qr_scan", "ios": "https://dc.lft.to/lastmile_qr_scan"}, "type": "electric_scooter", "lat": 38.92760583333333, "is_reserved": 0, "fusion_lat": 0.0}, {"bike_id": "3ce0b60dc6f980c9f37570e1e3ba7519", "fusion_lon": 0.0, "lon": -77.05754916666666, "name": "3ce0b60dc6f980c9f37570e1e3ba7519", "is_disabled": 0, "rental_uris": {"android": "https://dc.lft.to/lastmile_qr_scan", "ios": "https://dc.lft.to/lastmile_qr_scan"}, "type": "electric_scooter", "lat": 38.925627166666665, "is_reserved": 0, "fusion_lat": 0.0}, {"bike_id": "ed7654b51d6085a918caa2b118c7bc3a", "fusion_lon": 0.0, "lon": -77.07334483333334, "name": "ed7654b51d6085a918caa2b118c7bc3a", "is_disabled": 0, "rental_uris": {"android": "https://dc.lft.to/lastmile_qr_scan", "ios": "https://dc.lft.to/lastmile_qr_scan"}, "type": "electric_scooter", "lat": 38.925617, "is_reserved": 0, "fusion_lat": 0.0}, {"bike_id": "47fa1b7bece81afd4f8f2d97a7942160", "fusion_lon": 0.0, "lon": -76.97473333333333, "name": "47fa1b7bece81afd4f8f2d97a7942160", "is_disabled": 0, "rental_uris": {"android": "https://dc.lft.to/lastmile_qr_scan", "ios": "https://dc.lft.to/lastmile_qr_scan"}, "type": "electric_scooter", "lat": 38.90348733333333, "is_reserved": 0, "fusion_lat": 0.0}, {"bike_id": "3d71451866919e4dbb512c7dd240635c", "fusion_lon": 0.0, "lon": -77.02099716666666, "name": "3d71451866919e4dbb512c7dd240635c", "is_disabled": 0, "rental_uris": {"android": "https://dc.lft.to/lastmile_qr_scan", "ios": "https://dc.lft.to/lastmile_qr_scan"}, "type": "electric_scooter", "lat": 38.922063666666666, "is_reserved": 0, "fusion_lat": 0.0}, {"bike_id": "b2eccead21e2fb8e5aaf26b90b8e815a", "fusion_lon": 0.0, "lon": -77.02223716666667, "name": "b2eccead21e2fb8e5aaf26b90b8e815a", "is_disabled": 0, "rental_uris": {"android": "https://dc.lft.to/lastmile_qr_scan", "ios": "https://dc.lft.to/lastmile_qr_scan"}, "type": "electric_scooter", "lat": 38.8921915, "is_reserved": 0, "fusion_lat": 0.0}, {"bike_id": "1bc5d62bd1ff6b013cdd60210488c5c7", "fusion_lon": 0.0, "lon": -77.0140955, "name": "1bc5d62bd1ff6b013cdd60210488c5c7", "is_disabled": 0, "rental_uris": {"android": "https://dc.lft.to/lastmile_qr_scan", "ios": "https://dc.lft.to/lastmile_qr_scan"}, "type": "electric_scooter", "lat": 38.88125483333334, "is_reserved": 0, "fusion_lat": 0.0}, {"bike_id": "20a872ab147c6f1c08dbf9354b8d1a89", "fusion_lon": 0.0, "lon": -76.93622683333334, "name": "20a872ab147c6f1c08dbf9354b8d1a89", "is_disabled": 0, "rental_uris": {"android": "https://dc.lft.to/lastmile_qr_scan", "ios": "https://dc.lft.to/lastmile_qr_scan"}, "type": "electric_bike", "lat": 38.970598833333334, "is_reserved": 0, "fusion_lat": 0.0}, {"bike_id": "154d396e5207614fe910dea152f4e21c", "fusion_lon": 0.0, "lon": -77.02887066666666, "name": "154d396e5207614fe910dea152f4e21c", "is_disabled": 0, "rental_uris": {"android": "https://dc.lft.to/lastmile_qr_scan", "ios": "https://dc.lft.to/lastmile_qr_scan"}, "type": "electric_scooter", "lat": 38.939792833333335, "is_reserved": 0, "fusion_lat": 0.0}, {"bike_id": "43f74430f96cb431a604e99fdfb6323a", "fusion_lon": 0.0, "lon": -77.0143975, "name": "43f74430f96cb431a604e99fdfb6323a", "is_disabled": 0, "rental_uris": {"android": "https://dc.lft.to/lastmile_qr_scan", "ios": "https://dc.lft.to/lastmile_qr_scan"}, "type": "electric_scooter", "lat": 38.91962816666667, "is_reserved": 0, "fusion_lat": 0.0}, {"bike_id": "c9cd6752794cedc3a7bb133206e7fb9b", "fusion_lon": 0.0, "lon": -77.041201, "name": "c9cd6752794cedc3a7bb133206e7fb9b", "is_disabled": 0, "rental_uris": {"android": "https://dc.lft.to/lastmile_qr_scan", "ios": "https://dc.lft.to/lastmile_qr_scan"}, "type": "electric_scooter", "lat": 38.9095565, "is_reserved": 0, "fusion_lat": 0.0}, {"bike_id": "a513ea9da5871ec29fbe5e458b6ca566", "fusion_lon": 0.0, "lon": -77.009227, "name": "a513ea9da5871ec29fbe5e458b6ca566", "is_disabled": 0, "rental_uris": {"android": "https://dc.lft.to/lastmile_qr_scan", "ios": "https://dc.lft.to/lastmile_qr_scan"}, "type": "electric_scooter", "lat": 38.88198633333333, "is_reserved": 0, "fusion_lat": 0.0}, {"bike_id": "6d9f167eef44fac81885767b98c94913", "fusion_lon": 0.0, "lon": -77.04405216666666, "name": "6d9f167eef44fac81885767b98c94913", "is_disabled": 0, "rental_uris": {"android": "https://dc.lft.to/lastmile_qr_scan", "ios": "https://dc.lft.to/lastmile_qr_scan"}, "type": "electric_scooter", "lat": 38.901447833333336, "is_reserved": 0, "fusion_lat": 0.0}, {"bike_id": "0c326a3937cc62bfa1a7da09e70c9b49", "fusion_lon": 0.0, "lon": -77.05896566666667, "name": "0c326a3937cc62bfa1a7da09e70c9b49", "is_disabled": 0, "rental_uris": {"android": "https://dc.lft.to/lastmile_qr_scan", "ios": "https://dc.lft.to/lastmile_qr_scan"}, "type": "electric_scooter", "lat": 38.9360695, "is_reserved": 0, "fusion_lat": 0.0}, {"bike_id": "6925c3d279dbdbbe58f8836fe782f084", "fusion_lon": 0.0, "lon": -77.085955, "name": "6925c3d279dbdbbe58f8836fe782f084", "is_disabled": 0, "rental_uris": {"android": "https://dc.lft.to/lastmile_qr_scan", "ios": "https://dc.lft.to/lastmile_qr_scan"}, "type": "electric_scooter", "lat": 38.90865733333333, "is_reserved": 0, "fusion_lat": 0.0}, {"bike_id": "3103747b875a138a83df553c52da425a", "fusion_lon": 0.0, "lon": -77.0221645, "name": "3103747b875a138a83df553c52da425a", "is_disabled": 0, "rental_uris": {"android": "https://dc.lft.to/lastmile_qr_scan", "ios": "https://dc.lft.to/lastmile_qr_scan"}, "type": "electric_scooter", "lat": 38.91558916666666, "is_reserved": 0, "fusion_lat": 0.0}, {"bike_id": "41601a917f54ab94d4d1577d814a989d", "fusion_lon": 0.0, "lon": -77.0433365, "name": "41601a917f54ab94d4d1577d814a989d", "is_disabled": 0, "rental_uris": {"android": "https://dc.lft.to/lastmile_qr_scan", "ios": "https://dc.lft.to/lastmile_qr_scan"}, "type": "electric_scooter", "lat": 38.89523883333333, "is_reserved": 0, "fusion_lat": 0.0}, {"bike_id": "4cff1d31dc69093baae6aa86f737d5da", "fusion_lon": 0.0, "lon": -76.96467, "name": "4cff1d31dc69093baae6aa86f737d5da", "is_disabled": 0, "rental_uris": {"android": "https://dc.lft.to/lastmile_qr_scan", "ios": "https://dc.lft.to/lastmile_qr_scan"}, "type": "electric_scooter", "lat": 38.9344645, "is_reserved": 0, "fusion_lat": 0.0}, {"bike_id": "482e1a9097099ec726d013d3f95f047c", "fusion_lon": 0.0, "lon": -77.04465833333333, "name": "482e1a9097099ec726d013d3f95f047c", "is_disabled": 0, "rental_uris": {"android": "https://dc.lft.to/lastmile_qr_scan", "ios": "https://dc.lft.to/lastmile_qr_scan"}, "type": "electric_scooter", "lat": 38.911831666666664, "is_reserved": 0, "fusion_lat": 0.0}, {"bike_id": "4e5fb1a9920f646b6705e5398f6be2ba", "fusion_lon": 0.0, "lon": -76.99949, "name": "4e5fb1a9920f646b6705e5398f6be2ba", "is_disabled": 0, "rental_uris": {"android": "https://dc.lft.to/lastmile_qr_scan", "ios": "https://dc.lft.to/lastmile_qr_scan"}, "type": "electric_scooter", "lat": 38.84291566666667, "is_reserved": 0, "fusion_lat": 0.0}, {"bike_id": "08af2fa7a8722d98a42dd5e916bf2fe9", "fusion_lon": 0.0, "lon": -76.9960015, "name": "08af2fa7a8722d98a42dd5e916bf2fe9", "is_disabled": 0, "rental_uris": {"android": "https://dc.lft.to/lastmile_qr_scan", "ios": "https://dc.lft.to/lastmile_qr_scan"}, "type": "electric_bike", "lat": 38.9507225, "is_reserved": 0, "fusion_lat": 0.0}, {"bike_id": "6d4c5177496e188a01410c13c178e1c4", "fusion_lon": 0.0, "lon": -77.03185033333334, "name": "6d4c5177496e188a01410c13c178e1c4", "is_disabled": 0, "rental_uris": {"android": "https://dc.lft.to/lastmile_qr_scan", "ios": "https://dc.lft.to/lastmile_qr_scan"}, "type": "electric_scooter", "lat": 38.9248905, "is_reserved": 0, "fusion_lat": 0.0}, {"bike_id": "466f1aeb0c1c2bb0f26a07001d606c1d", "fusion_lon": 0.0, "lon": -77.0385255, "name": "466f1aeb0c1c2bb0f26a07001d606c1d", "is_disabled": 0, "rental_uris": {"android": "https://dc.lft.to/lastmile_qr_scan", "ios": "https://dc.lft.to/lastmile_qr_scan"}, "type": "electric_scooter", "lat": 38.9154585, "is_reserved": 0, "fusion_lat": 0.0}, {"bike_id": "0dd02139b382c3621ba879814e2a3e7c", "fusion_lon": 0.0, "lon": -77.018292, "name": "0dd02139b382c3621ba879814e2a3e7c", "is_disabled": 0, "rental_uris": {"android": "https://dc.lft.to/lastmile_qr_scan", "ios": "https://dc.lft.to/lastmile_qr_scan"}, "type": "electric_scooter", "lat": 38.87694883333333, "is_reserved": 0, "fusion_lat": 0.0}, {"bike_id": "a06e4a534250d0e3494f0231180b8a61", "fusion_lon": 0.0, "lon": -77.02468983333333, "name": "a06e4a534250d0e3494f0231180b8a61", "is_disabled": 0, "rental_uris": {"android": "https://dc.lft.to/lastmile_qr_scan", "ios": "https://dc.lft.to/lastmile_qr_scan"}, "type": "electric_scooter", "lat": 38.90331916666667, "is_reserved": 0, "fusion_lat": 0.0}, {"bike_id": "9451de22b64ef172afca06486729876c", "fusion_lon": 0.0, "lon": -77.02813166666667, "name": "9451de22b64ef172afca06486729876c", "is_disabled": 0, "rental_uris": {"android": "https://dc.lft.to/lastmile_qr_scan", "ios": "https://dc.lft.to/lastmile_qr_scan"}, "type": "electric_scooter", "lat": 38.9167675, "is_reserved": 0, "fusion_lat": 0.0}, {"bike_id": "7150a38881fa3d6b1e24868160e5c811", "fusion_lon": 0.0, "lon": -77.0438885, "name": "7150a38881fa3d6b1e24868160e5c811", "is_disabled": 0, "rental_uris": {"android": "https://dc.lft.to/lastmile_qr_scan", "ios": "https://dc.lft.to/lastmile_qr_scan"}, "type": "electric_scooter", "lat": 38.910888666666665, "is_reserved": 0, "fusion_lat": 0.0}, {"bike_id": "fb0983ad55eaea7592f885e9a166dc8f", "fusion_lon": 0.0, "lon": -77.03096866666667, "name": "fb0983ad55eaea7592f885e9a166dc8f", "is_disabled": 0, "rental_uris": {"android": "https://dc.lft.to/lastmile_qr_scan", "ios": "https://dc.lft.to/lastmile_qr_scan"}, "type": "electric_scooter", "lat": 38.923782, "is_reserved": 0, "fusion_lat": 0.0}, {"bike_id": "295904cf9ec7ece4c795fc7137446679", "fusion_lon": 0.0, "lon": -77.001129, "name": "295904cf9ec7ece4c795fc7137446679", "is_disabled": 0, "rental_uris": {"android": "https://dc.lft.to/lastmile_qr_scan", "ios": "https://dc.lft.to/lastmile_qr_scan"}, "type": "electric_scooter", "lat": 38.917063, "is_reserved": 0, "fusion_lat": 0.0}, {"bike_id": "66b3ed471ed95b135fca17e10fad14cc", "fusion_lon": 0.0, "lon": -77.02320583333334, "name": "66b3ed471ed95b135fca17e10fad14cc", "is_disabled": 0, "rental_uris": {"android": "https://dc.lft.to/lastmile_qr_scan", "ios": "https://dc.lft.to/lastmile_qr_scan"}, "type": "electric_scooter", "lat": 38.9073465, "is_reserved": 0, "fusion_lat": 0.0}, {"bike_id": "740ee80a4fca0de5ef2f05e27c6f9283", "fusion_lon": 0.0, "lon": -77.02162066666666, "name": "740ee80a4fca0de5ef2f05e27c6f9283", "is_disabled": 0, "rental_uris": {"android": "https://dc.lft.to/lastmile_qr_scan", "ios": "https://dc.lft.to/lastmile_qr_scan"}, "type": "electric_scooter", "lat": 38.8846175, "is_reserved": 0, "fusion_lat": 0.0}, {"bike_id": "4e3747bdb79ece6c3bbf5e0a7793e8d9", "fusion_lon": 0.0, "lon": -77.035008, "name": "4e3747bdb79ece6c3bbf5e0a7793e8d9", "is_disabled": 0, "rental_uris": {"android": "https://dc.lft.to/lastmile_qr_scan", "ios": "https://dc.lft.to/lastmile_qr_scan"}, "type": "electric_scooter", "lat": 38.923400666666666, "is_reserved": 0, "fusion_lat": 0.0}, {"bike_id": "cc67980a3a0eeedebbc734b8d01e68e2", "fusion_lon": 0.0, "lon": -76.93160683333333, "name": "cc67980a3a0eeedebbc734b8d01e68e2", "is_disabled": 0, "rental_uris": {"android": "https://dc.lft.to/lastmile_qr_scan", "ios": "https://dc.lft.to/lastmile_qr_scan"}, "type": "electric_scooter", "lat": 38.8987845, "is_reserved": 0, "fusion_lat": 0.0}, {"bike_id": "d93962493a36a8638a1aff3bb89c472f", "fusion_lon": 0.0, "lon": -77.03347683333334, "name": "d93962493a36a8638a1aff3bb89c472f", "is_disabled": 0, "rental_uris": {"android": "https://dc.lft.to/lastmile_qr_scan", "ios": "https://dc.lft.to/lastmile_qr_scan"}, "type": "electric_scooter", "lat": 38.941830333333336, "is_reserved": 0, "fusion_lat": 0.0}, {"bike_id": "906173b43a82b372de0f393742e5325e", "fusion_lon": 0.0, "lon": -76.98796883333333, "name": "906173b43a82b372de0f393742e5325e", "is_disabled": 0, "rental_uris": {"android": "https://dc.lft.to/lastmile_qr_scan", "ios": "https://dc.lft.to/lastmile_qr_scan"}, "type": "electric_bike", "lat": 38.92206083333333, "is_reserved": 0, "fusion_lat": 0.0}, {"bike_id": "63342f422b8a58aaa57122b0e1f94675", "fusion_lon": 0.0, "lon": -76.98520416666666, "name": "63342f422b8a58aaa57122b0e1f94675", "is_disabled": 0, "rental_uris": {"android": "https://dc.lft.to/lastmile_qr_scan", "ios": "https://dc.lft.to/lastmile_qr_scan"}, "type": "electric_scooter", "lat": 38.8667005, "is_reserved": 0, "fusion_lat": 0.0}, {"bike_id": "8fd00fb77e3ea4e096289724fa7562e1", "fusion_lon": 0.0, "lon": -77.02576716666667, "name": "8fd00fb77e3ea4e096289724fa7562e1", "is_disabled": 0, "rental_uris": {"android": "https://dc.lft.to/lastmile_qr_scan", "ios": "https://dc.lft.to/lastmile_qr_scan"}, "type": "electric_scooter", "lat": 38.892310333333334, "is_reserved": 0, "fusion_lat": 0.0}, {"bike_id": "e78e3c23388f68a66d54ff123f682ab6", "fusion_lon": 0.0, "lon": -77.01201333333333, "name": "e78e3c23388f68a66d54ff123f682ab6", "is_disabled": 0, "rental_uris": {"android": "https://dc.lft.to/lastmile_qr_scan", "ios": "https://dc.lft.to/lastmile_qr_scan"}, "type": "electric_scooter", "lat": 38.900115, "is_reserved": 0, "fusion_lat": 0.0}, {"bike_id": "7e6a0d928723309920aa05d581c0d4cf", "fusion_lon": 0.0, "lon": -77.026922, "name": "7e6a0d928723309920aa05d581c0d4cf", "is_disabled": 0, "rental_uris": {"android": "https://dc.lft.to/lastmile_qr_scan", "ios": "https://dc.lft.to/lastmile_qr_scan"}, "type": "electric_scooter", "lat": 38.88124666666667, "is_reserved": 0, "fusion_lat": 0.0}, {"bike_id": "f8bf767735aad362ec9d315a26327530", "fusion_lon": 0.0, "lon": -76.92737733333334, "name": "f8bf767735aad362ec9d315a26327530", "is_disabled": 0, "rental_uris": {"android": "https://dc.lft.to/lastmile_qr_scan", "ios": "https://dc.lft.to/lastmile_qr_scan"}, "type": "electric_scooter", "lat": 38.88964766666667, "is_reserved": 0, "fusion_lat": 0.0}, {"bike_id": "6c0b7c6b371d5659d19e8f61880e910f", "fusion_lon": 0.0, "lon": -77.021716, "name": "6c0b7c6b371d5659d19e8f61880e910f", "is_disabled": 0, "rental_uris": {"android": "https://dc.lft.to/lastmile_qr_scan", "ios": "https://dc.lft.to/lastmile_qr_scan"}, "type": "electric_scooter", "lat": 38.94599616666667, "is_reserved": 0, "fusion_lat": 0.0}, {"bike_id": "a73828521d50e910b609fd1e0c59bc66", "fusion_lon": 0.0, "lon": -77.01610916666667, "name": "a73828521d50e910b609fd1e0c59bc66", "is_disabled": 0, "rental_uris": {"android": "https://dc.lft.to/lastmile_qr_scan", "ios": "https://dc.lft.to/lastmile_qr_scan"}, "type": "electric_scooter", "lat": 38.90270783333333, "is_reserved": 0, "fusion_lat": 0.0}, {"bike_id": "396884b48a29232bdc0be34ba1df6ac6", "fusion_lon": 0.0, "lon": -77.050522, "name": "396884b48a29232bdc0be34ba1df6ac6", "is_disabled": 0, "rental_uris": {"android": "https://dc.lft.to/lastmile_qr_scan", "ios": "https://dc.lft.to/lastmile_qr_scan"}, "type": "electric_scooter", "lat": 38.923441333333336, "is_reserved": 0, "fusion_lat": 0.0}, {"bike_id": "e11565e028c72dd6456ced5331ede33b", "fusion_lon": 0.0, "lon": -77.0619565, "name": "e11565e028c72dd6456ced5331ede33b", "is_disabled": 0, "rental_uris": {"android": "https://dc.lft.to/lastmile_qr_scan", "ios": "https://dc.lft.to/lastmile_qr_scan"}, "type": "electric_scooter", "lat": 38.944516, "is_reserved": 0, "fusion_lat": 0.0}, {"bike_id": "2257c6e57e17cc5e41a714aab0aa0306", "fusion_lon": 0.0, "lon": -77.04553366666667, "name": "2257c6e57e17cc5e41a714aab0aa0306", "is_disabled": 0, "rental_uris": {"android": "https://dc.lft.to/lastmile_qr_scan", "ios": "https://dc.lft.to/lastmile_qr_scan"}, "type": "electric_scooter", "lat": 38.924205, "is_reserved": 0, "fusion_lat": 0.0}, {"bike_id": "b62405cdaf8535d3c43fe9fffd27619e", "fusion_lon": 0.0, "lon": -77.02702466666666, "name": "b62405cdaf8535d3c43fe9fffd27619e", "is_disabled": 0, "rental_uris": {"android": "https://dc.lft.to/lastmile_qr_scan", "ios": "https://dc.lft.to/lastmile_qr_scan"}, "type": "electric_scooter", "lat": 38.918015833333335, "is_reserved": 0, "fusion_lat": 0.0}, {"bike_id": "d04f87a23d7103c775ec675a29664002", "fusion_lon": 0.0, "lon": -76.99950816666667, "name": "d04f87a23d7103c775ec675a29664002", "is_disabled": 0, "rental_uris": {"android": "https://dc.lft.to/lastmile_qr_scan", "ios": "https://dc.lft.to/lastmile_qr_scan"}, "type": "electric_scooter", "lat": 38.842931166666666, "is_reserved": 0, "fusion_lat": 0.0}, {"bike_id": "fe70b35f906c8392e5b03107451f7a09", "fusion_lon": 0.0, "lon": -77.03909366666667, "name": "fe70b35f906c8392e5b03107451f7a09", "is_disabled": 0, "rental_uris": {"android": "https://dc.lft.to/lastmile_qr_scan", "ios": "https://dc.lft.to/lastmile_qr_scan"}, "type": "electric_scooter", "lat": 38.915534666666666, "is_reserved": 0, "fusion_lat": 0.0}, {"bike_id": "7f9bcb8fdd96c939139fcff09059c500", "fusion_lon": 0.0, "lon": -77.02200016666667, "name": "7f9bcb8fdd96c939139fcff09059c500", "is_disabled": 0, "rental_uris": {"android": "https://dc.lft.to/lastmile_qr_scan", "ios": "https://dc.lft.to/lastmile_qr_scan"}, "type": "electric_scooter", "lat": 38.9190155, "is_reserved": 0, "fusion_lat": 0.0}, {"bike_id": "d0741ca4435d4a2bc699c0a1fb8f5934", "fusion_lon": 0.0, "lon": -76.98401666666666, "name": "d0741ca4435d4a2bc699c0a1fb8f5934", "is_disabled": 0, "rental_uris": {"android": "https://dc.lft.to/lastmile_qr_scan", "ios": "https://dc.lft.to/lastmile_qr_scan"}, "type": "electric_scooter", "lat": 38.8669965, "is_reserved": 0, "fusion_lat": 0.0}, {"bike_id": "69fa77fa89660ae47ecb8b986e86af20", "fusion_lon": 0.0, "lon": -76.93738, "name": "69fa77fa89660ae47ecb8b986e86af20", "is_disabled": 0, "rental_uris": {"android": "https://dc.lft.to/lastmile_qr_scan", "ios": "https://dc.lft.to/lastmile_qr_scan"}, "type": "electric_scooter", "lat": 38.89017833333333, "is_reserved": 0, "fusion_lat": 0.0}, {"bike_id": "f5e4b859b3b39b34791ccffd9bae07f5", "fusion_lon": 0.0, "lon": -77.03378333333333, "name": "f5e4b859b3b39b34791ccffd9bae07f5", "is_disabled": 0, "rental_uris": {"android": "https://dc.lft.to/lastmile_qr_scan", "ios": "https://dc.lft.to/lastmile_qr_scan"}, "type": "electric_scooter", "lat": 38.92229716666667, "is_reserved": 0, "fusion_lat": 0.0}, {"bike_id": "899666aa0bdc5e291ca1d8fb3b4614ca", "fusion_lon": 0.0, "lon": -77.03484216666666, "name": "899666aa0bdc5e291ca1d8fb3b4614ca", "is_disabled": 0, "rental_uris": {"android": "https://dc.lft.to/lastmile_qr_scan", "ios": "https://dc.lft.to/lastmile_qr_scan"}, "type": "electric_scooter", "lat": 38.92477916666667, "is_reserved": 0, "fusion_lat": 0.0}, {"bike_id": "80f0154cc976e3da9cd49a2dfe163a5f", "fusion_lon": 0.0, "lon": -77.02932283333334, "name": "80f0154cc976e3da9cd49a2dfe163a5f", "is_disabled": 0, "rental_uris": {"android": "https://dc.lft.to/lastmile_qr_scan", "ios": "https://dc.lft.to/lastmile_qr_scan"}, "type": "electric_scooter", "lat": 38.89910716666667, "is_reserved": 0, "fusion_lat": 0.0}, {"bike_id": "f48d8ea06c479bd5969c2aa6292f6d3f", "fusion_lon": 0.0, "lon": -76.98886566666667, "name": "f48d8ea06c479bd5969c2aa6292f6d3f", "is_disabled": 0, "rental_uris": {"android": "https://dc.lft.to/lastmile_qr_scan", "ios": "https://dc.lft.to/lastmile_qr_scan"}, "type": "electric_scooter", "lat": 38.866522, "is_reserved": 0, "fusion_lat": 0.0}, {"bike_id": "862463950194c6317682ae3678afdd57", "fusion_lon": 0.0, "lon": -77.02593016666667, "name": "862463950194c6317682ae3678afdd57", "is_disabled": 0, "rental_uris": {"android": "https://dc.lft.to/lastmile_qr_scan", "ios": "https://dc.lft.to/lastmile_qr_scan"}, "type": "electric_scooter", "lat": 38.902409166666665, "is_reserved": 0, "fusion_lat": 0.0}, {"bike_id": "724ce2a6448be6da6f6a3f2a1069d2dd", "fusion_lon": 0.0, "lon": -77.005528, "name": "724ce2a6448be6da6f6a3f2a1069d2dd", "is_disabled": 0, "rental_uris": {"android": "https://dc.lft.to/lastmile_qr_scan", "ios": "https://dc.lft.to/lastmile_qr_scan"}, "type": "electric_scooter", "lat": 38.88028966666667, "is_reserved": 0, "fusion_lat": 0.0}, {"bike_id": "87fa0386eb36961ae9367b5e7aed45aa", "fusion_lon": 0.0, "lon": -77.04309316666667, "name": "87fa0386eb36961ae9367b5e7aed45aa", "is_disabled": 0, "rental_uris": {"android": "https://dc.lft.to/lastmile_qr_scan", "ios": "https://dc.lft.to/lastmile_qr_scan"}, "type": "electric_scooter", "lat": 38.9265595, "is_reserved": 0, "fusion_lat": 0.0}, {"bike_id": "c524544fbefa25a416368f4720413229", "fusion_lon": 0.0, "lon": -76.98731466666666, "name": "c524544fbefa25a416368f4720413229", "is_disabled": 0, "rental_uris": {"android": "https://dc.lft.to/lastmile_qr_scan", "ios": "https://dc.lft.to/lastmile_qr_scan"}, "type": "electric_scooter", "lat": 38.907000333333336, "is_reserved": 0, "fusion_lat": 0.0}, {"bike_id": "6c49266f2e18f7c4133e061cb7841f2e", "fusion_lon": 0.0, "lon": -77.02717716666666, "name": "6c49266f2e18f7c4133e061cb7841f2e", "is_disabled": 0, "rental_uris": {"android": "https://dc.lft.to/lastmile_qr_scan", "ios": "https://dc.lft.to/lastmile_qr_scan"}, "type": "electric_scooter", "lat": 38.9095735, "is_reserved": 0, "fusion_lat": 0.0}, {"bike_id": "9c8b9a968367e5cf5ccc134438531ad0", "fusion_lon": 0.0, "lon": -77.0366405, "name": "9c8b9a968367e5cf5ccc134438531ad0", "is_disabled": 0, "rental_uris": {"android": "https://dc.lft.to/lastmile_qr_scan", "ios": "https://dc.lft.to/lastmile_qr_scan"}, "type": "electric_scooter", "lat": 38.9210285, "is_reserved": 0, "fusion_lat": 0.0}, {"bike_id": "cac0cbff83871cd921b8066d58543859", "fusion_lon": 0.0, "lon": -77.03203316666666, "name": "cac0cbff83871cd921b8066d58543859", "is_disabled": 0, "rental_uris": {"android": "https://dc.lft.to/lastmile_qr_scan", "ios": "https://dc.lft.to/lastmile_qr_scan"}, "type": "electric_scooter", "lat": 38.9185325, "is_reserved": 0, "fusion_lat": 0.0}, {"bike_id": "3c5ae5cabb5aac600dd8f474d59a95e7", "fusion_lon": 0.0, "lon": -77.01728633333333, "name": "3c5ae5cabb5aac600dd8f474d59a95e7", "is_disabled": 0, "rental_uris": {"android": "https://dc.lft.to/lastmile_qr_scan", "ios": "https://dc.lft.to/lastmile_qr_scan"}, "type": "electric_bike", "lat": 38.9160715, "is_reserved": 0, "fusion_lat": 0.0}, {"bike_id": "d5e065e79ef77536ff7b66af5b5b0fab", "fusion_lon": 0.0, "lon": -76.99269233333334, "name": "d5e065e79ef77536ff7b66af5b5b0fab", "is_disabled": 0, "rental_uris": {"android": "https://dc.lft.to/lastmile_qr_scan", "ios": "https://dc.lft.to/lastmile_qr_scan"}, "type": "electric_scooter", "lat": 38.8863755, "is_reserved": 0, "fusion_lat": 0.0}, {"bike_id": "461888b8ec6892dea348672fa1a90198", "fusion_lon": 0.0, "lon": -76.9487435, "name": "461888b8ec6892dea348672fa1a90198", "is_disabled": 0, "rental_uris": {"android": "https://dc.lft.to/lastmile_qr_scan", "ios": "https://dc.lft.to/lastmile_qr_scan"}, "type": "electric_scooter", "lat": 38.894981, "is_reserved": 0, "fusion_lat": 0.0}, {"bike_id": "04c7150951c0cea7b77b07aa06310375", "fusion_lon": 0.0, "lon": -76.98713733333334, "name": "04c7150951c0cea7b77b07aa06310375", "is_disabled": 0, "rental_uris": {"android": "https://dc.lft.to/lastmile_qr_scan", "ios": "https://dc.lft.to/lastmile_qr_scan"}, "type": "electric_scooter", "lat": 38.8669705, "is_reserved": 0, "fusion_lat": 0.0}, {"bike_id": "104afca7109abd984afe179e28de45e2", "fusion_lon": 0.0, "lon": -77.0370515, "name": "104afca7109abd984afe179e28de45e2", "is_disabled": 0, "rental_uris": {"android": "https://dc.lft.to/lastmile_qr_scan", "ios": "https://dc.lft.to/lastmile_qr_scan"}, "type": "electric_scooter", "lat": 38.926358, "is_reserved": 0, "fusion_lat": 0.0}, {"bike_id": "7e445b911e437bda9dccf0346b2259a2", "fusion_lon": 0.0, "lon": -76.94946333333333, "name": "7e445b911e437bda9dccf0346b2259a2", "is_disabled": 0, "rental_uris": {"android": "https://dc.lft.to/lastmile_qr_scan", "ios": "https://dc.lft.to/lastmile_qr_scan"}, "type": "electric_scooter", "lat": 38.89353966666667, "is_reserved": 0, "fusion_lat": 0.0}, {"bike_id": "6cf567b8bb71cb299bc13af521b23f68", "fusion_lon": 0.0, "lon": -77.02514766666667, "name": "6cf567b8bb71cb299bc13af521b23f68", "is_disabled": 0, "rental_uris": {"android": "https://dc.lft.to/lastmile_qr_scan", "ios": "https://dc.lft.to/lastmile_qr_scan"}, "type": "electric_scooter", "lat": 38.946223, "is_reserved": 0, "fusion_lat": 0.0}, {"bike_id": "20fdefc0d75fd685babfc9a2bfede06e", "fusion_lon": 0.0, "lon": -77.054004, "name": "20fdefc0d75fd685babfc9a2bfede06e", "is_disabled": 0, "rental_uris": {"android": "https://dc.lft.to/lastmile_qr_scan", "ios": "https://dc.lft.to/lastmile_qr_scan"}, "type": "electric_scooter", "lat": 38.928096833333335, "is_reserved": 0, "fusion_lat": 0.0}, {"bike_id": "2401675eb06475ce144180a60bfbc74e", "fusion_lon": 0.0, "lon": -77.00581333333334, "name": "2401675eb06475ce144180a60bfbc74e", "is_disabled": 0, "rental_uris": {"android": "https://dc.lft.to/lastmile_qr_scan", "ios": "https://dc.lft.to/lastmile_qr_scan"}, "type": "electric_scooter", "lat": 38.905637166666665, "is_reserved": 0, "fusion_lat": 0.0}, {"bike_id": "3105f421cc021a8db33715a72a450384", "fusion_lon": 0.0, "lon": -77.03526433333333, "name": "3105f421cc021a8db33715a72a450384", "is_disabled": 0, "rental_uris": {"android": "https://dc.lft.to/lastmile_qr_scan", "ios": "https://dc.lft.to/lastmile_qr_scan"}, "type": "electric_scooter", "lat": 38.923156666666664, "is_reserved": 0, "fusion_lat": 0.0}, {"bike_id": "17f1c989c36d4b3a2c3582b527dc0a9e", "fusion_lon": 0.0, "lon": -77.01190416666667, "name": "17f1c989c36d4b3a2c3582b527dc0a9e", "is_disabled": 0, "rental_uris": {"android": "https://dc.lft.to/lastmile_qr_scan", "ios": "https://dc.lft.to/lastmile_qr_scan"}, "type": "electric_scooter", "lat": 38.91548916666667, "is_reserved": 0, "fusion_lat": 0.0}, {"bike_id": "fbbbe32cfeab1cde65f8f6931f911f09", "fusion_lon": 0.0, "lon": -77.03659916666666, "name": "fbbbe32cfeab1cde65f8f6931f911f09", "is_disabled": 0, "rental_uris": {"android": "https://dc.lft.to/lastmile_qr_scan", "ios": "https://dc.lft.to/lastmile_qr_scan"}, "type": "electric_scooter", "lat": 38.9298, "is_reserved": 0, "fusion_lat": 0.0}, {"bike_id": "8f85c7b6a24c04962322a0f6137787e4", "fusion_lon": 0.0, "lon": -77.00678283333333, "name": "8f85c7b6a24c04962322a0f6137787e4", "is_disabled": 0, "rental_uris": {"android": "https://dc.lft.to/lastmile_qr_scan", "ios": "https://dc.lft.to/lastmile_qr_scan"}, "type": "electric_bike", "lat": 38.94512433333333, "is_reserved": 0, "fusion_lat": 0.0}, {"bike_id": "1892dd9fc11c04e73caf94a49d385d01", "fusion_lon": 0.0, "lon": -77.0194915, "name": "1892dd9fc11c04e73caf94a49d385d01", "is_disabled": 0, "rental_uris": {"android": "https://dc.lft.to/lastmile_qr_scan", "ios": "https://dc.lft.to/lastmile_qr_scan"}, "type": "electric_scooter", "lat": 38.92422966666667, "is_reserved": 0, "fusion_lat": 0.0}, {"bike_id": "f5394b211149d4ae6c98e70e95f4d4b5", "fusion_lon": 0.0, "lon": -77.03471566666667, "name": "f5394b211149d4ae6c98e70e95f4d4b5", "is_disabled": 0, "rental_uris": {"android": "https://dc.lft.to/lastmile_qr_scan", "ios": "https://dc.lft.to/lastmile_qr_scan"}, "type": "electric_scooter", "lat": 38.908102666666665, "is_reserved": 0, "fusion_lat": 0.0}, {"bike_id": "6dd17bc6f28112e0f01bde9300a29cf4", "fusion_lon": 0.0, "lon": -76.99401866666666, "name": "6dd17bc6f28112e0f01bde9300a29cf4", "is_disabled": 0, "rental_uris": {"android": "https://dc.lft.to/lastmile_qr_scan", "ios": "https://dc.lft.to/lastmile_qr_scan"}, "type": "electric_scooter", "lat": 38.921574, "is_reserved": 0, "fusion_lat": 0.0}, {"bike_id": "8705ad73e32b30a8cfe193e0167c8d9c", "fusion_lon": 0.0, "lon": -77.05906983333334, "name": "8705ad73e32b30a8cfe193e0167c8d9c", "is_disabled": 0, "rental_uris": {"android": "https://dc.lft.to/lastmile_qr_scan", "ios": "https://dc.lft.to/lastmile_qr_scan"}, "type": "electric_scooter", "lat": 38.93347216666667, "is_reserved": 0, "fusion_lat": 0.0}, {"bike_id": "2d458f1f8623546fd72fff89641cafa6", "fusion_lon": 0.0, "lon": -77.03188016666667, "name": "2d458f1f8623546fd72fff89641cafa6", "is_disabled": 0, "rental_uris": {"android": "https://dc.lft.to/lastmile_qr_scan", "ios": "https://dc.lft.to/lastmile_qr_scan"}, "type": "electric_scooter", "lat": 38.9055835, "is_reserved": 0, "fusion_lat": 0.0}, {"bike_id": "1c2a9ec6c64146ab186981770af03f3f", "fusion_lon": 0.0, "lon": -77.03451033333333, "name": "1c2a9ec6c64146ab186981770af03f3f", "is_disabled": 0, "rental_uris": {"android": "https://dc.lft.to/lastmile_qr_scan", "ios": "https://dc.lft.to/lastmile_qr_scan"}, "type": "electric_scooter", "lat": 38.90759533333333, "is_reserved": 0, "fusion_lat": 0.0}, {"bike_id": "10821d4cd59713ef9ca8c4ed4fd52172", "fusion_lon": 0.0, "lon": -77.0266525, "name": "10821d4cd59713ef9ca8c4ed4fd52172", "is_disabled": 0, "rental_uris": {"android": "https://dc.lft.to/lastmile_qr_scan", "ios": "https://dc.lft.to/lastmile_qr_scan"}, "type": "electric_scooter", "lat": 38.971866166666665, "is_reserved": 0, "fusion_lat": 0.0}, {"bike_id": "546216ab1c071b8d1d64b7f80f60943c", "fusion_lon": 0.0, "lon": -77.02684483333333, "name": "546216ab1c071b8d1d64b7f80f60943c", "is_disabled": 0, "rental_uris": {"android": "https://dc.lft.to/lastmile_qr_scan", "ios": "https://dc.lft.to/lastmile_qr_scan"}, "type": "electric_scooter", "lat": 38.89823, "is_reserved": 0, "fusion_lat": 0.0}, {"bike_id": "08f449283aa7c687aa9bb8855628669c", "fusion_lon": 0.0, "lon": -76.93345583333334, "name": "08f449283aa7c687aa9bb8855628669c", "is_disabled": 0, "rental_uris": {"android": "https://dc.lft.to/lastmile_qr_scan", "ios": "https://dc.lft.to/lastmile_qr_scan"}, "type": "electric_scooter", "lat": 38.888139, "is_reserved": 0, "fusion_lat": 0.0}, {"bike_id": "ff1f9208bf6ccdaad73fe88593bfecc4", "fusion_lon": 0.0, "lon": -77.02476766666666, "name": "ff1f9208bf6ccdaad73fe88593bfecc4", "is_disabled": 0, "rental_uris": {"android": "https://dc.lft.to/lastmile_qr_scan", "ios": "https://dc.lft.to/lastmile_qr_scan"}, "type": "electric_scooter", "lat": 38.9310035, "is_reserved": 0, "fusion_lat": 0.0}, {"bike_id": "36beccc87617af2e4acedded348b5aec", "fusion_lon": 0.0, "lon": -76.98777766666667, "name": "36beccc87617af2e4acedded348b5aec", "is_disabled": 0, "rental_uris": {"android": "https://dc.lft.to/lastmile_qr_scan", "ios": "https://dc.lft.to/lastmile_qr_scan"}, "type": "electric_bike", "lat": 38.86592516666666, "is_reserved": 0, "fusion_lat": 0.0}, {"bike_id": "a3d2152463afd7eb75a100d3dec66e8c", "fusion_lon": 0.0, "lon": -77.0588515, "name": "a3d2152463afd7eb75a100d3dec66e8c", "is_disabled": 0, "rental_uris": {"android": "https://dc.lft.to/lastmile_qr_scan", "ios": "https://dc.lft.to/lastmile_qr_scan"}, "type": "electric_scooter", "lat": 38.9182285, "is_reserved": 0, "fusion_lat": 0.0}, {"bike_id": "bdbc55cc76fe78a9eacc6434be9cd80d", "fusion_lon": 0.0, "lon": -77.02857366666667, "name": "bdbc55cc76fe78a9eacc6434be9cd80d", "is_disabled": 0, "rental_uris": {"android": "https://dc.lft.to/lastmile_qr_scan", "ios": "https://dc.lft.to/lastmile_qr_scan"}, "type": "electric_scooter", "lat": 38.927666333333335, "is_reserved": 0, "fusion_lat": 0.0}, {"bike_id": "3cc89bf4c654e279fdc7bdd44231a930", "fusion_lon": 0.0, "lon": -76.98394833333333, "name": "3cc89bf4c654e279fdc7bdd44231a930", "is_disabled": 0, "rental_uris": {"android": "https://dc.lft.to/lastmile_qr_scan", "ios": "https://dc.lft.to/lastmile_qr_scan"}, "type": "electric_scooter", "lat": 38.86698283333333, "is_reserved": 0, "fusion_lat": 0.0}, {"bike_id": "72fdbb75b8d217661f67613b71160994", "fusion_lon": 0.0, "lon": -77.03213866666667, "name": "72fdbb75b8d217661f67613b71160994", "is_disabled": 0, "rental_uris": {"android": "https://dc.lft.to/lastmile_qr_scan", "ios": "https://dc.lft.to/lastmile_qr_scan"}, "type": "electric_scooter", "lat": 38.91712916666667, "is_reserved": 0, "fusion_lat": 0.0}, {"bike_id": "8f42bef978cf47ec3536137b7141fd24", "fusion_lon": 0.0, "lon": -76.93028083333333, "name": "8f42bef978cf47ec3536137b7141fd24", "is_disabled": 0, "rental_uris": {"android": "https://dc.lft.to/lastmile_qr_scan", "ios": "https://dc.lft.to/lastmile_qr_scan"}, "type": "electric_scooter", "lat": 38.89824766666667, "is_reserved": 0, "fusion_lat": 0.0}, {"bike_id": "aa0a1987ff6fa5bc022f9c4a084ce050", "fusion_lon": 0.0, "lon": -77.0468405, "name": "aa0a1987ff6fa5bc022f9c4a084ce050", "is_disabled": 0, "rental_uris": {"android": "https://dc.lft.to/lastmile_qr_scan", "ios": "https://dc.lft.to/lastmile_qr_scan"}, "type": "electric_scooter", "lat": 38.897253, "is_reserved": 0, "fusion_lat": 0.0}, {"bike_id": "7c44111040c51dedac9aa60e8690bbbe", "fusion_lon": 0.0, "lon": -77.01586983333333, "name": "7c44111040c51dedac9aa60e8690bbbe", "is_disabled": 0, "rental_uris": {"android": "https://dc.lft.to/lastmile_qr_scan", "ios": "https://dc.lft.to/lastmile_qr_scan"}, "type": "electric_scooter", "lat": 38.950125666666665, "is_reserved": 0, "fusion_lat": 0.0}, {"bike_id": "587ee41593d0c961cb1313b54f9a48e5", "fusion_lon": 0.0, "lon": -77.02286483333333, "name": "587ee41593d0c961cb1313b54f9a48e5", "is_disabled": 0, "rental_uris": {"android": "https://dc.lft.to/lastmile_qr_scan", "ios": "https://dc.lft.to/lastmile_qr_scan"}, "type": "electric_scooter", "lat": 38.890623166666664, "is_reserved": 0, "fusion_lat": 0.0}, {"bike_id": "c9d7af5e1fac1ef5ed70842cf7f87fb1", "fusion_lon": 0.0, "lon": -77.02976966666667, "name": "c9d7af5e1fac1ef5ed70842cf7f87fb1", "is_disabled": 0, "rental_uris": {"android": "https://dc.lft.to/lastmile_qr_scan", "ios": "https://dc.lft.to/lastmile_qr_scan"}, "type": "electric_scooter", "lat": 38.945937, "is_reserved": 0, "fusion_lat": 0.0}, {"bike_id": "3647e0591a336a0c8cda5b017cee9c96", "fusion_lon": 0.0, "lon": -77.0285685, "name": "3647e0591a336a0c8cda5b017cee9c96", "is_disabled": 0, "rental_uris": {"android": "https://dc.lft.to/lastmile_qr_scan", "ios": "https://dc.lft.to/lastmile_qr_scan"}, "type": "electric_scooter", "lat": 38.9257245, "is_reserved": 0, "fusion_lat": 0.0}, {"bike_id": "9715a4717e4a51edeacaa973d0a04457", "fusion_lon": 0.0, "lon": -76.99137783333333, "name": "9715a4717e4a51edeacaa973d0a04457", "is_disabled": 0, "rental_uris": {"android": "https://dc.lft.to/lastmile_qr_scan", "ios": "https://dc.lft.to/lastmile_qr_scan"}, "type": "electric_scooter", "lat": 38.87909633333334, "is_reserved": 0, "fusion_lat": 0.0}, {"bike_id": "98142e411a389f70b14f6f4beb362fe5", "fusion_lon": 0.0, "lon": -77.00084066666666, "name": "98142e411a389f70b14f6f4beb362fe5", "is_disabled": 0, "rental_uris": {"android": "https://dc.lft.to/lastmile_qr_scan", "ios": "https://dc.lft.to/lastmile_qr_scan"}, "type": "electric_scooter", "lat": 38.90038083333334, "is_reserved": 0, "fusion_lat": 0.0}, {"bike_id": "f3eb5fffd3ef579652b803ea04a217b7", "fusion_lon": 0.0, "lon": -77.00238083333333, "name": "f3eb5fffd3ef579652b803ea04a217b7", "is_disabled": 0, "rental_uris": {"android": "https://dc.lft.to/lastmile_qr_scan", "ios": "https://dc.lft.to/lastmile_qr_scan"}, "type": "electric_scooter", "lat": 38.908560666666666, "is_reserved": 0, "fusion_lat": 0.0}, {"bike_id": "0d0a5521237bafd68418a04525c097ae", "fusion_lon": 0.0, "lon": -76.98011983333333, "name": "0d0a5521237bafd68418a04525c097ae", "is_disabled": 0, "rental_uris": {"android": "https://dc.lft.to/lastmile_qr_scan", "ios": "https://dc.lft.to/lastmile_qr_scan"}, "type": "electric_scooter", "lat": 38.8531775, "is_reserved": 0, "fusion_lat": 0.0}, {"bike_id": "9a0254ee38ce4df3b01a85813786c66b", "fusion_lon": 0.0, "lon": -77.03172683333334, "name": "9a0254ee38ce4df3b01a85813786c66b", "is_disabled": 0, "rental_uris": {"android": "https://dc.lft.to/lastmile_qr_scan", "ios": "https://dc.lft.to/lastmile_qr_scan"}, "type": "electric_scooter", "lat": 38.9095885, "is_reserved": 0, "fusion_lat": 0.0}, {"bike_id": "5d349e2e813bf900c0c5e2a51f9bfea1", "fusion_lon": 0.0, "lon": -76.94836766666667, "name": "5d349e2e813bf900c0c5e2a51f9bfea1", "is_disabled": 0, "rental_uris": {"android": "https://dc.lft.to/lastmile_qr_scan", "ios": "https://dc.lft.to/lastmile_qr_scan"}, "type": "electric_scooter", "lat": 38.89586033333333, "is_reserved": 0, "fusion_lat": 0.0}, {"bike_id": "6ecae71940f18ed7b9e1447046272bc0", "fusion_lon": 0.0, "lon": -77.05647316666666, "name": "6ecae71940f18ed7b9e1447046272bc0", "is_disabled": 0, "rental_uris": {"android": "https://dc.lft.to/lastmile_qr_scan", "ios": "https://dc.lft.to/lastmile_qr_scan"}, "type": "electric_scooter", "lat": 38.9053465, "is_reserved": 0, "fusion_lat": 0.0}, {"bike_id": "fcb400fccc0c2442bdc5118d456e6e4a", "fusion_lon": 0.0, "lon": -77.02777, "name": "fcb400fccc0c2442bdc5118d456e6e4a", "is_disabled": 0, "rental_uris": {"android": "https://dc.lft.to/lastmile_qr_scan", "ios": "https://dc.lft.to/lastmile_qr_scan"}, "type": "electric_scooter", "lat": 38.9168935, "is_reserved": 0, "fusion_lat": 0.0}, {"bike_id": "7454935509836ef7a7b2d93e36429c6a", "fusion_lon": 0.0, "lon": -77.02350066666666, "name": "7454935509836ef7a7b2d93e36429c6a", "is_disabled": 0, "rental_uris": {"android": "https://dc.lft.to/lastmile_qr_scan", "ios": "https://dc.lft.to/lastmile_qr_scan"}, "type": "electric_scooter", "lat": 38.887438, "is_reserved": 0, "fusion_lat": 0.0}, {"bike_id": "d57a2f7b588e1dc270fd1ecdd1b55d34", "fusion_lon": 0.0, "lon": -77.02899116666667, "name": "d57a2f7b588e1dc270fd1ecdd1b55d34", "is_disabled": 0, "rental_uris": {"android": "https://dc.lft.to/lastmile_qr_scan", "ios": "https://dc.lft.to/lastmile_qr_scan"}, "type": "electric_scooter", "lat": 38.91403016666667, "is_reserved": 0, "fusion_lat": 0.0}, {"bike_id": "dbd78a0906ca756e2529a0db108baf9a", "fusion_lon": 0.0, "lon": -77.03507883333333, "name": "dbd78a0906ca756e2529a0db108baf9a", "is_disabled": 0, "rental_uris": {"android": "https://dc.lft.to/lastmile_qr_scan", "ios": "https://dc.lft.to/lastmile_qr_scan"}, "type": "electric_scooter", "lat": 38.92489166666667, "is_reserved": 0, "fusion_lat": 0.0}, {"bike_id": "5e33d5247c89653d00961ee2ea9d5507", "fusion_lon": 0.0, "lon": -77.03223383333334, "name": "5e33d5247c89653d00961ee2ea9d5507", "is_disabled": 0, "rental_uris": {"android": "https://dc.lft.to/lastmile_qr_scan", "ios": "https://dc.lft.to/lastmile_qr_scan"}, "type": "electric_scooter", "lat": 38.91404433333334, "is_reserved": 0, "fusion_lat": 0.0}, {"bike_id": "43de2aced334c16d3e5e44d8483fc1f3", "fusion_lon": 0.0, "lon": -77.030802, "name": "43de2aced334c16d3e5e44d8483fc1f3", "is_disabled": 0, "rental_uris": {"android": "https://dc.lft.to/lastmile_qr_scan", "ios": "https://dc.lft.to/lastmile_qr_scan"}, "type": "electric_scooter", "lat": 38.88039083333334, "is_reserved": 0, "fusion_lat": 0.0}, {"bike_id": "5784d3c7be7b836c7d011d435a35e905", "fusion_lon": 0.0, "lon": -77.066936, "name": "5784d3c7be7b836c7d011d435a35e905", "is_disabled": 0, "rental_uris": {"android": "https://dc.lft.to/lastmile_qr_scan", "ios": "https://dc.lft.to/lastmile_qr_scan"}, "type": "electric_bike", "lat": 38.831778166666666, "is_reserved": 0, "fusion_lat": 0.0}, {"bike_id": "ca94c4f9fcb42bffa6e719c0c90e474a", "fusion_lon": 0.0, "lon": -77.0347845, "name": "ca94c4f9fcb42bffa6e719c0c90e474a", "is_disabled": 0, "rental_uris": {"android": "https://dc.lft.to/lastmile_qr_scan", "ios": "https://dc.lft.to/lastmile_qr_scan"}, "type": "electric_scooter", "lat": 38.90556333333333, "is_reserved": 0, "fusion_lat": 0.0}, {"bike_id": "b67ab370f983b30fe2553f84c9332b41", "fusion_lon": 0.0, "lon": -77.056963, "name": "b67ab370f983b30fe2553f84c9332b41", "is_disabled": 0, "rental_uris": {"android": "https://dc.lft.to/lastmile_qr_scan", "ios": "https://dc.lft.to/lastmile_qr_scan"}, "type": "electric_scooter", "lat": 38.905689, "is_reserved": 0, "fusion_lat": 0.0}, {"bike_id": "f349a693873aeabacbb6ca0241b38fa5", "fusion_lon": 0.0, "lon": -77.03255816666666, "name": "f349a693873aeabacbb6ca0241b38fa5", "is_disabled": 0, "rental_uris": {"android": "https://dc.lft.to/lastmile_qr_scan", "ios": "https://dc.lft.to/lastmile_qr_scan"}, "type": "electric_scooter", "lat": 38.9355825, "is_reserved": 0, "fusion_lat": 0.0}, {"bike_id": "f123a7a8ba64467563a1ce710febdd88", "fusion_lon": 0.0, "lon": -77.04025116666666, "name": "f123a7a8ba64467563a1ce710febdd88", "is_disabled": 0, "rental_uris": {"android": "https://dc.lft.to/lastmile_qr_scan", "ios": "https://dc.lft.to/lastmile_qr_scan"}, "type": "electric_scooter", "lat": 38.92277383333333, "is_reserved": 0, "fusion_lat": 0.0}, {"bike_id": "87ff0223e3969d0814ef690ed64bdbb5", "fusion_lon": 0.0, "lon": -77.0326165, "name": "87ff0223e3969d0814ef690ed64bdbb5", "is_disabled": 0, "rental_uris": {"android": "https://dc.lft.to/lastmile_qr_scan", "ios": "https://dc.lft.to/lastmile_qr_scan"}, "type": "electric_scooter", "lat": 38.914062666666666, "is_reserved": 0, "fusion_lat": 0.0}, {"bike_id": "d5267f697222f58525d3bff89712220a", "fusion_lon": 0.0, "lon": -77.027124, "name": "d5267f697222f58525d3bff89712220a", "is_disabled": 0, "rental_uris": {"android": "https://dc.lft.to/lastmile_qr_scan", "ios": "https://dc.lft.to/lastmile_qr_scan"}, "type": "electric_scooter", "lat": 38.92061316666667, "is_reserved": 0, "fusion_lat": 0.0}, {"bike_id": "1a6a0005a31df9dedd6dddde456322e9", "fusion_lon": 0.0, "lon": -77.0296035, "name": "1a6a0005a31df9dedd6dddde456322e9", "is_disabled": 0, "rental_uris": {"android": "https://dc.lft.to/lastmile_qr_scan", "ios": "https://dc.lft.to/lastmile_qr_scan"}, "type": "electric_bike", "lat": 38.95047233333333, "is_reserved": 0, "fusion_lat": 0.0}, {"bike_id": "6772ed19f53ba8278daa88fc65cfe0d1", "fusion_lon": 0.0, "lon": -77.033562, "name": "6772ed19f53ba8278daa88fc65cfe0d1", "is_disabled": 0, "rental_uris": {"android": "https://dc.lft.to/lastmile_qr_scan", "ios": "https://dc.lft.to/lastmile_qr_scan"}, "type": "electric_scooter", "lat": 38.93142916666667, "is_reserved": 0, "fusion_lat": 0.0}, {"bike_id": "1f694ae7183265f72f8ad4191a306e8f", "fusion_lon": 0.0, "lon": -77.0458775, "name": "1f694ae7183265f72f8ad4191a306e8f", "is_disabled": 0, "rental_uris": {"android": "https://dc.lft.to/lastmile_qr_scan", "ios": "https://dc.lft.to/lastmile_qr_scan"}, "type": "electric_scooter", "lat": 38.908600666666665, "is_reserved": 0, "fusion_lat": 0.0}, {"bike_id": "088e0dc144c568d4b18e5688eb4cac2e", "fusion_lon": 0.0, "lon": -77.03592933333333, "name": "088e0dc144c568d4b18e5688eb4cac2e", "is_disabled": 0, "rental_uris": {"android": "https://dc.lft.to/lastmile_qr_scan", "ios": "https://dc.lft.to/lastmile_qr_scan"}, "type": "electric_scooter", "lat": 38.936751, "is_reserved": 0, "fusion_lat": 0.0}, {"bike_id": "5a4ef2690cad4bcfc41cc4bcc5a981b5", "fusion_lon": 0.0, "lon": -77.01356633333333, "name": "5a4ef2690cad4bcfc41cc4bcc5a981b5", "is_disabled": 0, "rental_uris": {"android": "https://dc.lft.to/lastmile_qr_scan", "ios": "https://dc.lft.to/lastmile_qr_scan"}, "type": "electric_scooter", "lat": 38.91960383333333, "is_reserved": 0, "fusion_lat": 0.0}, {"bike_id": "bbe22dd81a2686e863b655411875bd0c", "fusion_lon": 0.0, "lon": -77.01310883333333, "name": "bbe22dd81a2686e863b655411875bd0c", "is_disabled": 0, "rental_uris": {"android": "https://dc.lft.to/lastmile_qr_scan", "ios": "https://dc.lft.to/lastmile_qr_scan"}, "type": "electric_scooter", "lat": 38.9140095, "is_reserved": 0, "fusion_lat": 0.0}, {"bike_id": "331cfc6c606143f4550b24d8d3ae9b2a", "fusion_lon": 0.0, "lon": -77.02979833333333, "name": "331cfc6c606143f4550b24d8d3ae9b2a", "is_disabled": 0, "rental_uris": {"android": "https://dc.lft.to/lastmile_qr_scan", "ios": "https://dc.lft.to/lastmile_qr_scan"}, "type": "electric_scooter", "lat": 38.93184983333333, "is_reserved": 0, "fusion_lat": 0.0}, {"bike_id": "88c2a6072495f3fdec3c1b42072f0163", "fusion_lon": 0.0, "lon": -77.05060566666667, "name": "88c2a6072495f3fdec3c1b42072f0163", "is_disabled": 0, "rental_uris": {"android": "https://dc.lft.to/lastmile_qr_scan", "ios": "https://dc.lft.to/lastmile_qr_scan"}, "type": "electric_scooter", "lat": 38.9234125, "is_reserved": 0, "fusion_lat": 0.0}, {"bike_id": "abcf25680b9dcf9f079894fabf939235", "fusion_lon": 0.0, "lon": -77.04352283333333, "name": "abcf25680b9dcf9f079894fabf939235", "is_disabled": 0, "rental_uris": {"android": "https://dc.lft.to/lastmile_qr_scan", "ios": "https://dc.lft.to/lastmile_qr_scan"}, "type": "electric_scooter", "lat": 38.913001333333334, "is_reserved": 0, "fusion_lat": 0.0}, {"bike_id": "58b6a971b55572401c3bc0a9b20b8954", "fusion_lon": 0.0, "lon": -77.00343483333333, "name": "58b6a971b55572401c3bc0a9b20b8954", "is_disabled": 0, "rental_uris": {"android": "https://dc.lft.to/lastmile_qr_scan", "ios": "https://dc.lft.to/lastmile_qr_scan"}, "type": "electric_scooter", "lat": 38.889943333333335, "is_reserved": 0, "fusion_lat": 0.0}, {"bike_id": "2e208de7d39400d1fb9e0a5577fd5dfa", "fusion_lon": 0.0, "lon": -76.975945, "name": "2e208de7d39400d1fb9e0a5577fd5dfa", "is_disabled": 0, "rental_uris": {"android": "https://dc.lft.to/lastmile_qr_scan", "ios": "https://dc.lft.to/lastmile_qr_scan"}, "type": "electric_scooter", "lat": 38.90331916666667, "is_reserved": 0, "fusion_lat": 0.0}, {"bike_id": "750c02c5212ab994a0b8717409bb426f", "fusion_lon": 0.0, "lon": -76.97188733333333, "name": "750c02c5212ab994a0b8717409bb426f", "is_disabled": 0, "rental_uris": {"android": "https://dc.lft.to/lastmile_qr_scan", "ios": "https://dc.lft.to/lastmile_qr_scan"}, "type": "electric_bike", "lat": 38.93315233333333, "is_reserved": 0, "fusion_lat": 0.0}, {"bike_id": "7501a81b9d2d0ea8a6de437f8c58277e", "fusion_lon": 0.0, "lon": -77.078258, "name": "7501a81b9d2d0ea8a6de437f8c58277e", "is_disabled": 0, "rental_uris": {"android": "https://dc.lft.to/lastmile_qr_scan", "ios": "https://dc.lft.to/lastmile_qr_scan"}, "type": "electric_scooter", "lat": 38.912738166666664, "is_reserved": 0, "fusion_lat": 0.0}, {"bike_id": "46ad0338bfe5628eeb1ede8ce196f228", "fusion_lon": 0.0, "lon": -77.117559, "name": "46ad0338bfe5628eeb1ede8ce196f228", "is_disabled": 0, "rental_uris": {"android": "https://dc.lft.to/lastmile_qr_scan", "ios": "https://dc.lft.to/lastmile_qr_scan"}, "type": "electric_bike", "lat": 39.04916333333333, "is_reserved": 0, "fusion_lat": 0.0}, {"bike_id": "4090ab4596c34cb9ab5482306549cef6", "fusion_lon": 0.0, "lon": -77.02771216666666, "name": "4090ab4596c34cb9ab5482306549cef6", "is_disabled": 0, "rental_uris": {"android": "https://dc.lft.to/lastmile_qr_scan", "ios": "https://dc.lft.to/lastmile_qr_scan"}, "type": "electric_bike", "lat": 38.917495333333335, "is_reserved": 0, "fusion_lat": 0.0}, {"bike_id": "3bef880a81028892480becfb005e1734", "fusion_lon": 0.0, "lon": -77.01135116666667, "name": "3bef880a81028892480becfb005e1734", "is_disabled": 0, "rental_uris": {"android": "https://dc.lft.to/lastmile_qr_scan", "ios": "https://dc.lft.to/lastmile_qr_scan"}, "type": "electric_scooter", "lat": 38.885268333333336, "is_reserved": 0, "fusion_lat": 0.0}, {"bike_id": "23de103aaa26ace78f6e52e60716018d", "fusion_lon": 0.0, "lon": -77.02173033333334, "name": "23de103aaa26ace78f6e52e60716018d", "is_disabled": 0, "rental_uris": {"android": "https://dc.lft.to/lastmile_qr_scan", "ios": "https://dc.lft.to/lastmile_qr_scan"}, "type": "electric_scooter", "lat": 38.942885, "is_reserved": 0, "fusion_lat": 0.0}, {"bike_id": "d82717cb4fe87f73b1d59350bad02bfb", "fusion_lon": 0.0, "lon": -76.971825, "name": "d82717cb4fe87f73b1d59350bad02bfb", "is_disabled": 0, "rental_uris": {"android": "https://dc.lft.to/lastmile_qr_scan", "ios": "https://dc.lft.to/lastmile_qr_scan"}, "type": "electric_bike", "lat": 38.91787, "is_reserved": 0, "fusion_lat": 0.0}, {"bike_id": "8970a06be0bf644753c86be63ad54f78", "fusion_lon": 0.0, "lon": -77.131434, "name": "8970a06be0bf644753c86be63ad54f78", "is_disabled": 0, "rental_uris": {"android": "https://dc.lft.to/lastmile_qr_scan", "ios": "https://dc.lft.to/lastmile_qr_scan"}, "type": "electric_bike", "lat": 38.86169316666667, "is_reserved": 0, "fusion_lat": 0.0}, {"bike_id": "72dd6dd7955e28090926ab0da69a909b", "fusion_lon": 0.0, "lon": -77.06614566666667, "name": "72dd6dd7955e28090926ab0da69a909b", "is_disabled": 0, "rental_uris": {"android": "https://dc.lft.to/lastmile_qr_scan", "ios": "https://dc.lft.to/lastmile_qr_scan"}, "type": "electric_scooter", "lat": 38.90354816666667, "is_reserved": 0, "fusion_lat": 0.0}, {"bike_id": "a592c72d5658dadef9a62413449265a2", "fusion_lon": 0.0, "lon": -77.02372983333333, "name": "a592c72d5658dadef9a62413449265a2", "is_disabled": 0, "rental_uris": {"android": "https://dc.lft.to/lastmile_qr_scan", "ios": "https://dc.lft.to/lastmile_qr_scan"}, "type": "electric_scooter", "lat": 38.884827333333334, "is_reserved": 0, "fusion_lat": 0.0}, {"bike_id": "28077f5a7668cba80b26ff80b21d48b8", "fusion_lon": 0.0, "lon": -76.99378466666667, "name": "28077f5a7668cba80b26ff80b21d48b8", "is_disabled": 0, "rental_uris": {"android": "https://dc.lft.to/lastmile_qr_scan", "ios": "https://dc.lft.to/lastmile_qr_scan"}, "type": "electric_scooter", "lat": 38.9239595, "is_reserved": 0, "fusion_lat": 0.0}, {"bike_id": "9d5a9258e0424268a3083a915d54dd5d", "fusion_lon": 0.0, "lon": -77.04309466666666, "name": "9d5a9258e0424268a3083a915d54dd5d", "is_disabled": 0, "rental_uris": {"android": "https://dc.lft.to/lastmile_qr_scan", "ios": "https://dc.lft.to/lastmile_qr_scan"}, "type": "electric_scooter", "lat": 38.88104633333333, "is_reserved": 0, "fusion_lat": 0.0}, {"bike_id": "7d42c60b7197aa2457f817abdbedd7e2", "fusion_lon": 0.0, "lon": -77.02016633333334, "name": "7d42c60b7197aa2457f817abdbedd7e2", "is_disabled": 0, "rental_uris": {"android": "https://dc.lft.to/lastmile_qr_scan", "ios": "https://dc.lft.to/lastmile_qr_scan"}, "type": "electric_scooter", "lat": 38.90161833333333, "is_reserved": 0, "fusion_lat": 0.0}, {"bike_id": "7fccf3c1b3e03d07dec3ad13b56dec7b", "fusion_lon": 0.0, "lon": -77.02490183333333, "name": "7fccf3c1b3e03d07dec3ad13b56dec7b", "is_disabled": 0, "rental_uris": {"android": "https://dc.lft.to/lastmile_qr_scan", "ios": "https://dc.lft.to/lastmile_qr_scan"}, "type": "electric_scooter", "lat": 38.94185683333333, "is_reserved": 0, "fusion_lat": 0.0}, {"bike_id": "1a72f8e6ebd94b884bcbe1e0b74876c5", "fusion_lon": 0.0, "lon": -77.02114333333333, "name": "1a72f8e6ebd94b884bcbe1e0b74876c5", "is_disabled": 0, "rental_uris": {"android": "https://dc.lft.to/lastmile_qr_scan", "ios": "https://dc.lft.to/lastmile_qr_scan"}, "type": "electric_scooter", "lat": 38.917354333333336, "is_reserved": 0, "fusion_lat": 0.0}, {"bike_id": "893578e2326d8b0836a140c1e5ad5677", "fusion_lon": 0.0, "lon": -76.98826, "name": "893578e2326d8b0836a140c1e5ad5677", "is_disabled": 0, "rental_uris": {"android": "https://dc.lft.to/lastmile_qr_scan", "ios": "https://dc.lft.to/lastmile_qr_scan"}, "type": "electric_scooter", "lat": 38.900276166666664, "is_reserved": 0, "fusion_lat": 0.0}, {"bike_id": "7cecfca0c8f0f9de2922e11f3a751777", "fusion_lon": 0.0, "lon": -77.03411983333334, "name": "7cecfca0c8f0f9de2922e11f3a751777", "is_disabled": 0, "rental_uris": {"android": "https://dc.lft.to/lastmile_qr_scan", "ios": "https://dc.lft.to/lastmile_qr_scan"}, "type": "electric_scooter", "lat": 38.911097833333336, "is_reserved": 0, "fusion_lat": 0.0}, {"bike_id": "7cc94339a0a4c8c49bb2336db15f5598", "fusion_lon": 0.0, "lon": -77.0347605, "name": "7cc94339a0a4c8c49bb2336db15f5598", "is_disabled": 0, "rental_uris": {"android": "https://dc.lft.to/lastmile_qr_scan", "ios": "https://dc.lft.to/lastmile_qr_scan"}, "type": "electric_scooter", "lat": 38.91710483333333, "is_reserved": 0, "fusion_lat": 0.0}, {"bike_id": "781a16f6110d356e06d9959d9dcec10e", "fusion_lon": 0.0, "lon": -77.02685766666667, "name": "781a16f6110d356e06d9959d9dcec10e", "is_disabled": 0, "rental_uris": {"android": "https://dc.lft.to/lastmile_qr_scan", "ios": "https://dc.lft.to/lastmile_qr_scan"}, "type": "electric_scooter", "lat": 38.923799833333334, "is_reserved": 0, "fusion_lat": 0.0}, {"bike_id": "5ce9d01d4db4a0a3725c27d2aadad79a", "fusion_lon": 0.0, "lon": -77.054994, "name": "5ce9d01d4db4a0a3725c27d2aadad79a", "is_disabled": 0, "rental_uris": {"android": "https://dc.lft.to/lastmile_qr_scan", "ios": "https://dc.lft.to/lastmile_qr_scan"}, "type": "electric_scooter", "lat": 38.936589833333336, "is_reserved": 0, "fusion_lat": 0.0}, {"bike_id": "f8c880e16efb998acfedc4f81cae4cdf", "fusion_lon": 0.0, "lon": -77.03111266666667, "name": "f8c880e16efb998acfedc4f81cae4cdf", "is_disabled": 0, "rental_uris": {"android": "https://dc.lft.to/lastmile_qr_scan", "ios": "https://dc.lft.to/lastmile_qr_scan"}, "type": "electric_scooter", "lat": 38.8946205, "is_reserved": 0, "fusion_lat": 0.0}, {"bike_id": "042cb3efb62a4fa8dd3a9c25db51de9b", "fusion_lon": 0.0, "lon": -77.02944633333334, "name": "042cb3efb62a4fa8dd3a9c25db51de9b", "is_disabled": 0, "rental_uris": {"android": "https://dc.lft.to/lastmile_qr_scan", "ios": "https://dc.lft.to/lastmile_qr_scan"}, "type": "electric_scooter", "lat": 38.904892333333336, "is_reserved": 0, "fusion_lat": 0.0}, {"bike_id": "55f62514ab8e38d3ebb983dcbbc9ad2c", "fusion_lon": 0.0, "lon": -77.0305535, "name": "55f62514ab8e38d3ebb983dcbbc9ad2c", "is_disabled": 0, "rental_uris": {"android": "https://dc.lft.to/lastmile_qr_scan", "ios": "https://dc.lft.to/lastmile_qr_scan"}, "type": "electric_scooter", "lat": 38.8841025, "is_reserved": 0, "fusion_lat": 0.0}, {"bike_id": "a9c8f81eb03524a3b6cfc57bab6b499e", "fusion_lon": 0.0, "lon": -77.0569125, "name": "a9c8f81eb03524a3b6cfc57bab6b499e", "is_disabled": 0, "rental_uris": {"android": "https://dc.lft.to/lastmile_qr_scan", "ios": "https://dc.lft.to/lastmile_qr_scan"}, "type": "electric_bike", "lat": 38.935309833333335, "is_reserved": 0, "fusion_lat": 0.0}, {"bike_id": "04c4553cc7f722d057ff89c7e60a63c9", "fusion_lon": 0.0, "lon": -76.9827575, "name": "04c4553cc7f722d057ff89c7e60a63c9", "is_disabled": 0, "rental_uris": {"android": "https://dc.lft.to/lastmile_qr_scan", "ios": "https://dc.lft.to/lastmile_qr_scan"}, "type": "electric_scooter", "lat": 38.904317666666664, "is_reserved": 0, "fusion_lat": 0.0}, {"bike_id": "d20018184c7b70ce6c4654283414b74d", "fusion_lon": 0.0, "lon": -77.04163183333333, "name": "d20018184c7b70ce6c4654283414b74d", "is_disabled": 0, "rental_uris": {"android": "https://dc.lft.to/lastmile_qr_scan", "ios": "https://dc.lft.to/lastmile_qr_scan"}, "type": "electric_scooter", "lat": 38.916489, "is_reserved": 0, "fusion_lat": 0.0}, {"bike_id": "caea0f201ca1ea204e33a2248cd41d50", "fusion_lon": 0.0, "lon": -77.022572, "name": "caea0f201ca1ea204e33a2248cd41d50", "is_disabled": 0, "rental_uris": {"android": "https://dc.lft.to/lastmile_qr_scan", "ios": "https://dc.lft.to/lastmile_qr_scan"}, "type": "electric_scooter", "lat": 38.9230575, "is_reserved": 0, "fusion_lat": 0.0}, {"bike_id": "9de899d3c6344b3a1f0c47035c287fbf", "fusion_lon": 0.0, "lon": -77.03977633333334, "name": "9de899d3c6344b3a1f0c47035c287fbf", "is_disabled": 0, "rental_uris": {"android": "https://dc.lft.to/lastmile_qr_scan", "ios": "https://dc.lft.to/lastmile_qr_scan"}, "type": "electric_scooter", "lat": 38.90276266666667, "is_reserved": 0, "fusion_lat": 0.0}, {"bike_id": "35c3be6414b3d361d294d8a156c4bf94", "fusion_lon": 0.0, "lon": -77.0269815, "name": "35c3be6414b3d361d294d8a156c4bf94", "is_disabled": 0, "rental_uris": {"android": "https://dc.lft.to/lastmile_qr_scan", "ios": "https://dc.lft.to/lastmile_qr_scan"}, "type": "electric_scooter", "lat": 38.895966666666666, "is_reserved": 0, "fusion_lat": 0.0}, {"bike_id": "66a17de813017ac6339b8a69c635a20c", "fusion_lon": 0.0, "lon": -76.99562583333334, "name": "66a17de813017ac6339b8a69c635a20c", "is_disabled": 0, "rental_uris": {"android": "https://dc.lft.to/lastmile_qr_scan", "ios": "https://dc.lft.to/lastmile_qr_scan"}, "type": "electric_scooter", "lat": 38.882741, "is_reserved": 0, "fusion_lat": 0.0}, {"bike_id": "5d8cfc9d094498e094bb10425177b0e2", "fusion_lon": 0.0, "lon": -76.98509033333333, "name": "5d8cfc9d094498e094bb10425177b0e2", "is_disabled": 0, "rental_uris": {"android": "https://dc.lft.to/lastmile_qr_scan", "ios": "https://dc.lft.to/lastmile_qr_scan"}, "type": "electric_scooter", "lat": 38.86669833333333, "is_reserved": 0, "fusion_lat": 0.0}, {"bike_id": "aa04587a00de67cadbe472457264e359", "fusion_lon": 0.0, "lon": -76.99777333333333, "name": "aa04587a00de67cadbe472457264e359", "is_disabled": 0, "rental_uris": {"android": "https://dc.lft.to/lastmile_qr_scan", "ios": "https://dc.lft.to/lastmile_qr_scan"}, "type": "electric_scooter", "lat": 38.8443065, "is_reserved": 0, "fusion_lat": 0.0}, {"bike_id": "9c3d5fa67bc54e69ace39812b8939fc4", "fusion_lon": 0.0, "lon": -76.983147, "name": "9c3d5fa67bc54e69ace39812b8939fc4", "is_disabled": 0, "rental_uris": {"android": "https://dc.lft.to/lastmile_qr_scan", "ios": "https://dc.lft.to/lastmile_qr_scan"}, "type": "electric_scooter", "lat": 38.8689105, "is_reserved": 0, "fusion_lat": 0.0}, {"bike_id": "3d44df32a57e8c7b4586589f42971b39", "fusion_lon": 0.0, "lon": -77.04363933333333, "name": "3d44df32a57e8c7b4586589f42971b39", "is_disabled": 0, "rental_uris": {"android": "https://dc.lft.to/lastmile_qr_scan", "ios": "https://dc.lft.to/lastmile_qr_scan"}, "type": "electric_scooter", "lat": 38.92142466666667, "is_reserved": 0, "fusion_lat": 0.0}, {"bike_id": "f614107c69761623c1059b9a305fd17e", "fusion_lon": 0.0, "lon": -77.0269665, "name": "f614107c69761623c1059b9a305fd17e", "is_disabled": 0, "rental_uris": {"android": "https://dc.lft.to/lastmile_qr_scan", "ios": "https://dc.lft.to/lastmile_qr_scan"}, "type": "electric_scooter", "lat": 38.906872166666666, "is_reserved": 0, "fusion_lat": 0.0}, {"bike_id": "37f394e639df40a79024a1e3338d1056", "fusion_lon": 0.0, "lon": -77.00135416666667, "name": "37f394e639df40a79024a1e3338d1056", "is_disabled": 0, "rental_uris": {"android": "https://dc.lft.to/lastmile_qr_scan", "ios": "https://dc.lft.to/lastmile_qr_scan"}, "type": "electric_scooter", "lat": 38.90535766666667, "is_reserved": 0, "fusion_lat": 0.0}, {"bike_id": "471629481158562e13fe88f9a33cc394", "fusion_lon": 0.0, "lon": -76.9933155, "name": "471629481158562e13fe88f9a33cc394", "is_disabled": 0, "rental_uris": {"android": "https://dc.lft.to/lastmile_qr_scan", "ios": "https://dc.lft.to/lastmile_qr_scan"}, "type": "electric_scooter", "lat": 38.92444, "is_reserved": 0, "fusion_lat": 0.0}, {"bike_id": "66437db0893cc408879b71bab427f315", "fusion_lon": 0.0, "lon": -77.02974733333333, "name": "66437db0893cc408879b71bab427f315", "is_disabled": 0, "rental_uris": {"android": "https://dc.lft.to/lastmile_qr_scan", "ios": "https://dc.lft.to/lastmile_qr_scan"}, "type": "electric_scooter", "lat": 38.934765166666665, "is_reserved": 0, "fusion_lat": 0.0}, {"bike_id": "17897b1d32a48c544efe9d62c413437f", "fusion_lon": 0.0, "lon": -77.10714733333333, "name": "17897b1d32a48c544efe9d62c413437f", "is_disabled": 0, "rental_uris": {"android": "https://dc.lft.to/lastmile_qr_scan", "ios": "https://dc.lft.to/lastmile_qr_scan"}, "type": "electric_bike", "lat": 38.9649295, "is_reserved": 0, "fusion_lat": 0.0}, {"bike_id": "57aa4de42f29b0f320c53181ae7b2cc0", "fusion_lon": 0.0, "lon": -77.0433465, "name": "57aa4de42f29b0f320c53181ae7b2cc0", "is_disabled": 0, "rental_uris": {"android": "https://dc.lft.to/lastmile_qr_scan", "ios": "https://dc.lft.to/lastmile_qr_scan"}, "type": "electric_scooter", "lat": 38.908756333333336, "is_reserved": 0, "fusion_lat": 0.0}, {"bike_id": "7b3a09463f3343e5beb5bb9d90e40b0b", "fusion_lon": 0.0, "lon": -76.97240733333334, "name": "7b3a09463f3343e5beb5bb9d90e40b0b", "is_disabled": 0, "rental_uris": {"android": "https://dc.lft.to/lastmile_qr_scan", "ios": "https://dc.lft.to/lastmile_qr_scan"}, "type": "electric_bike", "lat": 38.9490375, "is_reserved": 0, "fusion_lat": 0.0}, {"bike_id": "896076e1b5b9f7ba20169391a9802a66", "fusion_lon": 0.0, "lon": -77.04019966666667, "name": "896076e1b5b9f7ba20169391a9802a66", "is_disabled": 0, "rental_uris": {"android": "https://dc.lft.to/lastmile_qr_scan", "ios": "https://dc.lft.to/lastmile_qr_scan"}, "type": "electric_bike", "lat": 38.79327333333333, "is_reserved": 0, "fusion_lat": 0.0}, {"bike_id": "339ca8491b2bb020829fc989ab4bf02e", "fusion_lon": 0.0, "lon": -77.03174416666667, "name": "339ca8491b2bb020829fc989ab4bf02e", "is_disabled": 0, "rental_uris": {"android": "https://dc.lft.to/lastmile_qr_scan", "ios": "https://dc.lft.to/lastmile_qr_scan"}, "type": "electric_scooter", "lat": 38.90403116666667, "is_reserved": 0, "fusion_lat": 0.0}, {"bike_id": "8dbbb41f9cdd55e20e2dad27af30ac3b", "fusion_lon": 0.0, "lon": -77.044005, "name": "8dbbb41f9cdd55e20e2dad27af30ac3b", "is_disabled": 0, "rental_uris": {"android": "https://dc.lft.to/lastmile_qr_scan", "ios": "https://dc.lft.to/lastmile_qr_scan"}, "type": "electric_scooter", "lat": 38.920770833333336, "is_reserved": 0, "fusion_lat": 0.0}, {"bike_id": "5135d951df818cf093ca630a51aa681d", "fusion_lon": 0.0, "lon": -76.999392, "name": "5135d951df818cf093ca630a51aa681d", "is_disabled": 0, "rental_uris": {"android": "https://dc.lft.to/lastmile_qr_scan", "ios": "https://dc.lft.to/lastmile_qr_scan"}, "type": "electric_scooter", "lat": 38.89198783333333, "is_reserved": 0, "fusion_lat": 0.0}, {"bike_id": "fe899dcbe739e36a88127fde6c0bbece", "fusion_lon": 0.0, "lon": -77.04177916666667, "name": "fe899dcbe739e36a88127fde6c0bbece", "is_disabled": 0, "rental_uris": {"android": "https://dc.lft.to/lastmile_qr_scan", "ios": "https://dc.lft.to/lastmile_qr_scan"}, "type": "electric_scooter", "lat": 38.91980516666667, "is_reserved": 0, "fusion_lat": 0.0}, {"bike_id": "fd3e4725782157bcbfa07781bf18c246", "fusion_lon": 0.0, "lon": -77.04830266666667, "name": "fd3e4725782157bcbfa07781bf18c246", "is_disabled": 0, "rental_uris": {"android": "https://dc.lft.to/lastmile_qr_scan", "ios": "https://dc.lft.to/lastmile_qr_scan"}, "type": "electric_scooter", "lat": 38.9111245, "is_reserved": 0, "fusion_lat": 0.0}, {"bike_id": "5256a968e1194a943e3fb124cda77fd3", "fusion_lon": 0.0, "lon": -76.938645, "name": "5256a968e1194a943e3fb124cda77fd3", "is_disabled": 0, "rental_uris": {"android": "https://dc.lft.to/lastmile_qr_scan", "ios": "https://dc.lft.to/lastmile_qr_scan"}, "type": "electric_scooter", "lat": 38.8989765, "is_reserved": 0, "fusion_lat": 0.0}, {"bike_id": "2165037bf9425b26d025bcce2b15bd51", "fusion_lon": 0.0, "lon": -77.07841666666667, "name": "2165037bf9425b26d025bcce2b15bd51", "is_disabled": 0, "rental_uris": {"android": "https://dc.lft.to/lastmile_qr_scan", "ios": "https://dc.lft.to/lastmile_qr_scan"}, "type": "electric_bike", "lat": 38.93175133333333, "is_reserved": 0, "fusion_lat": 0.0}, {"bike_id": "16854a4ac4d9c14cbdab96357703eb48", "fusion_lon": 0.0, "lon": -76.9985735, "name": "16854a4ac4d9c14cbdab96357703eb48", "is_disabled": 0, "rental_uris": {"android": "https://dc.lft.to/lastmile_qr_scan", "ios": "https://dc.lft.to/lastmile_qr_scan"}, "type": "electric_scooter", "lat": 38.90363716666667, "is_reserved": 0, "fusion_lat": 0.0}, {"bike_id": "c78c4bb398f21bd6d60460e549dbc0a4", "fusion_lon": 0.0, "lon": -77.02702366666666, "name": "c78c4bb398f21bd6d60460e549dbc0a4", "is_disabled": 0, "rental_uris": {"android": "https://dc.lft.to/lastmile_qr_scan", "ios": "https://dc.lft.to/lastmile_qr_scan"}, "type": "electric_scooter", "lat": 38.918044, "is_reserved": 0, "fusion_lat": 0.0}, {"bike_id": "239ee25e56d3b1af740a0188b383b96d", "fusion_lon": 0.0, "lon": -77.01363783333333, "name": "239ee25e56d3b1af740a0188b383b96d", "is_disabled": 0, "rental_uris": {"android": "https://dc.lft.to/lastmile_qr_scan", "ios": "https://dc.lft.to/lastmile_qr_scan"}, "type": "electric_scooter", "lat": 38.89330016666667, "is_reserved": 0, "fusion_lat": 0.0}, {"bike_id": "1550b88dbb57f76ad7d525422b2216ea", "fusion_lon": 0.0, "lon": -77.03755516666666, "name": "1550b88dbb57f76ad7d525422b2216ea", "is_disabled": 0, "rental_uris": {"android": "https://dc.lft.to/lastmile_qr_scan", "ios": "https://dc.lft.to/lastmile_qr_scan"}, "type": "electric_scooter", "lat": 38.912690166666664, "is_reserved": 0, "fusion_lat": 0.0}, {"bike_id": "2249a8a5a63ad684d71804e5ee7087af", "fusion_lon": 0.0, "lon": -77.03844133333334, "name": "2249a8a5a63ad684d71804e5ee7087af", "is_disabled": 0, "rental_uris": {"android": "https://dc.lft.to/lastmile_qr_scan", "ios": "https://dc.lft.to/lastmile_qr_scan"}, "type": "electric_scooter", "lat": 38.91011816666666, "is_reserved": 0, "fusion_lat": 0.0}, {"bike_id": "dd44997baf7c1bfd9e902eeaefe07bfb", "fusion_lon": 0.0, "lon": -77.01402566666667, "name": "dd44997baf7c1bfd9e902eeaefe07bfb", "is_disabled": 0, "rental_uris": {"android": "https://dc.lft.to/lastmile_qr_scan", "ios": "https://dc.lft.to/lastmile_qr_scan"}, "type": "electric_scooter", "lat": 38.918129, "is_reserved": 0, "fusion_lat": 0.0}, {"bike_id": "4a23a328f3234d5f1649d5d5713f6af9", "fusion_lon": 0.0, "lon": -77.22323566666667, "name": "4a23a328f3234d5f1649d5d5713f6af9", "is_disabled": 0, "rental_uris": {"android": "https://dc.lft.to/lastmile_qr_scan", "ios": "https://dc.lft.to/lastmile_qr_scan"}, "type": "electric_bike", "lat": 38.9179415, "is_reserved": 0, "fusion_lat": 0.0}, {"bike_id": "dd4223a9d2f72ece54ebf5a50756a68a", "fusion_lon": 0.0, "lon": -77.03862133333334, "name": "dd4223a9d2f72ece54ebf5a50756a68a", "is_disabled": 0, "rental_uris": {"android": "https://dc.lft.to/lastmile_qr_scan", "ios": "https://dc.lft.to/lastmile_qr_scan"}, "type": "electric_scooter", "lat": 38.9078225, "is_reserved": 0, "fusion_lat": 0.0}, {"bike_id": "6a612248f3d90f9bce9bf0a4c6734b54", "fusion_lon": 0.0, "lon": -77.038182, "name": "6a612248f3d90f9bce9bf0a4c6734b54", "is_disabled": 0, "rental_uris": {"android": "https://dc.lft.to/lastmile_qr_scan", "ios": "https://dc.lft.to/lastmile_qr_scan"}, "type": "electric_scooter", "lat": 38.91415766666667, "is_reserved": 0, "fusion_lat": 0.0}, {"bike_id": "1c614bd3c07d697068fcbb11af19f118", "fusion_lon": 0.0, "lon": -77.023467, "name": "1c614bd3c07d697068fcbb11af19f118", "is_disabled": 0, "rental_uris": {"android": "https://dc.lft.to/lastmile_qr_scan", "ios": "https://dc.lft.to/lastmile_qr_scan"}, "type": "electric_scooter", "lat": 38.93534266666666, "is_reserved": 0, "fusion_lat": 0.0}, {"bike_id": "b04a548d8167ac7659336623f342a166", "fusion_lon": 0.0, "lon": -77.09523433333334, "name": "b04a548d8167ac7659336623f342a166", "is_disabled": 0, "rental_uris": {"android": "https://dc.lft.to/lastmile_qr_scan", "ios": "https://dc.lft.to/lastmile_qr_scan"}, "type": "electric_bike", "lat": 38.838106333333336, "is_reserved": 0, "fusion_lat": 0.0}, {"bike_id": "13298acc23468b1b9df9a19ce4df0d1a", "fusion_lon": 0.0, "lon": -77.02785483333334, "name": "13298acc23468b1b9df9a19ce4df0d1a", "is_disabled": 0, "rental_uris": {"android": "https://dc.lft.to/lastmile_qr_scan", "ios": "https://dc.lft.to/lastmile_qr_scan"}, "type": "electric_scooter", "lat": 38.930581833333335, "is_reserved": 0, "fusion_lat": 0.0}, {"bike_id": "b97d009b3726b7d50d583bff2fae5b10", "fusion_lon": 0.0, "lon": -77.02392766666667, "name": "b97d009b3726b7d50d583bff2fae5b10", "is_disabled": 0, "rental_uris": {"android": "https://dc.lft.to/lastmile_qr_scan", "ios": "https://dc.lft.to/lastmile_qr_scan"}, "type": "electric_scooter", "lat": 38.919609, "is_reserved": 0, "fusion_lat": 0.0}, {"bike_id": "f595a8ff558d5e63304556344b620d96", "fusion_lon": 0.0, "lon": -77.0320825, "name": "f595a8ff558d5e63304556344b620d96", "is_disabled": 0, "rental_uris": {"android": "https://dc.lft.to/lastmile_qr_scan", "ios": "https://dc.lft.to/lastmile_qr_scan"}, "type": "electric_scooter", "lat": 38.9147125, "is_reserved": 0, "fusion_lat": 0.0}, {"bike_id": "0243bfeea1307a496acd9bcbafd836eb", "fusion_lon": 0.0, "lon": -77.0512115, "name": "0243bfeea1307a496acd9bcbafd836eb", "is_disabled": 0, "rental_uris": {"android": "https://dc.lft.to/lastmile_qr_scan", "ios": "https://dc.lft.to/lastmile_qr_scan"}, "type": "electric_scooter", "lat": 38.90540583333333, "is_reserved": 0, "fusion_lat": 0.0}, {"bike_id": "70e4afe376f164547fa3437fef892b5c", "fusion_lon": 0.0, "lon": -77.01480216666667, "name": "70e4afe376f164547fa3437fef892b5c", "is_disabled": 0, "rental_uris": {"android": "https://dc.lft.to/lastmile_qr_scan", "ios": "https://dc.lft.to/lastmile_qr_scan"}, "type": "electric_scooter", "lat": 38.8762795, "is_reserved": 0, "fusion_lat": 0.0}, {"bike_id": "38bcdac04227ee447987ee565dbf92a7", "fusion_lon": 0.0, "lon": -77.027078, "name": "38bcdac04227ee447987ee565dbf92a7", "is_disabled": 0, "rental_uris": {"android": "https://dc.lft.to/lastmile_qr_scan", "ios": "https://dc.lft.to/lastmile_qr_scan"}, "type": "electric_scooter", "lat": 38.906692666666665, "is_reserved": 0, "fusion_lat": 0.0}, {"bike_id": "8a3baef8e7b2703618944c2b1c9b6a47", "fusion_lon": 0.0, "lon": -76.9899895, "name": "8a3baef8e7b2703618944c2b1c9b6a47", "is_disabled": 0, "rental_uris": {"android": "https://dc.lft.to/lastmile_qr_scan", "ios": "https://dc.lft.to/lastmile_qr_scan"}, "type": "electric_scooter", "lat": 38.92447716666667, "is_reserved": 0, "fusion_lat": 0.0}, {"bike_id": "92ef1ae1c21bd81c1ef95cd797ba268e", "fusion_lon": 0.0, "lon": -77.0275225, "name": "92ef1ae1c21bd81c1ef95cd797ba268e", "is_disabled": 0, "rental_uris": {"android": "https://dc.lft.to/lastmile_qr_scan", "ios": "https://dc.lft.to/lastmile_qr_scan"}, "type": "electric_scooter", "lat": 38.951645, "is_reserved": 0, "fusion_lat": 0.0}, {"bike_id": "dc09d3593e5df9a3db8a0f6f65a98e78", "fusion_lon": 0.0, "lon": -77.13103916666667, "name": "dc09d3593e5df9a3db8a0f6f65a98e78", "is_disabled": 0, "rental_uris": {"android": "https://dc.lft.to/lastmile_qr_scan", "ios": "https://dc.lft.to/lastmile_qr_scan"}, "type": "electric_bike", "lat": 39.024291166666664, "is_reserved": 0, "fusion_lat": 0.0}, {"bike_id": "70a1e674c2c8568e162b626c28819260", "fusion_lon": 0.0, "lon": -76.94741866666666, "name": "70a1e674c2c8568e162b626c28819260", "is_disabled": 0, "rental_uris": {"android": "https://dc.lft.to/lastmile_qr_scan", "ios": "https://dc.lft.to/lastmile_qr_scan"}, "type": "electric_scooter", "lat": 38.89670316666667, "is_reserved": 0, "fusion_lat": 0.0}, {"bike_id": "c818298ce85e7dcd5a98528ad4ef7a7f", "fusion_lon": 0.0, "lon": -77.06080166666666, "name": "c818298ce85e7dcd5a98528ad4ef7a7f", "is_disabled": 0, "rental_uris": {"android": "https://dc.lft.to/lastmile_qr_scan", "ios": "https://dc.lft.to/lastmile_qr_scan"}, "type": "electric_bike", "lat": 38.8857945, "is_reserved": 0, "fusion_lat": 0.0}, {"bike_id": "6a59dbe72802f3a4dc96fe006ce266b4", "fusion_lon": 0.0, "lon": -77.09481016666666, "name": "6a59dbe72802f3a4dc96fe006ce266b4", "is_disabled": 0, "rental_uris": {"android": "https://dc.lft.to/lastmile_qr_scan", "ios": "https://dc.lft.to/lastmile_qr_scan"}, "type": "electric_bike", "lat": 39.03047383333333, "is_reserved": 0, "fusion_lat": 0.0}, {"bike_id": "a522db7ce29f99a2d020bd4cfcc8cfea", "fusion_lon": 0.0, "lon": -77.02093366666666, "name": "a522db7ce29f99a2d020bd4cfcc8cfea", "is_disabled": 0, "rental_uris": {"android": "https://dc.lft.to/lastmile_qr_scan", "ios": "https://dc.lft.to/lastmile_qr_scan"}, "type": "electric_bike", "lat": 38.9410635, "is_reserved": 0, "fusion_lat": 0.0}, {"bike_id": "84365646a14108b54f3b34c4031b01a9", "fusion_lon": 0.0, "lon": -77.03198816666666, "name": "84365646a14108b54f3b34c4031b01a9", "is_disabled": 0, "rental_uris": {"android": "https://dc.lft.to/lastmile_qr_scan", "ios": "https://dc.lft.to/lastmile_qr_scan"}, "type": "electric_scooter", "lat": 38.915660333333335, "is_reserved": 0, "fusion_lat": 0.0}, {"bike_id": "3fc3d37486fd1e0575e86c40164d7bdb", "fusion_lon": 0.0, "lon": -77.043399, "name": "3fc3d37486fd1e0575e86c40164d7bdb", "is_disabled": 0, "rental_uris": {"android": "https://dc.lft.to/lastmile_qr_scan", "ios": "https://dc.lft.to/lastmile_qr_scan"}, "type": "electric_scooter", "lat": 38.90732333333333, "is_reserved": 0, "fusion_lat": 0.0}, {"bike_id": "cc0fbfbb2a74bb628fd2e59979d0e6ca", "fusion_lon": 0.0, "lon": -77.03362416666667, "name": "cc0fbfbb2a74bb628fd2e59979d0e6ca", "is_disabled": 0, "rental_uris": {"android": "https://dc.lft.to/lastmile_qr_scan", "ios": "https://dc.lft.to/lastmile_qr_scan"}, "type": "electric_scooter", "lat": 38.93233433333333, "is_reserved": 0, "fusion_lat": 0.0}, {"bike_id": "cf0f05d18329aebd122f0f89b47f32af", "fusion_lon": 0.0, "lon": -77.00068183333333, "name": "cf0f05d18329aebd122f0f89b47f32af", "is_disabled": 0, "rental_uris": {"android": "https://dc.lft.to/lastmile_qr_scan", "ios": "https://dc.lft.to/lastmile_qr_scan"}, "type": "electric_scooter", "lat": 38.925472, "is_reserved": 0, "fusion_lat": 0.0}, {"bike_id": "ae1033d846cc27e8e0563b06de74b933", "fusion_lon": 0.0, "lon": -77.00937483333334, "name": "ae1033d846cc27e8e0563b06de74b933", "is_disabled": 0, "rental_uris": {"android": "https://dc.lft.to/lastmile_qr_scan", "ios": "https://dc.lft.to/lastmile_qr_scan"}, "type": "electric_scooter", "lat": 38.91814133333333, "is_reserved": 0, "fusion_lat": 0.0}, {"bike_id": "ee1095dc3e06428477b4c7035502d232", "fusion_lon": 0.0, "lon": -77.0321265, "name": "ee1095dc3e06428477b4c7035502d232", "is_disabled": 0, "rental_uris": {"android": "https://dc.lft.to/lastmile_qr_scan", "ios": "https://dc.lft.to/lastmile_qr_scan"}, "type": "electric_scooter", "lat": 38.915482833333336, "is_reserved": 0, "fusion_lat": 0.0}, {"bike_id": "f129ad32ae9d19ec9c203151321e6293", "fusion_lon": 0.0, "lon": -77.02311533333334, "name": "f129ad32ae9d19ec9c203151321e6293", "is_disabled": 0, "rental_uris": {"android": "https://dc.lft.to/lastmile_qr_scan", "ios": "https://dc.lft.to/lastmile_qr_scan"}, "type": "electric_scooter", "lat": 38.909692666666665, "is_reserved": 0, "fusion_lat": 0.0}, {"bike_id": "1878b50ce23844eb44c6c15367abf3ce", "fusion_lon": 0.0, "lon": -77.10131016666666, "name": "1878b50ce23844eb44c6c15367abf3ce", "is_disabled": 0, "rental_uris": {"android": "https://dc.lft.to/lastmile_qr_scan", "ios": "https://dc.lft.to/lastmile_qr_scan"}, "type": "electric_bike", "lat": 38.852063666666666, "is_reserved": 0, "fusion_lat": 0.0}, {"bike_id": "3aacbb7567a78df9ab5b7dc2c5af6a7f", "fusion_lon": 0.0, "lon": -76.93184133333334, "name": "3aacbb7567a78df9ab5b7dc2c5af6a7f", "is_disabled": 0, "rental_uris": {"android": "https://dc.lft.to/lastmile_qr_scan", "ios": "https://dc.lft.to/lastmile_qr_scan"}, "type": "electric_scooter", "lat": 38.89877416666667, "is_reserved": 0, "fusion_lat": 0.0}, {"bike_id": "a506f307f16465459b761d220f173657", "fusion_lon": 0.0, "lon": -77.02416516666666, "name": "a506f307f16465459b761d220f173657", "is_disabled": 0, "rental_uris": {"android": "https://dc.lft.to/lastmile_qr_scan", "ios": "https://dc.lft.to/lastmile_qr_scan"}, "type": "electric_scooter", "lat": 38.921949833333336, "is_reserved": 0, "fusion_lat": 0.0}, {"bike_id": "aa88edb87b47883df13521ca2f558e0a", "fusion_lon": 0.0, "lon": -77.02179733333334, "name": "aa88edb87b47883df13521ca2f558e0a", "is_disabled": 0, "rental_uris": {"android": "https://dc.lft.to/lastmile_qr_scan", "ios": "https://dc.lft.to/lastmile_qr_scan"}, "type": "electric_scooter", "lat": 38.914261333333336, "is_reserved": 0, "fusion_lat": 0.0}, {"bike_id": "13f96e9759fde2131f108f6570b7a74b", "fusion_lon": 0.0, "lon": -76.96538166666667, "name": "13f96e9759fde2131f108f6570b7a74b", "is_disabled": 0, "rental_uris": {"android": "https://dc.lft.to/lastmile_qr_scan", "ios": "https://dc.lft.to/lastmile_qr_scan"}, "type": "electric_scooter", "lat": 38.918451833333336, "is_reserved": 0, "fusion_lat": 0.0}, {"bike_id": "f6e204b21ee0a4d39d4ef70e1329370f", "fusion_lon": 0.0, "lon": -77.03480066666667, "name": "f6e204b21ee0a4d39d4ef70e1329370f", "is_disabled": 0, "rental_uris": {"android": "https://dc.lft.to/lastmile_qr_scan", "ios": "https://dc.lft.to/lastmile_qr_scan"}, "type": "electric_scooter", "lat": 38.908907666666664, "is_reserved": 0, "fusion_lat": 0.0}, {"bike_id": "fb6080d258a0de47b0334b78a69a62e9", "fusion_lon": 0.0, "lon": -77.02908516666666, "name": "fb6080d258a0de47b0334b78a69a62e9", "is_disabled": 0, "rental_uris": {"android": "https://dc.lft.to/lastmile_qr_scan", "ios": "https://dc.lft.to/lastmile_qr_scan"}, "type": "electric_scooter", "lat": 38.925716, "is_reserved": 0, "fusion_lat": 0.0}, {"bike_id": "63fcf893f949fd7350636e806c0d49c7", "fusion_lon": 0.0, "lon": -77.00707733333333, "name": "63fcf893f949fd7350636e806c0d49c7", "is_disabled": 0, "rental_uris": {"android": "https://dc.lft.to/lastmile_qr_scan", "ios": "https://dc.lft.to/lastmile_qr_scan"}, "type": "electric_scooter", "lat": 38.898062333333336, "is_reserved": 0, "fusion_lat": 0.0}, {"bike_id": "cfcc27777d1995582026c18662f633e8", "fusion_lon": 0.0, "lon": -77.023691, "name": "cfcc27777d1995582026c18662f633e8", "is_disabled": 0, "rental_uris": {"android": "https://dc.lft.to/lastmile_qr_scan", "ios": "https://dc.lft.to/lastmile_qr_scan"}, "type": "electric_scooter", "lat": 38.892189, "is_reserved": 0, "fusion_lat": 0.0}, {"bike_id": "ec9a6af13c37ed14a265be3298bbd787", "fusion_lon": 0.0, "lon": -77.04068916666667, "name": "ec9a6af13c37ed14a265be3298bbd787", "is_disabled": 0, "rental_uris": {"android": "https://dc.lft.to/lastmile_qr_scan", "ios": "https://dc.lft.to/lastmile_qr_scan"}, "type": "electric_scooter", "lat": 38.90502333333333, "is_reserved": 0, "fusion_lat": 0.0}, {"bike_id": "27673f313f68639e912d5bce446a397c", "fusion_lon": 0.0, "lon": -77.02508883333333, "name": "27673f313f68639e912d5bce446a397c", "is_disabled": 0, "rental_uris": {"android": "https://dc.lft.to/lastmile_qr_scan", "ios": "https://dc.lft.to/lastmile_qr_scan"}, "type": "electric_scooter", "lat": 38.90411316666667, "is_reserved": 0, "fusion_lat": 0.0}, {"bike_id": "65075e630b443af66e92c0a9e59d04ab", "fusion_lon": 0.0, "lon": -76.98713866666667, "name": "65075e630b443af66e92c0a9e59d04ab", "is_disabled": 0, "rental_uris": {"android": "https://dc.lft.to/lastmile_qr_scan", "ios": "https://dc.lft.to/lastmile_qr_scan"}, "type": "electric_scooter", "lat": 38.866981833333334, "is_reserved": 0, "fusion_lat": 0.0}, {"bike_id": "9be7d988a884d883aef10b768f96e237", "fusion_lon": 0.0, "lon": -77.020946, "name": "9be7d988a884d883aef10b768f96e237", "is_disabled": 0, "rental_uris": {"android": "https://dc.lft.to/lastmile_qr_scan", "ios": "https://dc.lft.to/lastmile_qr_scan"}, "type": "electric_scooter", "lat": 38.93118116666667, "is_reserved": 0, "fusion_lat": 0.0}, {"bike_id": "23871b5a258da8982f4ac00bba96427e", "fusion_lon": 0.0, "lon": -77.0391655, "name": "23871b5a258da8982f4ac00bba96427e", "is_disabled": 0, "rental_uris": {"android": "https://dc.lft.to/lastmile_qr_scan", "ios": "https://dc.lft.to/lastmile_qr_scan"}, "type": "electric_scooter", "lat": 38.924764333333336, "is_reserved": 0, "fusion_lat": 0.0}, {"bike_id": "130b4b6ce1bf23d6dce2fcaed69dfcf8", "fusion_lon": 0.0, "lon": -77.01457766666667, "name": "130b4b6ce1bf23d6dce2fcaed69dfcf8", "is_disabled": 0, "rental_uris": {"android": "https://dc.lft.to/lastmile_qr_scan", "ios": "https://dc.lft.to/lastmile_qr_scan"}, "type": "electric_scooter", "lat": 38.91822466666667, "is_reserved": 0, "fusion_lat": 0.0}, {"bike_id": "5a99b90b33d26a096988748e8251ca62", "fusion_lon": 0.0, "lon": -77.0298305, "name": "5a99b90b33d26a096988748e8251ca62", "is_disabled": 0, "rental_uris": {"android": "https://dc.lft.to/lastmile_qr_scan", "ios": "https://dc.lft.to/lastmile_qr_scan"}, "type": "electric_scooter", "lat": 38.934418666666666, "is_reserved": 0, "fusion_lat": 0.0}, {"bike_id": "748f08958d4d4f9bf97d91444b6cf108", "fusion_lon": 0.0, "lon": -77.02717433333333, "name": "748f08958d4d4f9bf97d91444b6cf108", "is_disabled": 0, "rental_uris": {"android": "https://dc.lft.to/lastmile_qr_scan", "ios": "https://dc.lft.to/lastmile_qr_scan"}, "type": "electric_scooter", "lat": 38.90666366666667, "is_reserved": 0, "fusion_lat": 0.0}, {"bike_id": "6623aaf9b7faeaea58ba1763803516e0", "fusion_lon": 0.0, "lon": -77.07717533333333, "name": "6623aaf9b7faeaea58ba1763803516e0", "is_disabled": 0, "rental_uris": {"android": "https://dc.lft.to/lastmile_qr_scan", "ios": "https://dc.lft.to/lastmile_qr_scan"}, "type": "electric_scooter", "lat": 38.95768, "is_reserved": 0, "fusion_lat": 0.0}, {"bike_id": "9a6a71fe08d72c371f4fe389d9e9a5c3", "fusion_lon": 0.0, "lon": -77.02347033333334, "name": "9a6a71fe08d72c371f4fe389d9e9a5c3", "is_disabled": 0, "rental_uris": {"android": "https://dc.lft.to/lastmile_qr_scan", "ios": "https://dc.lft.to/lastmile_qr_scan"}, "type": "electric_scooter", "lat": 38.946121, "is_reserved": 0, "fusion_lat": 0.0}, {"bike_id": "b63bacd200a8968def791c42c89a4697", "fusion_lon": 0.0, "lon": -76.988385, "name": "b63bacd200a8968def791c42c89a4697", "is_disabled": 0, "rental_uris": {"android": "https://dc.lft.to/lastmile_qr_scan", "ios": "https://dc.lft.to/lastmile_qr_scan"}, "type": "electric_scooter", "lat": 38.892520166666664, "is_reserved": 0, "fusion_lat": 0.0}, {"bike_id": "8d297fc8e49994703357fff2b75014a9", "fusion_lon": 0.0, "lon": -77.03260083333333, "name": "8d297fc8e49994703357fff2b75014a9", "is_disabled": 0, "rental_uris": {"android": "https://dc.lft.to/lastmile_qr_scan", "ios": "https://dc.lft.to/lastmile_qr_scan"}, "type": "electric_scooter", "lat": 38.914024, "is_reserved": 0, "fusion_lat": 0.0}, {"bike_id": "203981c9c3884bff13e6e7582c5ab7f5", "fusion_lon": 0.0, "lon": -77.03661433333333, "name": "203981c9c3884bff13e6e7582c5ab7f5", "is_disabled": 0, "rental_uris": {"android": "https://dc.lft.to/lastmile_qr_scan", "ios": "https://dc.lft.to/lastmile_qr_scan"}, "type": "electric_scooter", "lat": 38.922877, "is_reserved": 0, "fusion_lat": 0.0}, {"bike_id": "aeb1a528b019ae2b62dc95ac43c35b1b", "fusion_lon": 0.0, "lon": -77.02213016666667, "name": "aeb1a528b019ae2b62dc95ac43c35b1b", "is_disabled": 0, "rental_uris": {"android": "https://dc.lft.to/lastmile_qr_scan", "ios": "https://dc.lft.to/lastmile_qr_scan"}, "type": "electric_scooter", "lat": 38.920874833333336, "is_reserved": 0, "fusion_lat": 0.0}, {"bike_id": "90f7c9e82d21f94ed74f600bc9fa32cb", "fusion_lon": 0.0, "lon": -77.020988, "name": "90f7c9e82d21f94ed74f600bc9fa32cb", "is_disabled": 0, "rental_uris": {"android": "https://dc.lft.to/lastmile_qr_scan", "ios": "https://dc.lft.to/lastmile_qr_scan"}, "type": "electric_scooter", "lat": 38.88507516666667, "is_reserved": 0, "fusion_lat": 0.0}, {"bike_id": "76ce1f603c1680ec6d907722a9aac008", "fusion_lon": 0.0, "lon": -76.977063, "name": "76ce1f603c1680ec6d907722a9aac008", "is_disabled": 0, "rental_uris": {"android": "https://dc.lft.to/lastmile_qr_scan", "ios": "https://dc.lft.to/lastmile_qr_scan"}, "type": "electric_scooter", "lat": 38.90253516666667, "is_reserved": 0, "fusion_lat": 0.0}, {"bike_id": "3f1f918b637280ea807a855b645d53f4", "fusion_lon": 0.0, "lon": -76.984966, "name": "3f1f918b637280ea807a855b645d53f4", "is_disabled": 0, "rental_uris": {"android": "https://dc.lft.to/lastmile_qr_scan", "ios": "https://dc.lft.to/lastmile_qr_scan"}, "type": "electric_scooter", "lat": 38.893489, "is_reserved": 0, "fusion_lat": 0.0}, {"bike_id": "c70aa4ca68c9ff75cd9ef1acc3503eaf", "fusion_lon": 0.0, "lon": -77.03888833333333, "name": "c70aa4ca68c9ff75cd9ef1acc3503eaf", "is_disabled": 0, "rental_uris": {"android": "https://dc.lft.to/lastmile_qr_scan", "ios": "https://dc.lft.to/lastmile_qr_scan"}, "type": "electric_scooter", "lat": 38.918434500000004, "is_reserved": 0, "fusion_lat": 0.0}, {"bike_id": "6a60993ebaa8d5bc44cc9e734e2100ac", "fusion_lon": 0.0, "lon": -77.01032166666667, "name": "6a60993ebaa8d5bc44cc9e734e2100ac", "is_disabled": 0, "rental_uris": {"android": "https://dc.lft.to/lastmile_qr_scan", "ios": "https://dc.lft.to/lastmile_qr_scan"}, "type": "electric_bike", "lat": 38.95882183333333, "is_reserved": 0, "fusion_lat": 0.0}, {"bike_id": "f1d08da1ad4c9a7399d5f182b1477dc9", "fusion_lon": 0.0, "lon": -77.03049833333333, "name": "f1d08da1ad4c9a7399d5f182b1477dc9", "is_disabled": 0, "rental_uris": {"android": "https://dc.lft.to/lastmile_qr_scan", "ios": "https://dc.lft.to/lastmile_qr_scan"}, "type": "electric_scooter", "lat": 38.934590666666665, "is_reserved": 0, "fusion_lat": 0.0}, {"bike_id": "9d8f9c97e53fc6f76d0d27bded70b558", "fusion_lon": 0.0, "lon": -77.04661833333333, "name": "9d8f9c97e53fc6f76d0d27bded70b558", "is_disabled": 0, "rental_uris": {"android": "https://dc.lft.to/lastmile_qr_scan", "ios": "https://dc.lft.to/lastmile_qr_scan"}, "type": "electric_scooter", "lat": 38.900589333333336, "is_reserved": 0, "fusion_lat": 0.0}, {"bike_id": "fa4242ecac77583f4e41cb43956fa0ef", "fusion_lon": 0.0, "lon": -77.05749533333334, "name": "fa4242ecac77583f4e41cb43956fa0ef", "is_disabled": 0, "rental_uris": {"android": "https://dc.lft.to/lastmile_qr_scan", "ios": "https://dc.lft.to/lastmile_qr_scan"}, "type": "electric_scooter", "lat": 38.924307166666665, "is_reserved": 0, "fusion_lat": 0.0}, {"bike_id": "1159e6ddd87cb23bc27e262261665719", "fusion_lon": 0.0, "lon": -77.02429866666667, "name": "1159e6ddd87cb23bc27e262261665719", "is_disabled": 0, "rental_uris": {"android": "https://dc.lft.to/lastmile_qr_scan", "ios": "https://dc.lft.to/lastmile_qr_scan"}, "type": "electric_scooter", "lat": 38.919283, "is_reserved": 0, "fusion_lat": 0.0}, {"bike_id": "cfe5f94b067e32274e5c177e3923a0e7", "fusion_lon": 0.0, "lon": -77.038542, "name": "cfe5f94b067e32274e5c177e3923a0e7", "is_disabled": 0, "rental_uris": {"android": "https://dc.lft.to/lastmile_qr_scan", "ios": "https://dc.lft.to/lastmile_qr_scan"}, "type": "electric_scooter", "lat": 38.91636533333333, "is_reserved": 0, "fusion_lat": 0.0}, {"bike_id": "0bfb8f4953e7053d15b11b513203b596", "fusion_lon": 0.0, "lon": -77.0382645, "name": "0bfb8f4953e7053d15b11b513203b596", "is_disabled": 0, "rental_uris": {"android": "https://dc.lft.to/lastmile_qr_scan", "ios": "https://dc.lft.to/lastmile_qr_scan"}, "type": "electric_scooter", "lat": 38.906733833333334, "is_reserved": 0, "fusion_lat": 0.0}, {"bike_id": "5953934f8485c8b797ab66bb56b4fc62", "fusion_lon": 0.0, "lon": -76.9323045, "name": "5953934f8485c8b797ab66bb56b4fc62", "is_disabled": 0, "rental_uris": {"android": "https://dc.lft.to/lastmile_qr_scan", "ios": "https://dc.lft.to/lastmile_qr_scan"}, "type": "electric_scooter", "lat": 38.89883616666667, "is_reserved": 0, "fusion_lat": 0.0},