{"data": {"bikes": [{"rental_uris": {"ios": "https://dc.lft.to/lastmile_qr_scan", "android": "https://dc.lft.to/lastmile_qr_scan"}, "fusion_lat": 0.0, "name": "12204c7694e5a7c86e7f5fbf1f8a6304", "bike_id": "12204c7694e5a7c86e7f5fbf1f8a6304", "is_disabled": 0, "type": "electric_scooter", "lat": 38.929673666666666, "lon": -77.03002233333333, "is_reserved": 0, "fusion_lon": 0.0}, {"rental_uris": {"ios": "https://dc.lft.to/lastmile_qr_scan", "android": "https://dc.lft.to/lastmile_qr_scan"}, "fusion_lat": 0.0, "name": "8338a6377609b50ef53c7515fa9c2379", "bike_id": "8338a6377609b50ef53c7515fa9c2379", "is_disabled": 0, "type": "electric_scooter", "lat": 38.898665, "lon": -77.03965366666667, "is_reserved": 0, "fusion_lon": 0.0}, {"rental_uris": {"ios": "https://dc.lft.to/lastmile_qr_scan", "android": "https://dc.lft.to/lastmile_qr_scan"}, "fusion_lat": 0.0, "name": "b03f3e4f19fa43fa801367118a8c167d", "bike_id": "b03f3e4f19fa43fa801367118a8c167d", "is_disabled": 0, "type": "electric_scooter", "lat": 38.899076666666666, "lon": -77.04043783333333, "is_reserved": 0, "fusion_lon": 0.0}, {"rental_uris": {"ios": "https://dc.lft.to/lastmile_qr_scan", "android": "https://dc.lft.to/lastmile_qr_scan"}, "fusion_lat": 0.0, "name": "d5c1e7ac4acafa4cba61f1f59fcc345b", "bike_id": "d5c1e7ac4acafa4cba61f1f59fcc345b", "is_disabled": 0, "type": "electric_bike", "lat": 38.96203666666667, "lon": -77.03517083333334, "is_reserved": 0, "fusion_lon": 0.0}, {"rental_uris": {"ios": "https://dc.lft.to/lastmile_qr_scan", "android": "https://dc.lft.to/lastmile_qr_scan"}, "fusion_lat": 0.0, "name": "34107a80a53ab8a65e034ad676c36070", "bike_id": "34107a80a53ab8a65e034ad676c36070", "is_disabled": 0, "type": "electric_scooter", "lat": 38.917695, "lon": -77.04162866666667, "is_reserved": 0, "fusion_lon": 0.0}, {"rental_uris": {"ios": "https://dc.lft.to/lastmile_qr_scan", "android": "https://dc.lft.to/lastmile_qr_scan"}, "fusion_lat": 0.0, "name": "6008bb7e9e2b52f339b17f8ec4fd97d2", "bike_id": "6008bb7e9e2b52f339b17f8ec4fd97d2", "is_disabled": 0, "type": "electric_scooter", "lat": 38.9003045, "lon": -77.0019495, "is_reserved": 0, "fusion_lon": 0.0}, {"rental_uris": {"ios": "https://dc.lft.to/lastmile_qr_scan", "android": "https://dc.lft.to/lastmile_qr_scan"}, "fusion_lat": 0.0, "name": "e3edba5cf7ae7b439797a1938365bf58", "bike_id": "e3edba5cf7ae7b439797a1938365bf58", "is_disabled": 0, "type": "electric_scooter", "lat": 38.916852166666665, "lon": -77.03217116666667, "is_reserved": 0, "fusion_lon": 0.0}, {"rental_uris": {"ios": "https://dc.lft.to/lastmile_qr_scan", "android": "https://dc.lft.to/lastmile_qr_scan"}, "fusion_lat": 0.0, "name": "aab92bd9581419457226c812f79e74aa", "bike_id": "aab92bd9581419457226c812f79e74aa", "is_disabled": 0, "type": "electric_bike", "lat": 38.81345483333333, "lon": -77.04924883333334, "is_reserved": 0, "fusion_lon": 0.0}, {"rental_uris": {"ios": "https://dc.lft.to/lastmile_qr_scan", "android": "https://dc.lft.to/lastmile_qr_scan"}, "fusion_lat": 0.0, "name": "3b32d8d1c9dfb4598becbe08b0237635", "bike_id": "3b32d8d1c9dfb4598becbe08b0237635", "is_disabled": 0, "type": "electric_scooter", "lat": 38.90427833333333, "lon": -77.0021365, "is_reserved": 0, "fusion_lon": 0.0}, {"rental_uris": {"ios": "https://dc.lft.to/lastmile_qr_scan", "android": "https://dc.lft.to/lastmile_qr_scan"}, "fusion_lat": 0.0, "name": "a980e8df3bc6a0d5ed04f462274e7892", "bike_id": "a980e8df3bc6a0d5ed04f462274e7892", "is_disabled": 0, "type": "electric_scooter", "lat": 38.91683733333333, "lon": -77.0281175, "is_reserved": 0, "fusion_lon": 0.0}, {"rental_uris": {"ios": "https://dc.lft.to/lastmile_qr_scan", "android": "https://dc.lft.to/lastmile_qr_scan"}, "fusion_lat": 0.0, "name": "f19e627f4b459f94e5620e3d1ae751c8", "bike_id": "f19e627f4b459f94e5620e3d1ae751c8", "is_disabled": 0, "type": "electric_scooter", "lat": 38.9516465, "lon": -77.02751566666667, "is_reserved": 0, "fusion_lon": 0.0}, {"rental_uris": {"ios": "https://dc.lft.to/lastmile_qr_scan", "android": "https://dc.lft.to/lastmile_qr_scan"}, "fusion_lat": 0.0, "name": "cab3fa2ea8571f92b8b50432c6c58e1e", "bike_id": "cab3fa2ea8571f92b8b50432c6c58e1e", "is_disabled": 0, "type": "electric_scooter", "lat": 38.90829933333333, "lon": -77.03558266666667, "is_reserved": 0, "fusion_lon": 0.0}, {"rental_uris": {"ios": "https://dc.lft.to/lastmile_qr_scan", "android": "https://dc.lft.to/lastmile_qr_scan"}, "fusion_lat": 0.0, "name": "785f5bc69b9c82ed32b439fa115ea9db", "bike_id": "785f5bc69b9c82ed32b439fa115ea9db", "is_disabled": 0, "type": "electric_scooter", "lat": 38.8956605, "lon": -77.00350416666667, "is_reserved": 0, "fusion_lon": 0.0}, {"rental_uris": {"ios": "https://dc.lft.to/lastmile_qr_scan", "android": "https://dc.lft.to/lastmile_qr_scan"}, "fusion_lat": 0.0, "name": "e8eea46e08c55ed16e20a05b17729ef5", "bike_id": "e8eea46e08c55ed16e20a05b17729ef5", "is_disabled": 0, "type": "electric_scooter", "lat": 38.917402333333335, "lon": -77.02390733333333, "is_reserved": 0, "fusion_lon": 0.0}, {"rental_uris": {"ios": "https://dc.lft.to/lastmile_qr_scan", "android": "https://dc.lft.to/lastmile_qr_scan"}, "fusion_lat": 0.0, "name": "00c2b4ae5d5300635e0842d56f17f876", "bike_id": "00c2b4ae5d5300635e0842d56f17f876", "is_disabled": 0, "type": "electric_scooter", "lat": 38.901624166666664, "lon": -77.02591533333333, "is_reserved": 0, "fusion_lon": 0.0}, {"rental_uris": {"ios": "https://dc.lft.to/lastmile_qr_scan", "android": "https://dc.lft.to/lastmile_qr_scan"}, "fusion_lat": 0.0, "name": "afe40d8c2dc3b72875ed8786ce7dd2b7", "bike_id": "afe40d8c2dc3b72875ed8786ce7dd2b7", "is_disabled": 0, "type": "electric_scooter", "lat": 38.914361166666666, "lon": -77.02185816666666, "is_reserved": 0, "fusion_lon": 0.0}, {"rental_uris": {"ios": "https://dc.lft.to/lastmile_qr_scan", "android": "https://dc.lft.to/lastmile_qr_scan"}, "fusion_lat": 0.0, "name": "a62f59e2a38ee96c3331bfd4524cdb97", "bike_id": "a62f59e2a38ee96c3331bfd4524cdb97", "is_disabled": 0, "type": "electric_scooter", "lat": 38.92042583333333, "lon": -77.02989466666666, "is_reserved": 0, "fusion_lon": 0.0}, {"rental_uris": {"ios": "https://dc.lft.to/lastmile_qr_scan", "android": "https://dc.lft.to/lastmile_qr_scan"}, "fusion_lat": 0.0, "name": "9c950ee2b8809759fb943813fd8ce9f1", "bike_id": "9c950ee2b8809759fb943813fd8ce9f1", "is_disabled": 0, "type": "electric_scooter", "lat": 38.90680833333333, "lon": -77.03813266666667, "is_reserved": 0, "fusion_lon": 0.0}, {"rental_uris": {"ios": "https://dc.lft.to/lastmile_qr_scan", "android": "https://dc.lft.to/lastmile_qr_scan"}, "fusion_lat": 0.0, "name": "9d41331fa14df5afabf141637c5287d0", "bike_id": "9d41331fa14df5afabf141637c5287d0", "is_disabled": 0, "type": "electric_bike", "lat": 38.827861, "lon": -77.00917866666667, "is_reserved": 0, "fusion_lon": 0.0}, {"rental_uris": {"ios": "https://dc.lft.to/lastmile_qr_scan", "android": "https://dc.lft.to/lastmile_qr_scan"}, "fusion_lat": 0.0, "name": "d7d93642fd8f3330dbb610eb6ccc8745", "bike_id": "d7d93642fd8f3330dbb610eb6ccc8745", "is_disabled": 0, "type": "electric_scooter", "lat": 38.923634, "lon": -77.051295, "is_reserved": 0, "fusion_lon": 0.0}, {"rental_uris": {"ios": "https://dc.lft.to/lastmile_qr_scan", "android": "https://dc.lft.to/lastmile_qr_scan"}, "fusion_lat": 0.0, "name": "47da84a3de2d5530e0aafebf1436f141", "bike_id": "47da84a3de2d5530e0aafebf1436f141", "is_disabled": 0, "type": "electric_scooter", "lat": 38.956142666666665, "lon": -77.0276575, "is_reserved": 0, "fusion_lon": 0.0}, {"rental_uris": {"ios": "https://dc.lft.to/lastmile_qr_scan", "android": "https://dc.lft.to/lastmile_qr_scan"}, "fusion_lat": 0.0, "name": "f88efce1039e237b38bd39a5f1d7c5a9", "bike_id": "f88efce1039e237b38bd39a5f1d7c5a9", "is_disabled": 0, "type": "electric_scooter", "lat": 38.895141833333334, "lon": -76.9921105, "is_reserved": 0, "fusion_lon": 0.0}, {"rental_uris": {"ios": "https://dc.lft.to/lastmile_qr_scan", "android": "https://dc.lft.to/lastmile_qr_scan"}, "fusion_lat": 0.0, "name": "238c444bbfc6d9facebe5160ecd6381f", "bike_id": "238c444bbfc6d9facebe5160ecd6381f", "is_disabled": 0, "type": "electric_scooter", "lat": 38.893477, "lon": -77.01110683333333, "is_reserved": 0, "fusion_lon": 0.0}, {"rental_uris": {"ios": "https://dc.lft.to/lastmile_qr_scan", "android": "https://dc.lft.to/lastmile_qr_scan"}, "fusion_lat": 0.0, "name": "0816199fed932cdf5fed3cdbb6702ade", "bike_id": "0816199fed932cdf5fed3cdbb6702ade", "is_disabled": 0, "type": "electric_scooter", "lat": 38.90258033333333, "lon": -77.01743816666666, "is_reserved": 0, "fusion_lon": 0.0}, {"rental_uris": {"ios": "https://dc.lft.to/lastmile_qr_scan", "android": "https://dc.lft.to/lastmile_qr_scan"}, "fusion_lat": 0.0, "name": "443ea0c7d94109974bba5356d1e30017", "bike_id": "443ea0c7d94109974bba5356d1e30017", "is_disabled": 0, "type": "electric_scooter", "lat": 38.86888033333334, "lon": -76.98316266666667, "is_reserved": 0, "fusion_lon": 0.0}, {"rental_uris": {"ios": "https://dc.lft.to/lastmile_qr_scan", "android": "https://dc.lft.to/lastmile_qr_scan"}, "fusion_lat": 0.0, "name": "13be97a57a9d13a550946eb1fd9b95e8", "bike_id": "13be97a57a9d13a550946eb1fd9b95e8", "is_disabled": 0, "type": "electric_scooter", "lat": 38.898518333333335, "lon": -76.99033166666666, "is_reserved": 0, "fusion_lon": 0.0}, {"rental_uris": {"ios": "https://dc.lft.to/lastmile_qr_scan", "android": "https://dc.lft.to/lastmile_qr_scan"}, "fusion_lat": 0.0, "name": "5ff0d2914982d4b7add9bc7b371496fe", "bike_id": "5ff0d2914982d4b7add9bc7b371496fe", "is_disabled": 0, "type": "electric_scooter", "lat": 38.88733166666667, "lon": -77.02826633333333, "is_reserved": 0, "fusion_lon": 0.0}, {"rental_uris": {"ios": "https://dc.lft.to/lastmile_qr_scan", "android": "https://dc.lft.to/lastmile_qr_scan"}, "fusion_lat": 0.0, "name": "d62724108e4c86d6539890a8e83b7c3c", "bike_id": "d62724108e4c86d6539890a8e83b7c3c", "is_disabled": 0, "type": "electric_scooter", "lat": 38.924728, "lon": -77.03156333333334, "is_reserved": 0, "fusion_lon": 0.0}, {"rental_uris": {"ios": "https://dc.lft.to/lastmile_qr_scan", "android": "https://dc.lft.to/lastmile_qr_scan"}, "fusion_lat": 0.0, "name": "7af1f29588dd96408c0797123fdd0c81", "bike_id": "7af1f29588dd96408c0797123fdd0c81", "is_disabled": 0, "type": "electric_scooter", "lat": 38.89883483333333, "lon": -76.93178283333333, "is_reserved": 0, "fusion_lon": 0.0}, {"rental_uris": {"ios": "https://dc.lft.to/lastmile_qr_scan", "android": "https://dc.lft.to/lastmile_qr_scan"}, "fusion_lat": 0.0, "name": "9dac4982882f89470e4ad0f9e8e1fc7f", "bike_id": "9dac4982882f89470e4ad0f9e8e1fc7f", "is_disabled": 0, "type": "electric_scooter", "lat": 38.844308166666664, "lon": -76.99779166666667, "is_reserved": 0, "fusion_lon": 0.0}, {"rental_uris": {"ios": "https://dc.lft.to/lastmile_qr_scan", "android": "https://dc.lft.to/lastmile_qr_scan"}, "fusion_lat": 0.0, "name": "3fc98501f7a06c9edbf6cb1584934a59", "bike_id": "3fc98501f7a06c9edbf6cb1584934a59", "is_disabled": 0, "type": "electric_scooter", "lat": 38.903961833333334, "lon": -76.98105166666667, "is_reserved": 0, "fusion_lon": 0.0}, {"rental_uris": {"ios": "https://dc.lft.to/lastmile_qr_scan", "android": "https://dc.lft.to/lastmile_qr_scan"}, "fusion_lat": 0.0, "name": "5a0fe0f91f366078ce6a35a78f615bff", "bike_id": "5a0fe0f91f366078ce6a35a78f615bff", "is_disabled": 0, "type": "electric_scooter", "lat": 38.9067885, "lon": -77.02696633333333, "is_reserved": 0, "fusion_lon": 0.0}, {"rental_uris": {"ios": "https://dc.lft.to/lastmile_qr_scan", "android": "https://dc.lft.to/lastmile_qr_scan"}, "fusion_lat": 0.0, "name": "752a2543414ffc329c4f9473d5516e08", "bike_id": "752a2543414ffc329c4f9473d5516e08", "is_disabled": 0, "type": "electric_scooter", "lat": 38.91812316666667, "lon": -77.03216683333333, "is_reserved": 0, "fusion_lon": 0.0}, {"rental_uris": {"ios": "https://dc.lft.to/lastmile_qr_scan", "android": "https://dc.lft.to/lastmile_qr_scan"}, "fusion_lat": 0.0, "name": "5e0fa772654706076bc83f9c00a28e62", "bike_id": "5e0fa772654706076bc83f9c00a28e62", "is_disabled": 0, "type": "electric_bike", "lat": 38.874771833333334, "lon": -76.96537766666667, "is_reserved": 0, "fusion_lon": 0.0}, {"rental_uris": {"ios": "https://dc.lft.to/lastmile_qr_scan", "android": "https://dc.lft.to/lastmile_qr_scan"}, "fusion_lat": 0.0, "name": "efbe082ac7543db6d52833f6ef0ef04d", "bike_id": "efbe082ac7543db6d52833f6ef0ef04d", "is_disabled": 0, "type": "electric_scooter", "lat": 38.922511, "lon": -77.0193455, "is_reserved": 0, "fusion_lon": 0.0}, {"rental_uris": {"ios": "https://dc.lft.to/lastmile_qr_scan", "android": "https://dc.lft.to/lastmile_qr_scan"}, "fusion_lat": 0.0, "name": "11323414dbc96306e2771cf117227361", "bike_id": "11323414dbc96306e2771cf117227361", "is_disabled": 0, "type": "electric_scooter", "lat": 38.91917866666667, "lon": -77.032015, "is_reserved": 0, "fusion_lon": 0.0}, {"rental_uris": {"ios": "https://dc.lft.to/lastmile_qr_scan", "android": "https://dc.lft.to/lastmile_qr_scan"}, "fusion_lat": 0.0, "name": "ff67b278c7dca0b9ff1067b91d00da21", "bike_id": "ff67b278c7dca0b9ff1067b91d00da21", "is_disabled": 0, "type": "electric_bike", "lat": 38.8725005, "lon": -77.0121005, "is_reserved": 0, "fusion_lon": 0.0}, {"rental_uris": {"ios": "https://dc.lft.to/lastmile_qr_scan", "android": "https://dc.lft.to/lastmile_qr_scan"}, "fusion_lat": 0.0, "name": "f3390850480faf60cebbd4140c58d1b9", "bike_id": "f3390850480faf60cebbd4140c58d1b9", "is_disabled": 0, "type": "electric_bike", "lat": 38.928538333333336, "lon": -77.22237416666667, "is_reserved": 0, "fusion_lon": 0.0}, {"rental_uris": {"ios": "https://dc.lft.to/lastmile_qr_scan", "android": "https://dc.lft.to/lastmile_qr_scan"}, "fusion_lat": 0.0, "name": "c6f61eb9210be2b2b0551849e5e8a41a", "bike_id": "c6f61eb9210be2b2b0551849e5e8a41a", "is_disabled": 0, "type": "electric_bike", "lat": 39.0885875, "lon": -77.1784235, "is_reserved": 0, "fusion_lon": 0.0}, {"rental_uris": {"ios": "https://dc.lft.to/lastmile_qr_scan", "android": "https://dc.lft.to/lastmile_qr_scan"}, "fusion_lat": 0.0, "name": "acc6c4f4d85e89b7403b56820cb20f3a", "bike_id": "acc6c4f4d85e89b7403b56820cb20f3a", "is_disabled": 0, "type": "electric_scooter", "lat": 38.899792833333336, "lon": -76.93992566666667, "is_reserved": 0, "fusion_lon": 0.0}, {"rental_uris": {"ios": "https://dc.lft.to/lastmile_qr_scan", "android": "https://dc.lft.to/lastmile_qr_scan"}, "fusion_lat": 0.0, "name": "9dae9ae3c15318664dbde83c3c34f5bd", "bike_id": "9dae9ae3c15318664dbde83c3c34f5bd", "is_disabled": 0, "type": "electric_scooter", "lat": 38.91554566666667, "lon": -77.02417666666666, "is_reserved": 0, "fusion_lon": 0.0}, {"rental_uris": {"ios": "https://dc.lft.to/lastmile_qr_scan", "android": "https://dc.lft.to/lastmile_qr_scan"}, "fusion_lat": 0.0, "name": "7a6bde9af909e486ee41bd9784f2da93", "bike_id": "7a6bde9af909e486ee41bd9784f2da93", "is_disabled": 0, "type": "electric_scooter", "lat": 38.916617333333335, "lon": -77.02184783333334, "is_reserved": 0, "fusion_lon": 0.0}, {"rental_uris": {"ios": "https://dc.lft.to/lastmile_qr_scan", "android": "https://dc.lft.to/lastmile_qr_scan"}, "fusion_lat": 0.0, "name": "c748e6f0b73458628a7b32a88f7bee72", "bike_id": "c748e6f0b73458628a7b32a88f7bee72", "is_disabled": 0, "type": "electric_scooter", "lat": 38.906204833333334, "lon": -77.03632733333333, "is_reserved": 0, "fusion_lon": 0.0}, {"rental_uris": {"ios": "https://dc.lft.to/lastmile_qr_scan", "android": "https://dc.lft.to/lastmile_qr_scan"}, "fusion_lat": 0.0, "name": "d441a8abec87bba22ddb31a306ac4725", "bike_id": "d441a8abec87bba22ddb31a306ac4725", "is_disabled": 0, "type": "electric_scooter", "lat": 38.90627083333333, "lon": -77.023812, "is_reserved": 0, "fusion_lon": 0.0}, {"rental_uris": {"ios": "https://dc.lft.to/lastmile_qr_scan", "android": "https://dc.lft.to/lastmile_qr_scan"}, "fusion_lat": 0.0, "name": "44f7895bfe069366d8ed57b0bb47fc53", "bike_id": "44f7895bfe069366d8ed57b0bb47fc53", "is_disabled": 0, "type": "electric_scooter", "lat": 38.91065733333333, "lon": -77.02637116666666, "is_reserved": 0, "fusion_lon": 0.0}, {"rental_uris": {"ios": "https://dc.lft.to/lastmile_qr_scan", "android": "https://dc.lft.to/lastmile_qr_scan"}, "fusion_lat": 0.0, "name": "a2b6d5685a736cb7dea72e427fdd22c7", "bike_id": "a2b6d5685a736cb7dea72e427fdd22c7", "is_disabled": 0, "type": "electric_scooter", "lat": 38.9185685, "lon": -77.040415, "is_reserved": 0, "fusion_lon": 0.0}, {"rental_uris": {"ios": "https://dc.lft.to/lastmile_qr_scan", "android": "https://dc.lft.to/lastmile_qr_scan"}, "fusion_lat": 0.0, "name": "c87aa2feea3c596d5808cd3956c999f1", "bike_id": "c87aa2feea3c596d5808cd3956c999f1", "is_disabled": 0, "type": "electric_scooter", "lat": 38.9396985, "lon": -77.032555, "is_reserved": 0, "fusion_lon": 0.0}, {"rental_uris": {"ios": "https://dc.lft.to/lastmile_qr_scan", "android": "https://dc.lft.to/lastmile_qr_scan"}, "fusion_lat": 0.0, "name": "98fbb31f96f159e2a01dda1d4b8ab5f4", "bike_id": "98fbb31f96f159e2a01dda1d4b8ab5f4", "is_disabled": 0, "type": "electric_scooter", "lat": 38.915540166666666, "lon": -77.02212183333333, "is_reserved": 0, "fusion_lon": 0.0}, {"rental_uris": {"ios": "https://dc.lft.to/lastmile_qr_scan", "android": "https://dc.lft.to/lastmile_qr_scan"}, "fusion_lat": 0.0, "name": "85730166e0cf22b67e243477d8b8618b", "bike_id": "85730166e0cf22b67e243477d8b8618b", "is_disabled": 0, "type": "electric_scooter", "lat": 38.93096716666667, "lon": -77.02794266666666, "is_reserved": 0, "fusion_lon": 0.0}, {"rental_uris": {"ios": "https://dc.lft.to/lastmile_qr_scan", "android": "https://dc.lft.to/lastmile_qr_scan"}, "fusion_lat": 0.0, "name": "a54b283d8d8b5df5eba1540c7bfa91ff", "bike_id": "a54b283d8d8b5df5eba1540c7bfa91ff", "is_disabled": 0, "type": "electric_scooter", "lat": 38.909584, "lon": -77.0347675, "is_reserved": 0, "fusion_lon": 0.0}, {"rental_uris": {"ios": "https://dc.lft.to/lastmile_qr_scan", "android": "https://dc.lft.to/lastmile_qr_scan"}, "fusion_lat": 0.0, "name": "054bdf4316e1d22797d2cd9dd8de14a3", "bike_id": "054bdf4316e1d22797d2cd9dd8de14a3", "is_disabled": 0, "type": "electric_scooter", "lat": 38.877127, "lon": -77.01764283333333, "is_reserved": 0, "fusion_lon": 0.0}, {"rental_uris": {"ios": "https://dc.lft.to/lastmile_qr_scan", "android": "https://dc.lft.to/lastmile_qr_scan"}, "fusion_lat": 0.0, "name": "517e9a938413c1e331d1cb46d000facc", "bike_id": "517e9a938413c1e331d1cb46d000facc", "is_disabled": 0, "type": "electric_scooter", "lat": 38.8610935, "lon": -76.98378066666666, "is_reserved": 0, "fusion_lon": 0.0}, {"rental_uris": {"ios": "https://dc.lft.to/lastmile_qr_scan", "android": "https://dc.lft.to/lastmile_qr_scan"}, "fusion_lat": 0.0, "name": "b49a34f95dd8d5feda5f83f9ad139474", "bike_id": "b49a34f95dd8d5feda5f83f9ad139474", "is_disabled": 0, "type": "electric_scooter", "lat": 38.929096333333334, "lon": -77.01945583333334, "is_reserved": 0, "fusion_lon": 0.0}, {"rental_uris": {"ios": "https://dc.lft.to/lastmile_qr_scan", "android": "https://dc.lft.to/lastmile_qr_scan"}, "fusion_lat": 0.0, "name": "67523dd061271a84d2d8c1819677a7ee", "bike_id": "67523dd061271a84d2d8c1819677a7ee", "is_disabled": 0, "type": "electric_scooter", "lat": 38.90233083333333, "lon": -77.02823333333333, "is_reserved": 0, "fusion_lon": 0.0}, {"rental_uris": {"ios": "https://dc.lft.to/lastmile_qr_scan", "android": "https://dc.lft.to/lastmile_qr_scan"}, "fusion_lat": 0.0, "name": "215edd8c8290671d653f95b7cb8c45b5", "bike_id": "215edd8c8290671d653f95b7cb8c45b5", "is_disabled": 0, "type": "electric_scooter", "lat": 38.8259365, "lon": -77.00321283333334, "is_reserved": 0, "fusion_lon": 0.0}, {"rental_uris": {"ios": "https://dc.lft.to/lastmile_qr_scan", "android": "https://dc.lft.to/lastmile_qr_scan"}, "fusion_lat": 0.0, "name": "7c0bbb1dcddcb5aa09132c37ac09a04b", "bike_id": "7c0bbb1dcddcb5aa09132c37ac09a04b", "is_disabled": 0, "type": "electric_scooter", "lat": 38.917043, "lon": -77.03675166666666, "is_reserved": 0, "fusion_lon": 0.0}, {"rental_uris": {"ios": "https://dc.lft.to/lastmile_qr_scan", "android": "https://dc.lft.to/lastmile_qr_scan"}, "fusion_lat": 0.0, "name": "1257c239b1f323ebcf2b4dd5649e87ce", "bike_id": "1257c239b1f323ebcf2b4dd5649e87ce", "is_disabled": 0, "type": "electric_scooter", "lat": 38.939706666666666, "lon": -77.0326035, "is_reserved": 0, "fusion_lon": 0.0}, {"rental_uris": {"ios": "https://dc.lft.to/lastmile_qr_scan", "android": "https://dc.lft.to/lastmile_qr_scan"}, "fusion_lat": 0.0, "name": "145dec30c33f5c21d62753e0680077ce", "bike_id": "145dec30c33f5c21d62753e0680077ce", "is_disabled": 0, "type": "electric_scooter", "lat": 38.9315185, "lon": -77.01870783333334, "is_reserved": 0, "fusion_lon": 0.0}, {"rental_uris": {"ios": "https://dc.lft.to/lastmile_qr_scan", "android": "https://dc.lft.to/lastmile_qr_scan"}, "fusion_lat": 0.0, "name": "e25c043f1c86ecdbe66ab7dd1cf95bcf", "bike_id": "e25c043f1c86ecdbe66ab7dd1cf95bcf", "is_disabled": 0, "type": "electric_scooter", "lat": 38.91838766666667, "lon": -77.02197266666667, "is_reserved": 0, "fusion_lon": 0.0}, {"rental_uris": {"ios": "https://dc.lft.to/lastmile_qr_scan", "android": "https://dc.lft.to/lastmile_qr_scan"}, "fusion_lat": 0.0, "name": "7b4251cf1ce0e58485c530c2afc85465", "bike_id": "7b4251cf1ce0e58485c530c2afc85465", "is_disabled": 0, "type": "electric_scooter", "lat": 38.908387833333336, "lon": -76.99697966666666, "is_reserved": 0, "fusion_lon": 0.0}, {"rental_uris": {"ios": "https://dc.lft.to/lastmile_qr_scan", "android": "https://dc.lft.to/lastmile_qr_scan"}, "fusion_lat": 0.0, "name": "65bf009f864fb2cf4f2f0fbc884c36ee", "bike_id": "65bf009f864fb2cf4f2f0fbc884c36ee", "is_disabled": 0, "type": "electric_bike", "lat": 38.9722595, "lon": -76.99346716666666, "is_reserved": 0, "fusion_lon": 0.0}, {"rental_uris": {"ios": "https://dc.lft.to/lastmile_qr_scan", "android": "https://dc.lft.to/lastmile_qr_scan"}, "fusion_lat": 0.0, "name": "58bf02dd8b47a15df44ad8bbea45b98b", "bike_id": "58bf02dd8b47a15df44ad8bbea45b98b", "is_disabled": 0, "type": "electric_scooter", "lat": 38.883654666666665, "lon": -76.9950955, "is_reserved": 0, "fusion_lon": 0.0}, {"rental_uris": {"ios": "https://dc.lft.to/lastmile_qr_scan", "android": "https://dc.lft.to/lastmile_qr_scan"}, "fusion_lat": 0.0, "name": "f19b55e9256881f8a7aa3fe0220ad3b0", "bike_id": "f19b55e9256881f8a7aa3fe0220ad3b0", "is_disabled": 0, "type": "electric_scooter", "lat": 38.89221116666667, "lon": -77.0436505, "is_reserved": 0, "fusion_lon": 0.0}, {"rental_uris": {"ios": "https://dc.lft.to/lastmile_qr_scan", "android": "https://dc.lft.to/lastmile_qr_scan"}, "fusion_lat": 0.0, "name": "69f61a2faa484cf9dc6e432f5e015bba", "bike_id": "69f61a2faa484cf9dc6e432f5e015bba", "is_disabled": 0, "type": "electric_scooter", "lat": 38.881359333333336, "lon": -76.93304916666666, "is_reserved": 0, "fusion_lon": 0.0}, {"rental_uris": {"ios": "https://dc.lft.to/lastmile_qr_scan", "android": "https://dc.lft.to/lastmile_qr_scan"}, "fusion_lat": 0.0, "name": "f5630cf3f9cdc62cc2254e5d762c76ee", "bike_id": "f5630cf3f9cdc62cc2254e5d762c76ee", "is_disabled": 0, "type": "electric_scooter", "lat": 38.9041265, "lon": -77.05071333333333, "is_reserved": 0, "fusion_lon": 0.0}, {"rental_uris": {"ios": "https://dc.lft.to/lastmile_qr_scan", "android": "https://dc.lft.to/lastmile_qr_scan"}, "fusion_lat": 0.0, "name": "2f13ec726b95e35e7866b61ed49c9fa7", "bike_id": "2f13ec726b95e35e7866b61ed49c9fa7", "is_disabled": 0, "type": "electric_scooter", "lat": 38.91852733333333, "lon": -77.032177, "is_reserved": 0, "fusion_lon": 0.0}, {"rental_uris": {"ios": "https://dc.lft.to/lastmile_qr_scan", "android": "https://dc.lft.to/lastmile_qr_scan"}, "fusion_lat": 0.0, "name": "44d0a61b68ff70ed24bb72481e73db89", "bike_id": "44d0a61b68ff70ed24bb72481e73db89", "is_disabled": 0, "type": "electric_scooter", "lat": 38.92054616666667, "lon": -77.028839, "is_reserved": 0, "fusion_lon": 0.0}, {"rental_uris": {"ios": "https://dc.lft.to/lastmile_qr_scan", "android": "https://dc.lft.to/lastmile_qr_scan"}, "fusion_lat": 0.0, "name": "82eabe2f3cd0efbbb796b7a530fff7e6", "bike_id": "82eabe2f3cd0efbbb796b7a530fff7e6", "is_disabled": 0, "type": "electric_scooter", "lat": 38.91552266666667, "lon": -77.022169, "is_reserved": 0, "fusion_lon": 0.0}, {"rental_uris": {"ios": "https://dc.lft.to/lastmile_qr_scan", "android": "https://dc.lft.to/lastmile_qr_scan"}, "fusion_lat": 0.0, "name": "5e4895f3f93b4f96a2dac0a34518c7f3", "bike_id": "5e4895f3f93b4f96a2dac0a34518c7f3", "is_disabled": 0, "type": "electric_scooter", "lat": 38.916916, "lon": -76.97954966666667, "is_reserved": 0, "fusion_lon": 0.0}, {"rental_uris": {"ios": "https://dc.lft.to/lastmile_qr_scan", "android": "https://dc.lft.to/lastmile_qr_scan"}, "fusion_lat": 0.0, "name": "da1ed451752f4c9b8347226b59e19d9c", "bike_id": "da1ed451752f4c9b8347226b59e19d9c", "is_disabled": 0, "type": "electric_scooter", "lat": 38.90965533333333, "lon": -77.03218166666667, "is_reserved": 0, "fusion_lon": 0.0}, {"rental_uris": {"ios": "https://dc.lft.to/lastmile_qr_scan", "android": "https://dc.lft.to/lastmile_qr_scan"}, "fusion_lat": 0.0, "name": "0c7ee5fc2e7af94420ff2c7ad29ec3c6", "bike_id": "0c7ee5fc2e7af94420ff2c7ad29ec3c6", "is_disabled": 0, "type": "electric_scooter", "lat": 38.907323166666664, "lon": -77.03450666666667, "is_reserved": 0, "fusion_lon": 0.0}, {"rental_uris": {"ios": "https://dc.lft.to/lastmile_qr_scan", "android": "https://dc.lft.to/lastmile_qr_scan"}, "fusion_lat": 0.0, "name": "4bc2d3f518aeaf76b38a01a220201ca4", "bike_id": "4bc2d3f518aeaf76b38a01a220201ca4", "is_disabled": 0, "type": "electric_bike", "lat": 38.8707515, "lon": -77.110586, "is_reserved": 0, "fusion_lon": 0.0}, {"rental_uris": {"ios": "https://dc.lft.to/lastmile_qr_scan", "android": "https://dc.lft.to/lastmile_qr_scan"}, "fusion_lat": 0.0, "name": "67b4ea9132be80e2ee419f12de534bd6", "bike_id": "67b4ea9132be80e2ee419f12de534bd6", "is_disabled": 0, "type": "electric_scooter", "lat": 38.90692033333333, "lon": -77.03772233333333, "is_reserved": 0, "fusion_lon": 0.0}, {"rental_uris": {"ios": "https://dc.lft.to/lastmile_qr_scan", "android": "https://dc.lft.to/lastmile_qr_scan"}, "fusion_lat": 0.0, "name": "4802aeda69f209732c1d2dab06aef9a6", "bike_id": "4802aeda69f209732c1d2dab06aef9a6", "is_disabled": 0, "type": "electric_scooter", "lat": 38.90109233333333, "lon": -77.02617583333334, "is_reserved": 0, "fusion_lon": 0.0}, {"rental_uris": {"ios": "https://dc.lft.to/lastmile_qr_scan", "android": "https://dc.lft.to/lastmile_qr_scan"}, "fusion_lat": 0.0, "name": "28afcb2c1215337b61ecf6d26a73c78b", "bike_id": "28afcb2c1215337b61ecf6d26a73c78b", "is_disabled": 0, "type": "electric_scooter", "lat": 38.94813216666667, "lon": -76.99909316666667, "is_reserved": 0, "fusion_lon": 0.0}, {"rental_uris": {"ios": "https://dc.lft.to/lastmile_qr_scan", "android": "https://dc.lft.to/lastmile_qr_scan"}, "fusion_lat": 0.0, "name": "1f74cf80e8e113e59d97ec5c87007763", "bike_id": "1f74cf80e8e113e59d97ec5c87007763", "is_disabled": 0, "type": "electric_scooter", "lat": 38.89224333333333, "lon": -77.04898433333334, "is_reserved": 0, "fusion_lon": 0.0}, {"rental_uris": {"ios": "https://dc.lft.to/lastmile_qr_scan", "android": "https://dc.lft.to/lastmile_qr_scan"}, "fusion_lat": 0.0, "name": "ed45d3a5624c05fc30c2633534921794", "bike_id": "ed45d3a5624c05fc30c2633534921794", "is_disabled": 0, "type": "electric_scooter", "lat": 38.9106515, "lon": -77.00919883333333, "is_reserved": 0, "fusion_lon": 0.0}, {"rental_uris": {"ios": "https://dc.lft.to/lastmile_qr_scan", "android": "https://dc.lft.to/lastmile_qr_scan"}, "fusion_lat": 0.0, "name": "de5a12ab47ecce4220cfdf87fcea8432", "bike_id": "de5a12ab47ecce4220cfdf87fcea8432", "is_disabled": 0, "type": "electric_scooter", "lat": 38.919186333333336, "lon": -77.034168, "is_reserved": 0, "fusion_lon": 0.0}, {"rental_uris": {"ios": "https://dc.lft.to/lastmile_qr_scan", "android": "https://dc.lft.to/lastmile_qr_scan"}, "fusion_lat": 0.0, "name": "de9e235cde8a8717033c59b631837dab", "bike_id": "de9e235cde8a8717033c59b631837dab", "is_disabled": 0, "type": "electric_bike", "lat": 38.958899833333334, "lon": -76.92485066666667, "is_reserved": 0, "fusion_lon": 0.0}, {"rental_uris": {"ios": "https://dc.lft.to/lastmile_qr_scan", "android": "https://dc.lft.to/lastmile_qr_scan"}, "fusion_lat": 0.0, "name": "a135aa25a56b72837a41cd377adcb2f4", "bike_id": "a135aa25a56b72837a41cd377adcb2f4", "is_disabled": 0, "type": "electric_bike", "lat": 38.90029166666667, "lon": -76.9718635, "is_reserved": 0, "fusion_lon": 0.0}, {"rental_uris": {"ios": "https://dc.lft.to/lastmile_qr_scan", "android": "https://dc.lft.to/lastmile_qr_scan"}, "fusion_lat": 0.0, "name": "c371f345b33d8980753524cba9395471", "bike_id": "c371f345b33d8980753524cba9395471", "is_disabled": 0, "type": "electric_bike", "lat": 38.853563, "lon": -77.13468266666666, "is_reserved": 0, "fusion_lon": 0.0}, {"rental_uris": {"ios": "https://dc.lft.to/lastmile_qr_scan", "android": "https://dc.lft.to/lastmile_qr_scan"}, "fusion_lat": 0.0, "name": "d9af86f8308a92bddf9a16ff6ff5709f", "bike_id": "d9af86f8308a92bddf9a16ff6ff5709f", "is_disabled": 0, "type": "electric_scooter", "lat": 38.918024, "lon": -77.025006, "is_reserved": 0, "fusion_lon": 0.0}, {"rental_uris": {"ios": "https://dc.lft.to/lastmile_qr_scan", "android": "https://dc.lft.to/lastmile_qr_scan"}, "fusion_lat": 0.0, "name": "9a1cd03f7d690910b8e61a82040d022c", "bike_id": "9a1cd03f7d690910b8e61a82040d022c", "is_disabled": 0, "type": "electric_bike", "lat": 38.957522833333336, "lon": -76.980229, "is_reserved": 0, "fusion_lon": 0.0}, {"rental_uris": {"ios": "https://dc.lft.to/lastmile_qr_scan", "android": "https://dc.lft.to/lastmile_qr_scan"}, "fusion_lat": 0.0, "name": "b709869a5194db3d35d9f36905f4faed", "bike_id": "b709869a5194db3d35d9f36905f4faed", "is_disabled": 0, "type": "electric_scooter", "lat": 38.907786, "lon": -77.04001833333334, "is_reserved": 0, "fusion_lon": 0.0}, {"rental_uris": {"ios": "https://dc.lft.to/lastmile_qr_scan", "android": "https://dc.lft.to/lastmile_qr_scan"}, "fusion_lat": 0.0, "name": "3cd62028abea17c3da108814b370dc47", "bike_id": "3cd62028abea17c3da108814b370dc47", "is_disabled": 0, "type": "electric_scooter", "lat": 38.928732333333336, "lon": -77.01356883333334, "is_reserved": 0, "fusion_lon": 0.0}, {"rental_uris": {"ios": "https://dc.lft.to/lastmile_qr_scan", "android": "https://dc.lft.to/lastmile_qr_scan"}, "fusion_lat": 0.0, "name": "40f4ab27a781013185fdb2783ef9b109", "bike_id": "40f4ab27a781013185fdb2783ef9b109", "is_disabled": 0, "type": "electric_scooter", "lat": 38.909576, "lon": -77.03479916666667, "is_reserved": 0, "fusion_lon": 0.0}, {"rental_uris": {"ios": "https://dc.lft.to/lastmile_qr_scan", "android": "https://dc.lft.to/lastmile_qr_scan"}, "fusion_lat": 0.0, "name": "4285188450c3e49d42c371ae0d38bbf0", "bike_id": "4285188450c3e49d42c371ae0d38bbf0", "is_disabled": 0, "type": "electric_scooter", "lat": 38.90155266666667, "lon": -77.03182666666666, "is_reserved": 0, "fusion_lon": 0.0}, {"rental_uris": {"ios": "https://dc.lft.to/lastmile_qr_scan", "android": "https://dc.lft.to/lastmile_qr_scan"}, "fusion_lat": 0.0, "name": "b0d533c89e018121f4a85e9cddc41ca0", "bike_id": "b0d533c89e018121f4a85e9cddc41ca0", "is_disabled": 0, "type": "electric_scooter", "lat": 38.89885316666667, "lon": -76.93176383333333, "is_reserved": 0, "fusion_lon": 0.0}, {"rental_uris": {"ios": "https://dc.lft.to/lastmile_qr_scan", "android": "https://dc.lft.to/lastmile_qr_scan"}, "fusion_lat": 0.0, "name": "e07bc37eae31e692e3985b06c8d3fc13", "bike_id": "e07bc37eae31e692e3985b06c8d3fc13", "is_disabled": 0, "type": "electric_scooter", "lat": 38.88755116666667, "lon": -77.03357716666666, "is_reserved": 0, "fusion_lon": 0.0}, {"rental_uris": {"ios": "https://dc.lft.to/lastmile_qr_scan", "android": "https://dc.lft.to/lastmile_qr_scan"}, "fusion_lat": 0.0, "name": "6e37f79933ba3d842374ba4f2333bc0d", "bike_id": "6e37f79933ba3d842374ba4f2333bc0d", "is_disabled": 0, "type": "electric_bike", "lat": 38.88575483333334, "lon": -77.085207, "is_reserved": 0, "fusion_lon": 0.0}, {"rental_uris": {"ios": "https://dc.lft.to/lastmile_qr_scan", "android": "https://dc.lft.to/lastmile_qr_scan"}, "fusion_lat": 0.0, "name": "6e7c9611e43421fa7194c3f6d828bc9c", "bike_id": "6e7c9611e43421fa7194c3f6d828bc9c", "is_disabled": 0, "type": "electric_scooter", "lat": 38.9312295, "lon": -77.03400716666667, "is_reserved": 0, "fusion_lon": 0.0}, {"rental_uris": {"ios": "https://dc.lft.to/lastmile_qr_scan", "android": "https://dc.lft.to/lastmile_qr_scan"}, "fusion_lat": 0.0, "name": "3f16050792b7a7ff5d18f306ffa40286", "bike_id": "3f16050792b7a7ff5d18f306ffa40286", "is_disabled": 0, "type": "electric_scooter", "lat": 38.91054, "lon": -77.01654666666667, "is_reserved": 0, "fusion_lon": 0.0}, {"rental_uris": {"ios": "https://dc.lft.to/lastmile_qr_scan", "android": "https://dc.lft.to/lastmile_qr_scan"}, "fusion_lat": 0.0, "name": "683566f6969f91d291976a5391f666b2", "bike_id": "683566f6969f91d291976a5391f666b2", "is_disabled": 0, "type": "electric_scooter", "lat": 38.9101605, "lon": -77.038617, "is_reserved": 0, "fusion_lon": 0.0}, {"rental_uris": {"ios": "https://dc.lft.to/lastmile_qr_scan", "android": "https://dc.lft.to/lastmile_qr_scan"}, "fusion_lat": 0.0, "name": "6f999fd462e97f1146d3171ef3a14540", "bike_id": "6f999fd462e97f1146d3171ef3a14540", "is_disabled": 0, "type": "electric_scooter", "lat": 38.916528, "lon": -77.02284116666667, "is_reserved": 0, "fusion_lon": 0.0}, {"rental_uris": {"ios": "https://dc.lft.to/lastmile_qr_scan", "android": "https://dc.lft.to/lastmile_qr_scan"}, "fusion_lat": 0.0, "name": "b13e794887669fdb384b6a1c3308d837", "bike_id": "b13e794887669fdb384b6a1c3308d837", "is_disabled": 0, "type": "electric_scooter", "lat": 38.90550533333333, "lon": -77.03241033333333, "is_reserved": 0, "fusion_lon": 0.0}, {"rental_uris": {"ios": "https://dc.lft.to/lastmile_qr_scan", "android": "https://dc.lft.to/lastmile_qr_scan"}, "fusion_lat": 0.0, "name": "c24f0f160b25aa8447068e5a68758560", "bike_id": "c24f0f160b25aa8447068e5a68758560", "is_disabled": 0, "type": "electric_scooter", "lat": 38.9111505, "lon": -77.00602283333333, "is_reserved": 0, "fusion_lon": 0.0}, {"rental_uris": {"ios": "https://dc.lft.to/lastmile_qr_scan", "android": "https://dc.lft.to/lastmile_qr_scan"}, "fusion_lat": 0.0, "name": "420d4f5cb823705eb6ae864d0e99cc05", "bike_id": "420d4f5cb823705eb6ae864d0e99cc05", "is_disabled": 0, "type": "electric_scooter", "lat": 38.9101575, "lon": -77.03849833333334, "is_reserved": 0, "fusion_lon": 0.0}, {"rental_uris": {"ios": "https://dc.lft.to/lastmile_qr_scan", "android": "https://dc.lft.to/lastmile_qr_scan"}, "fusion_lat": 0.0, "name": "7fb490d08a66f1f231afbfaeceb8073f", "bike_id": "7fb490d08a66f1f231afbfaeceb8073f", "is_disabled": 0, "type": "electric_scooter", "lat": 38.87626866666667, "lon": -76.965248, "is_reserved": 0, "fusion_lon": 0.0}, {"rental_uris": {"ios": "https://dc.lft.to/lastmile_qr_scan", "android": "https://dc.lft.to/lastmile_qr_scan"}, "fusion_lat": 0.0, "name": "3f8a36fb7eb169232b7876396c76e9e0", "bike_id": "3f8a36fb7eb169232b7876396c76e9e0", "is_disabled": 0, "type": "electric_scooter", "lat": 38.906411166666665, "lon": -77.00594866666667, "is_reserved": 0, "fusion_lon": 0.0}, {"rental_uris": {"ios": "https://dc.lft.to/lastmile_qr_scan", "android": "https://dc.lft.to/lastmile_qr_scan"}, "fusion_lat": 0.0, "name": "a235a26c5dfb778a45ef4a2192f95e2b", "bike_id": "a235a26c5dfb778a45ef4a2192f95e2b", "is_disabled": 0, "type": "electric_scooter", "lat": 38.89339666666667, "lon": -76.931431, "is_reserved": 0, "fusion_lon": 0.0}, {"rental_uris": {"ios": "https://dc.lft.to/lastmile_qr_scan", "android": "https://dc.lft.to/lastmile_qr_scan"}, "fusion_lat": 0.0, "name": "050c4a4c4dfab9106c3549050a97613c", "bike_id": "050c4a4c4dfab9106c3549050a97613c", "is_disabled": 0, "type": "electric_scooter", "lat": 38.91172533333334, "lon": -77.0318945, "is_reserved": 0, "fusion_lon": 0.0}, {"rental_uris": {"ios": "https://dc.lft.to/lastmile_qr_scan", "android": "https://dc.lft.to/lastmile_qr_scan"}, "fusion_lat": 0.0, "name": "6f90d32104f35b07aa2241d90e6b5dfb", "bike_id": "6f90d32104f35b07aa2241d90e6b5dfb", "is_disabled": 0, "type": "electric_scooter", "lat": 38.908817166666665, "lon": -77.005776, "is_reserved": 0, "fusion_lon": 0.0}, {"rental_uris": {"ios": "https://dc.lft.to/lastmile_qr_scan", "android": "https://dc.lft.to/lastmile_qr_scan"}, "fusion_lat": 0.0, "name": "a417ce2fd659624715e28759a469e6e7", "bike_id": "a417ce2fd659624715e28759a469e6e7", "is_disabled": 0, "type": "electric_scooter", "lat": 38.85447683333334, "lon": -76.98579333333333, "is_reserved": 0, "fusion_lon": 0.0}, {"rental_uris": {"ios": "https://dc.lft.to/lastmile_qr_scan", "android": "https://dc.lft.to/lastmile_qr_scan"}, "fusion_lat": 0.0, "name": "092a6d5a87c4fa8d6989d6e408a13783", "bike_id": "092a6d5a87c4fa8d6989d6e408a13783", "is_disabled": 0, "type": "electric_bike", "lat": 38.969407333333336, "lon": -77.0334845, "is_reserved": 0, "fusion_lon": 0.0}, {"rental_uris": {"ios": "https://dc.lft.to/lastmile_qr_scan", "android": "https://dc.lft.to/lastmile_qr_scan"}, "fusion_lat": 0.0, "name": "620a7cd871e921ad2ea9aab0d559f901", "bike_id": "620a7cd871e921ad2ea9aab0d559f901", "is_disabled": 0, "type": "electric_scooter", "lat": 38.902021833333336, "lon": -77.02323383333334, "is_reserved": 0, "fusion_lon": 0.0}, {"rental_uris": {"ios": "https://dc.lft.to/lastmile_qr_scan", "android": "https://dc.lft.to/lastmile_qr_scan"}, "fusion_lat": 0.0, "name": "4cd5532e2b42e53d1e9a0b8d4a75f19e", "bike_id": "4cd5532e2b42e53d1e9a0b8d4a75f19e", "is_disabled": 0, "type": "electric_scooter", "lat": 38.924132166666666, "lon": -77.020091, "is_reserved": 0, "fusion_lon": 0.0}, {"rental_uris": {"ios": "https://dc.lft.to/lastmile_qr_scan", "android": "https://dc.lft.to/lastmile_qr_scan"}, "fusion_lat": 0.0, "name": "1265d74b89f2ed643242a213176b15a8", "bike_id": "1265d74b89f2ed643242a213176b15a8", "is_disabled": 0, "type": "electric_scooter", "lat": 38.922446, "lon": -77.036663, "is_reserved": 0, "fusion_lon": 0.0}, {"rental_uris": {"ios": "https://dc.lft.to/lastmile_qr_scan", "android": "https://dc.lft.to/lastmile_qr_scan"}, "fusion_lat": 0.0, "name": "9269772f80541065da80cf1f5ea48f81", "bike_id": "9269772f80541065da80cf1f5ea48f81", "is_disabled": 0, "type": "electric_scooter", "lat": 38.9542885, "lon": -77.027691, "is_reserved": 0, "fusion_lon": 0.0}, {"rental_uris": {"ios": "https://dc.lft.to/lastmile_qr_scan", "android": "https://dc.lft.to/lastmile_qr_scan"}, "fusion_lat": 0.0, "name": "9f2dcf569dcb85ba5f3afaebf6492c04", "bike_id": "9f2dcf569dcb85ba5f3afaebf6492c04", "is_disabled": 0, "type": "electric_scooter", "lat": 38.88654, "lon": -77.0138485, "is_reserved": 0, "fusion_lon": 0.0}, {"rental_uris": {"ios": "https://dc.lft.to/lastmile_qr_scan", "android": "https://dc.lft.to/lastmile_qr_scan"}, "fusion_lat": 0.0, "name": "7b475ede58c0b2c757c90126ca1fe0e0", "bike_id": "7b475ede58c0b2c757c90126ca1fe0e0", "is_disabled": 0, "type": "electric_bike", "lat": 38.96219833333333, "lon": -77.026299, "is_reserved": 0, "fusion_lon": 0.0}, {"rental_uris": {"ios": "https://dc.lft.to/lastmile_qr_scan", "android": "https://dc.lft.to/lastmile_qr_scan"}, "fusion_lat": 0.0, "name": "e053df8875de87d68699317ad5687a3e", "bike_id": "e053df8875de87d68699317ad5687a3e", "is_disabled": 0, "type": "electric_scooter", "lat": 38.92384283333333, "lon": -77.05752366666667, "is_reserved": 0, "fusion_lon": 0.0}, {"rental_uris": {"ios": "https://dc.lft.to/lastmile_qr_scan", "android": "https://dc.lft.to/lastmile_qr_scan"}, "fusion_lat": 0.0, "name": "61c61e31a2e5665aca6ded0948f158b8", "bike_id": "61c61e31a2e5665aca6ded0948f158b8", "is_disabled": 0, "type": "electric_scooter", "lat": 38.89363933333333, "lon": -77.04789016666666, "is_reserved": 0, "fusion_lon": 0.0}, {"rental_uris": {"ios": "https://dc.lft.to/lastmile_qr_scan", "android": "https://dc.lft.to/lastmile_qr_scan"}, "fusion_lat": 0.0, "name": "d559fd844a9a405914d28df945b95873", "bike_id": "d559fd844a9a405914d28df945b95873", "is_disabled": 0, "type": "electric_scooter", "lat": 38.94293166666667, "lon": -77.02171783333333, "is_reserved": 0, "fusion_lon": 0.0}, {"rental_uris": {"ios": "https://dc.lft.to/lastmile_qr_scan", "android": "https://dc.lft.to/lastmile_qr_scan"}, "fusion_lat": 0.0, "name": "0e3362e33e7ff908e4bd7f50e96ac570", "bike_id": "0e3362e33e7ff908e4bd7f50e96ac570", "is_disabled": 0, "type": "electric_bike", "lat": 39.02932, "lon": -77.04930133333333, "is_reserved": 0, "fusion_lon": 0.0}, {"rental_uris": {"ios": "https://dc.lft.to/lastmile_qr_scan", "android": "https://dc.lft.to/lastmile_qr_scan"}, "fusion_lat": 0.0, "name": "5b09618ff5af6fb0bb74709c1218d6fa", "bike_id": "5b09618ff5af6fb0bb74709c1218d6fa", "is_disabled": 0, "type": "electric_scooter", "lat": 38.913392, "lon": -77.031613, "is_reserved": 0, "fusion_lon": 0.0}, {"rental_uris": {"ios": "https://dc.lft.to/lastmile_qr_scan", "android": "https://dc.lft.to/lastmile_qr_scan"}, "fusion_lat": 0.0, "name": "50e291c981b8ee694e75be0d4e62eeba", "bike_id": "50e291c981b8ee694e75be0d4e62eeba", "is_disabled": 0, "type": "electric_scooter", "lat": 38.921279, "lon": -77.04422983333333, "is_reserved": 0, "fusion_lon": 0.0}, {"rental_uris": {"ios": "https://dc.lft.to/lastmile_qr_scan", "android": "https://dc.lft.to/lastmile_qr_scan"}, "fusion_lat": 0.0, "name": "1b5fad0d5984f74636d54401c929209b", "bike_id": "1b5fad0d5984f74636d54401c929209b", "is_disabled": 0, "type": "electric_scooter", "lat": 38.89673033333333, "lon": -77.005202, "is_reserved": 0, "fusion_lon": 0.0}, {"rental_uris": {"ios": "https://dc.lft.to/lastmile_qr_scan", "android": "https://dc.lft.to/lastmile_qr_scan"}, "fusion_lat": 0.0, "name": "77802fedbd60eab332b0dea6859fe9d1", "bike_id": "77802fedbd60eab332b0dea6859fe9d1", "is_disabled": 0, "type": "electric_scooter", "lat": 38.90286116666667, "lon": -77.02792633333334, "is_reserved": 0, "fusion_lon": 0.0}, {"rental_uris": {"ios": "https://dc.lft.to/lastmile_qr_scan", "android": "https://dc.lft.to/lastmile_qr_scan"}, "fusion_lat": 0.0, "name": "fedef3f5cb0caebf8b92bb27b80d511a", "bike_id": "fedef3f5cb0caebf8b92bb27b80d511a", "is_disabled": 0, "type": "electric_scooter", "lat": 38.9026195, "lon": -77.03884183333334, "is_reserved": 0, "fusion_lon": 0.0}, {"rental_uris": {"ios": "https://dc.lft.to/lastmile_qr_scan", "android": "https://dc.lft.to/lastmile_qr_scan"}, "fusion_lat": 0.0, "name": "b6d95ccafd34c4fc7545ee4e9f7c75d7", "bike_id": "b6d95ccafd34c4fc7545ee4e9f7c75d7", "is_disabled": 0, "type": "electric_scooter", "lat": 38.943871333333334, "lon": -77.07710966666667, "is_reserved": 0, "fusion_lon": 0.0}, {"rental_uris": {"ios": "https://dc.lft.to/lastmile_qr_scan", "android": "https://dc.lft.to/lastmile_qr_scan"}, "fusion_lat": 0.0, "name": "ba803778052fa0e47455e82ebc7cc6af", "bike_id": "ba803778052fa0e47455e82ebc7cc6af", "is_disabled": 0, "type": "electric_scooter", "lat": 38.92142616666667, "lon": -77.03506316666666, "is_reserved": 0, "fusion_lon": 0.0}, {"rental_uris": {"ios": "https://dc.lft.to/lastmile_qr_scan", "android": "https://dc.lft.to/lastmile_qr_scan"}, "fusion_lat": 0.0, "name": "0f044ec3c7054929576a59ff555423ea", "bike_id": "0f044ec3c7054929576a59ff555423ea", "is_disabled": 0, "type": "electric_bike", "lat": 38.92265366666667, "lon": -76.98156966666667, "is_reserved": 0, "fusion_lon": 0.0}, {"rental_uris": {"ios": "https://dc.lft.to/lastmile_qr_scan", "android": "https://dc.lft.to/lastmile_qr_scan"}, "fusion_lat": 0.0, "name": "009c39919c15e6569088da8fadc61c1f", "bike_id": "009c39919c15e6569088da8fadc61c1f", "is_disabled": 0, "type": "electric_scooter", "lat": 38.902369666666665, "lon": -77.03963033333333, "is_reserved": 0, "fusion_lon": 0.0}, {"rental_uris": {"ios": "https://dc.lft.to/lastmile_qr_scan", "android": "https://dc.lft.to/lastmile_qr_scan"}, "fusion_lat": 0.0, "name": "5953451dcf50614b635ef992a9695f29", "bike_id": "5953451dcf50614b635ef992a9695f29", "is_disabled": 0, "type": "electric_scooter", "lat": 38.931754, "lon": -77.0706685, "is_reserved": 0, "fusion_lon": 0.0}, {"rental_uris": {"ios": "https://dc.lft.to/lastmile_qr_scan", "android": "https://dc.lft.to/lastmile_qr_scan"}, "fusion_lat": 0.0, "name": "d91a1312a1ed095d4bc5fb11f75c9b4b", "bike_id": "d91a1312a1ed095d4bc5fb11f75c9b4b", "is_disabled": 0, "type": "electric_scooter", "lat": 38.918065166666665, "lon": -77.0249325, "is_reserved": 0, "fusion_lon": 0.0}, {"rental_uris": {"ios": "https://dc.lft.to/lastmile_qr_scan", "android": "https://dc.lft.to/lastmile_qr_scan"}, "fusion_lat": 0.0, "name": "1e70c30244805c9518303020a0d159d6", "bike_id": "1e70c30244805c9518303020a0d159d6", "is_disabled": 0, "type": "electric_scooter", "lat": 38.9007455, "lon": -77.02718233333333, "is_reserved": 0, "fusion_lon": 0.0}, {"rental_uris": {"ios": "https://dc.lft.to/lastmile_qr_scan", "android": "https://dc.lft.to/lastmile_qr_scan"}, "fusion_lat": 0.0, "name": "ee8dd9871fe7918b347c30276550da9a", "bike_id": "ee8dd9871fe7918b347c30276550da9a", "is_disabled": 0, "type": "electric_scooter", "lat": 38.91688533333333, "lon": -77.02817083333333, "is_reserved": 0, "fusion_lon": 0.0}, {"rental_uris": {"ios": "https://dc.lft.to/lastmile_qr_scan", "android": "https://dc.lft.to/lastmile_qr_scan"}, "fusion_lat": 0.0, "name": "551cf4a3ff8da62d182c2ab5ba314578", "bike_id": "551cf4a3ff8da62d182c2ab5ba314578", "is_disabled": 0, "type": "electric_scooter", "lat": 38.9079745, "lon": -77.0383455, "is_reserved": 0, "fusion_lon": 0.0}, {"rental_uris": {"ios": "https://dc.lft.to/lastmile_qr_scan", "android": "https://dc.lft.to/lastmile_qr_scan"}, "fusion_lat": 0.0, "name": "c9549216df015ad279ff27a4352412e1", "bike_id": "c9549216df015ad279ff27a4352412e1", "is_disabled": 0, "type": "electric_scooter", "lat": 38.8881105, "lon": -76.93346433333333, "is_reserved": 0, "fusion_lon": 0.0}, {"rental_uris": {"ios": "https://dc.lft.to/lastmile_qr_scan", "android": "https://dc.lft.to/lastmile_qr_scan"}, "fusion_lat": 0.0, "name": "6089d1a3574cb71c680de6b4c018f718", "bike_id": "6089d1a3574cb71c680de6b4c018f718", "is_disabled": 0, "type": "electric_scooter", "lat": 38.892214333333335, "lon": -77.03157833333333, "is_reserved": 0, "fusion_lon": 0.0}, {"rental_uris": {"ios": "https://dc.lft.to/lastmile_qr_scan", "android": "https://dc.lft.to/lastmile_qr_scan"}, "fusion_lat": 0.0, "name": "3bb588b0f1d1a49138d49d95a730bb00", "bike_id": "3bb588b0f1d1a49138d49d95a730bb00", "is_disabled": 0, "type": "electric_bike", "lat": 38.876730333333334, "lon": -77.0144205, "is_reserved": 0, "fusion_lon": 0.0}, {"rental_uris": {"ios": "https://dc.lft.to/lastmile_qr_scan", "android": "https://dc.lft.to/lastmile_qr_scan"}, "fusion_lat": 0.0, "name": "512856677d4f0e7fa5122975de6dbf7d", "bike_id": "512856677d4f0e7fa5122975de6dbf7d", "is_disabled": 0, "type": "electric_bike", "lat": 38.83987066666667, "lon": -77.00572633333333, "is_reserved": 0, "fusion_lon": 0.0}, {"rental_uris": {"ios": "https://dc.lft.to/lastmile_qr_scan", "android": "https://dc.lft.to/lastmile_qr_scan"}, "fusion_lat": 0.0, "name": "536fdc0620e8b0d7c65d7a644bf9fc83", "bike_id": "536fdc0620e8b0d7c65d7a644bf9fc83", "is_disabled": 0, "type": "electric_scooter", "lat": 38.920402333333335, "lon": -77.034036, "is_reserved": 0, "fusion_lon": 0.0}, {"rental_uris": {"ios": "https://dc.lft.to/lastmile_qr_scan", "android": "https://dc.lft.to/lastmile_qr_scan"}, "fusion_lat": 0.0, "name": "3139dce5fec009898098d41f55b3a423", "bike_id": "3139dce5fec009898098d41f55b3a423", "is_disabled": 0, "type": "electric_scooter", "lat": 38.86683816666667, "lon": -76.9852315, "is_reserved": 0, "fusion_lon": 0.0}, {"rental_uris": {"ios": "https://dc.lft.to/lastmile_qr_scan", "android": "https://dc.lft.to/lastmile_qr_scan"}, "fusion_lat": 0.0, "name": "4e2b7bd82371065d2995cbd834fe0dda", "bike_id": "4e2b7bd82371065d2995cbd834fe0dda", "is_disabled": 0, "type": "electric_scooter", "lat": 38.90891083333333, "lon": -77.032026, "is_reserved": 0, "fusion_lon": 0.0}, {"rental_uris": {"ios": "https://dc.lft.to/lastmile_qr_scan", "android": "https://dc.lft.to/lastmile_qr_scan"}, "fusion_lat": 0.0, "name": "1c32e97d7ed09f5af23ec64af25a0a9d", "bike_id": "1c32e97d7ed09f5af23ec64af25a0a9d", "is_disabled": 0, "type": "electric_scooter", "lat": 38.90729783333333, "lon": -77.0276175, "is_reserved": 0, "fusion_lon": 0.0}, {"rental_uris": {"ios": "https://dc.lft.to/lastmile_qr_scan", "android": "https://dc.lft.to/lastmile_qr_scan"}, "fusion_lat": 0.0, "name": "cb1c123b29985b9b6cbd3d867a074644", "bike_id": "cb1c123b29985b9b6cbd3d867a074644", "is_disabled": 0, "type": "electric_scooter", "lat": 38.907307333333335, "lon": -77.0276715, "is_reserved": 0, "fusion_lon": 0.0}, {"rental_uris": {"ios": "https://dc.lft.to/lastmile_qr_scan", "android": "https://dc.lft.to/lastmile_qr_scan"}, "fusion_lat": 0.0, "name": "6aee61d95855bc5952004bc879b86197", "bike_id": "6aee61d95855bc5952004bc879b86197", "is_disabled": 0, "type": "electric_scooter", "lat": 38.946338, "lon": -77.0184465, "is_reserved": 0, "fusion_lon": 0.0}, {"rental_uris": {"ios": "https://dc.lft.to/lastmile_qr_scan", "android": "https://dc.lft.to/lastmile_qr_scan"}, "fusion_lat": 0.0, "name": "6d093e1ca404b26ad20a49940fe22360", "bike_id": "6d093e1ca404b26ad20a49940fe22360", "is_disabled": 0, "type": "electric_bike", "lat": 38.95184866666666, "lon": -76.93548083333333, "is_reserved": 0, "fusion_lon": 0.0}, {"rental_uris": {"ios": "https://dc.lft.to/lastmile_qr_scan", "android": "https://dc.lft.to/lastmile_qr_scan"}, "fusion_lat": 0.0, "name": "e0159b03d5e36bdcaef75ea7ddd56619", "bike_id": "e0159b03d5e36bdcaef75ea7ddd56619", "is_disabled": 0, "type": "electric_scooter", "lat": 38.896177333333334, "lon": -77.02195716666667, "is_reserved": 0, "fusion_lon": 0.0}, {"rental_uris": {"ios": "https://dc.lft.to/lastmile_qr_scan", "android": "https://dc.lft.to/lastmile_qr_scan"}, "fusion_lat": 0.0, "name": "7bdb6389fe1d5377c959b1d067dc6f20", "bike_id": "7bdb6389fe1d5377c959b1d067dc6f20", "is_disabled": 0, "type": "electric_scooter", "lat": 38.9092475, "lon": -77.08022433333333, "is_reserved": 0, "fusion_lon": 0.0}, {"rental_uris": {"ios": "https://dc.lft.to/lastmile_qr_scan", "android": "https://dc.lft.to/lastmile_qr_scan"}, "fusion_lat": 0.0, "name": "af92d2815d29893d3a78e3c992fb00b8", "bike_id": "af92d2815d29893d3a78e3c992fb00b8", "is_disabled": 0, "type": "electric_scooter", "lat": 38.892187166666666, "lon": -77.031359, "is_reserved": 0, "fusion_lon": 0.0}, {"rental_uris": {"ios": "https://dc.lft.to/lastmile_qr_scan", "android": "https://dc.lft.to/lastmile_qr_scan"}, "fusion_lat": 0.0, "name": "7a077842e89c5bd2f5be0b6675214e13", "bike_id": "7a077842e89c5bd2f5be0b6675214e13", "is_disabled": 0, "type": "electric_scooter", "lat": 38.91816166666667, "lon": -77.04518966666667, "is_reserved": 0, "fusion_lon": 0.0}, {"rental_uris": {"ios": "https://dc.lft.to/lastmile_qr_scan", "android": "https://dc.lft.to/lastmile_qr_scan"}, "fusion_lat": 0.0, "name": "945a475ba122bebfd7053f5465df7016", "bike_id": "945a475ba122bebfd7053f5465df7016", "is_disabled": 0, "type": "electric_scooter", "lat": 38.844277166666664, "lon": -76.99704016666666, "is_reserved": 0, "fusion_lon": 0.0}, {"rental_uris": {"ios": "https://dc.lft.to/lastmile_qr_scan", "android": "https://dc.lft.to/lastmile_qr_scan"}, "fusion_lat": 0.0, "name": "7c89bbed2929004cda1d7a2b31f581dd", "bike_id": "7c89bbed2929004cda1d7a2b31f581dd", "is_disabled": 0, "type": "electric_scooter", "lat": 38.893531833333334, "lon": -77.04142483333334, "is_reserved": 0, "fusion_lon": 0.0}, {"rental_uris": {"ios": "https://dc.lft.to/lastmile_qr_scan", "android": "https://dc.lft.to/lastmile_qr_scan"}, "fusion_lat": 0.0, "name": "52d66e55a6eef368dcf91c5c37ca9386", "bike_id": "52d66e55a6eef368dcf91c5c37ca9386", "is_disabled": 0, "type": "electric_scooter", "lat": 38.9055405, "lon": -77.043426, "is_reserved": 0, "fusion_lon": 0.0}, {"rental_uris": {"ios": "https://dc.lft.to/lastmile_qr_scan", "android": "https://dc.lft.to/lastmile_qr_scan"}, "fusion_lat": 0.0, "name": "57f1fe173861c7042d4fc20151c8da18", "bike_id": "57f1fe173861c7042d4fc20151c8da18", "is_disabled": 0, "type": "electric_scooter", "lat": 38.91032916666666, "lon": -77.04835516666667, "is_reserved": 0, "fusion_lon": 0.0}, {"rental_uris": {"ios": "https://dc.lft.to/lastmile_qr_scan", "android": "https://dc.lft.to/lastmile_qr_scan"}, "fusion_lat": 0.0, "name": "5ccb51b203f608442afccff6185e3ef3", "bike_id": "5ccb51b203f608442afccff6185e3ef3", "is_disabled": 0, "type": "electric_scooter", "lat": 38.916807666666664, "lon": -77.0320195, "is_reserved": 0, "fusion_lon": 0.0}, {"rental_uris": {"ios": "https://dc.lft.to/lastmile_qr_scan", "android": "https://dc.lft.to/lastmile_qr_scan"}, "fusion_lat": 0.0, "name": "54327c6f3c1b53f784f42a24e7d4198e", "bike_id": "54327c6f3c1b53f784f42a24e7d4198e", "is_disabled": 0, "type": "electric_scooter", "lat": 38.918039, "lon": -77.0249645, "is_reserved": 0, "fusion_lon": 0.0}, {"rental_uris": {"ios": "https://dc.lft.to/lastmile_qr_scan", "android": "https://dc.lft.to/lastmile_qr_scan"}, "fusion_lat": 0.0, "name": "231f0e542180dc6c4351c7573f4c8808", "bike_id": "231f0e542180dc6c4351c7573f4c8808", "is_disabled": 0, "type": "electric_scooter", "lat": 38.89221216666667, "lon": -77.04330583333333, "is_reserved": 0, "fusion_lon": 0.0}, {"rental_uris": {"ios": "https://dc.lft.to/lastmile_qr_scan", "android": "https://dc.lft.to/lastmile_qr_scan"}, "fusion_lat": 0.0, "name": "3123ccac7794592201deae9182ea400e", "bike_id": "3123ccac7794592201deae9182ea400e", "is_disabled": 0, "type": "electric_scooter", "lat": 38.90815166666667, "lon": -77.03941966666666, "is_reserved": 0, "fusion_lon": 0.0}, {"rental_uris": {"ios": "https://dc.lft.to/lastmile_qr_scan", "android": "https://dc.lft.to/lastmile_qr_scan"}, "fusion_lat": 0.0, "name": "befbc0ebda383d8793686c8b0fec0db1", "bike_id": "befbc0ebda383d8793686c8b0fec0db1", "is_disabled": 0, "type": "electric_scooter", "lat": 38.90949366666667, "lon": -77.031998, "is_reserved": 0, "fusion_lon": 0.0}, {"rental_uris": {"ios": "https://dc.lft.to/lastmile_qr_scan", "android": "https://dc.lft.to/lastmile_qr_scan"}, "fusion_lat": 0.0, "name": "75ae1c578383d22b5db30deea16ec547", "bike_id": "75ae1c578383d22b5db30deea16ec547", "is_disabled": 0, "type": "electric_scooter", "lat": 38.933627, "lon": -77.0856835, "is_reserved": 0, "fusion_lon": 0.0}, {"rental_uris": {"ios": "https://dc.lft.to/lastmile_qr_scan", "android": "https://dc.lft.to/lastmile_qr_scan"}, "fusion_lat": 0.0, "name": "2a3bcbb1a90cb6785eb4fe0b5acb0264", "bike_id": "2a3bcbb1a90cb6785eb4fe0b5acb0264", "is_disabled": 0, "type": "electric_scooter", "lat": 38.93770266666667, "lon": -77.03264383333334, "is_reserved": 0, "fusion_lon": 0.0}, {"rental_uris": {"ios": "https://dc.lft.to/lastmile_qr_scan", "android": "https://dc.lft.to/lastmile_qr_scan"}, "fusion_lat": 0.0, "name": "8e5c6333968191b1fd02e676bbd08890", "bike_id": "8e5c6333968191b1fd02e676bbd08890", "is_disabled": 0, "type": "electric_scooter", "lat": 38.96163883333333, "lon": -77.02787983333333, "is_reserved": 0, "fusion_lon": 0.0}, {"rental_uris": {"ios": "https://dc.lft.to/lastmile_qr_scan", "android": "https://dc.lft.to/lastmile_qr_scan"}, "fusion_lat": 0.0, "name": "9d205271d004ac4a803c16d57a188346", "bike_id": "9d205271d004ac4a803c16d57a188346", "is_disabled": 0, "type": "electric_scooter", "lat": 38.900512666666664, "lon": -77.00739616666667, "is_reserved": 0, "fusion_lon": 0.0}, {"rental_uris": {"ios": "https://dc.lft.to/lastmile_qr_scan", "android": "https://dc.lft.to/lastmile_qr_scan"}, "fusion_lat": 0.0, "name": "e7dc2d9334a6d1fb03d4b7d07000f1e2", "bike_id": "e7dc2d9334a6d1fb03d4b7d07000f1e2", "is_disabled": 0, "type": "electric_scooter", "lat": 38.93713183333333, "lon": -77.03633933333333, "is_reserved": 0, "fusion_lon": 0.0}, {"rental_uris": {"ios": "https://dc.lft.to/lastmile_qr_scan", "android": "https://dc.lft.to/lastmile_qr_scan"}, "fusion_lat": 0.0, "name": "72d2651388d307b8e82af1d023eeb06c", "bike_id": "72d2651388d307b8e82af1d023eeb06c", "is_disabled": 0, "type": "electric_scooter", "lat": 38.9351255, "lon": -77.03267783333334, "is_reserved": 0, "fusion_lon": 0.0}, {"rental_uris": {"ios": "https://dc.lft.to/lastmile_qr_scan", "android": "https://dc.lft.to/lastmile_qr_scan"}, "fusion_lat": 0.0, "name": "08288588eae1ef3b76160eb7c77aff2c", "bike_id": "08288588eae1ef3b76160eb7c77aff2c", "is_disabled": 0, "type": "electric_scooter", "lat": 38.91816766666667, "lon": -77.031717, "is_reserved": 0, "fusion_lon": 0.0}, {"rental_uris": {"ios": "https://dc.lft.to/lastmile_qr_scan", "android": "https://dc.lft.to/lastmile_qr_scan"}, "fusion_lat": 0.0, "name": "d07e1d6f02c3a829581418a605f50858", "bike_id": "d07e1d6f02c3a829581418a605f50858", "is_disabled": 0, "type": "electric_scooter", "lat": 38.900340166666666, "lon": -76.993802, "is_reserved": 0, "fusion_lon": 0.0}, {"rental_uris": {"ios": "https://dc.lft.to/lastmile_qr_scan", "android": "https://dc.lft.to/lastmile_qr_scan"}, "fusion_lat": 0.0, "name": "5d04f8c8a05a1d1fceaabfe0c6b9a413", "bike_id": "5d04f8c8a05a1d1fceaabfe0c6b9a413", "is_disabled": 0, "type": "electric_scooter", "lat": 38.89232616666666, "lon": -77.028014, "is_reserved": 0, "fusion_lon": 0.0}, {"rental_uris": {"ios": "https://dc.lft.to/lastmile_qr_scan", "android": "https://dc.lft.to/lastmile_qr_scan"}, "fusion_lat": 0.0, "name": "8606c619d8d94307e09bf99467f5b0a9", "bike_id": "8606c619d8d94307e09bf99467f5b0a9", "is_disabled": 0, "type": "electric_scooter", "lat": 38.91713516666667, "lon": -77.03248516666666, "is_reserved": 0, "fusion_lon": 0.0}, {"rental_uris": {"ios": "https://dc.lft.to/lastmile_qr_scan", "android": "https://dc.lft.to/lastmile_qr_scan"}, "fusion_lat": 0.0, "name": "1a0fa12e8ac62f09ef65c1da8921aad8", "bike_id": "1a0fa12e8ac62f09ef65c1da8921aad8", "is_disabled": 0, "type": "electric_scooter", "lat": 38.90808366666667, "lon": -77.03440683333334, "is_reserved": 0, "fusion_lon": 0.0}, {"rental_uris": {"ios": "https://dc.lft.to/lastmile_qr_scan", "android": "https://dc.lft.to/lastmile_qr_scan"}, "fusion_lat": 0.0, "name": "c1aee541fba9c110a884b35b03695885", "bike_id": "c1aee541fba9c110a884b35b03695885", "is_disabled": 0, "type": "electric_scooter", "lat": 38.90383216666667, "lon": -77.045202, "is_reserved": 0, "fusion_lon": 0.0}, {"rental_uris": {"ios": "https://dc.lft.to/lastmile_qr_scan", "android": "https://dc.lft.to/lastmile_qr_scan"}, "fusion_lat": 0.0, "name": "abe0a5f92807e90da6fefa7731ae257e", "bike_id": "abe0a5f92807e90da6fefa7731ae257e", "is_disabled": 0, "type": "electric_scooter", "lat": 38.92420033333333, "lon": -77.01951783333334, "is_reserved": 0, "fusion_lon": 0.0}, {"rental_uris": {"ios": "https://dc.lft.to/lastmile_qr_scan", "android": "https://dc.lft.to/lastmile_qr_scan"}, "fusion_lat": 0.0, "name": "daa57da735fdde307041d937fd197acd", "bike_id": "daa57da735fdde307041d937fd197acd", "is_disabled": 0, "type": "electric_scooter", "lat": 38.89614666666667, "lon": -77.04645366666666, "is_reserved": 0, "fusion_lon": 0.0}, {"rental_uris": {"ios": "https://dc.lft.to/lastmile_qr_scan", "android": "https://dc.lft.to/lastmile_qr_scan"}, "fusion_lat": 0.0, "name": "44a750e6a3193693d798b0b691416982", "bike_id": "44a750e6a3193693d798b0b691416982", "is_disabled": 0, "type": "electric_scooter", "lat": 38.922431333333336, "lon": -77.0366275, "is_reserved": 0, "fusion_lon": 0.0}, {"rental_uris": {"ios": "https://dc.lft.to/lastmile_qr_scan", "android": "https://dc.lft.to/lastmile_qr_scan"}, "fusion_lat": 0.0, "name": "8d61ce6830b35ff27633b1c584468076", "bike_id": "8d61ce6830b35ff27633b1c584468076", "is_disabled": 0, "type": "electric_scooter", "lat": 38.902712333333334, "lon": -77.034732, "is_reserved": 0, "fusion_lon": 0.0}, {"rental_uris": {"ios": "https://dc.lft.to/lastmile_qr_scan", "android": "https://dc.lft.to/lastmile_qr_scan"}, "fusion_lat": 0.0, "name": "3daff0c2a34ad45a88bc1777839d4aa2", "bike_id": "3daff0c2a34ad45a88bc1777839d4aa2", "is_disabled": 0, "type": "electric_scooter", "lat": 38.91567466666667, "lon": -77.02004816666667, "is_reserved": 0, "fusion_lon": 0.0}, {"rental_uris": {"ios": "https://dc.lft.to/lastmile_qr_scan", "android": "https://dc.lft.to/lastmile_qr_scan"}, "fusion_lat": 0.0, "name": "b86d82372659614046b02874a941f9a2", "bike_id": "b86d82372659614046b02874a941f9a2", "is_disabled": 0, "type": "electric_scooter", "lat": 38.90831566666667, "lon": -76.99702833333333, "is_reserved": 0, "fusion_lon": 0.0}, {"rental_uris": {"ios": "https://dc.lft.to/lastmile_qr_scan", "android": "https://dc.lft.to/lastmile_qr_scan"}, "fusion_lat": 0.0, "name": "06a03af2a7fd959f88e387da31426132", "bike_id": "06a03af2a7fd959f88e387da31426132", "is_disabled": 0, "type": "electric_bike", "lat": 38.815131666666666, "lon": -77.12653683333333, "is_reserved": 0, "fusion_lon": 0.0}, {"rental_uris": {"ios": "https://dc.lft.to/lastmile_qr_scan", "android": "https://dc.lft.to/lastmile_qr_scan"}, "fusion_lat": 0.0, "name": "cf8983058925993dd6b5347667c1870a", "bike_id": "cf8983058925993dd6b5347667c1870a", "is_disabled": 0, "type": "electric_scooter", "lat": 38.8922, "lon": -77.0232165, "is_reserved": 0, "fusion_lon": 0.0}, {"rental_uris": {"ios": "https://dc.lft.to/lastmile_qr_scan", "android": "https://dc.lft.to/lastmile_qr_scan"}, "fusion_lat": 0.0, "name": "d1aa5cc9cb374db42524baee62a87584", "bike_id": "d1aa5cc9cb374db42524baee62a87584", "is_disabled": 0, "type": "electric_scooter", "lat": 38.9216, "lon": -77.03236833333334, "is_reserved": 0, "fusion_lon": 0.0}, {"rental_uris": {"ios": "https://dc.lft.to/lastmile_qr_scan", "android": "https://dc.lft.to/lastmile_qr_scan"}, "fusion_lat": 0.0, "name": "ac766ac26782d78237e529c921ebf88a", "bike_id": "ac766ac26782d78237e529c921ebf88a", "is_disabled": 0, "type": "electric_scooter", "lat": 38.874928, "lon": -76.99795916666666, "is_reserved": 0, "fusion_lon": 0.0}, {"rental_uris": {"ios": "https://dc.lft.to/lastmile_qr_scan", "android": "https://dc.lft.to/lastmile_qr_scan"}, "fusion_lat": 0.0, "name": "f4a32f22346895f99509a88a5b2c0c9b", "bike_id": "f4a32f22346895f99509a88a5b2c0c9b", "is_disabled": 0, "type": "electric_bike", "lat": 38.83161416666667, "lon": -77.1131085, "is_reserved": 0, "fusion_lon": 0.0}, {"rental_uris": {"ios": "https://dc.lft.to/lastmile_qr_scan", "android": "https://dc.lft.to/lastmile_qr_scan"}, "fusion_lat": 0.0, "name": "f2ee5c7715cff40b87c135fba48e0255", "bike_id": "f2ee5c7715cff40b87c135fba48e0255", "is_disabled": 0, "type": "electric_scooter", "lat": 38.887466, "lon": -77.02128966666666, "is_reserved": 0, "fusion_lon": 0.0}, {"rental_uris": {"ios": "https://dc.lft.to/lastmile_qr_scan", "android": "https://dc.lft.to/lastmile_qr_scan"}, "fusion_lat": 0.0, "name": "e132a77142e7e1e32933979544fd38d6", "bike_id": "e132a77142e7e1e32933979544fd38d6", "is_disabled": 0, "type": "electric_scooter", "lat": 38.915591666666664, "lon": -77.0400285, "is_reserved": 0, "fusion_lon": 0.0}, {"rental_uris": {"ios": "https://dc.lft.to/lastmile_qr_scan", "android": "https://dc.lft.to/lastmile_qr_scan"}, "fusion_lat": 0.0, "name": "85074c6597060cfc8c7688b7b9b37a8a", "bike_id": "85074c6597060cfc8c7688b7b9b37a8a", "is_disabled": 0, "type": "electric_bike", "lat": 38.92463583333333, "lon": -77.20840183333334, "is_reserved": 0, "fusion_lon": 0.0}, {"rental_uris": {"ios": "https://dc.lft.to/lastmile_qr_scan", "android": "https://dc.lft.to/lastmile_qr_scan"}, "fusion_lat": 0.0, "name": "f02037899854cd462c4b9b1dcb755bef", "bike_id": "f02037899854cd462c4b9b1dcb755bef", "is_disabled": 0, "type": "electric_scooter", "lat": 38.91327966666667, "lon": -77.031918, "is_reserved": 0, "fusion_lon": 0.0}, {"rental_uris": {"ios": "https://dc.lft.to/lastmile_qr_scan", "android": "https://dc.lft.to/lastmile_qr_scan"}, "fusion_lat": 0.0, "name": "9875b6671215770233dfed5198fe47ac", "bike_id": "9875b6671215770233dfed5198fe47ac", "is_disabled": 0, "type": "electric_scooter", "lat": 38.92819083333333, "lon": -77.02874966666667, "is_reserved": 0, "fusion_lon": 0.0}, {"rental_uris": {"ios": "https://dc.lft.to/lastmile_qr_scan", "android": "https://dc.lft.to/lastmile_qr_scan"}, "fusion_lat": 0.0, "name": "cc650fe91baecbaa9e767996545a7adb", "bike_id": "cc650fe91baecbaa9e767996545a7adb", "is_disabled": 0, "type": "electric_scooter", "lat": 38.91708716666667, "lon": -77.027203, "is_reserved": 0, "fusion_lon": 0.0}, {"rental_uris": {"ios": "https://dc.lft.to/lastmile_qr_scan", "android": "https://dc.lft.to/lastmile_qr_scan"}, "fusion_lat": 0.0, "name": "7cfb383e9b22a5ffa41a678ff5ebecda", "bike_id": "7cfb383e9b22a5ffa41a678ff5ebecda", "is_disabled": 0, "type": "electric_scooter", "lat": 38.91875616666667, "lon": -77.03612966666667, "is_reserved": 0, "fusion_lon": 0.0}, {"rental_uris": {"ios": "https://dc.lft.to/lastmile_qr_scan", "android": "https://dc.lft.to/lastmile_qr_scan"}, "fusion_lat": 0.0, "name": "5cc473947d74ed043c3d44baf4de0db7", "bike_id": "5cc473947d74ed043c3d44baf4de0db7", "is_disabled": 0, "type": "electric_scooter", "lat": 38.9285285, "lon": -77.0309995, "is_reserved": 0, "fusion_lon": 0.0}, {"rental_uris": {"ios": "https://dc.lft.to/lastmile_qr_scan", "android": "https://dc.lft.to/lastmile_qr_scan"}, "fusion_lat": 0.0, "name": "8b5342e930443d4b0a9a0102eac0c80a", "bike_id": "8b5342e930443d4b0a9a0102eac0c80a", "is_disabled": 0, "type": "electric_bike", "lat": 38.8621055, "lon": -76.99781066666667, "is_reserved": 0, "fusion_lon": 0.0}, {"rental_uris": {"ios": "https://dc.lft.to/lastmile_qr_scan", "android": "https://dc.lft.to/lastmile_qr_scan"}, "fusion_lat": 0.0, "name": "bb5fd1a9924e654fe2a48df26ec48d2d", "bike_id": "bb5fd1a9924e654fe2a48df26ec48d2d", "is_disabled": 0, "type": "electric_scooter", "lat": 38.91273366666667, "lon": -77.04067633333334, "is_reserved": 0, "fusion_lon": 0.0}, {"rental_uris": {"ios": "https://dc.lft.to/lastmile_qr_scan", "android": "https://dc.lft.to/lastmile_qr_scan"}, "fusion_lat": 0.0, "name": "836b6b5fb64e5cd8625541eedb74bbc4", "bike_id": "836b6b5fb64e5cd8625541eedb74bbc4", "is_disabled": 0, "type": "electric_scooter", "lat": 38.89224766666667, "lon": -77.0500535, "is_reserved": 0, "fusion_lon": 0.0}, {"rental_uris": {"ios": "https://dc.lft.to/lastmile_qr_scan", "android": "https://dc.lft.to/lastmile_qr_scan"}, "fusion_lat": 0.0, "name": "169ec7d7e1ea39daca4e55cd1fb497f8", "bike_id": "169ec7d7e1ea39daca4e55cd1fb497f8", "is_disabled": 0, "type": "electric_scooter", "lat": 38.8988475, "lon": -76.93173866666666, "is_reserved": 0, "fusion_lon": 0.0}, {"rental_uris": {"ios": "https://dc.lft.to/lastmile_qr_scan", "android": "https://dc.lft.to/lastmile_qr_scan"}, "fusion_lat": 0.0, "name": "77c26de03a8c865845c1b75a5f8a20d5", "bike_id": "77c26de03a8c865845c1b75a5f8a20d5", "is_disabled": 0, "type": "electric_scooter", "lat": 38.86675816666666, "lon": -76.98549966666667, "is_reserved": 0, "fusion_lon": 0.0}, {"rental_uris": {"ios": "https://dc.lft.to/lastmile_qr_scan", "android": "https://dc.lft.to/lastmile_qr_scan"}, "fusion_lat": 0.0, "name": "8ab3f3185823f20f30c04120948cb7e8", "bike_id": "8ab3f3185823f20f30c04120948cb7e8", "is_disabled": 0, "type": "electric_scooter", "lat": 38.92583183333333, "lon": -77.03984783333334, "is_reserved": 0, "fusion_lon": 0.0}, {"rental_uris": {"ios": "https://dc.lft.to/lastmile_qr_scan", "android": "https://dc.lft.to/lastmile_qr_scan"}, "fusion_lat": 0.0, "name": "5595218b6be8bf92741ff2152955e1e4", "bike_id": "5595218b6be8bf92741ff2152955e1e4", "is_disabled": 0, "type": "electric_scooter", "lat": 38.9213435, "lon": -77.03660766666667, "is_reserved": 0, "fusion_lon": 0.0}, {"rental_uris": {"ios": "https://dc.lft.to/lastmile_qr_scan", "android": "https://dc.lft.to/lastmile_qr_scan"}, "fusion_lat": 0.0, "name": "62da7f4a69eaa063437191f86d9036c9", "bike_id": "62da7f4a69eaa063437191f86d9036c9", "is_disabled": 0, "type": "electric_scooter", "lat": 38.901492, "lon": -77.043504, "is_reserved": 0, "fusion_lon": 0.0}, {"rental_uris": {"ios": "https://dc.lft.to/lastmile_qr_scan", "android": "https://dc.lft.to/lastmile_qr_scan"}, "fusion_lat": 0.0, "name": "08c50b57cc04855db26ab40b092c5726", "bike_id": "08c50b57cc04855db26ab40b092c5726", "is_disabled": 0, "type": "electric_scooter", "lat": 38.9058875, "lon": -77.00606416666666, "is_reserved": 0, "fusion_lon": 0.0}, {"rental_uris": {"ios": "https://dc.lft.to/lastmile_qr_scan", "android": "https://dc.lft.to/lastmile_qr_scan"}, "fusion_lat": 0.0, "name": "d16ae3d0376f9271b7533a073522ea5b", "bike_id": "d16ae3d0376f9271b7533a073522ea5b", "is_disabled": 0, "type": "electric_scooter", "lat": 38.9177735, "lon": -77.0362885, "is_reserved": 0, "fusion_lon": 0.0}, {"rental_uris": {"ios": "https://dc.lft.to/lastmile_qr_scan", "android": "https://dc.lft.to/lastmile_qr_scan"}, "fusion_lat": 0.0, "name": "6f11584619211166dd6a62b745ba3f19", "bike_id": "6f11584619211166dd6a62b745ba3f19", "is_disabled": 0, "type": "electric_scooter", "lat": 38.915938833333335, "lon": -77.0297125, "is_reserved": 0, "fusion_lon": 0.0}, {"rental_uris": {"ios": "https://dc.lft.to/lastmile_qr_scan", "android": "https://dc.lft.to/lastmile_qr_scan"}, "fusion_lat": 0.0, "name": "5af65a1f075975dc03838f6f93f6c407", "bike_id": "5af65a1f075975dc03838f6f93f6c407", "is_disabled": 0, "type": "electric_scooter", "lat": 38.921013, "lon": -77.0438315, "is_reserved": 0, "fusion_lon": 0.0}, {"rental_uris": {"ios": "https://dc.lft.to/lastmile_qr_scan", "android": "https://dc.lft.to/lastmile_qr_scan"}, "fusion_lat": 0.0, "name": "1379c9846412615c50267562c8966cc9", "bike_id": "1379c9846412615c50267562c8966cc9", "is_disabled": 0, "type": "electric_scooter", "lat": 38.887362333333336, "lon": -77.01530733333334, "is_reserved": 0, "fusion_lon": 0.0}, {"rental_uris": {"ios": "https://dc.lft.to/lastmile_qr_scan", "android": "https://dc.lft.to/lastmile_qr_scan"}, "fusion_lat": 0.0, "name": "78cf4d76ca60a5f3d16f185c8e928193", "bike_id": "78cf4d76ca60a5f3d16f185c8e928193", "is_disabled": 0, "type": "electric_scooter", "lat": 38.897694, "lon": -77.031905, "is_reserved": 0, "fusion_lon": 0.0}, {"rental_uris": {"ios": "https://dc.lft.to/lastmile_qr_scan", "android": "https://dc.lft.to/lastmile_qr_scan"}, "fusion_lat": 0.0, "name": "93174b526411570e50e7ff17f9be793a", "bike_id": "93174b526411570e50e7ff17f9be793a", "is_disabled": 0, "type": "electric_scooter", "lat": 38.912698666666664, "lon": -77.0364405, "is_reserved": 0, "fusion_lon": 0.0}, {"rental_uris": {"ios": "https://dc.lft.to/lastmile_qr_scan", "android": "https://dc.lft.to/lastmile_qr_scan"}, "fusion_lat": 0.0, "name": "1e09833667c760ab4a2e245b67094018", "bike_id": "1e09833667c760ab4a2e245b67094018", "is_disabled": 0, "type": "electric_scooter", "lat": 38.88404633333333, "lon": -77.01536216666666, "is_reserved": 0, "fusion_lon": 0.0}, {"rental_uris": {"ios": "https://dc.lft.to/lastmile_qr_scan", "android": "https://dc.lft.to/lastmile_qr_scan"}, "fusion_lat": 0.0, "name": "4c8a96dbb60ce208418c51a9e196f1a0", "bike_id": "4c8a96dbb60ce208418c51a9e196f1a0", "is_disabled": 0, "type": "electric_scooter", "lat": 38.91108883333333, "lon": -77.03829483333334, "is_reserved": 0, "fusion_lon": 0.0}, {"rental_uris": {"ios": "https://dc.lft.to/lastmile_qr_scan", "android": "https://dc.lft.to/lastmile_qr_scan"}, "fusion_lat": 0.0, "name": "d6eadb4829178638e8441d8d62b6f86d", "bike_id": "d6eadb4829178638e8441d8d62b6f86d", "is_disabled": 0, "type": "electric_bike", "lat": 38.86996533333333, "lon": -77.06569966666666, "is_reserved": 0, "fusion_lon": 0.0}, {"rental_uris": {"ios": "https://dc.lft.to/lastmile_qr_scan", "android": "https://dc.lft.to/lastmile_qr_scan"}, "fusion_lat": 0.0, "name": "2517ceaee7180110ecccffa2a6403ecb", "bike_id": "2517ceaee7180110ecccffa2a6403ecb", "is_disabled": 0, "type": "electric_scooter", "lat": 38.8922635, "lon": -77.01365783333334, "is_reserved": 0, "fusion_lon": 0.0}, {"rental_uris": {"ios": "https://dc.lft.to/lastmile_qr_scan", "android": "https://dc.lft.to/lastmile_qr_scan"}, "fusion_lat": 0.0, "name": "5ecf63b0be62ace7e9a05ae41faeaf5d", "bike_id": "5ecf63b0be62ace7e9a05ae41faeaf5d", "is_disabled": 0, "type": "electric_scooter", "lat": 38.91710966666667, "lon": -77.02578183333334, "is_reserved": 0, "fusion_lon": 0.0}, {"rental_uris": {"ios": "https://dc.lft.to/lastmile_qr_scan", "android": "https://dc.lft.to/lastmile_qr_scan"}, "fusion_lat": 0.0, "name": "632ebe1db90d7f653c6d879ad734ad6d", "bike_id": "632ebe1db90d7f653c6d879ad734ad6d", "is_disabled": 0, "type": "electric_scooter", "lat": 38.895201166666666, "lon": -77.0242675, "is_reserved": 0, "fusion_lon": 0.0}, {"rental_uris": {"ios": "https://dc.lft.to/lastmile_qr_scan", "android": "https://dc.lft.to/lastmile_qr_scan"}, "fusion_lat": 0.0, "name": "483b6f8c8366bb60237fee904ce3b8a0", "bike_id": "483b6f8c8366bb60237fee904ce3b8a0", "is_disabled": 0, "type": "electric_scooter", "lat": 38.931602833333336, "lon": -77.0561055, "is_reserved": 0, "fusion_lon": 0.0}, {"rental_uris": {"ios": "https://dc.lft.to/lastmile_qr_scan", "android": "https://dc.lft.to/lastmile_qr_scan"}, "fusion_lat": 0.0, "name": "152c06f7e8cfa8d3b19355b44552df5b", "bike_id": "152c06f7e8cfa8d3b19355b44552df5b", "is_disabled": 0, "type": "electric_scooter", "lat": 38.928309, "lon": -77.0370905, "is_reserved": 0, "fusion_lon": 0.0}, {"rental_uris": {"ios": "https://dc.lft.to/lastmile_qr_scan", "android": "https://dc.lft.to/lastmile_qr_scan"}, "fusion_lat": 0.0, "name": "e1489be21509da879af8458c25863cd9", "bike_id": "e1489be21509da879af8458c25863cd9", "is_disabled": 0, "type": "electric_scooter", "lat": 38.90576866666667, "lon": -77.03847016666667, "is_reserved": 0, "fusion_lon": 0.0}, {"rental_uris": {"ios": "https://dc.lft.to/lastmile_qr_scan", "android": "https://dc.lft.to/lastmile_qr_scan"}, "fusion_lat": 0.0, "name": "c78f9398804bed22a56d06328e113151", "bike_id": "c78f9398804bed22a56d06328e113151", "is_disabled": 0, "type": "electric_scooter", "lat": 38.93295066666667, "lon": -77.02195916666666, "is_reserved": 0, "fusion_lon": 0.0}, {"rental_uris": {"ios": "https://dc.lft.to/lastmile_qr_scan", "android": "https://dc.lft.to/lastmile_qr_scan"}, "fusion_lat": 0.0, "name": "f70924171c5b4e24a14fe54894e6a19c", "bike_id": "f70924171c5b4e24a14fe54894e6a19c", "is_disabled": 0, "type": "electric_scooter", "lat": 38.864954166666664, "lon": -76.9898895, "is_reserved": 0, "fusion_lon": 0.0}, {"rental_uris": {"ios": "https://dc.lft.to/lastmile_qr_scan", "android": "https://dc.lft.to/lastmile_qr_scan"}, "fusion_lat": 0.0, "name": "f62a401a4ab8fb7d73da4af5972ceb55", "bike_id": "f62a401a4ab8fb7d73da4af5972ceb55", "is_disabled": 0, "type": "electric_scooter", "lat": 38.909844166666666, "lon": -77.03843516666667, "is_reserved": 0, "fusion_lon": 0.0}, {"rental_uris": {"ios": "https://dc.lft.to/lastmile_qr_scan", "android": "https://dc.lft.to/lastmile_qr_scan"}, "fusion_lat": 0.0, "name": "6fbf75c5a4b6e19ccb42117226ef0560", "bike_id": "6fbf75c5a4b6e19ccb42117226ef0560", "is_disabled": 0, "type": "electric_scooter", "lat": 38.9236665, "lon": -77.02530866666666, "is_reserved": 0, "fusion_lon": 0.0}, {"rental_uris": {"ios": "https://dc.lft.to/lastmile_qr_scan", "android": "https://dc.lft.to/lastmile_qr_scan"}, "fusion_lat": 0.0, "name": "673da80a55f1f1b430f787810d34a2d0", "bike_id": "673da80a55f1f1b430f787810d34a2d0", "is_disabled": 0, "type": "electric_scooter", "lat": 38.92094783333334, "lon": -77.03173716666667, "is_reserved": 0, "fusion_lon": 0.0}, {"rental_uris": {"ios": "https://dc.lft.to/lastmile_qr_scan", "android": "https://dc.lft.to/lastmile_qr_scan"}, "fusion_lat": 0.0, "name": "65784a1affa8ec1b744e4d5bb25fcb0e", "bike_id": "65784a1affa8ec1b744e4d5bb25fcb0e", "is_disabled": 0, "type": "electric_bike", "lat": 38.994316166666664, "lon": -77.03154216666667, "is_reserved": 0, "fusion_lon": 0.0}, {"rental_uris": {"ios": "https://dc.lft.to/lastmile_qr_scan", "android": "https://dc.lft.to/lastmile_qr_scan"}, "fusion_lat": 0.0, "name": "02d35682e3eebe7858b1e27e60918766", "bike_id": "02d35682e3eebe7858b1e27e60918766", "is_disabled": 0, "type": "electric_scooter", "lat": 38.9254765, "lon": -77.000732, "is_reserved": 0, "fusion_lon": 0.0}, {"rental_uris": {"ios": "https://dc.lft.to/lastmile_qr_scan", "android": "https://dc.lft.to/lastmile_qr_scan"}, "fusion_lat": 0.0, "name": "0b5e551b6fd5a866fb7f95e494cac205", "bike_id": "0b5e551b6fd5a866fb7f95e494cac205", "is_disabled": 0, "type": "electric_scooter", "lat": 38.899294166666664, "lon": -77.0411025, "is_reserved": 0, "fusion_lon": 0.0}, {"rental_uris": {"ios": "https://dc.lft.to/lastmile_qr_scan", "android": "https://dc.lft.to/lastmile_qr_scan"}, "fusion_lat": 0.0, "name": "ce618fefb7aac50b0141a6ede3a7e7be", "bike_id": "ce618fefb7aac50b0141a6ede3a7e7be", "is_disabled": 0, "type": "electric_bike", "lat": 38.88403233333333, "lon": -76.9606195, "is_reserved": 0, "fusion_lon": 0.0}, {"rental_uris": {"ios": "https://dc.lft.to/lastmile_qr_scan", "android": "https://dc.lft.to/lastmile_qr_scan"}, "fusion_lat": 0.0, "name": "1f0ca325b4459da6709ff13c0ae00ed3", "bike_id": "1f0ca325b4459da6709ff13c0ae00ed3", "is_disabled": 0, "type": "electric_bike", "lat": 38.958893833333335, "lon": -77.05879766666666, "is_reserved": 0, "fusion_lon": 0.0}, {"rental_uris": {"ios": "https://dc.lft.to/lastmile_qr_scan", "android": "https://dc.lft.to/lastmile_qr_scan"}, "fusion_lat": 0.0, "name": "4e241387df8cda65133cb58e51675646", "bike_id": "4e241387df8cda65133cb58e51675646", "is_disabled": 0, "type": "electric_scooter", "lat": 38.90710416666667, "lon": -77.0299175, "is_reserved": 0, "fusion_lon": 0.0}, {"rental_uris": {"ios": "https://dc.lft.to/lastmile_qr_scan", "android": "https://dc.lft.to/lastmile_qr_scan"}, "fusion_lat": 0.0, "name": "1a6bd988d7b97ca0eeaf6bff489596e3", "bike_id": "1a6bd988d7b97ca0eeaf6bff489596e3", "is_disabled": 0, "type": "electric_scooter", "lat": 38.940728666666665, "lon": -76.99028916666667, "is_reserved": 0, "fusion_lon": 0.0}, {"rental_uris": {"ios": "https://dc.lft.to/lastmile_qr_scan", "android": "https://dc.lft.to/lastmile_qr_scan"}, "fusion_lat": 0.0, "name": "77f03ec123e0b224a7412d0167e5ec4f", "bike_id": "77f03ec123e0b224a7412d0167e5ec4f", "is_disabled": 0, "type": "electric_bike", "lat": 38.9367155, "lon": -76.95203233333334, "is_reserved": 0, "fusion_lon": 0.0}, {"rental_uris": {"ios": "https://dc.lft.to/lastmile_qr_scan", "android": "https://dc.lft.to/lastmile_qr_scan"}, "fusion_lat": 0.0, "name": "90c40d2e2c8ca49a02f772e2d6bf73c5", "bike_id": "90c40d2e2c8ca49a02f772e2d6bf73c5", "is_disabled": 0, "type": "electric_scooter", "lat": 38.87288783333333, "lon": -77.009881, "is_reserved": 0, "fusion_lon": 0.0}, {"rental_uris": {"ios": "https://dc.lft.to/lastmile_qr_scan", "android": "https://dc.lft.to/lastmile_qr_scan"}, "fusion_lat": 0.0, "name": "554fdc10a12e06e50f35cf998ea39ba3", "bike_id": "554fdc10a12e06e50f35cf998ea39ba3", "is_disabled": 0, "type": "electric_scooter", "lat": 38.948515, "lon": -77.019458, "is_reserved": 0, "fusion_lon": 0.0}, {"rental_uris": {"ios": "https://dc.lft.to/lastmile_qr_scan", "android": "https://dc.lft.to/lastmile_qr_scan"}, "fusion_lat": 0.0, "name": "326af9c80b3dacdc8a393e52613e0447", "bike_id": "326af9c80b3dacdc8a393e52613e0447", "is_disabled": 0, "type": "electric_bike", "lat": 38.93011283333333, "lon": -77.2164985, "is_reserved": 0, "fusion_lon": 0.0}, {"rental_uris": {"ios": "https://dc.lft.to/lastmile_qr_scan", "android": "https://dc.lft.to/lastmile_qr_scan"}, "fusion_lat": 0.0, "name": "b65504f4b4336ebd2ae2e3c2ef1f7cdd", "bike_id": "b65504f4b4336ebd2ae2e3c2ef1f7cdd", "is_disabled": 0, "type": "electric_scooter", "lat": 38.89898766666666, "lon": -77.039749, "is_reserved": 0, "fusion_lon": 0.0}, {"rental_uris": {"ios": "https://dc.lft.to/lastmile_qr_scan", "android": "https://dc.lft.to/lastmile_qr_scan"}, "fusion_lat": 0.0, "name": "ed65a75789afc438889faf5aaf270bfb", "bike_id": "ed65a75789afc438889faf5aaf270bfb", "is_disabled": 0, "type": "electric_scooter", "lat": 38.9249685, "lon": -77.0215895, "is_reserved": 0, "fusion_lon": 0.0}, {"rental_uris": {"ios": "https://dc.lft.to/lastmile_qr_scan", "android": "https://dc.lft.to/lastmile_qr_scan"}, "fusion_lat": 0.0, "name": "37a2aa214f537ce8bc18ad731d9c86fb", "bike_id": "37a2aa214f537ce8bc18ad731d9c86fb", "is_disabled": 0, "type": "electric_scooter", "lat": 38.94820566666667, "lon": -77.026168, "is_reserved": 0, "fusion_lon": 0.0}, {"rental_uris": {"ios": "https://dc.lft.to/lastmile_qr_scan", "android": "https://dc.lft.to/lastmile_qr_scan"}, "fusion_lat": 0.0, "name": "3be935b0a9cf31059365d401a1abf0e3", "bike_id": "3be935b0a9cf31059365d401a1abf0e3", "is_disabled": 0, "type": "electric_scooter", "lat": 38.90315433333333, "lon": -77.03657816666667, "is_reserved": 0, "fusion_lon": 0.0}, {"rental_uris": {"ios": "https://dc.lft.to/lastmile_qr_scan", "android": "https://dc.lft.to/lastmile_qr_scan"}, "fusion_lat": 0.0, "name": "81b9b3c2d5753073c01493d78497028b", "bike_id": "81b9b3c2d5753073c01493d78497028b", "is_disabled": 0, "type": "electric_bike", "lat": 38.919622833333335, "lon": -76.97261316666666, "is_reserved": 0, "fusion_lon": 0.0}, {"rental_uris": {"ios": "https://dc.lft.to/lastmile_qr_scan", "android": "https://dc.lft.to/lastmile_qr_scan"}, "fusion_lat": 0.0, "name": "28df151ff9cb98d72a9172677a021d7f", "bike_id": "28df151ff9cb98d72a9172677a021d7f", "is_disabled": 0, "type": "electric_bike", "lat": 38.95480966666667, "lon": -76.99015733333333, "is_reserved": 0, "fusion_lon": 0.0}, {"rental_uris": {"ios": "https://dc.lft.to/lastmile_qr_scan", "android": "https://dc.lft.to/lastmile_qr_scan"}, "fusion_lat": 0.0, "name": "01dc06dd028c992160ccaf8b392881f9", "bike_id": "01dc06dd028c992160ccaf8b392881f9", "is_disabled": 0, "type": "electric_bike", "lat": 38.89397366666667, "lon": -76.9480375, "is_reserved": 0, "fusion_lon": 0.0}, {"rental_uris": {"ios": "https://dc.lft.to/lastmile_qr_scan", "android": "https://dc.lft.to/lastmile_qr_scan"}, "fusion_lat": 0.0, "name": "fdc7c1f1bbb7cea7a782aaae767bd34e", "bike_id": "fdc7c1f1bbb7cea7a782aaae767bd34e", "is_disabled": 0, "type": "electric_bike", "lat": 38.9451285, "lon": -77.00681116666667, "is_reserved": 0, "fusion_lon": 0.0}, {"rental_uris": {"ios": "https://dc.lft.to/lastmile_qr_scan", "android": "https://dc.lft.to/lastmile_qr_scan"}, "fusion_lat": 0.0, "name": "782066e013d24245ef819b7491929b48", "bike_id": "782066e013d24245ef819b7491929b48", "is_disabled": 0, "type": "electric_scooter", "lat": 38.871806666666664, "lon": -77.006093, "is_reserved": 0, "fusion_lon": 0.0}, {"rental_uris": {"ios": "https://dc.lft.to/lastmile_qr_scan", "android": "https://dc.lft.to/lastmile_qr_scan"}, "fusion_lat": 0.0, "name": "9b50b640cf928b09b6d112c1ccc93c62", "bike_id": "9b50b640cf928b09b6d112c1ccc93c62", "is_disabled": 0, "type": "electric_scooter", "lat": 38.867515166666664, "lon": -77.03856783333333, "is_reserved": 0, "fusion_lon": 0.0}, {"rental_uris": {"ios": "https://dc.lft.to/lastmile_qr_scan", "android": "https://dc.lft.to/lastmile_qr_scan"}, "fusion_lat": 0.0, "name": "db33c96b50a9c152505691a10612499a", "bike_id": "db33c96b50a9c152505691a10612499a", "is_disabled": 0, "type": "electric_scooter", "lat": 38.91707983333333, "lon": -77.03213433333333, "is_reserved": 0, "fusion_lon": 0.0}, {"rental_uris": {"ios": "https://dc.lft.to/lastmile_qr_scan", "android": "https://dc.lft.to/lastmile_qr_scan"}, "fusion_lat": 0.0, "name": "0655c64b7853e40411b701f8520d4136", "bike_id": "0655c64b7853e40411b701f8520d4136", "is_disabled": 0, "type": "electric_scooter", "lat": 38.90398883333334, "lon": -77.02184283333334, "is_reserved": 0, "fusion_lon": 0.0}, {"rental_uris": {"ios": "https://dc.lft.to/lastmile_qr_scan", "android": "https://dc.lft.to/lastmile_qr_scan"}, "fusion_lat": 0.0, "name": "90a339fedf05b9f58868556d3b50d81b", "bike_id": "90a339fedf05b9f58868556d3b50d81b", "is_disabled": 0, "type": "electric_scooter", "lat": 38.912511333333335, "lon": -77.0444155, "is_reserved": 0, "fusion_lon": 0.0}, {"rental_uris": {"ios": "https://dc.lft.to/lastmile_qr_scan", "android": "https://dc.lft.to/lastmile_qr_scan"}, "fusion_lat": 0.0, "name": "b0d9e5d981c33dd0ec8d92aee4c78e10", "bike_id": "b0d9e5d981c33dd0ec8d92aee4c78e10", "is_disabled": 0, "type": "electric_bike", "lat": 38.882448333333336, "lon": -76.96261416666667, "is_reserved": 0, "fusion_lon": 0.0}, {"rental_uris": {"ios": "https://dc.lft.to/lastmile_qr_scan", "android": "https://dc.lft.to/lastmile_qr_scan"}, "fusion_lat": 0.0, "name": "1cf7f57dbb49459750acc341680c7263", "bike_id": "1cf7f57dbb49459750acc341680c7263", "is_disabled": 0, "type": "electric_scooter", "lat": 38.9072965, "lon": -77.034281, "is_reserved": 0, "fusion_lon": 0.0}, {"rental_uris": {"ios": "https://dc.lft.to/lastmile_qr_scan", "android": "https://dc.lft.to/lastmile_qr_scan"}, "fusion_lat": 0.0, "name": "14a2a2d4571e4da9dce48bd7a5a26567", "bike_id": "14a2a2d4571e4da9dce48bd7a5a26567", "is_disabled": 0, "type": "electric_scooter", "lat": 38.9124725, "lon": -77.022295, "is_reserved": 0, "fusion_lon": 0.0}, {"rental_uris": {"ios": "https://dc.lft.to/lastmile_qr_scan", "android": "https://dc.lft.to/lastmile_qr_scan"}, "fusion_lat": 0.0, "name": "d96bd74abbcac89d7d04a3720afea1aa", "bike_id": "d96bd74abbcac89d7d04a3720afea1aa", "is_disabled": 0, "type": "electric_scooter", "lat": 38.90744133333333, "lon": -76.98340683333333, "is_reserved": 0, "fusion_lon": 0.0}, {"rental_uris": {"ios": "https://dc.lft.to/lastmile_qr_scan", "android": "https://dc.lft.to/lastmile_qr_scan"}, "fusion_lat": 0.0, "name": "0abc5eac59b9512addad7798c6740bb0", "bike_id": "0abc5eac59b9512addad7798c6740bb0", "is_disabled": 0, "type": "electric_bike", "lat": 38.8706695, "lon": -76.97832366666667, "is_reserved": 0, "fusion_lon": 0.0}, {"rental_uris": {"ios": "https://dc.lft.to/lastmile_qr_scan", "android": "https://dc.lft.to/lastmile_qr_scan"}, "fusion_lat": 0.0, "name": "5e128cb4bf3d34768682843a406ef1b8", "bike_id": "5e128cb4bf3d34768682843a406ef1b8", "is_disabled": 0, "type": "electric_scooter", "lat": 38.9037225, "lon": -77.03203083333334, "is_reserved": 0, "fusion_lon": 0.0}, {"rental_uris": {"ios": "https://dc.lft.to/lastmile_qr_scan", "android": "https://dc.lft.to/lastmile_qr_scan"}, "fusion_lat": 0.0, "name": "3f98565819f5782a238bdee2711ccdde", "bike_id": "3f98565819f5782a238bdee2711ccdde", "is_disabled": 0, "type": "electric_scooter", "lat": 38.910719, "lon": -77.04395283333334, "is_reserved": 0, "fusion_lon": 0.0}, {"rental_uris": {"ios": "https://dc.lft.to/lastmile_qr_scan", "android": "https://dc.lft.to/lastmile_qr_scan"}, "fusion_lat": 0.0, "name": "22fcc3172720f34e39583fc3c6d0d3cf", "bike_id": "22fcc3172720f34e39583fc3c6d0d3cf", "is_disabled": 0, "type": "electric_scooter", "lat": 38.886511166666665, "lon": -77.02157233333334, "is_reserved": 0, "fusion_lon": 0.0}, {"rental_uris": {"ios": "https://dc.lft.to/lastmile_qr_scan", "android": "https://dc.lft.to/lastmile_qr_scan"}, "fusion_lat": 0.0, "name": "f54f714a7a0acf17b488f701d1b66de4", "bike_id": "f54f714a7a0acf17b488f701d1b66de4", "is_disabled": 0, "type": "electric_scooter", "lat": 38.93026, "lon": -77.0378775, "is_reserved": 0, "fusion_lon": 0.0}, {"rental_uris": {"ios": "https://dc.lft.to/lastmile_qr_scan", "android": "https://dc.lft.to/lastmile_qr_scan"}, "fusion_lat": 0.0, "name": "8b7aafa44d20ef375ffa059331e02c50", "bike_id": "8b7aafa44d20ef375ffa059331e02c50", "is_disabled": 0, "type": "electric_bike", "lat": 38.84843816666667, "lon": -77.09843133333334, "is_reserved": 0, "fusion_lon": 0.0}, {"rental_uris": {"ios": "https://dc.lft.to/lastmile_qr_scan", "android": "https://dc.lft.to/lastmile_qr_scan"}, "fusion_lat": 0.0, "name": "d8abbcdb41e1a731140eea9280afedf8", "bike_id": "d8abbcdb41e1a731140eea9280afedf8", "is_disabled": 0, "type": "electric_scooter", "lat": 38.90562716666667, "lon": -77.0344975, "is_reserved": 0, "fusion_lon": 0.0}, {"rental_uris": {"ios": "https://dc.lft.to/lastmile_qr_scan", "android": "https://dc.lft.to/lastmile_qr_scan"}, "fusion_lat": 0.0, "name": "79a998abad9b6c966906088ba85b5c37", "bike_id": "79a998abad9b6c966906088ba85b5c37", "is_disabled": 0, "type": "electric_scooter", "lat": 38.934123166666666, "lon": -77.04158366666667, "is_reserved": 0, "fusion_lon": 0.0}, {"rental_uris": {"ios": "https://dc.lft.to/lastmile_qr_scan", "android": "https://dc.lft.to/lastmile_qr_scan"}, "fusion_lat": 0.0, "name": "f7753189706ef8b84f03cf5fd1f8b858", "bike_id": "f7753189706ef8b84f03cf5fd1f8b858", "is_disabled": 0, "type": "electric_scooter", "lat": 38.938841333333336, "lon": -77.0248645, "is_reserved": 0, "fusion_lon": 0.0}, {"rental_uris": {"ios": "https://dc.lft.to/lastmile_qr_scan", "android": "https://dc.lft.to/lastmile_qr_scan"}, "fusion_lat": 0.0, "name": "81c0aabf9e34523697123496affde320", "bike_id": "81c0aabf9e34523697123496affde320", "is_disabled": 0, "type": "electric_scooter", "lat": 38.90162383333333, "lon": -77.0272835, "is_reserved": 0, "fusion_lon": 0.0}, {"rental_uris": {"ios": "https://dc.lft.to/lastmile_qr_scan", "android": "https://dc.lft.to/lastmile_qr_scan"}, "fusion_lat": 0.0, "name": "b70299ff81bf9ddf43bbbd46fd6beedd", "bike_id": "b70299ff81bf9ddf43bbbd46fd6beedd", "is_disabled": 0, "type": "electric_bike", "lat": 38.966882, "lon": -77.0883855, "is_reserved": 0, "fusion_lon": 0.0}, {"rental_uris": {"ios": "https://dc.lft.to/lastmile_qr_scan", "android": "https://dc.lft.to/lastmile_qr_scan"}, "fusion_lat": 0.0, "name": "298c1c3c3153ebcc3c6cea4b3e840c99", "bike_id": "298c1c3c3153ebcc3c6cea4b3e840c99", "is_disabled": 0, "type": "electric_scooter", "lat": 38.916778666666666, "lon": -77.03690733333333, "is_reserved": 0, "fusion_lon": 0.0}, {"rental_uris": {"ios": "https://dc.lft.to/lastmile_qr_scan", "android": "https://dc.lft.to/lastmile_qr_scan"}, "fusion_lat": 0.0, "name": "c5490d11fa06d5d9b675ad761845249d", "bike_id": "c5490d11fa06d5d9b675ad761845249d", "is_disabled": 0, "type": "electric_bike", "lat": 38.85605316666667, "lon": -77.11244766666667, "is_reserved": 0, "fusion_lon": 0.0}, {"rental_uris": {"ios": "https://dc.lft.to/lastmile_qr_scan", "android": "https://dc.lft.to/lastmile_qr_scan"}, "fusion_lat": 0.0, "name": "db5716a3831c8471710674d1adc5b7ae", "bike_id": "db5716a3831c8471710674d1adc5b7ae", "is_disabled": 0, "type": "electric_bike", "lat": 38.911343, "lon": -76.98808416666667, "is_reserved": 0, "fusion_lon": 0.0}, {"rental_uris": {"ios": "https://dc.lft.to/lastmile_qr_scan", "android": "https://dc.lft.to/lastmile_qr_scan"}, "fusion_lat": 0.0, "name": "f74d45fc3442ea00ece54f093cbb36c9", "bike_id": "f74d45fc3442ea00ece54f093cbb36c9", "is_disabled": 0, "type": "electric_scooter", "lat": 38.919013166666666, "lon": -77.021352, "is_reserved": 0, "fusion_lon": 0.0}, {"rental_uris": {"ios": "https://dc.lft.to/lastmile_qr_scan", "android": "https://dc.lft.to/lastmile_qr_scan"}, "fusion_lat": 0.0, "name": "5a1cbcea05c96c87d1ef75442927c59e", "bike_id": "5a1cbcea05c96c87d1ef75442927c59e", "is_disabled": 0, "type": "electric_scooter", "lat": 38.911190833333336, "lon": -77.02699433333333, "is_reserved": 0, "fusion_lon": 0.0}, {"rental_uris": {"ios": "https://dc.lft.to/lastmile_qr_scan", "android": "https://dc.lft.to/lastmile_qr_scan"}, "fusion_lat": 0.0, "name": "648e299920488353be5667098da662b5", "bike_id": "648e299920488353be5667098da662b5", "is_disabled": 0, "type": "electric_scooter", "lat": 38.84075566666667, "lon": -76.989282, "is_reserved": 0, "fusion_lon": 0.0}, {"rental_uris": {"ios": "https://dc.lft.to/lastmile_qr_scan", "android": "https://dc.lft.to/lastmile_qr_scan"}, "fusion_lat": 0.0, "name": "da6e3edc918e1bc6fc04b04a333cb10c", "bike_id": "da6e3edc918e1bc6fc04b04a333cb10c", "is_disabled": 0, "type": "electric_scooter", "lat": 38.892206, "lon": -77.0433245, "is_reserved": 0, "fusion_lon": 0.0}, {"rental_uris": {"ios": "https://dc.lft.to/lastmile_qr_scan", "android": "https://dc.lft.to/lastmile_qr_scan"}, "fusion_lat": 0.0, "name": "7f5517c7164005e15cb742f6f4f77a4b", "bike_id": "7f5517c7164005e15cb742f6f4f77a4b", "is_disabled": 0, "type": "electric_scooter", "lat": 38.912736333333335, "lon": -77.02219533333333, "is_reserved": 0, "fusion_lon": 0.0}, {"rental_uris": {"ios": "https://dc.lft.to/lastmile_qr_scan", "android": "https://dc.lft.to/lastmile_qr_scan"}, "fusion_lat": 0.0, "name": "dd9b851d34b8151bb84bb5dada8389e9", "bike_id": "dd9b851d34b8151bb84bb5dada8389e9", "is_disabled": 0, "type": "electric_scooter", "lat": 38.89688866666667, "lon": -77.02778733333334, "is_reserved": 0, "fusion_lon": 0.0}, {"rental_uris": {"ios": "https://dc.lft.to/lastmile_qr_scan", "android": "https://dc.lft.to/lastmile_qr_scan"}, "fusion_lat": 0.0, "name": "3f4e24130777e1efe1493e1fb126b5bc", "bike_id": "3f4e24130777e1efe1493e1fb126b5bc", "is_disabled": 0, "type": "electric_scooter", "lat": 38.918954, "lon": -77.02472483333334, "is_reserved": 0, "fusion_lon": 0.0}, {"rental_uris": {"ios": "https://dc.lft.to/lastmile_qr_scan", "android": "https://dc.lft.to/lastmile_qr_scan"}, "fusion_lat": 0.0, "name": "05862434f3074beb95ec581721cb5bde", "bike_id": "05862434f3074beb95ec581721cb5bde", "is_disabled": 0, "type": "electric_scooter", "lat": 38.892226, "lon": -77.03343233333334, "is_reserved": 0, "fusion_lon": 0.0}, {"rental_uris": {"ios": "https://dc.lft.to/lastmile_qr_scan", "android": "https://dc.lft.to/lastmile_qr_scan"}, "fusion_lat": 0.0, "name": "3a6a46e201e2c8a2cb203e6be3a9f38a", "bike_id": "3a6a46e201e2c8a2cb203e6be3a9f38a", "is_disabled": 0, "type": "electric_scooter", "lat": 38.94958366666667, "lon": -77.0272525, "is_reserved": 0, "fusion_lon": 0.0}, {"rental_uris": {"ios": "https://dc.lft.to/lastmile_qr_scan", "android": "https://dc.lft.to/lastmile_qr_scan"}, "fusion_lat": 0.0, "name": "35a841cbf0173ac2ea2eb3b70e078f53", "bike_id": "35a841cbf0173ac2ea2eb3b70e078f53", "is_disabled": 0, "type": "electric_scooter", "lat": 38.8922075, "lon": -77.01372133333334, "is_reserved": 0, "fusion_lon": 0.0}, {"rental_uris": {"ios": "https://dc.lft.to/lastmile_qr_scan", "android": "https://dc.lft.to/lastmile_qr_scan"}, "fusion_lat": 0.0, "name": "9380acf97b81ac0cc13813208ff641ce", "bike_id": "9380acf97b81ac0cc13813208ff641ce", "is_disabled": 0, "type": "electric_scooter", "lat": 38.9516785, "lon": -77.02749983333334, "is_reserved": 0, "fusion_lon": 0.0}, {"rental_uris": {"ios": "https://dc.lft.to/lastmile_qr_scan", "android": "https://dc.lft.to/lastmile_qr_scan"}, "fusion_lat": 0.0, "name": "f15e88662844f0726d5ca7fd66948187", "bike_id": "f15e88662844f0726d5ca7fd66948187", "is_disabled": 0, "type": "electric_scooter", "lat": 38.91558883333333, "lon": -77.0386465, "is_reserved": 0, "fusion_lon": 0.0}, {"rental_uris": {"ios": "https://dc.lft.to/lastmile_qr_scan", "android": "https://dc.lft.to/lastmile_qr_scan"}, "fusion_lat": 0.0, "name": "0d514d280e999eda264dfbbcd030d198", "bike_id": "0d514d280e999eda264dfbbcd030d198", "is_disabled": 0, "type": "electric_scooter", "lat": 38.91706383333333, "lon": -77.03730916666666, "is_reserved": 0, "fusion_lon": 0.0}, {"rental_uris": {"ios": "https://dc.lft.to/lastmile_qr_scan", "android": "https://dc.lft.to/lastmile_qr_scan"}, "fusion_lat": 0.0, "name": "e5a93f45b2767a6b4073218bd7c8fde4", "bike_id": "e5a93f45b2767a6b4073218bd7c8fde4", "is_disabled": 0, "type": "electric_scooter", "lat": 38.90734033333333, "lon": -77.02719466666667, "is_reserved": 0, "fusion_lon": 0.0}, {"rental_uris": {"ios": "https://dc.lft.to/lastmile_qr_scan", "android": "https://dc.lft.to/lastmile_qr_scan"}, "fusion_lat": 0.0, "name": "867335cf17f53ad807f6bb0a97a36323", "bike_id": "867335cf17f53ad807f6bb0a97a36323", "is_disabled": 0, "type": "electric_scooter", "lat": 38.91219566666667, "lon": -77.0411315, "is_reserved": 0, "fusion_lon": 0.0}, {"rental_uris": {"ios": "https://dc.lft.to/lastmile_qr_scan", "android": "https://dc.lft.to/lastmile_qr_scan"}, "fusion_lat": 0.0, "name": "dd1da974bd529592f7dab1528e349090", "bike_id": "dd1da974bd529592f7dab1528e349090", "is_disabled": 0, "type": "electric_scooter", "lat": 38.89922416666667, "lon": -77.03336283333333, "is_reserved": 0, "fusion_lon": 0.0}, {"rental_uris": {"ios": "https://dc.lft.to/lastmile_qr_scan", "android": "https://dc.lft.to/lastmile_qr_scan"}, "fusion_lat": 0.0, "name": "52efb334b70797c0196d92fcb32664a1", "bike_id": "52efb334b70797c0196d92fcb32664a1", "is_disabled": 0, "type": "electric_scooter", "lat": 38.892306166666664, "lon": -77.02803233333333, "is_reserved": 0, "fusion_lon": 0.0}, {"rental_uris": {"ios": "https://dc.lft.to/lastmile_qr_scan", "android": "https://dc.lft.to/lastmile_qr_scan"}, "fusion_lat": 0.0, "name": "217d252a333dc03942fbcb704b157215", "bike_id": "217d252a333dc03942fbcb704b157215", "is_disabled": 0, "type": "electric_scooter", "lat": 38.9156745, "lon": -77.02005716666666, "is_reserved": 0, "fusion_lon": 0.0}, {"rental_uris": {"ios": "https://dc.lft.to/lastmile_qr_scan", "android": "https://dc.lft.to/lastmile_qr_scan"}, "fusion_lat": 0.0, "name": "cff95402a03d30a7f97ed05586864371", "bike_id": "cff95402a03d30a7f97ed05586864371", "is_disabled": 0, "type": "electric_scooter", "lat": 38.92159266666667, "lon": -77.04026, "is_reserved": 0, "fusion_lon": 0.0}, {"rental_uris": {"ios": "https://dc.lft.to/lastmile_qr_scan", "android": "https://dc.lft.to/lastmile_qr_scan"}, "fusion_lat": 0.0, "name": "5b48b6ed6c4fed4bebaef7dabbba3444", "bike_id": "5b48b6ed6c4fed4bebaef7dabbba3444", "is_disabled": 0, "type": "electric_scooter", "lat": 38.918158, "lon": -77.04512733333334, "is_reserved": 0, "fusion_lon": 0.0}, {"rental_uris": {"ios": "https://dc.lft.to/lastmile_qr_scan", "android": "https://dc.lft.to/lastmile_qr_scan"}, "fusion_lat": 0.0, "name": "c6655f1d92045fa567f894b011d06cdb", "bike_id": "c6655f1d92045fa567f894b011d06cdb", "is_disabled": 0, "type": "electric_scooter", "lat": 38.906646333333335, "lon": -77.0272425, "is_reserved": 0, "fusion_lon": 0.0}, {"rental_uris": {"ios": "https://dc.lft.to/lastmile_qr_scan", "android": "https://dc.lft.to/lastmile_qr_scan"}, "fusion_lat": 0.0, "name": "b43f272e5e645f47c8ef575820ca9050", "bike_id": "b43f272e5e645f47c8ef575820ca9050", "is_disabled": 0, "type": "electric_scooter", "lat": 38.89221383333334, "lon": -77.02775783333334, "is_reserved": 0, "fusion_lon": 0.0}, {"rental_uris": {"ios": "https://dc.lft.to/lastmile_qr_scan", "android": "https://dc.lft.to/lastmile_qr_scan"}, "fusion_lat": 0.0, "name": "7e2eb49e463dde8e899520fecc29fe09", "bike_id": "7e2eb49e463dde8e899520fecc29fe09", "is_disabled": 0, "type": "electric_scooter", "lat": 38.88757783333333, "lon": -77.03358983333334, "is_reserved": 0, "fusion_lon": 0.0}, {"rental_uris": {"ios": "https://dc.lft.to/lastmile_qr_scan", "android": "https://dc.lft.to/lastmile_qr_scan"}, "fusion_lat": 0.0, "name": "55b86212a2618f5ca54595c4a839fdcc", "bike_id": "55b86212a2618f5ca54595c4a839fdcc", "is_disabled": 0, "type": "electric_scooter", "lat": 38.92113283333333, "lon": -77.0438095, "is_reserved": 0, "fusion_lon": 0.0}, {"rental_uris": {"ios": "https://dc.lft.to/lastmile_qr_scan", "android": "https://dc.lft.to/lastmile_qr_scan"}, "fusion_lat": 0.0, "name": "876f413b387aa5b5ed72bc7207fa4b84", "bike_id": "876f413b387aa5b5ed72bc7207fa4b84", "is_disabled": 0, "type": "electric_scooter", "lat": 38.932436, "lon": -77.0385095, "is_reserved": 0, "fusion_lon": 0.0}, {"rental_uris": {"ios": "https://dc.lft.to/lastmile_qr_scan", "android": "https://dc.lft.to/lastmile_qr_scan"}, "fusion_lat": 0.0, "name": "0058cd32655bc70218058ec8e0a3b4ea", "bike_id": "0058cd32655bc70218058ec8e0a3b4ea", "is_disabled": 0, "type": "electric_scooter", "lat": 38.87384766666667, "lon": -76.96607333333333, "is_reserved": 0, "fusion_lon": 0.0}, {"rental_uris": {"ios": "https://dc.lft.to/lastmile_qr_scan", "android": "https://dc.lft.to/lastmile_qr_scan"}, "fusion_lat": 0.0, "name": "09fc16009389c3f75fd2693a6b22da33", "bike_id": "09fc16009389c3f75fd2693a6b22da33", "is_disabled": 0, "type": "electric_scooter", "lat": 38.892419833333335, "lon": -77.04659083333334, "is_reserved": 0, "fusion_lon": 0.0}, {"rental_uris": {"ios": "https://dc.lft.to/lastmile_qr_scan", "android": "https://dc.lft.to/lastmile_qr_scan"}, "fusion_lat": 0.0, "name": "391bfe6546222ce2cd0e3a6ce400a648", "bike_id": "391bfe6546222ce2cd0e3a6ce400a648", "is_disabled": 0, "type": "electric_scooter", "lat": 38.90792016666666, "lon": -77.03195866666667, "is_reserved": 0, "fusion_lon": 0.0}, {"rental_uris": {"ios": "https://dc.lft.to/lastmile_qr_scan", "android": "https://dc.lft.to/lastmile_qr_scan"},