{"data": {"bikes": [{"is_disabled": 0, "type": "electric_scooter", "is_reserved": 0, "lat": 38.9041105, "rental_uris": {"ios": "https://dc.lft.to/lastmile_qr_scan", "android": "https://dc.lft.to/lastmile_qr_scan"}, "fusion_lon": 0.0, "fusion_lat": 0.0, "bike_id": "e5ba8c0d750e9cdfc9aee3a1db68e59a", "name": "e5ba8c0d750e9cdfc9aee3a1db68e59a", "lon": -77.04344416666666}, {"is_disabled": 0, "type": "electric_scooter", "is_reserved": 0, "lat": 38.941819, "rental_uris": {"ios": "https://dc.lft.to/lastmile_qr_scan", "android": "https://dc.lft.to/lastmile_qr_scan"}, "fusion_lon": 0.0, "fusion_lat": 0.0, "bike_id": "74a3cc2ae704b25fec5efcb16868eccd", "name": "74a3cc2ae704b25fec5efcb16868eccd", "lon": -77.0249445}, {"is_disabled": 0, "type": "electric_scooter", "is_reserved": 0, "lat": 38.9171305, "rental_uris": {"ios": "https://dc.lft.to/lastmile_qr_scan", "android": "https://dc.lft.to/lastmile_qr_scan"}, "fusion_lon": 0.0, "fusion_lat": 0.0, "bike_id": "33d920f97f4404c634c8da77f3c2c948", "name": "33d920f97f4404c634c8da77f3c2c948", "lon": -77.02900833333334}, {"is_disabled": 0, "type": "electric_scooter", "is_reserved": 0, "lat": 38.8620455, "rental_uris": {"ios": "https://dc.lft.to/lastmile_qr_scan", "android": "https://dc.lft.to/lastmile_qr_scan"}, "fusion_lon": 0.0, "fusion_lat": 0.0, "bike_id": "b3ca26e19157b1b046e74a9013ce28b9", "name": "b3ca26e19157b1b046e74a9013ce28b9", "lon": -76.99126316666667}, {"is_disabled": 0, "type": "electric_scooter", "is_reserved": 0, "lat": 38.90382283333334, "rental_uris": {"ios": "https://dc.lft.to/lastmile_qr_scan", "android": "https://dc.lft.to/lastmile_qr_scan"}, "fusion_lon": 0.0, "fusion_lat": 0.0, "bike_id": "02cf8c3ef846103fd83508cbc9aca2ca", "name": "02cf8c3ef846103fd83508cbc9aca2ca", "lon": -77.03297083333334}, {"is_disabled": 0, "type": "electric_scooter", "is_reserved": 0, "lat": 38.917095, "rental_uris": {"ios": "https://dc.lft.to/lastmile_qr_scan", "android": "https://dc.lft.to/lastmile_qr_scan"}, "fusion_lon": 0.0, "fusion_lat": 0.0, "bike_id": "0f499ab04da3c96c0a0c39c2c872cb15", "name": "0f499ab04da3c96c0a0c39c2c872cb15", "lon": -77.01031}, {"is_disabled": 0, "type": "electric_scooter", "is_reserved": 0, "lat": 38.90971716666667, "rental_uris": {"ios": "https://dc.lft.to/lastmile_qr_scan", "android": "https://dc.lft.to/lastmile_qr_scan"}, "fusion_lon": 0.0, "fusion_lat": 0.0, "bike_id": "f590ec47197e4cc308ee8de0adc5d05f", "name": "f590ec47197e4cc308ee8de0adc5d05f", "lon": -77.03440783333333}, {"is_disabled": 0, "type": "electric_scooter", "is_reserved": 0, "lat": 38.873128, "rental_uris": {"ios": "https://dc.lft.to/lastmile_qr_scan", "android": "https://dc.lft.to/lastmile_qr_scan"}, "fusion_lon": 0.0, "fusion_lat": 0.0, "bike_id": "61d6cd2f93f450a007826459da173a5e", "name": "61d6cd2f93f450a007826459da173a5e", "lon": -77.00573733333333}, {"is_disabled": 0, "type": "electric_bike", "is_reserved": 0, "lat": 38.928627, "rental_uris": {"ios": "https://dc.lft.to/lastmile_qr_scan", "android": "https://dc.lft.to/lastmile_qr_scan"}, "fusion_lon": 0.0, "fusion_lat": 0.0, "bike_id": "923f677295f1d22ca850c213fda76528", "name": "923f677295f1d22ca850c213fda76528", "lon": -77.0566315}, {"is_disabled": 0, "type": "electric_scooter", "is_reserved": 0, "lat": 38.947121333333335, "rental_uris": {"ios": "https://dc.lft.to/lastmile_qr_scan", "android": "https://dc.lft.to/lastmile_qr_scan"}, "fusion_lon": 0.0, "fusion_lat": 0.0, "bike_id": "6030b6893764c3a9d5b9c877e65a0ba8", "name": "6030b6893764c3a9d5b9c877e65a0ba8", "lon": -77.032945}, {"is_disabled": 0, "type": "electric_scooter", "is_reserved": 0, "lat": 38.89854783333333, "rental_uris": {"ios": "https://dc.lft.to/lastmile_qr_scan", "android": "https://dc.lft.to/lastmile_qr_scan"}, "fusion_lon": 0.0, "fusion_lat": 0.0, "bike_id": "3465667b29bfe0b007fc85d9419c4deb", "name": "3465667b29bfe0b007fc85d9419c4deb", "lon": -77.0290685}, {"is_disabled": 0, "type": "electric_scooter", "is_reserved": 0, "lat": 38.91042733333333, "rental_uris": {"ios": "https://dc.lft.to/lastmile_qr_scan", "android": "https://dc.lft.to/lastmile_qr_scan"}, "fusion_lon": 0.0, "fusion_lat": 0.0, "bike_id": "8d53320417b30468de950e6d64e01a23", "name": "8d53320417b30468de950e6d64e01a23", "lon": -77.04348366666666}, {"is_disabled": 0, "type": "electric_scooter", "is_reserved": 0, "lat": 38.902600666666665, "rental_uris": {"ios": "https://dc.lft.to/lastmile_qr_scan", "android": "https://dc.lft.to/lastmile_qr_scan"}, "fusion_lon": 0.0, "fusion_lat": 0.0, "bike_id": "0dc8be049b08657fb2c5ce2c6c158bec", "name": "0dc8be049b08657fb2c5ce2c6c158bec", "lon": -77.034718}, {"is_disabled": 0, "type": "electric_scooter", "is_reserved": 0, "lat": 38.921563666666664, "rental_uris": {"ios": "https://dc.lft.to/lastmile_qr_scan", "android": "https://dc.lft.to/lastmile_qr_scan"}, "fusion_lon": 0.0, "fusion_lat": 0.0, "bike_id": "be14a88e6a6f64f82dbffc555bc72a5b", "name": "be14a88e6a6f64f82dbffc555bc72a5b", "lon": -77.033164}, {"is_disabled": 0, "type": "electric_scooter", "is_reserved": 0, "lat": 38.892900833333336, "rental_uris": {"ios": "https://dc.lft.to/lastmile_qr_scan", "android": "https://dc.lft.to/lastmile_qr_scan"}, "fusion_lon": 0.0, "fusion_lat": 0.0, "bike_id": "ea9461b3a01cf013d6a32d21362e65e3", "name": "ea9461b3a01cf013d6a32d21362e65e3", "lon": -77.0418345}, {"is_disabled": 0, "type": "electric_scooter", "is_reserved": 0, "lat": 38.91543883333333, "rental_uris": {"ios": "https://dc.lft.to/lastmile_qr_scan", "android": "https://dc.lft.to/lastmile_qr_scan"}, "fusion_lon": 0.0, "fusion_lat": 0.0, "bike_id": "602479ff6f52bbaccae7e27c4f6011c2", "name": "602479ff6f52bbaccae7e27c4f6011c2", "lon": -77.01187633333333}, {"is_disabled": 0, "type": "electric_scooter", "is_reserved": 0, "lat": 38.86696633333333, "rental_uris": {"ios": "https://dc.lft.to/lastmile_qr_scan", "android": "https://dc.lft.to/lastmile_qr_scan"}, "fusion_lon": 0.0, "fusion_lat": 0.0, "bike_id": "fd32b3e7bb5c43c74894a44787b6eaff", "name": "fd32b3e7bb5c43c74894a44787b6eaff", "lon": -76.98717583333334}, {"is_disabled": 0, "type": "electric_scooter", "is_reserved": 0, "lat": 38.930631, "rental_uris": {"ios": "https://dc.lft.to/lastmile_qr_scan", "android": "https://dc.lft.to/lastmile_qr_scan"}, "fusion_lon": 0.0, "fusion_lat": 0.0, "bike_id": "b99398554f7676ca0aa232bdaa26610f", "name": "b99398554f7676ca0aa232bdaa26610f", "lon": -77.0319475}, {"is_disabled": 0, "type": "electric_scooter", "is_reserved": 0, "lat": 38.92819633333333, "rental_uris": {"ios": "https://dc.lft.to/lastmile_qr_scan", "android": "https://dc.lft.to/lastmile_qr_scan"}, "fusion_lon": 0.0, "fusion_lat": 0.0, "bike_id": "307b63be698ab1a38ec7bb803089c2ea", "name": "307b63be698ab1a38ec7bb803089c2ea", "lon": -77.053935}, {"is_disabled": 0, "type": "electric_scooter", "is_reserved": 0, "lat": 38.892207666666664, "rental_uris": {"ios": "https://dc.lft.to/lastmile_qr_scan", "android": "https://dc.lft.to/lastmile_qr_scan"}, "fusion_lon": 0.0, "fusion_lat": 0.0, "bike_id": "1363af25836826869ce50d29694adc0e", "name": "1363af25836826869ce50d29694adc0e", "lon": -77.02374283333333}, {"is_disabled": 0, "type": "electric_scooter", "is_reserved": 0, "lat": 38.91183, "rental_uris": {"ios": "https://dc.lft.to/lastmile_qr_scan", "android": "https://dc.lft.to/lastmile_qr_scan"}, "fusion_lon": 0.0, "fusion_lat": 0.0, "bike_id": "4d8819a9f20ac9175a5cee64e3f7982b", "name": "4d8819a9f20ac9175a5cee64e3f7982b", "lon": -77.00227866666667}, {"is_disabled": 0, "type": "electric_scooter", "is_reserved": 0, "lat": 38.94623283333333, "rental_uris": {"ios": "https://dc.lft.to/lastmile_qr_scan", "android": "https://dc.lft.to/lastmile_qr_scan"}, "fusion_lon": 0.0, "fusion_lat": 0.0, "bike_id": "feb5c4335cb6b09a4903faac10e1a51f", "name": "feb5c4335cb6b09a4903faac10e1a51f", "lon": -77.02517366666666}, {"is_disabled": 0, "type": "electric_scooter", "is_reserved": 0, "lat": 38.8920655, "rental_uris": {"ios": "https://dc.lft.to/lastmile_qr_scan", "android": "https://dc.lft.to/lastmile_qr_scan"}, "fusion_lon": 0.0, "fusion_lat": 0.0, "bike_id": "01539b27d07a16dec55629eba6ddd950", "name": "01539b27d07a16dec55629eba6ddd950", "lon": -76.95363016666667}, {"is_disabled": 0, "type": "electric_scooter", "is_reserved": 0, "lat": 38.8874315, "rental_uris": {"ios": "https://dc.lft.to/lastmile_qr_scan", "android": "https://dc.lft.to/lastmile_qr_scan"}, "fusion_lon": 0.0, "fusion_lat": 0.0, "bike_id": "139d8b67b4c42b2347fbcfdcd62e3e6e", "name": "139d8b67b4c42b2347fbcfdcd62e3e6e", "lon": -77.02848933333334}, {"is_disabled": 0, "type": "electric_bike", "is_reserved": 0, "lat": 38.8022935, "rental_uris": {"ios": "https://dc.lft.to/lastmile_qr_scan", "android": "https://dc.lft.to/lastmile_qr_scan"}, "fusion_lon": 0.0, "fusion_lat": 0.0, "bike_id": "44ffa4b1356688128e6175c41915d076", "name": "44ffa4b1356688128e6175c41915d076", "lon": -77.07921066666667}, {"is_disabled": 0, "type": "electric_scooter", "is_reserved": 0, "lat": 38.922584, "rental_uris": {"ios": "https://dc.lft.to/lastmile_qr_scan", "android": "https://dc.lft.to/lastmile_qr_scan"}, "fusion_lon": 0.0, "fusion_lat": 0.0, "bike_id": "50a33ea499b4ecc4d9b9243214d52438", "name": "50a33ea499b4ecc4d9b9243214d52438", "lon": -77.02973316666667}, {"is_disabled": 0, "type": "electric_scooter", "is_reserved": 0, "lat": 38.8666135, "rental_uris": {"ios": "https://dc.lft.to/lastmile_qr_scan", "android": "https://dc.lft.to/lastmile_qr_scan"}, "fusion_lon": 0.0, "fusion_lat": 0.0, "bike_id": "0e0bb28e1ec062068d37e21d74c23758", "name": "0e0bb28e1ec062068d37e21d74c23758", "lon": -76.98880783333334}, {"is_disabled": 0, "type": "electric_scooter", "is_reserved": 0, "lat": 38.924467666666665, "rental_uris": {"ios": "https://dc.lft.to/lastmile_qr_scan", "android": "https://dc.lft.to/lastmile_qr_scan"}, "fusion_lon": 0.0, "fusion_lat": 0.0, "bike_id": "fb2f9603d1183e2c48039da3b021097e", "name": "fb2f9603d1183e2c48039da3b021097e", "lon": -77.04106883333333}, {"is_disabled": 0, "type": "electric_scooter", "is_reserved": 0, "lat": 38.91783266666667, "rental_uris": {"ios": "https://dc.lft.to/lastmile_qr_scan", "android": "https://dc.lft.to/lastmile_qr_scan"}, "fusion_lon": 0.0, "fusion_lat": 0.0, "bike_id": "9a8001fa956345bff02e51d57547f75a", "name": "9a8001fa956345bff02e51d57547f75a", "lon": -77.02293916666666}, {"is_disabled": 0, "type": "electric_bike", "is_reserved": 0, "lat": 38.88679283333333, "rental_uris": {"ios": "https://dc.lft.to/lastmile_qr_scan", "android": "https://dc.lft.to/lastmile_qr_scan"}, "fusion_lon": 0.0, "fusion_lat": 0.0, "bike_id": "e8191d3e0bdf5d12c04638efe9f48b1b", "name": "e8191d3e0bdf5d12c04638efe9f48b1b", "lon": -77.16093416666666}, {"is_disabled": 0, "type": "electric_scooter", "is_reserved": 0, "lat": 38.899390833333335, "rental_uris": {"ios": "https://dc.lft.to/lastmile_qr_scan", "android": "https://dc.lft.to/lastmile_qr_scan"}, "fusion_lon": 0.0, "fusion_lat": 0.0, "bike_id": "526998500c981022239e8ead4530ade9", "name": "526998500c981022239e8ead4530ade9", "lon": -77.014231}, {"is_disabled": 0, "type": "electric_scooter", "is_reserved": 0, "lat": 38.91955866666667, "rental_uris": {"ios": "https://dc.lft.to/lastmile_qr_scan", "android": "https://dc.lft.to/lastmile_qr_scan"}, "fusion_lon": 0.0, "fusion_lat": 0.0, "bike_id": "fd4f52c4392b0e7ecbee859d46cb5e80", "name": "fd4f52c4392b0e7ecbee859d46cb5e80", "lon": -77.0238195}, {"is_disabled": 0, "type": "electric_scooter", "is_reserved": 0, "lat": 38.9223885, "rental_uris": {"ios": "https://dc.lft.to/lastmile_qr_scan", "android": "https://dc.lft.to/lastmile_qr_scan"}, "fusion_lon": 0.0, "fusion_lat": 0.0, "bike_id": "6772ef26af5ec29f3712925846287d81", "name": "6772ef26af5ec29f3712925846287d81", "lon": -77.02237733333334}, {"is_disabled": 0, "type": "electric_scooter", "is_reserved": 0, "lat": 38.928244666666664, "rental_uris": {"ios": "https://dc.lft.to/lastmile_qr_scan", "android": "https://dc.lft.to/lastmile_qr_scan"}, "fusion_lon": 0.0, "fusion_lat": 0.0, "bike_id": "4d39cf388653758d01c5ecb8dca31bd4", "name": "4d39cf388653758d01c5ecb8dca31bd4", "lon": -77.01410266666667}, {"is_disabled": 0, "type": "electric_scooter", "is_reserved": 0, "lat": 38.9300925, "rental_uris": {"ios": "https://dc.lft.to/lastmile_qr_scan", "android": "https://dc.lft.to/lastmile_qr_scan"}, "fusion_lon": 0.0, "fusion_lat": 0.0, "bike_id": "07615288653381e2cd1beb61a30ae73a", "name": "07615288653381e2cd1beb61a30ae73a", "lon": -77.05550933333333}, {"is_disabled": 0, "type": "electric_scooter", "is_reserved": 0, "lat": 38.897379, "rental_uris": {"ios": "https://dc.lft.to/lastmile_qr_scan", "android": "https://dc.lft.to/lastmile_qr_scan"}, "fusion_lon": 0.0, "fusion_lat": 0.0, "bike_id": "4c76cb43fffe0952453fc5c12c3313d4", "name": "4c76cb43fffe0952453fc5c12c3313d4", "lon": -77.02995916666667}, {"is_disabled": 0, "type": "electric_bike", "is_reserved": 0, "lat": 38.9446785, "rental_uris": {"ios": "https://dc.lft.to/lastmile_qr_scan", "android": "https://dc.lft.to/lastmile_qr_scan"}, "fusion_lon": 0.0, "fusion_lat": 0.0, "bike_id": "826a855ccd6c5264ccf8ce3dc85496b2", "name": "826a855ccd6c5264ccf8ce3dc85496b2", "lon": -76.98693433333334}, {"is_disabled": 0, "type": "electric_scooter", "is_reserved": 0, "lat": 38.9006685, "rental_uris": {"ios": "https://dc.lft.to/lastmile_qr_scan", "android": "https://dc.lft.to/lastmile_qr_scan"}, "fusion_lon": 0.0, "fusion_lat": 0.0, "bike_id": "e823b5a7ffe0866d253889b5bc2ff70b", "name": "e823b5a7ffe0866d253889b5bc2ff70b", "lon": -76.98715666666666}, {"is_disabled": 0, "type": "electric_scooter", "is_reserved": 0, "lat": 38.894950333333334, "rental_uris": {"ios": "https://dc.lft.to/lastmile_qr_scan", "android": "https://dc.lft.to/lastmile_qr_scan"}, "fusion_lon": 0.0, "fusion_lat": 0.0, "bike_id": "7a3f3e60115512e09cca1511c8b1bad4", "name": "7a3f3e60115512e09cca1511c8b1bad4", "lon": -76.94944483333333}, {"is_disabled": 0, "type": "electric_scooter", "is_reserved": 0, "lat": 38.903913, "rental_uris": {"ios": "https://dc.lft.to/lastmile_qr_scan", "android": "https://dc.lft.to/lastmile_qr_scan"}, "fusion_lon": 0.0, "fusion_lat": 0.0, "bike_id": "9c4b14067110c92ae816c59b283c8b4f", "name": "9c4b14067110c92ae816c59b283c8b4f", "lon": -77.04030383333334}, {"is_disabled": 0, "type": "electric_scooter", "is_reserved": 0, "lat": 38.943063333333335, "rental_uris": {"ios": "https://dc.lft.to/lastmile_qr_scan", "android": "https://dc.lft.to/lastmile_qr_scan"}, "fusion_lon": 0.0, "fusion_lat": 0.0, "bike_id": "52c4a8ecd83a146570da46fcf192ba12", "name": "52c4a8ecd83a146570da46fcf192ba12", "lon": -77.02501466666666}, {"is_disabled": 0, "type": "electric_scooter", "is_reserved": 0, "lat": 38.927247, "rental_uris": {"ios": "https://dc.lft.to/lastmile_qr_scan", "android": "https://dc.lft.to/lastmile_qr_scan"}, "fusion_lon": 0.0, "fusion_lat": 0.0, "bike_id": "110ff65a6150b74fec50881f6cefbf07", "name": "110ff65a6150b74fec50881f6cefbf07", "lon": -77.0366775}, {"is_disabled": 0, "type": "electric_scooter", "is_reserved": 0, "lat": 38.9052565, "rental_uris": {"ios": "https://dc.lft.to/lastmile_qr_scan", "android": "https://dc.lft.to/lastmile_qr_scan"}, "fusion_lon": 0.0, "fusion_lat": 0.0, "bike_id": "cc7e355d6fe4707ee7fd37d9b00b337e", "name": "cc7e355d6fe4707ee7fd37d9b00b337e", "lon": -77.0510695}, {"is_disabled": 0, "type": "electric_scooter", "is_reserved": 0, "lat": 38.94822583333333, "rental_uris": {"ios": "https://dc.lft.to/lastmile_qr_scan", "android": "https://dc.lft.to/lastmile_qr_scan"}, "fusion_lon": 0.0, "fusion_lat": 0.0, "bike_id": "0ba3e8df6b18557a0a08001815cc5b67", "name": "0ba3e8df6b18557a0a08001815cc5b67", "lon": -76.99902716666666}, {"is_disabled": 0, "type": "electric_scooter", "is_reserved": 0, "lat": 38.900917166666666, "rental_uris": {"ios": "https://dc.lft.to/lastmile_qr_scan", "android": "https://dc.lft.to/lastmile_qr_scan"}, "fusion_lon": 0.0, "fusion_lat": 0.0, "bike_id": "157216868d72c691da30c6d4498e531c", "name": "157216868d72c691da30c6d4498e531c", "lon": -77.02090716666666}, {"is_disabled": 0, "type": "electric_scooter", "is_reserved": 0, "lat": 38.90174916666667, "rental_uris": {"ios": "https://dc.lft.to/lastmile_qr_scan", "android": "https://dc.lft.to/lastmile_qr_scan"}, "fusion_lon": 0.0, "fusion_lat": 0.0, "bike_id": "8583bd98bcbab97eb98538686ae6025c", "name": "8583bd98bcbab97eb98538686ae6025c", "lon": -77.06003966666667}, {"is_disabled": 0, "type": "electric_scooter", "is_reserved": 0, "lat": 38.842945, "rental_uris": {"ios": "https://dc.lft.to/lastmile_qr_scan", "android": "https://dc.lft.to/lastmile_qr_scan"}, "fusion_lon": 0.0, "fusion_lat": 0.0, "bike_id": "6dcdb77bbb31743b3008cb1bf9e3c8ff", "name": "6dcdb77bbb31743b3008cb1bf9e3c8ff", "lon": -76.9994615}, {"is_disabled": 0, "type": "electric_scooter", "is_reserved": 0, "lat": 38.9262755, "rental_uris": {"ios": "https://dc.lft.to/lastmile_qr_scan", "android": "https://dc.lft.to/lastmile_qr_scan"}, "fusion_lon": 0.0, "fusion_lat": 0.0, "bike_id": "e3059699454dd321bb7f0b24d69855b2", "name": "e3059699454dd321bb7f0b24d69855b2", "lon": -77.041971}, {"is_disabled": 0, "type": "electric_scooter", "is_reserved": 0, "lat": 38.89841333333333, "rental_uris": {"ios": "https://dc.lft.to/lastmile_qr_scan", "android": "https://dc.lft.to/lastmile_qr_scan"}, "fusion_lon": 0.0, "fusion_lat": 0.0, "bike_id": "850397c4a8948cfac7436f0d8262f0d5", "name": "850397c4a8948cfac7436f0d8262f0d5", "lon": -76.9463725}, {"is_disabled": 0, "type": "electric_scooter", "is_reserved": 0, "lat": 38.88352316666667, "rental_uris": {"ios": "https://dc.lft.to/lastmile_qr_scan", "android": "https://dc.lft.to/lastmile_qr_scan"}, "fusion_lon": 0.0, "fusion_lat": 0.0, "bike_id": "2dcd1864d902c683c1caedc80faefc9f", "name": "2dcd1864d902c683c1caedc80faefc9f", "lon": -77.02609066666666}, {"is_disabled": 0, "type": "electric_scooter", "is_reserved": 0, "lat": 38.91402, "rental_uris": {"ios": "https://dc.lft.to/lastmile_qr_scan", "android": "https://dc.lft.to/lastmile_qr_scan"}, "fusion_lon": 0.0, "fusion_lat": 0.0, "bike_id": "9199f74aebb9975976a5714ef3fa09df", "name": "9199f74aebb9975976a5714ef3fa09df", "lon": -77.03266166666667}, {"is_disabled": 0, "type": "electric_scooter", "is_reserved": 0, "lat": 38.913106666666664, "rental_uris": {"ios": "https://dc.lft.to/lastmile_qr_scan", "android": "https://dc.lft.to/lastmile_qr_scan"}, "fusion_lon": 0.0, "fusion_lat": 0.0, "bike_id": "9bacc162405d6494f96160fa4f2e11f9", "name": "9bacc162405d6494f96160fa4f2e11f9", "lon": -77.020052}, {"is_disabled": 0, "type": "electric_scooter", "is_reserved": 0, "lat": 38.89869516666667, "rental_uris": {"ios": "https://dc.lft.to/lastmile_qr_scan", "android": "https://dc.lft.to/lastmile_qr_scan"}, "fusion_lon": 0.0, "fusion_lat": 0.0, "bike_id": "721258e6ffe401c821eca5d9a95fd6b9", "name": "721258e6ffe401c821eca5d9a95fd6b9", "lon": -77.029357}, {"is_disabled": 0, "type": "electric_scooter", "is_reserved": 0, "lat": 38.907809666666665, "rental_uris": {"ios": "https://dc.lft.to/lastmile_qr_scan", "android": "https://dc.lft.to/lastmile_qr_scan"}, "fusion_lon": 0.0, "fusion_lat": 0.0, "bike_id": "f35b616f02985badb980c3970828e49c", "name": "f35b616f02985badb980c3970828e49c", "lon": -77.04191566666667}, {"is_disabled": 0, "type": "electric_scooter", "is_reserved": 0, "lat": 38.8941965, "rental_uris": {"ios": "https://dc.lft.to/lastmile_qr_scan", "android": "https://dc.lft.to/lastmile_qr_scan"}, "fusion_lon": 0.0, "fusion_lat": 0.0, "bike_id": "a48136314b904bc0665720b7ad953e81", "name": "a48136314b904bc0665720b7ad953e81", "lon": -76.91174233333334}, {"is_disabled": 0, "type": "electric_scooter", "is_reserved": 0, "lat": 38.9164595, "rental_uris": {"ios": "https://dc.lft.to/lastmile_qr_scan", "android": "https://dc.lft.to/lastmile_qr_scan"}, "fusion_lon": 0.0, "fusion_lat": 0.0, "bike_id": "260fb4106377a034cecfda3890137460", "name": "260fb4106377a034cecfda3890137460", "lon": -77.0241485}, {"is_disabled": 0, "type": "electric_scooter", "is_reserved": 0, "lat": 38.90890266666667, "rental_uris": {"ios": "https://dc.lft.to/lastmile_qr_scan", "android": "https://dc.lft.to/lastmile_qr_scan"}, "fusion_lon": 0.0, "fusion_lat": 0.0, "bike_id": "8d4c7c89396d2120c8817375d60700ce", "name": "8d4c7c89396d2120c8817375d60700ce", "lon": -76.98236333333334}, {"is_disabled": 0, "type": "electric_scooter", "is_reserved": 0, "lat": 38.92747033333333, "rental_uris": {"ios": "https://dc.lft.to/lastmile_qr_scan", "android": "https://dc.lft.to/lastmile_qr_scan"}, "fusion_lon": 0.0, "fusion_lat": 0.0, "bike_id": "e841d6b3a90d43ec07522a9ace27c639", "name": "e841d6b3a90d43ec07522a9ace27c639", "lon": -77.02432216666666}, {"is_disabled": 0, "type": "electric_scooter", "is_reserved": 0, "lat": 38.902306333333335, "rental_uris": {"ios": "https://dc.lft.to/lastmile_qr_scan", "android": "https://dc.lft.to/lastmile_qr_scan"}, "fusion_lon": 0.0, "fusion_lat": 0.0, "bike_id": "2d9913fb05ccdb80c1ebf9f5edbd57ad", "name": "2d9913fb05ccdb80c1ebf9f5edbd57ad", "lon": -77.054195}, {"is_disabled": 0, "type": "electric_scooter", "is_reserved": 0, "lat": 38.8874645, "rental_uris": {"ios": "https://dc.lft.to/lastmile_qr_scan", "android": "https://dc.lft.to/lastmile_qr_scan"}, "fusion_lon": 0.0, "fusion_lat": 0.0, "bike_id": "831d11e1e515b2cf377f371b6eb1e39c", "name": "831d11e1e515b2cf377f371b6eb1e39c", "lon": -76.99851466666667}, {"is_disabled": 0, "type": "electric_scooter", "is_reserved": 0, "lat": 38.897177166666665, "rental_uris": {"ios": "https://dc.lft.to/lastmile_qr_scan", "android": "https://dc.lft.to/lastmile_qr_scan"}, "fusion_lon": 0.0, "fusion_lat": 0.0, "bike_id": "249ae35666204f2e4cf41d0deeef2ac0", "name": "249ae35666204f2e4cf41d0deeef2ac0", "lon": -77.023879}, {"is_disabled": 0, "type": "electric_bike", "is_reserved": 0, "lat": 38.85426866666667, "rental_uris": {"ios": "https://dc.lft.to/lastmile_qr_scan", "android": "https://dc.lft.to/lastmile_qr_scan"}, "fusion_lon": 0.0, "fusion_lat": 0.0, "bike_id": "7267690578be6d502b03f0db3290c1e9", "name": "7267690578be6d502b03f0db3290c1e9", "lon": -76.9096625}, {"is_disabled": 0, "type": "electric_scooter", "is_reserved": 0, "lat": 38.98449883333333, "rental_uris": {"ios": "https://dc.lft.to/lastmile_qr_scan", "android": "https://dc.lft.to/lastmile_qr_scan"}, "fusion_lon": 0.0, "fusion_lat": 0.0, "bike_id": "9176e368cce6c0c46d2c780f22b1a1f5", "name": "9176e368cce6c0c46d2c780f22b1a1f5", "lon": -77.0264715}, {"is_disabled": 0, "type": "electric_scooter", "is_reserved": 0, "lat": 38.8747755, "rental_uris": {"ios": "https://dc.lft.to/lastmile_qr_scan", "android": "https://dc.lft.to/lastmile_qr_scan"}, "fusion_lon": 0.0, "fusion_lat": 0.0, "bike_id": "8b8ad3cb1f822da3dead7f1cfd5ac0e1", "name": "8b8ad3cb1f822da3dead7f1cfd5ac0e1", "lon": -77.004878}, {"is_disabled": 0, "type": "electric_scooter", "is_reserved": 0, "lat": 38.917668166666665, "rental_uris": {"ios": "https://dc.lft.to/lastmile_qr_scan", "android": "https://dc.lft.to/lastmile_qr_scan"}, "fusion_lon": 0.0, "fusion_lat": 0.0, "bike_id": "245d8bf5320da44a88ee94eddb03bd55", "name": "245d8bf5320da44a88ee94eddb03bd55", "lon": -77.04096533333333}, {"is_disabled": 0, "type": "electric_scooter", "is_reserved": 0, "lat": 38.928655, "rental_uris": {"ios": "https://dc.lft.to/lastmile_qr_scan", "android": "https://dc.lft.to/lastmile_qr_scan"}, "fusion_lon": 0.0, "fusion_lat": 0.0, "bike_id": "d5155ac0751c91a673ff019a6fc209e1", "name": "d5155ac0751c91a673ff019a6fc209e1", "lon": -77.03338183333334}, {"is_disabled": 0, "type": "electric_scooter", "is_reserved": 0, "lat": 38.91686683333333, "rental_uris": {"ios": "https://dc.lft.to/lastmile_qr_scan", "android": "https://dc.lft.to/lastmile_qr_scan"}, "fusion_lon": 0.0, "fusion_lat": 0.0, "bike_id": "4250f0f8d62bf4070aecc3853a991ad3", "name": "4250f0f8d62bf4070aecc3853a991ad3", "lon": -77.028166}, {"is_disabled": 0, "type": "electric_scooter", "is_reserved": 0, "lat": 38.89218666666667, "rental_uris": {"ios": "https://dc.lft.to/lastmile_qr_scan", "android": "https://dc.lft.to/lastmile_qr_scan"}, "fusion_lon": 0.0, "fusion_lat": 0.0, "bike_id": "d6ee8309045fe13012847836a7eb87c2", "name": "d6ee8309045fe13012847836a7eb87c2", "lon": -77.04334733333333}, {"is_disabled": 0, "type": "electric_scooter", "is_reserved": 0, "lat": 38.92711533333333, "rental_uris": {"ios": "https://dc.lft.to/lastmile_qr_scan", "android": "https://dc.lft.to/lastmile_qr_scan"}, "fusion_lon": 0.0, "fusion_lat": 0.0, "bike_id": "41fea25a6c6b61c63ce9e0aae2d3d84c", "name": "41fea25a6c6b61c63ce9e0aae2d3d84c", "lon": -77.02704616666666}, {"is_disabled": 0, "type": "electric_scooter", "is_reserved": 0, "lat": 38.901305, "rental_uris": {"ios": "https://dc.lft.to/lastmile_qr_scan", "android": "https://dc.lft.to/lastmile_qr_scan"}, "fusion_lon": 0.0, "fusion_lat": 0.0, "bike_id": "bec824df94b366cda9a93176d2c92938", "name": "bec824df94b366cda9a93176d2c92938", "lon": -77.04177533333333}, {"is_disabled": 0, "type": "electric_scooter", "is_reserved": 0, "lat": 38.8762675, "rental_uris": {"ios": "https://dc.lft.to/lastmile_qr_scan", "android": "https://dc.lft.to/lastmile_qr_scan"}, "fusion_lon": 0.0, "fusion_lat": 0.0, "bike_id": "03605f007f05d593e0f52c16df9931cf", "name": "03605f007f05d593e0f52c16df9931cf", "lon": -76.96529616666666}, {"is_disabled": 0, "type": "electric_scooter", "is_reserved": 0, "lat": 38.91783733333333, "rental_uris": {"ios": "https://dc.lft.to/lastmile_qr_scan", "android": "https://dc.lft.to/lastmile_qr_scan"}, "fusion_lon": 0.0, "fusion_lat": 0.0, "bike_id": "a8a63d2c6567af44b796a6e2ce5d11b3", "name": "a8a63d2c6567af44b796a6e2ce5d11b3", "lon": -77.02307066666667}, {"is_disabled": 0, "type": "electric_scooter", "is_reserved": 0, "lat": 38.88119966666667, "rental_uris": {"ios": "https://dc.lft.to/lastmile_qr_scan", "android": "https://dc.lft.to/lastmile_qr_scan"}, "fusion_lon": 0.0, "fusion_lat": 0.0, "bike_id": "c58b6c285015f76c4ac102fe95b6cd95", "name": "c58b6c285015f76c4ac102fe95b6cd95", "lon": -77.02674633333334}, {"is_disabled": 0, "type": "electric_scooter", "is_reserved": 0, "lat": 38.904120166666665, "rental_uris": {"ios": "https://dc.lft.to/lastmile_qr_scan", "android": "https://dc.lft.to/lastmile_qr_scan"}, "fusion_lon": 0.0, "fusion_lat": 0.0, "bike_id": "93b466ff82505107b89ec33f44ee85fc", "name": "93b466ff82505107b89ec33f44ee85fc", "lon": -77.04016183333333}, {"is_disabled": 0, "type": "electric_scooter", "is_reserved": 0, "lat": 38.91996866666667, "rental_uris": {"ios": "https://dc.lft.to/lastmile_qr_scan", "android": "https://dc.lft.to/lastmile_qr_scan"}, "fusion_lon": 0.0, "fusion_lat": 0.0, "bike_id": "2646a9651c72fcdda952f6112d47a689", "name": "2646a9651c72fcdda952f6112d47a689", "lon": -76.99293316666666}, {"is_disabled": 0, "type": "electric_scooter", "is_reserved": 0, "lat": 38.86886833333333, "rental_uris": {"ios": "https://dc.lft.to/lastmile_qr_scan", "android": "https://dc.lft.to/lastmile_qr_scan"}, "fusion_lon": 0.0, "fusion_lat": 0.0, "bike_id": "369bf2ca8d1b70df8a2ad9d23fddb236", "name": "369bf2ca8d1b70df8a2ad9d23fddb236", "lon": -76.9831405}, {"is_disabled": 0, "type": "electric_scooter", "is_reserved": 0, "lat": 38.89608, "rental_uris": {"ios": "https://dc.lft.to/lastmile_qr_scan", "android": "https://dc.lft.to/lastmile_qr_scan"}, "fusion_lon": 0.0, "fusion_lat": 0.0, "bike_id": "669420fc553727966c3480a6f443a7cf", "name": "669420fc553727966c3480a6f443a7cf", "lon": -77.0271675}, {"is_disabled": 0, "type": "electric_scooter", "is_reserved": 0, "lat": 38.884073666666666, "rental_uris": {"ios": "https://dc.lft.to/lastmile_qr_scan", "android": "https://dc.lft.to/lastmile_qr_scan"}, "fusion_lon": 0.0, "fusion_lat": 0.0, "bike_id": "f66bc8297ffaff88b22977f63ad8f87c", "name": "f66bc8297ffaff88b22977f63ad8f87c", "lon": -77.03049433333334}, {"is_disabled": 0, "type": "electric_scooter", "is_reserved": 0, "lat": 38.9171715, "rental_uris": {"ios": "https://dc.lft.to/lastmile_qr_scan", "android": "https://dc.lft.to/lastmile_qr_scan"}, "fusion_lon": 0.0, "fusion_lat": 0.0, "bike_id": "4aae979c0b4321fa2893f5a7c57d51ff", "name": "4aae979c0b4321fa2893f5a7c57d51ff", "lon": -77.02903183333333}, {"is_disabled": 0, "type": "electric_scooter", "is_reserved": 0, "lat": 38.911212166666665, "rental_uris": {"ios": "https://dc.lft.to/lastmile_qr_scan", "android": "https://dc.lft.to/lastmile_qr_scan"}, "fusion_lon": 0.0, "fusion_lat": 0.0, "bike_id": "b5b9ef182a01712702534e1828e11d26", "name": "b5b9ef182a01712702534e1828e11d26", "lon": -77.04373283333334}, {"is_disabled": 0, "type": "electric_scooter", "is_reserved": 0, "lat": 38.89625566666667, "rental_uris": {"ios": "https://dc.lft.to/lastmile_qr_scan", "android": "https://dc.lft.to/lastmile_qr_scan"}, "fusion_lon": 0.0, "fusion_lat": 0.0, "bike_id": "c08e2a9670b93f9ae851f249dcd5d0b5", "name": "c08e2a9670b93f9ae851f249dcd5d0b5", "lon": -77.02418933333334}, {"is_disabled": 0, "type": "electric_scooter", "is_reserved": 0, "lat": 38.90591933333333, "rental_uris": {"ios": "https://dc.lft.to/lastmile_qr_scan", "android": "https://dc.lft.to/lastmile_qr_scan"}, "fusion_lon": 0.0, "fusion_lat": 0.0, "bike_id": "ae06ce94be157cdab4cd429129186a60", "name": "ae06ce94be157cdab4cd429129186a60", "lon": -77.04167066666666}, {"is_disabled": 0, "type": "electric_scooter", "is_reserved": 0, "lat": 38.86257833333333, "rental_uris": {"ios": "https://dc.lft.to/lastmile_qr_scan", "android": "https://dc.lft.to/lastmile_qr_scan"}, "fusion_lon": 0.0, "fusion_lat": 0.0, "bike_id": "ce0f315e372957bf7232c411fb782221", "name": "ce0f315e372957bf7232c411fb782221", "lon": -76.99556833333334}, {"is_disabled": 0, "type": "electric_scooter", "is_reserved": 0, "lat": 38.89805833333333, "rental_uris": {"ios": "https://dc.lft.to/lastmile_qr_scan", "android": "https://dc.lft.to/lastmile_qr_scan"}, "fusion_lon": 0.0, "fusion_lat": 0.0, "bike_id": "4fb4bbd29043a141ca60854f76401fdd", "name": "4fb4bbd29043a141ca60854f76401fdd", "lon": -77.044101}, {"is_disabled": 0, "type": "electric_scooter", "is_reserved": 0, "lat": 38.882674333333334, "rental_uris": {"ios": "https://dc.lft.to/lastmile_qr_scan", "android": "https://dc.lft.to/lastmile_qr_scan"}, "fusion_lon": 0.0, "fusion_lat": 0.0, "bike_id": "d59e4d294c7d8d6a401ee9b6407bf5da", "name": "d59e4d294c7d8d6a401ee9b6407bf5da", "lon": -76.995581}, {"is_disabled": 0, "type": "electric_scooter", "is_reserved": 0, "lat": 38.923074, "rental_uris": {"ios": "https://dc.lft.to/lastmile_qr_scan", "android": "https://dc.lft.to/lastmile_qr_scan"}, "fusion_lon": 0.0, "fusion_lat": 0.0, "bike_id": "9b550f4bf38e52c722ba078500f70cae", "name": "9b550f4bf38e52c722ba078500f70cae", "lon": -77.0225675}, {"is_disabled": 0, "type": "electric_scooter", "is_reserved": 0, "lat": 38.8442785, "rental_uris": {"ios": "https://dc.lft.to/lastmile_qr_scan", "android": "https://dc.lft.to/lastmile_qr_scan"}, "fusion_lon": 0.0, "fusion_lat": 0.0, "bike_id": "4ebac02197ef43fd0ec01462451a1a38", "name": "4ebac02197ef43fd0ec01462451a1a38", "lon": -76.99779183333334}, {"is_disabled": 0, "type": "electric_scooter", "is_reserved": 0, "lat": 38.92163266666667, "rental_uris": {"ios": "https://dc.lft.to/lastmile_qr_scan", "android": "https://dc.lft.to/lastmile_qr_scan"}, "fusion_lon": 0.0, "fusion_lat": 0.0, "bike_id": "4282bde42781d77997182c5c149db1fc", "name": "4282bde42781d77997182c5c149db1fc", "lon": -77.04690883333333}, {"is_disabled": 0, "type": "electric_scooter", "is_reserved": 0, "lat": 38.908316, "rental_uris": {"ios": "https://dc.lft.to/lastmile_qr_scan", "android": "https://dc.lft.to/lastmile_qr_scan"}, "fusion_lon": 0.0, "fusion_lat": 0.0, "bike_id": "0819b36656fb952c08b1d3fe77c10886", "name": "0819b36656fb952c08b1d3fe77c10886", "lon": -76.99693533333334}, {"is_disabled": 0, "type": "electric_scooter", "is_reserved": 0, "lat": 38.913571833333336, "rental_uris": {"ios": "https://dc.lft.to/lastmile_qr_scan", "android": "https://dc.lft.to/lastmile_qr_scan"}, "fusion_lon": 0.0, "fusion_lat": 0.0, "bike_id": "21f380e97aff04b932737f4442863070", "name": "21f380e97aff04b932737f4442863070", "lon": -77.038528}, {"is_disabled": 0, "type": "electric_scooter", "is_reserved": 0, "lat": 38.9236385, "rental_uris": {"ios": "https://dc.lft.to/lastmile_qr_scan", "android": "https://dc.lft.to/lastmile_qr_scan"}, "fusion_lon": 0.0, "fusion_lat": 0.0, "bike_id": "79364bc4382f252b643ff8d92b711a80", "name": "79364bc4382f252b643ff8d92b711a80", "lon": -77.03133466666667}, {"is_disabled": 0, "type": "electric_scooter", "is_reserved": 0, "lat": 38.9418305, "rental_uris": {"ios": "https://dc.lft.to/lastmile_qr_scan", "android": "https://dc.lft.to/lastmile_qr_scan"}, "fusion_lon": 0.0, "fusion_lat": 0.0, "bike_id": "45e766cef342275e37f76141f71a4b9e", "name": "45e766cef342275e37f76141f71a4b9e", "lon": -77.02491583333334}, {"is_disabled": 0, "type": "electric_scooter", "is_reserved": 0, "lat": 38.910437333333334, "rental_uris": {"ios": "https://dc.lft.to/lastmile_qr_scan", "android": "https://dc.lft.to/lastmile_qr_scan"}, "fusion_lon": 0.0, "fusion_lat": 0.0, "bike_id": "2ab5b89878e31764d6f50857629987b4", "name": "2ab5b89878e31764d6f50857629987b4", "lon": -77.04349283333333}, {"is_disabled": 0, "type": "electric_scooter", "is_reserved": 0, "lat": 38.9174525, "rental_uris": {"ios": "https://dc.lft.to/lastmile_qr_scan", "android": "https://dc.lft.to/lastmile_qr_scan"}, "fusion_lon": 0.0, "fusion_lat": 0.0, "bike_id": "f28cc5b7e8f1b6547277385a31bbcea3", "name": "f28cc5b7e8f1b6547277385a31bbcea3", "lon": -77.01709766666667}, {"is_disabled": 0, "type": "electric_scooter", "is_reserved": 0, "lat": 38.90867133333333, "rental_uris": {"ios": "https://dc.lft.to/lastmile_qr_scan", "android": "https://dc.lft.to/lastmile_qr_scan"}, "fusion_lon": 0.0, "fusion_lat": 0.0, "bike_id": "7c5083d83f7746f7ea1f8d3e9d475d03", "name": "7c5083d83f7746f7ea1f8d3e9d475d03", "lon": -76.98334133333333}, {"is_disabled": 0, "type": "electric_scooter", "is_reserved": 0, "lat": 38.93007983333333, "rental_uris": {"ios": "https://dc.lft.to/lastmile_qr_scan", "android": "https://dc.lft.to/lastmile_qr_scan"}, "fusion_lon": 0.0, "fusion_lat": 0.0, "bike_id": "3d445f3e9059f4e7a4e4a735badf4372", "name": "3d445f3e9059f4e7a4e4a735badf4372", "lon": -77.08281316666667}, {"is_disabled": 0, "type": "electric_scooter", "is_reserved": 0, "lat": 38.904576166666665, "rental_uris": {"ios": "https://dc.lft.to/lastmile_qr_scan", "android": "https://dc.lft.to/lastmile_qr_scan"}, "fusion_lon": 0.0, "fusion_lat": 0.0, "bike_id": "aa102f65f40728365344e3f02117f18d", "name": "aa102f65f40728365344e3f02117f18d", "lon": -77.03462716666667}, {"is_disabled": 0, "type": "electric_scooter", "is_reserved": 0, "lat": 38.900096833333336, "rental_uris": {"ios": "https://dc.lft.to/lastmile_qr_scan", "android": "https://dc.lft.to/lastmile_qr_scan"}, "fusion_lon": 0.0, "fusion_lat": 0.0, "bike_id": "678b6df59be1262158de98f7f0a02023", "name": "678b6df59be1262158de98f7f0a02023", "lon": -77.0402615}, {"is_disabled": 0, "type": "electric_scooter", "is_reserved": 0, "lat": 38.919269666666665, "rental_uris": {"ios": "https://dc.lft.to/lastmile_qr_scan", "android": "https://dc.lft.to/lastmile_qr_scan"}, "fusion_lon": 0.0, "fusion_lat": 0.0, "bike_id": "d8b4c12f62b1b05b8510c8d382b4a533", "name": "d8b4c12f62b1b05b8510c8d382b4a533", "lon": -77.046052}, {"is_disabled": 0, "type": "electric_scooter", "is_reserved": 0, "lat": 38.9286915, "rental_uris": {"ios": "https://dc.lft.to/lastmile_qr_scan", "android": "https://dc.lft.to/lastmile_qr_scan"}, "fusion_lon": 0.0, "fusion_lat": 0.0, "bike_id": "e4ee07dd7375de19118e8b3f11359900", "name": "e4ee07dd7375de19118e8b3f11359900", "lon": -77.03349}, {"is_disabled": 0, "type": "electric_scooter", "is_reserved": 0, "lat": 38.934437833333334, "rental_uris": {"ios": "https://dc.lft.to/lastmile_qr_scan", "android": "https://dc.lft.to/lastmile_qr_scan"}, "fusion_lon": 0.0, "fusion_lat": 0.0, "bike_id": "79be9c9068eeedb98a50cfd56e8b16b3", "name": "79be9c9068eeedb98a50cfd56e8b16b3", "lon": -77.02981466666667}, {"is_disabled": 0, "type": "electric_scooter", "is_reserved": 0, "lat": 38.900408666666664, "rental_uris": {"ios": "https://dc.lft.to/lastmile_qr_scan", "android": "https://dc.lft.to/lastmile_qr_scan"}, "fusion_lon": 0.0, "fusion_lat": 0.0, "bike_id": "bf7f504ee1cdf73c4e4c4b4b97d94f68", "name": "bf7f504ee1cdf73c4e4c4b4b97d94f68", "lon": -76.99256416666667}, {"is_disabled": 0, "type": "electric_scooter", "is_reserved": 0, "lat": 38.867000166666664, "rental_uris": {"ios": "https://dc.lft.to/lastmile_qr_scan", "android": "https://dc.lft.to/lastmile_qr_scan"}, "fusion_lon": 0.0, "fusion_lat": 0.0, "bike_id": "b5331db3e38b247a7a66f78808428377", "name": "b5331db3e38b247a7a66f78808428377", "lon": -76.9871335}, {"is_disabled": 0, "type": "electric_scooter", "is_reserved": 0, "lat": 38.914057166666666, "rental_uris": {"ios": "https://dc.lft.to/lastmile_qr_scan", "android": "https://dc.lft.to/lastmile_qr_scan"}, "fusion_lon": 0.0, "fusion_lat": 0.0, "bike_id": "35abd76b85900bed78404dd6d187080b", "name": "35abd76b85900bed78404dd6d187080b", "lon": -77.02822983333333}, {"is_disabled": 0, "type": "electric_scooter", "is_reserved": 0, "lat": 38.9142355, "rental_uris": {"ios": "https://dc.lft.to/lastmile_qr_scan", "android": "https://dc.lft.to/lastmile_qr_scan"}, "fusion_lon": 0.0, "fusion_lat": 0.0, "bike_id": "742094d02d1033300a53c876e4c8eff0", "name": "742094d02d1033300a53c876e4c8eff0", "lon": -77.0222435}, {"is_disabled": 0, "type": "electric_scooter", "is_reserved": 0, "lat": 38.90337433333333, "rental_uris": {"ios": "https://dc.lft.to/lastmile_qr_scan", "android": "https://dc.lft.to/lastmile_qr_scan"}, "fusion_lon": 0.0, "fusion_lat": 0.0, "bike_id": "885cf39e608f6315e6d1335dd96de00e", "name": "885cf39e608f6315e6d1335dd96de00e", "lon": -77.0383}, {"is_disabled": 0, "type": "electric_scooter", "is_reserved": 0, "lat": 38.908171333333335, "rental_uris": {"ios": "https://dc.lft.to/lastmile_qr_scan", "android": "https://dc.lft.to/lastmile_qr_scan"}, "fusion_lon": 0.0, "fusion_lat": 0.0, "bike_id": "74086012f4567218894e62c8751630fd", "name": "74086012f4567218894e62c8751630fd", "lon": -77.02692133333333}, {"is_disabled": 0, "type": "electric_scooter", "is_reserved": 0, "lat": 38.895858833333335, "rental_uris": {"ios": "https://dc.lft.to/lastmile_qr_scan", "android": "https://dc.lft.to/lastmile_qr_scan"}, "fusion_lon": 0.0, "fusion_lat": 0.0, "bike_id": "e64dd12052798bd8ddede1daa3f68d98", "name": "e64dd12052798bd8ddede1daa3f68d98", "lon": -76.94838933333334}, {"is_disabled": 0, "type": "electric_scooter", "is_reserved": 0, "lat": 38.91563033333333, "rental_uris": {"ios": "https://dc.lft.to/lastmile_qr_scan", "android": "https://dc.lft.to/lastmile_qr_scan"}, "fusion_lon": 0.0, "fusion_lat": 0.0, "bike_id": "61dfe2862657d3bf0dac1b3c4c13b146", "name": "61dfe2862657d3bf0dac1b3c4c13b146", "lon": -77.03122083333334}, {"is_disabled": 0, "type": "electric_scooter", "is_reserved": 0, "lat": 38.8842115, "rental_uris": {"ios": "https://dc.lft.to/lastmile_qr_scan", "android": "https://dc.lft.to/lastmile_qr_scan"}, "fusion_lon": 0.0, "fusion_lat": 0.0, "bike_id": "b9e2ca4d7b64f9093ef171a248287772", "name": "b9e2ca4d7b64f9093ef171a248287772", "lon": -77.02521216666666}, {"is_disabled": 0, "type": "electric_scooter", "is_reserved": 0, "lat": 38.916975, "rental_uris": {"ios": "https://dc.lft.to/lastmile_qr_scan", "android": "https://dc.lft.to/lastmile_qr_scan"}, "fusion_lon": 0.0, "fusion_lat": 0.0, "bike_id": "b05196b98d70d213df49f0dc326f3358", "name": "b05196b98d70d213df49f0dc326f3358", "lon": -77.02781216666666}, {"is_disabled": 0, "type": "electric_scooter", "is_reserved": 0, "lat": 38.9248495, "rental_uris": {"ios": "https://dc.lft.to/lastmile_qr_scan", "android": "https://dc.lft.to/lastmile_qr_scan"}, "fusion_lon": 0.0, "fusion_lat": 0.0, "bike_id": "5f034c9ebf6c3e58802401261c9d50e4", "name": "5f034c9ebf6c3e58802401261c9d50e4", "lon": -77.03500633333333}, {"is_disabled": 0, "type": "electric_bike", "is_reserved": 0, "lat": 38.83177083333333, "rental_uris": {"ios": "https://dc.lft.to/lastmile_qr_scan", "android": "https://dc.lft.to/lastmile_qr_scan"}, "fusion_lon": 0.0, "fusion_lat": 0.0, "bike_id": "81291583c099906d80670a08921538ef", "name": "81291583c099906d80670a08921538ef", "lon": -77.066968}, {"is_disabled": 0, "type": "electric_scooter", "is_reserved": 0, "lat": 38.91065533333333, "rental_uris": {"ios": "https://dc.lft.to/lastmile_qr_scan", "android": "https://dc.lft.to/lastmile_qr_scan"}, "fusion_lon": 0.0, "fusion_lat": 0.0, "bike_id": "b10484145a2bf6074c4321a3a838955c", "name": "b10484145a2bf6074c4321a3a838955c", "lon": -77.04486266666666}, {"is_disabled": 0, "type": "electric_scooter", "is_reserved": 0, "lat": 38.90147983333333, "rental_uris": {"ios": "https://dc.lft.to/lastmile_qr_scan", "android": "https://dc.lft.to/lastmile_qr_scan"}, "fusion_lon": 0.0, "fusion_lat": 0.0, "bike_id": "c2cec1471385e22868262be1c79741d1", "name": "c2cec1471385e22868262be1c79741d1", "lon": -77.046273}, {"is_disabled": 0, "type": "electric_scooter", "is_reserved": 0, "lat": 38.898601166666666, "rental_uris": {"ios": "https://dc.lft.to/lastmile_qr_scan", "android": "https://dc.lft.to/lastmile_qr_scan"}, "fusion_lon": 0.0, "fusion_lat": 0.0, "bike_id": "58929e7eb86e0624b13420246bfd0a2e", "name": "58929e7eb86e0624b13420246bfd0a2e", "lon": -77.02950616666666}, {"is_disabled": 0, "type": "electric_scooter", "is_reserved": 0, "lat": 38.9037095, "rental_uris": {"ios": "https://dc.lft.to/lastmile_qr_scan", "android": "https://dc.lft.to/lastmile_qr_scan"}, "fusion_lon": 0.0, "fusion_lat": 0.0, "bike_id": "193438bd978617880b0d8f88a369f702", "name": "193438bd978617880b0d8f88a369f702", "lon": -77.03183533333333}, {"is_disabled": 0, "type": "electric_scooter", "is_reserved": 0, "lat": 38.924852666666666, "rental_uris": {"ios": "https://dc.lft.to/lastmile_qr_scan", "android": "https://dc.lft.to/lastmile_qr_scan"}, "fusion_lon": 0.0, "fusion_lat": 0.0, "bike_id": "acf868ef33c397e943effa00f9537cb8", "name": "acf868ef33c397e943effa00f9537cb8", "lon": -77.02135416666667}, {"is_disabled": 0, "type": "electric_bike", "is_reserved": 0, "lat": 38.937415, "rental_uris": {"ios": "https://dc.lft.to/lastmile_qr_scan", "android": "https://dc.lft.to/lastmile_qr_scan"}, "fusion_lon": 0.0, "fusion_lat": 0.0, "bike_id": "4be29366b37d864186462ced3492413c", "name": "4be29366b37d864186462ced3492413c", "lon": -76.9457085}, {"is_disabled": 0, "type": "electric_scooter", "is_reserved": 0, "lat": 38.915674833333334, "rental_uris": {"ios": "https://dc.lft.to/lastmile_qr_scan", "android": "https://dc.lft.to/lastmile_qr_scan"}, "fusion_lon": 0.0, "fusion_lat": 0.0, "bike_id": "e0d254a6ad1f83b70a91834b0e1e5de7", "name": "e0d254a6ad1f83b70a91834b0e1e5de7", "lon": -77.0322095}, {"is_disabled": 0, "type": "electric_scooter", "is_reserved": 0, "lat": 38.892246, "rental_uris": {"ios": "https://dc.lft.to/lastmile_qr_scan", "android": "https://dc.lft.to/lastmile_qr_scan"}, "fusion_lon": 0.0, "fusion_lat": 0.0, "bike_id": "c55e8fd40b7f527d1c24b77989fbd79d", "name": "c55e8fd40b7f527d1c24b77989fbd79d", "lon": -77.0316265}, {"is_disabled": 0, "type": "electric_scooter", "is_reserved": 0, "lat": 38.90012766666667, "rental_uris": {"ios": "https://dc.lft.to/lastmile_qr_scan", "android": "https://dc.lft.to/lastmile_qr_scan"}, "fusion_lon": 0.0, "fusion_lat": 0.0, "bike_id": "54287597754cfbe5022df2e13ea554f3", "name": "54287597754cfbe5022df2e13ea554f3", "lon": -77.0267395}, {"is_disabled": 0, "type": "electric_scooter", "is_reserved": 0, "lat": 38.89542466666666, "rental_uris": {"ios": "https://dc.lft.to/lastmile_qr_scan", "android": "https://dc.lft.to/lastmile_qr_scan"}, "fusion_lon": 0.0, "fusion_lat": 0.0, "bike_id": "41b6f6d88b750ceae1ddc3ce412cf2cf", "name": "41b6f6d88b750ceae1ddc3ce412cf2cf", "lon": -77.00206733333333}, {"is_disabled": 0, "type": "electric_scooter", "is_reserved": 0, "lat": 38.903757666666664, "rental_uris": {"ios": "https://dc.lft.to/lastmile_qr_scan", "android": "https://dc.lft.to/lastmile_qr_scan"}, "fusion_lon": 0.0, "fusion_lat": 0.0, "bike_id": "10212fb9f09d3f2d45b8e9d8ae044058", "name": "10212fb9f09d3f2d45b8e9d8ae044058", "lon": -77.04499833333334}, {"is_disabled": 0, "type": "electric_scooter", "is_reserved": 0, "lat": 38.89222383333333, "rental_uris": {"ios": "https://dc.lft.to/lastmile_qr_scan", "android": "https://dc.lft.to/lastmile_qr_scan"}, "fusion_lon": 0.0, "fusion_lat": 0.0, "bike_id": "6c212c508314cfa313fad052a56fb7e0", "name": "6c212c508314cfa313fad052a56fb7e0", "lon": -77.04333316666667}, {"is_disabled": 0, "type": "electric_scooter", "is_reserved": 0, "lat": 38.923986, "rental_uris": {"ios": "https://dc.lft.to/lastmile_qr_scan", "android": "https://dc.lft.to/lastmile_qr_scan"}, "fusion_lon": 0.0, "fusion_lat": 0.0, "bike_id": "180f7d5c1786589d6cf8141759ea4da0", "name": "180f7d5c1786589d6cf8141759ea4da0", "lon": -77.04095116666667}, {"is_disabled": 0, "type": "electric_bike", "is_reserved": 0, "lat": 38.8855275, "rental_uris": {"ios": "https://dc.lft.to/lastmile_qr_scan", "android": "https://dc.lft.to/lastmile_qr_scan"}, "fusion_lon": 0.0, "fusion_lat": 0.0, "bike_id": "97fcd25dda2ccdbf9f3e1d172985744b", "name": "97fcd25dda2ccdbf9f3e1d172985744b", "lon": -77.156475}, {"is_disabled": 0, "type": "electric_scooter", "is_reserved": 0, "lat": 38.92156266666667, "rental_uris": {"ios": "https://dc.lft.to/lastmile_qr_scan", "android": "https://dc.lft.to/lastmile_qr_scan"}, "fusion_lon": 0.0, "fusion_lat": 0.0, "bike_id": "204b94b7d53db621f4ad74dfc6df8a4e", "name": "204b94b7d53db621f4ad74dfc6df8a4e", "lon": -77.03328916666666}, {"is_disabled": 0, "type": "electric_scooter", "is_reserved": 0, "lat": 38.92841266666667, "rental_uris": {"ios": "https://dc.lft.to/lastmile_qr_scan", "android": "https://dc.lft.to/lastmile_qr_scan"}, "fusion_lon": 0.0, "fusion_lat": 0.0, "bike_id": "4d0bb801e5bbfd00779fc3408d78f09f", "name": "4d0bb801e5bbfd00779fc3408d78f09f", "lon": -76.99364483333333}, {"is_disabled": 0, "type": "electric_scooter", "is_reserved": 0, "lat": 38.917222, "rental_uris": {"ios": "https://dc.lft.to/lastmile_qr_scan", "android": "https://dc.lft.to/lastmile_qr_scan"}, "fusion_lon": 0.0, "fusion_lat": 0.0, "bike_id": "c436a56e192e847e3486aa8d2fd825c7", "name": "c436a56e192e847e3486aa8d2fd825c7", "lon": -77.029763}, {"is_disabled": 0, "type": "electric_scooter", "is_reserved": 0, "lat": 38.93606166666667, "rental_uris": {"ios": "https://dc.lft.to/lastmile_qr_scan", "android": "https://dc.lft.to/lastmile_qr_scan"}, "fusion_lon": 0.0, "fusion_lat": 0.0, "bike_id": "35c55611cd1ac5201e1b70db475ebb03", "name": "35c55611cd1ac5201e1b70db475ebb03", "lon": -77.05860666666666}, {"is_disabled": 0, "type": "electric_scooter", "is_reserved": 0, "lat": 38.86249933333333, "rental_uris": {"ios": "https://dc.lft.to/lastmile_qr_scan", "android": "https://dc.lft.to/lastmile_qr_scan"}, "fusion_lon": 0.0, "fusion_lat": 0.0, "bike_id": "7543bb739561c91bcb4582c85c2de361", "name": "7543bb739561c91bcb4582c85c2de361", "lon": -76.98698583333334}, {"is_disabled": 0, "type": "electric_scooter", "is_reserved": 0, "lat": 38.917123, "rental_uris": {"ios": "https://dc.lft.to/lastmile_qr_scan", "android": "https://dc.lft.to/lastmile_qr_scan"}, "fusion_lon": 0.0, "fusion_lat": 0.0, "bike_id": "9489c785adb4e3e3452aa464613a9660", "name": "9489c785adb4e3e3452aa464613a9660", "lon": -77.03505883333334}, {"is_disabled": 0, "type": "electric_bike", "is_reserved": 0, "lat": 38.9220765, "rental_uris": {"ios": "https://dc.lft.to/lastmile_qr_scan", "android": "https://dc.lft.to/lastmile_qr_scan"}, "fusion_lon": 0.0, "fusion_lat": 0.0, "bike_id": "cb658dcdf9ddd0199eff876db7856faf", "name": "cb658dcdf9ddd0199eff876db7856faf", "lon": -76.98804383333334}, {"is_disabled": 0, "type": "electric_scooter", "is_reserved": 0, "lat": 38.946972833333334, "rental_uris": {"ios": "https://dc.lft.to/lastmile_qr_scan", "android": "https://dc.lft.to/lastmile_qr_scan"}, "fusion_lon": 0.0, "fusion_lat": 0.0, "bike_id": "bfc57bb8b61c59b3364e48a0a2c97e72", "name": "bfc57bb8b61c59b3364e48a0a2c97e72", "lon": -77.01941533333333}, {"is_disabled": 0, "type": "electric_scooter", "is_reserved": 0, "lat": 38.8747705, "rental_uris": {"ios": "https://dc.lft.to/lastmile_qr_scan", "android": "https://dc.lft.to/lastmile_qr_scan"}, "fusion_lon": 0.0, "fusion_lat": 0.0, "bike_id": "c41529fabea46590ae8db489b3fe456e", "name": "c41529fabea46590ae8db489b3fe456e", "lon": -77.00483966666667}, {"is_disabled": 0, "type": "electric_scooter", "is_reserved": 0, "lat": 38.91020016666667, "rental_uris": {"ios": "https://dc.lft.to/lastmile_qr_scan", "android": "https://dc.lft.to/lastmile_qr_scan"}, "fusion_lon": 0.0, "fusion_lat": 0.0, "bike_id": "bce614035e0ca9037b4e47f4170698c4", "name": "bce614035e0ca9037b4e47f4170698c4", "lon": -77.02297466666667}, {"is_disabled": 0, "type": "electric_bike", "is_reserved": 0, "lat": 38.805777666666664, "rental_uris": {"ios": "https://dc.lft.to/lastmile_qr_scan", "android": "https://dc.lft.to/lastmile_qr_scan"}, "fusion_lon": 0.0, "fusion_lat": 0.0, "bike_id": "3eb17359b9640058d2a4647b38ec32ae", "name": "3eb17359b9640058d2a4647b38ec32ae", "lon": -77.06865}, {"is_disabled": 0, "type": "electric_bike", "is_reserved": 0, "lat": 39.0389755, "rental_uris": {"ios": "https://dc.lft.to/lastmile_qr_scan", "android": "https://dc.lft.to/lastmile_qr_scan"}, "fusion_lon": 0.0, "fusion_lat": 0.0, "bike_id": "a769bd19adf3b323472219b58d398c37", "name": "a769bd19adf3b323472219b58d398c37", "lon": -77.05032083333333}, {"is_disabled": 0, "type": "electric_scooter", "is_reserved": 0, "lat": 38.924718166666665, "rental_uris": {"ios": "https://dc.lft.to/lastmile_qr_scan", "android": "https://dc.lft.to/lastmile_qr_scan"}, "fusion_lon": 0.0, "fusion_lat": 0.0, "bike_id": "4b4db55d7aa3e530d3d0044285439242", "name": "4b4db55d7aa3e530d3d0044285439242", "lon": -77.03902183333334}, {"is_disabled": 0, "type": "electric_scooter", "is_reserved": 0, "lat": 38.897352166666664, "rental_uris": {"ios": "https://dc.lft.to/lastmile_qr_scan", "android": "https://dc.lft.to/lastmile_qr_scan"}, "fusion_lon": 0.0, "fusion_lat": 0.0, "bike_id": "b66be7cf75ccb3aa0b6ae7f5fc5bf430", "name": "b66be7cf75ccb3aa0b6ae7f5fc5bf430", "lon": -77.02929083333333}, {"is_disabled": 0, "type": "electric_scooter", "is_reserved": 0, "lat": 38.88964166666667, "rental_uris": {"ios": "https://dc.lft.to/lastmile_qr_scan", "android": "https://dc.lft.to/lastmile_qr_scan"}, "fusion_lon": 0.0, "fusion_lat": 0.0, "bike_id": "4d0174d701d5b04112e66e1758150aab", "name": "4d0174d701d5b04112e66e1758150aab", "lon": -76.92737283333334}, {"is_disabled": 0, "type": "electric_scooter", "is_reserved": 0, "lat": 38.898768833333335, "rental_uris": {"ios": "https://dc.lft.to/lastmile_qr_scan", "android": "https://dc.lft.to/lastmile_qr_scan"}, "fusion_lon": 0.0, "fusion_lat": 0.0, "bike_id": "7929d5f9e88ac8901fda7c3fe75589a7", "name": "7929d5f9e88ac8901fda7c3fe75589a7", "lon": -76.93157966666666}, {"is_disabled": 0, "type": "electric_scooter", "is_reserved": 0, "lat": 38.8666255, "rental_uris": {"ios": "https://dc.lft.to/lastmile_qr_scan", "android": "https://dc.lft.to/lastmile_qr_scan"}, "fusion_lon": 0.0, "fusion_lat": 0.0, "bike_id": "6eb1d433993d8770c086dda128998603", "name": "6eb1d433993d8770c086dda128998603", "lon": -76.9850715}, {"is_disabled": 0, "type": "electric_scooter", "is_reserved": 0, "lat": 38.92883833333333, "rental_uris": {"ios": "https://dc.lft.to/lastmile_qr_scan", "android": "https://dc.lft.to/lastmile_qr_scan"}, "fusion_lon": 0.0, "fusion_lat": 0.0, "bike_id": "2a2af13ec9cc7fda9f0e1eb309a2a688", "name": "2a2af13ec9cc7fda9f0e1eb309a2a688", "lon": -77.02333433333334}, {"is_disabled": 0, "type": "electric_scooter", "is_reserved": 0, "lat": 38.8858485, "rental_uris": {"ios": "https://dc.lft.to/lastmile_qr_scan", "android": "https://dc.lft.to/lastmile_qr_scan"}, "fusion_lon": 0.0, "fusion_lat": 0.0, "bike_id": "df82440e87f282357c245a6c35fe1780", "name": "df82440e87f282357c245a6c35fe1780", "lon": -77.01746383333334}, {"is_disabled": 0, "type": "electric_scooter", "is_reserved": 0, "lat": 38.90663983333334, "rental_uris": {"ios": "https://dc.lft.to/lastmile_qr_scan", "android": "https://dc.lft.to/lastmile_qr_scan"}, "fusion_lon": 0.0, "fusion_lat": 0.0, "bike_id": "3be393b78da7c6aa9a7117d18e75b5cf", "name": "3be393b78da7c6aa9a7117d18e75b5cf", "lon": -77.00916016666666}, {"is_disabled": 0, "type": "electric_scooter", "is_reserved": 0, "lat": 38.91847966666667, "rental_uris": {"ios": "https://dc.lft.to/lastmile_qr_scan", "android": "https://dc.lft.to/lastmile_qr_scan"}, "fusion_lon": 0.0, "fusion_lat": 0.0, "bike_id": "a52820841099310502f3667bcc3ee704", "name": "a52820841099310502f3667bcc3ee704", "lon": -76.9654465}, {"is_disabled": 0, "type": "electric_scooter", "is_reserved": 0, "lat": 38.9256905, "rental_uris": {"ios": "https://dc.lft.to/lastmile_qr_scan", "android": "https://dc.lft.to/lastmile_qr_scan"}, "fusion_lon": 0.0, "fusion_lat": 0.0, "bike_id": "9b2116daae5f8eea190e07bd960545fa", "name": "9b2116daae5f8eea190e07bd960545fa", "lon": -77.0290845}, {"is_disabled": 0, "type": "electric_scooter", "is_reserved": 0, "lat": 38.90496433333333, "rental_uris": {"ios": "https://dc.lft.to/lastmile_qr_scan", "android": "https://dc.lft.to/lastmile_qr_scan"}, "fusion_lon": 0.0, "fusion_lat": 0.0, "bike_id": "6da8451dfdf2af5924541c18dcaae91e", "name": "6da8451dfdf2af5924541c18dcaae91e", "lon": -77.040929}, {"is_disabled": 0, "type": "electric_scooter", "is_reserved": 0, "lat": 38.905600666666665, "rental_uris": {"ios": "https://dc.lft.to/lastmile_qr_scan", "android": "https://dc.lft.to/lastmile_qr_scan"}, "fusion_lon": 0.0, "fusion_lat": 0.0, "bike_id": "619e0f91a216dd1d220efc71d4dd1cbb", "name": "619e0f91a216dd1d220efc71d4dd1cbb", "lon": -77.04193116666667}, {"is_disabled": 0, "type": "electric_scooter", "is_reserved": 0, "lat": 38.92548466666667, "rental_uris": {"ios": "https://dc.lft.to/lastmile_qr_scan", "android": "https://dc.lft.to/lastmile_qr_scan"}, "fusion_lon": 0.0, "fusion_lat": 0.0, "bike_id": "0b4ba22719db40b4a224fbef35dcbf4f", "name": "0b4ba22719db40b4a224fbef35dcbf4f", "lon": -77.00071966666667}, {"is_disabled": 0, "type": "electric_scooter", "is_reserved": 0, "lat": 38.91461916666667, "rental_uris": {"ios": "https://dc.lft.to/lastmile_qr_scan", "android": "https://dc.lft.to/lastmile_qr_scan"}, "fusion_lon": 0.0, "fusion_lat": 0.0, "bike_id": "f00d8b7c5d0aca6c8797e40e33fdf738", "name": "f00d8b7c5d0aca6c8797e40e33fdf738", "lon": -77.02195916666666}, {"is_disabled": 0, "type": "electric_scooter", "is_reserved": 0, "lat": 38.90868316666667, "rental_uris": {"ios": "https://dc.lft.to/lastmile_qr_scan", "android": "https://dc.lft.to/lastmile_qr_scan"}, "fusion_lon": 0.0, "fusion_lat": 0.0, "bike_id": "4099c3667e0be9496cb7dbfbe7901559", "name": "4099c3667e0be9496cb7dbfbe7901559", "lon": -77.02702783333334}, {"is_disabled": 0, "type": "electric_bike", "is_reserved": 0, "lat": 38.85205166666667, "rental_uris": {"ios": "https://dc.lft.to/lastmile_qr_scan", "android": "https://dc.lft.to/lastmile_qr_scan"}, "fusion_lon": 0.0, "fusion_lat": 0.0, "bike_id": "c28b6618659bd6ce558fc982065de6b9", "name": "c28b6618659bd6ce558fc982065de6b9", "lon": -77.1013655}, {"is_disabled": 0, "type": "electric_scooter", "is_reserved": 0, "lat": 38.87710283333333, "rental_uris": {"ios": "https://dc.lft.to/lastmile_qr_scan", "android": "https://dc.lft.to/lastmile_qr_scan"}, "fusion_lon": 0.0, "fusion_lat": 0.0, "bike_id": "484a976d4762bd14fed35c5def60107a", "name": "484a976d4762bd14fed35c5def60107a", "lon": -77.0176855}, {"is_disabled": 0, "type": "electric_scooter", "is_reserved": 0, "lat": 38.8987725, "rental_uris": {"ios": "https://dc.lft.to/lastmile_qr_scan", "android": "https://dc.lft.to/lastmile_qr_scan"}, "fusion_lon": 0.0, "fusion_lat": 0.0, "bike_id": "e9c76723e5b5c8ab6b0c2ff44ddd228f", "name": "e9c76723e5b5c8ab6b0c2ff44ddd228f", "lon": -76.93186683333333}, {"is_disabled": 0, "type": "electric_scooter", "is_reserved": 0, "lat": 38.905429833333336, "rental_uris": {"ios": "https://dc.lft.to/lastmile_qr_scan", "android": "https://dc.lft.to/lastmile_qr_scan"}, "fusion_lon": 0.0, "fusion_lat": 0.0, "bike_id": "069ff4fa768d0e17c31ad33b85e92038", "name": "069ff4fa768d0e17c31ad33b85e92038", "lon": -77.04016716666666}, {"is_disabled": 0, "type": "electric_scooter", "is_reserved": 0, "lat": 38.892233833333336, "rental_uris": {"ios": "https://dc.lft.to/lastmile_qr_scan", "android": "https://dc.lft.to/lastmile_qr_scan"}, "fusion_lon": 0.0, "fusion_lat": 0.0, "bike_id": "4bcc59a6610a8ec547d640e5eb53e995", "name": "4bcc59a6610a8ec547d640e5eb53e995", "lon": -77.04687516666667}, {"is_disabled": 0, "type": "electric_scooter", "is_reserved": 0, "lat": 38.89827016666667, "rental_uris": {"ios": "https://dc.lft.to/lastmile_qr_scan", "android": "https://dc.lft.to/lastmile_qr_scan"}, "fusion_lon": 0.0, "fusion_lat": 0.0, "bike_id": "8fc1822148478f94dc08a97976750a6c", "name": "8fc1822148478f94dc08a97976750a6c", "lon": -77.00720183333334}, {"is_disabled": 0, "type": "electric_scooter", "is_reserved": 0, "lat": 38.8921665, "rental_uris": {"ios": "https://dc.lft.to/lastmile_qr_scan", "android": "https://dc.lft.to/lastmile_qr_scan"}, "fusion_lon": 0.0, "fusion_lat": 0.0, "bike_id": "2e0df9f73dff4387921d9ba422083726", "name": "2e0df9f73dff4387921d9ba422083726", "lon": -77.02370616666667}, {"is_disabled": 0, "type": "electric_scooter", "is_reserved": 0, "lat": 38.90851116666666, "rental_uris": {"ios": "https://dc.lft.to/lastmile_qr_scan", "android": "https://dc.lft.to/lastmile_qr_scan"}, "fusion_lon": 0.0, "fusion_lat": 0.0, "bike_id": "02f6fb222698be65d9f4a2499b8d048e", "name": "02f6fb222698be65d9f4a2499b8d048e", "lon": -76.9995915}, {"is_disabled": 0, "type": "electric_bike", "is_reserved": 0, "lat": 38.896792833333336, "rental_uris": {"ios": "https://dc.lft.to/lastmile_qr_scan", "android": "https://dc.lft.to/lastmile_qr_scan"}, "fusion_lon": 0.0, "fusion_lat": 0.0, "bike_id": "1c6e1d1218806759ede26248a20e1155", "name": "1c6e1d1218806759ede26248a20e1155", "lon": -77.13876233333333}, {"is_disabled": 0, "type": "electric_scooter", "is_reserved": 0, "lat": 38.903759, "rental_uris": {"ios": "https://dc.lft.to/lastmile_qr_scan", "android": "https://dc.lft.to/lastmile_qr_scan"}, "fusion_lon": 0.0, "fusion_lat": 0.0, "bike_id": "31333422887802a9565a24088fa51a47", "name": "31333422887802a9565a24088fa51a47", "lon": -77.02464933333333}, {"is_disabled": 0, "type": "electric_scooter", "is_reserved": 0, "lat": 38.923567, "rental_uris": {"ios": "https://dc.lft.to/lastmile_qr_scan", "android": "https://dc.lft.to/lastmile_qr_scan"}, "fusion_lon": 0.0, "fusion_lat": 0.0, "bike_id": "cafe3febf0c43eb75fefd737eac2f141", "name": "cafe3febf0c43eb75fefd737eac2f141", "lon": -77.05040616666666}, {"is_disabled": 0, "type": "electric_scooter", "is_reserved": 0, "lat": 38.900280333333335, "rental_uris": {"ios": "https://dc.lft.to/lastmile_qr_scan", "android": "https://dc.lft.to/lastmile_qr_scan"}, "fusion_lon": 0.0, "fusion_lat": 0.0, "bike_id": "12c32a0121441c11749c9f4f73157f0e", "name": "12c32a0121441c11749c9f4f73157f0e", "lon": -76.9987325}, {"is_disabled": 0, "type": "electric_scooter", "is_reserved": 0, "lat": 38.91618966666667, "rental_uris": {"ios": "https://dc.lft.to/lastmile_qr_scan", "android": "https://dc.lft.to/lastmile_qr_scan"}, "fusion_lon": 0.0, "fusion_lat": 0.0, "bike_id": "a37c13bec6bc282468ddb4dc1fabf82e", "name": "a37c13bec6bc282468ddb4dc1fabf82e", "lon": -77.02284166666666}, {"is_disabled": 0, "type": "electric_scooter", "is_reserved": 0, "lat": 38.90649033333333, "rental_uris": {"ios": "https://dc.lft.to/lastmile_qr_scan", "android": "https://dc.lft.to/lastmile_qr_scan"}, "fusion_lon": 0.0, "fusion_lat": 0.0, "bike_id": "ffd05b82a86191bbe3b9eadb560645a0", "name": "ffd05b82a86191bbe3b9eadb560645a0", "lon": -77.0704305}, {"is_disabled": 0, "type": "electric_scooter", "is_reserved": 0, "lat": 38.916858166666664, "rental_uris": {"ios": "https://dc.lft.to/lastmile_qr_scan", "android": "https://dc.lft.to/lastmile_qr_scan"}, "fusion_lon": 0.0, "fusion_lat": 0.0, "bike_id": "3569083b3246c590df619822e79ce51f", "name": "3569083b3246c590df619822e79ce51f", "lon": -76.97958566666667}, {"is_disabled": 0, "type": "electric_scooter", "is_reserved": 0, "lat": 38.9014505, "rental_uris": {"ios": "https://dc.lft.to/lastmile_qr_scan", "android": "https://dc.lft.to/lastmile_qr_scan"}, "fusion_lon": 0.0, "fusion_lat": 0.0, "bike_id": "bb628a8bd84e10c3526e274d761ea63c", "name": "bb628a8bd84e10c3526e274d761ea63c", "lon": -77.02301016666667}, {"is_disabled": 0, "type": "electric_scooter", "is_reserved": 0, "lat": 38.89878083333333, "rental_uris": {"ios": "https://dc.lft.to/lastmile_qr_scan", "android": "https://dc.lft.to/lastmile_qr_scan"}, "fusion_lon": 0.0, "fusion_lat": 0.0, "bike_id": "926386c6b070f4de8efbd58de273db7e", "name": "926386c6b070f4de8efbd58de273db7e", "lon": -76.93194866666667}, {"is_disabled": 0, "type": "electric_bike", "is_reserved": 0, "lat": 38.87067416666667, "rental_uris": {"ios": "https://dc.lft.to/lastmile_qr_scan", "android": "https://dc.lft.to/lastmile_qr_scan"}, "fusion_lon": 0.0, "fusion_lat": 0.0, "bike_id": "c05813095990f9a221f72992bf545dc2", "name": "c05813095990f9a221f72992bf545dc2", "lon": -77.1106695}, {"is_disabled": 0, "type": "electric_scooter", "is_reserved": 0, "lat": 38.921920166666666, "rental_uris": {"ios": "https://dc.lft.to/lastmile_qr_scan", "android": "https://dc.lft.to/lastmile_qr_scan"}, "fusion_lon": 0.0, "fusion_lat": 0.0, "bike_id": "49c389071e7461078239c1dae8bbf654", "name": "49c389071e7461078239c1dae8bbf654", "lon": -77.04238516666666}, {"is_disabled": 0, "type": "electric_scooter", "is_reserved": 0, "lat": 38.948139833333336, "rental_uris": {"ios": "https://dc.lft.to/lastmile_qr_scan", "android": "https://dc.lft.to/lastmile_qr_scan"}, "fusion_lon": 0.0, "fusion_lat": 0.0, "bike_id": "ee70d4819fb656e64ed08eb75d933cef", "name": "ee70d4819fb656e64ed08eb75d933cef", "lon": -76.99902566666667}, {"is_disabled": 0, "type": "electric_scooter", "is_reserved": 0, "lat": 38.92150316666667, "rental_uris": {"ios": "https://dc.lft.to/lastmile_qr_scan", "android": "https://dc.lft.to/lastmile_qr_scan"}, "fusion_lon": 0.0, "fusion_lat": 0.0, "bike_id": "3c38f6f58c5520033572bb29360d4dd6", "name": "3c38f6f58c5520033572bb29360d4dd6", "lon": -77.03226}, {"is_disabled": 0, "type": "electric_scooter", "is_reserved": 0, "lat": 38.90691566666667, "rental_uris": {"ios": "https://dc.lft.to/lastmile_qr_scan", "android": "https://dc.lft.to/lastmile_qr_scan"}, "fusion_lon": 0.0, "fusion_lat": 0.0, "bike_id": "c9220f21c69dbd1be0c47ff14a33cddd", "name": "c9220f21c69dbd1be0c47ff14a33cddd", "lon": -77.063449}, {"is_disabled": 0, "type": "electric_scooter", "is_reserved": 0, "lat": 38.89932016666667, "rental_uris": {"ios": "https://dc.lft.to/lastmile_qr_scan", "android": "https://dc.lft.to/lastmile_qr_scan"}, "fusion_lon": 0.0, "fusion_lat": 0.0, "bike_id": "58f80497df7771d3e10d4765a2492e20", "name": "58f80497df7771d3e10d4765a2492e20", "lon": -77.0293075}, {"is_disabled": 0, "type": "electric_scooter", "is_reserved": 0, "lat": 38.93572183333333, "rental_uris": {"ios": "https://dc.lft.to/lastmile_qr_scan", "android": "https://dc.lft.to/lastmile_qr_scan"}, "fusion_lon": 0.0, "fusion_lat": 0.0, "bike_id": "1d9770c2bf5d785ec7543f91ca2342c4", "name": "1d9770c2bf5d785ec7543f91ca2342c4", "lon": -77.03739083333333}, {"is_disabled": 0, "type": "electric_scooter", "is_reserved": 0, "lat": 38.891929, "rental_uris": {"ios": "https://dc.lft.to/lastmile_qr_scan", "android": "https://dc.lft.to/lastmile_qr_scan"}, "fusion_lon": 0.0, "fusion_lat": 0.0, "bike_id": "67c6b7598a4342aecf213db5d51c532b", "name": "67c6b7598a4342aecf213db5d51c532b", "lon": -77.00299383333333}, {"is_disabled": 0, "type": "electric_scooter", "is_reserved": 0, "lat": 38.924089333333335, "rental_uris": {"ios": "https://dc.lft.to/lastmile_qr_scan", "android": "https://dc.lft.to/lastmile_qr_scan"}, "fusion_lon": 0.0, "fusion_lat": 0.0, "bike_id": "f29a5745b468ca0da069292868318d45", "name": "f29a5745b468ca0da069292868318d45", "lon": -77.04031633333334}, {"is_disabled": 0, "type": "electric_scooter", "is_reserved": 0, "lat": 38.9318045, "rental_uris": {"ios": "https://dc.lft.to/lastmile_qr_scan", "android": "https://dc.lft.to/lastmile_qr_scan"}, "fusion_lon": 0.0, "fusion_lat": 0.0, "bike_id": "c687eb19551438f495be1d752fca7638", "name": "c687eb19551438f495be1d752fca7638", "lon": -77.03872933333334}, {"is_disabled": 0, "type": "electric_scooter", "is_reserved": 0, "lat": 38.910051, "rental_uris": {"ios": "https://dc.lft.to/lastmile_qr_scan", "android": "https://dc.lft.to/lastmile_qr_scan"}, "fusion_lon": 0.0, "fusion_lat": 0.0, "bike_id": "ae194e90a0163caded7347d50acf3b84", "name": "ae194e90a0163caded7347d50acf3b84", "lon": -76.98636283333333}, {"is_disabled": 0, "type": "electric_scooter", "is_reserved": 0, "lat": 38.9006845, "rental_uris": {"ios": "https://dc.lft.to/lastmile_qr_scan", "android": "https://dc.lft.to/lastmile_qr_scan"}, "fusion_lon": 0.0, "fusion_lat": 0.0, "bike_id": "ae29c4e48448e6070b1c2ec786410cbd", "name": "ae29c4e48448e6070b1c2ec786410cbd", "lon": -77.04903}, {"is_disabled": 0, "type": "electric_scooter", "is_reserved": 0, "lat": 38.91814466666666, "rental_uris": {"ios": "https://dc.lft.to/lastmile_qr_scan", "android": "https://dc.lft.to/lastmile_qr_scan"}, "fusion_lon": 0.0, "fusion_lat": 0.0, "bike_id": "638072c047e8e23a763e7af0a5f0aee6", "name": "638072c047e8e23a763e7af0a5f0aee6", "lon": -77.02475583333333}, {"is_disabled": 0, "type": "electric_scooter", "is_reserved": 0, "lat": 38.903495666666664, "rental_uris": {"ios": "https://dc.lft.to/lastmile_qr_scan", "android": "https://dc.lft.to/lastmile_qr_scan"}, "fusion_lon": 0.0, "fusion_lat": 0.0, "bike_id": "b868278bc427b419a3a820cd5685c857", "name": "b868278bc427b419a3a820cd5685c857", "lon": -77.01107083333333}, {"is_disabled": 0, "type": "electric_scooter", "is_reserved": 0, "lat": 38.903791166666664, "rental_uris": {"ios": "https://dc.lft.to/lastmile_qr_scan", "android": "https://dc.lft.to/lastmile_qr_scan"}, "fusion_lon": 0.0, "fusion_lat": 0.0, "bike_id": "2711a827b7391300e7bea33e0179244e", "name": "2711a827b7391300e7bea33e0179244e", "lon": -77.04455666666667}, {"is_disabled": 0, "type": "electric_scooter", "is_reserved": 0, "lat": 38.91618716666667, "rental_uris": {"ios": "https://dc.lft.to/lastmile_qr_scan", "android": "https://dc.lft.to/lastmile_qr_scan"}, "fusion_lon": 0.0, "fusion_lat": 0.0, "bike_id": "c8946519b9529e14be74a522c14c3be7", "name": "c8946519b9529e14be74a522c14c3be7", "lon": -77.03270166666667}, {"is_disabled": 0, "type": "electric_scooter", "is_reserved": 0, "lat": 38.941565, "rental_uris": {"ios": "https://dc.lft.to/lastmile_qr_scan", "android": "https://dc.lft.to/lastmile_qr_scan"}, "fusion_lon": 0.0, "fusion_lat": 0.0, "bike_id": "c512db29cabf0d90236df0a47639af53", "name": "c512db29cabf0d90236df0a47639af53", "lon": -77.092554}, {"is_disabled": 0, "type": "electric_bike", "is_reserved": 0, "lat": 38.8402985, "rental_uris": {"ios": "https://dc.lft.to/lastmile_qr_scan", "android": "https://dc.lft.to/lastmile_qr_scan"}, "fusion_lon": 0.0, "fusion_lat": 0.0, "bike_id": "bd962e56816d884397842db5d64aa659", "name": "bd962e56816d884397842db5d64aa659", "lon": -76.97582983333334}, {"is_disabled": 0, "type": "electric_scooter", "is_reserved": 0, "lat": 38.9156905, "rental_uris": {"ios": "https://dc.lft.to/lastmile_qr_scan", "android": "https://dc.lft.to/lastmile_qr_scan"}, "fusion_lon": 0.0, "fusion_lat": 0.0, "bike_id": "1474ad0871ab9248222d8626799d0be7", "name": "1474ad0871ab9248222d8626799d0be7", "lon": -77.03124583333333}, {"is_disabled": 0, "type": "electric_scooter", "is_reserved": 0, "lat": 38.911917, "rental_uris": {"ios": "https://dc.lft.to/lastmile_qr_scan", "android": "https://dc.lft.to/lastmile_qr_scan"}, "fusion_lon": 0.0, "fusion_lat": 0.0, "bike_id": "af12dcc2678d1e3c79f9d8da9607294e", "name": "af12dcc2678d1e3c79f9d8da9607294e", "lon": -77.03974816666667}, {"is_disabled": 0, "type": "electric_scooter", "is_reserved": 0, "lat": 38.890362, "rental_uris": {"ios": "https://dc.lft.to/lastmile_qr_scan", "android": "https://dc.lft.to/lastmile_qr_scan"}, "fusion_lon": 0.0, "fusion_lat": 0.0, "bike_id": "e980ca6d2f7d7afe4581d9d07602a359", "name": "e980ca6d2f7d7afe4581d9d07602a359", "lon": -76.9514295}, {"is_disabled": 0, "type": "electric_bike", "is_reserved": 0, "lat": 38.99828866666667, "rental_uris": {"ios": "https://dc.lft.to/lastmile_qr_scan", "android": "https://dc.lft.to/lastmile_qr_scan"}, "fusion_lon": 0.0, "fusion_lat": 0.0, "bike_id": "bd3579af488e96f1b48f7561735610c9", "name": "bd3579af488e96f1b48f7561735610c9", "lon": -76.8837595}, {"is_disabled": 0, "type": "electric_scooter", "is_reserved": 0, "lat": 38.921149, "rental_uris": {"ios": "https://dc.lft.to/lastmile_qr_scan", "android": "https://dc.lft.to/lastmile_qr_scan"}, "fusion_lon": 0.0, "fusion_lat": 0.0, "bike_id": "22e9bcbba051f61abb9b9af64f383312", "name": "22e9bcbba051f61abb9b9af64f383312", "lon": -77.01804566666667}, {"is_disabled": 0, "type": "electric_scooter", "is_reserved": 0, "lat": 38.902719833333336, "rental_uris": {"ios": "https://dc.lft.to/lastmile_qr_scan", "android": "https://dc.lft.to/lastmile_qr_scan"}, "fusion_lon": 0.0, "fusion_lat": 0.0, "bike_id": "0d2adc0d14b1a1400ff000a6dff7984a", "name": "0d2adc0d14b1a1400ff000a6dff7984a", "lon": -77.038353}, {"is_disabled": 0, "type": "electric_scooter", "is_reserved": 0, "lat": 38.922914166666665, "rental_uris": {"ios": "https://dc.lft.to/lastmile_qr_scan", "android": "https://dc.lft.to/lastmile_qr_scan"}, "fusion_lon": 0.0, "fusion_lat": 0.0, "bike_id": "2a54599f97e1b8554fcfca2075f4feb1", "name": "2a54599f97e1b8554fcfca2075f4feb1", "lon": -77.03666316666667}, {"is_disabled": 0, "type": "electric_scooter", "is_reserved": 0, "lat": 38.908808666666665, "rental_uris": {"ios": "https://dc.lft.to/lastmile_qr_scan", "android": "https://dc.lft.to/lastmile_qr_scan"}, "fusion_lon": 0.0, "fusion_lat": 0.0, "bike_id": "90c25ebd8ae149a76b5c25b5ec63f6cc", "name": "90c25ebd8ae149a76b5c25b5ec63f6cc", "lon": -77.04337283333334}, {"is_disabled": 0, "type": "electric_scooter", "is_reserved": 0, "lat": 38.895531166666665, "rental_uris": {"ios": "https://dc.lft.to/lastmile_qr_scan", "android": "https://dc.lft.to/lastmile_qr_scan"}, "fusion_lon": 0.0, "fusion_lat": 0.0, "bike_id": "b9324ee8c04b1ee755a2bdf145d3cd0f", "name": "b9324ee8c04b1ee755a2bdf145d3cd0f", "lon": -77.02982916666667}, {"is_disabled": 0, "type": "electric_scooter", "is_reserved": 0, "lat": 38.9198785, "rental_uris": {"ios": "https://dc.lft.to/lastmile_qr_scan", "android": "https://dc.lft.to/lastmile_qr_scan"}, "fusion_lon": 0.0, "fusion_lat": 0.0, "bike_id": "b923e46a67fa232f323b81afe5d70634", "name": "b923e46a67fa232f323b81afe5d70634", "lon": -77.041804}, {"is_disabled": 0, "type": "electric_bike", "is_reserved": 0, "lat": 38.949138166666664, "rental_uris": {"ios": "https://dc.lft.to/lastmile_qr_scan", "android": "https://dc.lft.to/lastmile_qr_scan"}, "fusion_lon": 0.0, "fusion_lat": 0.0, "bike_id": "429454501d2fd04fb76baae9344bf347", "name": "429454501d2fd04fb76baae9344bf347", "lon": -76.97706383333333}, {"is_disabled": 0, "type": "electric_bike", "is_reserved": 0, "lat": 38.93957533333333, "rental_uris": {"ios": "https://dc.lft.to/lastmile_qr_scan", "android": "https://dc.lft.to/lastmile_qr_scan"}, "fusion_lon": 0.0, "fusion_lat": 0.0, "bike_id": "d8066ea704a315c9520388b3560bd410", "name": "d8066ea704a315c9520388b3560bd410", "lon": -77.36093383333333}, {"is_disabled": 0, "type": "electric_scooter", "is_reserved": 0, "lat": 38.90003566666667, "rental_uris": {"ios": "https://dc.lft.to/lastmile_qr_scan", "android": "https://dc.lft.to/lastmile_qr_scan"}, "fusion_lon": 0.0, "fusion_lat": 0.0, "bike_id": "924ecb5feab29a4c037eaf26054003f2", "name": "924ecb5feab29a4c037eaf26054003f2", "lon": -77.0322765}, {"is_disabled": 0, "type": "electric_bike", "is_reserved": 0, "lat": 38.96212766666667, "rental_uris": {"ios": "https://dc.lft.to/lastmile_qr_scan", "android": "https://dc.lft.to/lastmile_qr_scan"}, "fusion_lon": 0.0, "fusion_lat": 0.0, "bike_id": "b948bcfb570fe5e07807b51ac4c24a2d", "name": "b948bcfb570fe5e07807b51ac4c24a2d", "lon": -77.02627033333333}, {"is_disabled": 0, "type": "electric_scooter", "is_reserved": 0, "lat": 38.905877833333335, "rental_uris": {"ios": "https://dc.lft.to/lastmile_qr_scan", "android": "https://dc.lft.to/lastmile_qr_scan"}, "fusion_lon": 0.0, "fusion_lat": 0.0, "bike_id": "dea1cc8d641719a41939dbbb6b64c46f", "name": "dea1cc8d641719a41939dbbb6b64c46f", "lon": -77.07012233333333}, {"is_disabled": 0, "type": "electric_bike", "is_reserved": 0, "lat": 38.871097166666665, "rental_uris": {"ios": "https://dc.lft.to/lastmile_qr_scan", "android": "https://dc.lft.to/lastmile_qr_scan"}, "fusion_lon": 0.0, "fusion_lat": 0.0, "bike_id": "540db21e99b45c62c2de04e69a28b6a6", "name": "540db21e99b45c62c2de04e69a28b6a6", "lon": -76.9233395}, {"is_disabled": 0, "type": "electric_scooter", "is_reserved": 0, "lat": 38.92363816666666, "rental_uris": {"ios": "https://dc.lft.to/lastmile_qr_scan", "android": "https://dc.lft.to/lastmile_qr_scan"}, "fusion_lon": 0.0, "fusion_lat": 0.0, "bike_id": "902ac9e5b69f5e9552aaee142b7fae64", "name": "902ac9e5b69f5e9552aaee142b7fae64", "lon": -77.03252533333334}, {"is_disabled": 0, "type": "electric_scooter", "is_reserved": 0, "lat": 38.9461195, "rental_uris": {"ios": "https://dc.lft.to/lastmile_qr_scan", "android": "https://dc.lft.to/lastmile_qr_scan"}, "fusion_lon": 0.0, "fusion_lat": 0.0, "bike_id": "ca2cfa28e8e0acab8d458ef5c90e1999", "name": "ca2cfa28e8e0acab8d458ef5c90e1999", "lon": -77.0234575}, {"is_disabled": 0, "type": "electric_scooter", "is_reserved": 0, "lat": 38.91742083333333, "rental_uris": {"ios": "https://dc.lft.to/lastmile_qr_scan", "android": "https://dc.lft.to/lastmile_qr_scan"}, "fusion_lon": 0.0, "fusion_lat": 0.0, "bike_id": "0f93685b1c62f3519e2f6e6a2ad6866c", "name": "0f93685b1c62f3519e2f6e6a2ad6866c", "lon": -77.0238485}, {"is_disabled": 0, "type": "electric_scooter", "is_reserved": 0, "lat": 38.90370933333333, "rental_uris": {"ios": "https://dc.lft.to/lastmile_qr_scan", "android": "https://dc.lft.to/lastmile_qr_scan"}, "fusion_lon": 0.0, "fusion_lat": 0.0, "bike_id": "2df15e51c2680356a698268f32b1da5b", "name": "2df15e51c2680356a698268f32b1da5b", "lon": -77.023528}, {"is_disabled": 0, "type": "electric_scooter", "is_reserved": 0, "lat": 38.90238933333333, "rental_uris": {"ios": "https://dc.lft.to/lastmile_qr_scan", "android": "https://dc.lft.to/lastmile_qr_scan"}, "fusion_lon": 0.0, "fusion_lat": 0.0, "bike_id": "5a0741a091e817b89304110d22cf2bbc", "name": "5a0741a091e817b89304110d22cf2bbc", "lon": -77.0468035}, {"is_disabled": 0, "type": "electric_scooter", "is_reserved": 0, "lat": 38.847945, "rental_uris": {"ios": "https://dc.lft.to/lastmile_qr_scan", "android": "https://dc.lft.to/lastmile_qr_scan"}, "fusion_lon": 0.0, "fusion_lat": 0.0, "bike_id": "4d25a6d1299a36d07b143ebd05367d1b", "name": "4d25a6d1299a36d07b143ebd05367d1b", "lon": -76.96711}, {"is_disabled": 0, "type": "electric_scooter", "is_reserved": 0, "lat": 38.9059365, "rental_uris": {"ios": "https://dc.lft.to/lastmile_qr_scan", "android": "https://dc.lft.to/lastmile_qr_scan"}, "fusion_lon": 0.0, "fusion_lat": 0.0, "bike_id": "303290d494ec0bc16aa7280c04c1e17f", "name": "303290d494ec0bc16aa7280c04c1e17f", "lon": -77.05132233333333}, {"is_disabled": 0, "type": "electric_bike", "is_reserved": 0, "lat": 38.877633833333334, "rental_uris": {"ios": "https://dc.lft.to/lastmile_qr_scan", "android": "https://dc.lft.to/lastmile_qr_scan"}, "fusion_lon": 0.0, "fusion_lat": 0.0, "bike_id": "6502414aeda8ef6ba34bc6018b652e04", "name": "6502414aeda8ef6ba34bc6018b652e04", "lon": -77.01057416666667}, {"is_disabled": 0, "type": "electric_scooter", "is_reserved": 0, "lat": 38.928695166666664, "rental_uris": {"ios": "https://dc.lft.to/lastmile_qr_scan", "android": "https://dc.lft.to/lastmile_qr_scan"}, "fusion_lon": 0.0, "fusion_lat": 0.0, "bike_id": "9be17bc4dc8ddbdf1319e0757d58111e", "name": "9be17bc4dc8ddbdf1319e0757d58111e", "lon": -77.03371866666667}, {"is_disabled": 0, "type": "electric_bike", "is_reserved": 0, "lat": 38.916678833333336, "rental_uris": {"ios": "https://dc.lft.to/lastmile_qr_scan", "android": "https://dc.lft.to/lastmile_qr_scan"}, "fusion_lon": 0.0, "fusion_lat": 0.0, "bike_id": "82f9e6c3cbcf7f836e3f1b9811494ccc", "name": "82f9e6c3cbcf7f836e3f1b9811494ccc", "lon": -77.02482083333334}, {"is_disabled": 0, "type": "electric_scooter", "is_reserved": 0, "lat": 38.91120083333333, "rental_uris": {"ios": "https://dc.lft.to/lastmile_qr_scan", "android": "https://dc.lft.to/lastmile_qr_scan"}, "fusion_lon": 0.0, "fusion_lat": 0.0, "bike_id": "594523e0b38f8dacd9fc5205623e5cfc", "name": "594523e0b38f8dacd9fc5205623e5cfc", "lon": -77.04186933333334}, {"is_disabled": 0, "type": "electric_bike", "is_reserved": 0, "lat": 38.901178, "rental_uris": {"ios": "https://dc.lft.to/lastmile_qr_scan", "android": "https://dc.lft.to/lastmile_qr_scan"}, "fusion_lon": 0.0, "fusion_lat": 0.0, "bike_id": "d36aa43230ab0494ce16227c5a7ce001", "name": "d36aa43230ab0494ce16227c5a7ce001", "lon": -77.058041}, {"is_disabled": 0, "type": "electric_scooter", "is_reserved": 0, "lat": 38.88698133333333, "rental_uris": {"ios": "https://dc.lft.to/lastmile_qr_scan", "android": "https://dc.lft.to/lastmile_qr_scan"}, "fusion_lon": 0.0, "fusion_lat": 0.0, "bike_id": "46f20a0472cb0b6bf23fc7f97b87a980", "name": "46f20a0472cb0b6bf23fc7f97b87a980", "lon": -77.0174745}, {"is_disabled": 0, "type": "electric_scooter", "is_reserved": 0, "lat": 38.9036895, "rental_uris": {"ios": "https://dc.lft.to/lastmile_qr_scan", "android": "https://dc.lft.to/lastmile_qr_scan"}, "fusion_lon": 0.0, "fusion_lat": 0.0, "bike_id": "84197328aaf8f59ee893bfe8fb7e5f0c", "name": "84197328aaf8f59ee893bfe8fb7e5f0c", "lon": -77.0519405}, {"is_disabled": 0, "type": "electric_scooter", "is_reserved": 0, "lat": 38.90382066666667, "rental_uris": {"ios": "https://dc.lft.to/lastmile_qr_scan", "android": "https://dc.lft.to/lastmile_qr_scan"}, "fusion_lon": 0.0, "fusion_lat": 0.0, "bike_id": "16dac910d9883990788db667403abac7", "name": "16dac910d9883990788db667403abac7", "lon": -77.02877116666667}, {"is_disabled": 0, "type": "electric_bike", "is_reserved": 0, "lat": 38.92259116666666, "rental_uris": {"ios": "https://dc.lft.to/lastmile_qr_scan", "android": "https://dc.lft.to/lastmile_qr_scan"}, "fusion_lon": 0.0, "fusion_lat": 0.0, "bike_id": "225e2d289bf385bed974a25b98bf9977", "name": "225e2d289bf385bed974a25b98bf9977", "lon": -76.981563}, {"is_disabled": 0, "type": "electric_scooter", "is_reserved": 0, "lat": 38.91297266666667, "rental_uris": {"ios": "https://dc.lft.to/lastmile_qr_scan", "android": "https://dc.lft.to/lastmile_qr_scan"}, "fusion_lon": 0.0, "fusion_lat": 0.0, "bike_id": "664649ce12abef461e3fd9035de5d9af", "name": "664649ce12abef461e3fd9035de5d9af", "lon": -77.04161566666667}, {"is_disabled": 0, "type": "electric_scooter", "is_reserved": 0, "lat": 38.892168, "rental_uris": {"ios": "https://dc.lft.to/lastmile_qr_scan", "android": "https://dc.lft.to/lastmile_qr_scan"}, "fusion_lon": 0.0, "fusion_lat": 0.0, "bike_id": "6698bd1f0eb2288ebcf10857eb476131", "name": "6698bd1f0eb2288ebcf10857eb476131", "lon": -77.0222015}, {"is_disabled": 0, "type": "electric_bike", "is_reserved": 0, "lat": 39.0293665, "rental_uris": {"ios": "https://dc.lft.to/lastmile_qr_scan", "android": "https://dc.lft.to/lastmile_qr_scan"}, "fusion_lon": 0.0, "fusion_lat": 0.0, "bike_id": "39a0ff73f7074228f2189cc4a66f0b02", "name": "39a0ff73f7074228f2189cc4a66f0b02", "lon": -77.04924483333333}, {"is_disabled": 0, "type": "electric_scooter", "is_reserved": 0, "lat": 38.92125466666667, "rental_uris": {"ios": "https://dc.lft.to/lastmile_qr_scan", "android": "https://dc.lft.to/lastmile_qr_scan"}, "fusion_lon": 0.0, "fusion_lat": 0.0, "bike_id": "8799abf20c53ba5fd0c10985d064dffc", "name": "8799abf20c53ba5fd0c10985d064dffc", "lon": -77.04441516666667}, {"is_disabled": 0, "type": "electric_scooter", "is_reserved": 0, "lat": 38.931161, "rental_uris": {"ios": "https://dc.lft.to/lastmile_qr_scan", "android": "https://dc.lft.to/lastmile_qr_scan"}, "fusion_lon": 0.0, "fusion_lat": 0.0, "bike_id": "23c5924123add8b96726ae0c4f9b8cae", "name": "23c5924123add8b96726ae0c4f9b8cae", "lon": -77.029866}, {"is_disabled": 0, "type": "electric_scooter", "is_reserved": 0, "lat": 38.9007755, "rental_uris": {"ios": "https://dc.lft.to/lastmile_qr_scan", "android": "https://dc.lft.to/lastmile_qr_scan"}, "fusion_lon": 0.0, "fusion_lat": 0.0, "bike_id": "11c2347075f0f5f5b214b5e92e7c9bac", "name": "11c2347075f0f5f5b214b5e92e7c9bac", "lon": -77.050287}, {"is_disabled": 0, "type": "electric_scooter", "is_reserved": 0, "lat": 38.9082125, "rental_uris": {"ios": "https://dc.lft.to/lastmile_qr_scan", "android": "https://dc.lft.to/lastmile_qr_scan"}, "fusion_lon": 0.0, "fusion_lat": 0.0, "bike_id": "43fab014ede928daa50e7bbe861eb9bf", "name": "43fab014ede928daa50e7bbe861eb9bf", "lon": -76.99457383333333}, {"is_disabled": 0, "type": "electric_scooter", "is_reserved": 0, "lat": 38.915643, "rental_uris": {"ios": "https://dc.lft.to/lastmile_qr_scan", "android": "https://dc.lft.to/lastmile_qr_scan"}, "fusion_lon": 0.0, "fusion_lat": 0.0, "bike_id": "9ddd58278ef114159153d154a7e8eeaf", "name": "9ddd58278ef114159153d154a7e8eeaf", "lon": -77.02725283333334}, {"is_disabled": 0, "type": "electric_scooter", "is_reserved": 0, "lat": 38.89523616666666, "rental_uris": {"ios": "https://dc.lft.to/lastmile_qr_scan", "android": "https://dc.lft.to/lastmile_qr_scan"}, "fusion_lon": 0.0, "fusion_lat": 0.0, "bike_id": "27a52287156e56a88dba08ba8a4a55a4", "name": "27a52287156e56a88dba08ba8a4a55a4", "lon": -77.043409}, {"is_disabled": 0, "type": "electric_scooter", "is_reserved": 0, "lat": 38.909479166666664, "rental_uris": {"ios": "https://dc.lft.to/lastmile_qr_scan", "android": "https://dc.lft.to/lastmile_qr_scan"}, "fusion_lon": 0.0, "fusion_lat": 0.0, "bike_id": "4c89431ccd54c2f473cc4103616413b3", "name": "4c89431ccd54c2f473cc4103616413b3", "lon": -77.02195216666667}, {"is_disabled": 0, "type": "electric_scooter", "is_reserved": 0, "lat": 38.866352166666665, "rental_uris": {"ios": "https://dc.lft.to/lastmile_qr_scan", "android": "https://dc.lft.to/lastmile_qr_scan"}, "fusion_lon": 0.0, "fusion_lat": 0.0, "bike_id": "a2111641644304ebd67cd5a3ce5c8a01", "name": "a2111641644304ebd67cd5a3ce5c8a01", "lon": -76.98538566666667}, {"is_disabled": 0, "type": "electric_scooter", "is_reserved": 0, "lat": 38.899584833333336, "rental_uris": {"ios": "https://dc.lft.to/lastmile_qr_scan", "android": "https://dc.lft.to/lastmile_qr_scan"}, "fusion_lon": 0.0, "fusion_lat": 0.0, "bike_id": "df854d9744378afe8394edd958333f2c", "name": "df854d9744378afe8394edd958333f2c", "lon": -77.02133866666667}, {"is_disabled": 0, "type": "electric_scooter", "is_reserved": 0, "lat": 38.94955133333333, "rental_uris": {"ios": "https://dc.lft.to/lastmile_qr_scan", "android": "https://dc.lft.to/lastmile_qr_scan"}, "fusion_lon": 0.0, "fusion_lat": 0.0, "bike_id": "3c362334aa415cf797491a26037771fc", "name": "3c362334aa415cf797491a26037771fc", "lon": -77.0272415}, {"is_disabled": 0, "type": "electric_scooter", "is_reserved": 0, "lat": 38.9064415, "rental_uris": {"ios": "https://dc.lft.to/lastmile_qr_scan", "android": "https://dc.lft.to/lastmile_qr_scan"}, "fusion_lon": 0.0, "fusion_lat": 0.0, "bike_id": "e9eed7c99ef9e0c7ba63e04dc2b55664", "name": "e9eed7c99ef9e0c7ba63e04dc2b55664", "lon": -77.04854533333334}, {"is_disabled": 0, "type": "electric_scooter", "is_reserved": 0, "lat": 38.90579283333334, "rental_uris": {"ios": "https://dc.lft.to/lastmile_qr_scan", "android": "https://dc.lft.to/lastmile_qr_scan"}, "fusion_lon": 0.0, "fusion_lat": 0.0, "bike_id": "48ffe9b8329c674e096693a06c846016", "name": "48ffe9b8329c674e096693a06c846016", "lon": -77.04438}, {"is_disabled": 0, "type": "electric_scooter", "is_reserved": 0, "lat": 38.89222633333333, "rental_uris": {"ios": "https://dc.lft.to/lastmile_qr_scan", "android": "https://dc.lft.to/lastmile_qr_scan"}, "fusion_lon": 0.0, "fusion_lat": 0.0, "bike_id": "8127dffb956a3c0032a2798325fa4820", "name": "8127dffb956a3c0032a2798325fa4820", "lon": -77.04328316666667}, {"is_disabled": 0, "type": "electric_scooter", "is_reserved": 0, "lat": 38.93587983333333, "rental_uris": {"ios": "https://dc.lft.to/lastmile_qr_scan", "android": "https://dc.lft.to/lastmile_qr_scan"}, "fusion_lon": 0.0, "fusion_lat": 0.0, "bike_id": "2ca818d45768718d186b2b983796672c", "name": "2ca818d45768718d186b2b983796672c", "lon": -77.035203}, {"is_disabled": 0, "type": "electric_scooter", "is_reserved": 0, "lat": 38.89228166666667, "rental_uris": {"ios": "https://dc.lft.to/lastmile_qr_scan", "android": "https://dc.lft.to/lastmile_qr_scan"}, "fusion_lon": 0.0, "fusion_lat": 0.0, "bike_id": "91e2b03d425be237c07726ad4c1c9b89", "name": "91e2b03d425be237c07726ad4c1c9b89", "lon": -77.02580783333333}, {"is_disabled": 0, "type": "electric_scooter", "is_reserved": 0, "lat": 38.89735266666667, "rental_uris": {"ios": "https://dc.lft.to/lastmile_qr_scan", "android": "https://dc.lft.to/lastmile_qr_scan"}, "fusion_lon": 0.0, "fusion_lat": 0.0, "bike_id": "6a80102aa4b194895ac833a583fe961b", "name": "6a80102aa4b194895ac833a583fe961b", "lon": -77.026697}, {"is_disabled": 0, "type": "electric_scooter", "is_reserved": 0, "lat": 38.93784483333334, "rental_uris": {"ios": "https://dc.lft.to/lastmile_qr_scan", "android": "https://dc.lft.to/lastmile_qr_scan"}, "fusion_lon": 0.0, "fusion_lat": 0.0, "bike_id": "40623e8e7448fcacbe112a28ef9ec049", "name": "40623e8e7448fcacbe112a28ef9ec049", "lon": -77.0231105}, {"is_disabled": 0, "type": "electric_scooter", "is_reserved": 0, "lat": 38.90516216666666, "rental_uris": {"ios": "https://dc.lft.to/lastmile_qr_scan", "android": "https://dc.lft.to/lastmile_qr_scan"}, "fusion_lon": 0.0, "fusion_lat": 0.0, "bike_id": "44be86765d43fc23e684fda202a075f2", "name": "44be86765d43fc23e684fda202a075f2", "lon": -77.04182966666667}, {"is_disabled": 0, "type": "electric_scooter", "is_reserved": 0, "lat": 38.900673, "rental_uris": {"ios": "https://dc.lft.to/lastmile_qr_scan", "android": "https://dc.lft.to/lastmile_qr_scan"}, "fusion_lon": 0.0, "fusion_lat": 0.0, "bike_id": "f22ba59d489ad003b5bc47c207fa8e63", "name": "f22ba59d489ad003b5bc47c207fa8e63", "lon": -77.04913133333334}, {"is_disabled": 0, "type": "electric_scooter", "is_reserved": 0, "lat": 38.93212916666667, "rental_uris": {"ios": "https://dc.lft.to/lastmile_qr_scan", "android": "https://dc.lft.to/lastmile_qr_scan"}, "fusion_lon": 0.0, "fusion_lat": 0.0, "bike_id": "167c832b094b678caaef84c74dfa4643", "name": "167c832b094b678caaef84c74dfa4643", "lon": -77.0339755}, {"is_disabled": 0, "type": "electric_scooter", "is_reserved": 0, "lat": 38.912872666666665, "rental_uris": {"ios": "https://dc.lft.to/lastmile_qr_scan", "android": "https://dc.lft.to/lastmile_qr_scan"}, "fusion_lon": 0.0, "fusion_lat": 0.0, "bike_id": "baac00cb35047b5c3e194a49738347cb", "name": "baac00cb35047b5c3e194a49738347cb", "lon": -77.02170333333333}, {"is_disabled": 0, "type": "electric_scooter", "is_reserved": 0, "lat": 38.902672333333335, "rental_uris": {"ios": "https://dc.lft.to/lastmile_qr_scan", "android": "https://dc.lft.to/lastmile_qr_scan"}, "fusion_lon": 0.0, "fusion_lat": 0.0, "bike_id": "65864cd573a5c4158d1dfad5d602c247", "name": "65864cd573a5c4158d1dfad5d602c247", "lon": -77.05313666666666}, {"is_disabled": 0, "type": "electric_scooter", "is_reserved": 0, "lat": 38.901552333333335, "rental_uris": {"ios": "https://dc.lft.to/lastmile_qr_scan", "android": "https://dc.lft.to/lastmile_qr_scan"}, "fusion_lon": 0.0, "fusion_lat": 0.0, "bike_id": "893b3a5a5e34de5ca5ea4b4217f43030", "name": "893b3a5a5e34de5ca5ea4b4217f43030", "lon": -77.02282733333334}, {"is_disabled": 0, "type": "electric_scooter", "is_reserved": 0, "lat": 38.87558416666667, "rental_uris": {"ios": "https://dc.lft.to/lastmile_qr_scan", "android": "https://dc.lft.to/lastmile_qr_scan"}, "fusion_lon": 0.0, "fusion_lat": 0.0, "bike_id": "e9f5b8b9c3024d0cf16ff03cb692889e", "name": "e9f5b8b9c3024d0cf16ff03cb692889e", "lon": -77.0059455}, {"is_disabled": 0, "type": "electric_scooter", "is_reserved": 0, "lat": 38.9170935, "rental_uris": {"ios": "https://dc.lft.to/lastmile_qr_scan", "android": "https://dc.lft.to/lastmile_qr_scan"}, "fusion_lon": 0.0, "fusion_lat": 0.0, "bike_id": "2454f261ce56ffb4a6d692c3fdb01c10", "name": "2454f261ce56ffb4a6d692c3fdb01c10", "lon": -77.04077616666666}, {"is_disabled": 0, "type": "electric_scooter", "is_reserved": 0, "lat": 38.92026, "rental_uris": {"ios": "https://dc.lft.to/lastmile_qr_scan", "android": "https://dc.lft.to/lastmile_qr_scan"}, "fusion_lon": 0.0, "fusion_lat": 0.0, "bike_id": "4a9f7b59c45f0a437c2a0907c35f62ac", "name": "4a9f7b59c45f0a437c2a0907c35f62ac", "lon": -76.99560416666667}, {"is_disabled": 0, "type": "electric_scooter", "is_reserved": 0, "lat": 38.88672316666667, "rental_uris": {"ios": "https://dc.lft.to/lastmile_qr_scan", "android": "https://dc.lft.to/lastmile_qr_scan"}, "fusion_lon": 0.0, "fusion_lat": 0.0, "bike_id": "da603f742d37d2e87682f9b532ba78e8", "name": "da603f742d37d2e87682f9b532ba78e8", "lon": -77.01518216666666}, {"is_disabled": 0, "type": "electric_scooter", "is_reserved": 0, "lat": 38.918131833333334, "rental_uris": {"ios": "https://dc.lft.to/lastmile_qr_scan", "android": "https://dc.lft.to/lastmile_qr_scan"}, "fusion_lon": 0.0, "fusion_lat": 0.0, "bike_id": "8afe76b82c8bd5dbc327096500be207c", "name": "8afe76b82c8bd5dbc327096500be207c", "lon": -77.02476616666667}, {"is_disabled": 0, "type": "electric_scooter", "is_reserved": 0, "lat": 38.900212833333335, "rental_uris": {"ios": "https://dc.lft.to/lastmile_qr_scan", "android": "https://dc.lft.to/lastmile_qr_scan"}, "fusion_lon": 0.0, "fusion_lat": 0.0, "bike_id": "268f10a1fcb2b75e518db6c22afb618b", "name": "268f10a1fcb2b75e518db6c22afb618b", "lon": -77.04083066666666}, {"is_disabled": 0, "type": "electric_scooter", "is_reserved": 0, "lat": 38.8838255, "rental_uris": {"ios": "https://dc.lft.to/lastmile_qr_scan", "android": "https://dc.lft.to/lastmile_qr_scan"}, "fusion_lon": 0.0, "fusion_lat": 0.0, "bike_id": "adb77cffaeb8b71be22317d95a16faa4", "name": "adb77cffaeb8b71be22317d95a16faa4", "lon": -77.04605133333334}, {"is_disabled": 0, "type": "electric_scooter", "is_reserved": 0, "lat": 38.85175133333333, "rental_uris": {"ios": "https://dc.lft.to/lastmile_qr_scan", "android": "https://dc.lft.to/lastmile_qr_scan"}, "fusion_lon": 0.0, "fusion_lat": 0.0, "bike_id": "3aee7216247549e64259346f316896cf", "name": "3aee7216247549e64259346f316896cf", "lon": -76.9958045}, {"is_disabled": 0, "type": "electric_scooter", "is_reserved": 0, "lat": 38.9398795, "rental_uris": {"ios": "https://dc.lft.to/lastmile_qr_scan", "android": "https://dc.lft.to/lastmile_qr_scan"}, "fusion_lon": 0.0, "fusion_lat": 0.0, "bike_id": "623250b30a065fe80c0af6189f35b08e", "name": "623250b30a065fe80c0af6189f35b08e", "lon": -77.06119}, {"is_disabled": 0, "type": "electric_scooter", "is_reserved": 0, "lat": 38.8813725, "rental_uris": {"ios": "https://dc.lft.to/lastmile_qr_scan", "android": "https://dc.lft.to/lastmile_qr_scan"}, "fusion_lon": 0.0, "fusion_lat": 0.0, "bike_id": "7bfd43edd51d23a3bd31e10cbf116e2f", "name": "7bfd43edd51d23a3bd31e10cbf116e2f", "lon": -77.01770633333334}, {"is_disabled": 0, "type": "electric_scooter", "is_reserved": 0, "lat": 38.93106266666667, "rental_uris": {"ios": "https://dc.lft.to/lastmile_qr_scan", "android": "https://dc.lft.to/lastmile_qr_scan"}, "fusion_lon": 0.0, "fusion_lat": 0.0, "bike_id": "f87af26502ed31f20275c506c250f931", "name": "f87af26502ed31f20275c506c250f931", "lon": -77.0123365}, {"is_disabled": 0, "type": "electric_scooter", "is_reserved": 0, "lat": 38.8442615, "rental_uris": {"ios": "https://dc.lft.to/lastmile_qr_scan", "android": "https://dc.lft.to/lastmile_qr_scan"}, "fusion_lon": 0.0, "fusion_lat": 0.0, "bike_id": "9b5f17852eecfd6aeebef263f82d7bc8", "name": "9b5f17852eecfd6aeebef263f82d7bc8", "lon": -76.99779366666667}, {"is_disabled": 0, "type": "electric_scooter", "is_reserved": 0, "lat": 38.844273666666666, "rental_uris": {"ios": "https://dc.lft.to/lastmile_qr_scan", "android": "https://dc.lft.to/lastmile_qr_scan"}, "fusion_lon": 0.0, "fusion_lat": 0.0, "bike_id": "e47d85ed0cf3ee923fe583031380491e", "name": "e47d85ed0cf3ee923fe583031380491e", "lon": -76.99781016666667}, {"is_disabled": 0, "type": "electric_scooter", "is_reserved": 0, "lat": 38.89840783333333, "rental_uris": {"ios": "https://dc.lft.to/lastmile_qr_scan", "android": "https://dc.lft.to/lastmile_qr_scan"}, "fusion_lon": 0.0, "fusion_lat": 0.0, "bike_id": "657d52be24dcc4302e3a0243621693fe", "name": "657d52be24dcc4302e3a0243621693fe", "lon": -76.946388}, {"is_disabled": 0, "type": "electric_bike", "is_reserved": 0, "lat": 38.84370883333333, "rental_uris": {"ios": "https://dc.lft.to/lastmile_qr_scan", "android": "https://dc.lft.to/lastmile_qr_scan"}, "fusion_lon": 0.0, "fusion_lat": 0.0, "bike_id": "a9c76f08dbdfa8a5fa6f2bc6a9ad59e8", "name": "a9c76f08dbdfa8a5fa6f2bc6a9ad59e8", "lon": -76.97821333333333}, {"is_disabled": 0, "type": "electric_scooter", "is_reserved": 0, "lat": 38.9044715, "rental_uris": {"ios": "https://dc.lft.to/lastmile_qr_scan", "android": "https://dc.lft.to/lastmile_qr_scan"}, "fusion_lon": 0.0, "fusion_lat": 0.0, "bike_id": "edef36771a09481a9d4fe053190170ac", "name": "edef36771a09481a9d4fe053190170ac", "lon": -77.04625716666666}, {"is_disabled": 0, "type": "electric_scooter", "is_reserved": 0, "lat": 38.88432816666667, "rental_uris": {"ios": "https://dc.lft.to/lastmile_qr_scan", "android": "https://dc.lft.to/lastmile_qr_scan"}, "fusion_lon": 0.0, "fusion_lat": 0.0, "bike_id": "1f2a4357abce4d4b99b2b710e1219d00", "name": "1f2a4357abce4d4b99b2b710e1219d00", "lon": -76.9575525}, {"is_disabled": 0, "type": "electric_scooter", "is_reserved": 0, "lat": 38.89045633333333, "rental_uris": {"ios": "https://dc.lft.to/lastmile_qr_scan", "android": "https://dc.lft.to/lastmile_qr_scan"}, "fusion_lon": 0.0, "fusion_lat": 0.0, "bike_id": "6b0dfc94634084dd915b4af02b50ce86", "name": "6b0dfc94634084dd915b4af02b50ce86", "lon": -76.93754683333333}, {"is_disabled": 0, "type": "electric_scooter", "is_reserved": 0, "lat": 38.91431033333333, "rental_uris": {"ios": "https://dc.lft.to/lastmile_qr_scan", "android": "https://dc.lft.to/lastmile_qr_scan"}, "fusion_lon": 0.0, "fusion_lat": 0.0, "bike_id": "88d6c716d18e61d242d5b5456efbc177", "name": "88d6c716d18e61d242d5b5456efbc177", "lon": -77.0281565}, {"is_disabled": 0, "type": "electric_scooter", "is_reserved": 0, "lat": 38.90756983333333, "rental_uris": {"ios": "https://dc.lft.to/lastmile_qr_scan", "android": "https://dc.lft.to/lastmile_qr_scan"}, "fusion_lon": 0.0, "fusion_lat": 0.0, "bike_id": "0b4ab29aadcead6bd6fa8b736dc966f6", "name": "0b4ab29aadcead6bd6fa8b736dc966f6", "lon": -77.034605}, {"is_disabled": 0, "type": "electric_scooter", "is_reserved": 0, "lat": 38.916693333333335, "rental_uris": {"ios": "https://dc.lft.to/lastmile_qr_scan", "android": "https://dc.lft.to/lastmile_qr_scan"}, "fusion_lon": 0.0, "fusion_lat": 0.0, "bike_id": "bf91ae28b86e3303b90ef09433592a86", "name": "bf91ae28b86e3303b90ef09433592a86", "lon": -77.021789}, {"is_disabled": 0, "type": "electric_bike", "is_reserved": 0, "lat": 38.857153333333336, "rental_uris": {"ios": "https://dc.lft.to/lastmile_qr_scan", "android": "https://dc.lft.to/lastmile_qr_scan"}, "fusion_lon": 0.0, "fusion_lat": 0.0, "bike_id": "a972c26c66ef40d0d56c2257c9e2b278", "name": "a972c26c66ef40d0d56c2257c9e2b278", "lon": -76.9711115}, {"is_disabled": 0, "type": "electric_scooter", "is_reserved": 0, "lat": 38.901256333333336, "rental_uris": {"ios": "https://dc.lft.to/lastmile_qr_scan", "android": "https://dc.lft.to/lastmile_qr_scan"}, "fusion_lon": 0.0, "fusion_lat": 0.0, "bike_id": "4d4c0e4fa7f04b22bf51da0b557320b1", "name": "4d4c0e4fa7f04b22bf51da0b557320b1", "lon": -77.03370616666666}, {"is_disabled": 0, "type": "electric_scooter", "is_reserved": 0, "lat": 38.934870333333336, "rental_uris": {"ios": "https://dc.lft.to/lastmile_qr_scan", "android": "https://dc.lft.to/lastmile_qr_scan"}, "fusion_lon": 0.0, "fusion_lat": 0.0, "bike_id": "c3ae7d9edfa7085bbd43e9ba0b07a0fa", "name": "c3ae7d9edfa7085bbd43e9ba0b07a0fa", "lon": -77.0727325}, {"is_disabled": 0, "type": "electric_scooter", "is_reserved": 0, "lat": 38.88136216666667, "rental_uris": {"ios": "https://dc.lft.to/lastmile_qr_scan", "android": "https://dc.lft.to/lastmile_qr_scan"}, "fusion_lon": 0.0, "fusion_lat": 0.0, "bike_id": "2c209c38e9776a9439e26ded0c07c4d1", "name": "2c209c38e9776a9439e26ded0c07c4d1", "lon": -77.01568933333333}, {"is_disabled": 0, "type": "electric_scooter", "is_reserved": 0, "lat": 38.903760166666665, "rental_uris": {"ios": "https://dc.lft.to/lastmile_qr_scan", "android": "https://dc.lft.to/lastmile_qr_scan"}, "fusion_lon": 0.0, "fusion_lat": 0.0, "bike_id": "2688d2cf960f06b7fd64eecd62878c58", "name": "2688d2cf960f06b7fd64eecd62878c58", "lon": -77.04495816666666}, {"is_disabled": 0, "type": "electric_scooter", "is_reserved": 0, "lat": 38.924860333333335, "rental_uris": {"ios": "https://dc.lft.to/lastmile_qr_scan", "android": "https://dc.lft.to/lastmile_qr_scan"}, "fusion_lon": 0.0, "fusion_lat": 0.0, "bike_id": "cd07599f7b39d1ccb003d8cb0bf13c28", "name": "cd07599f7b39d1ccb003d8cb0bf13c28", "lon": -77.00894866666667}, {"is_disabled": 0, "type": "electric_bike", "is_reserved": 0, "lat": 38.86594316666667, "rental_uris": {"ios": "https://dc.lft.to/lastmile_qr_scan", "android": "https://dc.lft.to/lastmile_qr_scan"}, "fusion_lon": 0.0, "fusion_lat": 0.0, "bike_id": "a6af8ac5454b0b9fefd3e7e6975e1e91", "name": "a6af8ac5454b0b9fefd3e7e6975e1e91", "lon": -76.98780633333334}, {"is_disabled": 0, "type": "electric_scooter", "is_reserved": 0, "lat": 38.916924333333334, "rental_uris": {"ios": "https://dc.lft.to/lastmile_qr_scan", "android": "https://dc.lft.to/lastmile_qr_scan"}, "fusion_lon": 0.0, "fusion_lat": 0.0, "bike_id": "e18373e5849f3d9ded97b2d30b5f058a", "name": "e18373e5849f3d9ded97b2d30b5f058a", "lon": -77.03864783333333}, {"is_disabled": 0, "type": "electric_scooter", "is_reserved": 0, "lat": 38.929606166666666, "rental_uris": {"ios": "https://dc.lft.to/lastmile_qr_scan", "android": "https://dc.lft.to/lastmile_qr_scan"}, "fusion_lon": 0.0, "fusion_lat": 0.0, "bike_id": "4a9e04c5d532ed3f995afe8348eda9fc", "name": "4a9e04c5d532ed3f995afe8348eda9fc", "lon": -77.005279}, {"is_disabled": 0, "type": "electric_bike", "is_reserved": 0, "lat": 38.931121, "rental_uris": {"ios": "https://dc.lft.to/lastmile_qr_scan", "android": "https://dc.lft.to/lastmile_qr_scan"}, "fusion_lon": 0.0, "fusion_lat": 0.0, "bike_id": "6d13c49e36d8eea3d1aed21358218020", "name": "6d13c49e36d8eea3d1aed21358218020", "lon": -77.078489}, {"is_disabled": 0, "type": "electric_scooter", "is_reserved": 0, "lat": 38.9026885, "rental_uris": {"ios": "https://dc.lft.to/lastmile_qr_scan", "android": "https://dc.lft.to/lastmile_qr_scan"}, "fusion_lon": 0.0, "fusion_lat": 0.0, "bike_id": "23ac968d1270828374a38d644529a110", "name": "23ac968d1270828374a38d644529a110", "lon": -77.05311533333334}, {"is_disabled": 0, "type": "electric_scooter", "is_reserved": 0, "lat": 38.90363883333333, "rental_uris": {"ios": "https://dc.lft.to/lastmile_qr_scan", "android": "https://dc.lft.to/lastmile_qr_scan"}, "fusion_lon": 0.0, "fusion_lat": 0.0, "bike_id": "3a2286dd3c35207b5c9c2d8304908c55", "name": "3a2286dd3c35207b5c9c2d8304908c55", "lon": -76.99862766666666}, {"is_disabled": 0, "type": "electric_scooter", "is_reserved": 0, "lat": 38.902918, "rental_uris": {"ios": "https://dc.lft.to/lastmile_qr_scan", "android": "https://dc.lft.to/lastmile_qr_scan"}, "fusion_lon": 0.0, "fusion_lat": 0.0, "bike_id": "d39def034ec4c33dec3832c736c6e59a", "name": "d39def034ec4c33dec3832c736c6e59a", "lon": -77.03837516666667}, {"is_disabled": 0, "type": "electric_scooter", "is_reserved": 0, "lat": 38.90359566666667, "rental_uris": {"ios": "https://dc.lft.to/lastmile_qr_scan", "android": "https://dc.lft.to/lastmile_qr_scan"}, "fusion_lon": 0.0, "fusion_lat": 0.0, "bike_id": "963c31132f089aaa65f2ab0616e47eed", "name": "963c31132f089aaa65f2ab0616e47eed", "lon": -77.01748716666667}, {"is_disabled": 0, "type": "electric_scooter", "is_reserved": 0, "lat": 38.912606833333335, "rental_uris": {"ios": "https://dc.lft.to/lastmile_qr_scan", "android": "https://dc.lft.to/lastmile_qr_scan"},