{"data": {"bikes": [{"is_reserved": 0, "type": "electric_scooter", "fusion_lat": 0.0, "is_disabled": 0, "rental_uris": {"ios": "https://dc.lft.to/lastmile_qr_scan", "android": "https://dc.lft.to/lastmile_qr_scan"}, "bike_id": "550ae1c0d69e3a675d91ca9a48a6ce6c", "lat": 38.92343066666667, "name": "550ae1c0d69e3a675d91ca9a48a6ce6c", "lon": -77.05788833333334, "fusion_lon": 0.0}, {"is_reserved": 0, "type": "electric_scooter", "fusion_lat": 0.0, "is_disabled": 0, "rental_uris": {"ios": "https://dc.lft.to/lastmile_qr_scan", "android": "https://dc.lft.to/lastmile_qr_scan"}, "bike_id": "f8a6411ba1c84df03a1ba111bff56e3f", "lat": 38.9090775, "name": "f8a6411ba1c84df03a1ba111bff56e3f", "lon": -77.03513116666667, "fusion_lon": 0.0}, {"is_reserved": 0, "type": "electric_bike", "fusion_lat": 0.0, "is_disabled": 0, "rental_uris": {"ios": "https://dc.lft.to/lastmile_qr_scan", "android": "https://dc.lft.to/lastmile_qr_scan"}, "bike_id": "93031df3b1c396cce2f801944d503203", "lat": 38.83157933333333, "name": "93031df3b1c396cce2f801944d503203", "lon": -76.9958965, "fusion_lon": 0.0}, {"is_reserved": 0, "type": "electric_scooter", "fusion_lat": 0.0, "is_disabled": 0, "rental_uris": {"ios": "https://dc.lft.to/lastmile_qr_scan", "android": "https://dc.lft.to/lastmile_qr_scan"}, "bike_id": "c5a92faf6abc956086258819953977e6", "lat": 38.909683333333334, "name": "c5a92faf6abc956086258819953977e6", "lon": -77.02295166666667, "fusion_lon": 0.0}, {"is_reserved": 0, "type": "electric_scooter", "fusion_lat": 0.0, "is_disabled": 0, "rental_uris": {"ios": "https://dc.lft.to/lastmile_qr_scan", "android": "https://dc.lft.to/lastmile_qr_scan"}, "bike_id": "7a8ee7188dbc27850415f733fb54b574", "lat": 38.87640416666667, "name": "7a8ee7188dbc27850415f733fb54b574", "lon": -76.992953, "fusion_lon": 0.0}, {"is_reserved": 0, "type": "electric_scooter", "fusion_lat": 0.0, "is_disabled": 0, "rental_uris": {"ios": "https://dc.lft.to/lastmile_qr_scan", "android": "https://dc.lft.to/lastmile_qr_scan"}, "bike_id": "701f9355b0e4b6bf2bea9df3ebee608b", "lat": 38.91737416666667, "name": "701f9355b0e4b6bf2bea9df3ebee608b", "lon": -77.0177285, "fusion_lon": 0.0}, {"is_reserved": 0, "type": "electric_scooter", "fusion_lat": 0.0, "is_disabled": 0, "rental_uris": {"ios": "https://dc.lft.to/lastmile_qr_scan", "android": "https://dc.lft.to/lastmile_qr_scan"}, "bike_id": "0a7cc6da295038cb039fca333e6b2be4", "lat": 38.926077666666664, "name": "0a7cc6da295038cb039fca333e6b2be4", "lon": -77.02389116666667, "fusion_lon": 0.0}, {"is_reserved": 0, "type": "electric_scooter", "fusion_lat": 0.0, "is_disabled": 0, "rental_uris": {"ios": "https://dc.lft.to/lastmile_qr_scan", "android": "https://dc.lft.to/lastmile_qr_scan"}, "bike_id": "deaf4d795fc128e68c36daafbc0abf3d", "lat": 38.9057375, "name": "deaf4d795fc128e68c36daafbc0abf3d", "lon": -76.97626583333333, "fusion_lon": 0.0}, {"is_reserved": 0, "type": "electric_scooter", "fusion_lat": 0.0, "is_disabled": 0, "rental_uris": {"ios": "https://dc.lft.to/lastmile_qr_scan", "android": "https://dc.lft.to/lastmile_qr_scan"}, "bike_id": "8d2fbb8f4bdb0f6130e3cb48cf413277", "lat": 38.87460183333334, "name": "8d2fbb8f4bdb0f6130e3cb48cf413277", "lon": -77.00479416666667, "fusion_lon": 0.0}, {"is_reserved": 0, "type": "electric_bike", "fusion_lat": 0.0, "is_disabled": 0, "rental_uris": {"ios": "https://dc.lft.to/lastmile_qr_scan", "android": "https://dc.lft.to/lastmile_qr_scan"}, "bike_id": "43adda91f419c8b0cae3c05d69eaff27", "lat": 38.879977833333335, "name": "43adda91f419c8b0cae3c05d69eaff27", "lon": -76.9855115, "fusion_lon": 0.0}, {"is_reserved": 0, "type": "electric_scooter", "fusion_lat": 0.0, "is_disabled": 0, "rental_uris": {"ios": "https://dc.lft.to/lastmile_qr_scan", "android": "https://dc.lft.to/lastmile_qr_scan"}, "bike_id": "ed7a2a691d98145ec6c32d4869324bbf", "lat": 38.93514833333333, "name": "ed7a2a691d98145ec6c32d4869324bbf", "lon": -77.05693516666666, "fusion_lon": 0.0}, {"is_reserved": 0, "type": "electric_scooter", "fusion_lat": 0.0, "is_disabled": 0, "rental_uris": {"ios": "https://dc.lft.to/lastmile_qr_scan", "android": "https://dc.lft.to/lastmile_qr_scan"}, "bike_id": "1143e10d2b30e570713c7d23743b09dc", "lat": 38.921646833333334, "name": "1143e10d2b30e570713c7d23743b09dc", "lon": -77.0402765, "fusion_lon": 0.0}, {"is_reserved": 0, "type": "electric_scooter", "fusion_lat": 0.0, "is_disabled": 0, "rental_uris": {"ios": "https://dc.lft.to/lastmile_qr_scan", "android": "https://dc.lft.to/lastmile_qr_scan"}, "bike_id": "8b673e9b9cbdb45335948991fde82ff9", "lat": 38.9238425, "name": "8b673e9b9cbdb45335948991fde82ff9", "lon": -77.02959833333334, "fusion_lon": 0.0}, {"is_reserved": 0, "type": "electric_scooter", "fusion_lat": 0.0, "is_disabled": 0, "rental_uris": {"ios": "https://dc.lft.to/lastmile_qr_scan", "android": "https://dc.lft.to/lastmile_qr_scan"}, "bike_id": "f7e72a31cb9f140a9307675ab693addd", "lat": 38.908465, "name": "f7e72a31cb9f140a9307675ab693addd", "lon": -77.02360233333333, "fusion_lon": 0.0}, {"is_reserved": 0, "type": "electric_scooter", "fusion_lat": 0.0, "is_disabled": 0, "rental_uris": {"ios": "https://dc.lft.to/lastmile_qr_scan", "android": "https://dc.lft.to/lastmile_qr_scan"}, "bike_id": "9c76988714844818f3b887f0c2006117", "lat": 38.922004333333334, "name": "9c76988714844818f3b887f0c2006117", "lon": -77.0204215, "fusion_lon": 0.0}, {"is_reserved": 0, "type": "electric_bike", "fusion_lat": 0.0, "is_disabled": 0, "rental_uris": {"ios": "https://dc.lft.to/lastmile_qr_scan", "android": "https://dc.lft.to/lastmile_qr_scan"}, "bike_id": "2ada3920eb045d5fc797914a892fef9b", "lat": 39.02647016666667, "name": "2ada3920eb045d5fc797914a892fef9b", "lon": -77.03686266666666, "fusion_lon": 0.0}, {"is_reserved": 0, "type": "electric_scooter", "fusion_lat": 0.0, "is_disabled": 0, "rental_uris": {"ios": "https://dc.lft.to/lastmile_qr_scan", "android": "https://dc.lft.to/lastmile_qr_scan"}, "bike_id": "def035c7c439a3eff15b605afe21f44a", "lat": 38.914068, "name": "def035c7c439a3eff15b605afe21f44a", "lon": -77.0205785, "fusion_lon": 0.0}, {"is_reserved": 0, "type": "electric_scooter", "fusion_lat": 0.0, "is_disabled": 0, "rental_uris": {"ios": "https://dc.lft.to/lastmile_qr_scan", "android": "https://dc.lft.to/lastmile_qr_scan"}, "bike_id": "6cb82c8299465f55f531f8a27c1fd3bc", "lat": 38.880338, "name": "6cb82c8299465f55f531f8a27c1fd3bc", "lon": -77.01743483333334, "fusion_lon": 0.0}, {"is_reserved": 0, "type": "electric_scooter", "fusion_lat": 0.0, "is_disabled": 0, "rental_uris": {"ios": "https://dc.lft.to/lastmile_qr_scan", "android": "https://dc.lft.to/lastmile_qr_scan"}, "bike_id": "11d1a10090565813fde7e56bf44515b7", "lat": 38.90087533333333, "name": "11d1a10090565813fde7e56bf44515b7", "lon": -76.98333333333333, "fusion_lon": 0.0}, {"is_reserved": 0, "type": "electric_scooter", "fusion_lat": 0.0, "is_disabled": 0, "rental_uris": {"ios": "https://dc.lft.to/lastmile_qr_scan", "android": "https://dc.lft.to/lastmile_qr_scan"}, "bike_id": "2490ac564a56c361b9cb5e9a18dea4f8", "lat": 38.9276555, "name": "2490ac564a56c361b9cb5e9a18dea4f8", "lon": -77.05272116666667, "fusion_lon": 0.0}, {"is_reserved": 0, "type": "electric_scooter", "fusion_lat": 0.0, "is_disabled": 0, "rental_uris": {"ios": "https://dc.lft.to/lastmile_qr_scan", "android": "https://dc.lft.to/lastmile_qr_scan"}, "bike_id": "9254237237bf9aff468c1515197fbca4", "lat": 38.89743383333333, "name": "9254237237bf9aff468c1515197fbca4", "lon": -76.9469705, "fusion_lon": 0.0}, {"is_reserved": 0, "type": "electric_scooter", "fusion_lat": 0.0, "is_disabled": 0, "rental_uris": {"ios": "https://dc.lft.to/lastmile_qr_scan", "android": "https://dc.lft.to/lastmile_qr_scan"}, "bike_id": "1a88cec0a51a0d356b8d9c67b8e370a8", "lat": 38.886213, "name": "1a88cec0a51a0d356b8d9c67b8e370a8", "lon": -76.926346, "fusion_lon": 0.0}, {"is_reserved": 0, "type": "electric_scooter", "fusion_lat": 0.0, "is_disabled": 0, "rental_uris": {"ios": "https://dc.lft.to/lastmile_qr_scan", "android": "https://dc.lft.to/lastmile_qr_scan"}, "bike_id": "72dd1fa696cc972b3e7af1e22d1d4491", "lat": 38.87918416666667, "name": "72dd1fa696cc972b3e7af1e22d1d4491", "lon": -77.02157033333333, "fusion_lon": 0.0}, {"is_reserved": 0, "type": "electric_scooter", "fusion_lat": 0.0, "is_disabled": 0, "rental_uris": {"ios": "https://dc.lft.to/lastmile_qr_scan", "android": "https://dc.lft.to/lastmile_qr_scan"}, "bike_id": "06c7a621cdf8bd0cd6189715ad129f0b", "lat": 38.91102, "name": "06c7a621cdf8bd0cd6189715ad129f0b", "lon": -77.01162, "fusion_lon": 0.0}, {"is_reserved": 0, "type": "electric_scooter", "fusion_lat": 0.0, "is_disabled": 0, "rental_uris": {"ios": "https://dc.lft.to/lastmile_qr_scan", "android": "https://dc.lft.to/lastmile_qr_scan"}, "bike_id": "9f460ecac0e3bab0b41e553441000dc3", "lat": 38.9558775, "name": "9f460ecac0e3bab0b41e553441000dc3", "lon": -77.01789283333333, "fusion_lon": 0.0}, {"is_reserved": 0, "type": "electric_scooter", "fusion_lat": 0.0, "is_disabled": 0, "rental_uris": {"ios": "https://dc.lft.to/lastmile_qr_scan", "android": "https://dc.lft.to/lastmile_qr_scan"}, "bike_id": "125e47896e810caf912fe2cdf9de9acc", "lat": 38.873892833333336, "name": "125e47896e810caf912fe2cdf9de9acc", "lon": -77.001272, "fusion_lon": 0.0}, {"is_reserved": 0, "type": "electric_scooter", "fusion_lat": 0.0, "is_disabled": 0, "rental_uris": {"ios": "https://dc.lft.to/lastmile_qr_scan", "android": "https://dc.lft.to/lastmile_qr_scan"}, "bike_id": "e91419fe80f7b6ea7a29504353ef0ece", "lat": 38.92806566666667, "name": "e91419fe80f7b6ea7a29504353ef0ece", "lon": -77.04327733333334, "fusion_lon": 0.0}, {"is_reserved": 0, "type": "electric_scooter", "fusion_lat": 0.0, "is_disabled": 0, "rental_uris": {"ios": "https://dc.lft.to/lastmile_qr_scan", "android": "https://dc.lft.to/lastmile_qr_scan"}, "bike_id": "ea5804defc38caae7a6b8fa06c85e0ac", "lat": 38.9326955, "name": "ea5804defc38caae7a6b8fa06c85e0ac", "lon": -77.02094866666667, "fusion_lon": 0.0}, {"is_reserved": 0, "type": "electric_scooter", "fusion_lat": 0.0, "is_disabled": 0, "rental_uris": {"ios": "https://dc.lft.to/lastmile_qr_scan", "android": "https://dc.lft.to/lastmile_qr_scan"}, "bike_id": "525cfa882bc913a5bbda250e3b3d9206", "lat": 38.89753316666667, "name": "525cfa882bc913a5bbda250e3b3d9206", "lon": -77.0279375, "fusion_lon": 0.0}, {"is_reserved": 0, "type": "electric_scooter", "fusion_lat": 0.0, "is_disabled": 0, "rental_uris": {"ios": "https://dc.lft.to/lastmile_qr_scan", "android": "https://dc.lft.to/lastmile_qr_scan"}, "bike_id": "f2fc77304e521fba812f7591073d2d2f", "lat": 38.90106433333333, "name": "f2fc77304e521fba812f7591073d2d2f", "lon": -77.03441466666666, "fusion_lon": 0.0}, {"is_reserved": 0, "type": "electric_scooter", "fusion_lat": 0.0, "is_disabled": 0, "rental_uris": {"ios": "https://dc.lft.to/lastmile_qr_scan", "android": "https://dc.lft.to/lastmile_qr_scan"}, "bike_id": "3cc76765e544c5bb0511245fdeae43e6", "lat": 38.923571833333334, "name": "3cc76765e544c5bb0511245fdeae43e6", "lon": -77.07310116666666, "fusion_lon": 0.0}, {"is_reserved": 0, "type": "electric_scooter", "fusion_lat": 0.0, "is_disabled": 0, "rental_uris": {"ios": "https://dc.lft.to/lastmile_qr_scan", "android": "https://dc.lft.to/lastmile_qr_scan"}, "bike_id": "91ca99e6a82ccbcec40d7b95f4d716a7", "lat": 38.93462383333333, "name": "91ca99e6a82ccbcec40d7b95f4d716a7", "lon": -77.02791383333333, "fusion_lon": 0.0}, {"is_reserved": 0, "type": "electric_bike", "fusion_lat": 0.0, "is_disabled": 0, "rental_uris": {"ios": "https://dc.lft.to/lastmile_qr_scan", "android": "https://dc.lft.to/lastmile_qr_scan"}, "bike_id": "642c7c5e85143e753190797646e4e1fd", "lat": 38.877306, "name": "642c7c5e85143e753190797646e4e1fd", "lon": -77.118493, "fusion_lon": 0.0}, {"is_reserved": 0, "type": "electric_scooter", "fusion_lat": 0.0, "is_disabled": 0, "rental_uris": {"ios": "https://dc.lft.to/lastmile_qr_scan", "android": "https://dc.lft.to/lastmile_qr_scan"}, "bike_id": "2acba1b66bf6bbff3f86cbb88fb1e998", "lat": 38.93088983333333, "name": "2acba1b66bf6bbff3f86cbb88fb1e998", "lon": -77.03441166666667, "fusion_lon": 0.0}, {"is_reserved": 0, "type": "electric_scooter", "fusion_lat": 0.0, "is_disabled": 0, "rental_uris": {"ios": "https://dc.lft.to/lastmile_qr_scan", "android": "https://dc.lft.to/lastmile_qr_scan"}, "bike_id": "3896a54a7b5747d4b72571ea1cf43916", "lat": 38.91597466666666, "name": "3896a54a7b5747d4b72571ea1cf43916", "lon": -77.03214283333334, "fusion_lon": 0.0}, {"is_reserved": 0, "type": "electric_scooter", "fusion_lat": 0.0, "is_disabled": 0, "rental_uris": {"ios": "https://dc.lft.to/lastmile_qr_scan", "android": "https://dc.lft.to/lastmile_qr_scan"}, "bike_id": "865d682c0f51fe6883574c080548be30", "lat": 38.921816166666666, "name": "865d682c0f51fe6883574c080548be30", "lon": -77.0401405, "fusion_lon": 0.0}, {"is_reserved": 0, "type": "electric_scooter", "fusion_lat": 0.0, "is_disabled": 0, "rental_uris": {"ios": "https://dc.lft.to/lastmile_qr_scan", "android": "https://dc.lft.to/lastmile_qr_scan"}, "bike_id": "ea270bd9ff8f8fe7b37da92e558db123", "lat": 38.90235933333334, "name": "ea270bd9ff8f8fe7b37da92e558db123", "lon": -77.02007266666666, "fusion_lon": 0.0}, {"is_reserved": 0, "type": "electric_bike", "fusion_lat": 0.0, "is_disabled": 0, "rental_uris": {"ios": "https://dc.lft.to/lastmile_qr_scan", "android": "https://dc.lft.to/lastmile_qr_scan"}, "bike_id": "0b2cbb0543c40eef3df2727b53b1f971", "lat": 38.916865333333334, "name": "0b2cbb0543c40eef3df2727b53b1f971", "lon": -77.02527966666666, "fusion_lon": 0.0}, {"is_reserved": 0, "type": "electric_bike", "fusion_lat": 0.0, "is_disabled": 0, "rental_uris": {"ios": "https://dc.lft.to/lastmile_qr_scan", "android": "https://dc.lft.to/lastmile_qr_scan"}, "bike_id": "c8486e29c123bd5264955c7f40149511", "lat": 38.982834833333335, "name": "c8486e29c123bd5264955c7f40149511", "lon": -76.976439, "fusion_lon": 0.0}, {"is_reserved": 0, "type": "electric_scooter", "fusion_lat": 0.0, "is_disabled": 0, "rental_uris": {"ios": "https://dc.lft.to/lastmile_qr_scan", "android": "https://dc.lft.to/lastmile_qr_scan"}, "bike_id": "f0fa20caa307aa220ec1a0d56c3ef669", "lat": 38.9048, "name": "f0fa20caa307aa220ec1a0d56c3ef669", "lon": -77.03547333333333, "fusion_lon": 0.0}, {"is_reserved": 0, "type": "electric_scooter", "fusion_lat": 0.0, "is_disabled": 0, "rental_uris": {"ios": "https://dc.lft.to/lastmile_qr_scan", "android": "https://dc.lft.to/lastmile_qr_scan"}, "bike_id": "529d080f20384b705bf82dd40d48b381", "lat": 38.936070666666666, "name": "529d080f20384b705bf82dd40d48b381", "lon": -77.05593033333334, "fusion_lon": 0.0}, {"is_reserved": 0, "type": "electric_scooter", "fusion_lat": 0.0, "is_disabled": 0, "rental_uris": {"ios": "https://dc.lft.to/lastmile_qr_scan", "android": "https://dc.lft.to/lastmile_qr_scan"}, "bike_id": "25222bd42a78cab1f7575d1ee3e567ac", "lat": 38.921513, "name": "25222bd42a78cab1f7575d1ee3e567ac", "lon": -77.03509333333334, "fusion_lon": 0.0}, {"is_reserved": 0, "type": "electric_scooter", "fusion_lat": 0.0, "is_disabled": 0, "rental_uris": {"ios": "https://dc.lft.to/lastmile_qr_scan", "android": "https://dc.lft.to/lastmile_qr_scan"}, "bike_id": "6c4d70bbd5cfc6a5f6c191c633a42f44", "lat": 38.918164, "name": "6c4d70bbd5cfc6a5f6c191c633a42f44", "lon": -77.02709266666666, "fusion_lon": 0.0}, {"is_reserved": 0, "type": "electric_scooter", "fusion_lat": 0.0, "is_disabled": 0, "rental_uris": {"ios": "https://dc.lft.to/lastmile_qr_scan", "android": "https://dc.lft.to/lastmile_qr_scan"}, "bike_id": "a0275fd882ef8b8386774065cc0d52c8", "lat": 38.907770666666664, "name": "a0275fd882ef8b8386774065cc0d52c8", "lon": -77.07252716666666, "fusion_lon": 0.0}, {"is_reserved": 0, "type": "electric_scooter", "fusion_lat": 0.0, "is_disabled": 0, "rental_uris": {"ios": "https://dc.lft.to/lastmile_qr_scan", "android": "https://dc.lft.to/lastmile_qr_scan"}, "bike_id": "dde9bbe92f59d228665397cd8faf72fc", "lat": 38.88546133333333, "name": "dde9bbe92f59d228665397cd8faf72fc", "lon": -77.00073516666667, "fusion_lon": 0.0}, {"is_reserved": 0, "type": "electric_scooter", "fusion_lat": 0.0, "is_disabled": 0, "rental_uris": {"ios": "https://dc.lft.to/lastmile_qr_scan", "android": "https://dc.lft.to/lastmile_qr_scan"}, "bike_id": "01ed403a4ee07e005831e0e6fd1da410", "lat": 38.88707216666667, "name": "01ed403a4ee07e005831e0e6fd1da410", "lon": -76.983441, "fusion_lon": 0.0}, {"is_reserved": 0, "type": "electric_scooter", "fusion_lat": 0.0, "is_disabled": 0, "rental_uris": {"ios": "https://dc.lft.to/lastmile_qr_scan", "android": "https://dc.lft.to/lastmile_qr_scan"}, "bike_id": "cda751a87841747944d30e80a8ec58fb", "lat": 38.9249465, "name": "cda751a87841747944d30e80a8ec58fb", "lon": -77.04337333333334, "fusion_lon": 0.0}, {"is_reserved": 0, "type": "electric_scooter", "fusion_lat": 0.0, "is_disabled": 0, "rental_uris": {"ios": "https://dc.lft.to/lastmile_qr_scan", "android": "https://dc.lft.to/lastmile_qr_scan"}, "bike_id": "d87b3cf348d282c521261635b33bed45", "lat": 38.9084925, "name": "d87b3cf348d282c521261635b33bed45", "lon": -77.00308616666666, "fusion_lon": 0.0}, {"is_reserved": 0, "type": "electric_scooter", "fusion_lat": 0.0, "is_disabled": 0, "rental_uris": {"ios": "https://dc.lft.to/lastmile_qr_scan", "android": "https://dc.lft.to/lastmile_qr_scan"}, "bike_id": "f71e86277c3c29ca03cea34960002cd4", "lat": 38.928869666666664, "name": "f71e86277c3c29ca03cea34960002cd4", "lon": -77.03740883333333, "fusion_lon": 0.0}, {"is_reserved": 0, "type": "electric_scooter", "fusion_lat": 0.0, "is_disabled": 0, "rental_uris": {"ios": "https://dc.lft.to/lastmile_qr_scan", "android": "https://dc.lft.to/lastmile_qr_scan"}, "bike_id": "8e7ac7b8603a43b9c03ab0bb58e9230e", "lat": 38.89782866666667, "name": "8e7ac7b8603a43b9c03ab0bb58e9230e", "lon": -77.05016083333334, "fusion_lon": 0.0}, {"is_reserved": 0, "type": "electric_scooter", "fusion_lat": 0.0, "is_disabled": 0, "rental_uris": {"ios": "https://dc.lft.to/lastmile_qr_scan", "android": "https://dc.lft.to/lastmile_qr_scan"}, "bike_id": "ff5a23e4090159f914658de54f5e61d3", "lat": 38.89220266666667, "name": "ff5a23e4090159f914658de54f5e61d3", "lon": -77.02539133333333, "fusion_lon": 0.0}, {"is_reserved": 0, "type": "electric_scooter", "fusion_lat": 0.0, "is_disabled": 0, "rental_uris": {"ios": "https://dc.lft.to/lastmile_qr_scan", "android": "https://dc.lft.to/lastmile_qr_scan"}, "bike_id": "6471c1cec0029971a2758e3390893282", "lat": 38.9311275, "name": "6471c1cec0029971a2758e3390893282", "lon": -77.0280105, "fusion_lon": 0.0}, {"is_reserved": 0, "type": "electric_scooter", "fusion_lat": 0.0, "is_disabled": 0, "rental_uris": {"ios": "https://dc.lft.to/lastmile_qr_scan", "android": "https://dc.lft.to/lastmile_qr_scan"}, "bike_id": "fd21899d22d532496314cfcdb477437b", "lat": 38.921813, "name": "fd21899d22d532496314cfcdb477437b", "lon": -76.956402, "fusion_lon": 0.0}, {"is_reserved": 0, "type": "electric_scooter", "fusion_lat": 0.0, "is_disabled": 0, "rental_uris": {"ios": "https://dc.lft.to/lastmile_qr_scan", "android": "https://dc.lft.to/lastmile_qr_scan"}, "bike_id": "d93c9c112fc094a08f1d7f358d733500", "lat": 38.92287, "name": "d93c9c112fc094a08f1d7f358d733500", "lon": -77.01993033333333, "fusion_lon": 0.0}, {"is_reserved": 0, "type": "electric_scooter", "fusion_lat": 0.0, "is_disabled": 0, "rental_uris": {"ios": "https://dc.lft.to/lastmile_qr_scan", "android": "https://dc.lft.to/lastmile_qr_scan"}, "bike_id": "5ad7296cda5a43e177bc1dbf066bbf3b", "lat": 38.9283245, "name": "5ad7296cda5a43e177bc1dbf066bbf3b", "lon": -77.03714466666666, "fusion_lon": 0.0}, {"is_reserved": 0, "type": "electric_scooter", "fusion_lat": 0.0, "is_disabled": 0, "rental_uris": {"ios": "https://dc.lft.to/lastmile_qr_scan", "android": "https://dc.lft.to/lastmile_qr_scan"}, "bike_id": "ab9c289001f20c840d19c6059ec8ccf5", "lat": 38.90494783333333, "name": "ab9c289001f20c840d19c6059ec8ccf5", "lon": -77.02802383333334, "fusion_lon": 0.0}, {"is_reserved": 0, "type": "electric_scooter", "fusion_lat": 0.0, "is_disabled": 0, "rental_uris": {"ios": "https://dc.lft.to/lastmile_qr_scan", "android": "https://dc.lft.to/lastmile_qr_scan"}, "bike_id": "87a053d405ef41141229f4405f99739f", "lat": 38.89847833333334, "name": "87a053d405ef41141229f4405f99739f", "lon": -77.039382, "fusion_lon": 0.0}, {"is_reserved": 0, "type": "electric_scooter", "fusion_lat": 0.0, "is_disabled": 0, "rental_uris": {"ios": "https://dc.lft.to/lastmile_qr_scan", "android": "https://dc.lft.to/lastmile_qr_scan"}, "bike_id": "e1e31a424fd5d1b48f6a2288e3e4913d", "lat": 38.87630633333333, "name": "e1e31a424fd5d1b48f6a2288e3e4913d", "lon": -77.00965083333334, "fusion_lon": 0.0}, {"is_reserved": 0, "type": "electric_scooter", "fusion_lat": 0.0, "is_disabled": 0, "rental_uris": {"ios": "https://dc.lft.to/lastmile_qr_scan", "android": "https://dc.lft.to/lastmile_qr_scan"}, "bike_id": "7eed9637aa8a55ba619da6e2fae995cc", "lat": 38.911174, "name": "7eed9637aa8a55ba619da6e2fae995cc", "lon": -77.0383595, "fusion_lon": 0.0}, {"is_reserved": 0, "type": "electric_scooter", "fusion_lat": 0.0, "is_disabled": 0, "rental_uris": {"ios": "https://dc.lft.to/lastmile_qr_scan", "android": "https://dc.lft.to/lastmile_qr_scan"}, "bike_id": "c324815605d931c9865c03e49a49f16c", "lat": 38.88122633333333, "name": "c324815605d931c9865c03e49a49f16c", "lon": -76.993429, "fusion_lon": 0.0}, {"is_reserved": 0, "type": "electric_scooter", "fusion_lat": 0.0, "is_disabled": 0, "rental_uris": {"ios": "https://dc.lft.to/lastmile_qr_scan", "android": "https://dc.lft.to/lastmile_qr_scan"}, "bike_id": "27b5f23c499a9d5aba2017534cb1bbb6", "lat": 38.91469716666667, "name": "27b5f23c499a9d5aba2017534cb1bbb6", "lon": -77.002112, "fusion_lon": 0.0}, {"is_reserved": 0, "type": "electric_scooter", "fusion_lat": 0.0, "is_disabled": 0, "rental_uris": {"ios": "https://dc.lft.to/lastmile_qr_scan", "android": "https://dc.lft.to/lastmile_qr_scan"}, "bike_id": "7299842c22a4aa2a0ef320e439cb9b20", "lat": 38.906044333333334, "name": "7299842c22a4aa2a0ef320e439cb9b20", "lon": -77.021109, "fusion_lon": 0.0}, {"is_reserved": 0, "type": "electric_scooter", "fusion_lat": 0.0, "is_disabled": 0, "rental_uris": {"ios": "https://dc.lft.to/lastmile_qr_scan", "android": "https://dc.lft.to/lastmile_qr_scan"}, "bike_id": "c165b6164d2cee8804e62c4be6b3883e", "lat": 38.886614, "name": "c165b6164d2cee8804e62c4be6b3883e", "lon": -76.98565966666666, "fusion_lon": 0.0}, {"is_reserved": 0, "type": "electric_scooter", "fusion_lat": 0.0, "is_disabled": 0, "rental_uris": {"ios": "https://dc.lft.to/lastmile_qr_scan", "android": "https://dc.lft.to/lastmile_qr_scan"}, "bike_id": "f8c664c55dbe2eb97cda822da8ecb406", "lat": 38.85521333333333, "name": "f8c664c55dbe2eb97cda822da8ecb406", "lon": -76.99142166666667, "fusion_lon": 0.0}, {"is_reserved": 0, "type": "electric_scooter", "fusion_lat": 0.0, "is_disabled": 0, "rental_uris": {"ios": "https://dc.lft.to/lastmile_qr_scan", "android": "https://dc.lft.to/lastmile_qr_scan"}, "bike_id": "29f5d2a210bcac5cd5f4af5648009445", "lat": 38.894741333333336, "name": "29f5d2a210bcac5cd5f4af5648009445", "lon": -76.99357666666667, "fusion_lon": 0.0}, {"is_reserved": 0, "type": "electric_scooter", "fusion_lat": 0.0, "is_disabled": 0, "rental_uris": {"ios": "https://dc.lft.to/lastmile_qr_scan", "android": "https://dc.lft.to/lastmile_qr_scan"}, "bike_id": "a0217f1b7da4baa88ccfbd3b2a3d7670", "lat": 38.902014666666666, "name": "a0217f1b7da4baa88ccfbd3b2a3d7670", "lon": -77.02372166666666, "fusion_lon": 0.0}, {"is_reserved": 0, "type": "electric_scooter", "fusion_lat": 0.0, "is_disabled": 0, "rental_uris": {"ios": "https://dc.lft.to/lastmile_qr_scan", "android": "https://dc.lft.to/lastmile_qr_scan"}, "bike_id": "189117779888f6929d783007e2b04499", "lat": 38.9341995, "name": "189117779888f6929d783007e2b04499", "lon": -77.04409916666667, "fusion_lon": 0.0}, {"is_reserved": 0, "type": "electric_scooter", "fusion_lat": 0.0, "is_disabled": 0, "rental_uris": {"ios": "https://dc.lft.to/lastmile_qr_scan", "android": "https://dc.lft.to/lastmile_qr_scan"}, "bike_id": "6175e5c54c10de4248e729757ec2cfa5", "lat": 38.898312833333335, "name": "6175e5c54c10de4248e729757ec2cfa5", "lon": -76.94634483333333, "fusion_lon": 0.0}, {"is_reserved": 0, "type": "electric_scooter", "fusion_lat": 0.0, "is_disabled": 0, "rental_uris": {"ios": "https://dc.lft.to/lastmile_qr_scan", "android": "https://dc.lft.to/lastmile_qr_scan"}, "bike_id": "498b4f52ee54bf1d1965b8bc2486f348", "lat": 38.9220955, "name": "498b4f52ee54bf1d1965b8bc2486f348", "lon": -77.03291766666666, "fusion_lon": 0.0}, {"is_reserved": 0, "type": "electric_bike", "fusion_lat": 0.0, "is_disabled": 0, "rental_uris": {"ios": "https://dc.lft.to/lastmile_qr_scan", "android": "https://dc.lft.to/lastmile_qr_scan"}, "bike_id": "c61888ff0a01c5dd55da9e04c8743b94", "lat": 38.968892333333336, "name": "c61888ff0a01c5dd55da9e04c8743b94", "lon": -76.9556275, "fusion_lon": 0.0}, {"is_reserved": 0, "type": "electric_scooter", "fusion_lat": 0.0, "is_disabled": 0, "rental_uris": {"ios": "https://dc.lft.to/lastmile_qr_scan", "android": "https://dc.lft.to/lastmile_qr_scan"}, "bike_id": "746eb3279271ba9aacd7870379e630dd", "lat": 38.9057475, "name": "746eb3279271ba9aacd7870379e630dd", "lon": -77.0445255, "fusion_lon": 0.0}, {"is_reserved": 0, "type": "electric_bike", "fusion_lat": 0.0, "is_disabled": 0, "rental_uris": {"ios": "https://dc.lft.to/lastmile_qr_scan", "android": "https://dc.lft.to/lastmile_qr_scan"}, "bike_id": "1eb16e35cf7f240743b5c22d8e17a5de", "lat": 38.89725166666667, "name": "1eb16e35cf7f240743b5c22d8e17a5de", "lon": -76.97237533333333, "fusion_lon": 0.0}, {"is_reserved": 0, "type": "electric_scooter", "fusion_lat": 0.0, "is_disabled": 0, "rental_uris": {"ios": "https://dc.lft.to/lastmile_qr_scan", "android": "https://dc.lft.to/lastmile_qr_scan"}, "bike_id": "0793614f92163e01e99d9b76c06e383c", "lat": 38.8978485, "name": "0793614f92163e01e99d9b76c06e383c", "lon": -77.0501765, "fusion_lon": 0.0}, {"is_reserved": 0, "type": "electric_scooter", "fusion_lat": 0.0, "is_disabled": 0, "rental_uris": {"ios": "https://dc.lft.to/lastmile_qr_scan", "android": "https://dc.lft.to/lastmile_qr_scan"}, "bike_id": "068fa2c634f274d4e5e2d629442ce193", "lat": 38.94858083333333, "name": "068fa2c634f274d4e5e2d629442ce193", "lon": -77.07886216666667, "fusion_lon": 0.0}, {"is_reserved": 0, "type": "electric_scooter", "fusion_lat": 0.0, "is_disabled": 0, "rental_uris": {"ios": "https://dc.lft.to/lastmile_qr_scan", "android": "https://dc.lft.to/lastmile_qr_scan"}, "bike_id": "602af9a0aec62f916b539b850ce9ca74", "lat": 38.916551, "name": "602af9a0aec62f916b539b850ce9ca74", "lon": -77.04174483333334, "fusion_lon": 0.0}, {"is_reserved": 0, "type": "electric_scooter", "fusion_lat": 0.0, "is_disabled": 0, "rental_uris": {"ios": "https://dc.lft.to/lastmile_qr_scan", "android": "https://dc.lft.to/lastmile_qr_scan"}, "bike_id": "fe7e486781083f0e0b72722692d130ba", "lat": 38.915606333333336, "name": "fe7e486781083f0e0b72722692d130ba", "lon": -77.03679, "fusion_lon": 0.0}, {"is_reserved": 0, "type": "electric_scooter", "fusion_lat": 0.0, "is_disabled": 0, "rental_uris": {"ios": "https://dc.lft.to/lastmile_qr_scan", "android": "https://dc.lft.to/lastmile_qr_scan"}, "bike_id": "39784505173004d8fdb2723c71160604", "lat": 38.922775666666666, "name": "39784505173004d8fdb2723c71160604", "lon": -76.99774616666667, "fusion_lon": 0.0}, {"is_reserved": 0, "type": "electric_scooter", "fusion_lat": 0.0, "is_disabled": 0, "rental_uris": {"ios": "https://dc.lft.to/lastmile_qr_scan", "android": "https://dc.lft.to/lastmile_qr_scan"}, "bike_id": "f79916fa726764dee9e27496d1e9deac", "lat": 38.896981, "name": "f79916fa726764dee9e27496d1e9deac", "lon": -77.04345833333333, "fusion_lon": 0.0}, {"is_reserved": 0, "type": "electric_scooter", "fusion_lat": 0.0, "is_disabled": 0, "rental_uris": {"ios": "https://dc.lft.to/lastmile_qr_scan", "android": "https://dc.lft.to/lastmile_qr_scan"}, "bike_id": "c25b0336f95d00ee8e540ac8575b53c2", "lat": 38.8800835, "name": "c25b0336f95d00ee8e540ac8575b53c2", "lon": -76.99741666666667, "fusion_lon": 0.0}, {"is_reserved": 0, "type": "electric_scooter", "fusion_lat": 0.0, "is_disabled": 0, "rental_uris": {"ios": "https://dc.lft.to/lastmile_qr_scan", "android": "https://dc.lft.to/lastmile_qr_scan"}, "bike_id": "d250410ec4d5c7f6da8e36fec66aef0a", "lat": 38.898799333333336, "name": "d250410ec4d5c7f6da8e36fec66aef0a", "lon": -76.93175316666667, "fusion_lon": 0.0}, {"is_reserved": 0, "type": "electric_scooter", "fusion_lat": 0.0, "is_disabled": 0, "rental_uris": {"ios": "https://dc.lft.to/lastmile_qr_scan", "android": "https://dc.lft.to/lastmile_qr_scan"}, "bike_id": "371dd2bad65a531734c9e0fb63c243f1", "lat": 38.91332283333333, "name": "371dd2bad65a531734c9e0fb63c243f1", "lon": -77.0303935, "fusion_lon": 0.0}, {"is_reserved": 0, "type": "electric_scooter", "fusion_lat": 0.0, "is_disabled": 0, "rental_uris": {"ios": "https://dc.lft.to/lastmile_qr_scan", "android": "https://dc.lft.to/lastmile_qr_scan"}, "bike_id": "dd20a58d4219e66db07991020e0993f2", "lat": 38.931911166666666, "name": "dd20a58d4219e66db07991020e0993f2", "lon": -77.01997383333334, "fusion_lon": 0.0}, {"is_reserved": 0, "type": "electric_scooter", "fusion_lat": 0.0, "is_disabled": 0, "rental_uris": {"ios": "https://dc.lft.to/lastmile_qr_scan", "android": "https://dc.lft.to/lastmile_qr_scan"}, "bike_id": "74b7e23a67211161a97ec14e70ecd155", "lat": 38.88169583333333, "name": "74b7e23a67211161a97ec14e70ecd155", "lon": -77.01766, "fusion_lon": 0.0}, {"is_reserved": 0, "type": "electric_scooter", "fusion_lat": 0.0, "is_disabled": 0, "rental_uris": {"ios": "https://dc.lft.to/lastmile_qr_scan", "android": "https://dc.lft.to/lastmile_qr_scan"}, "bike_id": "ab983910549eb9d1f112e426fbb0dcff", "lat": 38.91054533333333, "name": "ab983910549eb9d1f112e426fbb0dcff", "lon": -77.043566, "fusion_lon": 0.0}, {"is_reserved": 0, "type": "electric_scooter", "fusion_lat": 0.0, "is_disabled": 0, "rental_uris": {"ios": "https://dc.lft.to/lastmile_qr_scan", "android": "https://dc.lft.to/lastmile_qr_scan"}, "bike_id": "afeca5ee6ee6a5e4876bc7269b020835", "lat": 38.919123666666664, "name": "afeca5ee6ee6a5e4876bc7269b020835", "lon": -77.01165116666667, "fusion_lon": 0.0}, {"is_reserved": 0, "type": "electric_scooter", "fusion_lat": 0.0, "is_disabled": 0, "rental_uris": {"ios": "https://dc.lft.to/lastmile_qr_scan", "android": "https://dc.lft.to/lastmile_qr_scan"}, "bike_id": "c9ef01fe4476b1232e3558b3e0d4e613", "lat": 38.89869016666667, "name": "c9ef01fe4476b1232e3558b3e0d4e613", "lon": -77.04655166666667, "fusion_lon": 0.0}, {"is_reserved": 0, "type": "electric_scooter", "fusion_lat": 0.0, "is_disabled": 0, "rental_uris": {"ios": "https://dc.lft.to/lastmile_qr_scan", "android": "https://dc.lft.to/lastmile_qr_scan"}, "bike_id": "57861eef7a8b0a35408e4bee73b2834f", "lat": 38.8942915, "name": "57861eef7a8b0a35408e4bee73b2834f", "lon": -77.04472083333333, "fusion_lon": 0.0}, {"is_reserved": 0, "type": "electric_scooter", "fusion_lat": 0.0, "is_disabled": 0, "rental_uris": {"ios": "https://dc.lft.to/lastmile_qr_scan", "android": "https://dc.lft.to/lastmile_qr_scan"}, "bike_id": "b314089d4ea1c3375e9cdd2615ac8c49", "lat": 38.92794933333333, "name": "b314089d4ea1c3375e9cdd2615ac8c49", "lon": -77.03154033333334, "fusion_lon": 0.0}, {"is_reserved": 0, "type": "electric_scooter", "fusion_lat": 0.0, "is_disabled": 0, "rental_uris": {"ios": "https://dc.lft.to/lastmile_qr_scan", "android": "https://dc.lft.to/lastmile_qr_scan"}, "bike_id": "326504040be985364b7df88c37466b35", "lat": 38.8861, "name": "326504040be985364b7df88c37466b35", "lon": -77.00335016666666, "fusion_lon": 0.0}, {"is_reserved": 0, "type": "electric_scooter", "fusion_lat": 0.0, "is_disabled": 0, "rental_uris": {"ios": "https://dc.lft.to/lastmile_qr_scan", "android": "https://dc.lft.to/lastmile_qr_scan"}, "bike_id": "f060a57b0e1f9824a8b70e0f34252613", "lat": 38.8767995, "name": "f060a57b0e1f9824a8b70e0f34252613", "lon": -77.00341583333334, "fusion_lon": 0.0}, {"is_reserved": 0, "type": "electric_scooter", "fusion_lat": 0.0, "is_disabled": 0, "rental_uris": {"ios": "https://dc.lft.to/lastmile_qr_scan", "android": "https://dc.lft.to/lastmile_qr_scan"}, "bike_id": "9c95fc836a45074ed12c2ccd6f75709a", "lat": 38.917333166666666, "name": "9c95fc836a45074ed12c2ccd6f75709a", "lon": -77.06893216666667, "fusion_lon": 0.0}, {"is_reserved": 0, "type": "electric_bike", "fusion_lat": 0.0, "is_disabled": 0, "rental_uris": {"ios": "https://dc.lft.to/lastmile_qr_scan", "android": "https://dc.lft.to/lastmile_qr_scan"}, "bike_id": "a5f7aac9a69c1f1099597770f2118486", "lat": 38.929469, "name": "a5f7aac9a69c1f1099597770f2118486", "lon": -76.975668, "fusion_lon": 0.0}, {"is_reserved": 0, "type": "electric_bike", "fusion_lat": 0.0, "is_disabled": 0, "rental_uris": {"ios": "https://dc.lft.to/lastmile_qr_scan", "android": "https://dc.lft.to/lastmile_qr_scan"}, "bike_id": "10d696d51b3670f2272474163e1796b8", "lat": 38.928677, "name": "10d696d51b3670f2272474163e1796b8", "lon": -76.96104766666667, "fusion_lon": 0.0}, {"is_reserved": 0, "type": "electric_bike", "fusion_lat": 0.0, "is_disabled": 0, "rental_uris": {"ios": "https://dc.lft.to/lastmile_qr_scan", "android": "https://dc.lft.to/lastmile_qr_scan"}, "bike_id": "49581cc89e72d5e12996140dbc419802", "lat": 38.926008333333336, "name": "49581cc89e72d5e12996140dbc419802", "lon": -77.024326, "fusion_lon": 0.0}, {"is_reserved": 0, "type": "electric_scooter", "fusion_lat": 0.0, "is_disabled": 0, "rental_uris": {"ios": "https://dc.lft.to/lastmile_qr_scan", "android": "https://dc.lft.to/lastmile_qr_scan"}, "bike_id": "9d4b665d3ced49e560f4c971b6e70456", "lat": 38.9264335, "name": "9d4b665d3ced49e560f4c971b6e70456", "lon": -77.053147, "fusion_lon": 0.0}, {"is_reserved": 0, "type": "electric_scooter", "fusion_lat": 0.0, "is_disabled": 0, "rental_uris": {"ios": "https://dc.lft.to/lastmile_qr_scan", "android": "https://dc.lft.to/lastmile_qr_scan"}, "bike_id": "2e7470164c0d93e5d1dc76b8996d3ec1", "lat": 38.91252083333333, "name": "2e7470164c0d93e5d1dc76b8996d3ec1", "lon": -77.0388085, "fusion_lon": 0.0}, {"is_reserved": 0, "type": "electric_scooter", "fusion_lat": 0.0, "is_disabled": 0, "rental_uris": {"ios": "https://dc.lft.to/lastmile_qr_scan", "android": "https://dc.lft.to/lastmile_qr_scan"}, "bike_id": "45c3b7214b6a4fcc6523bc9c69ec7303", "lat": 38.909722, "name": "45c3b7214b6a4fcc6523bc9c69ec7303", "lon": -77.0459285, "fusion_lon": 0.0}, {"is_reserved": 0, "type": "electric_bike", "fusion_lat": 0.0, "is_disabled": 0, "rental_uris": {"ios": "https://dc.lft.to/lastmile_qr_scan", "android": "https://dc.lft.to/lastmile_qr_scan"}, "bike_id": "a00d0339d13dbfa1b38ec75e6829c45e", "lat": 38.804838333333336, "name": "a00d0339d13dbfa1b38ec75e6829c45e", "lon": -76.99107933333333, "fusion_lon": 0.0}, {"is_reserved": 0, "type": "electric_scooter", "fusion_lat": 0.0, "is_disabled": 0, "rental_uris": {"ios": "https://dc.lft.to/lastmile_qr_scan", "android": "https://dc.lft.to/lastmile_qr_scan"}, "bike_id": "f47ea7a18fcccbab3aff93d4b44f70cb", "lat": 38.89412266666667, "name": "f47ea7a18fcccbab3aff93d4b44f70cb", "lon": -77.010856, "fusion_lon": 0.0}, {"is_reserved": 0, "type": "electric_scooter", "fusion_lat": 0.0, "is_disabled": 0, "rental_uris": {"ios": "https://dc.lft.to/lastmile_qr_scan", "android": "https://dc.lft.to/lastmile_qr_scan"}, "bike_id": "2d60f748ee16fb6ee643f2b781dab575", "lat": 38.907748833333336, "name": "2d60f748ee16fb6ee643f2b781dab575", "lon": -77.04340783333333, "fusion_lon": 0.0}, {"is_reserved": 0, "type": "electric_scooter", "fusion_lat": 0.0, "is_disabled": 0, "rental_uris": {"ios": "https://dc.lft.to/lastmile_qr_scan", "android": "https://dc.lft.to/lastmile_qr_scan"}, "bike_id": "6b31bcc6e9ec4e9bd52411a7295c64d7", "lat": 38.878731, "name": "6b31bcc6e9ec4e9bd52411a7295c64d7", "lon": -77.00566733333334, "fusion_lon": 0.0}, {"is_reserved": 0, "type": "electric_scooter", "fusion_lat": 0.0, "is_disabled": 0, "rental_uris": {"ios": "https://dc.lft.to/lastmile_qr_scan", "android": "https://dc.lft.to/lastmile_qr_scan"}, "bike_id": "ddd42f68ff9dba36a3c6262e2e7fb98a", "lat": 38.90395766666666, "name": "ddd42f68ff9dba36a3c6262e2e7fb98a", "lon": -76.98947516666667, "fusion_lon": 0.0}, {"is_reserved": 0, "type": "electric_scooter", "fusion_lat": 0.0, "is_disabled": 0, "rental_uris": {"ios": "https://dc.lft.to/lastmile_qr_scan", "android": "https://dc.lft.to/lastmile_qr_scan"}, "bike_id": "2dc381d1515ce69fcc47d4530fc09da9", "lat": 38.902099166666666, "name": "2dc381d1515ce69fcc47d4530fc09da9", "lon": -77.02378733333333, "fusion_lon": 0.0}, {"is_reserved": 0, "type": "electric_scooter", "fusion_lat": 0.0, "is_disabled": 0, "rental_uris": {"ios": "https://dc.lft.to/lastmile_qr_scan", "android": "https://dc.lft.to/lastmile_qr_scan"}, "bike_id": "1e8a372bf605b9ded1a09ad3a0042fcf", "lat": 38.84277683333333, "name": "1e8a372bf605b9ded1a09ad3a0042fcf", "lon": -76.98841733333333, "fusion_lon": 0.0}, {"is_reserved": 0, "type": "electric_scooter", "fusion_lat": 0.0, "is_disabled": 0, "rental_uris": {"ios": "https://dc.lft.to/lastmile_qr_scan", "android": "https://dc.lft.to/lastmile_qr_scan"}, "bike_id": "72a6a258d47ea22319f935feab2c35b6", "lat": 38.9095995, "name": "72a6a258d47ea22319f935feab2c35b6", "lon": -77.0228195, "fusion_lon": 0.0}, {"is_reserved": 0, "type": "electric_scooter", "fusion_lat": 0.0, "is_disabled": 0, "rental_uris": {"ios": "https://dc.lft.to/lastmile_qr_scan", "android": "https://dc.lft.to/lastmile_qr_scan"}, "bike_id": "19ca0a1b3f73140c89c4e3523118c1cb", "lat": 38.90055383333333, "name": "19ca0a1b3f73140c89c4e3523118c1cb", "lon": -76.99338733333333, "fusion_lon": 0.0}, {"is_reserved": 0, "type": "electric_scooter", "fusion_lat": 0.0, "is_disabled": 0, "rental_uris": {"ios": "https://dc.lft.to/lastmile_qr_scan", "android": "https://dc.lft.to/lastmile_qr_scan"}, "bike_id": "9a5341c467d6845bd86a381b954d8626", "lat": 38.903149166666665, "name": "9a5341c467d6845bd86a381b954d8626", "lon": -76.97799183333333, "fusion_lon": 0.0}, {"is_reserved": 0, "type": "electric_scooter", "fusion_lat": 0.0, "is_disabled": 0, "rental_uris": {"ios": "https://dc.lft.to/lastmile_qr_scan", "android": "https://dc.lft.to/lastmile_qr_scan"}, "bike_id": "06724d99df564f91fadc355c85775863", "lat": 38.883747666666665, "name": "06724d99df564f91fadc355c85775863", "lon": -76.99515316666667, "fusion_lon": 0.0}, {"is_reserved": 0, "type": "electric_scooter", "fusion_lat": 0.0, "is_disabled": 0, "rental_uris": {"ios": "https://dc.lft.to/lastmile_qr_scan", "android": "https://dc.lft.to/lastmile_qr_scan"}, "bike_id": "4d3e041f63418d071e28e3f433429baf", "lat": 38.906907333333336, "name": "4d3e041f63418d071e28e3f433429baf", "lon": -77.0099885, "fusion_lon": 0.0}, {"is_reserved": 0, "type": "electric_scooter", "fusion_lat": 0.0, "is_disabled": 0, "rental_uris": {"ios": "https://dc.lft.to/lastmile_qr_scan", "android": "https://dc.lft.to/lastmile_qr_scan"}, "bike_id": "266687e2b872425ca164dafcf586d543", "lat": 38.9564175, "name": "266687e2b872425ca164dafcf586d543", "lon": -77.02820583333333, "fusion_lon": 0.0}, {"is_reserved": 0, "type": "electric_scooter", "fusion_lat": 0.0, "is_disabled": 0, "rental_uris": {"ios": "https://dc.lft.to/lastmile_qr_scan", "android": "https://dc.lft.to/lastmile_qr_scan"}, "bike_id": "9f009550d0a3a65e1ded11fbf6c5a7c1", "lat": 38.90491983333333, "name": "9f009550d0a3a65e1ded11fbf6c5a7c1", "lon": -77.02960133333333, "fusion_lon": 0.0}, {"is_reserved": 0, "type": "electric_bike", "fusion_lat": 0.0, "is_disabled": 0, "rental_uris": {"ios": "https://dc.lft.to/lastmile_qr_scan", "android": "https://dc.lft.to/lastmile_qr_scan"}, "bike_id": "7b225f40a06fab570c1aec85b821c948", "lat": 38.8655125, "name": "7b225f40a06fab570c1aec85b821c948", "lon": -76.94151600000001, "fusion_lon": 0.0}, {"is_reserved": 0, "type": "electric_scooter", "fusion_lat": 0.0, "is_disabled": 0, "rental_uris": {"ios": "https://dc.lft.to/lastmile_qr_scan", "android": "https://dc.lft.to/lastmile_qr_scan"}, "bike_id": "75d9ebddda338c34397ae7e41b37bc30", "lat": 38.921784, "name": "75d9ebddda338c34397ae7e41b37bc30", "lon": -77.038352, "fusion_lon": 0.0}, {"is_reserved": 0, "type": "electric_bike", "fusion_lat": 0.0, "is_disabled": 0, "rental_uris": {"ios": "https://dc.lft.to/lastmile_qr_scan", "android": "https://dc.lft.to/lastmile_qr_scan"}, "bike_id": "838db5865fa85f2e4426fbda56d14165", "lat": 38.81331616666667, "name": "838db5865fa85f2e4426fbda56d14165", "lon": -77.050846, "fusion_lon": 0.0}, {"is_reserved": 0, "type": "electric_scooter", "fusion_lat": 0.0, "is_disabled": 0, "rental_uris": {"ios": "https://dc.lft.to/lastmile_qr_scan", "android": "https://dc.lft.to/lastmile_qr_scan"}, "bike_id": "1c8b0d06f91e35bd7dd33861cdd60ed9", "lat": 38.900845333333336, "name": "1c8b0d06f91e35bd7dd33861cdd60ed9", "lon": -77.01816416666666, "fusion_lon": 0.0}, {"is_reserved": 0, "type": "electric_scooter", "fusion_lat": 0.0, "is_disabled": 0, "rental_uris": {"ios": "https://dc.lft.to/lastmile_qr_scan", "android": "https://dc.lft.to/lastmile_qr_scan"}, "bike_id": "5af8c6d5c1e8143a71f4d48feaf02b07", "lat": 38.8922185, "name": "5af8c6d5c1e8143a71f4d48feaf02b07", "lon": -77.04642766666667, "fusion_lon": 0.0}, {"is_reserved": 0, "type": "electric_scooter", "fusion_lat": 0.0, "is_disabled": 0, "rental_uris": {"ios": "https://dc.lft.to/lastmile_qr_scan", "android": "https://dc.lft.to/lastmile_qr_scan"}, "bike_id": "2203f0b1254be923dda6d68943c3ae8a", "lat": 38.96618616666667, "name": "2203f0b1254be923dda6d68943c3ae8a", "lon": -77.02001183333333, "fusion_lon": 0.0}, {"is_reserved": 0, "type": "electric_scooter", "fusion_lat": 0.0, "is_disabled": 0, "rental_uris": {"ios": "https://dc.lft.to/lastmile_qr_scan", "android": "https://dc.lft.to/lastmile_qr_scan"}, "bike_id": "70e8c0e69c8ff7d3964059269a04b7ed", "lat": 38.917371333333335, "name": "70e8c0e69c8ff7d3964059269a04b7ed", "lon": -77.036106, "fusion_lon": 0.0}, {"is_reserved": 0, "type": "electric_scooter", "fusion_lat": 0.0, "is_disabled": 0, "rental_uris": {"ios": "https://dc.lft.to/lastmile_qr_scan", "android": "https://dc.lft.to/lastmile_qr_scan"}, "bike_id": "93c0d04cc89d570d0a0a48e17b4adfe4", "lat": 38.89766133333333, "name": "93c0d04cc89d570d0a0a48e17b4adfe4", "lon": -77.047916, "fusion_lon": 0.0}, {"is_reserved": 0, "type": "electric_scooter", "fusion_lat": 0.0, "is_disabled": 0, "rental_uris": {"ios": "https://dc.lft.to/lastmile_qr_scan", "android": "https://dc.lft.to/lastmile_qr_scan"}, "bike_id": "0fa402294bbdba7b03ea0203673d1205", "lat": 38.912468833333335, "name": "0fa402294bbdba7b03ea0203673d1205", "lon": -76.98666833333333, "fusion_lon": 0.0}, {"is_reserved": 0, "type": "electric_scooter", "fusion_lat": 0.0, "is_disabled": 0, "rental_uris": {"ios": "https://dc.lft.to/lastmile_qr_scan", "android": "https://dc.lft.to/lastmile_qr_scan"}, "bike_id": "77e9501247d36fd560b1e3ab7cadf69e", "lat": 38.9218025, "name": "77e9501247d36fd560b1e3ab7cadf69e", "lon": -77.04603516666667, "fusion_lon": 0.0}, {"is_reserved": 0, "type": "electric_bike", "fusion_lat": 0.0, "is_disabled": 0, "rental_uris": {"ios": "https://dc.lft.to/lastmile_qr_scan", "android": "https://dc.lft.to/lastmile_qr_scan"}, "bike_id": "26bc149c32e46b7c7c388ee0902a836f", "lat": 38.906893, "name": "26bc149c32e46b7c7c388ee0902a836f", "lon": -76.952551, "fusion_lon": 0.0}, {"is_reserved": 0, "type": "electric_scooter", "fusion_lat": 0.0, "is_disabled": 0, "rental_uris": {"ios": "https://dc.lft.to/lastmile_qr_scan", "android": "https://dc.lft.to/lastmile_qr_scan"}, "bike_id": "956394cc2bb582fec0b42cba1ae5a4f8", "lat": 38.910722166666666, "name": "956394cc2bb582fec0b42cba1ae5a4f8", "lon": -77.01608633333333, "fusion_lon": 0.0}, {"is_reserved": 0, "type": "electric_scooter", "fusion_lat": 0.0, "is_disabled": 0, "rental_uris": {"ios": "https://dc.lft.to/lastmile_qr_scan", "android": "https://dc.lft.to/lastmile_qr_scan"}, "bike_id": "54d6ce19fa08dbba26635f20bd212158", "lat": 38.931863, "name": "54d6ce19fa08dbba26635f20bd212158", "lon": -77.03158916666666, "fusion_lon": 0.0}, {"is_reserved": 0, "type": "electric_scooter", "fusion_lat": 0.0, "is_disabled": 0, "rental_uris": {"ios": "https://dc.lft.to/lastmile_qr_scan", "android": "https://dc.lft.to/lastmile_qr_scan"}, "bike_id": "a0a05b6245e6ef4c1b01aa5f32841474", "lat": 38.9014605, "name": "a0a05b6245e6ef4c1b01aa5f32841474", "lon": -76.93155116666667, "fusion_lon": 0.0}, {"is_reserved": 0, "type": "electric_scooter", "fusion_lat": 0.0, "is_disabled": 0, "rental_uris": {"ios": "https://dc.lft.to/lastmile_qr_scan", "android": "https://dc.lft.to/lastmile_qr_scan"}, "bike_id": "2ec9c55e4038f80b55f68a34b257984e", "lat": 38.921976, "name": "2ec9c55e4038f80b55f68a34b257984e", "lon": -77.01852433333333, "fusion_lon": 0.0}, {"is_reserved": 0, "type": "electric_scooter", "fusion_lat": 0.0, "is_disabled": 0, "rental_uris": {"ios": "https://dc.lft.to/lastmile_qr_scan", "android": "https://dc.lft.to/lastmile_qr_scan"}, "bike_id": "c0de9d0e8d6112864fbbd024f64e8907", "lat": 38.90265983333333, "name": "c0de9d0e8d6112864fbbd024f64e8907", "lon": -77.03920033333333, "fusion_lon": 0.0}, {"is_reserved": 0, "type": "electric_scooter", "fusion_lat": 0.0, "is_disabled": 0, "rental_uris": {"ios": "https://dc.lft.to/lastmile_qr_scan", "android": "https://dc.lft.to/lastmile_qr_scan"}, "bike_id": "243da532413dbaa7d6ec00d6b0373ead", "lat": 38.90121116666667, "name": "243da532413dbaa7d6ec00d6b0373ead", "lon": -77.03455533333333, "fusion_lon": 0.0}, {"is_reserved": 0, "type": "electric_scooter", "fusion_lat": 0.0, "is_disabled": 0, "rental_uris": {"ios": "https://dc.lft.to/lastmile_qr_scan", "android": "https://dc.lft.to/lastmile_qr_scan"}, "bike_id": "f739d2a40eab45502d4f2887ebbe6cf0", "lat": 38.933248666666664, "name": "f739d2a40eab45502d4f2887ebbe6cf0", "lon": -77.023941, "fusion_lon": 0.0}, {"is_reserved": 0, "type": "electric_scooter", "fusion_lat": 0.0, "is_disabled": 0, "rental_uris": {"ios": "https://dc.lft.to/lastmile_qr_scan", "android": "https://dc.lft.to/lastmile_qr_scan"}, "bike_id": "07fe7a7aa43335a33e0156fddfc316a8", "lat": 38.94490116666667, "name": "07fe7a7aa43335a33e0156fddfc316a8", "lon": -77.0074115, "fusion_lon": 0.0}, {"is_reserved": 0, "type": "electric_scooter", "fusion_lat": 0.0, "is_disabled": 0, "rental_uris": {"ios": "https://dc.lft.to/lastmile_qr_scan", "android": "https://dc.lft.to/lastmile_qr_scan"}, "bike_id": "de41c5f29591978950b1a35ca556d1f2", "lat": 38.901776, "name": "de41c5f29591978950b1a35ca556d1f2", "lon": -76.92947183333334, "fusion_lon": 0.0}, {"is_reserved": 0, "type": "electric_bike", "fusion_lat": 0.0, "is_disabled": 0, "rental_uris": {"ios": "https://dc.lft.to/lastmile_qr_scan", "android": "https://dc.lft.to/lastmile_qr_scan"}, "bike_id": "2b4635be90beb91c56e3eef96c12fbaf", "lat": 38.96777483333334, "name": "2b4635be90beb91c56e3eef96c12fbaf", "lon": -76.9964915, "fusion_lon": 0.0}, {"is_reserved": 0, "type": "electric_scooter", "fusion_lat": 0.0, "is_disabled": 0, "rental_uris": {"ios": "https://dc.lft.to/lastmile_qr_scan", "android": "https://dc.lft.to/lastmile_qr_scan"}, "bike_id": "4245297198886f0b559fb8a9414bb8c4", "lat": 38.915760666666664, "name": "4245297198886f0b559fb8a9414bb8c4", "lon": -77.02015366666667, "fusion_lon": 0.0}, {"is_reserved": 0, "type": "electric_scooter", "fusion_lat": 0.0, "is_disabled": 0, "rental_uris": {"ios": "https://dc.lft.to/lastmile_qr_scan", "android": "https://dc.lft.to/lastmile_qr_scan"}, "bike_id": "499b989acfd4dfd76343949c6ec89d08", "lat": 38.92365016666667, "name": "499b989acfd4dfd76343949c6ec89d08", "lon": -77.072763, "fusion_lon": 0.0}, {"is_reserved": 0, "type": "electric_scooter", "fusion_lat": 0.0, "is_disabled": 0, "rental_uris": {"ios": "https://dc.lft.to/lastmile_qr_scan", "android": "https://dc.lft.to/lastmile_qr_scan"}, "bike_id": "5f703e43c98afb37f42a3847e19543da", "lat": 38.90023883333333, "name": "5f703e43c98afb37f42a3847e19543da", "lon": -77.01187833333333, "fusion_lon": 0.0}, {"is_reserved": 0, "type": "electric_scooter", "fusion_lat": 0.0, "is_disabled": 0, "rental_uris": {"ios": "https://dc.lft.to/lastmile_qr_scan", "android": "https://dc.lft.to/lastmile_qr_scan"}, "bike_id": "4ee3fe46609f57a9bfab6992b294c4a9", "lat": 38.91552933333333, "name": "4ee3fe46609f57a9bfab6992b294c4a9", "lon": -77.04126366666667, "fusion_lon": 0.0}, {"is_reserved": 0, "type": "electric_scooter", "fusion_lat": 0.0, "is_disabled": 0, "rental_uris": {"ios": "https://dc.lft.to/lastmile_qr_scan", "android": "https://dc.lft.to/lastmile_qr_scan"}, "bike_id": "00f5a04672a5ce3ba28651526395ec36", "lat": 38.935384, "name": "00f5a04672a5ce3ba28651526395ec36", "lon": -77.05745666666667, "fusion_lon": 0.0}, {"is_reserved": 0, "type": "electric_scooter", "fusion_lat": 0.0, "is_disabled": 0, "rental_uris": {"ios": "https://dc.lft.to/lastmile_qr_scan", "android": "https://dc.lft.to/lastmile_qr_scan"}, "bike_id": "af7c60c97b80432bdaeae0f1cc6e562e", "lat": 38.8870555, "name": "af7c60c97b80432bdaeae0f1cc6e562e", "lon": -77.000653, "fusion_lon": 0.0}, {"is_reserved": 0, "type": "electric_scooter", "fusion_lat": 0.0, "is_disabled": 0, "rental_uris": {"ios": "https://dc.lft.to/lastmile_qr_scan", "android": "https://dc.lft.to/lastmile_qr_scan"}, "bike_id": "fe7de2f57e285c7f1448074dec7d78f6", "lat": 38.87942233333333, "name": "fe7de2f57e285c7f1448074dec7d78f6", "lon": -77.01273766666667, "fusion_lon": 0.0}, {"is_reserved": 0, "type": "electric_scooter", "fusion_lat": 0.0, "is_disabled": 0, "rental_uris": {"ios": "https://dc.lft.to/lastmile_qr_scan", "android": "https://dc.lft.to/lastmile_qr_scan"}, "bike_id": "7e9503e2fa0473e5b2c25feb09c0b69c", "lat": 38.88431516666667, "name": "7e9503e2fa0473e5b2c25feb09c0b69c", "lon": -77.03037916666666, "fusion_lon": 0.0}, {"is_reserved": 0, "type": "electric_bike", "fusion_lat": 0.0, "is_disabled": 0, "rental_uris": {"ios": "https://dc.lft.to/lastmile_qr_scan", "android": "https://dc.lft.to/lastmile_qr_scan"}, "bike_id": "6356ffc2e864f678f6ebe23c401c7190", "lat": 38.86752116666667, "name": "6356ffc2e864f678f6ebe23c401c7190", "lon": -76.94535616666667, "fusion_lon": 0.0}, {"is_reserved": 0, "type": "electric_scooter", "fusion_lat": 0.0, "is_disabled": 0, "rental_uris": {"ios": "https://dc.lft.to/lastmile_qr_scan", "android": "https://dc.lft.to/lastmile_qr_scan"}, "bike_id": "3bfda9cb7207c19004eaf477c09e6ea6", "lat": 38.88772916666667, "name": "3bfda9cb7207c19004eaf477c09e6ea6", "lon": -76.932644, "fusion_lon": 0.0}, {"is_reserved": 0, "type": "electric_scooter", "fusion_lat": 0.0, "is_disabled": 0, "rental_uris": {"ios": "https://dc.lft.to/lastmile_qr_scan", "android": "https://dc.lft.to/lastmile_qr_scan"}, "bike_id": "d85ef7e01a540311987445665699d1e8", "lat": 38.89560016666667, "name": "d85ef7e01a540311987445665699d1e8", "lon": -77.0091985, "fusion_lon": 0.0}, {"is_reserved": 0, "type": "electric_scooter", "fusion_lat": 0.0, "is_disabled": 0, "rental_uris": {"ios": "https://dc.lft.to/lastmile_qr_scan", "android": "https://dc.lft.to/lastmile_qr_scan"}, "bike_id": "4fb0e58909ebb87299c15a68756b2fda", "lat": 38.932836, "name": "4fb0e58909ebb87299c15a68756b2fda", "lon": -77.02540716666667, "fusion_lon": 0.0}, {"is_reserved": 0, "type": "electric_scooter", "fusion_lat": 0.0, "is_disabled": 0, "rental_uris": {"ios": "https://dc.lft.to/lastmile_qr_scan", "android": "https://dc.lft.to/lastmile_qr_scan"}, "bike_id": "0bbf2d90880605de9072a97ed346f266", "lat": 38.9216825, "name": "0bbf2d90880605de9072a97ed346f266", "lon": -77.0402575, "fusion_lon": 0.0}, {"is_reserved": 0, "type": "electric_scooter", "fusion_lat": 0.0, "is_disabled": 0, "rental_uris": {"ios": "https://dc.lft.to/lastmile_qr_scan", "android": "https://dc.lft.to/lastmile_qr_scan"}, "bike_id": "42e3ccd0100a34e920e86dbcc97f0000", "lat": 38.91418133333333, "name": "42e3ccd0100a34e920e86dbcc97f0000", "lon": -77.03745833333333, "fusion_lon": 0.0}, {"is_reserved": 0, "type": "electric_scooter", "fusion_lat": 0.0, "is_disabled": 0, "rental_uris": {"ios": "https://dc.lft.to/lastmile_qr_scan", "android": "https://dc.lft.to/lastmile_qr_scan"}, "bike_id": "af1b4bac63db7631770baf22d455609d", "lat": 38.95429633333333, "name": "af1b4bac63db7631770baf22d455609d", "lon": -77.01858233333333, "fusion_lon": 0.0}, {"is_reserved": 0, "type": "electric_scooter", "fusion_lat": 0.0, "is_disabled": 0, "rental_uris": {"ios": "https://dc.lft.to/lastmile_qr_scan", "android": "https://dc.lft.to/lastmile_qr_scan"}, "bike_id": "e01c195a94af311fccb07236809e5272", "lat": 38.92520183333333, "name": "e01c195a94af311fccb07236809e5272", "lon": -77.0321765, "fusion_lon": 0.0}, {"is_reserved": 0, "type": "electric_scooter", "fusion_lat": 0.0, "is_disabled": 0, "rental_uris": {"ios": "https://dc.lft.to/lastmile_qr_scan", "android": "https://dc.lft.to/lastmile_qr_scan"}, "bike_id": "9a4417178461c4316635992ab6ab814b", "lat": 38.89635466666667, "name": "9a4417178461c4316635992ab6ab814b", "lon": -77.02665016666667, "fusion_lon": 0.0}, {"is_reserved": 0, "type": "electric_scooter", "fusion_lat": 0.0, "is_disabled": 0, "rental_uris": {"ios": "https://dc.lft.to/lastmile_qr_scan", "android": "https://dc.lft.to/lastmile_qr_scan"}, "bike_id": "0760de798d376af3ad30e0dafa581ed7", "lat": 38.905580666666665, "name": "0760de798d376af3ad30e0dafa581ed7", "lon": -77.0265885, "fusion_lon": 0.0}, {"is_reserved": 0, "type": "electric_bike", "fusion_lat": 0.0, "is_disabled": 0, "rental_uris": {"ios": "https://dc.lft.to/lastmile_qr_scan", "android": "https://dc.lft.to/lastmile_qr_scan"}, "bike_id": "33527ff4f4acbee8263ace00e1690449", "lat": 38.98368033333333, "name": "33527ff4f4acbee8263ace00e1690449", "lon": -76.98853616666666, "fusion_lon": 0.0}, {"is_reserved": 0, "type": "electric_scooter", "fusion_lat": 0.0, "is_disabled": 0, "rental_uris": {"ios": "https://dc.lft.to/lastmile_qr_scan", "android": "https://dc.lft.to/lastmile_qr_scan"}, "bike_id": "8a550475275d77feab571e841ce7df85", "lat": 38.8872655, "name": "8a550475275d77feab571e841ce7df85", "lon": -76.9837935, "fusion_lon": 0.0}, {"is_reserved": 0, "type": "electric_scooter", "fusion_lat": 0.0, "is_disabled": 0, "rental_uris": {"ios": "https://dc.lft.to/lastmile_qr_scan", "android": "https://dc.lft.to/lastmile_qr_scan"}, "bike_id": "d1bfc1396fe58c73384c18f56a01fe6c", "lat": 38.89951666666666, "name": "d1bfc1396fe58c73384c18f56a01fe6c", "lon": -77.04758783333334, "fusion_lon": 0.0}, {"is_reserved": 0, "type": "electric_scooter", "fusion_lat": 0.0, "is_disabled": 0, "rental_uris": {"ios": "https://dc.lft.to/lastmile_qr_scan", "android": "https://dc.lft.to/lastmile_qr_scan"}, "bike_id": "442ecb3ab18f3d7719d5cc012d021ac2", "lat": 38.95626266666667, "name": "442ecb3ab18f3d7719d5cc012d021ac2", "lon": -77.02239383333334, "fusion_lon": 0.0}, {"is_reserved": 0, "type": "electric_scooter", "fusion_lat": 0.0, "is_disabled": 0, "rental_uris": {"ios": "https://dc.lft.to/lastmile_qr_scan", "android": "https://dc.lft.to/lastmile_qr_scan"}, "bike_id": "1bb3a55dd92cb23c313ca2b85a132589", "lat": 38.918003166666665, "name": "1bb3a55dd92cb23c313ca2b85a132589", "lon": -77.033385, "fusion_lon": 0.0}, {"is_reserved": 0, "type": "electric_scooter", "fusion_lat": 0.0, "is_disabled": 0, "rental_uris": {"ios": "https://dc.lft.to/lastmile_qr_scan", "android": "https://dc.lft.to/lastmile_qr_scan"}, "bike_id": "8c330dc467579b09f8cfffb10ed27c5c", "lat": 38.9079375, "name": "8c330dc467579b09f8cfffb10ed27c5c", "lon": -77.0095475, "fusion_lon": 0.0}, {"is_reserved": 0, "type": "electric_scooter", "fusion_lat": 0.0, "is_disabled": 0, "rental_uris": {"ios": "https://dc.lft.to/lastmile_qr_scan", "android": "https://dc.lft.to/lastmile_qr_scan"}, "bike_id": "e8d212f08aabe91c095698e79d943faf", "lat": 38.9093555, "name": "e8d212f08aabe91c095698e79d943faf", "lon": -76.99913916666667, "fusion_lon": 0.0}, {"is_reserved": 0, "type": "electric_scooter", "fusion_lat": 0.0, "is_disabled": 0, "rental_uris": {"ios": "https://dc.lft.to/lastmile_qr_scan", "android": "https://dc.lft.to/lastmile_qr_scan"}, "bike_id": "10cd3a4e44a0289c53ed8f29453d7f9a", "lat": 38.879455, "name": "10cd3a4e44a0289c53ed8f29453d7f9a", "lon": -77.005916, "fusion_lon": 0.0}, {"is_reserved": 0, "type": "electric_scooter", "fusion_lat": 0.0, "is_disabled": 0, "rental_uris": {"ios": "https://dc.lft.to/lastmile_qr_scan", "android": "https://dc.lft.to/lastmile_qr_scan"}, "bike_id": "bd0e6529260af557c6e7ea0237e8c62b", "lat": 38.93422066666667, "name": "bd0e6529260af557c6e7ea0237e8c62b", "lon": -77.032864, "fusion_lon": 0.0}, {"is_reserved": 0, "type": "electric_scooter", "fusion_lat": 0.0, "is_disabled": 0, "rental_uris": {"ios": "https://dc.lft.to/lastmile_qr_scan", "android": "https://dc.lft.to/lastmile_qr_scan"}, "bike_id": "c1ea0618ae430949e4c0c0ec365e9cfe", "lat": 38.89611216666667, "name": "c1ea0618ae430949e4c0c0ec365e9cfe", "lon": -77.02732616666667, "fusion_lon": 0.0}, {"is_reserved": 0, "type": "electric_scooter", "fusion_lat": 0.0, "is_disabled": 0, "rental_uris": {"ios": "https://dc.lft.to/lastmile_qr_scan", "android": "https://dc.lft.to/lastmile_qr_scan"}, "bike_id": "bd5c0ccb9c3363cd1ce161a4f926b218", "lat": 38.9313305, "name": "bd5c0ccb9c3363cd1ce161a4f926b218", "lon": -77.02176333333334, "fusion_lon": 0.0}, {"is_reserved": 0, "type": "electric_scooter", "fusion_lat": 0.0, "is_disabled": 0, "rental_uris": {"ios": "https://dc.lft.to/lastmile_qr_scan", "android": "https://dc.lft.to/lastmile_qr_scan"}, "bike_id": "3311317a96d1a5abccf924c367ba5fb4", "lat": 38.9330935, "name": "3311317a96d1a5abccf924c367ba5fb4", "lon": -77.032559, "fusion_lon": 0.0}, {"is_reserved": 0, "type": "electric_bike", "fusion_lat": 0.0, "is_disabled": 0, "rental_uris": {"ios": "https://dc.lft.to/lastmile_qr_scan", "android": "https://dc.lft.to/lastmile_qr_scan"}, "bike_id": "bcae01dc7ba33c2dd37809aada921d2a", "lat": 38.936292, "name": "bcae01dc7ba33c2dd37809aada921d2a", "lon": -77.06349933333334, "fusion_lon": 0.0}, {"is_reserved": 0, "type": "electric_scooter", "fusion_lat": 0.0, "is_disabled": 0, "rental_uris": {"ios": "https://dc.lft.to/lastmile_qr_scan", "android": "https://dc.lft.to/lastmile_qr_scan"}, "bike_id": "38a52cd8f8e82a57afb757887311f045", "lat": 38.9213585, "name": "38a52cd8f8e82a57afb757887311f045", "lon": -77.00399233333333, "fusion_lon": 0.0}, {"is_reserved": 0, "type": "electric_scooter", "fusion_lat": 0.0, "is_disabled": 0, "rental_uris": {"ios": "https://dc.lft.to/lastmile_qr_scan", "android": "https://dc.lft.to/lastmile_qr_scan"}, "bike_id": "3c94204816bb712e9f6107fa0346ce12", "lat": 38.904294666666665, "name": "3c94204816bb712e9f6107fa0346ce12", "lon": -77.05130366666667, "fusion_lon": 0.0}, {"is_reserved": 0, "type": "electric_bike", "fusion_lat": 0.0, "is_disabled": 0, "rental_uris": {"ios": "https://dc.lft.to/lastmile_qr_scan", "android": "https://dc.lft.to/lastmile_qr_scan"}, "bike_id": "3ed43398de5418a9ee3823c6ead4210d", "lat": 38.83605283333333, "name": "3ed43398de5418a9ee3823c6ead4210d", "lon": -77.00376783333333, "fusion_lon": 0.0}, {"is_reserved": 0, "type": "electric_bike", "fusion_lat": 0.0, "is_disabled": 0, "rental_uris": {"ios": "https://dc.lft.to/lastmile_qr_scan", "android": "https://dc.lft.to/lastmile_qr_scan"}, "bike_id": "f5df23b33346039bbcccf03942541072", "lat": 38.857942666666666, "name": "f5df23b33346039bbcccf03942541072", "lon": -76.98761283333333, "fusion_lon": 0.0}, {"is_reserved": 0, "type": "electric_bike", "fusion_lat": 0.0, "is_disabled": 0, "rental_uris": {"ios": "https://dc.lft.to/lastmile_qr_scan", "android": "https://dc.lft.to/lastmile_qr_scan"}, "bike_id": "34909f69a52bdf6652e0d6544bd8e84f", "lat": 38.90687483333333, "name": "34909f69a52bdf6652e0d6544bd8e84f", "lon": -77.0102155, "fusion_lon": 0.0}, {"is_reserved": 0, "type": "electric_scooter", "fusion_lat": 0.0, "is_disabled": 0, "rental_uris": {"ios": "https://dc.lft.to/lastmile_qr_scan", "android": "https://dc.lft.to/lastmile_qr_scan"}, "bike_id": "748e86066ff89bed4f9e8ac1fa7bafc8", "lat": 38.895734833333336, "name": "748e86066ff89bed4f9e8ac1fa7bafc8", "lon": -77.02666916666666, "fusion_lon": 0.0}, {"is_reserved": 0, "type": "electric_scooter", "fusion_lat": 0.0, "is_disabled": 0, "rental_uris": {"ios": "https://dc.lft.to/lastmile_qr_scan", "android": "https://dc.lft.to/lastmile_qr_scan"}, "bike_id": "8516e30dfc7d3718407fbad777d430a4", "lat": 38.83383216666667, "name": "8516e30dfc7d3718407fbad777d430a4", "lon": -77.003001, "fusion_lon": 0.0}, {"is_reserved": 0, "type": "electric_scooter", "fusion_lat": 0.0, "is_disabled": 0, "rental_uris": {"ios": "https://dc.lft.to/lastmile_qr_scan", "android": "https://dc.lft.to/lastmile_qr_scan"}, "bike_id": "40b4d5b717b4c612d7aeb8542d440391", "lat": 38.88238333333334, "name": "40b4d5b717b4c612d7aeb8542d440391", "lon": -76.99088933333333, "fusion_lon": 0.0}, {"is_reserved": 0, "type": "electric_scooter", "fusion_lat": 0.0, "is_disabled": 0, "rental_uris": {"ios": "https://dc.lft.to/lastmile_qr_scan", "android": "https://dc.lft.to/lastmile_qr_scan"}, "bike_id": "b00cb03bd0c6fe3bcc2287e8922099aa", "lat": 38.91690966666667, "name": "b00cb03bd0c6fe3bcc2287e8922099aa", "lon": -77.01575183333334, "fusion_lon": 0.0}, {"is_reserved": 0, "type": "electric_scooter", "fusion_lat": 0.0, "is_disabled": 0, "rental_uris": {"ios": "https://dc.lft.to/lastmile_qr_scan", "android": "https://dc.lft.to/lastmile_qr_scan"}, "bike_id": "04652bf4f19f7dcc7d5f0c7181638007", "lat": 38.909581833333334, "name": "04652bf4f19f7dcc7d5f0c7181638007", "lon": -77.023849, "fusion_lon": 0.0}, {"is_reserved": 0, "type": "electric_scooter", "fusion_lat": 0.0, "is_disabled": 0, "rental_uris": {"ios": "https://dc.lft.to/lastmile_qr_scan", "android": "https://dc.lft.to/lastmile_qr_scan"}, "bike_id": "b7b2d9630586cc232e3936b850f3f18e", "lat": 38.9172545, "name": "b7b2d9630586cc232e3936b850f3f18e", "lon": -77.02973, "fusion_lon": 0.0}, {"is_reserved": 0, "type": "electric_scooter", "fusion_lat": 0.0, "is_disabled": 0, "rental_uris": {"ios": "https://dc.lft.to/lastmile_qr_scan", "android": "https://dc.lft.to/lastmile_qr_scan"}, "bike_id": "09218eacbfaf80272b8cc8adfa82e6b9", "lat": 38.88154816666667, "name": "09218eacbfaf80272b8cc8adfa82e6b9", "lon": -77.01314933333333, "fusion_lon": 0.0}, {"is_reserved": 0, "type": "electric_scooter", "fusion_lat": 0.0, "is_disabled": 0, "rental_uris": {"ios": "https://dc.lft.to/lastmile_qr_scan", "android": "https://dc.lft.to/lastmile_qr_scan"}, "bike_id": "3c6f1d7248cf04d9ce0f3cebc1b2e280", "lat": 38.924623833333335, "name": "3c6f1d7248cf04d9ce0f3cebc1b2e280", "lon": -77.02235833333333, "fusion_lon": 0.0}, {"is_reserved": 0, "type": "electric_bike", "fusion_lat": 0.0, "is_disabled": 0, "rental_uris": {"ios": "https://dc.lft.to/lastmile_qr_scan", "android": "https://dc.lft.to/lastmile_qr_scan"}, "bike_id": "8b17e98daf08690c66372f887e8c65e0", "lat": 38.94268566666667, "name": "8b17e98daf08690c66372f887e8c65e0", "lon": -76.99070083333334, "fusion_lon": 0.0}, {"is_reserved": 0, "type": "electric_scooter", "fusion_lat": 0.0, "is_disabled": 0, "rental_uris": {"ios": "https://dc.lft.to/lastmile_qr_scan", "android": "https://dc.lft.to/lastmile_qr_scan"}, "bike_id": "26e98597ac552a9a971de73c6986b1c9", "lat": 38.900927333333335, "name": "26e98597ac552a9a971de73c6986b1c9", "lon": -77.0450975, "fusion_lon": 0.0}, {"is_reserved": 0, "type": "electric_scooter", "fusion_lat": 0.0, "is_disabled": 0, "rental_uris": {"ios": "https://dc.lft.to/lastmile_qr_scan", "android": "https://dc.lft.to/lastmile_qr_scan"}, "bike_id": "d3a329b1cf41c7a722070304868b1b26", "lat": 38.9241685, "name": "d3a329b1cf41c7a722070304868b1b26", "lon": -77.01951016666666, "fusion_lon": 0.0}, {"is_reserved": 0, "type": "electric_scooter", "fusion_lat": 0.0, "is_disabled": 0, "rental_uris": {"ios": "https://dc.lft.to/lastmile_qr_scan", "android": "https://dc.lft.to/lastmile_qr_scan"}, "bike_id": "e003311c0d28cda58eb2e453c539c124", "lat": 38.9116965, "name": "e003311c0d28cda58eb2e453c539c124", "lon": -77.044843, "fusion_lon": 0.0}, {"is_reserved": 0, "type": "electric_scooter", "fusion_lat": 0.0, "is_disabled": 0, "rental_uris": {"ios": "https://dc.lft.to/lastmile_qr_scan", "android": "https://dc.lft.to/lastmile_qr_scan"}, "bike_id": "b2e1492531b80e24e7e79f1dfec2cf04", "lat": 38.90002766666667, "name": "b2e1492531b80e24e7e79f1dfec2cf04", "lon": -77.00391883333333, "fusion_lon": 0.0}, {"is_reserved": 0, "type": "electric_bike", "fusion_lat": 0.0, "is_disabled": 0, "rental_uris": {"ios": "https://dc.lft.to/lastmile_qr_scan", "android": "https://dc.lft.to/lastmile_qr_scan"}, "bike_id": "f38dd4837fa17244dc24d4c7181e506e", "lat": 38.86566366666667, "name": "f38dd4837fa17244dc24d4c7181e506e", "lon": -76.97474633333333, "fusion_lon": 0.0}, {"is_reserved": 0, "type": "electric_scooter", "fusion_lat": 0.0, "is_disabled": 0, "rental_uris": {"ios": "https://dc.lft.to/lastmile_qr_scan", "android": "https://dc.lft.to/lastmile_qr_scan"}, "bike_id": "72b0a25dc019b34c756db9ffe8af54e7", "lat": 38.930583166666665, "name": "72b0a25dc019b34c756db9ffe8af54e7", "lon": -77.0367085, "fusion_lon": 0.0}, {"is_reserved": 0, "type": "electric_scooter", "fusion_lat": 0.0, "is_disabled": 0, "rental_uris": {"ios": "https://dc.lft.to/lastmile_qr_scan", "android": "https://dc.lft.to/lastmile_qr_scan"}, "bike_id": "ea26cd113776eebfd672b03c909cc3d2", "lat": 38.885800333333336, "name": "ea26cd113776eebfd672b03c909cc3d2", "lon": -77.012287, "fusion_lon": 0.0}, {"is_reserved": 0, "type": "electric_scooter", "fusion_lat": 0.0, "is_disabled": 0, "rental_uris": {"ios": "https://dc.lft.to/lastmile_qr_scan", "android": "https://dc.lft.to/lastmile_qr_scan"}, "bike_id": "3231333248bd73aace54927a4e7adb7c", "lat": 38.90082066666667, "name": "3231333248bd73aace54927a4e7adb7c", "lon": -77.0134185, "fusion_lon": 0.0}, {"is_reserved": 0, "type": "electric_bike", "fusion_lat": 0.0, "is_disabled": 0, "rental_uris": {"ios": "https://dc.lft.to/lastmile_qr_scan", "android": "https://dc.lft.to/lastmile_qr_scan"}, "bike_id": "3a6c0edc3783988056af2e52b5a25c26", "lat": 38.8243335, "name": "3a6c0edc3783988056af2e52b5a25c26", "lon": -77.1204135, "fusion_lon": 0.0}, {"is_reserved": 0, "type": "electric_scooter", "fusion_lat": 0.0, "is_disabled": 0, "rental_uris": {"ios": "https://dc.lft.to/lastmile_qr_scan", "android": "https://dc.lft.to/lastmile_qr_scan"}, "bike_id": "63df6b86bc9d141b74147c2ae25b4326", "lat": 38.91035266666667, "name": "63df6b86bc9d141b74147c2ae25b4326", "lon": -77.0102405, "fusion_lon": 0.0}, {"is_reserved": 0, "type": "electric_scooter", "fusion_lat": 0.0, "is_disabled": 0, "rental_uris": {"ios": "https://dc.lft.to/lastmile_qr_scan", "android": "https://dc.lft.to/lastmile_qr_scan"}, "bike_id": "c121ff0da9fc4b72c7b033630e9d4ecb", "lat": 38.930050666666666, "name": "c121ff0da9fc4b72c7b033630e9d4ecb", "lon": -77.037945, "fusion_lon": 0.0}, {"is_reserved": 0, "type": "electric_bike", "fusion_lat": 0.0, "is_disabled": 0, "rental_uris": {"ios": "https://dc.lft.to/lastmile_qr_scan", "android": "https://dc.lft.to/lastmile_qr_scan"}, "bike_id": "a4709999c30c98ba675d72369d684ab7", "lat": 38.94509716666666, "name": "a4709999c30c98ba675d72369d684ab7", "lon": -77.006743, "fusion_lon": 0.0}, {"is_reserved": 0, "type": "electric_scooter", "fusion_lat": 0.0, "is_disabled": 0, "rental_uris": {"ios": "https://dc.lft.to/lastmile_qr_scan", "android": "https://dc.lft.to/lastmile_qr_scan"}, "bike_id": "c0a380be2b51a5da1747b710b15c6338", "lat": 38.92549533333333, "name": "c0a380be2b51a5da1747b710b15c6338", "lon": -77.00323716666666, "fusion_lon": 0.0}, {"is_reserved": 0, "type": "electric_scooter", "fusion_lat": 0.0, "is_disabled": 0, "rental_uris": {"ios": "https://dc.lft.to/lastmile_qr_scan", "android": "https://dc.lft.to/lastmile_qr_scan"}, "bike_id": "7d68acd704ac9968bc401d2bd80df2c5", "lat": 38.90781966666667, "name": "7d68acd704ac9968bc401d2bd80df2c5", "lon": -77.0725785, "fusion_lon": 0.0}, {"is_reserved": 0, "type": "electric_scooter", "fusion_lat": 0.0, "is_disabled": 0, "rental_uris": {"ios": "https://dc.lft.to/lastmile_qr_scan", "android": "https://dc.lft.to/lastmile_qr_scan"}, "bike_id": "ad58579715678e39850e3b957290cc28", "lat": 38.936583666666664, "name": "ad58579715678e39850e3b957290cc28", "lon": -77.06612816666667, "fusion_lon": 0.0}, {"is_reserved": 0, "type": "electric_scooter", "fusion_lat": 0.0, "is_disabled": 0, "rental_uris": {"ios": "https://dc.lft.to/lastmile_qr_scan", "android": "https://dc.lft.to/lastmile_qr_scan"}, "bike_id": "0e22d444304e7db3eb4bb9d927f08809", "lat": 38.90174283333333, "name": "0e22d444304e7db3eb4bb9d927f08809", "lon": -77.024842, "fusion_lon": 0.0}, {"is_reserved": 0, "type": "electric_scooter", "fusion_lat": 0.0, "is_disabled": 0, "rental_uris": {"ios": "https://dc.lft.to/lastmile_qr_scan", "android": "https://dc.lft.to/lastmile_qr_scan"}, "bike_id": "a8de5039b61142eec1a33ec35b1d52ce", "lat": 38.90025933333333, "name": "a8de5039b61142eec1a33ec35b1d52ce", "lon": -77.03306633333334, "fusion_lon": 0.0}, {"is_reserved": 0, "type": "electric_scooter", "fusion_lat": 0.0, "is_disabled": 0, "rental_uris": {"ios": "https://dc.lft.to/lastmile_qr_scan", "android": "https://dc.lft.to/lastmile_qr_scan"}, "bike_id": "dca2a2acb6fc394511526950a02ce96f", "lat": 38.9045965, "name": "dca2a2acb6fc394511526950a02ce96f", "lon": -77.01721783333333, "fusion_lon": 0.0}, {"is_reserved": 0, "type": "electric_scooter", "fusion_lat": 0.0, "is_disabled": 0, "rental_uris": {"ios": "https://dc.lft.to/lastmile_qr_scan", "android": "https://dc.lft.to/lastmile_qr_scan"}, "bike_id": "f59c94a3e7a8231e6fefe557bbde030b", "lat": 38.9061265, "name": "f59c94a3e7a8231e6fefe557bbde030b", "lon": -77.02959766666666, "fusion_lon": 0.0}, {"is_reserved": 0, "type": "electric_scooter", "fusion_lat": 0.0, "is_disabled": 0, "rental_uris": {"ios": "https://dc.lft.to/lastmile_qr_scan", "android": "https://dc.lft.to/lastmile_qr_scan"}, "bike_id": "52f8e4f022f6101079f9956af196eb57", "lat": 38.92043616666667, "name": "52f8e4f022f6101079f9956af196eb57", "lon": -77.040388, "fusion_lon": 0.0}, {"is_reserved": 0, "type": "electric_scooter", "fusion_lat": 0.0, "is_disabled": 0, "rental_uris": {"ios": "https://dc.lft.to/lastmile_qr_scan", "android": "https://dc.lft.to/lastmile_qr_scan"}, "bike_id": "79f1831cbdfaffd306ed66cb5dc3f17a", "lat": 38.88710416666667, "name": "79f1831cbdfaffd306ed66cb5dc3f17a", "lon": -76.98383166666666, "fusion_lon": 0.0}, {"is_reserved": 0, "type": "electric_scooter", "fusion_lat": 0.0, "is_disabled": 0, "rental_uris": {"ios": "https://dc.lft.to/lastmile_qr_scan", "android": "https://dc.lft.to/lastmile_qr_scan"}, "bike_id": "f6edfc8696ae03af4c6348069e9c6673", "lat": 38.9068485, "name": "f6edfc8696ae03af4c6348069e9c6673", "lon": -77.01016333333334, "fusion_lon": 0.0}, {"is_reserved": 0, "type": "electric_scooter", "fusion_lat": 0.0, "is_disabled": 0, "rental_uris": {"ios": "https://dc.lft.to/lastmile_qr_scan", "android": "https://dc.lft.to/lastmile_qr_scan"}, "bike_id": "ebc6612a137dfcb225ceb2fe5e0e00df", "lat": 38.932319666666665, "name": "ebc6612a137dfcb225ceb2fe5e0e00df", "lon": -77.02980116666667, "fusion_lon": 0.0}, {"is_reserved": 0, "type": "electric_bike", "fusion_lat": 0.0, "is_disabled": 0, "rental_uris": {"ios": "https://dc.lft.to/lastmile_qr_scan", "android": "https://dc.lft.to/lastmile_qr_scan"}, "bike_id": "4bf25d3b827f8aa7707653d6ecc243f9", "lat": 38.81939466666667, "name": "4bf25d3b827f8aa7707653d6ecc243f9", "lon": -77.00203266666666, "fusion_lon": 0.0}, {"is_reserved": 0, "type": "electric_scooter", "fusion_lat": 0.0, "is_disabled": 0, "rental_uris": {"ios": "https://dc.lft.to/lastmile_qr_scan", "android": "https://dc.lft.to/lastmile_qr_scan"}, "bike_id": "330b63f8e1a2412e1be7bdd04c6a6989", "lat": 38.898150666666666, "name": "330b63f8e1a2412e1be7bdd04c6a6989", "lon": -76.99835066666667, "fusion_lon": 0.0}, {"is_reserved": 0, "type": "electric_scooter", "fusion_lat": 0.0, "is_disabled": 0, "rental_uris": {"ios": "https://dc.lft.to/lastmile_qr_scan", "android": "https://dc.lft.to/lastmile_qr_scan"}, "bike_id": "d2bea22e827989cd1bdc44524adc9c67", "lat": 38.898606, "name": "d2bea22e827989cd1bdc44524adc9c67", "lon": -76.98750766666667, "fusion_lon": 0.0}, {"is_reserved": 0, "type": "electric_scooter", "fusion_lat": 0.0, "is_disabled": 0, "rental_uris": {"ios": "https://dc.lft.to/lastmile_qr_scan", "android": "https://dc.lft.to/lastmile_qr_scan"}, "bike_id": "94e199c341f20667e1cf589be6067fdf", "lat": 38.8962115, "name": "94e199c341f20667e1cf589be6067fdf", "lon": -77.010893, "fusion_lon": 0.0}, {"is_reserved": 0, "type": "electric_scooter", "fusion_lat": 0.0, "is_disabled": 0, "rental_uris": {"ios": "https://dc.lft.to/lastmile_qr_scan", "android": "https://dc.lft.to/lastmile_qr_scan"}, "bike_id": "a12bc11a077642e329d997e12566e045", "lat": 38.878342833333335, "name": "a12bc11a077642e329d997e12566e045", "lon": -77.00860283333333, "fusion_lon": 0.0}, {"is_reserved": 0, "type": "electric_scooter", "fusion_lat": 0.0, "is_disabled": 0, "rental_uris": {"ios": "https://dc.lft.to/lastmile_qr_scan", "android": "https://dc.lft.to/lastmile_qr_scan"}, "bike_id": "f8035a5953d49968a026df8790e6a1e5", "lat": 38.92063433333333, "name": "f8035a5953d49968a026df8790e6a1e5", "lon": -77.00055633333334, "fusion_lon": 0.0}, {"is_reserved": 0, "type": "electric_scooter", "fusion_lat": 0.0, "is_disabled": 0, "rental_uris": {"ios": "https://dc.lft.to/lastmile_qr_scan", "android": "https://dc.lft.to/lastmile_qr_scan"}, "bike_id": "d4585d9ad4521c74d24f24b3de6fa9a7", "lat": 38.935303, "name": "d4585d9ad4521c74d24f24b3de6fa9a7", "lon": -77.0235715, "fusion_lon": 0.0}, {"is_reserved": 0, "type": "electric_scooter", "fusion_lat": 0.0, "is_disabled": 0, "rental_uris": {"ios": "https://dc.lft.to/lastmile_qr_scan", "android": "https://dc.lft.to/lastmile_qr_scan"}, "bike_id": "3a02ac1c6db51154b1810888ecd4a3d7", "lat": 38.924481166666666, "name": "3a02ac1c6db51154b1810888ecd4a3d7", "lon": -77.020403, "fusion_lon": 0.0}, {"is_reserved": 0, "type": "electric_scooter", "fusion_lat": 0.0, "is_disabled": 0, "rental_uris": {"ios": "https://dc.lft.to/lastmile_qr_scan", "android": "https://dc.lft.to/lastmile_qr_scan"}, "bike_id": "e21752d20b8732ab8b181292fe15ec0b", "lat": 38.89202266666667, "name": "e21752d20b8732ab8b181292fe15ec0b", "lon": -76.99859033333334, "fusion_lon": 0.0}, {"is_reserved": 0, "type": "electric_scooter", "fusion_lat": 0.0, "is_disabled": 0, "rental_uris": {"ios": "https://dc.lft.to/lastmile_qr_scan", "android": "https://dc.lft.to/lastmile_qr_scan"}, "bike_id": "9a25bf21169c6ed6c1ac6f4198feae72", "lat": 38.944668666666665, "name": "9a25bf21169c6ed6c1ac6f4198feae72", "lon": -77.006585, "fusion_lon": 0.0}, {"is_reserved": 0, "type": "electric_scooter", "fusion_lat": 0.0, "is_disabled": 0, "rental_uris": {"ios": "https://dc.lft.to/lastmile_qr_scan", "android": "https://dc.lft.to/lastmile_qr_scan"}, "bike_id": "e47313e9736371bf9d1c02841f4bea0e", "lat": 38.905412166666665, "name": "e47313e9736371bf9d1c02841f4bea0e", "lon": -77.0060205, "fusion_lon": 0.0}, {"is_reserved": 0, "type": "electric_scooter", "fusion_lat": 0.0, "is_disabled": 0, "rental_uris": {"ios": "https://dc.lft.to/lastmile_qr_scan", "android": "https://dc.lft.to/lastmile_qr_scan"}, "bike_id": "202010b552c3ca82dcdbd1e9fc0b1308", "lat": 38.92638933333333, "name": "202010b552c3ca82dcdbd1e9fc0b1308", "lon": -77.03840266666667, "fusion_lon": 0.0}, {"is_reserved": 0, "type": "electric_scooter", "fusion_lat": 0.0, "is_disabled": 0, "rental_uris": {"ios": "https://dc.lft.to/lastmile_qr_scan", "android": "https://dc.lft.to/lastmile_qr_scan"}, "bike_id": "6a2534426cee7f9caebbf17042d27e16", "lat": 38.896711333333336, "name": "6a2534426cee7f9caebbf17042d27e16", "lon": -76.9321325, "fusion_lon": 0.0}, {"is_reserved": 0, "type": "electric_scooter", "fusion_lat": 0.0, "is_disabled": 0, "rental_uris": {"ios": "https://dc.lft.to/lastmile_qr_scan", "android": "https://dc.lft.to/lastmile_qr_scan"}, "bike_id": "cbe6e1d147720101743e7739b687cc59", "lat": 38.90015833333333, "name": "cbe6e1d147720101743e7739b687cc59", "lon": -77.00679766666667, "fusion_lon": 0.0}, {"is_reserved": 0, "type": "electric_scooter", "fusion_lat": 0.0, "is_disabled": 0, "rental_uris": {"ios": "https://dc.lft.to/lastmile_qr_scan", "android": "https://dc.lft.to/lastmile_qr_scan"}, "bike_id": "db6452de6eb2f9286dac2c46c1e6c9c2", "lat": 38.9189985, "name": "db6452de6eb2f9286dac2c46c1e6c9c2", "lon": -77.00049783333333, "fusion_lon": 0.0}, {"is_reserved": 0, "type": "electric_scooter", "fusion_lat": 0.0, "is_disabled": 0, "rental_uris": {"ios": "https://dc.lft.to/lastmile_qr_scan", "android": "https://dc.lft.to/lastmile_qr_scan"}, "bike_id": "affc695100e8d8b1564c1aada87cd031", "lat": 38.901368833333336, "name": "affc695100e8d8b1564c1aada87cd031", "lon": -77.04183533333334, "fusion_lon": 0.0}, {"is_reserved": 0, "type": "electric_scooter", "fusion_lat": 0.0, "is_disabled": 0, "rental_uris": {"ios": "https://dc.lft.to/lastmile_qr_scan", "android": "https://dc.lft.to/lastmile_qr_scan"}, "bike_id": "6952e5c40fdc8199614d04eff381b64e", "lat": 38.9196605, "name": "6952e5c40fdc8199614d04eff381b64e", "lon": -77.0237405, "fusion_lon": 0.0}, {"is_reserved": 0, "type": "electric_scooter", "fusion_lat": 0.0, "is_disabled": 0, "rental_uris": {"ios": "https://dc.lft.to/lastmile_qr_scan", "android": "https://dc.lft.to/lastmile_qr_scan"}, "bike_id": "8e57ba521327073f5d2b8efd9b728fe0", "lat": 38.923424, "name": "8e57ba521327073f5d2b8efd9b728fe0", "lon": -76.984918, "fusion_lon": 0.0}, {"is_reserved": 0, "type": "electric_scooter", "fusion_lat": 0.0, "is_disabled": 0, "rental_uris": {"ios": "https://dc.lft.to/lastmile_qr_scan", "android": "https://dc.lft.to/lastmile_qr_scan"}, "bike_id": "36b729f1df4e55d7630ccd55572d4b8e", "lat": 38.92349866666667, "name": "36b729f1df4e55d7630ccd55572d4b8e", "lon": -77.03638866666667, "fusion_lon": 0.0}, {"is_reserved": 0, "type": "electric_bike", "fusion_lat": 0.0, "is_disabled": 0, "rental_uris": {"ios": "https://dc.lft.to/lastmile_qr_scan", "android": "https://dc.lft.to/lastmile_qr_scan"}, "bike_id": "839f1c6d8641970395a0abf7a386acb5", "lat": 38.8682715, "name": "839f1c6d8641970395a0abf7a386acb5", "lon": -76.98022283333333, "fusion_lon": 0.0}, {"is_reserved": 0, "type": "electric_scooter", "fusion_lat": 0.0, "is_disabled": 0, "rental_uris": {"ios": "https://dc.lft.to/lastmile_qr_scan", "android": "https://dc.lft.to/lastmile_qr_scan"}, "bike_id": "e928555bede1786a20c5ebeb1f0f4e80", "lat": 38.9430215, "name": "e928555bede1786a20c5ebeb1f0f4e80", "lon": -77.025276, "fusion_lon": 0.0}, {"is_reserved": 0, "type": "electric_scooter", "fusion_lat": 0.0, "is_disabled": 0, "rental_uris": {"ios": "https://dc.lft.to/lastmile_qr_scan", "android": "https://dc.lft.to/lastmile_qr_scan"}, "bike_id": "3f7c4ed2887bc96e5ea61c3912bdea73", "lat": 38.916662, "name": "3f7c4ed2887bc96e5ea61c3912bdea73", "lon": -77.02696033333334, "fusion_lon": 0.0}, {"is_reserved": 0, "type": "electric_scooter", "fusion_lat": 0.0, "is_disabled": 0, "rental_uris": {"ios": "https://dc.lft.to/lastmile_qr_scan", "android": "https://dc.lft.to/lastmile_qr_scan"}, "bike_id": "a0deaea09da37464e666c8905a822ff2", "lat": 38.902320833333334, "name": "a0deaea09da37464e666c8905a822ff2", "lon": -77.00061116666667, "fusion_lon": 0.0}, {"is_reserved": 0, "type": "electric_scooter", "fusion_lat": 0.0, "is_disabled": 0, "rental_uris": {"ios": "https://dc.lft.to/lastmile_qr_scan", "android": "https://dc.lft.to/lastmile_qr_scan"}, "bike_id": "5f9e3222d17879c4e7be4fd449927c3e", "lat": 38.92416866666667, "name": "5f9e3222d17879c4e7be4fd449927c3e", "lon": -77.02129616666667, "fusion_lon": 0.0}, {"is_reserved": 0, "type": "electric_scooter", "fusion_lat": 0.0, "is_disabled": 0, "rental_uris": {"ios": "https://dc.lft.to/lastmile_qr_scan", "android": "https://dc.lft.to/lastmile_qr_scan"}, "bike_id": "47ea690add9360c0c6fd8644618bf545", "lat": 38.89979783333333, "name": "47ea690add9360c0c6fd8644618bf545", "lon": -77.04467483333333, "fusion_lon": 0.0}, {"is_reserved": 0, "type": "electric_scooter", "fusion_lat": 0.0, "is_disabled": 0, "rental_uris": {"ios": "https://dc.lft.to/lastmile_qr_scan", "android": "https://dc.lft.to/lastmile_qr_scan"}, "bike_id": "e28d11a59f56c1db4dfc5044fa03d16d", "lat": 38.9482215, "name": "e28d11a59f56c1db4dfc5044fa03d16d", "lon": -77.02616733333333, "fusion_lon": 0.0}, {"is_reserved": 0, "type": "electric_scooter", "fusion_lat": 0.0, "is_disabled": 0, "rental_uris": {"ios": "https://dc.lft.to/lastmile_qr_scan", "android": "https://dc.lft.to/lastmile_qr_scan"}, "bike_id": "e12373effb1005a026e06fc0f623dd39", "lat": 38.876451, "name": "e12373effb1005a026e06fc0f623dd39", "lon": -77.00079783333334, "fusion_lon": 0.0}, {"is_reserved": 0, "type": "electric_scooter", "fusion_lat": 0.0, "is_disabled": 0, "rental_uris": {"ios": "https://dc.lft.to/lastmile_qr_scan", "android": "https://dc.lft.to/lastmile_qr_scan"}, "bike_id": "d4201dec8eba9efd04ff868ea963630f", "lat": 38.88139983333333, "name": "d4201dec8eba9efd04ff868ea963630f", "lon": -77.0200635, "fusion_lon": 0.0}, {"is_reserved": 0, "type": "electric_scooter", "fusion_lat": 0.0, "is_disabled": 0, "rental_uris": {"ios": "https://dc.lft.to/lastmile_qr_scan", "android": "https://dc.lft.to/lastmile_qr_scan"}, "bike_id": "845b9e5ce5864f4cd4137bc73f683638", "lat": 38.8919915, "name": "845b9e5ce5864f4cd4137bc73f683638", "lon": -77.01549166666666, "fusion_lon": 0.0}, {"is_reserved": 0, "type": "electric_bike", "fusion_lat": 0.0, "is_disabled": 0, "rental_uris": {"ios": "https://dc.lft.to/lastmile_qr_scan", "android": "https://dc.lft.to/lastmile_qr_scan"}, "bike_id": "f55df2c11d7f9b01f618b8e5ac16e6e2", "lat": 38.81333516666667, "name": "f55df2c11d7f9b01f618b8e5ac16e6e2", "lon": -77.05116433333333, "fusion_lon": 0.0}, {"is_reserved": 0, "type": "electric_scooter", "fusion_lat": 0.0, "is_disabled": 0, "rental_uris": {"ios": "https://dc.lft.to/lastmile_qr_scan", "android": "https://dc.lft.to/lastmile_qr_scan"}, "bike_id": "e88697db2e2908306fa7df7129ff912c", "lat": 38.9181375, "name": "e88697db2e2908306fa7df7129ff912c", "lon": -77.044353, "fusion_lon": 0.0}, {"is_reserved": 0, "type": "electric_scooter", "fusion_lat": 0.0, "is_disabled": 0, "rental_uris": {"ios": "https://dc.lft.to/lastmile_qr_scan", "android": "https://dc.lft.to/lastmile_qr_scan"}, "bike_id": "1fa848218dba2a391d4163089921c538", "lat": 38.924299500000004, "name": "1fa848218dba2a391d4163089921c538", "lon": -77.04246566666667, "fusion_lon": 0.0}, {"is_reserved": 0, "type": "electric_scooter", "fusion_lat": 0.0, "is_disabled": 0, "rental_uris": {"ios": "https://dc.lft.to/lastmile_qr_scan", "android": "https://dc.lft.to/lastmile_qr_scan"}, "bike_id": "a465c77bd76bd5d2618d23352941a287", "lat": 38.870724833333334, "name": "a465c77bd76bd5d2618d23352941a287", "lon": -76.98129166666666, "fusion_lon": 0.0}, {"is_reserved": 0, "type": "electric_scooter", "fusion_lat": 0.0, "is_disabled": 0, "rental_uris": {"ios": "https://dc.lft.to/lastmile_qr_scan", "android": "https://dc.lft.to/lastmile_qr_scan"}, "bike_id": "d0c0948f0636db08bfcc2319ad9f81c0", "lat": 38.93031, "name": "d0c0948f0636db08bfcc2319ad9f81c0", "lon": -77.06080866666667, "fusion_lon": 0.0}, {"is_reserved": 0, "type": "electric_scooter", "fusion_lat": 0.0, "is_disabled": 0, "rental_uris": {"ios": "https://dc.lft.to/lastmile_qr_scan", "android": "https://dc.lft.to/lastmile_qr_scan"}, "bike_id": "42461d039ca7fcb015799f3aabcd2d22", "lat": 38.914032, "name": "42461d039ca7fcb015799f3aabcd2d22", "lon": -77.04513566666667, "fusion_lon": 0.0}, {"is_reserved": 0, "type": "electric_scooter", "fusion_lat": 0.0, "is_disabled": 0, "rental_uris": {"ios": "https://dc.lft.to/lastmile_qr_scan", "android": "https://dc.lft.to/lastmile_qr_scan"}, "bike_id": "efc99c938611246eaa555dddaa038988", "lat": 38.9084795, "name": "efc99c938611246eaa555dddaa038988", "lon": -77.02463266666666, "fusion_lon": 0.0}, {"is_reserved": 0, "type": "electric_scooter", "fusion_lat": 0.0, "is_disabled": 0, "rental_uris": {"ios": "https://dc.lft.to/lastmile_qr_scan", "android": "https://dc.lft.to/lastmile_qr_scan"}, "bike_id": "c19a516f62a3262ab35122291e172a17", "lat": 38.89479333333333, "name": "c19a516f62a3262ab35122291e172a17", "lon": -76.94873833333334, "fusion_lon": 0.0}, {"is_reserved": 0, "type": "electric_scooter", "fusion_lat": 0.0, "is_disabled": 0, "rental_uris": {"ios": "https://dc.lft.to/lastmile_qr_scan", "android": "https://dc.lft.to/lastmile_qr_scan"}, "bike_id": "8b6bd9c2badc4004362565850379bf4a", "lat": 38.8932505, "name": "8b6bd9c2badc4004362565850379bf4a", "lon": -76.93930783333333, "fusion_lon": 0.0}, {"is_reserved": 0, "type": "electric_scooter", "fusion_lat": 0.0, "is_disabled": 0, "rental_uris": {"ios": "https://dc.lft.to/lastmile_qr_scan", "android": "https://dc.lft.to/lastmile_qr_scan"}, "bike_id": "ac4cc05dbbbd1aa9f6474abee499d49c", "lat": 38.917583666666665, "name": "ac4cc05dbbbd1aa9f6474abee499d49c", "lon": -77.00451283333334, "fusion_lon": 0.0}, {"is_reserved": 0, "type": "electric_bike", "fusion_lat": 0.0, "is_disabled": 0, "rental_uris": {"ios": "https://dc.lft.to/lastmile_qr_scan", "android": "https://dc.lft.to/lastmile_qr_scan"}, "bike_id": "bffbb839dbbdcfc82647b58fb3d39855", "lat": 38.8758, "name": "bffbb839dbbdcfc82647b58fb3d39855", "lon": -77.23412316666666, "fusion_lon": 0.0}, {"is_reserved": 0, "type": "electric_scooter", "fusion_lat": 0.0, "is_disabled": 0, "rental_uris": {"ios": "https://dc.lft.to/lastmile_qr_scan", "android": "https://dc.lft.to/lastmile_qr_scan"}, "bike_id": "952837eb00f23cb212037fbba9b50279", "lat": 38.9169425, "name": "952837eb00f23cb212037fbba9b50279", "lon": -77.03764233333334, "fusion_lon": 0.0}, {"is_reserved": 0, "type": "electric_scooter", "fusion_lat": 0.0, "is_disabled": 0, "rental_uris": {"ios": "https://dc.lft.to/lastmile_qr_scan", "android": "https://dc.lft.to/lastmile_qr_scan"}, "bike_id": "f25255316949e6aa2066285dfc870775", "lat": 38.91159833333333, "name": "f25255316949e6aa2066285dfc870775", "lon": -77.0448245, "fusion_lon": 0.0}, {"is_reserved": 0, "type": "electric_scooter", "fusion_lat": 0.0, "is_disabled": 0, "rental_uris": {"ios": "https://dc.lft.to/lastmile_qr_scan", "android": "https://dc.lft.to/lastmile_qr_scan"}, "bike_id": "87a72b1466c586a84f56e4f800d2dc0b", "lat": 38.9024535, "name": "87a72b1466c586a84f56e4f800d2dc0b", "lon": -77.01752016666667, "fusion_lon": 0.0}, {"is_reserved": 0, "type": "electric_bike", "fusion_lat": 0.0, "is_disabled": 0, "rental_uris": {"ios": "https://dc.lft.to/lastmile_qr_scan", "android": "https://dc.lft.to/lastmile_qr_scan"}, "bike_id": "a71485f58386b0ece5a7a5d20f8257de", "lat": 38.876628333333336, "name": "a71485f58386b0ece5a7a5d20f8257de", "lon": -77.02091766666666, "fusion_lon": 0.0}, {"is_reserved": 0, "type": "electric_scooter", "fusion_lat": 0.0, "is_disabled": 0, "rental_uris": {"ios": "https://dc.lft.to/lastmile_qr_scan", "android": "https://dc.lft.to/lastmile_qr_scan"}, "bike_id": "f44595215289acd70baaef7c993f1700", "lat": 38.9170725, "name": "f44595215289acd70baaef7c993f1700", "lon": -77.04601233333334, "fusion_lon": 0.0}, {"is_reserved": 0, "type": "electric_scooter", "fusion_lat": 0.0, "is_disabled": 0, "rental_uris": {"ios": "https://dc.lft.to/lastmile_qr_scan", "android": "https://dc.lft.to/lastmile_qr_scan"}, "bike_id": "9c36c3ad83d320fd7aad51d6e8566b2c", "lat": 38.906819666666664, "name": "9c36c3ad83d320fd7aad51d6e8566b2c", "lon": -77.027171, "fusion_lon": 0.0}, {"is_reserved": 0, "type": "electric_scooter", "fusion_lat": 0.0, "is_disabled": 0, "rental_uris": {"ios": "https://dc.lft.to/lastmile_qr_scan", "android": "https://dc.lft.to/lastmile_qr_scan"}, "bike_id": "d22c536ca0ce7d37a0313aa0f202532d", "lat": 38.900898166666664, "name": "d22c536ca0ce7d37a0313aa0f202532d", "lon": -77.0501225, "fusion_lon": 0.0}, {"is_reserved": 0, "type": "electric_scooter", "fusion_lat": 0.0, "is_disabled": 0, "rental_uris": {"ios": "https://dc.lft.to/lastmile_qr_scan", "android": "https://dc.lft.to/lastmile_qr_scan"}, "bike_id": "90a383dc8cea6279c7a0e235781415e2", "lat": 38.91714916666667, "name": "90a383dc8cea6279c7a0e235781415e2", "lon": -77.0386145, "fusion_lon": 0.0}, {"is_reserved": 0, "type": "electric_bike", "fusion_lat": 0.0, "is_disabled": 0, "rental_uris": {"ios": "https://dc.lft.to/lastmile_qr_scan", "android": "https://dc.lft.to/lastmile_qr_scan"}, "bike_id": "68b27b6650cd9ab3efd6c3aaf3cedb05", "lat": 38.8766805, "name": "68b27b6650cd9ab3efd6c3aaf3cedb05", "lon": -77.0145255, "fusion_lon": 0.0}, {"is_reserved": 0, "type": "electric_scooter", "fusion_lat": 0.0, "is_disabled": 0, "rental_uris": {"ios": "https://dc.lft.to/lastmile_qr_scan", "android": "https://dc.lft.to/lastmile_qr_scan"}, "bike_id": "6f5cedd3ea7567618418d7db2c39b819", "lat": 38.904149333333336, "name": "6f5cedd3ea7567618418d7db2c39b819", "lon": -76.97334183333334, "fusion_lon": 0.0}, {"is_reserved": 0, "type": "electric_scooter", "fusion_lat": 0.0, "is_disabled": 0, "rental_uris": {"ios": "https://dc.lft.to/lastmile_qr_scan", "android": "https://dc.lft.to/lastmile_qr_scan"}, "bike_id": "2328f3bdfac3109ab52622350962524d", "lat": 38.96770216666667, "name": "2328f3bdfac3109ab52622350962524d", "lon": -77.03426066666667, "fusion_lon": 0.0}, {"is_reserved": 0, "type": "electric_scooter", "fusion_lat": 0.0, "is_disabled": 0, "rental_uris": {"ios": "https://dc.lft.to/lastmile_qr_scan", "android": "https://dc.lft.to/lastmile_qr_scan"}, "bike_id": "672f040a19ff4e13df9a19906d67b922", "lat": 38.927475666666666, "name": "672f040a19ff4e13df9a19906d67b922", "lon": -77.02372083333333, "fusion_lon": 0.0}, {"is_reserved": 0, "type": "electric_scooter", "fusion_lat": 0.0, "is_disabled": 0, "rental_uris": {"ios": "https://dc.lft.to/lastmile_qr_scan", "android": "https://dc.lft.to/lastmile_qr_scan"}, "bike_id": "934c98f83a421a7957bf4b88ed982b20", "lat": 38.90948983333333, "name": "934c98f83a421a7957bf4b88ed982b20", "lon": -77.01529033333334, "fusion_lon": 0.0}, {"is_reserved": 0, "type": "electric_bike", "fusion_lat": 0.0, "is_disabled": 0, "rental_uris": {"ios": "https://dc.lft.to/lastmile_qr_scan", "android": "https://dc.lft.to/lastmile_qr_scan"}, "bike_id": "e1cc7028d0fb4f80799ac59c315880d9", "lat": 38.81548166666666, "name": "e1cc7028d0fb4f80799ac59c315880d9", "lon": -77.04646766666667, "fusion_lon": 0.0}, {"is_reserved": 0, "type": "electric_scooter", "fusion_lat": 0.0, "is_disabled": 0, "rental_uris": {"ios": "https://dc.lft.to/lastmile_qr_scan", "android": "https://dc.lft.to/lastmile_qr_scan"}, "bike_id": "8546a5b7296bda57ac7ce8e881ed55cb", "lat": 38.9302165, "name": "8546a5b7296bda57ac7ce8e881ed55cb", "lon": -77.03787016666666, "fusion_lon": 0.0}, {"is_reserved": 0, "type": "electric_scooter", "fusion_lat": 0.0, "is_disabled": 0, "rental_uris": {"ios": "https://dc.lft.to/lastmile_qr_scan", "android": "https://dc.lft.to/lastmile_qr_scan"}, "bike_id": "5d45f27aa9e6b5aecac5e4d0c9ed8933", "lat": 38.93189266666667, "name": "5d45f27aa9e6b5aecac5e4d0c9ed8933", "lon": -77.01964033333333, "fusion_lon": 0.0}, {"is_reserved": 0, "type": "electric_scooter", "fusion_lat": 0.0, "is_disabled": 0, "rental_uris": {"ios": "https://dc.lft.to/lastmile_qr_scan", "android": "https://dc.lft.to/lastmile_qr_scan"}, "bike_id": "877dacae98d5c15f90adae0abc2d7706", "lat": 38.901883, "name": "877dacae98d5c15f90adae0abc2d7706", "lon": -76.93468483333334, "fusion_lon": 0.0}, {"is_reserved": 0, "type": "electric_scooter", "fusion_lat": 0.0, "is_disabled": 0, "rental_uris": {"ios": "https://dc.lft.to/lastmile_qr_scan", "android": "https://dc.lft.to/lastmile_qr_scan"}, "bike_id": "5451219400191d993d1366a4924f120a", "lat": 38.9307475, "name": "5451219400191d993d1366a4924f120a", "lon": -77.07758533333333, "fusion_lon": 0.0}, {"is_reserved": 0, "type": "electric_scooter", "fusion_lat": 0.0, "is_disabled": 0, "rental_uris": {"ios": "https://dc.lft.to/lastmile_qr_scan", "android": "https://dc.lft.to/lastmile_qr_scan"}, "bike_id": "7ba63d1c1c7f6aa8a0407cf6e2412964", "lat": 38.92485883333333, "name": "7ba63d1c1c7f6aa8a0407cf6e2412964", "lon": -77.02633716666666, "fusion_lon": 0.0}, {"is_reserved": 0, "type": "electric_scooter", "fusion_lat": 0.0, "is_disabled": 0, "rental_uris": {"ios": "https://dc.lft.to/lastmile_qr_scan", "android": "https://dc.lft.to/lastmile_qr_scan"}, "bike_id": "59809449856110f00d631323ae3835df", "lat": 38.9301085, "name": "59809449856110f00d631323ae3835df", "lon": -77.04048233333333, "fusion_lon": 0.0}, {"is_reserved": 0, "type": "electric_scooter", "fusion_lat": 0.0, "is_disabled": 0, "rental_uris": {"ios": "https://dc.lft.to/lastmile_qr_scan", "android": "https://dc.lft.to/lastmile_qr_scan"}, "bike_id": "44a64f2647a2403898e9b67c018dbcf9", "lat": 38.8984065, "name": "44a64f2647a2403898e9b67c018dbcf9", "lon": -77.05006516666667, "fusion_lon": 0.0}, {"is_reserved": 0, "type": "electric_scooter", "fusion_lat": 0.0, "is_disabled": 0, "rental_uris": {"ios": "https://dc.lft.to/lastmile_qr_scan", "android": "https://dc.lft.to/lastmile_qr_scan"}, "bike_id": "29811a9bb64f3c6c8f8c6f8a79124a12", "lat": 38.91920133333333, "name": "29811a9bb64f3c6c8f8c6f8a79124a12", "lon": -77.04812366666667, "fusion_lon": 0.0}, {"is_reserved": 0, "type": "electric_scooter", "fusion_lat": 0.0, "is_disabled": 0, "rental_uris": {"ios": "https://dc.lft.to/lastmile_qr_scan", "android": "https://dc.lft.to/lastmile_qr_scan"}, "bike_id": "2071c0fa2242004ca57636c8e6d381e1", "lat": 38.883600333333334, "name": "2071c0fa2242004ca57636c8e6d381e1", "lon": -76.92791383333333, "fusion_lon": 0.0}, {"is_reserved": 0, "type": "electric_bike", "fusion_lat": 0.0, "is_disabled": 0, "rental_uris": {"ios": "https://dc.lft.to/lastmile_qr_scan", "android": "https://dc.lft.to/lastmile_qr_scan"}, "bike_id": "20b156a7e28ea73f9e76d0a6eb603eb7", "lat": 38.994973333333334, "name": "20b156a7e28ea73f9e76d0a6eb603eb7", "lon": -77.0013735, "fusion_lon": 0.0}, {"is_reserved": 0, "type": "electric_scooter", "fusion_lat": 0.0, "is_disabled": 0, "rental_uris": {"ios": "https://dc.lft.to/lastmile_qr_scan", "android": "https://dc.lft.to/lastmile_qr_scan"}, "bike_id": "39f21844fce9e44853ea7c0878b876d1", "lat": 38.8763755, "name": "39f21844fce9e44853ea7c0878b876d1", "lon": -77.01576916666667, "fusion_lon": 0.0}, {"is_reserved": 0, "type": "electric_bike", "fusion_lat": 0.0, "is_disabled": 0, "rental_uris": {"ios": "https://dc.lft.to/lastmile_qr_scan", "android": "https://dc.lft.to/lastmile_qr_scan"}, "bike_id": "d13de5118ab4996f431cb8ebfdecae2b", "lat": 38.947348166666664, "name": "d13de5118ab4996f431cb8ebfdecae2b", "lon": -76.9958005, "fusion_lon": 0.0}, {"is_reserved": 0, "type": "electric_scooter", "fusion_lat": 0.0, "is_disabled": 0, "rental_uris": {"ios": "https://dc.lft.to/lastmile_qr_scan", "android": "https://dc.lft.to/lastmile_qr_scan"}, "bike_id": "b6590dcd6f29ff1aae39e1b8ec8f1ec8", "lat": 38.91652533333333, "name": "b6590dcd6f29ff1aae39e1b8ec8f1ec8", "lon": -77.02176616666667, "fusion_lon": 0.0}, {"is_reserved": 0, "type": "electric_scooter", "fusion_lat": 0.0, "is_disabled": 0, "rental_uris": {"ios": "https://dc.lft.to/lastmile_qr_scan", "android": "https://dc.lft.to/lastmile_qr_scan"}, "bike_id": "ecc0478635c986ab8eabe027d3468291", "lat": 38.9057685, "name": "ecc0478635c986ab8eabe027d3468291", "lon": -77.027676, "fusion_lon": 0.0}, {"is_reserved": 0, "type": "electric_scooter", "fusion_lat": 0.0, "is_disabled": 0, "rental_uris": {"ios": "https://dc.lft.to/lastmile_qr_scan", "android": "https://dc.lft.to/lastmile_qr_scan"}, "bike_id": "4dc5343a51ec2ad0f818f16e62c45417", "lat": 38.921440833333335, "name": "4dc5343a51ec2ad0f818f16e62c45417", "lon": -77.04587683333334, "fusion_lon": 0.0}, {"is_reserved": 0, "type": "electric_scooter", "fusion_lat": 0.0, "is_disabled": 0, "rental_uris": {"ios": "https://dc.lft.to/lastmile_qr_scan", "android": "https://dc.lft.to/lastmile_qr_scan"}, "bike_id": "126c2cdfd21981da89bcb44433b285fc", "lat": 38.896658333333335, "name": "126c2cdfd21981da89bcb44433b285fc", "lon": -76.94910333333333, "fusion_lon": 0.0}, {"is_reserved": 0, "type": "electric_scooter", "fusion_lat": 0.0, "is_disabled": 0, "rental_uris": {"ios": "https://dc.lft.to/lastmile_qr_scan", "android": "https://dc.lft.to/lastmile_qr_scan"}, "bike_id": "d477ae026758a7a616c749db73fcbbe3", "lat": 38.886115833333335, "name": "d477ae026758a7a616c749db73fcbbe3", "lon": -77.022019, "fusion_lon": 0.0}, {"is_reserved": 0, "type": "electric_scooter", "fusion_lat": 0.0, "is_disabled": 0, "rental_uris": {"ios": "https://dc.lft.to/lastmile_qr_scan", "android": "https://dc.lft.to/lastmile_qr_scan"}, "bike_id": "c24e784ddfa1dbd8c070eb579d41f143", "lat": 38.94919083333333, "name": "c24e784ddfa1dbd8c070eb579d41f143", "lon": -77.01858583333333, "fusion_lon": 0.0}, {"is_reserved": 0, "type": "electric_scooter", "fusion_lat": 0.0, "is_disabled": 0, "rental_uris": {"ios": "https://dc.lft.to/lastmile_qr_scan", "android": "https://dc.lft.to/lastmile_qr_scan"}, "bike_id": "bdf8bc6f6a7761ad1059efe0e15b3e07", "lat": 38.90302483333333, "name": "bdf8bc6f6a7761ad1059efe0e15b3e07", "lon": -76.99841366666666, "fusion_lon": 0.0}, {"is_reserved": 0, "type": "electric_scooter", "fusion_lat": 0.0, "is_disabled": 0, "rental_uris": {"ios": "https://dc.lft.to/lastmile_qr_scan", "android": "https://dc.lft.to/lastmile_qr_scan"}, "bike_id": "2813137adcf6fca5ca56e02e96ed6562", "lat": 38.87290733333333, "name": "2813137adcf6fca5ca56e02e96ed6562", "lon": -77.00988233333334, "fusion_lon": 0.0}, {"is_reserved": 0, "type": "electric_scooter", "fusion_lat": 0.0, "is_disabled": 0, "rental_uris": {"ios": "https://dc.lft.to/lastmile_qr_scan", "android": "https://dc.lft.to/lastmile_qr_scan"}, "bike_id": "3b97d1759fcc5a660b4446731511ed3c", "lat": 38.91734833333334, "name": "3b97d1759fcc5a660b4446731511ed3c", "lon": -77.06894783333334, "fusion_lon": 0.0}, {"is_reserved": 0, "type": "electric_scooter", "fusion_lat": 0.0, "is_disabled": 0, "rental_uris": {"ios": "https://dc.lft.to/lastmile_qr_scan", "android": "https://dc.lft.to/lastmile_qr_scan"}, "bike_id": "f895239a1dea4b16e1cd529b744912bb", "lat": 38.8984875, "name": "f895239a1dea4b16e1cd529b744912bb", "lon": -76.994922, "fusion_lon": 0.0}, {"is_reserved": 0, "type": "electric_scooter", "fusion_lat": 0.0, "is_disabled": 0, "rental_uris": {"ios": "https://dc.lft.to/lastmile_qr_scan", "android": "https://dc.lft.to/lastmile_qr_scan"}, "bike_id": "caa2f8a62040ef8addef761486d2a0c4", "lat": 38.88767033333333, "name": "caa2f8a62040ef8addef761486d2a0c4", "lon": -76.97737066666667, "fusion_lon": 0.0}, {"is_reserved": 0, "type": "electric_scooter", "fusion_lat": 0.0, "is_disabled": 0, "rental_uris": {"ios": "https://dc.lft.to/lastmile_qr_scan", "android": "https://dc.lft.to/lastmile_qr_scan"}, "bike_id": "8c6432dffba837b5f235b8c7e0f2d64f", "lat": 38.876385, "name": "8c6432dffba837b5f235b8c7e0f2d64f", "lon": -77.00225733333333, "fusion_lon": 0.0}, {"is_reserved": 0, "type": "electric_scooter", "fusion_lat": 0.0, "is_disabled": 0, "rental_uris": {"ios": "https://dc.lft.to/lastmile_qr_scan", "android": "https://dc.lft.to/lastmile_qr_scan"}, "bike_id": "5ff742c3fee2eaca7cacb87900faf66b", "lat": 38.90916166666667, "name": "5ff742c3fee2eaca7cacb87900faf66b", "lon": -77.049449, "fusion_lon": 0.0}, {"is_reserved": 0, "type": "electric_scooter", "fusion_lat": 0.0, "is_disabled": 0, "rental_uris": {"ios": "https://dc.lft.to/lastmile_qr_scan", "android": "https://dc.lft.to/lastmile_qr_scan"}, "bike_id": "69e6d235ce1ce00dd99d51c368d179e0", "lat": 38.947030166666664, "name": "69e6d235ce1ce00dd99d51c368d179e0", "lon": -77.01943083333333, "fusion_lon": 0.0}, {"is_reserved": 0, "type": "electric_scooter", "fusion_lat": 0.0, "is_disabled": 0, "rental_uris": {"ios": "https://dc.lft.to/lastmile_qr_scan", "android": "https://dc.lft.to/lastmile_qr_scan"}, "bike_id": "5ca1056a7278ae3e2b12b2feef382785", "lat": 38.918769, "name": "5ca1056a7278ae3e2b12b2feef382785", "lon": -77.07311183333333, "fusion_lon": 0.0}, {"is_reserved": 0, "type": "electric_scooter", "fusion_lat": 0.0, "is_disabled": 0, "rental_uris": {"ios": "https://dc.lft.to/lastmile_qr_scan", "android": "https://dc.lft.to/lastmile_qr_scan"}, "bike_id": "7e4a665e9eff9a6955f8deb1fa560654", "lat": 38.887716166666664, "name": "7e4a665e9eff9a6955f8deb1fa560654", "lon": -76.97732016666667, "fusion_lon": 0.0}, {"is_reserved": 0, "type": "electric_scooter", "fusion_lat": 0.0, "is_disabled": 0, "rental_uris": {"ios": "https://dc.lft.to/lastmile_qr_scan", "android": "https://dc.lft.to/lastmile_qr_scan"},