{"data": {"bikes": [{"bike_id": "672d8b1f748d92bde77ebeb12351702a", "lat": 38.927639166666665, "is_reserved": 0, "fusion_lat": 0.0, "rental_uris": {"android": "https://dc.lft.to/lastmile_qr_scan", "ios": "https://dc.lft.to/lastmile_qr_scan"}, "fusion_lon": 0.0, "name": "672d8b1f748d92bde77ebeb12351702a", "lon": -77.0273605, "is_disabled": 0, "type": "electric_scooter"}, {"bike_id": "15f6c06c0596ab4cb017ef32d4f837ae", "lat": 38.915683666666666, "is_reserved": 0, "fusion_lat": 0.0, "rental_uris": {"android": "https://dc.lft.to/lastmile_qr_scan", "ios": "https://dc.lft.to/lastmile_qr_scan"}, "fusion_lon": 0.0, "name": "15f6c06c0596ab4cb017ef32d4f837ae", "lon": -77.038324, "is_disabled": 0, "type": "electric_scooter"}, {"bike_id": "751aae7ffb25b65d4e178c925ea8ba2e", "lat": 38.907413166666664, "is_reserved": 0, "fusion_lat": 0.0, "rental_uris": {"android": "https://dc.lft.to/lastmile_qr_scan", "ios": "https://dc.lft.to/lastmile_qr_scan"}, "fusion_lon": 0.0, "name": "751aae7ffb25b65d4e178c925ea8ba2e", "lon": -77.04159616666666, "is_disabled": 0, "type": "electric_scooter"}, {"bike_id": "a4023b2341acca04c87f955e026b183c", "lat": 38.91402716666666, "is_reserved": 0, "fusion_lat": 0.0, "rental_uris": {"android": "https://dc.lft.to/lastmile_qr_scan", "ios": "https://dc.lft.to/lastmile_qr_scan"}, "fusion_lon": 0.0, "name": "a4023b2341acca04c87f955e026b183c", "lon": -77.020081, "is_disabled": 0, "type": "electric_scooter"}, {"bike_id": "e3bb13c49ad05c91d3e9d9a55c45f945", "lat": 38.88973983333333, "is_reserved": 0, "fusion_lat": 0.0, "rental_uris": {"android": "https://dc.lft.to/lastmile_qr_scan", "ios": "https://dc.lft.to/lastmile_qr_scan"}, "fusion_lon": 0.0, "name": "e3bb13c49ad05c91d3e9d9a55c45f945", "lon": -76.999374, "is_disabled": 0, "type": "electric_scooter"}, {"bike_id": "b0fcef57fa596033afe2291ec2f20d6a", "lat": 38.92961783333333, "is_reserved": 0, "fusion_lat": 0.0, "rental_uris": {"android": "https://dc.lft.to/lastmile_qr_scan", "ios": "https://dc.lft.to/lastmile_qr_scan"}, "fusion_lon": 0.0, "name": "b0fcef57fa596033afe2291ec2f20d6a", "lon": -77.0115035, "is_disabled": 0, "type": "electric_scooter"}, {"bike_id": "1528200ccec25a33666317d914a0da33", "lat": 38.9056455, "is_reserved": 0, "fusion_lat": 0.0, "rental_uris": {"android": "https://dc.lft.to/lastmile_qr_scan", "ios": "https://dc.lft.to/lastmile_qr_scan"}, "fusion_lon": 0.0, "name": "1528200ccec25a33666317d914a0da33", "lon": -77.0252985, "is_disabled": 0, "type": "electric_scooter"}, {"bike_id": "11758db5dd2c45ac437a0315aa827f09", "lat": 38.94329666666667, "is_reserved": 0, "fusion_lat": 0.0, "rental_uris": {"android": "https://dc.lft.to/lastmile_qr_scan", "ios": "https://dc.lft.to/lastmile_qr_scan"}, "fusion_lon": 0.0, "name": "11758db5dd2c45ac437a0315aa827f09", "lon": -77.06285616666666, "is_disabled": 0, "type": "electric_scooter"}, {"bike_id": "0c7e4bbfd5f1d2d3a5a2800058c0f98a", "lat": 38.8414565, "is_reserved": 0, "fusion_lat": 0.0, "rental_uris": {"android": "https://dc.lft.to/lastmile_qr_scan", "ios": "https://dc.lft.to/lastmile_qr_scan"}, "fusion_lon": 0.0, "name": "0c7e4bbfd5f1d2d3a5a2800058c0f98a", "lon": -77.11468033333334, "is_disabled": 0, "type": "electric_bike"}, {"bike_id": "533b100f7a3a93c5b0f1d04b934472f4", "lat": 38.92161433333333, "is_reserved": 0, "fusion_lat": 0.0, "rental_uris": {"android": "https://dc.lft.to/lastmile_qr_scan", "ios": "https://dc.lft.to/lastmile_qr_scan"}, "fusion_lon": 0.0, "name": "533b100f7a3a93c5b0f1d04b934472f4", "lon": -77.02089183333334, "is_disabled": 0, "type": "electric_scooter"}, {"bike_id": "567ae25be97e43e830d7c6a04800376d", "lat": 38.9922545, "is_reserved": 0, "fusion_lat": 0.0, "rental_uris": {"android": "https://dc.lft.to/lastmile_qr_scan", "ios": "https://dc.lft.to/lastmile_qr_scan"}, "fusion_lon": 0.0, "name": "567ae25be97e43e830d7c6a04800376d", "lon": -76.94468233333333, "is_disabled": 0, "type": "electric_bike"}, {"bike_id": "261a53e5b58b55ee9503a6c8e040eeec", "lat": 38.90563983333333, "is_reserved": 0, "fusion_lat": 0.0, "rental_uris": {"android": "https://dc.lft.to/lastmile_qr_scan", "ios": "https://dc.lft.to/lastmile_qr_scan"}, "fusion_lon": 0.0, "name": "261a53e5b58b55ee9503a6c8e040eeec", "lon": -77.016807, "is_disabled": 0, "type": "electric_scooter"}, {"bike_id": "444c54d3ae02e2fead55909d55d5fc92", "lat": 38.85485516666667, "is_reserved": 0, "fusion_lat": 0.0, "rental_uris": {"android": "https://dc.lft.to/lastmile_qr_scan", "ios": "https://dc.lft.to/lastmile_qr_scan"}, "fusion_lon": 0.0, "name": "444c54d3ae02e2fead55909d55d5fc92", "lon": -77.11613083333333, "is_disabled": 0, "type": "electric_bike"}, {"bike_id": "83e2f0062c4613d15c89e4e6f1dc0c2f", "lat": 38.90522433333334, "is_reserved": 0, "fusion_lat": 0.0, "rental_uris": {"android": "https://dc.lft.to/lastmile_qr_scan", "ios": "https://dc.lft.to/lastmile_qr_scan"}, "fusion_lon": 0.0, "name": "83e2f0062c4613d15c89e4e6f1dc0c2f", "lon": -77.066145, "is_disabled": 0, "type": "electric_scooter"}, {"bike_id": "8f38a19c61ed431abe18325bed77e2dc", "lat": 38.906941, "is_reserved": 0, "fusion_lat": 0.0, "rental_uris": {"android": "https://dc.lft.to/lastmile_qr_scan", "ios": "https://dc.lft.to/lastmile_qr_scan"}, "fusion_lon": 0.0, "name": "8f38a19c61ed431abe18325bed77e2dc", "lon": -77.026025, "is_disabled": 0, "type": "electric_scooter"}, {"bike_id": "f3c9efce92588ae15968db348c08c28a", "lat": 38.855608333333336, "is_reserved": 0, "fusion_lat": 0.0, "rental_uris": {"android": "https://dc.lft.to/lastmile_qr_scan", "ios": "https://dc.lft.to/lastmile_qr_scan"}, "fusion_lon": 0.0, "name": "f3c9efce92588ae15968db348c08c28a", "lon": -77.11318333333334, "is_disabled": 0, "type": "electric_bike"}, {"bike_id": "8754c2fac04e5f3f07b5e9e4e8b52787", "lat": 38.91715333333333, "is_reserved": 0, "fusion_lat": 0.0, "rental_uris": {"android": "https://dc.lft.to/lastmile_qr_scan", "ios": "https://dc.lft.to/lastmile_qr_scan"}, "fusion_lon": 0.0, "name": "8754c2fac04e5f3f07b5e9e4e8b52787", "lon": -77.02560733333334, "is_disabled": 0, "type": "electric_scooter"}, {"bike_id": "0e7196cc8bcb514d82b93d2ec70c54a7", "lat": 38.93536533333334, "is_reserved": 0, "fusion_lat": 0.0, "rental_uris": {"android": "https://dc.lft.to/lastmile_qr_scan", "ios": "https://dc.lft.to/lastmile_qr_scan"}, "fusion_lon": 0.0, "name": "0e7196cc8bcb514d82b93d2ec70c54a7", "lon": -77.02351183333333, "is_disabled": 0, "type": "electric_scooter"}, {"bike_id": "d71082e401e2d2cb0d10b97801d10ad2", "lat": 38.893766666666664, "is_reserved": 0, "fusion_lat": 0.0, "rental_uris": {"android": "https://dc.lft.to/lastmile_qr_scan", "ios": "https://dc.lft.to/lastmile_qr_scan"}, "fusion_lon": 0.0, "name": "d71082e401e2d2cb0d10b97801d10ad2", "lon": -77.0225845, "is_disabled": 0, "type": "electric_scooter"}, {"bike_id": "22a0a944c6824bc759e68c5738d4339e", "lat": 38.9191025, "is_reserved": 0, "fusion_lat": 0.0, "rental_uris": {"android": "https://dc.lft.to/lastmile_qr_scan", "ios": "https://dc.lft.to/lastmile_qr_scan"}, "fusion_lon": 0.0, "name": "22a0a944c6824bc759e68c5738d4339e", "lon": -77.03179716666666, "is_disabled": 0, "type": "electric_scooter"}, {"bike_id": "cab2d864a6010ba410fb99ce2ca16474", "lat": 38.895325666666665, "is_reserved": 0, "fusion_lat": 0.0, "rental_uris": {"android": "https://dc.lft.to/lastmile_qr_scan", "ios": "https://dc.lft.to/lastmile_qr_scan"}, "fusion_lon": 0.0, "name": "cab2d864a6010ba410fb99ce2ca16474", "lon": -77.0281635, "is_disabled": 0, "type": "electric_scooter"}, {"bike_id": "cf579c72289be7c0d907f824a2edfea1", "lat": 38.83606266666666, "is_reserved": 0, "fusion_lat": 0.0, "rental_uris": {"android": "https://dc.lft.to/lastmile_qr_scan", "ios": "https://dc.lft.to/lastmile_qr_scan"}, "fusion_lon": 0.0, "name": "cf579c72289be7c0d907f824a2edfea1", "lon": -77.00382416666666, "is_disabled": 0, "type": "electric_bike"}, {"bike_id": "fdeceec2321c34d4fd309906f8ac20db", "lat": 38.92604866666667, "is_reserved": 0, "fusion_lat": 0.0, "rental_uris": {"android": "https://dc.lft.to/lastmile_qr_scan", "ios": "https://dc.lft.to/lastmile_qr_scan"}, "fusion_lon": 0.0, "name": "fdeceec2321c34d4fd309906f8ac20db", "lon": -77.05708616666666, "is_disabled": 0, "type": "electric_scooter"}, {"bike_id": "c80f6f2a945bd8be5f4f3285a2841536", "lat": 38.89732033333333, "is_reserved": 0, "fusion_lat": 0.0, "rental_uris": {"android": "https://dc.lft.to/lastmile_qr_scan", "ios": "https://dc.lft.to/lastmile_qr_scan"}, "fusion_lon": 0.0, "name": "c80f6f2a945bd8be5f4f3285a2841536", "lon": -77.05560866666667, "is_disabled": 0, "type": "electric_bike"}, {"bike_id": "250d608f4e47a81415efbaacaebd24fd", "lat": 38.908540333333335, "is_reserved": 0, "fusion_lat": 0.0, "rental_uris": {"android": "https://dc.lft.to/lastmile_qr_scan", "ios": "https://dc.lft.to/lastmile_qr_scan"}, "fusion_lon": 0.0, "name": "250d608f4e47a81415efbaacaebd24fd", "lon": -76.9980165, "is_disabled": 0, "type": "electric_scooter"}, {"bike_id": "23257fe9ef8681e9913f8540be4fd9fc", "lat": 38.892245833333334, "is_reserved": 0, "fusion_lat": 0.0, "rental_uris": {"android": "https://dc.lft.to/lastmile_qr_scan", "ios": "https://dc.lft.to/lastmile_qr_scan"}, "fusion_lon": 0.0, "name": "23257fe9ef8681e9913f8540be4fd9fc", "lon": -77.04868566666667, "is_disabled": 0, "type": "electric_scooter"}, {"bike_id": "f07ba74e7b954dc5d81248b960f38166", "lat": 38.91401533333333, "is_reserved": 0, "fusion_lat": 0.0, "rental_uris": {"android": "https://dc.lft.to/lastmile_qr_scan", "ios": "https://dc.lft.to/lastmile_qr_scan"}, "fusion_lon": 0.0, "name": "f07ba74e7b954dc5d81248b960f38166", "lon": -77.0240665, "is_disabled": 0, "type": "electric_scooter"}, {"bike_id": "60a97507fc33b04f1ae71bdbaf542f73", "lat": 38.89965466666666, "is_reserved": 0, "fusion_lat": 0.0, "rental_uris": {"android": "https://dc.lft.to/lastmile_qr_scan", "ios": "https://dc.lft.to/lastmile_qr_scan"}, "fusion_lon": 0.0, "name": "60a97507fc33b04f1ae71bdbaf542f73", "lon": -77.01450616666666, "is_disabled": 0, "type": "electric_scooter"}, {"bike_id": "cf073108527789d2dd67b1c9042e7def", "lat": 38.90672433333334, "is_reserved": 0, "fusion_lat": 0.0, "rental_uris": {"android": "https://dc.lft.to/lastmile_qr_scan", "ios": "https://dc.lft.to/lastmile_qr_scan"}, "fusion_lon": 0.0, "name": "cf073108527789d2dd67b1c9042e7def", "lon": -77.02700683333333, "is_disabled": 0, "type": "electric_scooter"}, {"bike_id": "04b48c4d61555208ba20f89ddeb11322", "lat": 38.91420333333333, "is_reserved": 0, "fusion_lat": 0.0, "rental_uris": {"android": "https://dc.lft.to/lastmile_qr_scan", "ios": "https://dc.lft.to/lastmile_qr_scan"}, "fusion_lon": 0.0, "name": "04b48c4d61555208ba20f89ddeb11322", "lon": -77.0198985, "is_disabled": 0, "type": "electric_scooter"}, {"bike_id": "bf3c36861da0360abb93910b57db439d", "lat": 38.927715166666665, "is_reserved": 0, "fusion_lat": 0.0, "rental_uris": {"android": "https://dc.lft.to/lastmile_qr_scan", "ios": "https://dc.lft.to/lastmile_qr_scan"}, "fusion_lon": 0.0, "name": "bf3c36861da0360abb93910b57db439d", "lon": -76.98759383333334, "is_disabled": 0, "type": "electric_scooter"}, {"bike_id": "0bf5323b730a2a3b18b9bb21cd82d35c", "lat": 38.9050255, "is_reserved": 0, "fusion_lat": 0.0, "rental_uris": {"android": "https://dc.lft.to/lastmile_qr_scan", "ios": "https://dc.lft.to/lastmile_qr_scan"}, "fusion_lon": 0.0, "name": "0bf5323b730a2a3b18b9bb21cd82d35c", "lon": -77.04101816666666, "is_disabled": 0, "type": "electric_scooter"}, {"bike_id": "59e9995a93e8b9f609c562b9743dd3c7", "lat": 38.883868, "is_reserved": 0, "fusion_lat": 0.0, "rental_uris": {"android": "https://dc.lft.to/lastmile_qr_scan", "ios": "https://dc.lft.to/lastmile_qr_scan"}, "fusion_lon": 0.0, "name": "59e9995a93e8b9f609c562b9743dd3c7", "lon": -77.01785566666666, "is_disabled": 0, "type": "electric_scooter"}, {"bike_id": "e41ef3012bd1a28de056da11b422b17f", "lat": 38.90768633333333, "is_reserved": 0, "fusion_lat": 0.0, "rental_uris": {"android": "https://dc.lft.to/lastmile_qr_scan", "ios": "https://dc.lft.to/lastmile_qr_scan"}, "fusion_lon": 0.0, "name": "e41ef3012bd1a28de056da11b422b17f", "lon": -77.073926, "is_disabled": 0, "type": "electric_scooter"}, {"bike_id": "f4eb77a96d38b69d7d7942d8922d28ba", "lat": 38.866847, "is_reserved": 0, "fusion_lat": 0.0, "rental_uris": {"android": "https://dc.lft.to/lastmile_qr_scan", "ios": "https://dc.lft.to/lastmile_qr_scan"}, "fusion_lon": 0.0, "name": "f4eb77a96d38b69d7d7942d8922d28ba", "lon": -76.98578533333334, "is_disabled": 0, "type": "electric_scooter"}, {"bike_id": "618e94352187d506205eee1b56ddb0e8", "lat": 38.90239416666667, "is_reserved": 0, "fusion_lat": 0.0, "rental_uris": {"android": "https://dc.lft.to/lastmile_qr_scan", "ios": "https://dc.lft.to/lastmile_qr_scan"}, "fusion_lon": 0.0, "name": "618e94352187d506205eee1b56ddb0e8", "lon": -77.0590445, "is_disabled": 0, "type": "electric_scooter"}, {"bike_id": "312e81f84d0e405217335e6ec5cadcd3", "lat": 38.94344383333333, "is_reserved": 0, "fusion_lat": 0.0, "rental_uris": {"android": "https://dc.lft.to/lastmile_qr_scan", "ios": "https://dc.lft.to/lastmile_qr_scan"}, "fusion_lon": 0.0, "name": "312e81f84d0e405217335e6ec5cadcd3", "lon": -77.037678, "is_disabled": 0, "type": "electric_scooter"}, {"bike_id": "b6b01db6ab85c9acf9a6704be5cc4d87", "lat": 38.90526116666667, "is_reserved": 0, "fusion_lat": 0.0, "rental_uris": {"android": "https://dc.lft.to/lastmile_qr_scan", "ios": "https://dc.lft.to/lastmile_qr_scan"}, "fusion_lon": 0.0, "name": "b6b01db6ab85c9acf9a6704be5cc4d87", "lon": -77.04152866666666, "is_disabled": 0, "type": "electric_scooter"}, {"bike_id": "11e6198bf17067a9522f24bf237e0c7f", "lat": 38.915506666666666, "is_reserved": 0, "fusion_lat": 0.0, "rental_uris": {"android": "https://dc.lft.to/lastmile_qr_scan", "ios": "https://dc.lft.to/lastmile_qr_scan"}, "fusion_lon": 0.0, "name": "11e6198bf17067a9522f24bf237e0c7f", "lon": -77.04447716666667, "is_disabled": 0, "type": "electric_scooter"}, {"bike_id": "02675864b61b7efa8a16d4fa47edb9fd", "lat": 38.9003725, "is_reserved": 0, "fusion_lat": 0.0, "rental_uris": {"android": "https://dc.lft.to/lastmile_qr_scan", "ios": "https://dc.lft.to/lastmile_qr_scan"}, "fusion_lon": 0.0, "name": "02675864b61b7efa8a16d4fa47edb9fd", "lon": -76.97230033333334, "is_disabled": 0, "type": "electric_bike"}, {"bike_id": "6ed53efa4a4665965f739662f7ee71d6", "lat": 38.929730666666664, "is_reserved": 0, "fusion_lat": 0.0, "rental_uris": {"android": "https://dc.lft.to/lastmile_qr_scan", "ios": "https://dc.lft.to/lastmile_qr_scan"}, "fusion_lon": 0.0, "name": "6ed53efa4a4665965f739662f7ee71d6", "lon": -77.02792816666667, "is_disabled": 0, "type": "electric_scooter"}, {"bike_id": "3b7b6fda98dc46671dbd4b4f33adae95", "lat": 38.89833566666667, "is_reserved": 0, "fusion_lat": 0.0, "rental_uris": {"android": "https://dc.lft.to/lastmile_qr_scan", "ios": "https://dc.lft.to/lastmile_qr_scan"}, "fusion_lon": 0.0, "name": "3b7b6fda98dc46671dbd4b4f33adae95", "lon": -76.919592, "is_disabled": 0, "type": "electric_scooter"}, {"bike_id": "46fbe3b052dbd82f718cc8ea56c12ebd", "lat": 38.91669483333333, "is_reserved": 0, "fusion_lat": 0.0, "rental_uris": {"android": "https://dc.lft.to/lastmile_qr_scan", "ios": "https://dc.lft.to/lastmile_qr_scan"}, "fusion_lon": 0.0, "name": "46fbe3b052dbd82f718cc8ea56c12ebd", "lon": -77.02325783333333, "is_disabled": 0, "type": "electric_scooter"}, {"bike_id": "48cdeb84f14ded95ea6ce55fd04809ce", "lat": 38.892235166666666, "is_reserved": 0, "fusion_lat": 0.0, "rental_uris": {"android": "https://dc.lft.to/lastmile_qr_scan", "ios": "https://dc.lft.to/lastmile_qr_scan"}, "fusion_lon": 0.0, "name": "48cdeb84f14ded95ea6ce55fd04809ce", "lon": -77.032136, "is_disabled": 0, "type": "electric_scooter"}, {"bike_id": "6c5575e7aa3ef8af16192309d2bfa6d7", "lat": 38.9170745, "is_reserved": 0, "fusion_lat": 0.0, "rental_uris": {"android": "https://dc.lft.to/lastmile_qr_scan", "ios": "https://dc.lft.to/lastmile_qr_scan"}, "fusion_lon": 0.0, "name": "6c5575e7aa3ef8af16192309d2bfa6d7", "lon": -77.09580116666666, "is_disabled": 0, "type": "electric_scooter"}, {"bike_id": "5ce02cd5d0180e2ab05b7c72f71c4cfc", "lat": 38.86527983333333, "is_reserved": 0, "fusion_lat": 0.0, "rental_uris": {"android": "https://dc.lft.to/lastmile_qr_scan", "ios": "https://dc.lft.to/lastmile_qr_scan"}, "fusion_lon": 0.0, "name": "5ce02cd5d0180e2ab05b7c72f71c4cfc", "lon": -76.99012866666666, "is_disabled": 0, "type": "electric_scooter"}, {"bike_id": "db5b39bbb94668a454f508132936df8b", "lat": 38.90620216666667, "is_reserved": 0, "fusion_lat": 0.0, "rental_uris": {"android": "https://dc.lft.to/lastmile_qr_scan", "ios": "https://dc.lft.to/lastmile_qr_scan"}, "fusion_lon": 0.0, "name": "db5b39bbb94668a454f508132936df8b", "lon": -77.025721, "is_disabled": 0, "type": "electric_scooter"}, {"bike_id": "8227e560f71a792bd9a351917d8cdfac", "lat": 38.91360733333333, "is_reserved": 0, "fusion_lat": 0.0, "rental_uris": {"android": "https://dc.lft.to/lastmile_qr_scan", "ios": "https://dc.lft.to/lastmile_qr_scan"}, "fusion_lon": 0.0, "name": "8227e560f71a792bd9a351917d8cdfac", "lon": -77.0449435, "is_disabled": 0, "type": "electric_scooter"}, {"bike_id": "f2a9805fafb0dab6995b4df35fe63007", "lat": 38.92653333333333, "is_reserved": 0, "fusion_lat": 0.0, "rental_uris": {"android": "https://dc.lft.to/lastmile_qr_scan", "ios": "https://dc.lft.to/lastmile_qr_scan"}, "fusion_lon": 0.0, "name": "f2a9805fafb0dab6995b4df35fe63007", "lon": -77.023328, "is_disabled": 0, "type": "electric_scooter"}, {"bike_id": "5b58ac07d69d4de21008fc986d777028", "lat": 38.88745883333333, "is_reserved": 0, "fusion_lat": 0.0, "rental_uris": {"android": "https://dc.lft.to/lastmile_qr_scan", "ios": "https://dc.lft.to/lastmile_qr_scan"}, "fusion_lon": 0.0, "name": "5b58ac07d69d4de21008fc986d777028", "lon": -77.02847483333333, "is_disabled": 0, "type": "electric_scooter"}, {"bike_id": "01109cb0d5227f918a32a4b4d58ebbdc", "lat": 38.923269, "is_reserved": 0, "fusion_lat": 0.0, "rental_uris": {"android": "https://dc.lft.to/lastmile_qr_scan", "ios": "https://dc.lft.to/lastmile_qr_scan"}, "fusion_lon": 0.0, "name": "01109cb0d5227f918a32a4b4d58ebbdc", "lon": -77.02437266666666, "is_disabled": 0, "type": "electric_scooter"}, {"bike_id": "05ca78bb60b3a7309c68f2a611449c89", "lat": 38.92251916666667, "is_reserved": 0, "fusion_lat": 0.0, "rental_uris": {"android": "https://dc.lft.to/lastmile_qr_scan", "ios": "https://dc.lft.to/lastmile_qr_scan"}, "fusion_lon": 0.0, "name": "05ca78bb60b3a7309c68f2a611449c89", "lon": -77.01954633333334, "is_disabled": 0, "type": "electric_scooter"}, {"bike_id": "bf739c6c56779162198c1c4ebe5b66ec", "lat": 38.873873833333334, "is_reserved": 0, "fusion_lat": 0.0, "rental_uris": {"android": "https://dc.lft.to/lastmile_qr_scan", "ios": "https://dc.lft.to/lastmile_qr_scan"}, "fusion_lon": 0.0, "name": "bf739c6c56779162198c1c4ebe5b66ec", "lon": -77.0433695, "is_disabled": 0, "type": "electric_scooter"}, {"bike_id": "e84554906dfb5d91768088d981080582", "lat": 38.90192483333333, "is_reserved": 0, "fusion_lat": 0.0, "rental_uris": {"android": "https://dc.lft.to/lastmile_qr_scan", "ios": "https://dc.lft.to/lastmile_qr_scan"}, "fusion_lon": 0.0, "name": "e84554906dfb5d91768088d981080582", "lon": -77.02166883333334, "is_disabled": 0, "type": "electric_scooter"}, {"bike_id": "ee4891a7be66eb23c7a19380a66d1cfe", "lat": 38.893369166666666, "is_reserved": 0, "fusion_lat": 0.0, "rental_uris": {"android": "https://dc.lft.to/lastmile_qr_scan", "ios": "https://dc.lft.to/lastmile_qr_scan"}, "fusion_lon": 0.0, "name": "ee4891a7be66eb23c7a19380a66d1cfe", "lon": -76.95059683333334, "is_disabled": 0, "type": "electric_scooter"}, {"bike_id": "ffeb7792414a9c7978c49408dffbef06", "lat": 38.877271, "is_reserved": 0, "fusion_lat": 0.0, "rental_uris": {"android": "https://dc.lft.to/lastmile_qr_scan", "ios": "https://dc.lft.to/lastmile_qr_scan"}, "fusion_lon": 0.0, "name": "ffeb7792414a9c7978c49408dffbef06", "lon": -77.00356933333333, "is_disabled": 0, "type": "electric_scooter"}, {"bike_id": "cbe5e25e3400f1cf60f475b1939511ef", "lat": 38.92701733333333, "is_reserved": 0, "fusion_lat": 0.0, "rental_uris": {"android": "https://dc.lft.to/lastmile_qr_scan", "ios": "https://dc.lft.to/lastmile_qr_scan"}, "fusion_lon": 0.0, "name": "cbe5e25e3400f1cf60f475b1939511ef", "lon": -77.0357805, "is_disabled": 0, "type": "electric_scooter"}, {"bike_id": "f8b68b554fe5077c07601cf069e2fc1c", "lat": 38.905143833333334, "is_reserved": 0, "fusion_lat": 0.0, "rental_uris": {"android": "https://dc.lft.to/lastmile_qr_scan", "ios": "https://dc.lft.to/lastmile_qr_scan"}, "fusion_lon": 0.0, "name": "f8b68b554fe5077c07601cf069e2fc1c", "lon": -77.04360083333333, "is_disabled": 0, "type": "electric_scooter"}, {"bike_id": "2bd68505d67e01ef5b5433d7911b55fb", "lat": 38.90979016666667, "is_reserved": 0, "fusion_lat": 0.0, "rental_uris": {"android": "https://dc.lft.to/lastmile_qr_scan", "ios": "https://dc.lft.to/lastmile_qr_scan"}, "fusion_lon": 0.0, "name": "2bd68505d67e01ef5b5433d7911b55fb", "lon": -76.99510933333333, "is_disabled": 0, "type": "electric_scooter"}, {"bike_id": "1cf533e28b3a620748002acb1433d5d5", "lat": 38.9319725, "is_reserved": 0, "fusion_lat": 0.0, "rental_uris": {"android": "https://dc.lft.to/lastmile_qr_scan", "ios": "https://dc.lft.to/lastmile_qr_scan"}, "fusion_lon": 0.0, "name": "1cf533e28b3a620748002acb1433d5d5", "lon": -77.02397516666667, "is_disabled": 0, "type": "electric_scooter"}, {"bike_id": "2f696f435d67f3c4910aede5c4e30080", "lat": 38.9060485, "is_reserved": 0, "fusion_lat": 0.0, "rental_uris": {"android": "https://dc.lft.to/lastmile_qr_scan", "ios": "https://dc.lft.to/lastmile_qr_scan"}, "fusion_lon": 0.0, "name": "2f696f435d67f3c4910aede5c4e30080", "lon": -77.07640066666667, "is_disabled": 0, "type": "electric_bike"}, {"bike_id": "e1787e6ffc95beee20e0aece13edd004", "lat": 38.92701133333333, "is_reserved": 0, "fusion_lat": 0.0, "rental_uris": {"android": "https://dc.lft.to/lastmile_qr_scan", "ios": "https://dc.lft.to/lastmile_qr_scan"}, "fusion_lon": 0.0, "name": "e1787e6ffc95beee20e0aece13edd004", "lon": -77.01478433333334, "is_disabled": 0, "type": "electric_scooter"}, {"bike_id": "97ea7ac110a945b830803dfabfdae967", "lat": 38.923215666666664, "is_reserved": 0, "fusion_lat": 0.0, "rental_uris": {"android": "https://dc.lft.to/lastmile_qr_scan", "ios": "https://dc.lft.to/lastmile_qr_scan"}, "fusion_lon": 0.0, "name": "97ea7ac110a945b830803dfabfdae967", "lon": -77.04446283333333, "is_disabled": 0, "type": "electric_scooter"}, {"bike_id": "a672b15389fc5ba3f1d1bdc01e1841a9", "lat": 38.88185583333333, "is_reserved": 0, "fusion_lat": 0.0, "rental_uris": {"android": "https://dc.lft.to/lastmile_qr_scan", "ios": "https://dc.lft.to/lastmile_qr_scan"}, "fusion_lon": 0.0, "name": "a672b15389fc5ba3f1d1bdc01e1841a9", "lon": -77.020893, "is_disabled": 0, "type": "electric_scooter"}, {"bike_id": "9773128e53dd36624aadf8b526fa2075", "lat": 38.94991233333333, "is_reserved": 0, "fusion_lat": 0.0, "rental_uris": {"android": "https://dc.lft.to/lastmile_qr_scan", "ios": "https://dc.lft.to/lastmile_qr_scan"}, "fusion_lon": 0.0, "name": "9773128e53dd36624aadf8b526fa2075", "lon": -77.018307, "is_disabled": 0, "type": "electric_scooter"}, {"bike_id": "e9dfc05b9fec04be1de46c9477786892", "lat": 38.8764525, "is_reserved": 0, "fusion_lat": 0.0, "rental_uris": {"android": "https://dc.lft.to/lastmile_qr_scan", "ios": "https://dc.lft.to/lastmile_qr_scan"}, "fusion_lon": 0.0, "name": "e9dfc05b9fec04be1de46c9477786892", "lon": -77.00444716666667, "is_disabled": 0, "type": "electric_scooter"}, {"bike_id": "922a07f136d6ab19720283e249a475b0", "lat": 38.886558666666666, "is_reserved": 0, "fusion_lat": 0.0, "rental_uris": {"android": "https://dc.lft.to/lastmile_qr_scan", "ios": "https://dc.lft.to/lastmile_qr_scan"}, "fusion_lon": 0.0, "name": "922a07f136d6ab19720283e249a475b0", "lon": -77.16235916666666, "is_disabled": 0, "type": "electric_bike"}, {"bike_id": "deba5f77fb9f7d74c25a80af97b9c460", "lat": 38.90190666666667, "is_reserved": 0, "fusion_lat": 0.0, "rental_uris": {"android": "https://dc.lft.to/lastmile_qr_scan", "ios": "https://dc.lft.to/lastmile_qr_scan"}, "fusion_lon": 0.0, "name": "deba5f77fb9f7d74c25a80af97b9c460", "lon": -77.02029466666667, "is_disabled": 0, "type": "electric_scooter"}, {"bike_id": "4ba58b7b07a31819eba86dc35a66066e", "lat": 38.87625516666667, "is_reserved": 0, "fusion_lat": 0.0, "rental_uris": {"android": "https://dc.lft.to/lastmile_qr_scan", "ios": "https://dc.lft.to/lastmile_qr_scan"}, "fusion_lon": 0.0, "name": "4ba58b7b07a31819eba86dc35a66066e", "lon": -76.9653165, "is_disabled": 0, "type": "electric_scooter"}, {"bike_id": "a9c0a5d21b4c9c5fefa5a6927560b30c", "lat": 38.931583, "is_reserved": 0, "fusion_lat": 0.0, "rental_uris": {"android": "https://dc.lft.to/lastmile_qr_scan", "ios": "https://dc.lft.to/lastmile_qr_scan"}, "fusion_lon": 0.0, "name": "a9c0a5d21b4c9c5fefa5a6927560b30c", "lon": -77.02885733333333, "is_disabled": 0, "type": "electric_scooter"}, {"bike_id": "ad85cac3115e647dba3f2dbd377db108", "lat": 38.8834665, "is_reserved": 0, "fusion_lat": 0.0, "rental_uris": {"android": "https://dc.lft.to/lastmile_qr_scan", "ios": "https://dc.lft.to/lastmile_qr_scan"}, "fusion_lon": 0.0, "name": "ad85cac3115e647dba3f2dbd377db108", "lon": -76.9949555, "is_disabled": 0, "type": "electric_scooter"}, {"bike_id": "87777b7482865657060c0c30f4fdc85c", "lat": 38.9006515, "is_reserved": 0, "fusion_lat": 0.0, "rental_uris": {"android": "https://dc.lft.to/lastmile_qr_scan", "ios": "https://dc.lft.to/lastmile_qr_scan"}, "fusion_lon": 0.0, "name": "87777b7482865657060c0c30f4fdc85c", "lon": -76.92743266666666, "is_disabled": 0, "type": "electric_scooter"}, {"bike_id": "d7b7e06d4bf060da523ce72ac5d78df1", "lat": 38.930791666666664, "is_reserved": 0, "fusion_lat": 0.0, "rental_uris": {"android": "https://dc.lft.to/lastmile_qr_scan", "ios": "https://dc.lft.to/lastmile_qr_scan"}, "fusion_lon": 0.0, "name": "d7b7e06d4bf060da523ce72ac5d78df1", "lon": -77.02796, "is_disabled": 0, "type": "electric_scooter"}, {"bike_id": "ce96edabb561927a2aa456c3753d6528", "lat": 38.896186666666665, "is_reserved": 0, "fusion_lat": 0.0, "rental_uris": {"android": "https://dc.lft.to/lastmile_qr_scan", "ios": "https://dc.lft.to/lastmile_qr_scan"}, "fusion_lon": 0.0, "name": "ce96edabb561927a2aa456c3753d6528", "lon": -77.045022, "is_disabled": 0, "type": "electric_scooter"}, {"bike_id": "d92001800a71898b5a3aa03556afedbb", "lat": 38.905276666666666, "is_reserved": 0, "fusion_lat": 0.0, "rental_uris": {"android": "https://dc.lft.to/lastmile_qr_scan", "ios": "https://dc.lft.to/lastmile_qr_scan"}, "fusion_lon": 0.0, "name": "d92001800a71898b5a3aa03556afedbb", "lon": -77.04146733333333, "is_disabled": 0, "type": "electric_scooter"}, {"bike_id": "17a9961074fddaefebf2dd83cd4ad483", "lat": 38.92075033333333, "is_reserved": 0, "fusion_lat": 0.0, "rental_uris": {"android": "https://dc.lft.to/lastmile_qr_scan", "ios": "https://dc.lft.to/lastmile_qr_scan"}, "fusion_lon": 0.0, "name": "17a9961074fddaefebf2dd83cd4ad483", "lon": -77.02315366666667, "is_disabled": 0, "type": "electric_scooter"}, {"bike_id": "6c748b4a880db3139e61f26014f96f15", "lat": 38.939202, "is_reserved": 0, "fusion_lat": 0.0, "rental_uris": {"android": "https://dc.lft.to/lastmile_qr_scan", "ios": "https://dc.lft.to/lastmile_qr_scan"}, "fusion_lon": 0.0, "name": "6c748b4a880db3139e61f26014f96f15", "lon": -77.06053883333334, "is_disabled": 0, "type": "electric_scooter"}, {"bike_id": "86ff7791c4ebbfcba1d37ea15fcf8ded", "lat": 38.9169685, "is_reserved": 0, "fusion_lat": 0.0, "rental_uris": {"android": "https://dc.lft.to/lastmile_qr_scan", "ios": "https://dc.lft.to/lastmile_qr_scan"}, "fusion_lon": 0.0, "name": "86ff7791c4ebbfcba1d37ea15fcf8ded", "lon": -77.02847983333334, "is_disabled": 0, "type": "electric_scooter"}, {"bike_id": "9247c8f1d6f8063ea0ebdb6a44920799", "lat": 38.878773333333335, "is_reserved": 0, "fusion_lat": 0.0, "rental_uris": {"android": "https://dc.lft.to/lastmile_qr_scan", "ios": "https://dc.lft.to/lastmile_qr_scan"}, "fusion_lon": 0.0, "name": "9247c8f1d6f8063ea0ebdb6a44920799", "lon": -77.02223566666666, "is_disabled": 0, "type": "electric_scooter"}, {"bike_id": "681f535f80ccd20d51f220c90eda1bd8", "lat": 38.873598, "is_reserved": 0, "fusion_lat": 0.0, "rental_uris": {"android": "https://dc.lft.to/lastmile_qr_scan", "ios": "https://dc.lft.to/lastmile_qr_scan"}, "fusion_lon": 0.0, "name": "681f535f80ccd20d51f220c90eda1bd8", "lon": -76.97029433333333, "is_disabled": 0, "type": "electric_scooter"}, {"bike_id": "ef5fbf78e9deee1b17f663c190c5d987", "lat": 38.842808166666664, "is_reserved": 0, "fusion_lat": 0.0, "rental_uris": {"android": "https://dc.lft.to/lastmile_qr_scan", "ios": "https://dc.lft.to/lastmile_qr_scan"}, "fusion_lon": 0.0, "name": "ef5fbf78e9deee1b17f663c190c5d987", "lon": -76.988417, "is_disabled": 0, "type": "electric_bike"}, {"bike_id": "69f56f54acf17b4085dab3d109c428e5", "lat": 38.923453, "is_reserved": 0, "fusion_lat": 0.0, "rental_uris": {"android": "https://dc.lft.to/lastmile_qr_scan", "ios": "https://dc.lft.to/lastmile_qr_scan"}, "fusion_lon": 0.0, "name": "69f56f54acf17b4085dab3d109c428e5", "lon": -77.051219, "is_disabled": 0, "type": "electric_scooter"}, {"bike_id": "31fa0fb453691dd237eb6d7e1b2e7dd5", "lat": 38.897276166666664, "is_reserved": 0, "fusion_lat": 0.0, "rental_uris": {"android": "https://dc.lft.to/lastmile_qr_scan", "ios": "https://dc.lft.to/lastmile_qr_scan"}, "fusion_lon": 0.0, "name": "31fa0fb453691dd237eb6d7e1b2e7dd5", "lon": -77.0440325, "is_disabled": 0, "type": "electric_scooter"}, {"bike_id": "da03cccd339fe3ce013f2eb024061714", "lat": 38.93749416666667, "is_reserved": 0, "fusion_lat": 0.0, "rental_uris": {"android": "https://dc.lft.to/lastmile_qr_scan", "ios": "https://dc.lft.to/lastmile_qr_scan"}, "fusion_lon": 0.0, "name": "da03cccd339fe3ce013f2eb024061714", "lon": -77.0244125, "is_disabled": 0, "type": "electric_scooter"}, {"bike_id": "8d08c31669a6a326f609f2cb8bb2fa78", "lat": 38.894764333333335, "is_reserved": 0, "fusion_lat": 0.0, "rental_uris": {"android": "https://dc.lft.to/lastmile_qr_scan", "ios": "https://dc.lft.to/lastmile_qr_scan"}, "fusion_lon": 0.0, "name": "8d08c31669a6a326f609f2cb8bb2fa78", "lon": -77.02185633333333, "is_disabled": 0, "type": "electric_scooter"}, {"bike_id": "b46370f75f0773f700552d4289acbafe", "lat": 38.898481833333335, "is_reserved": 0, "fusion_lat": 0.0, "rental_uris": {"android": "https://dc.lft.to/lastmile_qr_scan", "ios": "https://dc.lft.to/lastmile_qr_scan"}, "fusion_lon": 0.0, "name": "b46370f75f0773f700552d4289acbafe", "lon": -77.03112133333333, "is_disabled": 0, "type": "electric_scooter"}, {"bike_id": "5ce9528d4e98750bfbdf592906992496", "lat": 38.90589816666667, "is_reserved": 0, "fusion_lat": 0.0, "rental_uris": {"android": "https://dc.lft.to/lastmile_qr_scan", "ios": "https://dc.lft.to/lastmile_qr_scan"}, "fusion_lon": 0.0, "name": "5ce9528d4e98750bfbdf592906992496", "lon": -77.02192216666667, "is_disabled": 0, "type": "electric_scooter"}, {"bike_id": "6eb01508c175bd99ac2302273358e8ae", "lat": 38.892919, "is_reserved": 0, "fusion_lat": 0.0, "rental_uris": {"android": "https://dc.lft.to/lastmile_qr_scan", "ios": "https://dc.lft.to/lastmile_qr_scan"}, "fusion_lon": 0.0, "name": "6eb01508c175bd99ac2302273358e8ae", "lon": -77.03338366666667, "is_disabled": 0, "type": "electric_scooter"}, {"bike_id": "1c229cfbcd498def46177b15b4a4a0cb", "lat": 38.91647833333333, "is_reserved": 0, "fusion_lat": 0.0, "rental_uris": {"android": "https://dc.lft.to/lastmile_qr_scan", "ios": "https://dc.lft.to/lastmile_qr_scan"}, "fusion_lon": 0.0, "name": "1c229cfbcd498def46177b15b4a4a0cb", "lon": -77.03217766666667, "is_disabled": 0, "type": "electric_scooter"}, {"bike_id": "13b83e5cf8fe3d11b3fc6120226ea67a", "lat": 38.872987333333334, "is_reserved": 0, "fusion_lat": 0.0, "rental_uris": {"android": "https://dc.lft.to/lastmile_qr_scan", "ios": "https://dc.lft.to/lastmile_qr_scan"}, "fusion_lon": 0.0, "name": "13b83e5cf8fe3d11b3fc6120226ea67a", "lon": -77.1394, "is_disabled": 0, "type": "electric_bike"}, {"bike_id": "ad774822c38d9440bcd8f064cdd18242", "lat": 38.8991435, "is_reserved": 0, "fusion_lat": 0.0, "rental_uris": {"android": "https://dc.lft.to/lastmile_qr_scan", "ios": "https://dc.lft.to/lastmile_qr_scan"}, "fusion_lon": 0.0, "name": "ad774822c38d9440bcd8f064cdd18242", "lon": -76.933739, "is_disabled": 0, "type": "electric_scooter"}, {"bike_id": "5cb4179a105be3564e56051553de2384", "lat": 38.893887666666664, "is_reserved": 0, "fusion_lat": 0.0, "rental_uris": {"android": "https://dc.lft.to/lastmile_qr_scan", "ios": "https://dc.lft.to/lastmile_qr_scan"}, "fusion_lon": 0.0, "name": "5cb4179a105be3564e56051553de2384", "lon": -77.02271, "is_disabled": 0, "type": "electric_scooter"}, {"bike_id": "347649f02f28bed2fbe7f36e9bd58df7", "lat": 38.89222733333333, "is_reserved": 0, "fusion_lat": 0.0, "rental_uris": {"android": "https://dc.lft.to/lastmile_qr_scan", "ios": "https://dc.lft.to/lastmile_qr_scan"}, "fusion_lon": 0.0, "name": "347649f02f28bed2fbe7f36e9bd58df7", "lon": -77.02453883333334, "is_disabled": 0, "type": "electric_scooter"}, {"bike_id": "52bfcc4a0e6134ba74d06de3c7843745", "lat": 38.915398, "is_reserved": 0, "fusion_lat": 0.0, "rental_uris": {"android": "https://dc.lft.to/lastmile_qr_scan", "ios": "https://dc.lft.to/lastmile_qr_scan"}, "fusion_lon": 0.0, "name": "52bfcc4a0e6134ba74d06de3c7843745", "lon": -77.0122625, "is_disabled": 0, "type": "electric_scooter"}, {"bike_id": "b46d5fd5e83e1d146f6c102da94fe125", "lat": 38.912713333333336, "is_reserved": 0, "fusion_lat": 0.0, "rental_uris": {"android": "https://dc.lft.to/lastmile_qr_scan", "ios": "https://dc.lft.to/lastmile_qr_scan"}, "fusion_lon": 0.0, "name": "b46d5fd5e83e1d146f6c102da94fe125", "lon": -77.022069, "is_disabled": 0, "type": "electric_scooter"}, {"bike_id": "0db85659e2c78032f87072a2e0d5e40d", "lat": 38.926485, "is_reserved": 0, "fusion_lat": 0.0, "rental_uris": {"android": "https://dc.lft.to/lastmile_qr_scan", "ios": "https://dc.lft.to/lastmile_qr_scan"}, "fusion_lon": 0.0, "name": "0db85659e2c78032f87072a2e0d5e40d", "lon": -77.02478766666667, "is_disabled": 0, "type": "electric_scooter"}, {"bike_id": "3fb1124aeb41a7bfc0b65cdbaf52d43b", "lat": 38.8970965, "is_reserved": 0, "fusion_lat": 0.0, "rental_uris": {"android": "https://dc.lft.to/lastmile_qr_scan", "ios": "https://dc.lft.to/lastmile_qr_scan"}, "fusion_lon": 0.0, "name": "3fb1124aeb41a7bfc0b65cdbaf52d43b", "lon": -77.02852416666667, "is_disabled": 0, "type": "electric_scooter"}, {"bike_id": "4b5aa7d2a7c96204fdc0f475d133d7dd", "lat": 38.909678, "is_reserved": 0, "fusion_lat": 0.0, "rental_uris": {"android": "https://dc.lft.to/lastmile_qr_scan", "ios": "https://dc.lft.to/lastmile_qr_scan"}, "fusion_lon": 0.0, "name": "4b5aa7d2a7c96204fdc0f475d133d7dd", "lon": -77.03226016666666, "is_disabled": 0, "type": "electric_scooter"}, {"bike_id": "58d96d6b28324412ffc9f852bc0a3699", "lat": 38.9004175, "is_reserved": 0, "fusion_lat": 0.0, "rental_uris": {"android": "https://dc.lft.to/lastmile_qr_scan", "ios": "https://dc.lft.to/lastmile_qr_scan"}, "fusion_lon": 0.0, "name": "58d96d6b28324412ffc9f852bc0a3699", "lon": -77.0257485, "is_disabled": 0, "type": "electric_scooter"}, {"bike_id": "bfaa7c2b525c716dac4061ee998c1593", "lat": 38.86656766666667, "is_reserved": 0, "fusion_lat": 0.0, "rental_uris": {"android": "https://dc.lft.to/lastmile_qr_scan", "ios": "https://dc.lft.to/lastmile_qr_scan"}, "fusion_lon": 0.0, "name": "bfaa7c2b525c716dac4061ee998c1593", "lon": -76.98888233333334, "is_disabled": 0, "type": "electric_scooter"}, {"bike_id": "c68503dca68f37eadf52faea72f49094", "lat": 38.886594, "is_reserved": 0, "fusion_lat": 0.0, "rental_uris": {"android": "https://dc.lft.to/lastmile_qr_scan", "ios": "https://dc.lft.to/lastmile_qr_scan"}, "fusion_lon": 0.0, "name": "c68503dca68f37eadf52faea72f49094", "lon": -77.03389266666667, "is_disabled": 0, "type": "electric_scooter"}, {"bike_id": "88f643a08b9ec273dd134876ae5f195b", "lat": 38.92582866666667, "is_reserved": 0, "fusion_lat": 0.0, "rental_uris": {"android": "https://dc.lft.to/lastmile_qr_scan", "ios": "https://dc.lft.to/lastmile_qr_scan"}, "fusion_lon": 0.0, "name": "88f643a08b9ec273dd134876ae5f195b", "lon": -77.05427433333334, "is_disabled": 0, "type": "electric_scooter"}, {"bike_id": "e04a3405d46843d2a65e515da1a67f30", "lat": 38.89954633333333, "is_reserved": 0, "fusion_lat": 0.0, "rental_uris": {"android": "https://dc.lft.to/lastmile_qr_scan", "ios": "https://dc.lft.to/lastmile_qr_scan"}, "fusion_lon": 0.0, "name": "e04a3405d46843d2a65e515da1a67f30", "lon": -76.97535066666667, "is_disabled": 0, "type": "electric_scooter"}, {"bike_id": "81f3cd17c1f95c246c25f3c45c116f1b", "lat": 38.904200833333334, "is_reserved": 0, "fusion_lat": 0.0, "rental_uris": {"android": "https://dc.lft.to/lastmile_qr_scan", "ios": "https://dc.lft.to/lastmile_qr_scan"}, "fusion_lon": 0.0, "name": "81f3cd17c1f95c246c25f3c45c116f1b", "lon": -76.97375333333333, "is_disabled": 0, "type": "electric_scooter"}, {"bike_id": "2bb1eac6ba4bbdf66837084b807dc8db", "lat": 38.900270166666665, "is_reserved": 0, "fusion_lat": 0.0, "rental_uris": {"android": "https://dc.lft.to/lastmile_qr_scan", "ios": "https://dc.lft.to/lastmile_qr_scan"}, "fusion_lon": 0.0, "name": "2bb1eac6ba4bbdf66837084b807dc8db", "lon": -76.999034, "is_disabled": 0, "type": "electric_scooter"}, {"bike_id": "7f0baf2cb31652cfaab658f99d753473", "lat": 38.86565733333333, "is_reserved": 0, "fusion_lat": 0.0, "rental_uris": {"android": "https://dc.lft.to/lastmile_qr_scan", "ios": "https://dc.lft.to/lastmile_qr_scan"}, "fusion_lon": 0.0, "name": "7f0baf2cb31652cfaab658f99d753473", "lon": -76.9821375, "is_disabled": 0, "type": "electric_scooter"}, {"bike_id": "70bf714dfe3694875b7e448a98f5da56", "lat": 38.905684, "is_reserved": 0, "fusion_lat": 0.0, "rental_uris": {"android": "https://dc.lft.to/lastmile_qr_scan", "ios": "https://dc.lft.to/lastmile_qr_scan"}, "fusion_lon": 0.0, "name": "70bf714dfe3694875b7e448a98f5da56", "lon": -77.041779, "is_disabled": 0, "type": "electric_scooter"}, {"bike_id": "2c7278dcda4b414551d610c2059274f2", "lat": 38.8461, "is_reserved": 0, "fusion_lat": 0.0, "rental_uris": {"android": "https://dc.lft.to/lastmile_qr_scan", "ios": "https://dc.lft.to/lastmile_qr_scan"}, "fusion_lon": 0.0, "name": "2c7278dcda4b414551d610c2059274f2", "lon": -76.9691025, "is_disabled": 0, "type": "electric_bike"}, {"bike_id": "4ad4879c99f7e3c4f99306873f91d168", "lat": 38.906914, "is_reserved": 0, "fusion_lat": 0.0, "rental_uris": {"android": "https://dc.lft.to/lastmile_qr_scan", "ios": "https://dc.lft.to/lastmile_qr_scan"}, "fusion_lon": 0.0, "name": "4ad4879c99f7e3c4f99306873f91d168", "lon": -77.06153283333333, "is_disabled": 0, "type": "electric_scooter"}, {"bike_id": "cee33ea959320a8c732828499d1a83b6", "lat": 38.85753366666667, "is_reserved": 0, "fusion_lat": 0.0, "rental_uris": {"android": "https://dc.lft.to/lastmile_qr_scan", "ios": "https://dc.lft.to/lastmile_qr_scan"}, "fusion_lon": 0.0, "name": "cee33ea959320a8c732828499d1a83b6", "lon": -76.99305066666666, "is_disabled": 0, "type": "electric_scooter"}, {"bike_id": "4b303a082c5476079d5acaa85dd0763f", "lat": 38.81332333333334, "is_reserved": 0, "fusion_lat": 0.0, "rental_uris": {"android": "https://dc.lft.to/lastmile_qr_scan", "ios": "https://dc.lft.to/lastmile_qr_scan"}, "fusion_lon": 0.0, "name": "4b303a082c5476079d5acaa85dd0763f", "lon": -77.05128583333334, "is_disabled": 0, "type": "electric_bike"}, {"bike_id": "481b5ed36057b1726c8b5a4e6dda32b1", "lat": 38.94116566666667, "is_reserved": 0, "fusion_lat": 0.0, "rental_uris": {"android": "https://dc.lft.to/lastmile_qr_scan", "ios": "https://dc.lft.to/lastmile_qr_scan"}, "fusion_lon": 0.0, "name": "481b5ed36057b1726c8b5a4e6dda32b1", "lon": -77.000666, "is_disabled": 0, "type": "electric_bike"}, {"bike_id": "7739aaa2b7ce557d26d84895f1b9b105", "lat": 38.9184725, "is_reserved": 0, "fusion_lat": 0.0, "rental_uris": {"android": "https://dc.lft.to/lastmile_qr_scan", "ios": "https://dc.lft.to/lastmile_qr_scan"}, "fusion_lon": 0.0, "name": "7739aaa2b7ce557d26d84895f1b9b105", "lon": -77.0318315, "is_disabled": 0, "type": "electric_scooter"}, {"bike_id": "05ffe54741b6bf3033159b4940d36b72", "lat": 38.896209999999996, "is_reserved": 0, "fusion_lat": 0.0, "rental_uris": {"android": "https://dc.lft.to/lastmile_qr_scan", "ios": "https://dc.lft.to/lastmile_qr_scan"}, "fusion_lon": 0.0, "name": "05ffe54741b6bf3033159b4940d36b72", "lon": -76.99851616666666, "is_disabled": 0, "type": "electric_scooter"}, {"bike_id": "57f3ca9f07e0ef71c29fc99486de5792", "lat": 38.904991, "is_reserved": 0, "fusion_lat": 0.0, "rental_uris": {"android": "https://dc.lft.to/lastmile_qr_scan", "ios": "https://dc.lft.to/lastmile_qr_scan"}, "fusion_lon": 0.0, "name": "57f3ca9f07e0ef71c29fc99486de5792", "lon": -77.05818866666667, "is_disabled": 0, "type": "electric_scooter"}, {"bike_id": "cc6a2081b331e9ee31488659e667a8c4", "lat": 38.921894333333334, "is_reserved": 0, "fusion_lat": 0.0, "rental_uris": {"android": "https://dc.lft.to/lastmile_qr_scan", "ios": "https://dc.lft.to/lastmile_qr_scan"}, "fusion_lon": 0.0, "name": "cc6a2081b331e9ee31488659e667a8c4", "lon": -77.02413533333333, "is_disabled": 0, "type": "electric_scooter"}, {"bike_id": "05075a1aea33c80ae0c10dc4b8b66e69", "lat": 38.858365166666665, "is_reserved": 0, "fusion_lat": 0.0, "rental_uris": {"android": "https://dc.lft.to/lastmile_qr_scan", "ios": "https://dc.lft.to/lastmile_qr_scan"}, "fusion_lon": 0.0, "name": "05075a1aea33c80ae0c10dc4b8b66e69", "lon": -76.9873405, "is_disabled": 0, "type": "electric_scooter"}, {"bike_id": "ca969931f30c4d332daa59f3ee3b9d13", "lat": 38.91673633333333, "is_reserved": 0, "fusion_lat": 0.0, "rental_uris": {"android": "https://dc.lft.to/lastmile_qr_scan", "ios": "https://dc.lft.to/lastmile_qr_scan"}, "fusion_lon": 0.0, "name": "ca969931f30c4d332daa59f3ee3b9d13", "lon": -77.02391533333333, "is_disabled": 0, "type": "electric_scooter"}, {"bike_id": "2f4711107fda6ea4485eb3e0bc89435a", "lat": 38.914043166666666, "is_reserved": 0, "fusion_lat": 0.0, "rental_uris": {"android": "https://dc.lft.to/lastmile_qr_scan", "ios": "https://dc.lft.to/lastmile_qr_scan"}, "fusion_lon": 0.0, "name": "2f4711107fda6ea4485eb3e0bc89435a", "lon": -77.020119, "is_disabled": 0, "type": "electric_scooter"}, {"bike_id": "78056dcd4269bdd0923a634d1f1110ae", "lat": 38.933483833333334, "is_reserved": 0, "fusion_lat": 0.0, "rental_uris": {"android": "https://dc.lft.to/lastmile_qr_scan", "ios": "https://dc.lft.to/lastmile_qr_scan"}, "fusion_lon": 0.0, "name": "78056dcd4269bdd0923a634d1f1110ae", "lon": -77.06204833333334, "is_disabled": 0, "type": "electric_scooter"}, {"bike_id": "fbefc7d8a973566f6316dd6718bea5e2", "lat": 38.905914, "is_reserved": 0, "fusion_lat": 0.0, "rental_uris": {"android": "https://dc.lft.to/lastmile_qr_scan", "ios": "https://dc.lft.to/lastmile_qr_scan"}, "fusion_lon": 0.0, "name": "fbefc7d8a973566f6316dd6718bea5e2", "lon": -77.04005183333334, "is_disabled": 0, "type": "electric_scooter"}, {"bike_id": "d776c5b040aa6930650c188571a40753", "lat": 38.912626333333336, "is_reserved": 0, "fusion_lat": 0.0, "rental_uris": {"android": "https://dc.lft.to/lastmile_qr_scan", "ios": "https://dc.lft.to/lastmile_qr_scan"}, "fusion_lon": 0.0, "name": "d776c5b040aa6930650c188571a40753", "lon": -77.03166316666666, "is_disabled": 0, "type": "electric_scooter"}, {"bike_id": "68e0e468a36187bd5c7fddb16d7d0580", "lat": 38.94633683333333, "is_reserved": 0, "fusion_lat": 0.0, "rental_uris": {"android": "https://dc.lft.to/lastmile_qr_scan", "ios": "https://dc.lft.to/lastmile_qr_scan"}, "fusion_lon": 0.0, "name": "68e0e468a36187bd5c7fddb16d7d0580", "lon": -77.01848683333333, "is_disabled": 0, "type": "electric_scooter"}, {"bike_id": "c231e1527df3b5c8e17aa3bcc2cdf81e", "lat": 38.89497333333333, "is_reserved": 0, "fusion_lat": 0.0, "rental_uris": {"android": "https://dc.lft.to/lastmile_qr_scan", "ios": "https://dc.lft.to/lastmile_qr_scan"}, "fusion_lon": 0.0, "name": "c231e1527df3b5c8e17aa3bcc2cdf81e", "lon": -77.022878, "is_disabled": 0, "type": "electric_scooter"}, {"bike_id": "bc267e5c5b41bb9af6ec01a02b4cefa7", "lat": 38.866973, "is_reserved": 0, "fusion_lat": 0.0, "rental_uris": {"android": "https://dc.lft.to/lastmile_qr_scan", "ios": "https://dc.lft.to/lastmile_qr_scan"}, "fusion_lon": 0.0, "name": "bc267e5c5b41bb9af6ec01a02b4cefa7", "lon": -76.98713716666667, "is_disabled": 0, "type": "electric_scooter"}, {"bike_id": "25118f6934f821732c57cb34ace3b23f", "lat": 38.9099805, "is_reserved": 0, "fusion_lat": 0.0, "rental_uris": {"android": "https://dc.lft.to/lastmile_qr_scan", "ios": "https://dc.lft.to/lastmile_qr_scan"}, "fusion_lon": 0.0, "name": "25118f6934f821732c57cb34ace3b23f", "lon": -77.04009433333333, "is_disabled": 0, "type": "electric_scooter"}, {"bike_id": "66df57d2a0de484f99801300623dbdbf", "lat": 38.924401833333334, "is_reserved": 0, "fusion_lat": 0.0, "rental_uris": {"android": "https://dc.lft.to/lastmile_qr_scan", "ios": "https://dc.lft.to/lastmile_qr_scan"}, "fusion_lon": 0.0, "name": "66df57d2a0de484f99801300623dbdbf", "lon": -77.01956333333334, "is_disabled": 0, "type": "electric_scooter"}, {"bike_id": "948125158853f7ba3f16c501c8de7343", "lat": 38.9056735, "is_reserved": 0, "fusion_lat": 0.0, "rental_uris": {"android": "https://dc.lft.to/lastmile_qr_scan", "ios": "https://dc.lft.to/lastmile_qr_scan"}, "fusion_lon": 0.0, "name": "948125158853f7ba3f16c501c8de7343", "lon": -77.04307883333334, "is_disabled": 0, "type": "electric_scooter"}, {"bike_id": "0aa03a954c61b267418659a9f23fa794", "lat": 38.93354016666667, "is_reserved": 0, "fusion_lat": 0.0, "rental_uris": {"android": "https://dc.lft.to/lastmile_qr_scan", "ios": "https://dc.lft.to/lastmile_qr_scan"}, "fusion_lon": 0.0, "name": "0aa03a954c61b267418659a9f23fa794", "lon": -77.07360866666667, "is_disabled": 0, "type": "electric_scooter"}, {"bike_id": "ea31cee7f11e30e59a635e05277354a8", "lat": 38.8840865, "is_reserved": 0, "fusion_lat": 0.0, "rental_uris": {"android": "https://dc.lft.to/lastmile_qr_scan", "ios": "https://dc.lft.to/lastmile_qr_scan"}, "fusion_lon": 0.0, "name": "ea31cee7f11e30e59a635e05277354a8", "lon": -76.94830733333333, "is_disabled": 0, "type": "electric_scooter"}, {"bike_id": "6bb8f3be57aef9abaa47b9cb7e9c158f", "lat": 38.91818633333333, "is_reserved": 0, "fusion_lat": 0.0, "rental_uris": {"android": "https://dc.lft.to/lastmile_qr_scan", "ios": "https://dc.lft.to/lastmile_qr_scan"}, "fusion_lon": 0.0, "name": "6bb8f3be57aef9abaa47b9cb7e9c158f", "lon": -77.01207766666667, "is_disabled": 0, "type": "electric_scooter"}, {"bike_id": "eefb885cc7c1f8dfb4352fe457cf28e6", "lat": 38.896195166666665, "is_reserved": 0, "fusion_lat": 0.0, "rental_uris": {"android": "https://dc.lft.to/lastmile_qr_scan", "ios": "https://dc.lft.to/lastmile_qr_scan"}, "fusion_lon": 0.0, "name": "eefb885cc7c1f8dfb4352fe457cf28e6", "lon": -77.02622333333333, "is_disabled": 0, "type": "electric_scooter"}, {"bike_id": "854fd4aea634301c95fd7bd06e35e7bb", "lat": 38.905641833333334, "is_reserved": 0, "fusion_lat": 0.0, "rental_uris": {"android": "https://dc.lft.to/lastmile_qr_scan", "ios": "https://dc.lft.to/lastmile_qr_scan"}, "fusion_lon": 0.0, "name": "854fd4aea634301c95fd7bd06e35e7bb", "lon": -77.04162683333334, "is_disabled": 0, "type": "electric_scooter"}, {"bike_id": "20111dc8ccdd4879752556a98f2f90a6", "lat": 38.9339755, "is_reserved": 0, "fusion_lat": 0.0, "rental_uris": {"android": "https://dc.lft.to/lastmile_qr_scan", "ios": "https://dc.lft.to/lastmile_qr_scan"}, "fusion_lon": 0.0, "name": "20111dc8ccdd4879752556a98f2f90a6", "lon": -77.05744, "is_disabled": 0, "type": "electric_scooter"}, {"bike_id": "530dec6fee26854d494d6e185f2c5609", "lat": 38.897465833333335, "is_reserved": 0, "fusion_lat": 0.0, "rental_uris": {"android": "https://dc.lft.to/lastmile_qr_scan", "ios": "https://dc.lft.to/lastmile_qr_scan"}, "fusion_lon": 0.0, "name": "530dec6fee26854d494d6e185f2c5609", "lon": -77.02991433333334, "is_disabled": 0, "type": "electric_scooter"}, {"bike_id": "7ac9f3c96b313773b515dc022f92538a", "lat": 38.9240135, "is_reserved": 0, "fusion_lat": 0.0, "rental_uris": {"android": "https://dc.lft.to/lastmile_qr_scan", "ios": "https://dc.lft.to/lastmile_qr_scan"}, "fusion_lon": 0.0, "name": "7ac9f3c96b313773b515dc022f92538a", "lon": -77.0297875, "is_disabled": 0, "type": "electric_scooter"}, {"bike_id": "d8801e239145f6d87ed8f034e1d95d41", "lat": 38.91994866666667, "is_reserved": 0, "fusion_lat": 0.0, "rental_uris": {"android": "https://dc.lft.to/lastmile_qr_scan", "ios": "https://dc.lft.to/lastmile_qr_scan"}, "fusion_lon": 0.0, "name": "d8801e239145f6d87ed8f034e1d95d41", "lon": -77.02386266666667, "is_disabled": 0, "type": "electric_scooter"}, {"bike_id": "ff707368a38b611d889bad3ccabe501e", "lat": 38.90793333333333, "is_reserved": 0, "fusion_lat": 0.0, "rental_uris": {"android": "https://dc.lft.to/lastmile_qr_scan", "ios": "https://dc.lft.to/lastmile_qr_scan"}, "fusion_lon": 0.0, "name": "ff707368a38b611d889bad3ccabe501e", "lon": -77.02695566666667, "is_disabled": 0, "type": "electric_scooter"}, {"bike_id": "1d3e05c3b6751957dbaa5785f65b239f", "lat": 38.90358333333333, "is_reserved": 0, "fusion_lat": 0.0, "rental_uris": {"android": "https://dc.lft.to/lastmile_qr_scan", "ios": "https://dc.lft.to/lastmile_qr_scan"}, "fusion_lon": 0.0, "name": "1d3e05c3b6751957dbaa5785f65b239f", "lon": -76.99222016666667, "is_disabled": 0, "type": "electric_scooter"}, {"bike_id": "175d03b37bdef7d252cd3cca48239970", "lat": 38.88714733333333, "is_reserved": 0, "fusion_lat": 0.0, "rental_uris": {"android": "https://dc.lft.to/lastmile_qr_scan", "ios": "https://dc.lft.to/lastmile_qr_scan"}, "fusion_lon": 0.0, "name": "175d03b37bdef7d252cd3cca48239970", "lon": -77.02197816666667, "is_disabled": 0, "type": "electric_scooter"}, {"bike_id": "b42bf83cd3c03d92e724db1a4b9bbb1e", "lat": 38.915655666666666, "is_reserved": 0, "fusion_lat": 0.0, "rental_uris": {"android": "https://dc.lft.to/lastmile_qr_scan", "ios": "https://dc.lft.to/lastmile_qr_scan"}, "fusion_lon": 0.0, "name": "b42bf83cd3c03d92e724db1a4b9bbb1e", "lon": -77.030496, "is_disabled": 0, "type": "electric_scooter"}, {"bike_id": "68cdfb2e36aa4d75c3567459e16c043c", "lat": 39.051105666666665, "is_reserved": 0, "fusion_lat": 0.0, "rental_uris": {"android": "https://dc.lft.to/lastmile_qr_scan", "ios": "https://dc.lft.to/lastmile_qr_scan"}, "fusion_lon": 0.0, "name": "68cdfb2e36aa4d75c3567459e16c043c", "lon": -77.11749733333333, "is_disabled": 0, "type": "electric_bike"}, {"bike_id": "c01cb0df0aae4d5d8f3dc2ca1547ea81", "lat": 38.885358, "is_reserved": 0, "fusion_lat": 0.0, "rental_uris": {"android": "https://dc.lft.to/lastmile_qr_scan", "ios": "https://dc.lft.to/lastmile_qr_scan"}, "fusion_lon": 0.0, "name": "c01cb0df0aae4d5d8f3dc2ca1547ea81", "lon": -77.00578683333333, "is_disabled": 0, "type": "electric_scooter"}, {"bike_id": "0a1cb4d8585a46fdfbaeb11d6c243ede", "lat": 38.89518233333333, "is_reserved": 0, "fusion_lat": 0.0, "rental_uris": {"android": "https://dc.lft.to/lastmile_qr_scan", "ios": "https://dc.lft.to/lastmile_qr_scan"}, "fusion_lon": 0.0, "name": "0a1cb4d8585a46fdfbaeb11d6c243ede", "lon": -77.04345483333333, "is_disabled": 0, "type": "electric_scooter"}, {"bike_id": "e0190fed413f6c22db6b1ee74e30d3af", "lat": 38.956387666666664, "is_reserved": 0, "fusion_lat": 0.0, "rental_uris": {"android": "https://dc.lft.to/lastmile_qr_scan", "ios": "https://dc.lft.to/lastmile_qr_scan"}, "fusion_lon": 0.0, "name": "e0190fed413f6c22db6b1ee74e30d3af", "lon": -77.036295, "is_disabled": 0, "type": "electric_scooter"}, {"bike_id": "d30989c3e0e931cf36ee00c697968a9f", "lat": 38.90155016666667, "is_reserved": 0, "fusion_lat": 0.0, "rental_uris": {"android": "https://dc.lft.to/lastmile_qr_scan", "ios": "https://dc.lft.to/lastmile_qr_scan"}, "fusion_lon": 0.0, "name": "d30989c3e0e931cf36ee00c697968a9f", "lon": -77.040534, "is_disabled": 0, "type": "electric_scooter"}, {"bike_id": "9dd3fd6b00ea7556793d0ad57c5e017f", "lat": 38.9076005, "is_reserved": 0, "fusion_lat": 0.0, "rental_uris": {"android": "https://dc.lft.to/lastmile_qr_scan", "ios": "https://dc.lft.to/lastmile_qr_scan"}, "fusion_lon": 0.0, "name": "9dd3fd6b00ea7556793d0ad57c5e017f", "lon": -77.032191, "is_disabled": 0, "type": "electric_scooter"}, {"bike_id": "c439398b908c8707ca7fb16b8247af59", "lat": 38.875067666666666, "is_reserved": 0, "fusion_lat": 0.0, "rental_uris": {"android": "https://dc.lft.to/lastmile_qr_scan", "ios": "https://dc.lft.to/lastmile_qr_scan"}, "fusion_lon": 0.0, "name": "c439398b908c8707ca7fb16b8247af59", "lon": -77.01233, "is_disabled": 0, "type": "electric_scooter"}, {"bike_id": "bf9192167089c8adef81e001debd64eb", "lat": 38.878673666666664, "is_reserved": 0, "fusion_lat": 0.0, "rental_uris": {"android": "https://dc.lft.to/lastmile_qr_scan", "ios": "https://dc.lft.to/lastmile_qr_scan"}, "fusion_lon": 0.0, "name": "bf9192167089c8adef81e001debd64eb", "lon": -77.01760183333333, "is_disabled": 0, "type": "electric_scooter"}, {"bike_id": "5b43f38b571c3dfd4d446a80eaba9244", "lat": 38.93354566666667, "is_reserved": 0, "fusion_lat": 0.0, "rental_uris": {"android": "https://dc.lft.to/lastmile_qr_scan", "ios": "https://dc.lft.to/lastmile_qr_scan"}, "fusion_lon": 0.0, "name": "5b43f38b571c3dfd4d446a80eaba9244", "lon": -77.08579716666667, "is_disabled": 0, "type": "electric_scooter"}, {"bike_id": "c837303caf97624f35e420a86176b276", "lat": 38.899543666666666, "is_reserved": 0, "fusion_lat": 0.0, "rental_uris": {"android": "https://dc.lft.to/lastmile_qr_scan", "ios": "https://dc.lft.to/lastmile_qr_scan"}, "fusion_lon": 0.0, "name": "c837303caf97624f35e420a86176b276", "lon": -77.048263, "is_disabled": 0, "type": "electric_bike"}, {"bike_id": "a402dc2b7751ebbab4daf5871b0e6cf9", "lat": 38.8090335, "is_reserved": 0, "fusion_lat": 0.0, "rental_uris": {"android": "https://dc.lft.to/lastmile_qr_scan", "ios": "https://dc.lft.to/lastmile_qr_scan"}, "fusion_lon": 0.0, "name": "a402dc2b7751ebbab4daf5871b0e6cf9", "lon": -77.08659416666667, "is_disabled": 0, "type": "electric_bike"}, {"bike_id": "d7fbb3184e4d9e5a61ab7ce638288db6", "lat": 38.92154433333333, "is_reserved": 0, "fusion_lat": 0.0, "rental_uris": {"android": "https://dc.lft.to/lastmile_qr_scan", "ios": "https://dc.lft.to/lastmile_qr_scan"}, "fusion_lon": 0.0, "name": "d7fbb3184e4d9e5a61ab7ce638288db6", "lon": -77.02096083333333, "is_disabled": 0, "type": "electric_scooter"}, {"bike_id": "63d90705c7ba3dda10cdd3d93d8c76bf", "lat": 38.902426166666665, "is_reserved": 0, "fusion_lat": 0.0, "rental_uris": {"android": "https://dc.lft.to/lastmile_qr_scan", "ios": "https://dc.lft.to/lastmile_qr_scan"}, "fusion_lon": 0.0, "name": "63d90705c7ba3dda10cdd3d93d8c76bf", "lon": -77.0394945, "is_disabled": 0, "type": "electric_scooter"}, {"bike_id": "fa6699a93b38bf46c6607c245f236283", "lat": 38.917675, "is_reserved": 0, "fusion_lat": 0.0, "rental_uris": {"android": "https://dc.lft.to/lastmile_qr_scan", "ios": "https://dc.lft.to/lastmile_qr_scan"}, "fusion_lon": 0.0, "name": "fa6699a93b38bf46c6607c245f236283", "lon": -77.02949233333334, "is_disabled": 0, "type": "electric_scooter"}, {"bike_id": "098c51c09f6f3b7340032b068ed91dae", "lat": 38.86516533333333, "is_reserved": 0, "fusion_lat": 0.0, "rental_uris": {"android": "https://dc.lft.to/lastmile_qr_scan", "ios": "https://dc.lft.to/lastmile_qr_scan"}, "fusion_lon": 0.0, "name": "098c51c09f6f3b7340032b068ed91dae", "lon": -76.99009733333334, "is_disabled": 0, "type": "electric_scooter"}, {"bike_id": "e34906094720dc8c525523f3b55168b3", "lat": 38.892466166666665, "is_reserved": 0, "fusion_lat": 0.0, "rental_uris": {"android": "https://dc.lft.to/lastmile_qr_scan", "ios": "https://dc.lft.to/lastmile_qr_scan"}, "fusion_lon": 0.0, "name": "e34906094720dc8c525523f3b55168b3", "lon": -77.04872483333334, "is_disabled": 0, "type": "electric_scooter"}, {"bike_id": "7d9f643a86ccd584a1457399abc738c9", "lat": 38.89235766666667, "is_reserved": 0, "fusion_lat": 0.0, "rental_uris": {"android": "https://dc.lft.to/lastmile_qr_scan", "ios": "https://dc.lft.to/lastmile_qr_scan"}, "fusion_lon": 0.0, "name": "7d9f643a86ccd584a1457399abc738c9", "lon": -76.95327266666666, "is_disabled": 0, "type": "electric_scooter"}, {"bike_id": "fdb0ade5ba0c366285c8a06007878405", "lat": 38.8923055, "is_reserved": 0, "fusion_lat": 0.0, "rental_uris": {"android": "https://dc.lft.to/lastmile_qr_scan", "ios": "https://dc.lft.to/lastmile_qr_scan"}, "fusion_lon": 0.0, "name": "fdb0ade5ba0c366285c8a06007878405", "lon": -77.04673233333334, "is_disabled": 0, "type": "electric_scooter"}, {"bike_id": "37571c5780ca91927720ed954dd5e5ff", "lat": 38.900916333333335, "is_reserved": 0, "fusion_lat": 0.0, "rental_uris": {"android": "https://dc.lft.to/lastmile_qr_scan", "ios": "https://dc.lft.to/lastmile_qr_scan"}, "fusion_lon": 0.0, "name": "37571c5780ca91927720ed954dd5e5ff", "lon": -76.9834235, "is_disabled": 0, "type": "electric_scooter"}, {"bike_id": "8664c6c5f43f5347d7beb3c5fdedc465", "lat": 38.8992265, "is_reserved": 0, "fusion_lat": 0.0, "rental_uris": {"android": "https://dc.lft.to/lastmile_qr_scan", "ios": "https://dc.lft.to/lastmile_qr_scan"}, "fusion_lon": 0.0, "name": "8664c6c5f43f5347d7beb3c5fdedc465", "lon": -77.04005633333334, "is_disabled": 0, "type": "electric_scooter"}, {"bike_id": "9a895a06aa3adb9602f8fd6a27cf4123", "lat": 38.9154205, "is_reserved": 0, "fusion_lat": 0.0, "rental_uris": {"android": "https://dc.lft.to/lastmile_qr_scan", "ios": "https://dc.lft.to/lastmile_qr_scan"}, "fusion_lon": 0.0, "name": "9a895a06aa3adb9602f8fd6a27cf4123", "lon": -77.04458983333333, "is_disabled": 0, "type": "electric_scooter"}, {"bike_id": "ec24290c008ce3d9965482cd745971bd", "lat": 38.89939416666667, "is_reserved": 0, "fusion_lat": 0.0, "rental_uris": {"android": "https://dc.lft.to/lastmile_qr_scan", "ios": "https://dc.lft.to/lastmile_qr_scan"}, "fusion_lon": 0.0, "name": "ec24290c008ce3d9965482cd745971bd", "lon": -77.00350883333333, "is_disabled": 0, "type": "electric_scooter"}, {"bike_id": "d16462e1b50030f64238144f9c6695ca", "lat": 38.916765166666664, "is_reserved": 0, "fusion_lat": 0.0, "rental_uris": {"android": "https://dc.lft.to/lastmile_qr_scan", "ios": "https://dc.lft.to/lastmile_qr_scan"}, "fusion_lon": 0.0, "name": "d16462e1b50030f64238144f9c6695ca", "lon": -77.0228405, "is_disabled": 0, "type": "electric_scooter"}, {"bike_id": "545ff460618e6711e881a7eb5b2257f3", "lat": 38.89954766666666, "is_reserved": 0, "fusion_lat": 0.0, "rental_uris": {"android": "https://dc.lft.to/lastmile_qr_scan", "ios": "https://dc.lft.to/lastmile_qr_scan"}, "fusion_lon": 0.0, "name": "545ff460618e6711e881a7eb5b2257f3", "lon": -77.0318215, "is_disabled": 0, "type": "electric_scooter"}, {"bike_id": "05510117570772b65ae01e0bb73357d8", "lat": 38.9097835, "is_reserved": 0, "fusion_lat": 0.0, "rental_uris": {"android": "https://dc.lft.to/lastmile_qr_scan", "ios": "https://dc.lft.to/lastmile_qr_scan"}, "fusion_lon": 0.0, "name": "05510117570772b65ae01e0bb73357d8", "lon": -77.0338725, "is_disabled": 0, "type": "electric_scooter"}, {"bike_id": "a9e54b71ff7719d69f8bc41aa3899404", "lat": 38.9182045, "is_reserved": 0, "fusion_lat": 0.0, "rental_uris": {"android": "https://dc.lft.to/lastmile_qr_scan", "ios": "https://dc.lft.to/lastmile_qr_scan"}, "fusion_lon": 0.0, "name": "a9e54b71ff7719d69f8bc41aa3899404", "lon": -77.04945133333334, "is_disabled": 0, "type": "electric_scooter"}, {"bike_id": "120ebd143db19d09db5a86b34670b050", "lat": 38.916991333333335, "is_reserved": 0, "fusion_lat": 0.0, "rental_uris": {"android": "https://dc.lft.to/lastmile_qr_scan", "ios": "https://dc.lft.to/lastmile_qr_scan"}, "fusion_lon": 0.0, "name": "120ebd143db19d09db5a86b34670b050", "lon": -77.02900083333333, "is_disabled": 0, "type": "electric_scooter"}, {"bike_id": "c2528c03227849c22e6cdd9fba3ba0ff", "lat": 38.902702, "is_reserved": 0, "fusion_lat": 0.0, "rental_uris": {"android": "https://dc.lft.to/lastmile_qr_scan", "ios": "https://dc.lft.to/lastmile_qr_scan"}, "fusion_lon": 0.0, "name": "c2528c03227849c22e6cdd9fba3ba0ff", "lon": -77.0544, "is_disabled": 0, "type": "electric_scooter"}, {"bike_id": "b048453dc504e44747964166ba67205c", "lat": 38.887075, "is_reserved": 0, "fusion_lat": 0.0, "rental_uris": {"android": "https://dc.lft.to/lastmile_qr_scan", "ios": "https://dc.lft.to/lastmile_qr_scan"}, "fusion_lon": 0.0, "name": "b048453dc504e44747964166ba67205c", "lon": -77.01773983333334, "is_disabled": 0, "type": "electric_scooter"}, {"bike_id": "bd43b83767b77ed2cc0a4d68b073b404", "lat": 38.874666, "is_reserved": 0, "fusion_lat": 0.0, "rental_uris": {"android": "https://dc.lft.to/lastmile_qr_scan", "ios": "https://dc.lft.to/lastmile_qr_scan"}, "fusion_lon": 0.0, "name": "bd43b83767b77ed2cc0a4d68b073b404", "lon": -77.00560816666666, "is_disabled": 0, "type": "electric_scooter"}, {"bike_id": "c5d56a8a430a632cd5306565240e8150", "lat": 38.9004365, "is_reserved": 0, "fusion_lat": 0.0, "rental_uris": {"android": "https://dc.lft.to/lastmile_qr_scan", "ios": "https://dc.lft.to/lastmile_qr_scan"}, "fusion_lon": 0.0, "name": "c5d56a8a430a632cd5306565240e8150", "lon": -76.98824433333333, "is_disabled": 0, "type": "electric_scooter"}, {"bike_id": "0df91583dae80eadca86be3bb7b9fbf5", "lat": 38.902815, "is_reserved": 0, "fusion_lat": 0.0, "rental_uris": {"android": "https://dc.lft.to/lastmile_qr_scan", "ios": "https://dc.lft.to/lastmile_qr_scan"}, "fusion_lon": 0.0, "name": "0df91583dae80eadca86be3bb7b9fbf5", "lon": -77.0333865, "is_disabled": 0, "type": "electric_scooter"}, {"bike_id": "b7cdc44bd727f93848a2dc8bd7940b7a", "lat": 38.91828916666667, "is_reserved": 0, "fusion_lat": 0.0, "rental_uris": {"android": "https://dc.lft.to/lastmile_qr_scan", "ios": "https://dc.lft.to/lastmile_qr_scan"}, "fusion_lon": 0.0, "name": "b7cdc44bd727f93848a2dc8bd7940b7a", "lon": -77.04157683333334, "is_disabled": 0, "type": "electric_scooter"}, {"bike_id": "79abd665c6fdc874dea32a0e62c2cb45", "lat": 38.8985055, "is_reserved": 0, "fusion_lat": 0.0, "rental_uris": {"android": "https://dc.lft.to/lastmile_qr_scan", "ios": "https://dc.lft.to/lastmile_qr_scan"}, "fusion_lon": 0.0, "name": "79abd665c6fdc874dea32a0e62c2cb45", "lon": -77.02203666666666, "is_disabled": 0, "type": "electric_scooter"}, {"bike_id": "868dcb83a520d3c5d249521e044207c4", "lat": 38.93608566666666, "is_reserved": 0, "fusion_lat": 0.0, "rental_uris": {"android": "https://dc.lft.to/lastmile_qr_scan", "ios": "https://dc.lft.to/lastmile_qr_scan"}, "fusion_lon": 0.0, "name": "868dcb83a520d3c5d249521e044207c4", "lon": -77.05894183333334, "is_disabled": 0, "type": "electric_scooter"}, {"bike_id": "863e782b7ea32492914055ec93c6525e", "lat": 38.90440233333333, "is_reserved": 0, "fusion_lat": 0.0, "rental_uris": {"android": "https://dc.lft.to/lastmile_qr_scan", "ios": "https://dc.lft.to/lastmile_qr_scan"}, "fusion_lon": 0.0, "name": "863e782b7ea32492914055ec93c6525e", "lon": -77.02808, "is_disabled": 0, "type": "electric_scooter"}, {"bike_id": "91d1240ad11ca8a31ff72d539140a62f", "lat": 38.897423, "is_reserved": 0, "fusion_lat": 0.0, "rental_uris": {"android": "https://dc.lft.to/lastmile_qr_scan", "ios": "https://dc.lft.to/lastmile_qr_scan"}, "fusion_lon": 0.0, "name": "91d1240ad11ca8a31ff72d539140a62f", "lon": -76.92047066666666, "is_disabled": 0, "type": "electric_bike"}, {"bike_id": "047f4fef9224a6e455aba9de5beb3d44", "lat": 38.89234483333333, "is_reserved": 0, "fusion_lat": 0.0, "rental_uris": {"android": "https://dc.lft.to/lastmile_qr_scan", "ios": "https://dc.lft.to/lastmile_qr_scan"}, "fusion_lon": 0.0, "name": "047f4fef9224a6e455aba9de5beb3d44", "lon": -77.041644, "is_disabled": 0, "type": "electric_scooter"}, {"bike_id": "176526f3079e2a96dbbf5c7fcf776494", "lat": 38.9394715, "is_reserved": 0, "fusion_lat": 0.0, "rental_uris": {"android": "https://dc.lft.to/lastmile_qr_scan", "ios": "https://dc.lft.to/lastmile_qr_scan"}, "fusion_lon": 0.0, "name": "176526f3079e2a96dbbf5c7fcf776494", "lon": -77.0724445, "is_disabled": 0, "type": "electric_scooter"}, {"bike_id": "400feb932c082d0604a71028c248450a", "lat": 38.88742466666667, "is_reserved": 0, "fusion_lat": 0.0, "rental_uris": {"android": "https://dc.lft.to/lastmile_qr_scan", "ios": "https://dc.lft.to/lastmile_qr_scan"}, "fusion_lon": 0.0, "name": "400feb932c082d0604a71028c248450a", "lon": -77.01728, "is_disabled": 0, "type": "electric_scooter"}, {"bike_id": "1999e932e25abe47bbb16f148ab23b54", "lat": 38.924920166666666, "is_reserved": 0, "fusion_lat": 0.0, "rental_uris": {"android": "https://dc.lft.to/lastmile_qr_scan", "ios": "https://dc.lft.to/lastmile_qr_scan"}, "fusion_lon": 0.0, "name": "1999e932e25abe47bbb16f148ab23b54", "lon": -77.037766, "is_disabled": 0, "type": "electric_scooter"}, {"bike_id": "a74bc0565eb94189a4ca64182ff74e29", "lat": 38.915593, "is_reserved": 0, "fusion_lat": 0.0, "rental_uris": {"android": "https://dc.lft.to/lastmile_qr_scan", "ios": "https://dc.lft.to/lastmile_qr_scan"}, "fusion_lon": 0.0, "name": "a74bc0565eb94189a4ca64182ff74e29", "lon": -77.03395116666667, "is_disabled": 0, "type": "electric_scooter"}, {"bike_id": "0e3af17ab4e3c447dc3677bce4709afe", "lat": 38.90368383333333, "is_reserved": 0, "fusion_lat": 0.0, "rental_uris": {"android": "https://dc.lft.to/lastmile_qr_scan", "ios": "https://dc.lft.to/lastmile_qr_scan"}, "fusion_lon": 0.0, "name": "0e3af17ab4e3c447dc3677bce4709afe", "lon": -77.04492966666666, "is_disabled": 0, "type": "electric_scooter"}, {"bike_id": "20567a844f50cb7a7a0b64d8d78f4a37", "lat": 38.919034, "is_reserved": 0, "fusion_lat": 0.0, "rental_uris": {"android": "https://dc.lft.to/lastmile_qr_scan", "ios": "https://dc.lft.to/lastmile_qr_scan"}, "fusion_lon": 0.0, "name": "20567a844f50cb7a7a0b64d8d78f4a37", "lon": -77.01968983333333, "is_disabled": 0, "type": "electric_scooter"}, {"bike_id": "2a62df6d3c5ca3fe96e59effa4b34aa4", "lat": 38.84638316666667, "is_reserved": 0, "fusion_lat": 0.0, "rental_uris": {"android": "https://dc.lft.to/lastmile_qr_scan", "ios": "https://dc.lft.to/lastmile_qr_scan"}, "fusion_lon": 0.0, "name": "2a62df6d3c5ca3fe96e59effa4b34aa4", "lon": -76.99132616666667, "is_disabled": 0, "type": "electric_scooter"}, {"bike_id": "dfe124939bf3879cecb280e56e060021", "lat": 38.901430500000004, "is_reserved": 0, "fusion_lat": 0.0, "rental_uris": {"android": "https://dc.lft.to/lastmile_qr_scan", "ios": "https://dc.lft.to/lastmile_qr_scan"}, "fusion_lon": 0.0, "name": "dfe124939bf3879cecb280e56e060021", "lon": -77.029401, "is_disabled": 0, "type": "electric_scooter"}, {"bike_id": "4e51e88eb358ad7ca54c3d5aff467cb3", "lat": 38.821703166666666, "is_reserved": 0, "fusion_lat": 0.0, "rental_uris": {"android": "https://dc.lft.to/lastmile_qr_scan", "ios": "https://dc.lft.to/lastmile_qr_scan"}, "fusion_lon": 0.0, "name": "4e51e88eb358ad7ca54c3d5aff467cb3", "lon": -76.99503383333334, "is_disabled": 0, "type": "electric_bike"}, {"bike_id": "d3f03832313e83ac1f8737292963e0d6", "lat": 38.89334933333333, "is_reserved": 0, "fusion_lat": 0.0, "rental_uris": {"android": "https://dc.lft.to/lastmile_qr_scan", "ios": "https://dc.lft.to/lastmile_qr_scan"}, "fusion_lon": 0.0, "name": "d3f03832313e83ac1f8737292963e0d6", "lon": -77.031787, "is_disabled": 0, "type": "electric_scooter"}, {"bike_id": "50bccc00a81e6ffa2a0577038028441b", "lat": 38.914668166666665, "is_reserved": 0, "fusion_lat": 0.0, "rental_uris": {"android": "https://dc.lft.to/lastmile_qr_scan", "ios": "https://dc.lft.to/lastmile_qr_scan"}, "fusion_lon": 0.0, "name": "50bccc00a81e6ffa2a0577038028441b", "lon": -76.98113216666667, "is_disabled": 0, "type": "electric_scooter"}, {"bike_id": "8811260f64e5cba2f7bdbf7bc67f8d91", "lat": 38.90010083333333, "is_reserved": 0, "fusion_lat": 0.0, "rental_uris": {"android": "https://dc.lft.to/lastmile_qr_scan", "ios": "https://dc.lft.to/lastmile_qr_scan"}, "fusion_lon": 0.0, "name": "8811260f64e5cba2f7bdbf7bc67f8d91", "lon": -76.9869995, "is_disabled": 0, "type": "electric_scooter"}, {"bike_id": "6856218e59c225a53bfa4ba2011bb4a5", "lat": 38.9184695, "is_reserved": 0, "fusion_lat": 0.0, "rental_uris": {"android": "https://dc.lft.to/lastmile_qr_scan", "ios": "https://dc.lft.to/lastmile_qr_scan"}, "fusion_lon": 0.0, "name": "6856218e59c225a53bfa4ba2011bb4a5", "lon": -77.039513, "is_disabled": 0, "type": "electric_scooter"}, {"bike_id": "337df9d14adfd1d1f3a2d6a695595858", "lat": 38.876869666666664, "is_reserved": 0, "fusion_lat": 0.0, "rental_uris": {"android": "https://dc.lft.to/lastmile_qr_scan", "ios": "https://dc.lft.to/lastmile_qr_scan"}, "fusion_lon": 0.0, "name": "337df9d14adfd1d1f3a2d6a695595858", "lon": -77.01760016666667, "is_disabled": 0, "type": "electric_scooter"}, {"bike_id": "bbb5df6dfd05aa577f8f5dfbf48f6dc4", "lat": 38.893571333333334, "is_reserved": 0, "fusion_lat": 0.0, "rental_uris": {"android": "https://dc.lft.to/lastmile_qr_scan", "ios": "https://dc.lft.to/lastmile_qr_scan"}, "fusion_lon": 0.0, "name": "bbb5df6dfd05aa577f8f5dfbf48f6dc4", "lon": -76.94937716666666, "is_disabled": 0, "type": "electric_scooter"}, {"bike_id": "fa07896f825399251228d564790f652b", "lat": 38.87463566666667, "is_reserved": 0, "fusion_lat": 0.0, "rental_uris": {"android": "https://dc.lft.to/lastmile_qr_scan", "ios": "https://dc.lft.to/lastmile_qr_scan"}, "fusion_lon": 0.0, "name": "fa07896f825399251228d564790f652b", "lon": -77.00942416666666, "is_disabled": 0, "type": "electric_scooter"}, {"bike_id": "7d28ea8b58e91617e0bb091e2222befb", "lat": 38.91566183333333, "is_reserved": 0, "fusion_lat": 0.0, "rental_uris": {"android": "https://dc.lft.to/lastmile_qr_scan", "ios": "https://dc.lft.to/lastmile_qr_scan"}, "fusion_lon": 0.0, "name": "7d28ea8b58e91617e0bb091e2222befb", "lon": -77.02006416666667, "is_disabled": 0, "type": "electric_scooter"}, {"bike_id": "1fb83140cd1db8c4b3ce77d805c8bff1", "lat": 38.922497166666666, "is_reserved": 0, "fusion_lat": 0.0, "rental_uris": {"android": "https://dc.lft.to/lastmile_qr_scan", "ios": "https://dc.lft.to/lastmile_qr_scan"}, "fusion_lon": 0.0, "name": "1fb83140cd1db8c4b3ce77d805c8bff1", "lon": -77.01953566666667, "is_disabled": 0, "type": "electric_scooter"}, {"bike_id": "583990ad85c06356aab4c2e4ce04d0b1", "lat": 38.920429666666664, "is_reserved": 0, "fusion_lat": 0.0, "rental_uris": {"android": "https://dc.lft.to/lastmile_qr_scan", "ios": "https://dc.lft.to/lastmile_qr_scan"}, "fusion_lon": 0.0, "name": "583990ad85c06356aab4c2e4ce04d0b1", "lon": -77.0245065, "is_disabled": 0, "type": "electric_scooter"}, {"bike_id": "ee92ea7fa15e6a66d489b5390f778272", "lat": 38.91407866666667, "is_reserved": 0, "fusion_lat": 0.0, "rental_uris": {"android": "https://dc.lft.to/lastmile_qr_scan", "ios": "https://dc.lft.to/lastmile_qr_scan"}, "fusion_lon": 0.0, "name": "ee92ea7fa15e6a66d489b5390f778272", "lon": -77.02121583333333, "is_disabled": 0, "type": "electric_scooter"}, {"bike_id": "88f757e79884dd91d9747fa2e62cf25f", "lat": 38.871730666666664, "is_reserved": 0, "fusion_lat": 0.0, "rental_uris": {"android": "https://dc.lft.to/lastmile_qr_scan", "ios": "https://dc.lft.to/lastmile_qr_scan"}, "fusion_lon": 0.0, "name": "88f757e79884dd91d9747fa2e62cf25f", "lon": -77.00681866666666, "is_disabled": 0, "type": "electric_scooter"}, {"bike_id": "53d8c96f187b9c6705a1ad38f6bb032f", "lat": 38.8460055, "is_reserved": 0, "fusion_lat": 0.0, "rental_uris": {"android": "https://dc.lft.to/lastmile_qr_scan", "ios": "https://dc.lft.to/lastmile_qr_scan"}, "fusion_lon": 0.0, "name": "53d8c96f187b9c6705a1ad38f6bb032f", "lon": -77.10862033333333, "is_disabled": 0, "type": "electric_bike"}, {"bike_id": "3bc1f69c9a516a4c2c0f8ff20bdbcbec", "lat": 38.9055555, "is_reserved": 0, "fusion_lat": 0.0, "rental_uris": {"android": "https://dc.lft.to/lastmile_qr_scan", "ios": "https://dc.lft.to/lastmile_qr_scan"}, "fusion_lon": 0.0, "name": "3bc1f69c9a516a4c2c0f8ff20bdbcbec", "lon": -77.0652135, "is_disabled": 0, "type": "electric_scooter"}, {"bike_id": "af7349e036ffb24d88804020befecddd", "lat": 38.8959875, "is_reserved": 0, "fusion_lat": 0.0, "rental_uris": {"android": "https://dc.lft.to/lastmile_qr_scan", "ios": "https://dc.lft.to/lastmile_qr_scan"}, "fusion_lon": 0.0, "name": "af7349e036ffb24d88804020befecddd", "lon": -77.006891, "is_disabled": 0, "type": "electric_scooter"}, {"bike_id": "43307577528d31184502527864a49d8a", "lat": 38.91533866666666, "is_reserved": 0, "fusion_lat": 0.0, "rental_uris": {"android": "https://dc.lft.to/lastmile_qr_scan", "ios": "https://dc.lft.to/lastmile_qr_scan"}, "fusion_lon": 0.0, "name": "43307577528d31184502527864a49d8a", "lon": -76.9835795, "is_disabled": 0, "type": "electric_scooter"}, {"bike_id": "fbfe83c5dfa0499651c52ec123e86f01", "lat": 38.8949775, "is_reserved": 0, "fusion_lat": 0.0, "rental_uris": {"android": "https://dc.lft.to/lastmile_qr_scan", "ios": "https://dc.lft.to/lastmile_qr_scan"}, "fusion_lon": 0.0, "name": "fbfe83c5dfa0499651c52ec123e86f01", "lon": -77.02284483333334, "is_disabled": 0, "type": "electric_scooter"}, {"bike_id": "6dea60e513ea2da7ff68df67215dfd02", "lat": 38.92045133333333, "is_reserved": 0, "fusion_lat": 0.0, "rental_uris": {"android": "https://dc.lft.to/lastmile_qr_scan", "ios": "https://dc.lft.to/lastmile_qr_scan"}, "fusion_lon": 0.0, "name": "6dea60e513ea2da7ff68df67215dfd02", "lon": -77.04190233333334, "is_disabled": 0, "type": "electric_scooter"}, {"bike_id": "ea2f8bf903df2372fb2f3be40e6683a6", "lat": 38.920386, "is_reserved": 0, "fusion_lat": 0.0, "rental_uris": {"android": "https://dc.lft.to/lastmile_qr_scan", "ios": "https://dc.lft.to/lastmile_qr_scan"}, "fusion_lon": 0.0, "name": "ea2f8bf903df2372fb2f3be40e6683a6", "lon": -77.08193716666666, "is_disabled": 0, "type": "electric_scooter"}, {"bike_id": "4b8f2d06761a773547f51ff4304de621", "lat": 38.90821916666667, "is_reserved": 0, "fusion_lat": 0.0, "rental_uris": {"android": "https://dc.lft.to/lastmile_qr_scan", "ios": "https://dc.lft.to/lastmile_qr_scan"}, "fusion_lon": 0.0, "name": "4b8f2d06761a773547f51ff4304de621", "lon": -77.032061, "is_disabled": 0, "type": "electric_scooter"}, {"bike_id": "f8807b014422689e81792fed6c4b9e17", "lat": 38.91691683333333, "is_reserved": 0, "fusion_lat": 0.0, "rental_uris": {"android": "https://dc.lft.to/lastmile_qr_scan", "ios": "https://dc.lft.to/lastmile_qr_scan"}, "fusion_lon": 0.0, "name": "f8807b014422689e81792fed6c4b9e17", "lon": -77.02599766666667, "is_disabled": 0, "type": "electric_scooter"}, {"bike_id": "79b861d520e66ab23c595dafd21cecde", "lat": 38.914098833333334, "is_reserved": 0, "fusion_lat": 0.0, "rental_uris": {"android": "https://dc.lft.to/lastmile_qr_scan", "ios": "https://dc.lft.to/lastmile_qr_scan"}, "fusion_lon": 0.0, "name": "79b861d520e66ab23c595dafd21cecde", "lon": -77.04076483333333, "is_disabled": 0, "type": "electric_scooter"}, {"bike_id": "7a483fa24a940a1853fb6a66b584a230", "lat": 38.92285566666666, "is_reserved": 0, "fusion_lat": 0.0, "rental_uris": {"android": "https://dc.lft.to/lastmile_qr_scan", "ios": "https://dc.lft.to/lastmile_qr_scan"}, "fusion_lon": 0.0, "name": "7a483fa24a940a1853fb6a66b584a230", "lon": -77.01958483333334, "is_disabled": 0, "type": "electric_scooter"}, {"bike_id": "72aeb015c604d64e1a39d6388a12b17b", "lat": 38.91331066666667, "is_reserved": 0, "fusion_lat": 0.0, "rental_uris": {"android": "https://dc.lft.to/lastmile_qr_scan", "ios": "https://dc.lft.to/lastmile_qr_scan"}, "fusion_lon": 0.0, "name": "72aeb015c604d64e1a39d6388a12b17b", "lon": -77.03188033333333, "is_disabled": 0, "type": "electric_scooter"}, {"bike_id": "67bceae1ca294b7112537d04b87faa93", "lat": 38.885211, "is_reserved": 0, "fusion_lat": 0.0, "rental_uris": {"android": "https://dc.lft.to/lastmile_qr_scan", "ios": "https://dc.lft.to/lastmile_qr_scan"}, "fusion_lon": 0.0, "name": "67bceae1ca294b7112537d04b87faa93", "lon": -76.97708616666667, "is_disabled": 0, "type": "electric_scooter"}, {"bike_id": "4ec34efad26e676b87c153914654050b", "lat": 38.964009, "is_reserved": 0, "fusion_lat": 0.0, "rental_uris": {"android": "https://dc.lft.to/lastmile_qr_scan", "ios": "https://dc.lft.to/lastmile_qr_scan"}, "fusion_lon": 0.0, "name": "4ec34efad26e676b87c153914654050b", "lon": -76.999958, "is_disabled": 0, "type": "electric_bike"}, {"bike_id": "b83db5a56ab2843af387f4d94c34a9b8", "lat": 38.917118, "is_reserved": 0, "fusion_lat": 0.0, "rental_uris": {"android": "https://dc.lft.to/lastmile_qr_scan", "ios": "https://dc.lft.to/lastmile_qr_scan"}, "fusion_lon": 0.0, "name": "b83db5a56ab2843af387f4d94c34a9b8", "lon": -77.038799, "is_disabled": 0, "type": "electric_scooter"}, {"bike_id": "3d9bb8b736fc5eb3fbff874a34fb87e4", "lat": 38.918159333333335, "is_reserved": 0, "fusion_lat": 0.0, "rental_uris": {"android": "https://dc.lft.to/lastmile_qr_scan", "ios": "https://dc.lft.to/lastmile_qr_scan"}, "fusion_lon": 0.0, "name": "3d9bb8b736fc5eb3fbff874a34fb87e4", "lon": -77.0400185, "is_disabled": 0, "type": "electric_scooter"}, {"bike_id": "fa80f611080eb22e0d288d2ea041e101", "lat": 38.905037666666665, "is_reserved": 0, "fusion_lat": 0.0, "rental_uris": {"android": "https://dc.lft.to/lastmile_qr_scan", "ios": "https://dc.lft.to/lastmile_qr_scan"}, "fusion_lon": 0.0, "name": "fa80f611080eb22e0d288d2ea041e101", "lon": -77.04347283333334, "is_disabled": 0, "type": "electric_scooter"}, {"bike_id": "76ce167b3b539ccb862e08b1a7948bc3", "lat": 38.89223233333333, "is_reserved": 0, "fusion_lat": 0.0, "rental_uris": {"android": "https://dc.lft.to/lastmile_qr_scan", "ios": "https://dc.lft.to/lastmile_qr_scan"}, "fusion_lon": 0.0, "name": "76ce167b3b539ccb862e08b1a7948bc3", "lon": -77.0330905, "is_disabled": 0, "type": "electric_bike"}, {"bike_id": "2d0e62822e08c98f2677f264cf1529dd", "lat": 38.9297775, "is_reserved": 0, "fusion_lat": 0.0, "rental_uris": {"android": "https://dc.lft.to/lastmile_qr_scan", "ios": "https://dc.lft.to/lastmile_qr_scan"}, "fusion_lon": 0.0, "name": "2d0e62822e08c98f2677f264cf1529dd", "lon": -77.03268616666666, "is_disabled": 0, "type": "electric_scooter"}, {"bike_id": "9d790a31baa34568f9feae74cda9011b", "lat": 38.90415316666667, "is_reserved": 0, "fusion_lat": 0.0, "rental_uris": {"android": "https://dc.lft.to/lastmile_qr_scan", "ios": "https://dc.lft.to/lastmile_qr_scan"}, "fusion_lon": 0.0, "name": "9d790a31baa34568f9feae74cda9011b", "lon": -77.04868866666666, "is_disabled": 0, "type": "electric_scooter"}, {"bike_id": "5740cc74cc0e5fd451e09c0c6d696a11", "lat": 38.90747483333333, "is_reserved": 0, "fusion_lat": 0.0, "rental_uris": {"android": "https://dc.lft.to/lastmile_qr_scan", "ios": "https://dc.lft.to/lastmile_qr_scan"}, "fusion_lon": 0.0, "name": "5740cc74cc0e5fd451e09c0c6d696a11", "lon": -77.00262616666667, "is_disabled": 0, "type": "electric_scooter"}, {"bike_id": "e353e4721a239b9b11157778e84e1257", "lat": 38.92424116666667, "is_reserved": 0, "fusion_lat": 0.0, "rental_uris": {"android": "https://dc.lft.to/lastmile_qr_scan", "ios": "https://dc.lft.to/lastmile_qr_scan"}, "fusion_lon": 0.0, "name": "e353e4721a239b9b11157778e84e1257", "lon": -77.051805, "is_disabled": 0, "type": "electric_scooter"}, {"bike_id": "f77e6cceb8d769e42353395a26998297", "lat": 38.8848505, "is_reserved": 0, "fusion_lat": 0.0, "rental_uris": {"android": "https://dc.lft.to/lastmile_qr_scan", "ios": "https://dc.lft.to/lastmile_qr_scan"}, "fusion_lon": 0.0, "name": "f77e6cceb8d769e42353395a26998297", "lon": -77.03479533333334, "is_disabled": 0, "type": "electric_scooter"}, {"bike_id": "69d0d93e01c5540f3b0de24bbcf6608a", "lat": 38.90267733333334, "is_reserved": 0, "fusion_lat": 0.0, "rental_uris": {"android": "https://dc.lft.to/lastmile_qr_scan", "ios": "https://dc.lft.to/lastmile_qr_scan"}, "fusion_lon": 0.0, "name": "69d0d93e01c5540f3b0de24bbcf6608a", "lon": -77.01760433333334, "is_disabled": 0, "type": "electric_scooter"}, {"bike_id": "5955d18ae5e379fdf5e747602759e798", "lat": 38.919836, "is_reserved": 0, "fusion_lat": 0.0, "rental_uris": {"android": "https://dc.lft.to/lastmile_qr_scan", "ios": "https://dc.lft.to/lastmile_qr_scan"}, "fusion_lon": 0.0, "name": "5955d18ae5e379fdf5e747602759e798", "lon": -77.0179115, "is_disabled": 0, "type": "electric_scooter"}, {"bike_id": "f71675e2df49e5a0a9efe2e1882d4604", "lat": 38.927189, "is_reserved": 0, "fusion_lat": 0.0, "rental_uris": {"android": "https://dc.lft.to/lastmile_qr_scan", "ios": "https://dc.lft.to/lastmile_qr_scan"}, "fusion_lon": 0.0, "name": "f71675e2df49e5a0a9efe2e1882d4604", "lon": -77.020833, "is_disabled": 0, "type": "electric_scooter"}, {"bike_id": "d92900c05544231a72a01030d014ba40", "lat": 38.92224066666667, "is_reserved": 0, "fusion_lat": 0.0, "rental_uris": {"android": "https://dc.lft.to/lastmile_qr_scan", "ios": "https://dc.lft.to/lastmile_qr_scan"}, "fusion_lon": 0.0, "name": "d92900c05544231a72a01030d014ba40", "lon": -77.038882, "is_disabled": 0, "type": "electric_scooter"}, {"bike_id": "3baade0a3f93c2cca16eeb42eca6b6fe", "lat": 38.9250555, "is_reserved": 0, "fusion_lat": 0.0, "rental_uris": {"android": "https://dc.lft.to/lastmile_qr_scan", "ios": "https://dc.lft.to/lastmile_qr_scan"}, "fusion_lon": 0.0, "name": "3baade0a3f93c2cca16eeb42eca6b6fe", "lon": -77.02331083333333, "is_disabled": 0, "type": "electric_scooter"}, {"bike_id": "da74fc1b0b684a7f483dbc4c54941e46", "lat": 38.932293, "is_reserved": 0, "fusion_lat": 0.0, "rental_uris": {"android": "https://dc.lft.to/lastmile_qr_scan", "ios": "https://dc.lft.to/lastmile_qr_scan"}, "fusion_lon": 0.0, "name": "da74fc1b0b684a7f483dbc4c54941e46", "lon": -77.03874533333334, "is_disabled": 0, "type": "electric_scooter"}, {"bike_id": "a70d4b485579c916ba9931ea56798ec8", "lat": 38.933429833333335, "is_reserved": 0, "fusion_lat": 0.0, "rental_uris": {"android": "https://dc.lft.to/lastmile_qr_scan", "ios": "https://dc.lft.to/lastmile_qr_scan"}, "fusion_lon": 0.0, "name": "a70d4b485579c916ba9931ea56798ec8", "lon": -77.06206033333333, "is_disabled": 0, "type": "electric_scooter"}, {"bike_id": "c2c078d82847bf7ba2c8c9aa869b9abb", "lat": 38.9003555, "is_reserved": 0, "fusion_lat": 0.0, "rental_uris": {"android": "https://dc.lft.to/lastmile_qr_scan", "ios": "https://dc.lft.to/lastmile_qr_scan"}, "fusion_lon": 0.0, "name": "c2c078d82847bf7ba2c8c9aa869b9abb", "lon": -77.011803, "is_disabled": 0, "type": "electric_scooter"}, {"bike_id": "6ee1bc21a26de5ff418f8d562f0ea9f0", "lat": 38.922701, "is_reserved": 0, "fusion_lat": 0.0, "rental_uris": {"android": "https://dc.lft.to/lastmile_qr_scan", "ios": "https://dc.lft.to/lastmile_qr_scan"}, "fusion_lon": 0.0, "name": "6ee1bc21a26de5ff418f8d562f0ea9f0", "lon": -77.03679266666667, "is_disabled": 0, "type": "electric_scooter"}, {"bike_id": "6472d6d30e699e922473c43e6f62b8c9", "lat": 38.866845166666664, "is_reserved": 0, "fusion_lat": 0.0, "rental_uris": {"android": "https://dc.lft.to/lastmile_qr_scan", "ios": "https://dc.lft.to/lastmile_qr_scan"}, "fusion_lon": 0.0, "name": "6472d6d30e699e922473c43e6f62b8c9", "lon": -76.98579866666667, "is_disabled": 0, "type": "electric_scooter"}, {"bike_id": "54361f356ee2cc39e83f279ababcb15c", "lat": 38.90075183333333, "is_reserved": 0, "fusion_lat": 0.0, "rental_uris": {"android": "https://dc.lft.to/lastmile_qr_scan", "ios": "https://dc.lft.to/lastmile_qr_scan"}, "fusion_lon": 0.0, "name": "54361f356ee2cc39e83f279ababcb15c", "lon": -77.0273635, "is_disabled": 0, "type": "electric_scooter"}, {"bike_id": "59d0cc3cd1484477e058e27edcf2feea", "lat": 38.866791666666664, "is_reserved": 0, "fusion_lat": 0.0, "rental_uris": {"android": "https://dc.lft.to/lastmile_qr_scan", "ios": "https://dc.lft.to/lastmile_qr_scan"}, "fusion_lon": 0.0, "name": "59d0cc3cd1484477e058e27edcf2feea", "lon": -76.98573283333333, "is_disabled": 0, "type": "electric_scooter"}, {"bike_id": "9addac98bcec6323ac6c0cd823fb19b9", "lat": 38.871712, "is_reserved": 0, "fusion_lat": 0.0, "rental_uris": {"android": "https://dc.lft.to/lastmile_qr_scan", "ios": "https://dc.lft.to/lastmile_qr_scan"}, "fusion_lon": 0.0, "name": "9addac98bcec6323ac6c0cd823fb19b9", "lon": -77.00683966666666, "is_disabled": 0, "type": "electric_scooter"}, {"bike_id": "09b23d9698d0c5b3658778c318046736", "lat": 38.907872, "is_reserved": 0, "fusion_lat": 0.0, "rental_uris": {"android": "https://dc.lft.to/lastmile_qr_scan", "ios": "https://dc.lft.to/lastmile_qr_scan"}, "fusion_lon": 0.0, "name": "09b23d9698d0c5b3658778c318046736", "lon": -77.032005, "is_disabled": 0, "type": "electric_scooter"}, {"bike_id": "9a64bce9acbde57af82ead8b6b2b68b8", "lat": 38.916927333333334, "is_reserved": 0, "fusion_lat": 0.0, "rental_uris": {"android": "https://dc.lft.to/lastmile_qr_scan", "ios": "https://dc.lft.to/lastmile_qr_scan"}, "fusion_lon": 0.0, "name": "9a64bce9acbde57af82ead8b6b2b68b8", "lon": -77.0408715, "is_disabled": 0, "type": "electric_scooter"}, {"bike_id": "4e54ef0aa6adb03fe91e6ff7d26b33ce", "lat": 38.914190166666664, "is_reserved": 0, "fusion_lat": 0.0, "rental_uris": {"android": "https://dc.lft.to/lastmile_qr_scan", "ios": "https://dc.lft.to/lastmile_qr_scan"}, "fusion_lon": 0.0, "name": "4e54ef0aa6adb03fe91e6ff7d26b33ce", "lon": -77.024119, "is_disabled": 0, "type": "electric_scooter"}, {"bike_id": "3b31196e0c9532b26150fdf5b7e7b791", "lat": 38.90226166666667, "is_reserved": 0, "fusion_lat": 0.0, "rental_uris": {"android": "https://dc.lft.to/lastmile_qr_scan", "ios": "https://dc.lft.to/lastmile_qr_scan"}, "fusion_lon": 0.0, "name": "3b31196e0c9532b26150fdf5b7e7b791", "lon": -77.03180566666667, "is_disabled": 0, "type": "electric_scooter"}, {"bike_id": "0425999e20f004c7f1e2469a92e66e0a", "lat": 38.90406616666667, "is_reserved": 0, "fusion_lat": 0.0, "rental_uris": {"android": "https://dc.lft.to/lastmile_qr_scan", "ios": "https://dc.lft.to/lastmile_qr_scan"}, "fusion_lon": 0.0, "name": "0425999e20f004c7f1e2469a92e66e0a", "lon": -76.97329733333333, "is_disabled": 0, "type": "electric_scooter"}, {"bike_id": "bfe357d438e5da54170943120e824fa4", "lat": 38.9103235, "is_reserved": 0, "fusion_lat": 0.0, "rental_uris": {"android": "https://dc.lft.to/lastmile_qr_scan", "ios": "https://dc.lft.to/lastmile_qr_scan"}, "fusion_lon": 0.0, "name": "bfe357d438e5da54170943120e824fa4", "lon": -76.98556166666667, "is_disabled": 0, "type": "electric_scooter"}, {"bike_id": "e2789f88e447478a3f560e85ee2b5d22", "lat": 38.90188966666667, "is_reserved": 0, "fusion_lat": 0.0, "rental_uris": {"android": "https://dc.lft.to/lastmile_qr_scan", "ios": "https://dc.lft.to/lastmile_qr_scan"}, "fusion_lon": 0.0, "name": "e2789f88e447478a3f560e85ee2b5d22", "lon": -77.01300233333333, "is_disabled": 0, "type": "electric_scooter"}, {"bike_id": "fd0dba7e58a82f893c52148e8dd78f85", "lat": 38.89981866666667, "is_reserved": 0, "fusion_lat": 0.0, "rental_uris": {"android": "https://dc.lft.to/lastmile_qr_scan", "ios": "https://dc.lft.to/lastmile_qr_scan"}, "fusion_lon": 0.0, "name": "fd0dba7e58a82f893c52148e8dd78f85", "lon": -77.0224165, "is_disabled": 0, "type": "electric_scooter"}, {"bike_id": "895450baf85dd68339f109eb1aa8fb1b", "lat": 38.90015833333333, "is_reserved": 0, "fusion_lat": 0.0, "rental_uris": {"android": "https://dc.lft.to/lastmile_qr_scan", "ios": "https://dc.lft.to/lastmile_qr_scan"}, "fusion_lon": 0.0, "name": "895450baf85dd68339f109eb1aa8fb1b", "lon": -77.04861566666666, "is_disabled": 0, "type": "electric_scooter"}, {"bike_id": "73e9daf6ac052780354640b6c447ca79", "lat": 38.91420316666667, "is_reserved": 0, "fusion_lat": 0.0, "rental_uris": {"android": "https://dc.lft.to/lastmile_qr_scan", "ios": "https://dc.lft.to/lastmile_qr_scan"}, "fusion_lon": 0.0, "name": "73e9daf6ac052780354640b6c447ca79", "lon": -77.02213433333333, "is_disabled": 0, "type": "electric_scooter"}, {"bike_id": "70ab43a99991788f893abb2f11c6a555", "lat": 38.947341, "is_reserved": 0, "fusion_lat": 0.0, "rental_uris": {"android": "https://dc.lft.to/lastmile_qr_scan", "ios": "https://dc.lft.to/lastmile_qr_scan"}, "fusion_lon": 0.0, "name": "70ab43a99991788f893abb2f11c6a555", "lon": -76.9958595, "is_disabled": 0, "type": "electric_bike"}, {"bike_id": "bad38d4500feafb632959351ff3b3b74", "lat": 38.86653316666667, "is_reserved": 0, "fusion_lat": 0.0, "rental_uris": {"android": "https://dc.lft.to/lastmile_qr_scan", "ios": "https://dc.lft.to/lastmile_qr_scan"}, "fusion_lon": 0.0, "name": "bad38d4500feafb632959351ff3b3b74", "lon": -76.98868416666667, "is_disabled": 0, "type": "electric_scooter"}, {"bike_id": "0a1e29715de276f92f07d052b3a71b91", "lat": 38.91503066666667, "is_reserved": 0, "fusion_lat": 0.0, "rental_uris": {"android": "https://dc.lft.to/lastmile_qr_scan", "ios": "https://dc.lft.to/lastmile_qr_scan"}, "fusion_lon": 0.0, "name": "0a1e29715de276f92f07d052b3a71b91", "lon": -77.01781933333334, "is_disabled": 0, "type": "electric_scooter"}, {"bike_id": "80ebcf191553998e7d6db45060faa2a5", "lat": 38.9055315, "is_reserved": 0, "fusion_lat": 0.0, "rental_uris": {"android": "https://dc.lft.to/lastmile_qr_scan", "ios": "https://dc.lft.to/lastmile_qr_scan"}, "fusion_lon": 0.0, "name": "80ebcf191553998e7d6db45060faa2a5", "lon": -77.02831033333334, "is_disabled": 0, "type": "electric_scooter"}, {"bike_id": "3a3429e364e21bfb3368d2a19de26111", "lat": 38.900694, "is_reserved": 0, "fusion_lat": 0.0, "rental_uris": {"android": "https://dc.lft.to/lastmile_qr_scan", "ios": "https://dc.lft.to/lastmile_qr_scan"}, "fusion_lon": 0.0, "name": "3a3429e364e21bfb3368d2a19de26111", "lon": -77.048882, "is_disabled": 0, "type": "electric_scooter"}, {"bike_id": "8ed63d6d44f0dd32dfa861886f40c86f", "lat": 38.92166233333333, "is_reserved": 0, "fusion_lat": 0.0, "rental_uris": {"android": "https://dc.lft.to/lastmile_qr_scan", "ios": "https://dc.lft.to/lastmile_qr_scan"}, "fusion_lon": 0.0, "name": "8ed63d6d44f0dd32dfa861886f40c86f", "lon": -77.03341783333333, "is_disabled": 0, "type": "electric_scooter"}, {"bike_id": "646fe82af401e1319a0a35eb5e8a20c2", "lat": 38.89339016666667, "is_reserved": 0, "fusion_lat": 0.0, "rental_uris": {"android": "https://dc.lft.to/lastmile_qr_scan", "ios": "https://dc.lft.to/lastmile_qr_scan"}, "fusion_lon": 0.0, "name": "646fe82af401e1319a0a35eb5e8a20c2", "lon": -77.03186616666666, "is_disabled": 0, "type": "electric_scooter"}, {"bike_id": "f44989b2750610c5dc726745ee5504a3", "lat": 38.91686966666666, "is_reserved": 0, "fusion_lat": 0.0, "rental_uris": {"android": "https://dc.lft.to/lastmile_qr_scan", "ios": "https://dc.lft.to/lastmile_qr_scan"}, "fusion_lon": 0.0, "name": "f44989b2750610c5dc726745ee5504a3", "lon": -77.03762283333333, "is_disabled": 0, "type": "electric_scooter"}, {"bike_id": "db9deb5c380a6e80edbec49dd5083c14", "lat": 38.920275333333336, "is_reserved": 0, "fusion_lat": 0.0, "rental_uris": {"android": "https://dc.lft.to/lastmile_qr_scan", "ios": "https://dc.lft.to/lastmile_qr_scan"}, "fusion_lon": 0.0, "name": "db9deb5c380a6e80edbec49dd5083c14", "lon": -77.03128733333334, "is_disabled": 0, "type": "electric_scooter"}, {"bike_id": "61940e2c6f624d9c95247f23f07ff705", "lat": 38.8922065, "is_reserved": 0, "fusion_lat": 0.0, "rental_uris": {"android": "https://dc.lft.to/lastmile_qr_scan", "ios": "https://dc.lft.to/lastmile_qr_scan"}, "fusion_lon": 0.0, "name": "61940e2c6f624d9c95247f23f07ff705", "lon": -77.0401, "is_disabled": 0, "type": "electric_scooter"}, {"bike_id": "e3b572049ce2cbab42fdc652b3a41667", "lat": 38.903422, "is_reserved": 0, "fusion_lat": 0.0, "rental_uris": {"android": "https://dc.lft.to/lastmile_qr_scan", "ios": "https://dc.lft.to/lastmile_qr_scan"}, "fusion_lon": 0.0, "name": "e3b572049ce2cbab42fdc652b3a41667", "lon": -77.03861483333333, "is_disabled": 0, "type": "electric_scooter"}, {"bike_id": "90fccf8f722aa380dcf5d205fc7ce7b9", "lat": 38.94792866666667, "is_reserved": 0, "fusion_lat": 0.0, "rental_uris": {"android": "https://dc.lft.to/lastmile_qr_scan", "ios": "https://dc.lft.to/lastmile_qr_scan"}, "fusion_lon": 0.0, "name": "90fccf8f722aa380dcf5d205fc7ce7b9", "lon": -77.021471, "is_disabled": 0, "type": "electric_scooter"}, {"bike_id": "0bc594011e6a8d90dbb86fa444677b59", "lat": 38.929366, "is_reserved": 0, "fusion_lat": 0.0, "rental_uris": {"android": "https://dc.lft.to/lastmile_qr_scan", "ios": "https://dc.lft.to/lastmile_qr_scan"}, "fusion_lon": 0.0, "name": "0bc594011e6a8d90dbb86fa444677b59", "lon": -77.03252466666666, "is_disabled": 0, "type": "electric_scooter"}, {"bike_id": "555f8533a4cce980f74c0f852ae75b55", "lat": 38.897502333333335, "is_reserved": 0, "fusion_lat": 0.0, "rental_uris": {"android": "https://dc.lft.to/lastmile_qr_scan", "ios": "https://dc.lft.to/lastmile_qr_scan"}, "fusion_lon": 0.0, "name": "555f8533a4cce980f74c0f852ae75b55", "lon": -77.0304435, "is_disabled": 0, "type": "electric_scooter"}, {"bike_id": "c4e5dc07cc1d3f78c10af061f2e944c1", "lat": 38.90173433333333, "is_reserved": 0, "fusion_lat": 0.0, "rental_uris": {"android": "https://dc.lft.to/lastmile_qr_scan", "ios": "https://dc.lft.to/lastmile_qr_scan"}, "fusion_lon": 0.0, "name": "c4e5dc07cc1d3f78c10af061f2e944c1", "lon": -77.02957783333333, "is_disabled": 0, "type": "electric_scooter"}, {"bike_id": "acf6ae5681a055b1bf7d8b6b85769e5f", "lat": 38.9204175, "is_reserved": 0, "fusion_lat": 0.0, "rental_uris": {"android": "https://dc.lft.to/lastmile_qr_scan", "ios": "https://dc.lft.to/lastmile_qr_scan"}, "fusion_lon": 0.0, "name": "acf6ae5681a055b1bf7d8b6b85769e5f", "lon": -77.0714265, "is_disabled": 0, "type": "electric_scooter"}, {"bike_id": "a33cf47b9ea9013599f9b8b551465f0d", "lat": 38.91670083333333, "is_reserved": 0, "fusion_lat": 0.0, "rental_uris": {"android": "https://dc.lft.to/lastmile_qr_scan", "ios": "https://dc.lft.to/lastmile_qr_scan"}, "fusion_lon": 0.0, "name": "a33cf47b9ea9013599f9b8b551465f0d", "lon": -77.02318983333333, "is_disabled": 0, "type": "electric_scooter"}, {"bike_id": "28c233b2c0ff1e33590a8fa767207def", "lat": 38.90024983333333, "is_reserved": 0, "fusion_lat": 0.0, "rental_uris": {"android": "https://dc.lft.to/lastmile_qr_scan", "ios": "https://dc.lft.to/lastmile_qr_scan"}, "fusion_lon": 0.0, "name": "28c233b2c0ff1e33590a8fa767207def", "lon": -76.998586, "is_disabled": 0, "type": "electric_scooter"}, {"bike_id": "e5bc79785073fbf4c80457e8c3d8101e", "lat": 38.8452695, "is_reserved": 0, "fusion_lat": 0.0, "rental_uris": {"android": "https://dc.lft.to/lastmile_qr_scan", "ios": "https://dc.lft.to/lastmile_qr_scan"}, "fusion_lon": 0.0, "name": "e5bc79785073fbf4c80457e8c3d8101e", "lon": -76.97401283333333, "is_disabled": 0, "type": "electric_bike"}, {"bike_id": "f01aa40bf43adb8d9ad4028ce7a3907a", "lat": 38.926236, "is_reserved": 0, "fusion_lat": 0.0, "rental_uris": {"android": "https://dc.lft.to/lastmile_qr_scan", "ios": "https://dc.lft.to/lastmile_qr_scan"}, "fusion_lon": 0.0, "name": "f01aa40bf43adb8d9ad4028ce7a3907a", "lon": -77.03786966666667, "is_disabled": 0, "type": "electric_scooter"}, {"bike_id": "0568446f5a6ea194029721c890f618bd", "lat": 38.892422333333336, "is_reserved": 0, "fusion_lat": 0.0, "rental_uris": {"android": "https://dc.lft.to/lastmile_qr_scan", "ios": "https://dc.lft.to/lastmile_qr_scan"}, "fusion_lon": 0.0, "name": "0568446f5a6ea194029721c890f618bd", "lon": -77.03959333333333, "is_disabled": 0, "type": "electric_scooter"}, {"bike_id": "4246469c86049811d3b197e114af54ff", "lat": 38.878146, "is_reserved": 0, "fusion_lat": 0.0, "rental_uris": {"android": "https://dc.lft.to/lastmile_qr_scan", "ios": "https://dc.lft.to/lastmile_qr_scan"}, "fusion_lon": 0.0, "name": "4246469c86049811d3b197e114af54ff", "lon": -76.9717315, "is_disabled": 0, "type": "electric_scooter"}, {"bike_id": "127b6f7d0a4d396e46df8ad1da830b09", "lat": 38.915639, "is_reserved": 0, "fusion_lat": 0.0, "rental_uris": {"android": "https://dc.lft.to/lastmile_qr_scan", "ios": "https://dc.lft.to/lastmile_qr_scan"}, "fusion_lon": 0.0, "name": "127b6f7d0a4d396e46df8ad1da830b09", "lon": -77.0314435, "is_disabled": 0, "type": "electric_scooter"}, {"bike_id": "b833e42dd77510ee6b1d20033b370c11", "lat": 38.90774666666667, "is_reserved": 0, "fusion_lat": 0.0, "rental_uris": {"android": "https://dc.lft.to/lastmile_qr_scan", "ios": "https://dc.lft.to/lastmile_qr_scan"}, "fusion_lon": 0.0, "name": "b833e42dd77510ee6b1d20033b370c11", "lon": -77.00584366666666, "is_disabled": 0, "type": "electric_bike"}, {"bike_id": "7b927d4e2a8b6d1691f7fabdc74bfc2e", "lat": 38.88312716666667, "is_reserved": 0, "fusion_lat": 0.0, "rental_uris": {"android": "https://dc.lft.to/lastmile_qr_scan", "ios": "https://dc.lft.to/lastmile_qr_scan"}, "fusion_lon": 0.0, "name": "7b927d4e2a8b6d1691f7fabdc74bfc2e", "lon": -77.0034385, "is_disabled": 0, "type": "electric_scooter"}, {"bike_id": "ba8c52a283325548ffa29d031e43ad6a", "lat": 38.85894233333333, "is_reserved": 0, "fusion_lat": 0.0, "rental_uris": {"android": "https://dc.lft.to/lastmile_qr_scan", "ios": "https://dc.lft.to/lastmile_qr_scan"}, "fusion_lon": 0.0, "name": "ba8c52a283325548ffa29d031e43ad6a", "lon": -76.9972885, "is_disabled": 0, "type": "electric_scooter"}, {"bike_id": "038bf416724d526f16352ff20849a5f1", "lat": 38.884984833333334, "is_reserved": 0, "fusion_lat": 0.0, "rental_uris": {"android": "https://dc.lft.to/lastmile_qr_scan", "ios": "https://dc.lft.to/lastmile_qr_scan"}, "fusion_lon": 0.0, "name": "038bf416724d526f16352ff20849a5f1", "lon": -77.007305, "is_disabled": 0, "type": "electric_scooter"}, {"bike_id": "26f9dea1921bf158577b5424664426e2", "lat": 38.908929666666666, "is_reserved": 0, "fusion_lat": 0.0, "rental_uris": {"android": "https://dc.lft.to/lastmile_qr_scan", "ios": "https://dc.lft.to/lastmile_qr_scan"}, "fusion_lon": 0.0, "name": "26f9dea1921bf158577b5424664426e2", "lon": -77.03207833333333, "is_disabled": 0, "type": "electric_scooter"}, {"bike_id": "11ed5a41d425434e58ae6f6e88e51205", "lat": 38.916719666666665, "is_reserved": 0, "fusion_lat": 0.0, "rental_uris": {"android": "https://dc.lft.to/lastmile_qr_scan", "ios": "https://dc.lft.to/lastmile_qr_scan"}, "fusion_lon": 0.0, "name": "11ed5a41d425434e58ae6f6e88e51205", "lon": -76.98182066666666, "is_disabled": 0, "type": "electric_scooter"}, {"bike_id": "0a044e99086040927575d1a3676a557b", "lat": 38.99095833333333, "is_reserved": 0, "fusion_lat": 0.0, "rental_uris": {"android": "https://dc.lft.to/lastmile_qr_scan", "ios": "https://dc.lft.to/lastmile_qr_scan"}, "fusion_lon": 0.0, "name": "0a044e99086040927575d1a3676a557b", "lon": -76.9936185, "is_disabled": 0, "type": "electric_bike"}, {"bike_id": "e0a8d68628be47ee26e4b6acdbb01a7d", "lat": 38.89245116666667, "is_reserved": 0, "fusion_lat": 0.0, "rental_uris": {"android": "https://dc.lft.to/lastmile_qr_scan", "ios": "https://dc.lft.to/lastmile_qr_scan"}, "fusion_lon": 0.0, "name": "e0a8d68628be47ee26e4b6acdbb01a7d", "lon": -77.04502266666667, "is_disabled": 0, "type": "electric_scooter"}, {"bike_id": "be31953d562b616db203a386741e64b4", "lat": 38.9074285, "is_reserved": 0, "fusion_lat": 0.0, "rental_uris": {"android": "https://dc.lft.to/lastmile_qr_scan", "ios": "https://dc.lft.to/lastmile_qr_scan"}, "fusion_lon": 0.0, "name": "be31953d562b616db203a386741e64b4", "lon": -77.00245183333334, "is_disabled": 0, "type": "electric_scooter"}, {"bike_id": "f89092f5ed73936a4ec03bd1f68a8584", "lat": 38.91282316666667, "is_reserved": 0, "fusion_lat": 0.0, "rental_uris": {"android": "https://dc.lft.to/lastmile_qr_scan", "ios": "https://dc.lft.to/lastmile_qr_scan"}, "fusion_lon": 0.0, "name": "f89092f5ed73936a4ec03bd1f68a8584", "lon": -77.06115766666667, "is_disabled": 0, "type": "electric_scooter"}, {"bike_id": "ef520deab278bd55e63dbc1590405857", "lat": 38.904067166666664, "is_reserved": 0, "fusion_lat": 0.0, "rental_uris": {"android": "https://dc.lft.to/lastmile_qr_scan", "ios": "https://dc.lft.to/lastmile_qr_scan"}, "fusion_lon": 0.0, "name": "ef520deab278bd55e63dbc1590405857", "lon": -77.0385435, "is_disabled": 0, "type": "electric_scooter"}, {"bike_id": "b6062d73d5e41061356b2f184d52975a", "lat": 38.919237833333334, "is_reserved": 0, "fusion_lat": 0.0, "rental_uris": {"android": "https://dc.lft.to/lastmile_qr_scan", "ios": "https://dc.lft.to/lastmile_qr_scan"}, "fusion_lon": 0.0, "name": "b6062d73d5e41061356b2f184d52975a", "lon": -77.03189616666667, "is_disabled": 0, "type": "electric_scooter"}, {"bike_id": "4983a0ebf43b6d105a4b2445fd862607", "lat": 38.883531166666664, "is_reserved": 0, "fusion_lat": 0.0, "rental_uris": {"android": "https://dc.lft.to/lastmile_qr_scan", "ios": "https://dc.lft.to/lastmile_qr_scan"}, "fusion_lon": 0.0, "name": "4983a0ebf43b6d105a4b2445fd862607", "lon": -76.99490566666667, "is_disabled": 0, "type": "electric_bike"}, {"bike_id": "4dc383c13e05cb883566225ee7b713f3", "lat": 38.9061005, "is_reserved": 0, "fusion_lat": 0.0, "rental_uris": {"android": "https://dc.lft.to/lastmile_qr_scan", "ios": "https://dc.lft.to/lastmile_qr_scan"},