{"data": {"bikes": [{"name": "8e8825529fa765c1a66fe45daf2b7238", "fusion_lat": 0.0, "type": "electric_scooter", "lat": 38.90674416666667, "is_reserved": 0, "is_disabled": 0, "fusion_lon": 0.0, "bike_id": "8e8825529fa765c1a66fe45daf2b7238", "lon": -77.027063, "rental_uris": {"ios": "https://dc.lft.to/lastmile_qr_scan", "android": "https://dc.lft.to/lastmile_qr_scan"}}, {"name": "0b57470111e45726cc65bd1a801a2fce", "fusion_lat": 0.0, "type": "electric_scooter", "lat": 38.9129865, "is_reserved": 0, "is_disabled": 0, "fusion_lon": 0.0, "bike_id": "0b57470111e45726cc65bd1a801a2fce", "lon": -77.0203105, "rental_uris": {"ios": "https://dc.lft.to/lastmile_qr_scan", "android": "https://dc.lft.to/lastmile_qr_scan"}}, {"name": "947821bd9af5cf061a90a633f3052262", "fusion_lat": 0.0, "type": "electric_scooter", "lat": 38.91567633333333, "is_reserved": 0, "is_disabled": 0, "fusion_lon": 0.0, "bike_id": "947821bd9af5cf061a90a633f3052262", "lon": -77.01202083333334, "rental_uris": {"ios": "https://dc.lft.to/lastmile_qr_scan", "android": "https://dc.lft.to/lastmile_qr_scan"}}, {"name": "e260bbbc058ce5af92efa291003ad855", "fusion_lat": 0.0, "type": "electric_scooter", "lat": 38.86657683333333, "is_reserved": 0, "is_disabled": 0, "fusion_lon": 0.0, "bike_id": "e260bbbc058ce5af92efa291003ad855", "lon": -76.98885133333333, "rental_uris": {"ios": "https://dc.lft.to/lastmile_qr_scan", "android": "https://dc.lft.to/lastmile_qr_scan"}}, {"name": "b045a1c9525e73ae35a8f4e26ccca818", "fusion_lat": 0.0, "type": "electric_scooter", "lat": 38.912644666666665, "is_reserved": 0, "is_disabled": 0, "fusion_lon": 0.0, "bike_id": "b045a1c9525e73ae35a8f4e26ccca818", "lon": -77.0363745, "rental_uris": {"ios": "https://dc.lft.to/lastmile_qr_scan", "android": "https://dc.lft.to/lastmile_qr_scan"}}, {"name": "a971c029233748e1dd85e3da201b349f", "fusion_lat": 0.0, "type": "electric_scooter", "lat": 38.9078785, "is_reserved": 0, "is_disabled": 0, "fusion_lon": 0.0, "bike_id": "a971c029233748e1dd85e3da201b349f", "lon": -76.98035633333333, "rental_uris": {"ios": "https://dc.lft.to/lastmile_qr_scan", "android": "https://dc.lft.to/lastmile_qr_scan"}}, {"name": "f521787c48d75cdd616fdd135378041e", "fusion_lat": 0.0, "type": "electric_scooter", "lat": 38.88125933333333, "is_reserved": 0, "is_disabled": 0, "fusion_lon": 0.0, "bike_id": "f521787c48d75cdd616fdd135378041e", "lon": -77.0134075, "rental_uris": {"ios": "https://dc.lft.to/lastmile_qr_scan", "android": "https://dc.lft.to/lastmile_qr_scan"}}, {"name": "c81483bc8b5138764e98325bf106fc1a", "fusion_lat": 0.0, "type": "electric_scooter", "lat": 38.899899, "is_reserved": 0, "is_disabled": 0, "fusion_lon": 0.0, "bike_id": "c81483bc8b5138764e98325bf106fc1a", "lon": -77.03174566666667, "rental_uris": {"ios": "https://dc.lft.to/lastmile_qr_scan", "android": "https://dc.lft.to/lastmile_qr_scan"}}, {"name": "21a95a5303fb02fbc82f1681358e90e6", "fusion_lat": 0.0, "type": "electric_scooter", "lat": 38.920747666666664, "is_reserved": 0, "is_disabled": 0, "fusion_lon": 0.0, "bike_id": "21a95a5303fb02fbc82f1681358e90e6", "lon": -77.02418466666667, "rental_uris": {"ios": "https://dc.lft.to/lastmile_qr_scan", "android": "https://dc.lft.to/lastmile_qr_scan"}}, {"name": "81ada54debf65e0e756360997f1e7ad0", "fusion_lat": 0.0, "type": "electric_scooter", "lat": 38.9176585, "is_reserved": 0, "is_disabled": 0, "fusion_lon": 0.0, "bike_id": "81ada54debf65e0e756360997f1e7ad0", "lon": -77.09672283333333, "rental_uris": {"ios": "https://dc.lft.to/lastmile_qr_scan", "android": "https://dc.lft.to/lastmile_qr_scan"}}, {"name": "e7dc8026169730301f084804c9324a17", "fusion_lat": 0.0, "type": "electric_scooter", "lat": 38.895492833333336, "is_reserved": 0, "is_disabled": 0, "fusion_lon": 0.0, "bike_id": "e7dc8026169730301f084804c9324a17", "lon": -76.948785, "rental_uris": {"ios": "https://dc.lft.to/lastmile_qr_scan", "android": "https://dc.lft.to/lastmile_qr_scan"}}, {"name": "3ac1e9ea66848e94275f844c7764bd23", "fusion_lat": 0.0, "type": "electric_scooter", "lat": 38.866512166666666, "is_reserved": 0, "is_disabled": 0, "fusion_lon": 0.0, "bike_id": "3ac1e9ea66848e94275f844c7764bd23", "lon": -76.98888083333334, "rental_uris": {"ios": "https://dc.lft.to/lastmile_qr_scan", "android": "https://dc.lft.to/lastmile_qr_scan"}}, {"name": "bedc76b1b3a639df287a6edf921a223b", "fusion_lat": 0.0, "type": "electric_scooter", "lat": 38.919874166666666, "is_reserved": 0, "is_disabled": 0, "fusion_lon": 0.0, "bike_id": "bedc76b1b3a639df287a6edf921a223b", "lon": -77.02398883333333, "rental_uris": {"ios": "https://dc.lft.to/lastmile_qr_scan", "android": "https://dc.lft.to/lastmile_qr_scan"}}, {"name": "8c93529bc0ed6c8f640cd122f4c59b32", "fusion_lat": 0.0, "type": "electric_scooter", "lat": 38.91693566666667, "is_reserved": 0, "is_disabled": 0, "fusion_lon": 0.0, "bike_id": "8c93529bc0ed6c8f640cd122f4c59b32", "lon": -77.01880233333333, "rental_uris": {"ios": "https://dc.lft.to/lastmile_qr_scan", "android": "https://dc.lft.to/lastmile_qr_scan"}}, {"name": "7299f527ddc2aa6be0b2d949ceb8b3ba", "fusion_lat": 0.0, "type": "electric_scooter", "lat": 38.91111983333333, "is_reserved": 0, "is_disabled": 0, "fusion_lon": 0.0, "bike_id": "7299f527ddc2aa6be0b2d949ceb8b3ba", "lon": -77.024692, "rental_uris": {"ios": "https://dc.lft.to/lastmile_qr_scan", "android": "https://dc.lft.to/lastmile_qr_scan"}}, {"name": "2081f9ff56a5a566df87363f748e685d", "fusion_lat": 0.0, "type": "electric_scooter", "lat": 38.8961495, "is_reserved": 0, "is_disabled": 0, "fusion_lon": 0.0, "bike_id": "2081f9ff56a5a566df87363f748e685d", "lon": -77.0446675, "rental_uris": {"ios": "https://dc.lft.to/lastmile_qr_scan", "android": "https://dc.lft.to/lastmile_qr_scan"}}, {"name": "b086914ba5013234343a9a303e66200b", "fusion_lat": 0.0, "type": "electric_scooter", "lat": 38.90983, "is_reserved": 0, "is_disabled": 0, "fusion_lon": 0.0, "bike_id": "b086914ba5013234343a9a303e66200b", "lon": -77.04267466666667, "rental_uris": {"ios": "https://dc.lft.to/lastmile_qr_scan", "android": "https://dc.lft.to/lastmile_qr_scan"}}, {"name": "741a9660ab737a9077bcb58059d1768b", "fusion_lat": 0.0, "type": "electric_scooter", "lat": 38.90739833333333, "is_reserved": 0, "is_disabled": 0, "fusion_lon": 0.0, "bike_id": "741a9660ab737a9077bcb58059d1768b", "lon": -77.04671083333334, "rental_uris": {"ios": "https://dc.lft.to/lastmile_qr_scan", "android": "https://dc.lft.to/lastmile_qr_scan"}}, {"name": "444b01070e6ef5c130ea108f95620a55", "fusion_lat": 0.0, "type": "electric_scooter", "lat": 38.91283466666667, "is_reserved": 0, "is_disabled": 0, "fusion_lon": 0.0, "bike_id": "444b01070e6ef5c130ea108f95620a55", "lon": -76.937488, "rental_uris": {"ios": "https://dc.lft.to/lastmile_qr_scan", "android": "https://dc.lft.to/lastmile_qr_scan"}}, {"name": "ef5b878adece8e57d34d951b19a4c6e8", "fusion_lat": 0.0, "type": "electric_scooter", "lat": 38.9079895, "is_reserved": 0, "is_disabled": 0, "fusion_lon": 0.0, "bike_id": "ef5b878adece8e57d34d951b19a4c6e8", "lon": -77.01816516666666, "rental_uris": {"ios": "https://dc.lft.to/lastmile_qr_scan", "android": "https://dc.lft.to/lastmile_qr_scan"}}, {"name": "da24d3c028a6e495236d3247d3097c91", "fusion_lat": 0.0, "type": "electric_scooter", "lat": 38.902505833333336, "is_reserved": 0, "is_disabled": 0, "fusion_lon": 0.0, "bike_id": "da24d3c028a6e495236d3247d3097c91", "lon": -76.97705966666666, "rental_uris": {"ios": "https://dc.lft.to/lastmile_qr_scan", "android": "https://dc.lft.to/lastmile_qr_scan"}}, {"name": "c669a1b4b13864fcdba49bdaee97068b", "fusion_lat": 0.0, "type": "electric_scooter", "lat": 38.92826866666667, "is_reserved": 0, "is_disabled": 0, "fusion_lon": 0.0, "bike_id": "c669a1b4b13864fcdba49bdaee97068b", "lon": -77.02256783333333, "rental_uris": {"ios": "https://dc.lft.to/lastmile_qr_scan", "android": "https://dc.lft.to/lastmile_qr_scan"}}, {"name": "3ca43cf0d5671af38e5386f2388f24fd", "fusion_lat": 0.0, "type": "electric_scooter", "lat": 38.92963966666667, "is_reserved": 0, "is_disabled": 0, "fusion_lon": 0.0, "bike_id": "3ca43cf0d5671af38e5386f2388f24fd", "lon": -77.04114033333333, "rental_uris": {"ios": "https://dc.lft.to/lastmile_qr_scan", "android": "https://dc.lft.to/lastmile_qr_scan"}}, {"name": "f033d45e3d0e5f228f2afd3d82374d25", "fusion_lat": 0.0, "type": "electric_scooter", "lat": 38.87578633333333, "is_reserved": 0, "is_disabled": 0, "fusion_lon": 0.0, "bike_id": "f033d45e3d0e5f228f2afd3d82374d25", "lon": -77.01060783333334, "rental_uris": {"ios": "https://dc.lft.to/lastmile_qr_scan", "android": "https://dc.lft.to/lastmile_qr_scan"}}, {"name": "f8e1ac97aac4b4c953e0e301dc6a19c0", "fusion_lat": 0.0, "type": "electric_scooter", "lat": 38.89482183333333, "is_reserved": 0, "is_disabled": 0, "fusion_lon": 0.0, "bike_id": "f8e1ac97aac4b4c953e0e301dc6a19c0", "lon": -76.94874566666667, "rental_uris": {"ios": "https://dc.lft.to/lastmile_qr_scan", "android": "https://dc.lft.to/lastmile_qr_scan"}}, {"name": "6f724f27c8959d1bf510f91450af127b", "fusion_lat": 0.0, "type": "electric_scooter", "lat": 38.89911516666667, "is_reserved": 0, "is_disabled": 0, "fusion_lon": 0.0, "bike_id": "6f724f27c8959d1bf510f91450af127b", "lon": -77.07096116666666, "rental_uris": {"ios": "https://dc.lft.to/lastmile_qr_scan", "android": "https://dc.lft.to/lastmile_qr_scan"}}, {"name": "729c3d2738fe507845ff258e0cd84bac", "fusion_lat": 0.0, "type": "electric_scooter", "lat": 38.905227833333335, "is_reserved": 0, "is_disabled": 0, "fusion_lon": 0.0, "bike_id": "729c3d2738fe507845ff258e0cd84bac", "lon": -77.05125983333333, "rental_uris": {"ios": "https://dc.lft.to/lastmile_qr_scan", "android": "https://dc.lft.to/lastmile_qr_scan"}}, {"name": "29296aa164110988546150494c290f81", "fusion_lat": 0.0, "type": "electric_scooter", "lat": 38.912697333333334, "is_reserved": 0, "is_disabled": 0, "fusion_lon": 0.0, "bike_id": "29296aa164110988546150494c290f81", "lon": -77.04160783333333, "rental_uris": {"ios": "https://dc.lft.to/lastmile_qr_scan", "android": "https://dc.lft.to/lastmile_qr_scan"}}, {"name": "14ad67071dca0fdbcdb0dbbe6abe5c59", "fusion_lat": 0.0, "type": "electric_scooter", "lat": 38.9118445, "is_reserved": 0, "is_disabled": 0, "fusion_lon": 0.0, "bike_id": "14ad67071dca0fdbcdb0dbbe6abe5c59", "lon": -77.06090583333334, "rental_uris": {"ios": "https://dc.lft.to/lastmile_qr_scan", "android": "https://dc.lft.to/lastmile_qr_scan"}}, {"name": "899e7ab0861861dd0d917cd73e81fc3c", "fusion_lat": 0.0, "type": "electric_scooter", "lat": 38.90263066666667, "is_reserved": 0, "is_disabled": 0, "fusion_lon": 0.0, "bike_id": "899e7ab0861861dd0d917cd73e81fc3c", "lon": -77.04377933333333, "rental_uris": {"ios": "https://dc.lft.to/lastmile_qr_scan", "android": "https://dc.lft.to/lastmile_qr_scan"}}, {"name": "6d6e3bede411508772087e522a3bea0d", "fusion_lat": 0.0, "type": "electric_scooter", "lat": 38.889997666666666, "is_reserved": 0, "is_disabled": 0, "fusion_lon": 0.0, "bike_id": "6d6e3bede411508772087e522a3bea0d", "lon": -76.95420216666666, "rental_uris": {"ios": "https://dc.lft.to/lastmile_qr_scan", "android": "https://dc.lft.to/lastmile_qr_scan"}}, {"name": "ed9193f7b8a9b77787f7a68c890e2de2", "fusion_lat": 0.0, "type": "electric_scooter", "lat": 38.91567166666667, "is_reserved": 0, "is_disabled": 0, "fusion_lon": 0.0, "bike_id": "ed9193f7b8a9b77787f7a68c890e2de2", "lon": -77.0120035, "rental_uris": {"ios": "https://dc.lft.to/lastmile_qr_scan", "android": "https://dc.lft.to/lastmile_qr_scan"}}, {"name": "b506c08677fa7a21f36b42f523144f1f", "fusion_lat": 0.0, "type": "electric_scooter", "lat": 38.9121585, "is_reserved": 0, "is_disabled": 0, "fusion_lon": 0.0, "bike_id": "b506c08677fa7a21f36b42f523144f1f", "lon": -77.075858, "rental_uris": {"ios": "https://dc.lft.to/lastmile_qr_scan", "android": "https://dc.lft.to/lastmile_qr_scan"}}, {"name": "f233d52a6c7512cc746ad7c31f857ab9", "fusion_lat": 0.0, "type": "electric_scooter", "lat": 38.92365016666667, "is_reserved": 0, "is_disabled": 0, "fusion_lon": 0.0, "bike_id": "f233d52a6c7512cc746ad7c31f857ab9", "lon": -77.0191445, "rental_uris": {"ios": "https://dc.lft.to/lastmile_qr_scan", "android": "https://dc.lft.to/lastmile_qr_scan"}}, {"name": "ac2336617ba2255ee7a255196325c6c8", "fusion_lat": 0.0, "type": "electric_scooter", "lat": 38.9503415, "is_reserved": 0, "is_disabled": 0, "fusion_lon": 0.0, "bike_id": "ac2336617ba2255ee7a255196325c6c8", "lon": -77.06724316666667, "rental_uris": {"ios": "https://dc.lft.to/lastmile_qr_scan", "android": "https://dc.lft.to/lastmile_qr_scan"}}, {"name": "f6e6cd6853f49b842917b21a029911ed", "fusion_lat": 0.0, "type": "electric_scooter", "lat": 38.901642333333335, "is_reserved": 0, "is_disabled": 0, "fusion_lon": 0.0, "bike_id": "f6e6cd6853f49b842917b21a029911ed", "lon": -77.05402816666667, "rental_uris": {"ios": "https://dc.lft.to/lastmile_qr_scan", "android": "https://dc.lft.to/lastmile_qr_scan"}}, {"name": "a6c2884885f266bf27eb1b3e7108d582", "fusion_lat": 0.0, "type": "electric_scooter", "lat": 38.911318333333334, "is_reserved": 0, "is_disabled": 0, "fusion_lon": 0.0, "bike_id": "a6c2884885f266bf27eb1b3e7108d582", "lon": -77.04186316666667, "rental_uris": {"ios": "https://dc.lft.to/lastmile_qr_scan", "android": "https://dc.lft.to/lastmile_qr_scan"}}, {"name": "116f9239233072317f76366c4779acd7", "fusion_lat": 0.0, "type": "electric_scooter", "lat": 38.905393333333336, "is_reserved": 0, "is_disabled": 0, "fusion_lon": 0.0, "bike_id": "116f9239233072317f76366c4779acd7", "lon": -77.06260016666667, "rental_uris": {"ios": "https://dc.lft.to/lastmile_qr_scan", "android": "https://dc.lft.to/lastmile_qr_scan"}}, {"name": "95128722d37883797d07135c964fed89", "fusion_lat": 0.0, "type": "electric_scooter", "lat": 38.918118, "is_reserved": 0, "is_disabled": 0, "fusion_lon": 0.0, "bike_id": "95128722d37883797d07135c964fed89", "lon": -77.01016183333333, "rental_uris": {"ios": "https://dc.lft.to/lastmile_qr_scan", "android": "https://dc.lft.to/lastmile_qr_scan"}}, {"name": "0b61500db5ae2a4dea6f46df637e18be", "fusion_lat": 0.0, "type": "electric_bike", "lat": 39.0334545, "is_reserved": 0, "is_disabled": 0, "fusion_lon": 0.0, "bike_id": "0b61500db5ae2a4dea6f46df637e18be", "lon": -77.04908383333333, "rental_uris": {"ios": "https://dc.lft.to/lastmile_qr_scan", "android": "https://dc.lft.to/lastmile_qr_scan"}}, {"name": "ae8a74c4414876eaa0031fb85b1d731c", "fusion_lat": 0.0, "type": "electric_bike", "lat": 39.09459183333333, "is_reserved": 0, "is_disabled": 0, "fusion_lon": 0.0, "bike_id": "ae8a74c4414876eaa0031fb85b1d731c", "lon": -77.14996083333334, "rental_uris": {"ios": "https://dc.lft.to/lastmile_qr_scan", "android": "https://dc.lft.to/lastmile_qr_scan"}}, {"name": "a1da01f3695e39233f6f7a93f723679a", "fusion_lat": 0.0, "type": "electric_scooter", "lat": 38.91814266666667, "is_reserved": 0, "is_disabled": 0, "fusion_lon": 0.0, "bike_id": "a1da01f3695e39233f6f7a93f723679a", "lon": -77.02803116666666, "rental_uris": {"ios": "https://dc.lft.to/lastmile_qr_scan", "android": "https://dc.lft.to/lastmile_qr_scan"}}, {"name": "8dd4bcfacdc34f9e10975a0e5bc52bd5", "fusion_lat": 0.0, "type": "electric_scooter", "lat": 38.921204833333334, "is_reserved": 0, "is_disabled": 0, "fusion_lon": 0.0, "bike_id": "8dd4bcfacdc34f9e10975a0e5bc52bd5", "lon": -77.03186016666666, "rental_uris": {"ios": "https://dc.lft.to/lastmile_qr_scan", "android": "https://dc.lft.to/lastmile_qr_scan"}}, {"name": "04e25eb4d7b8f707f96c5e890ad67b69", "fusion_lat": 0.0, "type": "electric_scooter", "lat": 38.899119, "is_reserved": 0, "is_disabled": 0, "fusion_lon": 0.0, "bike_id": "04e25eb4d7b8f707f96c5e890ad67b69", "lon": -76.9337135, "rental_uris": {"ios": "https://dc.lft.to/lastmile_qr_scan", "android": "https://dc.lft.to/lastmile_qr_scan"}}, {"name": "c2e639aa894603affc07d42eeb647147", "fusion_lat": 0.0, "type": "electric_scooter", "lat": 38.894968166666665, "is_reserved": 0, "is_disabled": 0, "fusion_lon": 0.0, "bike_id": "c2e639aa894603affc07d42eeb647147", "lon": -77.04678066666666, "rental_uris": {"ios": "https://dc.lft.to/lastmile_qr_scan", "android": "https://dc.lft.to/lastmile_qr_scan"}}, {"name": "3748fb88422f35e30daf75767462d90f", "fusion_lat": 0.0, "type": "electric_scooter", "lat": 38.876284166666665, "is_reserved": 0, "is_disabled": 0, "fusion_lon": 0.0, "bike_id": "3748fb88422f35e30daf75767462d90f", "lon": -77.00740633333334, "rental_uris": {"ios": "https://dc.lft.to/lastmile_qr_scan", "android": "https://dc.lft.to/lastmile_qr_scan"}}, {"name": "b08648a46640797dff86e1c10f97b509", "fusion_lat": 0.0, "type": "electric_scooter", "lat": 38.884606833333336, "is_reserved": 0, "is_disabled": 0, "fusion_lon": 0.0, "bike_id": "b08648a46640797dff86e1c10f97b509", "lon": -76.92470116666667, "rental_uris": {"ios": "https://dc.lft.to/lastmile_qr_scan", "android": "https://dc.lft.to/lastmile_qr_scan"}}, {"name": "814bed2ab21a9a3ad15ce65c2c9e58e5", "fusion_lat": 0.0, "type": "electric_scooter", "lat": 38.879179666666666, "is_reserved": 0, "is_disabled": 0, "fusion_lon": 0.0, "bike_id": "814bed2ab21a9a3ad15ce65c2c9e58e5", "lon": -77.021031, "rental_uris": {"ios": "https://dc.lft.to/lastmile_qr_scan", "android": "https://dc.lft.to/lastmile_qr_scan"}}, {"name": "0e2fceba79f48f9dee92bcdcd5a478ee", "fusion_lat": 0.0, "type": "electric_bike", "lat": 38.87528366666667, "is_reserved": 0, "is_disabled": 0, "fusion_lon": 0.0, "bike_id": "0e2fceba79f48f9dee92bcdcd5a478ee", "lon": -77.19912716666667, "rental_uris": {"ios": "https://dc.lft.to/lastmile_qr_scan", "android": "https://dc.lft.to/lastmile_qr_scan"}}, {"name": "c1f4fd31f247a6a966d6dba395baa00f", "fusion_lat": 0.0, "type": "electric_scooter", "lat": 38.927247333333334, "is_reserved": 0, "is_disabled": 0, "fusion_lon": 0.0, "bike_id": "c1f4fd31f247a6a966d6dba395baa00f", "lon": -77.00564683333333, "rental_uris": {"ios": "https://dc.lft.to/lastmile_qr_scan", "android": "https://dc.lft.to/lastmile_qr_scan"}}, {"name": "679c925b7d87d8590b3987c3664bf96f", "fusion_lat": 0.0, "type": "electric_scooter", "lat": 38.90250733333333, "is_reserved": 0, "is_disabled": 0, "fusion_lon": 0.0, "bike_id": "679c925b7d87d8590b3987c3664bf96f", "lon": -77.030715, "rental_uris": {"ios": "https://dc.lft.to/lastmile_qr_scan", "android": "https://dc.lft.to/lastmile_qr_scan"}}, {"name": "49a8d756eac7051c4c9a1aa28849b674", "fusion_lat": 0.0, "type": "electric_scooter", "lat": 38.892251, "is_reserved": 0, "is_disabled": 0, "fusion_lon": 0.0, "bike_id": "49a8d756eac7051c4c9a1aa28849b674", "lon": -77.03186916666667, "rental_uris": {"ios": "https://dc.lft.to/lastmile_qr_scan", "android": "https://dc.lft.to/lastmile_qr_scan"}}, {"name": "f948551078896d02281930298efdb297", "fusion_lat": 0.0, "type": "electric_scooter", "lat": 38.88342133333333, "is_reserved": 0, "is_disabled": 0, "fusion_lon": 0.0, "bike_id": "f948551078896d02281930298efdb297", "lon": -76.936464, "rental_uris": {"ios": "https://dc.lft.to/lastmile_qr_scan", "android": "https://dc.lft.to/lastmile_qr_scan"}}, {"name": "d5363213ed1df1c5dd5e7904a7f1fb63", "fusion_lat": 0.0, "type": "electric_scooter", "lat": 38.89932183333333, "is_reserved": 0, "is_disabled": 0, "fusion_lon": 0.0, "bike_id": "d5363213ed1df1c5dd5e7904a7f1fb63", "lon": -77.02824166666667, "rental_uris": {"ios": "https://dc.lft.to/lastmile_qr_scan", "android": "https://dc.lft.to/lastmile_qr_scan"}}, {"name": "49c05a7a8a49aca683c32abf67c795a3", "fusion_lat": 0.0, "type": "electric_scooter", "lat": 38.92710616666667, "is_reserved": 0, "is_disabled": 0, "fusion_lon": 0.0, "bike_id": "49c05a7a8a49aca683c32abf67c795a3", "lon": -77.03733433333333, "rental_uris": {"ios": "https://dc.lft.to/lastmile_qr_scan", "android": "https://dc.lft.to/lastmile_qr_scan"}}, {"name": "469ede869e804c1ab92840fb2a3fd923", "fusion_lat": 0.0, "type": "electric_scooter", "lat": 38.89582866666667, "is_reserved": 0, "is_disabled": 0, "fusion_lon": 0.0, "bike_id": "469ede869e804c1ab92840fb2a3fd923", "lon": -77.043344, "rental_uris": {"ios": "https://dc.lft.to/lastmile_qr_scan", "android": "https://dc.lft.to/lastmile_qr_scan"}}, {"name": "093f92af5e11370e99a41f5c37e5fe39", "fusion_lat": 0.0, "type": "electric_scooter", "lat": 38.86368933333333, "is_reserved": 0, "is_disabled": 0, "fusion_lon": 0.0, "bike_id": "093f92af5e11370e99a41f5c37e5fe39", "lon": -77.01366183333333, "rental_uris": {"ios": "https://dc.lft.to/lastmile_qr_scan", "android": "https://dc.lft.to/lastmile_qr_scan"}}, {"name": "1537c4520acc57abd701aae4f90322c3", "fusion_lat": 0.0, "type": "electric_scooter", "lat": 38.930594666666664, "is_reserved": 0, "is_disabled": 0, "fusion_lon": 0.0, "bike_id": "1537c4520acc57abd701aae4f90322c3", "lon": -77.02329066666667, "rental_uris": {"ios": "https://dc.lft.to/lastmile_qr_scan", "android": "https://dc.lft.to/lastmile_qr_scan"}}, {"name": "8caeec444339c94739852ed7ad9eb56c", "fusion_lat": 0.0, "type": "electric_scooter", "lat": 38.902166666666666, "is_reserved": 0, "is_disabled": 0, "fusion_lon": 0.0, "bike_id": "8caeec444339c94739852ed7ad9eb56c", "lon": -77.021703, "rental_uris": {"ios": "https://dc.lft.to/lastmile_qr_scan", "android": "https://dc.lft.to/lastmile_qr_scan"}}, {"name": "31f51c90880494815f68257af4d3be1f", "fusion_lat": 0.0, "type": "electric_scooter", "lat": 38.937188, "is_reserved": 0, "is_disabled": 0, "fusion_lon": 0.0, "bike_id": "31f51c90880494815f68257af4d3be1f", "lon": -77.03269633333333, "rental_uris": {"ios": "https://dc.lft.to/lastmile_qr_scan", "android": "https://dc.lft.to/lastmile_qr_scan"}}, {"name": "552e024fea86da296aea609248975a34", "fusion_lat": 0.0, "type": "electric_scooter", "lat": 38.912518166666665, "is_reserved": 0, "is_disabled": 0, "fusion_lon": 0.0, "bike_id": "552e024fea86da296aea609248975a34", "lon": -77.00768433333333, "rental_uris": {"ios": "https://dc.lft.to/lastmile_qr_scan", "android": "https://dc.lft.to/lastmile_qr_scan"}}, {"name": "4068ebd8865d12c7d27d18f359c17323", "fusion_lat": 0.0, "type": "electric_scooter", "lat": 38.902836, "is_reserved": 0, "is_disabled": 0, "fusion_lon": 0.0, "bike_id": "4068ebd8865d12c7d27d18f359c17323", "lon": -77.04272133333333, "rental_uris": {"ios": "https://dc.lft.to/lastmile_qr_scan", "android": "https://dc.lft.to/lastmile_qr_scan"}}, {"name": "08ccd2be61b8f0d1acd303d9aaa5796d", "fusion_lat": 0.0, "type": "electric_bike", "lat": 38.935802, "is_reserved": 0, "is_disabled": 0, "fusion_lon": 0.0, "bike_id": "08ccd2be61b8f0d1acd303d9aaa5796d", "lon": -77.106848, "rental_uris": {"ios": "https://dc.lft.to/lastmile_qr_scan", "android": "https://dc.lft.to/lastmile_qr_scan"}}, {"name": "16fcfd77df7e32bf0a29c8b54324fbc8", "fusion_lat": 0.0, "type": "electric_scooter", "lat": 38.90566916666667, "is_reserved": 0, "is_disabled": 0, "fusion_lon": 0.0, "bike_id": "16fcfd77df7e32bf0a29c8b54324fbc8", "lon": -77.00518716666667, "rental_uris": {"ios": "https://dc.lft.to/lastmile_qr_scan", "android": "https://dc.lft.to/lastmile_qr_scan"}}, {"name": "9b6a2423b0ac9964acc8423cf95b07e3", "fusion_lat": 0.0, "type": "electric_scooter", "lat": 38.887403666666664, "is_reserved": 0, "is_disabled": 0, "fusion_lon": 0.0, "bike_id": "9b6a2423b0ac9964acc8423cf95b07e3", "lon": -77.0176995, "rental_uris": {"ios": "https://dc.lft.to/lastmile_qr_scan", "android": "https://dc.lft.to/lastmile_qr_scan"}}, {"name": "7d445dc7253fc77c3f548591de376c36", "fusion_lat": 0.0, "type": "electric_bike", "lat": 39.088994, "is_reserved": 0, "is_disabled": 0, "fusion_lon": 0.0, "bike_id": "7d445dc7253fc77c3f548591de376c36", "lon": -77.1785405, "rental_uris": {"ios": "https://dc.lft.to/lastmile_qr_scan", "android": "https://dc.lft.to/lastmile_qr_scan"}}, {"name": "cc560ae6ce49609190b5e1258fa2e1a5", "fusion_lat": 0.0, "type": "electric_scooter", "lat": 38.907424166666665, "is_reserved": 0, "is_disabled": 0, "fusion_lon": 0.0, "bike_id": "cc560ae6ce49609190b5e1258fa2e1a5", "lon": -77.04526216666666, "rental_uris": {"ios": "https://dc.lft.to/lastmile_qr_scan", "android": "https://dc.lft.to/lastmile_qr_scan"}}, {"name": "227a543b44dbfdb7ba2ab36354f6bd5a", "fusion_lat": 0.0, "type": "electric_bike", "lat": 38.846123666666664, "is_reserved": 0, "is_disabled": 0, "fusion_lon": 0.0, "bike_id": "227a543b44dbfdb7ba2ab36354f6bd5a", "lon": -76.9782875, "rental_uris": {"ios": "https://dc.lft.to/lastmile_qr_scan", "android": "https://dc.lft.to/lastmile_qr_scan"}}, {"name": "18d8ea19a5a432512b634586acdc4d35", "fusion_lat": 0.0, "type": "electric_scooter", "lat": 38.92852716666667, "is_reserved": 0, "is_disabled": 0, "fusion_lon": 0.0, "bike_id": "18d8ea19a5a432512b634586acdc4d35", "lon": -77.01413116666667, "rental_uris": {"ios": "https://dc.lft.to/lastmile_qr_scan", "android": "https://dc.lft.to/lastmile_qr_scan"}}, {"name": "fb0c9e29eee85f72344380e22aad6671", "fusion_lat": 0.0, "type": "electric_scooter", "lat": 38.90133183333333, "is_reserved": 0, "is_disabled": 0, "fusion_lon": 0.0, "bike_id": "fb0c9e29eee85f72344380e22aad6671", "lon": -77.01791166666666, "rental_uris": {"ios": "https://dc.lft.to/lastmile_qr_scan", "android": "https://dc.lft.to/lastmile_qr_scan"}}, {"name": "7725ecebf753d2e106475e60e5cc695b", "fusion_lat": 0.0, "type": "electric_scooter", "lat": 38.88491616666667, "is_reserved": 0, "is_disabled": 0, "fusion_lon": 0.0, "bike_id": "7725ecebf753d2e106475e60e5cc695b", "lon": -77.00713266666666, "rental_uris": {"ios": "https://dc.lft.to/lastmile_qr_scan", "android": "https://dc.lft.to/lastmile_qr_scan"}}, {"name": "d792062956c7b76caedf177cfb07d539", "fusion_lat": 0.0, "type": "electric_scooter", "lat": 38.901461, "is_reserved": 0, "is_disabled": 0, "fusion_lon": 0.0, "bike_id": "d792062956c7b76caedf177cfb07d539", "lon": -77.04395433333333, "rental_uris": {"ios": "https://dc.lft.to/lastmile_qr_scan", "android": "https://dc.lft.to/lastmile_qr_scan"}}, {"name": "cd51db181c3266fc0b9721d6f87dbbbc", "fusion_lat": 0.0, "type": "electric_scooter", "lat": 38.91927416666667, "is_reserved": 0, "is_disabled": 0, "fusion_lon": 0.0, "bike_id": "cd51db181c3266fc0b9721d6f87dbbbc", "lon": -77.03178883333334, "rental_uris": {"ios": "https://dc.lft.to/lastmile_qr_scan", "android": "https://dc.lft.to/lastmile_qr_scan"}}, {"name": "2e12364dfff3417307f5ff0c4cd2f2b2", "fusion_lat": 0.0, "type": "electric_scooter", "lat": 38.914248, "is_reserved": 0, "is_disabled": 0, "fusion_lon": 0.0, "bike_id": "2e12364dfff3417307f5ff0c4cd2f2b2", "lon": -77.03186533333333, "rental_uris": {"ios": "https://dc.lft.to/lastmile_qr_scan", "android": "https://dc.lft.to/lastmile_qr_scan"}}, {"name": "40f55d7de7c9901c89243c22e91c9d54", "fusion_lat": 0.0, "type": "electric_scooter", "lat": 38.911062, "is_reserved": 0, "is_disabled": 0, "fusion_lon": 0.0, "bike_id": "40f55d7de7c9901c89243c22e91c9d54", "lon": -77.04290383333333, "rental_uris": {"ios": "https://dc.lft.to/lastmile_qr_scan", "android": "https://dc.lft.to/lastmile_qr_scan"}}, {"name": "25815916b4c11376775184fd22fe7283", "fusion_lat": 0.0, "type": "electric_scooter", "lat": 38.91986466666667, "is_reserved": 0, "is_disabled": 0, "fusion_lon": 0.0, "bike_id": "25815916b4c11376775184fd22fe7283", "lon": -77.02410583333334, "rental_uris": {"ios": "https://dc.lft.to/lastmile_qr_scan", "android": "https://dc.lft.to/lastmile_qr_scan"}}, {"name": "ec908810cc6e428a83877784d4c83c8e", "fusion_lat": 0.0, "type": "electric_scooter", "lat": 38.91420316666667, "is_reserved": 0, "is_disabled": 0, "fusion_lon": 0.0, "bike_id": "ec908810cc6e428a83877784d4c83c8e", "lon": -77.0220655, "rental_uris": {"ios": "https://dc.lft.to/lastmile_qr_scan", "android": "https://dc.lft.to/lastmile_qr_scan"}}, {"name": "a4b9ecdd17be44ab717ed293c19ce5cb", "fusion_lat": 0.0, "type": "electric_bike", "lat": 38.8427445, "is_reserved": 0, "is_disabled": 0, "fusion_lon": 0.0, "bike_id": "a4b9ecdd17be44ab717ed293c19ce5cb", "lon": -76.98846, "rental_uris": {"ios": "https://dc.lft.to/lastmile_qr_scan", "android": "https://dc.lft.to/lastmile_qr_scan"}}, {"name": "ad1be48d8dc60228b46c202fa54ad60c", "fusion_lat": 0.0, "type": "electric_scooter", "lat": 38.9456215, "is_reserved": 0, "is_disabled": 0, "fusion_lon": 0.0, "bike_id": "ad1be48d8dc60228b46c202fa54ad60c", "lon": -77.07773833333333, "rental_uris": {"ios": "https://dc.lft.to/lastmile_qr_scan", "android": "https://dc.lft.to/lastmile_qr_scan"}}, {"name": "f982d3d045e353d6a35f9280de8bdafc", "fusion_lat": 0.0, "type": "electric_scooter", "lat": 38.90029783333333, "is_reserved": 0, "is_disabled": 0, "fusion_lon": 0.0, "bike_id": "f982d3d045e353d6a35f9280de8bdafc", "lon": -77.00212966666666, "rental_uris": {"ios": "https://dc.lft.to/lastmile_qr_scan", "android": "https://dc.lft.to/lastmile_qr_scan"}}, {"name": "eab749d47817c02d58684d3307e8fc6a", "fusion_lat": 0.0, "type": "electric_scooter", "lat": 38.906398333333335, "is_reserved": 0, "is_disabled": 0, "fusion_lon": 0.0, "bike_id": "eab749d47817c02d58684d3307e8fc6a", "lon": -77.04155216666666, "rental_uris": {"ios": "https://dc.lft.to/lastmile_qr_scan", "android": "https://dc.lft.to/lastmile_qr_scan"}}, {"name": "5045f775276236e4cbc9554b611292bc", "fusion_lat": 0.0, "type": "electric_scooter", "lat": 38.92134766666667, "is_reserved": 0, "is_disabled": 0, "fusion_lon": 0.0, "bike_id": "5045f775276236e4cbc9554b611292bc", "lon": -77.0241995, "rental_uris": {"ios": "https://dc.lft.to/lastmile_qr_scan", "android": "https://dc.lft.to/lastmile_qr_scan"}}, {"name": "93031eeb8990e0fe2bdbdc53dfdcd578", "fusion_lat": 0.0, "type": "electric_scooter", "lat": 38.877431333333334, "is_reserved": 0, "is_disabled": 0, "fusion_lon": 0.0, "bike_id": "93031eeb8990e0fe2bdbdc53dfdcd578", "lon": -77.02003, "rental_uris": {"ios": "https://dc.lft.to/lastmile_qr_scan", "android": "https://dc.lft.to/lastmile_qr_scan"}}, {"name": "6a3478f94f24241524c1923faf9b1fe4", "fusion_lat": 0.0, "type": "electric_scooter", "lat": 38.892225833333335, "is_reserved": 0, "is_disabled": 0, "fusion_lon": 0.0, "bike_id": "6a3478f94f24241524c1923faf9b1fe4", "lon": -77.05010433333334, "rental_uris": {"ios": "https://dc.lft.to/lastmile_qr_scan", "android": "https://dc.lft.to/lastmile_qr_scan"}}, {"name": "47dbf44da9645d93de8854efa5d4baea", "fusion_lat": 0.0, "type": "electric_scooter", "lat": 38.89355966666667, "is_reserved": 0, "is_disabled": 0, "fusion_lon": 0.0, "bike_id": "47dbf44da9645d93de8854efa5d4baea", "lon": -77.0033495, "rental_uris": {"ios": "https://dc.lft.to/lastmile_qr_scan", "android": "https://dc.lft.to/lastmile_qr_scan"}}, {"name": "f13cbc5c6b2abefd409cc17b4089e1ea", "fusion_lat": 0.0, "type": "electric_scooter", "lat": 38.87889716666667, "is_reserved": 0, "is_disabled": 0, "fusion_lon": 0.0, "bike_id": "f13cbc5c6b2abefd409cc17b4089e1ea", "lon": -77.005744, "rental_uris": {"ios": "https://dc.lft.to/lastmile_qr_scan", "android": "https://dc.lft.to/lastmile_qr_scan"}}, {"name": "7f3fe8ff6694c86701339e597d41f2ba", "fusion_lat": 0.0, "type": "electric_scooter", "lat": 38.902666833333335, "is_reserved": 0, "is_disabled": 0, "fusion_lon": 0.0, "bike_id": "7f3fe8ff6694c86701339e597d41f2ba", "lon": -77.06268266666666, "rental_uris": {"ios": "https://dc.lft.to/lastmile_qr_scan", "android": "https://dc.lft.to/lastmile_qr_scan"}}, {"name": "f8886df8538fada7ac568be7d2db9452", "fusion_lat": 0.0, "type": "electric_scooter", "lat": 38.91597133333333, "is_reserved": 0, "is_disabled": 0, "fusion_lon": 0.0, "bike_id": "f8886df8538fada7ac568be7d2db9452", "lon": -77.031831, "rental_uris": {"ios": "https://dc.lft.to/lastmile_qr_scan", "android": "https://dc.lft.to/lastmile_qr_scan"}}, {"name": "95f7a9169173714760bafa849cef3d32", "fusion_lat": 0.0, "type": "electric_scooter", "lat": 38.932379166666664, "is_reserved": 0, "is_disabled": 0, "fusion_lon": 0.0, "bike_id": "95f7a9169173714760bafa849cef3d32", "lon": -77.03416066666666, "rental_uris": {"ios": "https://dc.lft.to/lastmile_qr_scan", "android": "https://dc.lft.to/lastmile_qr_scan"}}, {"name": "bb59df16936a678bde18d6dd73728c6c", "fusion_lat": 0.0, "type": "electric_scooter", "lat": 38.916940833333335, "is_reserved": 0, "is_disabled": 0, "fusion_lon": 0.0, "bike_id": "bb59df16936a678bde18d6dd73728c6c", "lon": -77.01260466666666, "rental_uris": {"ios": "https://dc.lft.to/lastmile_qr_scan", "android": "https://dc.lft.to/lastmile_qr_scan"}}, {"name": "368cca0bb3256ad1fb311953738f3dea", "fusion_lat": 0.0, "type": "electric_scooter", "lat": 38.9181885, "is_reserved": 0, "is_disabled": 0, "fusion_lon": 0.0, "bike_id": "368cca0bb3256ad1fb311953738f3dea", "lon": -77.0399955, "rental_uris": {"ios": "https://dc.lft.to/lastmile_qr_scan", "android": "https://dc.lft.to/lastmile_qr_scan"}}, {"name": "7147ddbf169433d4b49730dd9499e917", "fusion_lat": 0.0, "type": "electric_scooter", "lat": 38.916769, "is_reserved": 0, "is_disabled": 0, "fusion_lon": 0.0, "bike_id": "7147ddbf169433d4b49730dd9499e917", "lon": -77.02969083333333, "rental_uris": {"ios": "https://dc.lft.to/lastmile_qr_scan", "android": "https://dc.lft.to/lastmile_qr_scan"}}, {"name": "c99087db28e934b6676d1dc8ce13d22e", "fusion_lat": 0.0, "type": "electric_scooter", "lat": 38.895512333333336, "is_reserved": 0, "is_disabled": 0, "fusion_lon": 0.0, "bike_id": "c99087db28e934b6676d1dc8ce13d22e", "lon": -77.04673416666667, "rental_uris": {"ios": "https://dc.lft.to/lastmile_qr_scan", "android": "https://dc.lft.to/lastmile_qr_scan"}}, {"name": "aa802bd9922d1a66e150c84775113c89", "fusion_lat": 0.0, "type": "electric_bike", "lat": 38.99232416666667, "is_reserved": 0, "is_disabled": 0, "fusion_lon": 0.0, "bike_id": "aa802bd9922d1a66e150c84775113c89", "lon": -76.87819766666667, "rental_uris": {"ios": "https://dc.lft.to/lastmile_qr_scan", "android": "https://dc.lft.to/lastmile_qr_scan"}}, {"name": "4bba000b2c38d3c19f43b315bf245508", "fusion_lat": 0.0, "type": "electric_scooter", "lat": 38.9055835, "is_reserved": 0, "is_disabled": 0, "fusion_lon": 0.0, "bike_id": "4bba000b2c38d3c19f43b315bf245508", "lon": -77.00548366666666, "rental_uris": {"ios": "https://dc.lft.to/lastmile_qr_scan", "android": "https://dc.lft.to/lastmile_qr_scan"}}, {"name": "390dc955a33ce87d094cc1bfb978c620", "fusion_lat": 0.0, "type": "electric_scooter", "lat": 38.90522166666667, "is_reserved": 0, "is_disabled": 0, "fusion_lon": 0.0, "bike_id": "390dc955a33ce87d094cc1bfb978c620", "lon": -77.06379783333334, "rental_uris": {"ios": "https://dc.lft.to/lastmile_qr_scan", "android": "https://dc.lft.to/lastmile_qr_scan"}}, {"name": "e940743028ffb4ec0b4ac614a9e57af7", "fusion_lat": 0.0, "type": "electric_bike", "lat": 38.88427, "is_reserved": 0, "is_disabled": 0, "fusion_lon": 0.0, "bike_id": "e940743028ffb4ec0b4ac614a9e57af7", "lon": -76.95757766666667, "rental_uris": {"ios": "https://dc.lft.to/lastmile_qr_scan", "android": "https://dc.lft.to/lastmile_qr_scan"}}, {"name": "dabb06983813c181d7504063c7362fcc", "fusion_lat": 0.0, "type": "electric_scooter", "lat": 38.872668, "is_reserved": 0, "is_disabled": 0, "fusion_lon": 0.0, "bike_id": "dabb06983813c181d7504063c7362fcc", "lon": -77.015591, "rental_uris": {"ios": "https://dc.lft.to/lastmile_qr_scan", "android": "https://dc.lft.to/lastmile_qr_scan"}}, {"name": "57a6c400601ccffd099db8f7aa3224bd", "fusion_lat": 0.0, "type": "electric_scooter", "lat": 38.903384833333334, "is_reserved": 0, "is_disabled": 0, "fusion_lon": 0.0, "bike_id": "57a6c400601ccffd099db8f7aa3224bd", "lon": -76.94665516666667, "rental_uris": {"ios": "https://dc.lft.to/lastmile_qr_scan", "android": "https://dc.lft.to/lastmile_qr_scan"}}, {"name": "959b1d86cbe02a4c9c0880745baad795", "fusion_lat": 0.0, "type": "electric_scooter", "lat": 38.90764333333333, "is_reserved": 0, "is_disabled": 0, "fusion_lon": 0.0, "bike_id": "959b1d86cbe02a4c9c0880745baad795", "lon": -77.03859366666667, "rental_uris": {"ios": "https://dc.lft.to/lastmile_qr_scan", "android": "https://dc.lft.to/lastmile_qr_scan"}}, {"name": "adfa1ff1ef7ea2502e12b634a7ec1f64", "fusion_lat": 0.0, "type": "electric_bike", "lat": 38.94914266666667, "is_reserved": 0, "is_disabled": 0, "fusion_lon": 0.0, "bike_id": "adfa1ff1ef7ea2502e12b634a7ec1f64", "lon": -77.00847016666667, "rental_uris": {"ios": "https://dc.lft.to/lastmile_qr_scan", "android": "https://dc.lft.to/lastmile_qr_scan"}}, {"name": "cf80bf0e78ef6a73e64f2abfa271a007", "fusion_lat": 0.0, "type": "electric_bike", "lat": 38.9436525, "is_reserved": 0, "is_disabled": 0, "fusion_lon": 0.0, "bike_id": "cf80bf0e78ef6a73e64f2abfa271a007", "lon": -77.00343683333334, "rental_uris": {"ios": "https://dc.lft.to/lastmile_qr_scan", "android": "https://dc.lft.to/lastmile_qr_scan"}}, {"name": "f084ac78000d4b4dcefcab2675462fc6", "fusion_lat": 0.0, "type": "electric_bike", "lat": 38.905232833333336, "is_reserved": 0, "is_disabled": 0, "fusion_lon": 0.0, "bike_id": "f084ac78000d4b4dcefcab2675462fc6", "lon": -77.07194416666667, "rental_uris": {"ios": "https://dc.lft.to/lastmile_qr_scan", "android": "https://dc.lft.to/lastmile_qr_scan"}}, {"name": "96994bc3444fbfa0c7a5162f89ae310a", "fusion_lat": 0.0, "type": "electric_scooter", "lat": 38.90959983333333, "is_reserved": 0, "is_disabled": 0, "fusion_lon": 0.0, "bike_id": "96994bc3444fbfa0c7a5162f89ae310a", "lon": -77.02410283333333, "rental_uris": {"ios": "https://dc.lft.to/lastmile_qr_scan", "android": "https://dc.lft.to/lastmile_qr_scan"}}, {"name": "005339d53b1e8efdc2e4213a5cd57354", "fusion_lat": 0.0, "type": "electric_scooter", "lat": 38.865091166666666, "is_reserved": 0, "is_disabled": 0, "fusion_lon": 0.0, "bike_id": "005339d53b1e8efdc2e4213a5cd57354", "lon": -76.973455, "rental_uris": {"ios": "https://dc.lft.to/lastmile_qr_scan", "android": "https://dc.lft.to/lastmile_qr_scan"}}, {"name": "6865a0eac9d3e53cd3b5e7a0ae5b8f1d", "fusion_lat": 0.0, "type": "electric_scooter", "lat": 38.9397455, "is_reserved": 0, "is_disabled": 0, "fusion_lon": 0.0, "bike_id": "6865a0eac9d3e53cd3b5e7a0ae5b8f1d", "lon": -77.03200483333333, "rental_uris": {"ios": "https://dc.lft.to/lastmile_qr_scan", "android": "https://dc.lft.to/lastmile_qr_scan"}}, {"name": "5f20c6bf612fb6e9f68188712aec87a5", "fusion_lat": 0.0, "type": "electric_scooter", "lat": 38.885060333333335, "is_reserved": 0, "is_disabled": 0, "fusion_lon": 0.0, "bike_id": "5f20c6bf612fb6e9f68188712aec87a5", "lon": -77.00568266666667, "rental_uris": {"ios": "https://dc.lft.to/lastmile_qr_scan", "android": "https://dc.lft.to/lastmile_qr_scan"}}, {"name": "c5dca9bdfcf81a7a4677946de26de8fc", "fusion_lat": 0.0, "type": "electric_bike", "lat": 38.939683333333335, "is_reserved": 0, "is_disabled": 0, "fusion_lon": 0.0, "bike_id": "c5dca9bdfcf81a7a4677946de26de8fc", "lon": -76.986599, "rental_uris": {"ios": "https://dc.lft.to/lastmile_qr_scan", "android": "https://dc.lft.to/lastmile_qr_scan"}}, {"name": "1f610e56cff61b4df15a9729630487e3", "fusion_lat": 0.0, "type": "electric_bike", "lat": 38.87224033333333, "is_reserved": 0, "is_disabled": 0, "fusion_lon": 0.0, "bike_id": "1f610e56cff61b4df15a9729630487e3", "lon": -77.0116965, "rental_uris": {"ios": "https://dc.lft.to/lastmile_qr_scan", "android": "https://dc.lft.to/lastmile_qr_scan"}}, {"name": "87ee63f2de1224dd230de5ede3b00e7b", "fusion_lat": 0.0, "type": "electric_scooter", "lat": 38.89918266666667, "is_reserved": 0, "is_disabled": 0, "fusion_lon": 0.0, "bike_id": "87ee63f2de1224dd230de5ede3b00e7b", "lon": -76.93386416666667, "rental_uris": {"ios": "https://dc.lft.to/lastmile_qr_scan", "android": "https://dc.lft.to/lastmile_qr_scan"}}, {"name": "9b46289dc6c5d4e6d8d07bce90995939", "fusion_lat": 0.0, "type": "electric_scooter", "lat": 38.9431645, "is_reserved": 0, "is_disabled": 0, "fusion_lon": 0.0, "bike_id": "9b46289dc6c5d4e6d8d07bce90995939", "lon": -77.05924716666667, "rental_uris": {"ios": "https://dc.lft.to/lastmile_qr_scan", "android": "https://dc.lft.to/lastmile_qr_scan"}}, {"name": "7cdb65377fc7a33f033a9cb87c0d579c", "fusion_lat": 0.0, "type": "electric_scooter", "lat": 38.934355, "is_reserved": 0, "is_disabled": 0, "fusion_lon": 0.0, "bike_id": "7cdb65377fc7a33f033a9cb87c0d579c", "lon": -77.04648516666667, "rental_uris": {"ios": "https://dc.lft.to/lastmile_qr_scan", "android": "https://dc.lft.to/lastmile_qr_scan"}}, {"name": "97a5ceba76c1e856e816c76170bfe4cd", "fusion_lat": 0.0, "type": "electric_scooter", "lat": 38.9072855, "is_reserved": 0, "is_disabled": 0, "fusion_lon": 0.0, "bike_id": "97a5ceba76c1e856e816c76170bfe4cd", "lon": -77.04161, "rental_uris": {"ios": "https://dc.lft.to/lastmile_qr_scan", "android": "https://dc.lft.to/lastmile_qr_scan"}}, {"name": "68a066e43a6e1326458039e745672cb8", "fusion_lat": 0.0, "type": "electric_scooter", "lat": 38.91317433333333, "is_reserved": 0, "is_disabled": 0, "fusion_lon": 0.0, "bike_id": "68a066e43a6e1326458039e745672cb8", "lon": -76.93770166666667, "rental_uris": {"ios": "https://dc.lft.to/lastmile_qr_scan", "android": "https://dc.lft.to/lastmile_qr_scan"}}, {"name": "41b1148d449a4b2aae4cb38d45ba002a", "fusion_lat": 0.0, "type": "electric_scooter", "lat": 38.90241416666667, "is_reserved": 0, "is_disabled": 0, "fusion_lon": 0.0, "bike_id": "41b1148d449a4b2aae4cb38d45ba002a", "lon": -77.001968, "rental_uris": {"ios": "https://dc.lft.to/lastmile_qr_scan", "android": "https://dc.lft.to/lastmile_qr_scan"}}, {"name": "3f7d4365d33f5c33a3af67c5a9b01919", "fusion_lat": 0.0, "type": "electric_scooter", "lat": 38.88338183333333, "is_reserved": 0, "is_disabled": 0, "fusion_lon": 0.0, "bike_id": "3f7d4365d33f5c33a3af67c5a9b01919", "lon": -77.031641, "rental_uris": {"ios": "https://dc.lft.to/lastmile_qr_scan", "android": "https://dc.lft.to/lastmile_qr_scan"}}, {"name": "2220651022983b117b893024dbd46bf8", "fusion_lat": 0.0, "type": "electric_scooter", "lat": 38.84490566666667, "is_reserved": 0, "is_disabled": 0, "fusion_lon": 0.0, "bike_id": "2220651022983b117b893024dbd46bf8", "lon": -76.98772183333334, "rental_uris": {"ios": "https://dc.lft.to/lastmile_qr_scan", "android": "https://dc.lft.to/lastmile_qr_scan"}}, {"name": "0d60ddd5fd00dcc065dcf53b5b53cec8", "fusion_lat": 0.0, "type": "electric_scooter", "lat": 38.87646216666667, "is_reserved": 0, "is_disabled": 0, "fusion_lon": 0.0, "bike_id": "0d60ddd5fd00dcc065dcf53b5b53cec8", "lon": -77.00768133333334, "rental_uris": {"ios": "https://dc.lft.to/lastmile_qr_scan", "android": "https://dc.lft.to/lastmile_qr_scan"}}, {"name": "3e4b76eb9a9a83b4c902df245dd02c54", "fusion_lat": 0.0, "type": "electric_scooter", "lat": 38.9104385, "is_reserved": 0, "is_disabled": 0, "fusion_lon": 0.0, "bike_id": "3e4b76eb9a9a83b4c902df245dd02c54", "lon": -77.04255383333333, "rental_uris": {"ios": "https://dc.lft.to/lastmile_qr_scan", "android": "https://dc.lft.to/lastmile_qr_scan"}}, {"name": "477b7e7b1d2d600602c69b6f91af5cca", "fusion_lat": 0.0, "type": "electric_scooter", "lat": 38.90569083333333, "is_reserved": 0, "is_disabled": 0, "fusion_lon": 0.0, "bike_id": "477b7e7b1d2d600602c69b6f91af5cca", "lon": -77.02217333333333, "rental_uris": {"ios": "https://dc.lft.to/lastmile_qr_scan", "android": "https://dc.lft.to/lastmile_qr_scan"}}, {"name": "962086f7208f33371ad989d6c76aa1d1", "fusion_lat": 0.0, "type": "electric_scooter", "lat": 38.907033166666665, "is_reserved": 0, "is_disabled": 0, "fusion_lon": 0.0, "bike_id": "962086f7208f33371ad989d6c76aa1d1", "lon": -77.02396433333334, "rental_uris": {"ios": "https://dc.lft.to/lastmile_qr_scan", "android": "https://dc.lft.to/lastmile_qr_scan"}}, {"name": "69660b26bf31aa28d840a299e66f6bf1", "fusion_lat": 0.0, "type": "electric_bike", "lat": 38.924496, "is_reserved": 0, "is_disabled": 0, "fusion_lon": 0.0, "bike_id": "69660b26bf31aa28d840a299e66f6bf1", "lon": -76.990461, "rental_uris": {"ios": "https://dc.lft.to/lastmile_qr_scan", "android": "https://dc.lft.to/lastmile_qr_scan"}}, {"name": "11eefbff7bc651d116119f383775cdfc", "fusion_lat": 0.0, "type": "electric_scooter", "lat": 38.90083516666667, "is_reserved": 0, "is_disabled": 0, "fusion_lon": 0.0, "bike_id": "11eefbff7bc651d116119f383775cdfc", "lon": -77.03348766666667, "rental_uris": {"ios": "https://dc.lft.to/lastmile_qr_scan", "android": "https://dc.lft.to/lastmile_qr_scan"}}, {"name": "274180649da71a48e6a8b4283d720c97", "fusion_lat": 0.0, "type": "electric_bike", "lat": 38.834379166666665, "is_reserved": 0, "is_disabled": 0, "fusion_lon": 0.0, "bike_id": "274180649da71a48e6a8b4283d720c97", "lon": -77.00833633333333, "rental_uris": {"ios": "https://dc.lft.to/lastmile_qr_scan", "android": "https://dc.lft.to/lastmile_qr_scan"}}, {"name": "3d19e04cfce8f2d5f19dd45a6cfcdbf5", "fusion_lat": 0.0, "type": "electric_bike", "lat": 38.869083833333335, "is_reserved": 0, "is_disabled": 0, "fusion_lon": 0.0, "bike_id": "3d19e04cfce8f2d5f19dd45a6cfcdbf5", "lon": -77.13182166666667, "rental_uris": {"ios": "https://dc.lft.to/lastmile_qr_scan", "android": "https://dc.lft.to/lastmile_qr_scan"}}, {"name": "491aad5d14cc101c271375e39560e978", "fusion_lat": 0.0, "type": "electric_scooter", "lat": 38.940858666666664, "is_reserved": 0, "is_disabled": 0, "fusion_lon": 0.0, "bike_id": "491aad5d14cc101c271375e39560e978", "lon": -77.01775166666667, "rental_uris": {"ios": "https://dc.lft.to/lastmile_qr_scan", "android": "https://dc.lft.to/lastmile_qr_scan"}}, {"name": "dffbe9e8591130b26c40d2bc2513dbbc", "fusion_lat": 0.0, "type": "electric_scooter", "lat": 38.902270666666666, "is_reserved": 0, "is_disabled": 0, "fusion_lon": 0.0, "bike_id": "dffbe9e8591130b26c40d2bc2513dbbc", "lon": -77.05128033333334, "rental_uris": {"ios": "https://dc.lft.to/lastmile_qr_scan", "android": "https://dc.lft.to/lastmile_qr_scan"}}, {"name": "58fa9f206d4a1b639c744772a4dbdf0f", "fusion_lat": 0.0, "type": "electric_scooter", "lat": 38.909708333333334, "is_reserved": 0, "is_disabled": 0, "fusion_lon": 0.0, "bike_id": "58fa9f206d4a1b639c744772a4dbdf0f", "lon": -77.02179883333334, "rental_uris": {"ios": "https://dc.lft.to/lastmile_qr_scan", "android": "https://dc.lft.to/lastmile_qr_scan"}}, {"name": "0222b468be8121d3ca53d90438c7cb17", "fusion_lat": 0.0, "type": "electric_scooter", "lat": 38.89357366666667, "is_reserved": 0, "is_disabled": 0, "fusion_lon": 0.0, "bike_id": "0222b468be8121d3ca53d90438c7cb17", "lon": -76.94985533333333, "rental_uris": {"ios": "https://dc.lft.to/lastmile_qr_scan", "android": "https://dc.lft.to/lastmile_qr_scan"}}, {"name": "83676275b5759f4a4729afd7aff17db6", "fusion_lat": 0.0, "type": "electric_scooter", "lat": 38.916958666666666, "is_reserved": 0, "is_disabled": 0, "fusion_lon": 0.0, "bike_id": "83676275b5759f4a4729afd7aff17db6", "lon": -77.03148016666667, "rental_uris": {"ios": "https://dc.lft.to/lastmile_qr_scan", "android": "https://dc.lft.to/lastmile_qr_scan"}}, {"name": "b2c270889f49d6817e64b29d0e0cc074", "fusion_lat": 0.0, "type": "electric_scooter", "lat": 38.918142, "is_reserved": 0, "is_disabled": 0, "fusion_lon": 0.0, "bike_id": "b2c270889f49d6817e64b29d0e0cc074", "lon": -77.028035, "rental_uris": {"ios": "https://dc.lft.to/lastmile_qr_scan", "android": "https://dc.lft.to/lastmile_qr_scan"}}, {"name": "91d002bddd34911f4e1c009b55f37ec6", "fusion_lat": 0.0, "type": "electric_scooter", "lat": 38.89683133333333, "is_reserved": 0, "is_disabled": 0, "fusion_lon": 0.0, "bike_id": "91d002bddd34911f4e1c009b55f37ec6", "lon": -77.00796266666667, "rental_uris": {"ios": "https://dc.lft.to/lastmile_qr_scan", "android": "https://dc.lft.to/lastmile_qr_scan"}}, {"name": "38f898c1c90742f6e93f1fa371011002", "fusion_lat": 0.0, "type": "electric_scooter", "lat": 38.9004565, "is_reserved": 0, "is_disabled": 0, "fusion_lon": 0.0, "bike_id": "38f898c1c90742f6e93f1fa371011002", "lon": -77.029749, "rental_uris": {"ios": "https://dc.lft.to/lastmile_qr_scan", "android": "https://dc.lft.to/lastmile_qr_scan"}}, {"name": "24bb2d838210b216fc6624d46b9a06d1", "fusion_lat": 0.0, "type": "electric_scooter", "lat": 38.931498833333336, "is_reserved": 0, "is_disabled": 0, "fusion_lon": 0.0, "bike_id": "24bb2d838210b216fc6624d46b9a06d1", "lon": -77.02971516666666, "rental_uris": {"ios": "https://dc.lft.to/lastmile_qr_scan", "android": "https://dc.lft.to/lastmile_qr_scan"}}, {"name": "6a09737c3214343f64d58e537902c004", "fusion_lat": 0.0, "type": "electric_scooter", "lat": 38.91922983333333, "is_reserved": 0, "is_disabled": 0, "fusion_lon": 0.0, "bike_id": "6a09737c3214343f64d58e537902c004", "lon": -77.02419566666667, "rental_uris": {"ios": "https://dc.lft.to/lastmile_qr_scan", "android": "https://dc.lft.to/lastmile_qr_scan"}}, {"name": "e0e082266f8e91777c92ba1050d83368", "fusion_lat": 0.0, "type": "electric_scooter", "lat": 38.91112916666667, "is_reserved": 0, "is_disabled": 0, "fusion_lon": 0.0, "bike_id": "e0e082266f8e91777c92ba1050d83368", "lon": -77.00608783333334, "rental_uris": {"ios": "https://dc.lft.to/lastmile_qr_scan", "android": "https://dc.lft.to/lastmile_qr_scan"}}, {"name": "ea1830784a83e8fb6a2b34896672fd95", "fusion_lat": 0.0, "type": "electric_scooter", "lat": 38.9119645, "is_reserved": 0, "is_disabled": 0, "fusion_lon": 0.0, "bike_id": "ea1830784a83e8fb6a2b34896672fd95", "lon": -77.03449666666667, "rental_uris": {"ios": "https://dc.lft.to/lastmile_qr_scan", "android": "https://dc.lft.to/lastmile_qr_scan"}}, {"name": "54a2aefcafc95e5c29aec10a614de485", "fusion_lat": 0.0, "type": "electric_scooter", "lat": 38.914198166666665, "is_reserved": 0, "is_disabled": 0, "fusion_lon": 0.0, "bike_id": "54a2aefcafc95e5c29aec10a614de485", "lon": -77.02117733333333, "rental_uris": {"ios": "https://dc.lft.to/lastmile_qr_scan", "android": "https://dc.lft.to/lastmile_qr_scan"}}, {"name": "65f6ee297c4a8eb6a45f4e6ad7211c01", "fusion_lat": 0.0, "type": "electric_scooter", "lat": 38.90029116666667, "is_reserved": 0, "is_disabled": 0, "fusion_lon": 0.0, "bike_id": "65f6ee297c4a8eb6a45f4e6ad7211c01", "lon": -77.011873, "rental_uris": {"ios": "https://dc.lft.to/lastmile_qr_scan", "android": "https://dc.lft.to/lastmile_qr_scan"}}, {"name": "7e05469211a6324d2fd6e2834a9e27ec", "fusion_lat": 0.0, "type": "electric_scooter", "lat": 38.90263566666667, "is_reserved": 0, "is_disabled": 0, "fusion_lon": 0.0, "bike_id": "7e05469211a6324d2fd6e2834a9e27ec", "lon": -77.030001, "rental_uris": {"ios": "https://dc.lft.to/lastmile_qr_scan", "android": "https://dc.lft.to/lastmile_qr_scan"}}, {"name": "64d0bcfd980a93fb2f453c5a37f2a35c", "fusion_lat": 0.0, "type": "electric_scooter", "lat": 38.9024515, "is_reserved": 0, "is_disabled": 0, "fusion_lon": 0.0, "bike_id": "64d0bcfd980a93fb2f453c5a37f2a35c", "lon": -77.04612616666667, "rental_uris": {"ios": "https://dc.lft.to/lastmile_qr_scan", "android": "https://dc.lft.to/lastmile_qr_scan"}}, {"name": "39f07297c1ccb648b0138a31d9d8916c", "fusion_lat": 0.0, "type": "electric_scooter", "lat": 38.915425666666664, "is_reserved": 0, "is_disabled": 0, "fusion_lon": 0.0, "bike_id": "39f07297c1ccb648b0138a31d9d8916c", "lon": -77.03859466666667, "rental_uris": {"ios": "https://dc.lft.to/lastmile_qr_scan", "android": "https://dc.lft.to/lastmile_qr_scan"}}, {"name": "6220476585154ae421969eca5f5f02ce", "fusion_lat": 0.0, "type": "electric_scooter", "lat": 38.926184, "is_reserved": 0, "is_disabled": 0, "fusion_lon": 0.0, "bike_id": "6220476585154ae421969eca5f5f02ce", "lon": -77.03673566666667, "rental_uris": {"ios": "https://dc.lft.to/lastmile_qr_scan", "android": "https://dc.lft.to/lastmile_qr_scan"}}, {"name": "1beb32ce1a21ab7712aacb9951a0012f", "fusion_lat": 0.0, "type": "electric_scooter", "lat": 38.865359166666664, "is_reserved": 0, "is_disabled": 0, "fusion_lon": 0.0, "bike_id": "1beb32ce1a21ab7712aacb9951a0012f", "lon": -76.9870775, "rental_uris": {"ios": "https://dc.lft.to/lastmile_qr_scan", "android": "https://dc.lft.to/lastmile_qr_scan"}}, {"name": "4f4db7209759e905a040a3c91a7f7f6a", "fusion_lat": 0.0, "type": "electric_scooter", "lat": 38.92478283333333, "is_reserved": 0, "is_disabled": 0, "fusion_lon": 0.0, "bike_id": "4f4db7209759e905a040a3c91a7f7f6a", "lon": -77.03132683333334, "rental_uris": {"ios": "https://dc.lft.to/lastmile_qr_scan", "android": "https://dc.lft.to/lastmile_qr_scan"}}, {"name": "bb6b4f6b7cb1dc03dbb981c75cdb4814", "fusion_lat": 0.0, "type": "electric_scooter", "lat": 38.902754, "is_reserved": 0, "is_disabled": 0, "fusion_lon": 0.0, "bike_id": "bb6b4f6b7cb1dc03dbb981c75cdb4814", "lon": -77.03848233333333, "rental_uris": {"ios": "https://dc.lft.to/lastmile_qr_scan", "android": "https://dc.lft.to/lastmile_qr_scan"}}, {"name": "a68d7f7f566ef4debd1923c655d62cf1", "fusion_lat": 0.0, "type": "electric_scooter", "lat": 38.916834, "is_reserved": 0, "is_disabled": 0, "fusion_lon": 0.0, "bike_id": "a68d7f7f566ef4debd1923c655d62cf1", "lon": -77.029009, "rental_uris": {"ios": "https://dc.lft.to/lastmile_qr_scan", "android": "https://dc.lft.to/lastmile_qr_scan"}}, {"name": "7ca33174058a464442df6913c265c065", "fusion_lat": 0.0, "type": "electric_scooter", "lat": 38.890164, "is_reserved": 0, "is_disabled": 0, "fusion_lon": 0.0, "bike_id": "7ca33174058a464442df6913c265c065", "lon": -76.93746666666667, "rental_uris": {"ios": "https://dc.lft.to/lastmile_qr_scan", "android": "https://dc.lft.to/lastmile_qr_scan"}}, {"name": "733fc1e4a684b05a78fb08bc83d948b1", "fusion_lat": 0.0, "type": "electric_scooter", "lat": 38.905784, "is_reserved": 0, "is_disabled": 0, "fusion_lon": 0.0, "bike_id": "733fc1e4a684b05a78fb08bc83d948b1", "lon": -77.03441733333334, "rental_uris": {"ios": "https://dc.lft.to/lastmile_qr_scan", "android": "https://dc.lft.to/lastmile_qr_scan"}}, {"name": "cc8225059212fbea064fee92b57c3ae9", "fusion_lat": 0.0, "type": "electric_scooter", "lat": 38.9027935, "is_reserved": 0, "is_disabled": 0, "fusion_lon": 0.0, "bike_id": "cc8225059212fbea064fee92b57c3ae9", "lon": -77.03851116666667, "rental_uris": {"ios": "https://dc.lft.to/lastmile_qr_scan", "android": "https://dc.lft.to/lastmile_qr_scan"}}, {"name": "3be14d14e3e3c31e3970f9a999b067a1", "fusion_lat": 0.0, "type": "electric_bike", "lat": 39.05346733333333, "is_reserved": 0, "is_disabled": 0, "fusion_lon": 0.0, "bike_id": "3be14d14e3e3c31e3970f9a999b067a1", "lon": -77.1359615, "rental_uris": {"ios": "https://dc.lft.to/lastmile_qr_scan", "android": "https://dc.lft.to/lastmile_qr_scan"}}, {"name": "eacaacbf030df0f877c5355ff4fe816f", "fusion_lat": 0.0, "type": "electric_bike", "lat": 38.88617966666666, "is_reserved": 0, "is_disabled": 0, "fusion_lon": 0.0, "bike_id": "eacaacbf030df0f877c5355ff4fe816f", "lon": -77.107566, "rental_uris": {"ios": "https://dc.lft.to/lastmile_qr_scan", "android": "https://dc.lft.to/lastmile_qr_scan"}}, {"name": "de4de44b1278b6d6355bf33a6c74ca84", "fusion_lat": 0.0, "type": "electric_scooter", "lat": 38.9042605, "is_reserved": 0, "is_disabled": 0, "fusion_lon": 0.0, "bike_id": "de4de44b1278b6d6355bf33a6c74ca84", "lon": -77.03117683333333, "rental_uris": {"ios": "https://dc.lft.to/lastmile_qr_scan", "android": "https://dc.lft.to/lastmile_qr_scan"}}, {"name": "9353c55346d1d69fb557c2850235f0d8", "fusion_lat": 0.0, "type": "electric_scooter", "lat": 38.862600666666665, "is_reserved": 0, "is_disabled": 0, "fusion_lon": 0.0, "bike_id": "9353c55346d1d69fb557c2850235f0d8", "lon": -76.98721383333333, "rental_uris": {"ios": "https://dc.lft.to/lastmile_qr_scan", "android": "https://dc.lft.to/lastmile_qr_scan"}}, {"name": "a4b762e7e6ebbd7b92bcbad6ef2e28ba", "fusion_lat": 0.0, "type": "electric_scooter", "lat": 38.89482783333333, "is_reserved": 0, "is_disabled": 0, "fusion_lon": 0.0, "bike_id": "a4b762e7e6ebbd7b92bcbad6ef2e28ba", "lon": -77.01017483333334, "rental_uris": {"ios": "https://dc.lft.to/lastmile_qr_scan", "android": "https://dc.lft.to/lastmile_qr_scan"}}, {"name": "fa93873cb99af97369768ee3d20c6eed", "fusion_lat": 0.0, "type": "electric_scooter", "lat": 38.93394883333333, "is_reserved": 0, "is_disabled": 0, "fusion_lon": 0.0, "bike_id": "fa93873cb99af97369768ee3d20c6eed", "lon": -77.07377866666667, "rental_uris": {"ios": "https://dc.lft.to/lastmile_qr_scan", "android": "https://dc.lft.to/lastmile_qr_scan"}}, {"name": "3110d18ea8d79c909dc31733597f7d35", "fusion_lat": 0.0, "type": "electric_scooter", "lat": 38.91912333333333, "is_reserved": 0, "is_disabled": 0, "fusion_lon": 0.0, "bike_id": "3110d18ea8d79c909dc31733597f7d35", "lon": -77.03626483333333, "rental_uris": {"ios": "https://dc.lft.to/lastmile_qr_scan", "android": "https://dc.lft.to/lastmile_qr_scan"}}, {"name": "1cb44695dfa973e2d51bddf59adbc913", "fusion_lat": 0.0, "type": "electric_bike", "lat": 38.921469, "is_reserved": 0, "is_disabled": 0, "fusion_lon": 0.0, "bike_id": "1cb44695dfa973e2d51bddf59adbc913", "lon": -77.03875233333333, "rental_uris": {"ios": "https://dc.lft.to/lastmile_qr_scan", "android": "https://dc.lft.to/lastmile_qr_scan"}}, {"name": "8f7cca5ec560da44f5f324c3cba97654", "fusion_lat": 0.0, "type": "electric_scooter", "lat": 38.880286166666664, "is_reserved": 0, "is_disabled": 0, "fusion_lon": 0.0, "bike_id": "8f7cca5ec560da44f5f324c3cba97654", "lon": -77.02504066666667, "rental_uris": {"ios": "https://dc.lft.to/lastmile_qr_scan", "android": "https://dc.lft.to/lastmile_qr_scan"}}, {"name": "e656200c16c34e8e5ecb1ca86c45581b", "fusion_lat": 0.0, "type": "electric_scooter", "lat": 38.897298166666666, "is_reserved": 0, "is_disabled": 0, "fusion_lon": 0.0, "bike_id": "e656200c16c34e8e5ecb1ca86c45581b", "lon": -77.02173566666667, "rental_uris": {"ios": "https://dc.lft.to/lastmile_qr_scan", "android": "https://dc.lft.to/lastmile_qr_scan"}}, {"name": "2a74841faa7b4876734b1cf63e8491d8", "fusion_lat": 0.0, "type": "electric_scooter", "lat": 38.9346905, "is_reserved": 0, "is_disabled": 0, "fusion_lon": 0.0, "bike_id": "2a74841faa7b4876734b1cf63e8491d8", "lon": -77.03521483333333, "rental_uris": {"ios": "https://dc.lft.to/lastmile_qr_scan", "android": "https://dc.lft.to/lastmile_qr_scan"}}, {"name": "583ee09a67c66a13645b3e3bc932350d", "fusion_lat": 0.0, "type": "electric_scooter", "lat": 38.962290833333334, "is_reserved": 0, "is_disabled": 0, "fusion_lon": 0.0, "bike_id": "583ee09a67c66a13645b3e3bc932350d", "lon": -77.029818, "rental_uris": {"ios": "https://dc.lft.to/lastmile_qr_scan", "android": "https://dc.lft.to/lastmile_qr_scan"}}, {"name": "dc628dd825ed0558e5ca27a1c5b162b9", "fusion_lat": 0.0, "type": "electric_scooter", "lat": 38.92824, "is_reserved": 0, "is_disabled": 0, "fusion_lon": 0.0, "bike_id": "dc628dd825ed0558e5ca27a1c5b162b9", "lon": -77.0226025, "rental_uris": {"ios": "https://dc.lft.to/lastmile_qr_scan", "android": "https://dc.lft.to/lastmile_qr_scan"}}, {"name": "15f8a0f0a93a8740b33bda86d4f2ef03", "fusion_lat": 0.0, "type": "electric_scooter", "lat": 38.90581316666667, "is_reserved": 0, "is_disabled": 0, "fusion_lon": 0.0, "bike_id": "15f8a0f0a93a8740b33bda86d4f2ef03", "lon": -77.0486475, "rental_uris": {"ios": "https://dc.lft.to/lastmile_qr_scan", "android": "https://dc.lft.to/lastmile_qr_scan"}}, {"name": "20092c8ea4872932975835c8a32f1a47", "fusion_lat": 0.0, "type": "electric_scooter", "lat": 38.88229183333333, "is_reserved": 0, "is_disabled": 0, "fusion_lon": 0.0, "bike_id": "20092c8ea4872932975835c8a32f1a47", "lon": -77.02584383333334, "rental_uris": {"ios": "https://dc.lft.to/lastmile_qr_scan", "android": "https://dc.lft.to/lastmile_qr_scan"}}, {"name": "7722d81022f91af46ba308577abb98f6", "fusion_lat": 0.0, "type": "electric_scooter", "lat": 38.86155766666667, "is_reserved": 0, "is_disabled": 0, "fusion_lon": 0.0, "bike_id": "7722d81022f91af46ba308577abb98f6", "lon": -76.9890195, "rental_uris": {"ios": "https://dc.lft.to/lastmile_qr_scan", "android": "https://dc.lft.to/lastmile_qr_scan"}}, {"name": "1ac33a59c9e80ba1d3c1c24d0700eda4", "fusion_lat": 0.0, "type": "electric_scooter", "lat": 38.922427666666664, "is_reserved": 0, "is_disabled": 0, "fusion_lon": 0.0, "bike_id": "1ac33a59c9e80ba1d3c1c24d0700eda4", "lon": -77.04713866666667, "rental_uris": {"ios": "https://dc.lft.to/lastmile_qr_scan", "android": "https://dc.lft.to/lastmile_qr_scan"}}, {"name": "e303568e5a7fe16f8041af8b5a8d3e9b", "fusion_lat": 0.0, "type": "electric_scooter", "lat": 38.925735833333334, "is_reserved": 0, "is_disabled": 0, "fusion_lon": 0.0, "bike_id": "e303568e5a7fe16f8041af8b5a8d3e9b", "lon": -76.99494383333334, "rental_uris": {"ios": "https://dc.lft.to/lastmile_qr_scan", "android": "https://dc.lft.to/lastmile_qr_scan"}}, {"name": "2f565d25fb64182c84b43d3e8caa501b", "fusion_lat": 0.0, "type": "electric_scooter", "lat": 38.90907683333333, "is_reserved": 0, "is_disabled": 0, "fusion_lon": 0.0, "bike_id": "2f565d25fb64182c84b43d3e8caa501b", "lon": -77.04873316666666, "rental_uris": {"ios": "https://dc.lft.to/lastmile_qr_scan", "android": "https://dc.lft.to/lastmile_qr_scan"}}, {"name": "6d7395be5f7ef4c05a212885fcb49764", "fusion_lat": 0.0, "type": "electric_scooter", "lat": 38.9254525, "is_reserved": 0, "is_disabled": 0, "fusion_lon": 0.0, "bike_id": "6d7395be5f7ef4c05a212885fcb49764", "lon": -77.03224766666666, "rental_uris": {"ios": "https://dc.lft.to/lastmile_qr_scan", "android": "https://dc.lft.to/lastmile_qr_scan"}}, {"name": "1ac655fe4b7dbea8c4be4e0172ea5888", "fusion_lat": 0.0, "type": "electric_bike", "lat": 38.960148833333335, "is_reserved": 0, "is_disabled": 0, "fusion_lon": 0.0, "bike_id": "1ac655fe4b7dbea8c4be4e0172ea5888", "lon": -76.99874933333334, "rental_uris": {"ios": "https://dc.lft.to/lastmile_qr_scan", "android": "https://dc.lft.to/lastmile_qr_scan"}}, {"name": "5662636e4a4a0110485f34dc387945d7", "fusion_lat": 0.0, "type": "electric_scooter", "lat": 38.905342833333336, "is_reserved": 0, "is_disabled": 0, "fusion_lon": 0.0, "bike_id": "5662636e4a4a0110485f34dc387945d7", "lon": -77.04758016666666, "rental_uris": {"ios": "https://dc.lft.to/lastmile_qr_scan", "android": "https://dc.lft.to/lastmile_qr_scan"}}, {"name": "45901e8c1bf58751da64a850282b1ec0", "fusion_lat": 0.0, "type": "electric_scooter", "lat": 38.938743833333334, "is_reserved": 0, "is_disabled": 0, "fusion_lon": 0.0, "bike_id": "45901e8c1bf58751da64a850282b1ec0", "lon": -77.03257583333334, "rental_uris": {"ios": "https://dc.lft.to/lastmile_qr_scan", "android": "https://dc.lft.to/lastmile_qr_scan"}}, {"name": "a3380be62d292303a90c4c15eaf0a42a", "fusion_lat": 0.0, "type": "electric_scooter", "lat": 38.926807333333336, "is_reserved": 0, "is_disabled": 0, "fusion_lon": 0.0, "bike_id": "a3380be62d292303a90c4c15eaf0a42a", "lon": -77.01461, "rental_uris": {"ios": "https://dc.lft.to/lastmile_qr_scan", "android": "https://dc.lft.to/lastmile_qr_scan"}}, {"name": "0a8f8d479c00f9e654d43ff64a651932", "fusion_lat": 0.0, "type": "electric_bike", "lat": 38.9654155, "is_reserved": 0, "is_disabled": 0, "fusion_lon": 0.0, "bike_id": "0a8f8d479c00f9e654d43ff64a651932", "lon": -77.03525616666667, "rental_uris": {"ios": "https://dc.lft.to/lastmile_qr_scan", "android": "https://dc.lft.to/lastmile_qr_scan"}}, {"name": "98d97f2e093f6e3762c73255da2bc0dd", "fusion_lat": 0.0, "type": "electric_scooter", "lat": 38.910417833333334, "is_reserved": 0, "is_disabled": 0, "fusion_lon": 0.0, "bike_id": "98d97f2e093f6e3762c73255da2bc0dd", "lon": -77.02820633333333, "rental_uris": {"ios": "https://dc.lft.to/lastmile_qr_scan", "android": "https://dc.lft.to/lastmile_qr_scan"}}, {"name": "fb2ddfc6e8fe8f56993e0c5e36860f44", "fusion_lat": 0.0, "type": "electric_scooter", "lat": 38.9070285, "is_reserved": 0, "is_disabled": 0, "fusion_lon": 0.0, "bike_id": "fb2ddfc6e8fe8f56993e0c5e36860f44", "lon": -76.98699466666666, "rental_uris": {"ios": "https://dc.lft.to/lastmile_qr_scan", "android": "https://dc.lft.to/lastmile_qr_scan"}}, {"name": "2d4aed1f7f5c4119aab0fd24f1c7ff1a", "fusion_lat": 0.0, "type": "electric_scooter", "lat": 38.915633666666665, "is_reserved": 0, "is_disabled": 0, "fusion_lon": 0.0, "bike_id": "2d4aed1f7f5c4119aab0fd24f1c7ff1a", "lon": -77.04286616666667, "rental_uris": {"ios": "https://dc.lft.to/lastmile_qr_scan", "android": "https://dc.lft.to/lastmile_qr_scan"}}, {"name": "bb9dcafc98afacedc5fae012b8d6028d", "fusion_lat": 0.0, "type": "electric_scooter", "lat": 38.885039, "is_reserved": 0, "is_disabled": 0, "fusion_lon": 0.0, "bike_id": "bb9dcafc98afacedc5fae012b8d6028d", "lon": -77.0056975, "rental_uris": {"ios": "https://dc.lft.to/lastmile_qr_scan", "android": "https://dc.lft.to/lastmile_qr_scan"}}, {"name": "677cf88af2ad7324c525dcb1fefa6f1a", "fusion_lat": 0.0, "type": "electric_scooter", "lat": 38.894332, "is_reserved": 0, "is_disabled": 0, "fusion_lon": 0.0, "bike_id": "677cf88af2ad7324c525dcb1fefa6f1a", "lon": -77.01100816666667, "rental_uris": {"ios": "https://dc.lft.to/lastmile_qr_scan", "android": "https://dc.lft.to/lastmile_qr_scan"}}, {"name": "aae0ba5550954f41598ca9a0c233c3fa", "fusion_lat": 0.0, "type": "electric_scooter", "lat": 38.894799166666665, "is_reserved": 0, "is_disabled": 0, "fusion_lon": 0.0, "bike_id": "aae0ba5550954f41598ca9a0c233c3fa", "lon": -77.01015383333333, "rental_uris": {"ios": "https://dc.lft.to/lastmile_qr_scan", "android": "https://dc.lft.to/lastmile_qr_scan"}}, {"name": "775cdb6371318816d44110f097bb90e0", "fusion_lat": 0.0, "type": "electric_scooter", "lat": 38.90327833333333, "is_reserved": 0, "is_disabled": 0, "fusion_lon": 0.0, "bike_id": "775cdb6371318816d44110f097bb90e0", "lon": -77.053194, "rental_uris": {"ios": "https://dc.lft.to/lastmile_qr_scan", "android": "https://dc.lft.to/lastmile_qr_scan"}}, {"name": "70c56b4287955e8d48039801cd2ab9ca", "fusion_lat": 0.0, "type": "electric_scooter", "lat": 38.90267, "is_reserved": 0, "is_disabled": 0, "fusion_lon": 0.0, "bike_id": "70c56b4287955e8d48039801cd2ab9ca", "lon": -77.04069616666666, "rental_uris": {"ios": "https://dc.lft.to/lastmile_qr_scan", "android": "https://dc.lft.to/lastmile_qr_scan"}}, {"name": "65f533711c8ecaa3ebb3143e92d90c7d", "fusion_lat": 0.0, "type": "electric_bike", "lat": 38.819365, "is_reserved": 0, "is_disabled": 0, "fusion_lon": 0.0, "bike_id": "65f533711c8ecaa3ebb3143e92d90c7d", "lon": -77.0020865, "rental_uris": {"ios": "https://dc.lft.to/lastmile_qr_scan", "android": "https://dc.lft.to/lastmile_qr_scan"}}, {"name": "70a776df7afcb53128165f9d1c90d83f", "fusion_lat": 0.0, "type": "electric_scooter", "lat": 38.917972666666664, "is_reserved": 0, "is_disabled": 0, "fusion_lon": 0.0, "bike_id": "70a776df7afcb53128165f9d1c90d83f", "lon": -77.0401665, "rental_uris": {"ios": "https://dc.lft.to/lastmile_qr_scan", "android": "https://dc.lft.to/lastmile_qr_scan"}}, {"name": "624a2a9f1bfe9b8eea9ac330f606f12d", "fusion_lat": 0.0, "type": "electric_bike", "lat": 38.8524665, "is_reserved": 0, "is_disabled": 0, "fusion_lon": 0.0, "bike_id": "624a2a9f1bfe9b8eea9ac330f606f12d", "lon": -77.1142915, "rental_uris": {"ios": "https://dc.lft.to/lastmile_qr_scan", "android": "https://dc.lft.to/lastmile_qr_scan"}}, {"name": "bcf12684817e3a125c5617bc63a4d055", "fusion_lat": 0.0, "type": "electric_scooter", "lat": 38.90568916666667, "is_reserved": 0, "is_disabled": 0, "fusion_lon": 0.0, "bike_id": "bcf12684817e3a125c5617bc63a4d055", "lon": -77.00614233333333, "rental_uris": {"ios": "https://dc.lft.to/lastmile_qr_scan", "android": "https://dc.lft.to/lastmile_qr_scan"}}, {"name": "0acc1df7265aec6de5dd2381a24f11fd", "fusion_lat": 0.0, "type": "electric_scooter", "lat": 38.89220183333333, "is_reserved": 0, "is_disabled": 0, "fusion_lon": 0.0, "bike_id": "0acc1df7265aec6de5dd2381a24f11fd", "lon": -77.02232416666666, "rental_uris": {"ios": "https://dc.lft.to/lastmile_qr_scan", "android": "https://dc.lft.to/lastmile_qr_scan"}}, {"name": "e39ccd72d3a4548651a6b21a45a4d3e6", "fusion_lat": 0.0, "type": "electric_scooter", "lat": 38.91817783333333, "is_reserved": 0, "is_disabled": 0, "fusion_lon": 0.0, "bike_id": "e39ccd72d3a4548651a6b21a45a4d3e6", "lon": -77.03215666666667, "rental_uris": {"ios": "https://dc.lft.to/lastmile_qr_scan", "android": "https://dc.lft.to/lastmile_qr_scan"}}, {"name": "0ddd8cfe28a00bd3ffd9f54a221fe6e3", "fusion_lat": 0.0, "type": "electric_scooter", "lat": 38.92376566666667, "is_reserved": 0, "is_disabled": 0, "fusion_lon": 0.0, "bike_id": "0ddd8cfe28a00bd3ffd9f54a221fe6e3", "lon": -76.990265, "rental_uris": {"ios": "https://dc.lft.to/lastmile_qr_scan", "android": "https://dc.lft.to/lastmile_qr_scan"}}, {"name": "1f12ea9aa07b7dc0ad1878e58c54bc45", "fusion_lat": 0.0, "type": "electric_scooter", "lat": 38.905157, "is_reserved": 0, "is_disabled": 0, "fusion_lon": 0.0, "bike_id": "1f12ea9aa07b7dc0ad1878e58c54bc45", "lon": -77.02965933333333, "rental_uris": {"ios": "https://dc.lft.to/lastmile_qr_scan", "android": "https://dc.lft.to/lastmile_qr_scan"}}, {"name": "40f24af3f121e7a8e617c20e9b7233f1", "fusion_lat": 0.0, "type": "electric_scooter", "lat": 38.91703833333333, "is_reserved": 0, "is_disabled": 0, "fusion_lon": 0.0, "bike_id": "40f24af3f121e7a8e617c20e9b7233f1", "lon": -77.03143816666666, "rental_uris": {"ios": "https://dc.lft.to/lastmile_qr_scan", "android": "https://dc.lft.to/lastmile_qr_scan"}}, {"name": "65ad89b3cf001d55aca37cce9b92cc64", "fusion_lat": 0.0, "type": "electric_scooter", "lat": 38.884843833333335, "is_reserved": 0, "is_disabled": 0, "fusion_lon": 0.0, "bike_id": "65ad89b3cf001d55aca37cce9b92cc64", "lon": -77.0071455, "rental_uris": {"ios": "https://dc.lft.to/lastmile_qr_scan", "android": "https://dc.lft.to/lastmile_qr_scan"}}, {"name": "3b6e28017b569a5d7e07bf7a11ded6e5", "fusion_lat": 0.0, "type": "electric_scooter", "lat": 38.912686, "is_reserved": 0, "is_disabled": 0, "fusion_lon": 0.0, "bike_id": "3b6e28017b569a5d7e07bf7a11ded6e5", "lon": -77.03871566666666, "rental_uris": {"ios": "https://dc.lft.to/lastmile_qr_scan", "android": "https://dc.lft.to/lastmile_qr_scan"}}, {"name": "4efe532d77760c7824ce96cec5b2c25c", "fusion_lat": 0.0, "type": "electric_scooter", "lat": 38.897999166666665, "is_reserved": 0, "is_disabled": 0, "fusion_lon": 0.0, "bike_id": "4efe532d77760c7824ce96cec5b2c25c", "lon": -77.046128, "rental_uris": {"ios": "https://dc.lft.to/lastmile_qr_scan", "android": "https://dc.lft.to/lastmile_qr_scan"}}, {"name": "fa2f69f2fb963f8aec5c08dd5a43f70d", "fusion_lat": 0.0, "type": "electric_scooter", "lat": 38.92226216666667, "is_reserved": 0, "is_disabled": 0, "fusion_lon": 0.0, "bike_id": "fa2f69f2fb963f8aec5c08dd5a43f70d", "lon": -77.02116633333333, "rental_uris": {"ios": "https://dc.lft.to/lastmile_qr_scan", "android": "https://dc.lft.to/lastmile_qr_scan"}}, {"name": "121755801affd489696c3b453a1fcf71", "fusion_lat": 0.0, "type": "electric_scooter", "lat": 38.91875816666666, "is_reserved": 0, "is_disabled": 0, "fusion_lon": 0.0, "bike_id": "121755801affd489696c3b453a1fcf71", "lon": -77.0350545, "rental_uris": {"ios": "https://dc.lft.to/lastmile_qr_scan", "android": "https://dc.lft.to/lastmile_qr_scan"}}, {"name": "44d54f6ef160a15d0160e22eb3a567a4", "fusion_lat": 0.0, "type": "electric_scooter", "lat": 38.920929, "is_reserved": 0, "is_disabled": 0, "fusion_lon": 0.0, "bike_id": "44d54f6ef160a15d0160e22eb3a567a4", "lon": -77.02697266666667, "rental_uris": {"ios": "https://dc.lft.to/lastmile_qr_scan", "android": "https://dc.lft.to/lastmile_qr_scan"}}, {"name": "1e1eeb70c663e98a86f08bc01f124a01", "fusion_lat": 0.0, "type": "electric_scooter", "lat": 38.921778833333335, "is_reserved": 0, "is_disabled": 0, "fusion_lon": 0.0, "bike_id": "1e1eeb70c663e98a86f08bc01f124a01", "lon": -77.0241905, "rental_uris": {"ios": "https://dc.lft.to/lastmile_qr_scan", "android": "https://dc.lft.to/lastmile_qr_scan"}}, {"name": "0e519321edaba77a9a0a09ea50791836", "fusion_lat": 0.0, "type": "electric_bike", "lat": 38.89649133333333, "is_reserved": 0, "is_disabled": 0, "fusion_lon": 0.0, "bike_id": "0e519321edaba77a9a0a09ea50791836", "lon": -77.10457183333334, "rental_uris": {"ios": "https://dc.lft.to/lastmile_qr_scan", "android": "https://dc.lft.to/lastmile_qr_scan"}}, {"name": "ac3c28e9fc3c944adc7b8aabf7a39053", "fusion_lat": 0.0, "type": "electric_scooter", "lat": 38.90791083333333, "is_reserved": 0, "is_disabled": 0, "fusion_lon": 0.0, "bike_id": "ac3c28e9fc3c944adc7b8aabf7a39053", "lon": -77.03833066666667, "rental_uris": {"ios": "https://dc.lft.to/lastmile_qr_scan", "android": "https://dc.lft.to/lastmile_qr_scan"}}, {"name": "ae3dd00df9c8cad667fac1cd5e1bbb37", "fusion_lat": 0.0, "type": "electric_scooter", "lat": 38.87475516666667, "is_reserved": 0, "is_disabled": 0, "fusion_lon": 0.0, "bike_id": "ae3dd00df9c8cad667fac1cd5e1bbb37", "lon": -77.01071816666666, "rental_uris": {"ios": "https://dc.lft.to/lastmile_qr_scan", "android": "https://dc.lft.to/lastmile_qr_scan"}}, {"name": "a65c661d4e347aab754767144cb1dafc", "fusion_lat": 0.0, "type": "electric_bike", "lat": 38.86869133333333, "is_reserved": 0, "is_disabled": 0, "fusion_lon": 0.0, "bike_id": "a65c661d4e347aab754767144cb1dafc", "lon": -76.91665783333333, "rental_uris": {"ios": "https://dc.lft.to/lastmile_qr_scan", "android": "https://dc.lft.to/lastmile_qr_scan"}}, {"name": "a39a4254c582019964297287dcb72f7b", "fusion_lat": 0.0, "type": "electric_scooter", "lat": 38.91106666666667, "is_reserved": 0, "is_disabled": 0, "fusion_lon": 0.0, "bike_id": "a39a4254c582019964297287dcb72f7b", "lon": -77.04508866666667, "rental_uris": {"ios": "https://dc.lft.to/lastmile_qr_scan", "android": "https://dc.lft.to/lastmile_qr_scan"}}, {"name": "71e560bb01e3dcced35ed167b43866b8", "fusion_lat": 0.0, "type": "electric_scooter", "lat": 38.9142175, "is_reserved": 0, "is_disabled": 0, "fusion_lon": 0.0, "bike_id": "71e560bb01e3dcced35ed167b43866b8", "lon": -77.00974616666667, "rental_uris": {"ios": "https://dc.lft.to/lastmile_qr_scan", "android": "https://dc.lft.to/lastmile_qr_scan"}}, {"name": "92e12919b97b48ceef2ac3a439c55cc0", "fusion_lat": 0.0, "type": "electric_scooter", "lat": 38.90565083333333, "is_reserved": 0, "is_disabled": 0, "fusion_lon": 0.0, "bike_id": "92e12919b97b48ceef2ac3a439c55cc0", "lon": -77.002808, "rental_uris": {"ios": "https://dc.lft.to/lastmile_qr_scan", "android": "https://dc.lft.to/lastmile_qr_scan"}}, {"name": "6bf908d059e8ea5756b8a97e0c197e94", "fusion_lat": 0.0, "type": "electric_scooter", "lat": 38.89589316666667, "is_reserved": 0, "is_disabled": 0, "fusion_lon": 0.0, "bike_id": "6bf908d059e8ea5756b8a97e0c197e94", "lon": -76.94864483333333, "rental_uris": {"ios": "https://dc.lft.to/lastmile_qr_scan", "android": "https://dc.lft.to/lastmile_qr_scan"}}, {"name": "5ab490d53f2be9a71ebb2a0c989e515b", "fusion_lat": 0.0, "type": "electric_scooter", "lat": 38.923634, "is_reserved": 0, "is_disabled": 0, "fusion_lon": 0.0, "bike_id": "5ab490d53f2be9a71ebb2a0c989e515b", "lon": -77.05064533333334, "rental_uris": {"ios": "https://dc.lft.to/lastmile_qr_scan", "android": "https://dc.lft.to/lastmile_qr_scan"}}, {"name": "017b7fdd833e1de1451745b51d0c7e9c", "fusion_lat": 0.0, "type": "electric_bike", "lat": 38.8638825, "is_reserved": 0, "is_disabled": 0, "fusion_lon": 0.0, "bike_id": "017b7fdd833e1de1451745b51d0c7e9c", "lon": -76.98990483333333, "rental_uris": {"ios": "https://dc.lft.to/lastmile_qr_scan", "android": "https://dc.lft.to/lastmile_qr_scan"}}, {"name": "6cb1f0a07eb3e30dc0fe37f623b57c9a", "fusion_lat": 0.0, "type": "electric_scooter", "lat": 38.9006645, "is_reserved": 0, "is_disabled": 0, "fusion_lon": 0.0, "bike_id": "6cb1f0a07eb3e30dc0fe37f623b57c9a", "lon": -76.94763783333333, "rental_uris": {"ios": "https://dc.lft.to/lastmile_qr_scan", "android": "https://dc.lft.to/lastmile_qr_scan"}}, {"name": "26b1b4ca13a4a6cd2729fb0b9efb52ad", "fusion_lat": 0.0, "type": "electric_scooter", "lat": 38.89878233333334, "is_reserved": 0, "is_disabled": 0, "fusion_lon": 0.0, "bike_id": "26b1b4ca13a4a6cd2729fb0b9efb52ad", "lon": -76.931588, "rental_uris": {"ios": "https://dc.lft.to/lastmile_qr_scan", "android": "https://dc.lft.to/lastmile_qr_scan"}}, {"name": "c651dedb4684bf530c30273991508e09", "fusion_lat": 0.0, "type": "electric_scooter", "lat": 38.918430666666666, "is_reserved": 0, "is_disabled": 0, "fusion_lon": 0.0, "bike_id": "c651dedb4684bf530c30273991508e09", "lon": -77.0260975, "rental_uris": {"ios": "https://dc.lft.to/lastmile_qr_scan", "android": "https://dc.lft.to/lastmile_qr_scan"}}, {"name": "a2d7bc126f486ad5d4ccf3dc1895b93c", "fusion_lat": 0.0, "type": "electric_bike", "lat": 38.94900716666667, "is_reserved": 0, "is_disabled": 0, "fusion_lon": 0.0, "bike_id": "a2d7bc126f486ad5d4ccf3dc1895b93c", "lon": -76.96377533333333, "rental_uris": {"ios": "https://dc.lft.to/lastmile_qr_scan", "android": "https://dc.lft.to/lastmile_qr_scan"}}, {"name": "2790b3c69e2ebde65568466313c6e600", "fusion_lat": 0.0, "type": "electric_scooter", "lat": 38.88384383333333, "is_reserved": 0, "is_disabled": 0, "fusion_lon": 0.0, "bike_id": "2790b3c69e2ebde65568466313c6e600", "lon": -77.01955483333333, "rental_uris": {"ios": "https://dc.lft.to/lastmile_qr_scan", "android": "https://dc.lft.to/lastmile_qr_scan"}}, {"name": "f8fc0bfcf4a49970468459dcfe5ac13a", "fusion_lat": 0.0, "type": "electric_scooter", "lat": 38.918040833333336, "is_reserved": 0, "is_disabled": 0, "fusion_lon": 0.0, "bike_id": "f8fc0bfcf4a49970468459dcfe5ac13a", "lon": -77.0317925, "rental_uris": {"ios": "https://dc.lft.to/lastmile_qr_scan", "android": "https://dc.lft.to/lastmile_qr_scan"}}, {"name": "6e7f0d7d6cc336696ead27d0405aab90", "fusion_lat": 0.0, "type": "electric_scooter", "lat": 38.941738, "is_reserved": 0, "is_disabled": 0, "fusion_lon": 0.0, "bike_id": "6e7f0d7d6cc336696ead27d0405aab90", "lon": -77.0413815, "rental_uris": {"ios": "https://dc.lft.to/lastmile_qr_scan", "android": "https://dc.lft.to/lastmile_qr_scan"}}, {"name": "9a164e575219b313a4fbc01da7b198a7", "fusion_lat": 0.0, "type": "electric_scooter", "lat": 38.9007255, "is_reserved": 0, "is_disabled": 0, "fusion_lon": 0.0, "bike_id": "9a164e575219b313a4fbc01da7b198a7", "lon": -77.04532716666667, "rental_uris": {"ios": "https://dc.lft.to/lastmile_qr_scan", "android": "https://dc.lft.to/lastmile_qr_scan"}}, {"name": "21cb751c0d7f5a8c4ab815e08af654b0", "fusion_lat": 0.0, "type": "electric_scooter", "lat": 38.89674516666667, "is_reserved": 0, "is_disabled": 0, "fusion_lon": 0.0, "bike_id": "21cb751c0d7f5a8c4ab815e08af654b0", "lon": -77.05019783333333, "rental_uris": {"ios": "https://dc.lft.to/lastmile_qr_scan", "android": "https://dc.lft.to/lastmile_qr_scan"}}, {"name": "4bef45e8601de36d8ab1d66653775a26", "fusion_lat": 0.0, "type": "electric_scooter", "lat": 38.919879333333334, "is_reserved": 0, "is_disabled": 0, "fusion_lon": 0.0, "bike_id": "4bef45e8601de36d8ab1d66653775a26", "lon": -77.033294, "rental_uris": {"ios": "https://dc.lft.to/lastmile_qr_scan", "android": "https://dc.lft.to/lastmile_qr_scan"}}, {"name": "74813fdebc67aa13eb8ff9e55f73c5ec", "fusion_lat": 0.0, "type": "electric_scooter", "lat": 38.91487683333333, "is_reserved": 0, "is_disabled": 0, "fusion_lon": 0.0, "bike_id": "74813fdebc67aa13eb8ff9e55f73c5ec", "lon": -77.032628, "rental_uris": {"ios": "https://dc.lft.to/lastmile_qr_scan", "android": "https://dc.lft.to/lastmile_qr_scan"}}, {"name": "3c12faf3b688dbc740ba5325a0560dcd", "fusion_lat": 0.0, "type": "electric_scooter", "lat": 38.903499833333335, "is_reserved": 0, "is_disabled": 0, "fusion_lon": 0.0, "bike_id": "3c12faf3b688dbc740ba5325a0560dcd", "lon": -77.0111245, "rental_uris": {"ios": "https://dc.lft.to/lastmile_qr_scan", "android": "https://dc.lft.to/lastmile_qr_scan"}}, {"name": "ba2a311942625f721465927e6bdfa32b", "fusion_lat": 0.0, "type": "electric_scooter", "lat": 38.87421416666667, "is_reserved": 0, "is_disabled": 0, "fusion_lon": 0.0, "bike_id": "ba2a311942625f721465927e6bdfa32b", "lon": -76.97178516666666, "rental_uris": {"ios": "https://dc.lft.to/lastmile_qr_scan", "android": "https://dc.lft.to/lastmile_qr_scan"}}, {"name": "1054d86f24a83a492da28e61c3f4272e", "fusion_lat": 0.0, "type": "electric_scooter", "lat": 38.9181555, "is_reserved": 0, "is_disabled": 0, "fusion_lon": 0.0, "bike_id": "1054d86f24a83a492da28e61c3f4272e", "lon": -77.0400295, "rental_uris": {"ios": "https://dc.lft.to/lastmile_qr_scan", "android": "https://dc.lft.to/lastmile_qr_scan"}}, {"name": "57b433f7a6393d32a423728f5e75e4ae", "fusion_lat": 0.0, "type": "electric_scooter", "lat": 38.897276166666664, "is_reserved": 0, "is_disabled": 0, "fusion_lon": 0.0, "bike_id": "57b433f7a6393d32a423728f5e75e4ae", "lon": -77.046606, "rental_uris": {"ios": "https://dc.lft.to/lastmile_qr_scan", "android": "https://dc.lft.to/lastmile_qr_scan"}}, {"name": "f7604216ab5bb718123b3e021f354816", "fusion_lat": 0.0, "type": "electric_scooter", "lat": 38.90905866666667, "is_reserved": 0, "is_disabled": 0, "fusion_lon": 0.0, "bike_id": "f7604216ab5bb718123b3e021f354816", "lon": -77.0271535, "rental_uris": {"ios": "https://dc.lft.to/lastmile_qr_scan", "android": "https://dc.lft.to/lastmile_qr_scan"}}, {"name": "6c9cc157019b721fba948205df84811b", "fusion_lat": 0.0, "type": "electric_scooter", "lat": 38.90237666666667, "is_reserved": 0, "is_disabled": 0, "fusion_lon": 0.0, "bike_id": "6c9cc157019b721fba948205df84811b", "lon": -77.00196183333334, "rental_uris": {"ios": "https://dc.lft.to/lastmile_qr_scan", "android": "https://dc.lft.to/lastmile_qr_scan"}}, {"name": "c6070184b0a03a73f72e16034ce65e73", "fusion_lat": 0.0, "type": "electric_scooter", "lat": 38.85844916666667, "is_reserved": 0, "is_disabled": 0, "fusion_lon": 0.0, "bike_id": "c6070184b0a03a73f72e16034ce65e73", "lon": -76.988982, "rental_uris": {"ios": "https://dc.lft.to/lastmile_qr_scan", "android": "https://dc.lft.to/lastmile_qr_scan"}}, {"name": "60a971bf575bb3c355da193aede12286", "fusion_lat": 0.0, "type": "electric_scooter", "lat": 38.9332185, "is_reserved": 0, "is_disabled": 0, "fusion_lon": 0.0, "bike_id": "60a971bf575bb3c355da193aede12286", "lon": -77.050859, "rental_uris": {"ios": "https://dc.lft.to/lastmile_qr_scan", "android": "https://dc.lft.to/lastmile_qr_scan"}}, {"name": "10cd3affbfcc9aa82d69c5cf1c440636", "fusion_lat": 0.0, "type": "electric_scooter", "lat": 38.87922566666667, "is_reserved": 0, "is_disabled": 0, "fusion_lon": 0.0, "bike_id": "10cd3affbfcc9aa82d69c5cf1c440636", "lon": -76.99254433333333, "rental_uris": {"ios": "https://dc.lft.to/lastmile_qr_scan", "android": "https://dc.lft.to/lastmile_qr_scan"}}, {"name": "96f487e11606566d399af525a7699471", "fusion_lat": 0.0, "type": "electric_scooter", "lat": 38.93721516666667, "is_reserved": 0, "is_disabled": 0, "fusion_lon": 0.0, "bike_id": "96f487e11606566d399af525a7699471", "lon": -77.0201665, "rental_uris": {"ios": "https://dc.lft.to/lastmile_qr_scan", "android": "https://dc.lft.to/lastmile_qr_scan"}}, {"name": "3c746d5945267406d2bebfdd21882501", "fusion_lat": 0.0, "type": "electric_scooter", "lat": 38.91275666666667, "is_reserved": 0, "is_disabled": 0, "fusion_lon": 0.0, "bike_id": "3c746d5945267406d2bebfdd21882501", "lon": -77.02970583333334, "rental_uris": {"ios": "https://dc.lft.to/lastmile_qr_scan", "android": "https://dc.lft.to/lastmile_qr_scan"}}, {"name": "0d95c34a0692113a2d0de43e30fb3dd4", "fusion_lat": 0.0, "type": "electric_scooter", "lat": 38.9097825, "is_reserved": 0, "is_disabled": 0, "fusion_lon": 0.0, "bike_id": "0d95c34a0692113a2d0de43e30fb3dd4", "lon": -77.0671195, "rental_uris": {"ios": "https://dc.lft.to/lastmile_qr_scan", "android": "https://dc.lft.to/lastmile_qr_scan"}}, {"name": "a6ad7ce5f3c927e95d555f78565a3afb", "fusion_lat": 0.0, "type": "electric_scooter", "lat": 38.874192, "is_reserved": 0, "is_disabled": 0, "fusion_lon": 0.0, "bike_id": "a6ad7ce5f3c927e95d555f78565a3afb", "lon": -76.9609435, "rental_uris": {"ios": "https://dc.lft.to/lastmile_qr_scan", "android": "https://dc.lft.to/lastmile_qr_scan"}}, {"name": "6f6b0284e3627e9b8e32bf9e67fceb0c", "fusion_lat": 0.0, "type": "electric_scooter", "lat": 38.89373166666667, "is_reserved": 0, "is_disabled": 0, "fusion_lon": 0.0, "bike_id": "6f6b0284e3627e9b8e32bf9e67fceb0c", "lon": -76.94997083333334, "rental_uris": {"ios": "https://dc.lft.to/lastmile_qr_scan", "android": "https://dc.lft.to/lastmile_qr_scan"}}, {"name": "7f866d6350996f396879784afcf6fe5e", "fusion_lat": 0.0, "type": "electric_scooter", "lat": 38.942941166666664, "is_reserved": 0, "is_disabled": 0, "fusion_lon": 0.0, "bike_id": "7f866d6350996f396879784afcf6fe5e", "lon": -77.02173516666667, "rental_uris": {"ios": "https://dc.lft.to/lastmile_qr_scan", "android": "https://dc.lft.to/lastmile_qr_scan"}}, {"name": "7c56b3e87538ec6a93bb1baced8b5f2c", "fusion_lat": 0.0, "type": "electric_scooter", "lat": 38.912698166666665, "is_reserved": 0, "is_disabled": 0, "fusion_lon": 0.0, "bike_id": "7c56b3e87538ec6a93bb1baced8b5f2c", "lon": -77.0269425, "rental_uris": {"ios": "https://dc.lft.to/lastmile_qr_scan", "android": "https://dc.lft.to/lastmile_qr_scan"}}, {"name": "8548e18c38ddb7b18137a58c7b87a274", "fusion_lat": 0.0, "type": "electric_scooter", "lat": 38.89225583333333, "is_reserved": 0, "is_disabled": 0, "fusion_lon": 0.0, "bike_id": "8548e18c38ddb7b18137a58c7b87a274", "lon": -77.02487966666666, "rental_uris": {"ios": "https://dc.lft.to/lastmile_qr_scan", "android": "https://dc.lft.to/lastmile_qr_scan"}}, {"name": "62ad7c8921685f43ab5da3c2824637a0", "fusion_lat": 0.0, "type": "electric_scooter", "lat": 38.8922085, "is_reserved": 0, "is_disabled": 0, "fusion_lon": 0.0, "bike_id": "62ad7c8921685f43ab5da3c2824637a0", "lon": -77.030219, "rental_uris": {"ios": "https://dc.lft.to/lastmile_qr_scan", "android": "https://dc.lft.to/lastmile_qr_scan"}}, {"name": "fbb5a464265fc44d61bc8da5ac349eb3", "fusion_lat": 0.0, "type": "electric_bike", "lat": 38.927864166666666, "is_reserved": 0, "is_disabled": 0, "fusion_lon": 0.0, "bike_id": "fbb5a464265fc44d61bc8da5ac349eb3", "lon": -77.0526585, "rental_uris": {"ios": "https://dc.lft.to/lastmile_qr_scan", "android": "https://dc.lft.to/lastmile_qr_scan"}}, {"name": "a88e5f30aaec1cae00813799dbaafab4", "fusion_lat": 0.0, "type": "electric_bike", "lat": 38.87750833333333, "is_reserved": 0, "is_disabled": 0, "fusion_lon": 0.0, "bike_id": "a88e5f30aaec1cae00813799dbaafab4", "lon": -76.979881, "rental_uris": {"ios": "https://dc.lft.to/lastmile_qr_scan", "android": "https://dc.lft.to/lastmile_qr_scan"}}, {"name": "e2eade004ba2afab5c0a15f9f1aa0b45", "fusion_lat": 0.0, "type": "electric_scooter", "lat": 38.90382016666667, "is_reserved": 0, "is_disabled": 0, "fusion_lon": 0.0, "bike_id": "e2eade004ba2afab5c0a15f9f1aa0b45", "lon": -77.04507433333333, "rental_uris": {"ios": "https://dc.lft.to/lastmile_qr_scan", "android": "https://dc.lft.to/lastmile_qr_scan"}}, {"name": "8d64b53c69372043685d915c7c986be6", "fusion_lat": 0.0, "type": "electric_bike", "lat": 38.84602966666667, "is_reserved": 0, "is_disabled": 0, "fusion_lon": 0.0, "bike_id": "8d64b53c69372043685d915c7c986be6", "lon": -76.96880633333333, "rental_uris": {"ios": "https://dc.lft.to/lastmile_qr_scan", "android": "https://dc.lft.to/lastmile_qr_scan"}}, {"name": "52bd5c6feec216db3fbbf33cf5199db6", "fusion_lat": 0.0, "type": "electric_scooter", "lat": 38.902664, "is_reserved": 0, "is_disabled": 0, "fusion_lon": 0.0, "bike_id": "52bd5c6feec216db3fbbf33cf5199db6", "lon": -77.01754116666666, "rental_uris": {"ios": "https://dc.lft.to/lastmile_qr_scan", "android": "https://dc.lft.to/lastmile_qr_scan"}}, {"name": "19809897247fff441a4f0a5ef76f5166", "fusion_lat": 0.0, "type": "electric_scooter", "lat": 38.91324066666667, "is_reserved": 0, "is_disabled": 0, "fusion_lon": 0.0, "bike_id": "19809897247fff441a4f0a5ef76f5166", "lon": -77.03180833333333, "rental_uris": {"ios": "https://dc.lft.to/lastmile_qr_scan", "android": "https://dc.lft.to/lastmile_qr_scan"}}, {"name": "38c848f30056cd6ec06ad82597790a34", "fusion_lat": 0.0, "type": "electric_scooter", "lat": 38.908242, "is_reserved": 0, "is_disabled": 0, "fusion_lon": 0.0, "bike_id": "38c848f30056cd6ec06ad82597790a34", "lon": -77.0391485, "rental_uris": {"ios": "https://dc.lft.to/lastmile_qr_scan", "android": "https://dc.lft.to/lastmile_qr_scan"}}, {"name": "49ff5e6afd9289bf5f020bddf3564b18", "fusion_lat": 0.0, "type": "electric_bike", "lat": 38.93956283333333, "is_reserved": 0, "is_disabled": 0, "fusion_lon": 0.0, "bike_id": "49ff5e6afd9289bf5f020bddf3564b18", "lon": -77.36099683333333, "rental_uris": {"ios": "https://dc.lft.to/lastmile_qr_scan", "android": "https://dc.lft.to/lastmile_qr_scan"}}, {"name": "6e61be8bb53587b68a2750acb0fd4e07", "fusion_lat": 0.0, "type": "electric_scooter", "lat": 38.900232333333335, "is_reserved": 0, "is_disabled": 0, "fusion_lon": 0.0, "bike_id": "6e61be8bb53587b68a2750acb0fd4e07", "lon": -77.05324316666666, "rental_uris": {"ios": "https://dc.lft.to/lastmile_qr_scan", "android": "https://dc.lft.to/lastmile_qr_scan"}}, {"name": "92b5f2e71a0bc35cd51d74f8149c7e8c", "fusion_lat": 0.0, "type": "electric_scooter", "lat": 38.923517, "is_reserved": 0, "is_disabled": 0, "fusion_lon": 0.0, "bike_id": "92b5f2e71a0bc35cd51d74f8149c7e8c", "lon": -77.0511885, "rental_uris": {"ios": "https://dc.lft.to/lastmile_qr_scan", "android": "https://dc.lft.to/lastmile_qr_scan"}}, {"name": "3e72b8a4c6162359d0fe1ffe02c0b6d1", "fusion_lat": 0.0, "type": "electric_scooter", "lat": 38.91115666666666, "is_reserved": 0, "is_disabled": 0, "fusion_lon": 0.0, "bike_id": "3e72b8a4c6162359d0fe1ffe02c0b6d1", "lon": -77.04466933333333, "rental_uris": {"ios": "https://dc.lft.to/lastmile_qr_scan", "android": "https://dc.lft.to/lastmile_qr_scan"}}, {"name": "f451e6ad85167fbe660d562ed90506b9", "fusion_lat": 0.0, "type": "electric_scooter", "lat": 38.89352933333333, "is_reserved": 0, "is_disabled": 0, "fusion_lon": 0.0, "bike_id": "f451e6ad85167fbe660d562ed90506b9", "lon": -77.0033625, "rental_uris": {"ios": "https://dc.lft.to/lastmile_qr_scan", "android": "https://dc.lft.to/lastmile_qr_scan"}}, {"name": "e53c363854fb0f9ae244069de3434228", "fusion_lat": 0.0, "type": "electric_scooter", "lat": 38.91121583333333, "is_reserved": 0, "is_disabled": 0, "fusion_lon": 0.0, "bike_id": "e53c363854fb0f9ae244069de3434228", "lon": -77.04368, "rental_uris": {"ios": "https://dc.lft.to/lastmile_qr_scan", "android": "https://dc.lft.to/lastmile_qr_scan"}}, {"name": "e829c88d80e80a7d109a32139dc9cb05", "fusion_lat": 0.0, "type": "electric_bike", "lat": 38.95924816666667, "is_reserved": 0, "is_disabled": 0, "fusion_lon": 0.0, "bike_id": "e829c88d80e80a7d109a32139dc9cb05", "lon": -76.925369, "rental_uris": {"ios": "https://dc.lft.to/lastmile_qr_scan", "android": "https://dc.lft.to/lastmile_qr_scan"}}, {"name": "4bc38e6e9bdbba45e3796379175f5cf3", "fusion_lat": 0.0, "type": "electric_scooter", "lat": 38.870852666666664, "is_reserved": 0, "is_disabled": 0, "fusion_lon": 0.0, "bike_id": "4bc38e6e9bdbba45e3796379175f5cf3", "lon": -77.01380933333333, "rental_uris": {"ios": "https://dc.lft.to/lastmile_qr_scan", "android": "https://dc.lft.to/lastmile_qr_scan"}}, {"name": "4f16d495ce244cb49b462976286b9bd3", "fusion_lat": 0.0, "type": "electric_scooter", "lat": 38.9077845, "is_reserved": 0, "is_disabled": 0, "fusion_lon": 0.0, "bike_id": "4f16d495ce244cb49b462976286b9bd3", "lon": -77.0726105, "rental_uris": {"ios": "https://dc.lft.to/lastmile_qr_scan", "android": "https://dc.lft.to/lastmile_qr_scan"}}, {"name": "d112c156af6d77144ad3a6b502134aba", "fusion_lat": 0.0, "type": "electric_scooter", "lat": 38.895529, "is_reserved": 0, "is_disabled": 0, "fusion_lon": 0.0, "bike_id": "d112c156af6d77144ad3a6b502134aba", "lon": -76.9487815, "rental_uris": {"ios": "https://dc.lft.to/lastmile_qr_scan", "android": "https://dc.lft.to/lastmile_qr_scan"}}, {"name": "e41353ed304432491caf84b65bed6f76", "fusion_lat": 0.0, "type": "electric_bike", "lat": 38.9269325, "is_reserved": 0, "is_disabled": 0, "fusion_lon": 0.0, "bike_id": "e41353ed304432491caf84b65bed6f76", "lon": -77.007922, "rental_uris": {"ios": "https://dc.lft.to/lastmile_qr_scan", "android": "https://dc.lft.to/lastmile_qr_scan"}}, {"name": "c1c9a34ba18fb0c80de4f55474e4c1ee", "fusion_lat": 0.0, "type": "electric_scooter", "lat": 38.935946333333334, "is_reserved": 0, "is_disabled": 0, "fusion_lon": 0.0, "bike_id": "c1c9a34ba18fb0c80de4f55474e4c1ee", "lon": -77.0563725, "rental_uris": {"ios": "https://dc.lft.to/lastmile_qr_scan", "android": "https://dc.lft.to/lastmile_qr_scan"}}, {"name": "0cf7c2e2e282928ceed6cd309c5e8bdd", "fusion_lat": 0.0, "type": "electric_scooter", "lat": 38.928286, "is_reserved": 0, "is_disabled": 0, "fusion_lon": 0.0, "bike_id": "0cf7c2e2e282928ceed6cd309c5e8bdd", "lon": -77.02259933333333, "rental_uris": {"ios": "https://dc.lft.to/lastmile_qr_scan", "android": "https://dc.lft.to/lastmile_qr_scan"}}, {"name": "da2b2e2d6b430713b253fadbd650371e", "fusion_lat": 0.0, "type": "electric_scooter", "lat": 38.902745333333336, "is_reserved": 0, "is_disabled": 0, "fusion_lon": 0.0, "bike_id": "da2b2e2d6b430713b253fadbd650371e", "lon": -77.03666783333334, "rental_uris": {"ios": "https://dc.lft.to/lastmile_qr_scan", "android": "https://dc.lft.to/lastmile_qr_scan"}}, {"name": "ce12caa3f30e59dfd413c6ac32e22e96", "fusion_lat": 0.0, "type": "electric_scooter", "lat": 38.8964405, "is_reserved": 0, "is_disabled": 0, "fusion_lon": 0.0, "bike_id": "ce12caa3f30e59dfd413c6ac32e22e96", "lon": -77.009229, "rental_uris": {"ios": "https://dc.lft.to/lastmile_qr_scan", "android": "https://dc.lft.to/lastmile_qr_scan"}}, {"name": "317ccc9d6219f7519a87c6ea1a127ac7", "fusion_lat": 0.0, "type": "electric_scooter", "lat": 38.909054, "is_reserved": 0, "is_disabled": 0, "fusion_lon": 0.0, "bike_id": "317ccc9d6219f7519a87c6ea1a127ac7", "lon": -77.02714316666666, "rental_uris": {"ios": "https://dc.lft.to/lastmile_qr_scan", "android": "https://dc.lft.to/lastmile_qr_scan"}}, {"name": "4e4284295135e9dcf726794b8746865c", "fusion_lat": 0.0, "type": "electric_scooter", "lat": 38.90036583333333, "is_reserved": 0, "is_disabled": 0, "fusion_lon": 0.0, "bike_id": "4e4284295135e9dcf726794b8746865c", "lon": -77.00217316666667, "rental_uris": {"ios": "https://dc.lft.to/lastmile_qr_scan", "android": "https://dc.lft.to/lastmile_qr_scan"}}, {"name": "0a7bc76a5d8ba196ffde9cd2166860df", "fusion_lat": 0.0, "type": "electric_bike", "lat": 38.9273055, "is_reserved": 0, "is_disabled": 0, "fusion_lon": 0.0, "bike_id": "0a7bc76a5d8ba196ffde9cd2166860df", "lon": -77.01364133333334, "rental_uris": {"ios": "https://dc.lft.to/lastmile_qr_scan", "android": "https://dc.lft.to/lastmile_qr_scan"}}, {"name": "b8c4c45ec13bee5f7a84c4c10796f922", "fusion_lat": 0.0, "type": "electric_scooter", "lat": 38.92861216666667, "is_reserved": 0, "is_disabled": 0, "fusion_lon": 0.0, "bike_id": "b8c4c45ec13bee5f7a84c4c10796f922", "lon": -77.0336555, "rental_uris": {"ios": "https://dc.lft.to/lastmile_qr_scan", "android": "https://dc.lft.to/lastmile_qr_scan"}}, {"name": "eb73929ace1ff89dddc9ff01116f3ed6", "fusion_lat": 0.0, "type": "electric_scooter", "lat": 38.903821666666666, "is_reserved": 0, "is_disabled": 0, "fusion_lon": 0.0, "bike_id": "eb73929ace1ff89dddc9ff01116f3ed6", "lon": -77.03869566666667, "rental_uris": {"ios": "https://dc.lft.to/lastmile_qr_scan", "android": "https://dc.lft.to/lastmile_qr_scan"}}, {"name": "4424a12fe8fc8417d3b97e1732e57b80", "fusion_lat": 0.0, "type": "electric_scooter", "lat": 38.91418433333333, "is_reserved": 0, "is_disabled": 0, "fusion_lon": 0.0, "bike_id": "4424a12fe8fc8417d3b97e1732e57b80", "lon": -77.00892466666667, "rental_uris": {"ios": "https://dc.lft.to/lastmile_qr_scan", "android": "https://dc.lft.to/lastmile_qr_scan"}}, {"name": "b665b3b6f116e531ae5b1051e587a465", "fusion_lat": 0.0, "type": "electric_scooter", "lat": 38.876961333333334, "is_reserved": 0, "is_disabled": 0, "fusion_lon": 0.0, "bike_id": "b665b3b6f116e531ae5b1051e587a465", "lon": -77.01776716666667, "rental_uris": {"ios": "https://dc.lft.to/lastmile_qr_scan", "android": "https://dc.lft.to/lastmile_qr_scan"}}, {"name": "c4195dc0d8158cadd5f00cdd4de830d5", "fusion_lat": 0.0, "type": "electric_scooter", "lat": 38.9170425, "is_reserved": 0, "is_disabled": 0, "fusion_lon": 0.0, "bike_id": "c4195dc0d8158cadd5f00cdd4de830d5", "lon": -77.0427215, "rental_uris": {"ios": "https://dc.lft.to/lastmile_qr_scan", "android": "https://dc.lft.to/lastmile_qr_scan"}}, {"name": "e2cddbca25f0b86ceed2d2cc7ad3e2ba", "fusion_lat": 0.0, "type": "electric_bike", "lat": 38.920080166666665, "is_reserved": 0, "is_disabled": 0, "fusion_lon": 0.0, "bike_id": "e2cddbca25f0b86ceed2d2cc7ad3e2ba", "lon": -76.97494216666666, "rental_uris": {"ios": "https://dc.lft.to/lastmile_qr_scan", "android": "https://dc.lft.to/lastmile_qr_scan"}}, {"name": "e2f1fb8b4699cf9aca57470a4f09b8b5", "fusion_lat": 0.0, "type": "electric_scooter", "lat": 38.91264866666667, "is_reserved": 0, "is_disabled": 0, "fusion_lon": 0.0, "bike_id": "e2f1fb8b4699cf9aca57470a4f09b8b5", "lon": -77.06091283333333, "rental_uris": {"ios": "https://dc.lft.to/lastmile_qr_scan", "android": "https://dc.lft.to/lastmile_qr_scan"}}, {"name": "89ba865855c84d57e9a5864e2a8703c9", "fusion_lat": 0.0, "type": "electric_scooter", "lat": 38.8979855, "is_reserved": 0, "is_disabled": 0, "fusion_lon": 0.0, "bike_id": "89ba865855c84d57e9a5864e2a8703c9", "lon": -77.02815933333333, "rental_uris": {"ios": "https://dc.lft.to/lastmile_qr_scan", "android": "https://dc.lft.to/lastmile_qr_scan"}}, {"name": "0f363175104b95b45bc155a63e951bee", "fusion_lat": 0.0, "type": "electric_scooter", "lat": 38.880671166666666, "is_reserved": 0, "is_disabled": 0, "fusion_lon": 0.0, "bike_id": "0f363175104b95b45bc155a63e951bee", "lon": -76.93535766666666, "rental_uris": {"ios": "https://dc.lft.to/lastmile_qr_scan", "android": "https://dc.lft.to/lastmile_qr_scan"}}, {"name": "875dadc02f5f20605f5377cb8d720f90", "fusion_lat": 0.0, "type": "electric_scooter", "lat": 38.90671916666667, "is_reserved": 0, "is_disabled": 0, "fusion_lon": 0.0, "bike_id": "875dadc02f5f20605f5377cb8d720f90", "lon": -77.02073483333334, "rental_uris": {"ios": "https://dc.lft.to/lastmile_qr_scan", "android": "https://dc.lft.to/lastmile_qr_scan"}}, {"name": "dc0345fc13131f78186ad5f62a1a6827", "fusion_lat": 0.0, "type": "electric_scooter", "lat": 38.88510333333333, "is_reserved": 0, "is_disabled": 0, "fusion_lon": 0.0, "bike_id": "dc0345fc13131f78186ad5f62a1a6827", "lon": -77.00563633333333, "rental_uris": {"ios": "https://dc.lft.to/lastmile_qr_scan", "android": "https://dc.lft.to/lastmile_qr_scan"}}, {"name": "239273e1053304a3b032f1e958a94fc4", "fusion_lat": 0.0, "type": "electric_scooter", "lat": 38.91925583333333, "is_reserved": 0, "is_disabled": 0, "fusion_lon": 0.0, "bike_id": "239273e1053304a3b032f1e958a94fc4", "lon": -77.0325225, "rental_uris": {"ios": "https://dc.lft.to/lastmile_qr_scan", "android": "https://dc.lft.to/lastmile_qr_scan"}}, {"name": "b0f3a3274f1d961288ebbc40046364a9", "fusion_lat": 0.0, "type": "electric_scooter", "lat": 38.912163, "is_reserved": 0, "is_disabled": 0, "fusion_lon": 0.0, "bike_id": "b0f3a3274f1d961288ebbc40046364a9", "lon": -77.07593166666666, "rental_uris": {"ios": "https://dc.lft.to/lastmile_qr_scan", "android": "https://dc.lft.to/lastmile_qr_scan"}}, {"name": "1199489d75cf0ad39b562585b6f4f506", "fusion_lat": 0.0, "type": "electric_scooter", "lat": 38.88499783333334, "is_reserved": 0, "is_disabled": 0, "fusion_lon": 0.0, "bike_id": "1199489d75cf0ad39b562585b6f4f506", "lon": -77.02206116666666, "rental_uris": {"ios": "https://dc.lft.to/lastmile_qr_scan", "android": "https://dc.lft.to/lastmile_qr_scan"}}, {"name": "10a0dc36bfed235c551510c4ab888b62", "fusion_lat": 0.0, "type": "electric_scooter", "lat": 38.89589633333333, "is_reserved": 0, "is_disabled": 0, "fusion_lon": 0.0, "bike_id": "10a0dc36bfed235c551510c4ab888b62", "lon": -76.93720683333333, "rental_uris": {"ios": "https://dc.lft.to/lastmile_qr_scan", "android": "https://dc.lft.to/lastmile_qr_scan"}}, {"name": "1475abb5d08854ff2676feec1e82bcae", "fusion_lat": 0.0, "type": "electric_scooter", "lat": 38.91402266666667, "is_reserved": 0, "is_disabled": 0, "fusion_lon": 0.0, "bike_id": "1475abb5d08854ff2676feec1e82bcae", "lon": -77.03221633333334, "rental_uris": {"ios": "https://dc.lft.to/lastmile_qr_scan", "android": "https://dc.lft.to/lastmile_qr_scan"}}, {"name": "0598a9903e6f7dfb733411af8d39f16f", "fusion_lat": 0.0, "type": "electric_scooter", "lat": 38.92595766666667, "is_reserved": 0, "is_disabled": 0, "fusion_lon": 0.0, "bike_id": "0598a9903e6f7dfb733411af8d39f16f", "lon": -77.02493766666667, "rental_uris": {"ios": "https://dc.lft.to/lastmile_qr_scan", "android": "https://dc.lft.to/lastmile_qr_scan"}}, {"name": "1df6a3517905fefd1511e47a98c1f460", "fusion_lat": 0.0, "type": "electric_scooter", "lat": 38.936087, "is_reserved": 0, "is_disabled": 0, "fusion_lon": 0.0, "bike_id": "1df6a3517905fefd1511e47a98c1f460", "lon": -77.05589433333333, "rental_uris": {"ios": "https://dc.lft.to/lastmile_qr_scan", "android": "https://dc.lft.to/lastmile_qr_scan"}}, {"name": "3285d088ad1b32a848c816627ac1e329", "fusion_lat": 0.0, "type": "electric_scooter", "lat": 38.9014365, "is_reserved": 0, "is_disabled": 0, "fusion_lon": 0.0, "bike_id": "3285d088ad1b32a848c816627ac1e329", "lon": -77.031779, "rental_uris": {"ios": "https://dc.lft.to/lastmile_qr_scan", "android": "https://dc.lft.to/lastmile_qr_scan"}},