{"data": {"bikes": [{"type": "electric_bike", "lon": -77.0244665, "is_disabled": 0, "name": "43262a28e9c8af408d1cf953a94b1e09", "lat": 38.926005833333335, "fusion_lat": 0.0, "is_reserved": 0, "rental_uris": {"ios": "https://dc.lft.to/lastmile_qr_scan", "android": "https://dc.lft.to/lastmile_qr_scan"}, "fusion_lon": 0.0, "bike_id": "43262a28e9c8af408d1cf953a94b1e09"}, {"type": "electric_scooter", "lon": -77.04793216666667, "is_disabled": 0, "name": "7cc391b569898e62f4fb1ddecf2ac0b8", "lat": 38.905235166666664, "fusion_lat": 0.0, "is_reserved": 0, "rental_uris": {"ios": "https://dc.lft.to/lastmile_qr_scan", "android": "https://dc.lft.to/lastmile_qr_scan"}, "fusion_lon": 0.0, "bike_id": "7cc391b569898e62f4fb1ddecf2ac0b8"}, {"type": "electric_bike", "lon": -76.95825566666667, "is_disabled": 0, "name": "6f5c57b2121012d1a67bbe653b825d76", "lat": 38.850621833333335, "fusion_lat": 0.0, "is_reserved": 0, "rental_uris": {"ios": "https://dc.lft.to/lastmile_qr_scan", "android": "https://dc.lft.to/lastmile_qr_scan"}, "fusion_lon": 0.0, "bike_id": "6f5c57b2121012d1a67bbe653b825d76"}, {"type": "electric_scooter", "lon": -77.040145, "is_disabled": 0, "name": "32b51242e38fec411a9369ca47f88112", "lat": 38.9210845, "fusion_lat": 0.0, "is_reserved": 0, "rental_uris": {"ios": "https://dc.lft.to/lastmile_qr_scan", "android": "https://dc.lft.to/lastmile_qr_scan"}, "fusion_lon": 0.0, "bike_id": "32b51242e38fec411a9369ca47f88112"}, {"type": "electric_scooter", "lon": -77.02475533333333, "is_disabled": 0, "name": "c9382d4ae32de74255bf6e55a4423106", "lat": 38.918141, "fusion_lat": 0.0, "is_reserved": 0, "rental_uris": {"ios": "https://dc.lft.to/lastmile_qr_scan", "android": "https://dc.lft.to/lastmile_qr_scan"}, "fusion_lon": 0.0, "bike_id": "c9382d4ae32de74255bf6e55a4423106"}, {"type": "electric_scooter", "lon": -76.92366083333333, "is_disabled": 0, "name": "3fbe829b0b8946c743d40b7d237e6382", "lat": 38.89243833333333, "fusion_lat": 0.0, "is_reserved": 0, "rental_uris": {"ios": "https://dc.lft.to/lastmile_qr_scan", "android": "https://dc.lft.to/lastmile_qr_scan"}, "fusion_lon": 0.0, "bike_id": "3fbe829b0b8946c743d40b7d237e6382"}, {"type": "electric_scooter", "lon": -76.97522433333333, "is_disabled": 0, "name": "89fd4f5abe2115e14d06a60523c7c829", "lat": 38.90105666666667, "fusion_lat": 0.0, "is_reserved": 0, "rental_uris": {"ios": "https://dc.lft.to/lastmile_qr_scan", "android": "https://dc.lft.to/lastmile_qr_scan"}, "fusion_lon": 0.0, "bike_id": "89fd4f5abe2115e14d06a60523c7c829"}, {"type": "electric_scooter", "lon": -77.02294566666667, "is_disabled": 0, "name": "3c9bf8ef8af01c69d3b14102650ef5c4", "lat": 38.9169995, "fusion_lat": 0.0, "is_reserved": 0, "rental_uris": {"ios": "https://dc.lft.to/lastmile_qr_scan", "android": "https://dc.lft.to/lastmile_qr_scan"}, "fusion_lon": 0.0, "bike_id": "3c9bf8ef8af01c69d3b14102650ef5c4"}, {"type": "electric_scooter", "lon": -77.02257933333334, "is_disabled": 0, "name": "d3c66fb39d87ef6d4f382313d1406d4e", "lat": 38.91635683333333, "fusion_lat": 0.0, "is_reserved": 0, "rental_uris": {"ios": "https://dc.lft.to/lastmile_qr_scan", "android": "https://dc.lft.to/lastmile_qr_scan"}, "fusion_lon": 0.0, "bike_id": "d3c66fb39d87ef6d4f382313d1406d4e"}, {"type": "electric_scooter", "lon": -77.02623633333333, "is_disabled": 0, "name": "bd8a54344c29ca7f2a7008b5a7e25384", "lat": 38.92582383333333, "fusion_lat": 0.0, "is_reserved": 0, "rental_uris": {"ios": "https://dc.lft.to/lastmile_qr_scan", "android": "https://dc.lft.to/lastmile_qr_scan"}, "fusion_lon": 0.0, "bike_id": "bd8a54344c29ca7f2a7008b5a7e25384"}, {"type": "electric_scooter", "lon": -77.0337775, "is_disabled": 0, "name": "485608e7de9aea595fd048db33d20efe", "lat": 38.924686, "fusion_lat": 0.0, "is_reserved": 0, "rental_uris": {"ios": "https://dc.lft.to/lastmile_qr_scan", "android": "https://dc.lft.to/lastmile_qr_scan"}, "fusion_lon": 0.0, "bike_id": "485608e7de9aea595fd048db33d20efe"}, {"type": "electric_scooter", "lon": -77.02426533333333, "is_disabled": 0, "name": "e7865ad4a624ff3b308e2405cb705cf7", "lat": 38.90863983333333, "fusion_lat": 0.0, "is_reserved": 0, "rental_uris": {"ios": "https://dc.lft.to/lastmile_qr_scan", "android": "https://dc.lft.to/lastmile_qr_scan"}, "fusion_lon": 0.0, "bike_id": "e7865ad4a624ff3b308e2405cb705cf7"}, {"type": "electric_scooter", "lon": -77.03497783333333, "is_disabled": 0, "name": "6c313a580fc9cb7ad37f467caaebdc7e", "lat": 38.91628266666667, "fusion_lat": 0.0, "is_reserved": 0, "rental_uris": {"ios": "https://dc.lft.to/lastmile_qr_scan", "android": "https://dc.lft.to/lastmile_qr_scan"}, "fusion_lon": 0.0, "bike_id": "6c313a580fc9cb7ad37f467caaebdc7e"}, {"type": "electric_scooter", "lon": -77.02209516666667, "is_disabled": 0, "name": "77515a78b4bf453d70e7e169dde3e918", "lat": 38.894336, "fusion_lat": 0.0, "is_reserved": 0, "rental_uris": {"ios": "https://dc.lft.to/lastmile_qr_scan", "android": "https://dc.lft.to/lastmile_qr_scan"}, "fusion_lon": 0.0, "bike_id": "77515a78b4bf453d70e7e169dde3e918"}, {"type": "electric_scooter", "lon": -77.02539366666667, "is_disabled": 0, "name": "69ea1f53c8540d1c6deed32d40ffd9b1", "lat": 38.92069016666667, "fusion_lat": 0.0, "is_reserved": 0, "rental_uris": {"ios": "https://dc.lft.to/lastmile_qr_scan", "android": "https://dc.lft.to/lastmile_qr_scan"}, "fusion_lon": 0.0, "bike_id": "69ea1f53c8540d1c6deed32d40ffd9b1"}, {"type": "electric_scooter", "lon": -77.04347183333333, "is_disabled": 0, "name": "3c44d80dd1d1b2e419a87c726156d1ed", "lat": 38.9105185, "fusion_lat": 0.0, "is_reserved": 0, "rental_uris": {"ios": "https://dc.lft.to/lastmile_qr_scan", "android": "https://dc.lft.to/lastmile_qr_scan"}, "fusion_lon": 0.0, "bike_id": "3c44d80dd1d1b2e419a87c726156d1ed"}, {"type": "electric_scooter", "lon": -76.99506083333333, "is_disabled": 0, "name": "54934a1f145ab87f0e9ba4d7ce8d172b", "lat": 38.880832, "fusion_lat": 0.0, "is_reserved": 0, "rental_uris": {"ios": "https://dc.lft.to/lastmile_qr_scan", "android": "https://dc.lft.to/lastmile_qr_scan"}, "fusion_lon": 0.0, "bike_id": "54934a1f145ab87f0e9ba4d7ce8d172b"}, {"type": "electric_scooter", "lon": -76.98394416666666, "is_disabled": 0, "name": "44a4ab38fa15e143b4759467013ab25f", "lat": 38.915804333333334, "fusion_lat": 0.0, "is_reserved": 0, "rental_uris": {"ios": "https://dc.lft.to/lastmile_qr_scan", "android": "https://dc.lft.to/lastmile_qr_scan"}, "fusion_lon": 0.0, "bike_id": "44a4ab38fa15e143b4759467013ab25f"}, {"type": "electric_bike", "lon": -77.07754033333333, "is_disabled": 0, "name": "5be998a3ca03fe3ecfad22e61fe34357", "lat": 38.84192516666667, "fusion_lat": 0.0, "is_reserved": 0, "rental_uris": {"ios": "https://dc.lft.to/lastmile_qr_scan", "android": "https://dc.lft.to/lastmile_qr_scan"}, "fusion_lon": 0.0, "bike_id": "5be998a3ca03fe3ecfad22e61fe34357"}, {"type": "electric_scooter", "lon": -77.032582, "is_disabled": 0, "name": "cf3f473e70d9eeaf9f5d84a2fa849d8a", "lat": 38.939362, "fusion_lat": 0.0, "is_reserved": 0, "rental_uris": {"ios": "https://dc.lft.to/lastmile_qr_scan", "android": "https://dc.lft.to/lastmile_qr_scan"}, "fusion_lon": 0.0, "bike_id": "cf3f473e70d9eeaf9f5d84a2fa849d8a"}, {"type": "electric_scooter", "lon": -76.98371633333333, "is_disabled": 0, "name": "84a8e76916db96cc43a345d804b791bd", "lat": 38.8926485, "fusion_lat": 0.0, "is_reserved": 0, "rental_uris": {"ios": "https://dc.lft.to/lastmile_qr_scan", "android": "https://dc.lft.to/lastmile_qr_scan"}, "fusion_lon": 0.0, "bike_id": "84a8e76916db96cc43a345d804b791bd"}, {"type": "electric_scooter", "lon": -77.0393725, "is_disabled": 0, "name": "0ba2a075624de4a24eca214bacd2ec93", "lat": 38.930579333333334, "fusion_lat": 0.0, "is_reserved": 0, "rental_uris": {"ios": "https://dc.lft.to/lastmile_qr_scan", "android": "https://dc.lft.to/lastmile_qr_scan"}, "fusion_lon": 0.0, "bike_id": "0ba2a075624de4a24eca214bacd2ec93"}, {"type": "electric_scooter", "lon": -77.04049933333333, "is_disabled": 0, "name": "5f05e54ede21ff6687ef48accdf90b9a", "lat": 38.9266735, "fusion_lat": 0.0, "is_reserved": 0, "rental_uris": {"ios": "https://dc.lft.to/lastmile_qr_scan", "android": "https://dc.lft.to/lastmile_qr_scan"}, "fusion_lon": 0.0, "bike_id": "5f05e54ede21ff6687ef48accdf90b9a"}, {"type": "electric_scooter", "lon": -77.02170633333333, "is_disabled": 0, "name": "1732b3fb5529fc53e4852c23d91a2b94", "lat": 38.89716083333333, "fusion_lat": 0.0, "is_reserved": 0, "rental_uris": {"ios": "https://dc.lft.to/lastmile_qr_scan", "android": "https://dc.lft.to/lastmile_qr_scan"}, "fusion_lon": 0.0, "bike_id": "1732b3fb5529fc53e4852c23d91a2b94"}, {"type": "electric_scooter", "lon": -76.95735783333333, "is_disabled": 0, "name": "f07962e055eb9a02bee61e57ced8fe2d", "lat": 38.8839185, "fusion_lat": 0.0, "is_reserved": 0, "rental_uris": {"ios": "https://dc.lft.to/lastmile_qr_scan", "android": "https://dc.lft.to/lastmile_qr_scan"}, "fusion_lon": 0.0, "bike_id": "f07962e055eb9a02bee61e57ced8fe2d"}, {"type": "electric_scooter", "lon": -77.049982, "is_disabled": 0, "name": "1bef41387a9698ec7d8e3aacabf6ae32", "lat": 38.899098, "fusion_lat": 0.0, "is_reserved": 0, "rental_uris": {"ios": "https://dc.lft.to/lastmile_qr_scan", "android": "https://dc.lft.to/lastmile_qr_scan"}, "fusion_lon": 0.0, "bike_id": "1bef41387a9698ec7d8e3aacabf6ae32"}, {"type": "electric_scooter", "lon": -77.03842666666667, "is_disabled": 0, "name": "55306e9a93911c02ab5d8132ebd1924a", "lat": 38.9020955, "fusion_lat": 0.0, "is_reserved": 0, "rental_uris": {"ios": "https://dc.lft.to/lastmile_qr_scan", "android": "https://dc.lft.to/lastmile_qr_scan"}, "fusion_lon": 0.0, "bike_id": "55306e9a93911c02ab5d8132ebd1924a"}, {"type": "electric_scooter", "lon": -77.02131683333333, "is_disabled": 0, "name": "a2bf3a11793a121686d2274d65034af9", "lat": 38.92365366666667, "fusion_lat": 0.0, "is_reserved": 0, "rental_uris": {"ios": "https://dc.lft.to/lastmile_qr_scan", "android": "https://dc.lft.to/lastmile_qr_scan"}, "fusion_lon": 0.0, "bike_id": "a2bf3a11793a121686d2274d65034af9"}, {"type": "electric_scooter", "lon": -76.9863095, "is_disabled": 0, "name": "4062739caabbdb8355a403bbf92e97c7", "lat": 38.90676883333333, "fusion_lat": 0.0, "is_reserved": 0, "rental_uris": {"ios": "https://dc.lft.to/lastmile_qr_scan", "android": "https://dc.lft.to/lastmile_qr_scan"}, "fusion_lon": 0.0, "bike_id": "4062739caabbdb8355a403bbf92e97c7"}, {"type": "electric_scooter", "lon": -77.0248795, "is_disabled": 0, "name": "40644fa33bd14e486727168ee59ac8cb", "lat": 38.917465666666665, "fusion_lat": 0.0, "is_reserved": 0, "rental_uris": {"ios": "https://dc.lft.to/lastmile_qr_scan", "android": "https://dc.lft.to/lastmile_qr_scan"}, "fusion_lon": 0.0, "bike_id": "40644fa33bd14e486727168ee59ac8cb"}, {"type": "electric_scooter", "lon": -77.054275, "is_disabled": 0, "name": "1f96df251cbe895734708f5c054413d6", "lat": 38.928515833333336, "fusion_lat": 0.0, "is_reserved": 0, "rental_uris": {"ios": "https://dc.lft.to/lastmile_qr_scan", "android": "https://dc.lft.to/lastmile_qr_scan"}, "fusion_lon": 0.0, "bike_id": "1f96df251cbe895734708f5c054413d6"}, {"type": "electric_scooter", "lon": -77.0211585, "is_disabled": 0, "name": "097cf6d573db83695419bc1cffde4515", "lat": 38.92370316666667, "fusion_lat": 0.0, "is_reserved": 0, "rental_uris": {"ios": "https://dc.lft.to/lastmile_qr_scan", "android": "https://dc.lft.to/lastmile_qr_scan"}, "fusion_lon": 0.0, "bike_id": "097cf6d573db83695419bc1cffde4515"}, {"type": "electric_scooter", "lon": -77.02942483333334, "is_disabled": 0, "name": "fbd5e0b6761f181f5f1d4b22953912d4", "lat": 38.91177966666667, "fusion_lat": 0.0, "is_reserved": 0, "rental_uris": {"ios": "https://dc.lft.to/lastmile_qr_scan", "android": "https://dc.lft.to/lastmile_qr_scan"}, "fusion_lon": 0.0, "bike_id": "fbd5e0b6761f181f5f1d4b22953912d4"}, {"type": "electric_scooter", "lon": -77.03651433333333, "is_disabled": 0, "name": "2d246ea5b42170297d41a8252101c251", "lat": 38.9362765, "fusion_lat": 0.0, "is_reserved": 0, "rental_uris": {"ios": "https://dc.lft.to/lastmile_qr_scan", "android": "https://dc.lft.to/lastmile_qr_scan"}, "fusion_lon": 0.0, "bike_id": "2d246ea5b42170297d41a8252101c251"}, {"type": "electric_scooter", "lon": -77.0321885, "is_disabled": 0, "name": "b32fa3b64821da2b78f3c2faf267a8c1", "lat": 38.9199075, "fusion_lat": 0.0, "is_reserved": 0, "rental_uris": {"ios": "https://dc.lft.to/lastmile_qr_scan", "android": "https://dc.lft.to/lastmile_qr_scan"}, "fusion_lon": 0.0, "bike_id": "b32fa3b64821da2b78f3c2faf267a8c1"}, {"type": "electric_scooter", "lon": -77.06457883333333, "is_disabled": 0, "name": "c236495944b159afc90d87da526915ab", "lat": 38.948796333333334, "fusion_lat": 0.0, "is_reserved": 0, "rental_uris": {"ios": "https://dc.lft.to/lastmile_qr_scan", "android": "https://dc.lft.to/lastmile_qr_scan"}, "fusion_lon": 0.0, "bike_id": "c236495944b159afc90d87da526915ab"}, {"type": "electric_scooter", "lon": -77.02545783333333, "is_disabled": 0, "name": "990187083c76bcc90d9bec2bdbb4e14c", "lat": 38.910941, "fusion_lat": 0.0, "is_reserved": 0, "rental_uris": {"ios": "https://dc.lft.to/lastmile_qr_scan", "android": "https://dc.lft.to/lastmile_qr_scan"}, "fusion_lon": 0.0, "bike_id": "990187083c76bcc90d9bec2bdbb4e14c"}, {"type": "electric_scooter", "lon": -77.04497916666666, "is_disabled": 0, "name": "e00f0d2727213b7f81f0b68fe767ddfc", "lat": 38.892248, "fusion_lat": 0.0, "is_reserved": 0, "rental_uris": {"ios": "https://dc.lft.to/lastmile_qr_scan", "android": "https://dc.lft.to/lastmile_qr_scan"}, "fusion_lon": 0.0, "bike_id": "e00f0d2727213b7f81f0b68fe767ddfc"}, {"type": "electric_scooter", "lon": -77.0168895, "is_disabled": 0, "name": "b563f5b00ab1f759218aafbe7105913f", "lat": 38.906447166666666, "fusion_lat": 0.0, "is_reserved": 0, "rental_uris": {"ios": "https://dc.lft.to/lastmile_qr_scan", "android": "https://dc.lft.to/lastmile_qr_scan"}, "fusion_lon": 0.0, "bike_id": "b563f5b00ab1f759218aafbe7105913f"}, {"type": "electric_scooter", "lon": -76.92502116666667, "is_disabled": 0, "name": "a50b6f115e1699a21c352349568153cf", "lat": 38.885969333333335, "fusion_lat": 0.0, "is_reserved": 0, "rental_uris": {"ios": "https://dc.lft.to/lastmile_qr_scan", "android": "https://dc.lft.to/lastmile_qr_scan"}, "fusion_lon": 0.0, "bike_id": "a50b6f115e1699a21c352349568153cf"}, {"type": "electric_scooter", "lon": -77.03079133333334, "is_disabled": 0, "name": "0d8e5dad89a8f1035f7c31551de655c1", "lat": 38.898012333333334, "fusion_lat": 0.0, "is_reserved": 0, "rental_uris": {"ios": "https://dc.lft.to/lastmile_qr_scan", "android": "https://dc.lft.to/lastmile_qr_scan"}, "fusion_lon": 0.0, "bike_id": "0d8e5dad89a8f1035f7c31551de655c1"}, {"type": "electric_scooter", "lon": -77.03586483333333, "is_disabled": 0, "name": "5361fa7dff22ddc72e53c1eeb49e5488", "lat": 38.909614166666664, "fusion_lat": 0.0, "is_reserved": 0, "rental_uris": {"ios": "https://dc.lft.to/lastmile_qr_scan", "android": "https://dc.lft.to/lastmile_qr_scan"}, "fusion_lon": 0.0, "bike_id": "5361fa7dff22ddc72e53c1eeb49e5488"}, {"type": "electric_scooter", "lon": -77.028103, "is_disabled": 0, "name": "eba8fbaabf18a596223ed982b79d8799", "lat": 38.89318933333333, "fusion_lat": 0.0, "is_reserved": 0, "rental_uris": {"ios": "https://dc.lft.to/lastmile_qr_scan", "android": "https://dc.lft.to/lastmile_qr_scan"}, "fusion_lon": 0.0, "bike_id": "eba8fbaabf18a596223ed982b79d8799"}, {"type": "electric_scooter", "lon": -77.02667833333334, "is_disabled": 0, "name": "0c4fffe3a35cc8ab256ad2c6a48e2d12", "lat": 38.88105383333333, "fusion_lat": 0.0, "is_reserved": 0, "rental_uris": {"ios": "https://dc.lft.to/lastmile_qr_scan", "android": "https://dc.lft.to/lastmile_qr_scan"}, "fusion_lon": 0.0, "bike_id": "0c4fffe3a35cc8ab256ad2c6a48e2d12"}, {"type": "electric_scooter", "lon": -77.02268516666666, "is_disabled": 0, "name": "edf9e432525bac8eb5766313b6c92151", "lat": 38.89979116666667, "fusion_lat": 0.0, "is_reserved": 0, "rental_uris": {"ios": "https://dc.lft.to/lastmile_qr_scan", "android": "https://dc.lft.to/lastmile_qr_scan"}, "fusion_lon": 0.0, "bike_id": "edf9e432525bac8eb5766313b6c92151"}, {"type": "electric_scooter", "lon": -77.01949183333333, "is_disabled": 0, "name": "fa5f8932f9782fa1feb147c805f5e7e6", "lat": 38.89363216666667, "fusion_lat": 0.0, "is_reserved": 0, "rental_uris": {"ios": "https://dc.lft.to/lastmile_qr_scan", "android": "https://dc.lft.to/lastmile_qr_scan"}, "fusion_lon": 0.0, "bike_id": "fa5f8932f9782fa1feb147c805f5e7e6"}, {"type": "electric_scooter", "lon": -77.03950733333333, "is_disabled": 0, "name": "b8f677889b58c1828ad3d582c64014ab", "lat": 38.902413833333334, "fusion_lat": 0.0, "is_reserved": 0, "rental_uris": {"ios": "https://dc.lft.to/lastmile_qr_scan", "android": "https://dc.lft.to/lastmile_qr_scan"}, "fusion_lon": 0.0, "bike_id": "b8f677889b58c1828ad3d582c64014ab"}, {"type": "electric_scooter", "lon": -77.04307166666666, "is_disabled": 0, "name": "c74cdfacacd8c3e3d033f44d476fcb88", "lat": 38.923268, "fusion_lat": 0.0, "is_reserved": 0, "rental_uris": {"ios": "https://dc.lft.to/lastmile_qr_scan", "android": "https://dc.lft.to/lastmile_qr_scan"}, "fusion_lon": 0.0, "bike_id": "c74cdfacacd8c3e3d033f44d476fcb88"}, {"type": "electric_scooter", "lon": -77.03169433333333, "is_disabled": 0, "name": "4345dadbfd62d2732f0ba5a1ba7f9e75", "lat": 38.91418083333333, "fusion_lat": 0.0, "is_reserved": 0, "rental_uris": {"ios": "https://dc.lft.to/lastmile_qr_scan", "android": "https://dc.lft.to/lastmile_qr_scan"}, "fusion_lon": 0.0, "bike_id": "4345dadbfd62d2732f0ba5a1ba7f9e75"}, {"type": "electric_scooter", "lon": -77.022852, "is_disabled": 0, "name": "fa5d737e92e61524831599c82c5c8b70", "lat": 38.923324, "fusion_lat": 0.0, "is_reserved": 0, "rental_uris": {"ios": "https://dc.lft.to/lastmile_qr_scan", "android": "https://dc.lft.to/lastmile_qr_scan"}, "fusion_lon": 0.0, "bike_id": "fa5d737e92e61524831599c82c5c8b70"}, {"type": "electric_scooter", "lon": -77.0297735, "is_disabled": 0, "name": "1324340857e4c8afe0cb79de10b68b36", "lat": 38.92405816666667, "fusion_lat": 0.0, "is_reserved": 0, "rental_uris": {"ios": "https://dc.lft.to/lastmile_qr_scan", "android": "https://dc.lft.to/lastmile_qr_scan"}, "fusion_lon": 0.0, "bike_id": "1324340857e4c8afe0cb79de10b68b36"}, {"type": "electric_scooter", "lon": -77.04615766666667, "is_disabled": 0, "name": "22e45ff3636af4d91c2bbb00e8d2da37", "lat": 38.902719166666664, "fusion_lat": 0.0, "is_reserved": 0, "rental_uris": {"ios": "https://dc.lft.to/lastmile_qr_scan", "android": "https://dc.lft.to/lastmile_qr_scan"}, "fusion_lon": 0.0, "bike_id": "22e45ff3636af4d91c2bbb00e8d2da37"}, {"type": "electric_scooter", "lon": -77.07328183333334, "is_disabled": 0, "name": "d07df810130c088354bc5406c7076785", "lat": 38.90668683333333, "fusion_lat": 0.0, "is_reserved": 0, "rental_uris": {"ios": "https://dc.lft.to/lastmile_qr_scan", "android": "https://dc.lft.to/lastmile_qr_scan"}, "fusion_lon": 0.0, "bike_id": "d07df810130c088354bc5406c7076785"}, {"type": "electric_scooter", "lon": -77.04289383333334, "is_disabled": 0, "name": "d8c43b8c871eee9c2c35c99a697897f6", "lat": 38.90547633333333, "fusion_lat": 0.0, "is_reserved": 0, "rental_uris": {"ios": "https://dc.lft.to/lastmile_qr_scan", "android": "https://dc.lft.to/lastmile_qr_scan"}, "fusion_lon": 0.0, "bike_id": "d8c43b8c871eee9c2c35c99a697897f6"}, {"type": "electric_scooter", "lon": -77.02734716666667, "is_disabled": 0, "name": "0df0dd5cb16fd490c10ed6ddf6928177", "lat": 38.89563016666666, "fusion_lat": 0.0, "is_reserved": 0, "rental_uris": {"ios": "https://dc.lft.to/lastmile_qr_scan", "android": "https://dc.lft.to/lastmile_qr_scan"}, "fusion_lon": 0.0, "bike_id": "0df0dd5cb16fd490c10ed6ddf6928177"}, {"type": "electric_scooter", "lon": -77.04773233333333, "is_disabled": 0, "name": "c698b61852b9da33d14b9cd53922ae97", "lat": 38.89359416666667, "fusion_lat": 0.0, "is_reserved": 0, "rental_uris": {"ios": "https://dc.lft.to/lastmile_qr_scan", "android": "https://dc.lft.to/lastmile_qr_scan"}, "fusion_lon": 0.0, "bike_id": "c698b61852b9da33d14b9cd53922ae97"}, {"type": "electric_scooter", "lon": -77.02316783333333, "is_disabled": 0, "name": "55a178a17ad5f7e9f0341761abb11ccd", "lat": 38.90223566666667, "fusion_lat": 0.0, "is_reserved": 0, "rental_uris": {"ios": "https://dc.lft.to/lastmile_qr_scan", "android": "https://dc.lft.to/lastmile_qr_scan"}, "fusion_lon": 0.0, "bike_id": "55a178a17ad5f7e9f0341761abb11ccd"}, {"type": "electric_scooter", "lon": -77.04501, "is_disabled": 0, "name": "fcc67c3d94cdbe9702f04c1fbd14643b", "lat": 38.892246166666666, "fusion_lat": 0.0, "is_reserved": 0, "rental_uris": {"ios": "https://dc.lft.to/lastmile_qr_scan", "android": "https://dc.lft.to/lastmile_qr_scan"}, "fusion_lon": 0.0, "bike_id": "fcc67c3d94cdbe9702f04c1fbd14643b"}, {"type": "electric_scooter", "lon": -77.01949516666667, "is_disabled": 0, "name": "4d021bc9bfc70475d2546da07a77bd2b", "lat": 38.923662666666665, "fusion_lat": 0.0, "is_reserved": 0, "rental_uris": {"ios": "https://dc.lft.to/lastmile_qr_scan", "android": "https://dc.lft.to/lastmile_qr_scan"}, "fusion_lon": 0.0, "bike_id": "4d021bc9bfc70475d2546da07a77bd2b"}, {"type": "electric_scooter", "lon": -77.021995, "is_disabled": 0, "name": "a7f173f1b61d44085265ed8b14796464", "lat": 38.90529333333333, "fusion_lat": 0.0, "is_reserved": 0, "rental_uris": {"ios": "https://dc.lft.to/lastmile_qr_scan", "android": "https://dc.lft.to/lastmile_qr_scan"}, "fusion_lon": 0.0, "bike_id": "a7f173f1b61d44085265ed8b14796464"}, {"type": "electric_scooter", "lon": -77.0365825, "is_disabled": 0, "name": "4dc9fec7b8a34ba34639f0862c30ac1e", "lat": 38.918637333333336, "fusion_lat": 0.0, "is_reserved": 0, "rental_uris": {"ios": "https://dc.lft.to/lastmile_qr_scan", "android": "https://dc.lft.to/lastmile_qr_scan"}, "fusion_lon": 0.0, "bike_id": "4dc9fec7b8a34ba34639f0862c30ac1e"}, {"type": "electric_scooter", "lon": -77.02930283333333, "is_disabled": 0, "name": "50d266164f4983c7a27354c02ef4a066", "lat": 38.899828166666666, "fusion_lat": 0.0, "is_reserved": 0, "rental_uris": {"ios": "https://dc.lft.to/lastmile_qr_scan", "android": "https://dc.lft.to/lastmile_qr_scan"}, "fusion_lon": 0.0, "bike_id": "50d266164f4983c7a27354c02ef4a066"}, {"type": "electric_scooter", "lon": -77.02777916666666, "is_disabled": 0, "name": "a47fccbba50da35dab5f19b5cc4c1e37", "lat": 38.92952, "fusion_lat": 0.0, "is_reserved": 0, "rental_uris": {"ios": "https://dc.lft.to/lastmile_qr_scan", "android": "https://dc.lft.to/lastmile_qr_scan"}, "fusion_lon": 0.0, "bike_id": "a47fccbba50da35dab5f19b5cc4c1e37"}, {"type": "electric_scooter", "lon": -77.04474483333334, "is_disabled": 0, "name": "a16ef41fa989226d20b04c2610b38cb3", "lat": 38.90268533333333, "fusion_lat": 0.0, "is_reserved": 0, "rental_uris": {"ios": "https://dc.lft.to/lastmile_qr_scan", "android": "https://dc.lft.to/lastmile_qr_scan"}, "fusion_lon": 0.0, "bike_id": "a16ef41fa989226d20b04c2610b38cb3"}, {"type": "electric_scooter", "lon": -77.03447183333333, "is_disabled": 0, "name": "706e89c02f127540aef141232e695d1d", "lat": 38.91835416666667, "fusion_lat": 0.0, "is_reserved": 0, "rental_uris": {"ios": "https://dc.lft.to/lastmile_qr_scan", "android": "https://dc.lft.to/lastmile_qr_scan"}, "fusion_lon": 0.0, "bike_id": "706e89c02f127540aef141232e695d1d"}, {"type": "electric_bike", "lon": -77.1293435, "is_disabled": 0, "name": "89894f40235583d4bf0257a7e98b890f", "lat": 38.86576916666667, "fusion_lat": 0.0, "is_reserved": 0, "rental_uris": {"ios": "https://dc.lft.to/lastmile_qr_scan", "android": "https://dc.lft.to/lastmile_qr_scan"}, "fusion_lon": 0.0, "bike_id": "89894f40235583d4bf0257a7e98b890f"}, {"type": "electric_scooter", "lon": -76.98613683333333, "is_disabled": 0, "name": "75146f5b3263d35b1d39e00f2651b612", "lat": 38.903459, "fusion_lat": 0.0, "is_reserved": 0, "rental_uris": {"ios": "https://dc.lft.to/lastmile_qr_scan", "android": "https://dc.lft.to/lastmile_qr_scan"}, "fusion_lon": 0.0, "bike_id": "75146f5b3263d35b1d39e00f2651b612"}, {"type": "electric_scooter", "lon": -77.02611866666666, "is_disabled": 0, "name": "e6e20f472bcba250de632952df88cee9", "lat": 38.903545666666666, "fusion_lat": 0.0, "is_reserved": 0, "rental_uris": {"ios": "https://dc.lft.to/lastmile_qr_scan", "android": "https://dc.lft.to/lastmile_qr_scan"}, "fusion_lon": 0.0, "bike_id": "e6e20f472bcba250de632952df88cee9"}, {"type": "electric_scooter", "lon": -77.0281195, "is_disabled": 0, "name": "68718976de1eabfe445f5dfac3b70299", "lat": 38.9104265, "fusion_lat": 0.0, "is_reserved": 0, "rental_uris": {"ios": "https://dc.lft.to/lastmile_qr_scan", "android": "https://dc.lft.to/lastmile_qr_scan"}, "fusion_lon": 0.0, "bike_id": "68718976de1eabfe445f5dfac3b70299"}, {"type": "electric_scooter", "lon": -76.92963883333333, "is_disabled": 0, "name": "eadd305ec35ca15dbd4b955bb0f2cd91", "lat": 38.896303333333336, "fusion_lat": 0.0, "is_reserved": 0, "rental_uris": {"ios": "https://dc.lft.to/lastmile_qr_scan", "android": "https://dc.lft.to/lastmile_qr_scan"}, "fusion_lon": 0.0, "bike_id": "eadd305ec35ca15dbd4b955bb0f2cd91"}, {"type": "electric_scooter", "lon": -76.99628116666666, "is_disabled": 0, "name": "ab52992749e1062c1eb3fa937e74bad8", "lat": 38.87738066666667, "fusion_lat": 0.0, "is_reserved": 0, "rental_uris": {"ios": "https://dc.lft.to/lastmile_qr_scan", "android": "https://dc.lft.to/lastmile_qr_scan"}, "fusion_lon": 0.0, "bike_id": "ab52992749e1062c1eb3fa937e74bad8"}, {"type": "electric_scooter", "lon": -77.022819, "is_disabled": 0, "name": "241a4b72f4fc0428937de49a63786e28", "lat": 38.92561883333333, "fusion_lat": 0.0, "is_reserved": 0, "rental_uris": {"ios": "https://dc.lft.to/lastmile_qr_scan", "android": "https://dc.lft.to/lastmile_qr_scan"}, "fusion_lon": 0.0, "bike_id": "241a4b72f4fc0428937de49a63786e28"}, {"type": "electric_scooter", "lon": -76.98538316666667, "is_disabled": 0, "name": "052bf7ae87b50df3f5d25f19ab0b7c48", "lat": 38.905883, "fusion_lat": 0.0, "is_reserved": 0, "rental_uris": {"ios": "https://dc.lft.to/lastmile_qr_scan", "android": "https://dc.lft.to/lastmile_qr_scan"}, "fusion_lon": 0.0, "bike_id": "052bf7ae87b50df3f5d25f19ab0b7c48"}, {"type": "electric_scooter", "lon": -77.00561683333333, "is_disabled": 0, "name": "15c389f05d763440852089fd40a1d65a", "lat": 38.8763665, "fusion_lat": 0.0, "is_reserved": 0, "rental_uris": {"ios": "https://dc.lft.to/lastmile_qr_scan", "android": "https://dc.lft.to/lastmile_qr_scan"}, "fusion_lon": 0.0, "bike_id": "15c389f05d763440852089fd40a1d65a"}, {"type": "electric_scooter", "lon": -76.991392, "is_disabled": 0, "name": "45216b71c242873d76159954d47c7da8", "lat": 38.899759, "fusion_lat": 0.0, "is_reserved": 0, "rental_uris": {"ios": "https://dc.lft.to/lastmile_qr_scan", "android": "https://dc.lft.to/lastmile_qr_scan"}, "fusion_lon": 0.0, "bike_id": "45216b71c242873d76159954d47c7da8"}, {"type": "electric_scooter", "lon": -77.03590633333333, "is_disabled": 0, "name": "9ec61bc8ae6d101d3fbab74a141f4850", "lat": 38.908150166666665, "fusion_lat": 0.0, "is_reserved": 0, "rental_uris": {"ios": "https://dc.lft.to/lastmile_qr_scan", "android": "https://dc.lft.to/lastmile_qr_scan"}, "fusion_lon": 0.0, "bike_id": "9ec61bc8ae6d101d3fbab74a141f4850"}, {"type": "electric_scooter", "lon": -77.0294755, "is_disabled": 0, "name": "9adaab3163d47829937fe20160d48b09", "lat": 38.916836, "fusion_lat": 0.0, "is_reserved": 0, "rental_uris": {"ios": "https://dc.lft.to/lastmile_qr_scan", "android": "https://dc.lft.to/lastmile_qr_scan"}, "fusion_lon": 0.0, "bike_id": "9adaab3163d47829937fe20160d48b09"}, {"type": "electric_scooter", "lon": -77.02786833333333, "is_disabled": 0, "name": "9f1289213a1a17546cd847e525891f1c", "lat": 38.96126916666667, "fusion_lat": 0.0, "is_reserved": 0, "rental_uris": {"ios": "https://dc.lft.to/lastmile_qr_scan", "android": "https://dc.lft.to/lastmile_qr_scan"}, "fusion_lon": 0.0, "bike_id": "9f1289213a1a17546cd847e525891f1c"}, {"type": "electric_scooter", "lon": -77.03825116666667, "is_disabled": 0, "name": "f8ea6fa737f7800669c0ce5b880c082d", "lat": 38.912651833333335, "fusion_lat": 0.0, "is_reserved": 0, "rental_uris": {"ios": "https://dc.lft.to/lastmile_qr_scan", "android": "https://dc.lft.to/lastmile_qr_scan"}, "fusion_lon": 0.0, "bike_id": "f8ea6fa737f7800669c0ce5b880c082d"}, {"type": "electric_scooter", "lon": -77.04363283333333, "is_disabled": 0, "name": "6d82f67e4ac6b677fcb8a23fde3ad6fc", "lat": 38.92105133333333, "fusion_lat": 0.0, "is_reserved": 0, "rental_uris": {"ios": "https://dc.lft.to/lastmile_qr_scan", "android": "https://dc.lft.to/lastmile_qr_scan"}, "fusion_lon": 0.0, "bike_id": "6d82f67e4ac6b677fcb8a23fde3ad6fc"}, {"type": "electric_bike", "lon": -76.97700383333333, "is_disabled": 0, "name": "eaebbba5ff1e81257d680ed7896add59", "lat": 38.822055, "fusion_lat": 0.0, "is_reserved": 0, "rental_uris": {"ios": "https://dc.lft.to/lastmile_qr_scan", "android": "https://dc.lft.to/lastmile_qr_scan"}, "fusion_lon": 0.0, "bike_id": "eaebbba5ff1e81257d680ed7896add59"}, {"type": "electric_scooter", "lon": -77.072314, "is_disabled": 0, "name": "7c7e27b45c864350a36d10e9c376d9b8", "lat": 38.9236185, "fusion_lat": 0.0, "is_reserved": 0, "rental_uris": {"ios": "https://dc.lft.to/lastmile_qr_scan", "android": "https://dc.lft.to/lastmile_qr_scan"}, "fusion_lon": 0.0, "bike_id": "7c7e27b45c864350a36d10e9c376d9b8"}, {"type": "electric_scooter", "lon": -77.0449815, "is_disabled": 0, "name": "48959e021ea3b718d6b9a017d6e2334d", "lat": 38.892228, "fusion_lat": 0.0, "is_reserved": 0, "rental_uris": {"ios": "https://dc.lft.to/lastmile_qr_scan", "android": "https://dc.lft.to/lastmile_qr_scan"}, "fusion_lon": 0.0, "bike_id": "48959e021ea3b718d6b9a017d6e2334d"}, {"type": "electric_scooter", "lon": -77.034762, "is_disabled": 0, "name": "3c690bc4adc07322560b66abf8ec0ce1", "lat": 38.92913683333333, "fusion_lat": 0.0, "is_reserved": 0, "rental_uris": {"ios": "https://dc.lft.to/lastmile_qr_scan", "android": "https://dc.lft.to/lastmile_qr_scan"}, "fusion_lon": 0.0, "bike_id": "3c690bc4adc07322560b66abf8ec0ce1"}, {"type": "electric_scooter", "lon": -76.93524133333334, "is_disabled": 0, "name": "aa631e3ffbf8320b3e040ee88ceffeac", "lat": 38.878953333333335, "fusion_lat": 0.0, "is_reserved": 0, "rental_uris": {"ios": "https://dc.lft.to/lastmile_qr_scan", "android": "https://dc.lft.to/lastmile_qr_scan"}, "fusion_lon": 0.0, "bike_id": "aa631e3ffbf8320b3e040ee88ceffeac"}, {"type": "electric_scooter", "lon": -77.02580033333334, "is_disabled": 0, "name": "9952111182587229bb48aa6655ecfbd1", "lat": 38.93930783333333, "fusion_lat": 0.0, "is_reserved": 0, "rental_uris": {"ios": "https://dc.lft.to/lastmile_qr_scan", "android": "https://dc.lft.to/lastmile_qr_scan"}, "fusion_lon": 0.0, "bike_id": "9952111182587229bb48aa6655ecfbd1"}, {"type": "electric_scooter", "lon": -77.00192466666667, "is_disabled": 0, "name": "07203971958a01d49e9d557a83f1ea7f", "lat": 38.88678616666667, "fusion_lat": 0.0, "is_reserved": 0, "rental_uris": {"ios": "https://dc.lft.to/lastmile_qr_scan", "android": "https://dc.lft.to/lastmile_qr_scan"}, "fusion_lon": 0.0, "bike_id": "07203971958a01d49e9d557a83f1ea7f"}, {"type": "electric_scooter", "lon": -77.02378683333333, "is_disabled": 0, "name": "d21c1d509ef1516412dc4368f0f14347", "lat": 38.8964425, "fusion_lat": 0.0, "is_reserved": 0, "rental_uris": {"ios": "https://dc.lft.to/lastmile_qr_scan", "android": "https://dc.lft.to/lastmile_qr_scan"}, "fusion_lon": 0.0, "bike_id": "d21c1d509ef1516412dc4368f0f14347"}, {"type": "electric_scooter", "lon": -76.99862283333333, "is_disabled": 0, "name": "4210db2dbf97cdb7cdf217165af37929", "lat": 38.90021333333333, "fusion_lat": 0.0, "is_reserved": 0, "rental_uris": {"ios": "https://dc.lft.to/lastmile_qr_scan", "android": "https://dc.lft.to/lastmile_qr_scan"}, "fusion_lon": 0.0, "bike_id": "4210db2dbf97cdb7cdf217165af37929"}, {"type": "electric_scooter", "lon": -77.0211345, "is_disabled": 0, "name": "b78cd5b60106738b648781ee0236bece", "lat": 38.91794816666667, "fusion_lat": 0.0, "is_reserved": 0, "rental_uris": {"ios": "https://dc.lft.to/lastmile_qr_scan", "android": "https://dc.lft.to/lastmile_qr_scan"}, "fusion_lon": 0.0, "bike_id": "b78cd5b60106738b648781ee0236bece"}, {"type": "electric_scooter", "lon": -76.99866633333333, "is_disabled": 0, "name": "b4e3896133c8b39f393ffe4284f16f5e", "lat": 38.90024783333333, "fusion_lat": 0.0, "is_reserved": 0, "rental_uris": {"ios": "https://dc.lft.to/lastmile_qr_scan", "android": "https://dc.lft.to/lastmile_qr_scan"}, "fusion_lon": 0.0, "bike_id": "b4e3896133c8b39f393ffe4284f16f5e"}, {"type": "electric_scooter", "lon": -77.0482575, "is_disabled": 0, "name": "32037fa9382781b00832939d87867fc5", "lat": 38.9017165, "fusion_lat": 0.0, "is_reserved": 0, "rental_uris": {"ios": "https://dc.lft.to/lastmile_qr_scan", "android": "https://dc.lft.to/lastmile_qr_scan"}, "fusion_lon": 0.0, "bike_id": "32037fa9382781b00832939d87867fc5"}, {"type": "electric_scooter", "lon": -76.9803575, "is_disabled": 0, "name": "cec6b523945b00957cfa862fc2a09c03", "lat": 38.88964283333333, "fusion_lat": 0.0, "is_reserved": 0, "rental_uris": {"ios": "https://dc.lft.to/lastmile_qr_scan", "android": "https://dc.lft.to/lastmile_qr_scan"}, "fusion_lon": 0.0, "bike_id": "cec6b523945b00957cfa862fc2a09c03"}, {"type": "electric_scooter", "lon": -77.01954366666666, "is_disabled": 0, "name": "61663330deaccb1d1d9eb60309fc87a7", "lat": 38.92326683333334, "fusion_lat": 0.0, "is_reserved": 0, "rental_uris": {"ios": "https://dc.lft.to/lastmile_qr_scan", "android": "https://dc.lft.to/lastmile_qr_scan"}, "fusion_lon": 0.0, "bike_id": "61663330deaccb1d1d9eb60309fc87a7"}, {"type": "electric_scooter", "lon": -77.02022816666667, "is_disabled": 0, "name": "a2f2ae0aa50d8e58b0c4b250067d0a37", "lat": 38.8859995, "fusion_lat": 0.0, "is_reserved": 0, "rental_uris": {"ios": "https://dc.lft.to/lastmile_qr_scan", "android": "https://dc.lft.to/lastmile_qr_scan"}, "fusion_lon": 0.0, "bike_id": "a2f2ae0aa50d8e58b0c4b250067d0a37"}, {"type": "electric_scooter", "lon": -76.98822116666666, "is_disabled": 0, "name": "0f6606412838ec2e102baf35d04d9c4c", "lat": 38.90039733333333, "fusion_lat": 0.0, "is_reserved": 0, "rental_uris": {"ios": "https://dc.lft.to/lastmile_qr_scan", "android": "https://dc.lft.to/lastmile_qr_scan"}, "fusion_lon": 0.0, "bike_id": "0f6606412838ec2e102baf35d04d9c4c"}, {"type": "electric_scooter", "lon": -76.9446445, "is_disabled": 0, "name": "ce50a1c3826f8bccd63d38475ab09364", "lat": 38.89023, "fusion_lat": 0.0, "is_reserved": 0, "rental_uris": {"ios": "https://dc.lft.to/lastmile_qr_scan", "android": "https://dc.lft.to/lastmile_qr_scan"}, "fusion_lon": 0.0, "bike_id": "ce50a1c3826f8bccd63d38475ab09364"}, {"type": "electric_scooter", "lon": -77.03775316666666, "is_disabled": 0, "name": "c3e1631939e8af245595e45507422887", "lat": 38.916896, "fusion_lat": 0.0, "is_reserved": 0, "rental_uris": {"ios": "https://dc.lft.to/lastmile_qr_scan", "android": "https://dc.lft.to/lastmile_qr_scan"}, "fusion_lon": 0.0, "bike_id": "c3e1631939e8af245595e45507422887"}, {"type": "electric_scooter", "lon": -77.04038366666667, "is_disabled": 0, "name": "5604ea0773b5a15bee61aea2ee747508", "lat": 38.918629333333335, "fusion_lat": 0.0, "is_reserved": 0, "rental_uris": {"ios": "https://dc.lft.to/lastmile_qr_scan", "android": "https://dc.lft.to/lastmile_qr_scan"}, "fusion_lon": 0.0, "bike_id": "5604ea0773b5a15bee61aea2ee747508"}, {"type": "electric_scooter", "lon": -77.02827566666667, "is_disabled": 0, "name": "d81a2cc8d9018147540521f78b031a88", "lat": 38.8973425, "fusion_lat": 0.0, "is_reserved": 0, "rental_uris": {"ios": "https://dc.lft.to/lastmile_qr_scan", "android": "https://dc.lft.to/lastmile_qr_scan"}, "fusion_lon": 0.0, "bike_id": "d81a2cc8d9018147540521f78b031a88"}, {"type": "electric_scooter", "lon": -77.00287633333333, "is_disabled": 0, "name": "cc119f3b843b34336e5ae973093910d7", "lat": 38.90361983333333, "fusion_lat": 0.0, "is_reserved": 0, "rental_uris": {"ios": "https://dc.lft.to/lastmile_qr_scan", "android": "https://dc.lft.to/lastmile_qr_scan"}, "fusion_lon": 0.0, "bike_id": "cc119f3b843b34336e5ae973093910d7"}, {"type": "electric_scooter", "lon": -77.06429566666667, "is_disabled": 0, "name": "c79d09b429a63b5147aa7fa01addd3a6", "lat": 38.9356065, "fusion_lat": 0.0, "is_reserved": 0, "rental_uris": {"ios": "https://dc.lft.to/lastmile_qr_scan", "android": "https://dc.lft.to/lastmile_qr_scan"}, "fusion_lon": 0.0, "bike_id": "c79d09b429a63b5147aa7fa01addd3a6"}, {"type": "electric_bike", "lon": -76.951573, "is_disabled": 0, "name": "709dcfce3a8181f36a38bfe2abe89f52", "lat": 39.084384666666665, "fusion_lat": 0.0, "is_reserved": 0, "rental_uris": {"ios": "https://dc.lft.to/lastmile_qr_scan", "android": "https://dc.lft.to/lastmile_qr_scan"}, "fusion_lon": 0.0, "bike_id": "709dcfce3a8181f36a38bfe2abe89f52"}, {"type": "electric_scooter", "lon": -77.0366215, "is_disabled": 0, "name": "0818006bbe865afea6205ce9937d89f5", "lat": 38.902868166666664, "fusion_lat": 0.0, "is_reserved": 0, "rental_uris": {"ios": "https://dc.lft.to/lastmile_qr_scan", "android": "https://dc.lft.to/lastmile_qr_scan"}, "fusion_lon": 0.0, "bike_id": "0818006bbe865afea6205ce9937d89f5"}, {"type": "electric_scooter", "lon": -77.035265, "is_disabled": 0, "name": "5d845dbe78778b14f26a56fa99cb9b68", "lat": 38.92178833333333, "fusion_lat": 0.0, "is_reserved": 0, "rental_uris": {"ios": "https://dc.lft.to/lastmile_qr_scan", "android": "https://dc.lft.to/lastmile_qr_scan"}, "fusion_lon": 0.0, "bike_id": "5d845dbe78778b14f26a56fa99cb9b68"}, {"type": "electric_scooter", "lon": -76.935987, "is_disabled": 0, "name": "af6d1bc3b75603950f498c6d8da61112", "lat": 38.909447, "fusion_lat": 0.0, "is_reserved": 0, "rental_uris": {"ios": "https://dc.lft.to/lastmile_qr_scan", "android": "https://dc.lft.to/lastmile_qr_scan"}, "fusion_lon": 0.0, "bike_id": "af6d1bc3b75603950f498c6d8da61112"}, {"type": "electric_scooter", "lon": -77.02494183333333, "is_disabled": 0, "name": "1093722bd64925a4930fc714a36686a8", "lat": 38.9192545, "fusion_lat": 0.0, "is_reserved": 0, "rental_uris": {"ios": "https://dc.lft.to/lastmile_qr_scan", "android": "https://dc.lft.to/lastmile_qr_scan"}, "fusion_lon": 0.0, "bike_id": "1093722bd64925a4930fc714a36686a8"}, {"type": "electric_scooter", "lon": -77.0244325, "is_disabled": 0, "name": "ab6a1d870ab26eb1b5b021a7ae5e2468", "lat": 38.898111666666665, "fusion_lat": 0.0, "is_reserved": 0, "rental_uris": {"ios": "https://dc.lft.to/lastmile_qr_scan", "android": "https://dc.lft.to/lastmile_qr_scan"}, "fusion_lon": 0.0, "bike_id": "ab6a1d870ab26eb1b5b021a7ae5e2468"}, {"type": "electric_scooter", "lon": -77.05005633333333, "is_disabled": 0, "name": "0288317ace09adc43cb22a46871789dd", "lat": 38.89224866666667, "fusion_lat": 0.0, "is_reserved": 0, "rental_uris": {"ios": "https://dc.lft.to/lastmile_qr_scan", "android": "https://dc.lft.to/lastmile_qr_scan"}, "fusion_lon": 0.0, "bike_id": "0288317ace09adc43cb22a46871789dd"}, {"type": "electric_scooter", "lon": -77.02658666666666, "is_disabled": 0, "name": "562064f1303f57dc21c01b7dd96f4c02", "lat": 38.931006, "fusion_lat": 0.0, "is_reserved": 0, "rental_uris": {"ios": "https://dc.lft.to/lastmile_qr_scan", "android": "https://dc.lft.to/lastmile_qr_scan"}, "fusion_lon": 0.0, "bike_id": "562064f1303f57dc21c01b7dd96f4c02"}, {"type": "electric_scooter", "lon": -76.955344, "is_disabled": 0, "name": "3c321fac812a84ed2e7a679e11b3b9ee", "lat": 38.8878015, "fusion_lat": 0.0, "is_reserved": 0, "rental_uris": {"ios": "https://dc.lft.to/lastmile_qr_scan", "android": "https://dc.lft.to/lastmile_qr_scan"}, "fusion_lon": 0.0, "bike_id": "3c321fac812a84ed2e7a679e11b3b9ee"}, {"type": "electric_scooter", "lon": -77.031745, "is_disabled": 0, "name": "74f35df26e5b0e798e332eb8fd7335af", "lat": 38.89224933333333, "fusion_lat": 0.0, "is_reserved": 0, "rental_uris": {"ios": "https://dc.lft.to/lastmile_qr_scan", "android": "https://dc.lft.to/lastmile_qr_scan"}, "fusion_lon": 0.0, "bike_id": "74f35df26e5b0e798e332eb8fd7335af"}, {"type": "electric_scooter", "lon": -77.04113266666667, "is_disabled": 0, "name": "bcae8e002f0794e00e7c3c3c1e27055b", "lat": 38.90117766666667, "fusion_lat": 0.0, "is_reserved": 0, "rental_uris": {"ios": "https://dc.lft.to/lastmile_qr_scan", "android": "https://dc.lft.to/lastmile_qr_scan"}, "fusion_lon": 0.0, "bike_id": "bcae8e002f0794e00e7c3c3c1e27055b"}, {"type": "electric_scooter", "lon": -77.04353283333333, "is_disabled": 0, "name": "a0f58d6e13755553cfeadcaad0ae81b3", "lat": 38.905620166666665, "fusion_lat": 0.0, "is_reserved": 0, "rental_uris": {"ios": "https://dc.lft.to/lastmile_qr_scan", "android": "https://dc.lft.to/lastmile_qr_scan"}, "fusion_lon": 0.0, "bike_id": "a0f58d6e13755553cfeadcaad0ae81b3"}, {"type": "electric_scooter", "lon": -77.01968983333333, "is_disabled": 0, "name": "f7f23b6fc6ae375558cb3bc5b2b2b985", "lat": 38.90067783333333, "fusion_lat": 0.0, "is_reserved": 0, "rental_uris": {"ios": "https://dc.lft.to/lastmile_qr_scan", "android": "https://dc.lft.to/lastmile_qr_scan"}, "fusion_lon": 0.0, "bike_id": "f7f23b6fc6ae375558cb3bc5b2b2b985"}, {"type": "electric_scooter", "lon": -77.0639955, "is_disabled": 0, "name": "c1cb3d3f4bdb1e4a72771f03c7b85d7e", "lat": 38.909334666666666, "fusion_lat": 0.0, "is_reserved": 0, "rental_uris": {"ios": "https://dc.lft.to/lastmile_qr_scan", "android": "https://dc.lft.to/lastmile_qr_scan"}, "fusion_lon": 0.0, "bike_id": "c1cb3d3f4bdb1e4a72771f03c7b85d7e"}, {"type": "electric_scooter", "lon": -77.02662116666667, "is_disabled": 0, "name": "1b9dc7d5d9053cec747bc593c9b6eff9", "lat": 38.931012333333335, "fusion_lat": 0.0, "is_reserved": 0, "rental_uris": {"ios": "https://dc.lft.to/lastmile_qr_scan", "android": "https://dc.lft.to/lastmile_qr_scan"}, "fusion_lon": 0.0, "bike_id": "1b9dc7d5d9053cec747bc593c9b6eff9"}, {"type": "electric_scooter", "lon": -77.0165785, "is_disabled": 0, "name": "faef2904d29b044e4aa3f4780fc5d0fd", "lat": 38.9420905, "fusion_lat": 0.0, "is_reserved": 0, "rental_uris": {"ios": "https://dc.lft.to/lastmile_qr_scan", "android": "https://dc.lft.to/lastmile_qr_scan"}, "fusion_lon": 0.0, "bike_id": "faef2904d29b044e4aa3f4780fc5d0fd"}, {"type": "electric_scooter", "lon": -77.03770066666667, "is_disabled": 0, "name": "ad84e2f148ef138d992dea9e3dd6ab9e", "lat": 38.9168995, "fusion_lat": 0.0, "is_reserved": 0, "rental_uris": {"ios": "https://dc.lft.to/lastmile_qr_scan", "android": "https://dc.lft.to/lastmile_qr_scan"}, "fusion_lon": 0.0, "bike_id": "ad84e2f148ef138d992dea9e3dd6ab9e"}, {"type": "electric_scooter", "lon": -77.03471916666666, "is_disabled": 0, "name": "35986f8f2c0512d82924b0955e4e1df2", "lat": 38.92880733333333, "fusion_lat": 0.0, "is_reserved": 0, "rental_uris": {"ios": "https://dc.lft.to/lastmile_qr_scan", "android": "https://dc.lft.to/lastmile_qr_scan"}, "fusion_lon": 0.0, "bike_id": "35986f8f2c0512d82924b0955e4e1df2"}, {"type": "electric_scooter", "lon": -77.00309283333333, "is_disabled": 0, "name": "e6deb9db1265017cb879572780773e92", "lat": 38.8767095, "fusion_lat": 0.0, "is_reserved": 0, "rental_uris": {"ios": "https://dc.lft.to/lastmile_qr_scan", "android": "https://dc.lft.to/lastmile_qr_scan"}, "fusion_lon": 0.0, "bike_id": "e6deb9db1265017cb879572780773e92"}, {"type": "electric_scooter", "lon": -77.00065, "is_disabled": 0, "name": "45b3a744e7b782265ea31d6b20d34c78", "lat": 38.8768135, "fusion_lat": 0.0, "is_reserved": 0, "rental_uris": {"ios": "https://dc.lft.to/lastmile_qr_scan", "android": "https://dc.lft.to/lastmile_qr_scan"}, "fusion_lon": 0.0, "bike_id": "45b3a744e7b782265ea31d6b20d34c78"}, {"type": "electric_scooter", "lon": -77.022798, "is_disabled": 0, "name": "108d68dc183166e3ed9e9169ab4579e6", "lat": 38.909589833333335, "fusion_lat": 0.0, "is_reserved": 0, "rental_uris": {"ios": "https://dc.lft.to/lastmile_qr_scan", "android": "https://dc.lft.to/lastmile_qr_scan"}, "fusion_lon": 0.0, "bike_id": "108d68dc183166e3ed9e9169ab4579e6"}, {"type": "electric_scooter", "lon": -77.0265045, "is_disabled": 0, "name": "a2cd76f1b5c1a9aef45e02a10abf97c8", "lat": 38.938613833333335, "fusion_lat": 0.0, "is_reserved": 0, "rental_uris": {"ios": "https://dc.lft.to/lastmile_qr_scan", "android": "https://dc.lft.to/lastmile_qr_scan"}, "fusion_lon": 0.0, "bike_id": "a2cd76f1b5c1a9aef45e02a10abf97c8"}, {"type": "electric_scooter", "lon": -77.02348966666666, "is_disabled": 0, "name": "7e5582c3e89cd4a112ca9a09eaeea944", "lat": 38.922272166666666, "fusion_lat": 0.0, "is_reserved": 0, "rental_uris": {"ios": "https://dc.lft.to/lastmile_qr_scan", "android": "https://dc.lft.to/lastmile_qr_scan"}, "fusion_lon": 0.0, "bike_id": "7e5582c3e89cd4a112ca9a09eaeea944"}, {"type": "electric_scooter", "lon": -77.053974, "is_disabled": 0, "name": "f925fefcb6bfbb4db7175a3cbe2d8819", "lat": 38.90143833333333, "fusion_lat": 0.0, "is_reserved": 0, "rental_uris": {"ios": "https://dc.lft.to/lastmile_qr_scan", "android": "https://dc.lft.to/lastmile_qr_scan"}, "fusion_lon": 0.0, "bike_id": "f925fefcb6bfbb4db7175a3cbe2d8819"}, {"type": "electric_scooter", "lon": -77.02763466666667, "is_disabled": 0, "name": "05c99b86e9c0d011839b50847b89e620", "lat": 38.95416983333333, "fusion_lat": 0.0, "is_reserved": 0, "rental_uris": {"ios": "https://dc.lft.to/lastmile_qr_scan", "android": "https://dc.lft.to/lastmile_qr_scan"}, "fusion_lon": 0.0, "bike_id": "05c99b86e9c0d011839b50847b89e620"}, {"type": "electric_scooter", "lon": -77.0052985, "is_disabled": 0, "name": "ac7609a1c4381a81a2e5eba5b15a9dda", "lat": 38.8746735, "fusion_lat": 0.0, "is_reserved": 0, "rental_uris": {"ios": "https://dc.lft.to/lastmile_qr_scan", "android": "https://dc.lft.to/lastmile_qr_scan"}, "fusion_lon": 0.0, "bike_id": "ac7609a1c4381a81a2e5eba5b15a9dda"}, {"type": "electric_scooter", "lon": -77.02270383333334, "is_disabled": 0, "name": "ea50bf52476b8915fa90f87607f44bf4", "lat": 38.920865666666664, "fusion_lat": 0.0, "is_reserved": 0, "rental_uris": {"ios": "https://dc.lft.to/lastmile_qr_scan", "android": "https://dc.lft.to/lastmile_qr_scan"}, "fusion_lon": 0.0, "bike_id": "ea50bf52476b8915fa90f87607f44bf4"}, {"type": "electric_scooter", "lon": -77.02538833333334, "is_disabled": 0, "name": "572bc765fab43836aab6afb344b59cd4", "lat": 38.92070183333333, "fusion_lat": 0.0, "is_reserved": 0, "rental_uris": {"ios": "https://dc.lft.to/lastmile_qr_scan", "android": "https://dc.lft.to/lastmile_qr_scan"}, "fusion_lon": 0.0, "bike_id": "572bc765fab43836aab6afb344b59cd4"}, {"type": "electric_scooter", "lon": -77.04392, "is_disabled": 0, "name": "4c595937b87dd53af581765de29dc0aa", "lat": 38.9122045, "fusion_lat": 0.0, "is_reserved": 0, "rental_uris": {"ios": "https://dc.lft.to/lastmile_qr_scan", "android": "https://dc.lft.to/lastmile_qr_scan"}, "fusion_lon": 0.0, "bike_id": "4c595937b87dd53af581765de29dc0aa"}, {"type": "electric_scooter", "lon": -77.05694233333334, "is_disabled": 0, "name": "e29eb95db2c21aa1381763e8b5ae95bf", "lat": 38.905588, "fusion_lat": 0.0, "is_reserved": 0, "rental_uris": {"ios": "https://dc.lft.to/lastmile_qr_scan", "android": "https://dc.lft.to/lastmile_qr_scan"}, "fusion_lon": 0.0, "bike_id": "e29eb95db2c21aa1381763e8b5ae95bf"}, {"type": "electric_scooter", "lon": -77.02808916666666, "is_disabled": 0, "name": "36769ab2039aa3f55d2ddd944d5ac908", "lat": 38.8997075, "fusion_lat": 0.0, "is_reserved": 0, "rental_uris": {"ios": "https://dc.lft.to/lastmile_qr_scan", "android": "https://dc.lft.to/lastmile_qr_scan"}, "fusion_lon": 0.0, "bike_id": "36769ab2039aa3f55d2ddd944d5ac908"}, {"type": "electric_scooter", "lon": -77.038832, "is_disabled": 0, "name": "ec6d6d6bfd5ca60388474f2c12423043", "lat": 38.9010425, "fusion_lat": 0.0, "is_reserved": 0, "rental_uris": {"ios": "https://dc.lft.to/lastmile_qr_scan", "android": "https://dc.lft.to/lastmile_qr_scan"}, "fusion_lon": 0.0, "bike_id": "ec6d6d6bfd5ca60388474f2c12423043"}, {"type": "electric_scooter", "lon": -77.03186866666667, "is_disabled": 0, "name": "71113ed073e750e647dbe3773c2beb9c", "lat": 38.91399833333333, "fusion_lat": 0.0, "is_reserved": 0, "rental_uris": {"ios": "https://dc.lft.to/lastmile_qr_scan", "android": "https://dc.lft.to/lastmile_qr_scan"}, "fusion_lon": 0.0, "bike_id": "71113ed073e750e647dbe3773c2beb9c"}, {"type": "electric_scooter", "lon": -77.00922333333334, "is_disabled": 0, "name": "fd9908fabb5a6afe47a8499d9e2c8eef", "lat": 38.908733833333336, "fusion_lat": 0.0, "is_reserved": 0, "rental_uris": {"ios": "https://dc.lft.to/lastmile_qr_scan", "android": "https://dc.lft.to/lastmile_qr_scan"}, "fusion_lon": 0.0, "bike_id": "fd9908fabb5a6afe47a8499d9e2c8eef"}, {"type": "electric_scooter", "lon": -77.00301383333333, "is_disabled": 0, "name": "1617f6dc9c91482fecc29f22a5d49ea9", "lat": 38.87658666666667, "fusion_lat": 0.0, "is_reserved": 0, "rental_uris": {"ios": "https://dc.lft.to/lastmile_qr_scan", "android": "https://dc.lft.to/lastmile_qr_scan"}, "fusion_lon": 0.0, "bike_id": "1617f6dc9c91482fecc29f22a5d49ea9"}, {"type": "electric_bike", "lon": -76.90751233333333, "is_disabled": 0, "name": "db32bab22d291d2b1bed34c591626e65", "lat": 38.89619283333333, "fusion_lat": 0.0, "is_reserved": 0, "rental_uris": {"ios": "https://dc.lft.to/lastmile_qr_scan", "android": "https://dc.lft.to/lastmile_qr_scan"}, "fusion_lon": 0.0, "bike_id": "db32bab22d291d2b1bed34c591626e65"}, {"type": "electric_scooter", "lon": -77.03187116666666, "is_disabled": 0, "name": "d72a45700a10a8d128cfba0f1fb53097", "lat": 38.936042, "fusion_lat": 0.0, "is_reserved": 0, "rental_uris": {"ios": "https://dc.lft.to/lastmile_qr_scan", "android": "https://dc.lft.to/lastmile_qr_scan"}, "fusion_lon": 0.0, "bike_id": "d72a45700a10a8d128cfba0f1fb53097"}, {"type": "electric_scooter", "lon": -76.94252366666667, "is_disabled": 0, "name": "7eeba4fa1d0b860c1cb05518837d65d3", "lat": 38.898425333333336, "fusion_lat": 0.0, "is_reserved": 0, "rental_uris": {"ios": "https://dc.lft.to/lastmile_qr_scan", "android": "https://dc.lft.to/lastmile_qr_scan"}, "fusion_lon": 0.0, "bike_id": "7eeba4fa1d0b860c1cb05518837d65d3"}, {"type": "electric_scooter", "lon": -77.07141783333333, "is_disabled": 0, "name": "40efa72f7137197f80fbc2202deb74f2", "lat": 38.9201655, "fusion_lat": 0.0, "is_reserved": 0, "rental_uris": {"ios": "https://dc.lft.to/lastmile_qr_scan", "android": "https://dc.lft.to/lastmile_qr_scan"}, "fusion_lon": 0.0, "bike_id": "40efa72f7137197f80fbc2202deb74f2"}, {"type": "electric_scooter", "lon": -77.02777666666667, "is_disabled": 0, "name": "d691d0e5ecd4d73ff02fb7a47cd97539", "lat": 38.9621455, "fusion_lat": 0.0, "is_reserved": 0, "rental_uris": {"ios": "https://dc.lft.to/lastmile_qr_scan", "android": "https://dc.lft.to/lastmile_qr_scan"}, "fusion_lon": 0.0, "bike_id": "d691d0e5ecd4d73ff02fb7a47cd97539"}, {"type": "electric_bike", "lon": -77.02247116666666, "is_disabled": 0, "name": "258fa7ea86df1fd812ae44a80a172652", "lat": 38.88635283333333, "fusion_lat": 0.0, "is_reserved": 0, "rental_uris": {"ios": "https://dc.lft.to/lastmile_qr_scan", "android": "https://dc.lft.to/lastmile_qr_scan"}, "fusion_lon": 0.0, "bike_id": "258fa7ea86df1fd812ae44a80a172652"}, {"type": "electric_scooter", "lon": -77.03847533333334, "is_disabled": 0, "name": "c4ecef910d8668d4f0d7d234a5b4e9d4", "lat": 38.91962066666667, "fusion_lat": 0.0, "is_reserved": 0, "rental_uris": {"ios": "https://dc.lft.to/lastmile_qr_scan", "android": "https://dc.lft.to/lastmile_qr_scan"}, "fusion_lon": 0.0, "bike_id": "c4ecef910d8668d4f0d7d234a5b4e9d4"}, {"type": "electric_scooter", "lon": -77.04352833333333, "is_disabled": 0, "name": "c0343dbae9db5331ca3f28714c672f08", "lat": 38.9061075, "fusion_lat": 0.0, "is_reserved": 0, "rental_uris": {"ios": "https://dc.lft.to/lastmile_qr_scan", "android": "https://dc.lft.to/lastmile_qr_scan"}, "fusion_lon": 0.0, "bike_id": "c0343dbae9db5331ca3f28714c672f08"}, {"type": "electric_scooter", "lon": -76.99385983333333, "is_disabled": 0, "name": "1f54f7c25969e772a2d476bbc8c645c9", "lat": 38.910093333333336, "fusion_lat": 0.0, "is_reserved": 0, "rental_uris": {"ios": "https://dc.lft.to/lastmile_qr_scan", "android": "https://dc.lft.to/lastmile_qr_scan"}, "fusion_lon": 0.0, "bike_id": "1f54f7c25969e772a2d476bbc8c645c9"}, {"type": "electric_scooter", "lon": -77.044387, "is_disabled": 0, "name": "f50ef2aa5de6c26f83cfc4e1e3f59145", "lat": 38.92224483333333, "fusion_lat": 0.0, "is_reserved": 0, "rental_uris": {"ios": "https://dc.lft.to/lastmile_qr_scan", "android": "https://dc.lft.to/lastmile_qr_scan"}, "fusion_lon": 0.0, "bike_id": "f50ef2aa5de6c26f83cfc4e1e3f59145"}, {"type": "electric_bike", "lon": -77.08996433333333, "is_disabled": 0, "name": "954febebf6be48dd16d250d7bdcc3225", "lat": 38.9090245, "fusion_lat": 0.0, "is_reserved": 0, "rental_uris": {"ios": "https://dc.lft.to/lastmile_qr_scan", "android": "https://dc.lft.to/lastmile_qr_scan"}, "fusion_lon": 0.0, "bike_id": "954febebf6be48dd16d250d7bdcc3225"}, {"type": "electric_scooter", "lon": -76.9885715, "is_disabled": 0, "name": "f3a749bc38ddc6621a8c8e73cfeaa717", "lat": 38.84417916666666, "fusion_lat": 0.0, "is_reserved": 0, "rental_uris": {"ios": "https://dc.lft.to/lastmile_qr_scan", "android": "https://dc.lft.to/lastmile_qr_scan"}, "fusion_lon": 0.0, "bike_id": "f3a749bc38ddc6621a8c8e73cfeaa717"}, {"type": "electric_scooter", "lon": -77.03315016666667, "is_disabled": 0, "name": "29d43e120ec011294a626a6aeac105c8", "lat": 38.924427, "fusion_lat": 0.0, "is_reserved": 0, "rental_uris": {"ios": "https://dc.lft.to/lastmile_qr_scan", "android": "https://dc.lft.to/lastmile_qr_scan"}, "fusion_lon": 0.0, "bike_id": "29d43e120ec011294a626a6aeac105c8"}, {"type": "electric_scooter", "lon": -77.0683735, "is_disabled": 0, "name": "365819865d1247d5d85f215bad225cb8", "lat": 38.90390633333333, "fusion_lat": 0.0, "is_reserved": 0, "rental_uris": {"ios": "https://dc.lft.to/lastmile_qr_scan", "android": "https://dc.lft.to/lastmile_qr_scan"}, "fusion_lon": 0.0, "bike_id": "365819865d1247d5d85f215bad225cb8"}, {"type": "electric_scooter", "lon": -77.02885366666666, "is_disabled": 0, "name": "2305ecfb6f59e0e390b927e5b2fe391d", "lat": 38.916492166666664, "fusion_lat": 0.0, "is_reserved": 0, "rental_uris": {"ios": "https://dc.lft.to/lastmile_qr_scan", "android": "https://dc.lft.to/lastmile_qr_scan"}, "fusion_lon": 0.0, "bike_id": "2305ecfb6f59e0e390b927e5b2fe391d"}, {"type": "electric_scooter", "lon": -77.0385795, "is_disabled": 0, "name": "f838da1b0f3a237f79c0819315f97554", "lat": 38.9101725, "fusion_lat": 0.0, "is_reserved": 0, "rental_uris": {"ios": "https://dc.lft.to/lastmile_qr_scan", "android": "https://dc.lft.to/lastmile_qr_scan"}, "fusion_lon": 0.0, "bike_id": "f838da1b0f3a237f79c0819315f97554"}, {"type": "electric_scooter", "lon": -77.0369395, "is_disabled": 0, "name": "c4b841b14ee6f9d34dac606d54e3456f", "lat": 38.906228666666664, "fusion_lat": 0.0, "is_reserved": 0, "rental_uris": {"ios": "https://dc.lft.to/lastmile_qr_scan", "android": "https://dc.lft.to/lastmile_qr_scan"}, "fusion_lon": 0.0, "bike_id": "c4b841b14ee6f9d34dac606d54e3456f"}, {"type": "electric_bike", "lon": -76.9878695, "is_disabled": 0, "name": "097897dbe1005fe0a34d4383b31e628c", "lat": 38.844704, "fusion_lat": 0.0, "is_reserved": 0, "rental_uris": {"ios": "https://dc.lft.to/lastmile_qr_scan", "android": "https://dc.lft.to/lastmile_qr_scan"}, "fusion_lon": 0.0, "bike_id": "097897dbe1005fe0a34d4383b31e628c"}, {"type": "electric_scooter", "lon": -77.02982783333333, "is_disabled": 0, "name": "ce59be9fb061f97943c5fc57d175e6f3", "lat": 38.92473533333333, "fusion_lat": 0.0, "is_reserved": 0, "rental_uris": {"ios": "https://dc.lft.to/lastmile_qr_scan", "android": "https://dc.lft.to/lastmile_qr_scan"}, "fusion_lon": 0.0, "bike_id": "ce59be9fb061f97943c5fc57d175e6f3"}, {"type": "electric_scooter", "lon": -77.0628465, "is_disabled": 0, "name": "aed02224f67d352c78dc6fb92bcab030", "lat": 38.904118, "fusion_lat": 0.0, "is_reserved": 0, "rental_uris": {"ios": "https://dc.lft.to/lastmile_qr_scan", "android": "https://dc.lft.to/lastmile_qr_scan"}, "fusion_lon": 0.0, "bike_id": "aed02224f67d352c78dc6fb92bcab030"}, {"type": "electric_scooter", "lon": -77.01142716666666, "is_disabled": 0, "name": "43c3bf71e3ac39b8f972f5fb875d83c0", "lat": 38.90644616666667, "fusion_lat": 0.0, "is_reserved": 0, "rental_uris": {"ios": "https://dc.lft.to/lastmile_qr_scan", "android": "https://dc.lft.to/lastmile_qr_scan"}, "fusion_lon": 0.0, "bike_id": "43c3bf71e3ac39b8f972f5fb875d83c0"}, {"type": "electric_scooter", "lon": -76.9944925, "is_disabled": 0, "name": "3bc6732da573840b2d83021e781601e1", "lat": 38.908250833333334, "fusion_lat": 0.0, "is_reserved": 0, "rental_uris": {"ios": "https://dc.lft.to/lastmile_qr_scan", "android": "https://dc.lft.to/lastmile_qr_scan"}, "fusion_lon": 0.0, "bike_id": "3bc6732da573840b2d83021e781601e1"}, {"type": "electric_scooter", "lon": -77.0314555, "is_disabled": 0, "name": "e20a9d3b853ff4140de97ad1df148fc8", "lat": 38.887481333333334, "fusion_lat": 0.0, "is_reserved": 0, "rental_uris": {"ios": "https://dc.lft.to/lastmile_qr_scan", "android": "https://dc.lft.to/lastmile_qr_scan"}, "fusion_lon": 0.0, "bike_id": "e20a9d3b853ff4140de97ad1df148fc8"}, {"type": "electric_scooter", "lon": -77.03043766666667, "is_disabled": 0, "name": "25bdeaea0562f7aca375eb28a31dd9d7", "lat": 38.924679833333336, "fusion_lat": 0.0, "is_reserved": 0, "rental_uris": {"ios": "https://dc.lft.to/lastmile_qr_scan", "android": "https://dc.lft.to/lastmile_qr_scan"}, "fusion_lon": 0.0, "bike_id": "25bdeaea0562f7aca375eb28a31dd9d7"}, {"type": "electric_scooter", "lon": -77.0245885, "is_disabled": 0, "name": "4ccb25046138dcd859dbcc7d01d89339", "lat": 38.8973325, "fusion_lat": 0.0, "is_reserved": 0, "rental_uris": {"ios": "https://dc.lft.to/lastmile_qr_scan", "android": "https://dc.lft.to/lastmile_qr_scan"}, "fusion_lon": 0.0, "bike_id": "4ccb25046138dcd859dbcc7d01d89339"}, {"type": "electric_scooter", "lon": -77.02275966666667, "is_disabled": 0, "name": "919d4210dfd791ed71ba0b29ed41f941", "lat": 38.89839833333333, "fusion_lat": 0.0, "is_reserved": 0, "rental_uris": {"ios": "https://dc.lft.to/lastmile_qr_scan", "android": "https://dc.lft.to/lastmile_qr_scan"}, "fusion_lon": 0.0, "bike_id": "919d4210dfd791ed71ba0b29ed41f941"}, {"type": "electric_scooter", "lon": -77.02767066666667, "is_disabled": 0, "name": "6d4b5544213b3e6aee24e7c954289d3c", "lat": 38.9529995, "fusion_lat": 0.0, "is_reserved": 0, "rental_uris": {"ios": "https://dc.lft.to/lastmile_qr_scan", "android": "https://dc.lft.to/lastmile_qr_scan"}, "fusion_lon": 0.0, "bike_id": "6d4b5544213b3e6aee24e7c954289d3c"}, {"type": "electric_scooter", "lon": -77.02360916666666, "is_disabled": 0, "name": "e6c46307ac537abe92152d2ca81f956a", "lat": 38.91546966666667, "fusion_lat": 0.0, "is_reserved": 0, "rental_uris": {"ios": "https://dc.lft.to/lastmile_qr_scan", "android": "https://dc.lft.to/lastmile_qr_scan"}, "fusion_lon": 0.0, "bike_id": "e6c46307ac537abe92152d2ca81f956a"}, {"type": "electric_scooter", "lon": -77.0462215, "is_disabled": 0, "name": "72e0916736c55fbb9ad68e85bf15973d", "lat": 38.9097245, "fusion_lat": 0.0, "is_reserved": 0, "rental_uris": {"ios": "https://dc.lft.to/lastmile_qr_scan", "android": "https://dc.lft.to/lastmile_qr_scan"}, "fusion_lon": 0.0, "bike_id": "72e0916736c55fbb9ad68e85bf15973d"}, {"type": "electric_scooter", "lon": -77.0202665, "is_disabled": 0, "name": "cc067bd4775183207047b375974b9d3b", "lat": 38.9221265, "fusion_lat": 0.0, "is_reserved": 0, "rental_uris": {"ios": "https://dc.lft.to/lastmile_qr_scan", "android": "https://dc.lft.to/lastmile_qr_scan"}, "fusion_lon": 0.0, "bike_id": "cc067bd4775183207047b375974b9d3b"}, {"type": "electric_scooter", "lon": -77.021377, "is_disabled": 0, "name": "8f7c4ca67ca00c0ebdaa61d6be6f1616", "lat": 38.92409116666666, "fusion_lat": 0.0, "is_reserved": 0, "rental_uris": {"ios": "https://dc.lft.to/lastmile_qr_scan", "android": "https://dc.lft.to/lastmile_qr_scan"}, "fusion_lon": 0.0, "bike_id": "8f7c4ca67ca00c0ebdaa61d6be6f1616"}, {"type": "electric_scooter", "lon": -77.05927233333334, "is_disabled": 0, "name": "d6b1d780f05a3b3d56f90e053e3beeea", "lat": 38.943059166666664, "fusion_lat": 0.0, "is_reserved": 0, "rental_uris": {"ios": "https://dc.lft.to/lastmile_qr_scan", "android": "https://dc.lft.to/lastmile_qr_scan"}, "fusion_lon": 0.0, "bike_id": "d6b1d780f05a3b3d56f90e053e3beeea"}, {"type": "electric_scooter", "lon": -76.97802766666666, "is_disabled": 0, "name": "d18b24fcbde899e97fcffddbb842c98f", "lat": 38.920352, "fusion_lat": 0.0, "is_reserved": 0, "rental_uris": {"ios": "https://dc.lft.to/lastmile_qr_scan", "android": "https://dc.lft.to/lastmile_qr_scan"}, "fusion_lon": 0.0, "bike_id": "d18b24fcbde899e97fcffddbb842c98f"}, {"type": "electric_scooter", "lon": -77.03213416666667, "is_disabled": 0, "name": "97c4ad4426fd25b501cc40615f9d2452", "lat": 38.90826033333333, "fusion_lat": 0.0, "is_reserved": 0, "rental_uris": {"ios": "https://dc.lft.to/lastmile_qr_scan", "android": "https://dc.lft.to/lastmile_qr_scan"}, "fusion_lon": 0.0, "bike_id": "97c4ad4426fd25b501cc40615f9d2452"}, {"type": "electric_scooter", "lon": -76.97334433333333, "is_disabled": 0, "name": "258ac9b506d6c8b0abb35c169278e5d7", "lat": 38.90409983333333, "fusion_lat": 0.0, "is_reserved": 0, "rental_uris": {"ios": "https://dc.lft.to/lastmile_qr_scan", "android": "https://dc.lft.to/lastmile_qr_scan"}, "fusion_lon": 0.0, "bike_id": "258ac9b506d6c8b0abb35c169278e5d7"}, {"type": "electric_scooter", "lon": -77.0215895, "is_disabled": 0, "name": "f438e5ed1052be9eddeecea69cd8dd85", "lat": 38.926064333333336, "fusion_lat": 0.0, "is_reserved": 0, "rental_uris": {"ios": "https://dc.lft.to/lastmile_qr_scan", "android": "https://dc.lft.to/lastmile_qr_scan"}, "fusion_lon": 0.0, "bike_id": "f438e5ed1052be9eddeecea69cd8dd85"}, {"type": "electric_scooter", "lon": -77.07883516666666, "is_disabled": 0, "name": "7fca1cd91212eb26602ac4afd64328be", "lat": 38.94843216666666, "fusion_lat": 0.0, "is_reserved": 0, "rental_uris": {"ios": "https://dc.lft.to/lastmile_qr_scan", "android": "https://dc.lft.to/lastmile_qr_scan"}, "fusion_lon": 0.0, "bike_id": "7fca1cd91212eb26602ac4afd64328be"}, {"type": "electric_bike", "lon": -76.98761133333333, "is_disabled": 0, "name": "71385e6e28305d15066b6d2234c774e7", "lat": 38.85761983333333, "fusion_lat": 0.0, "is_reserved": 0, "rental_uris": {"ios": "https://dc.lft.to/lastmile_qr_scan", "android": "https://dc.lft.to/lastmile_qr_scan"}, "fusion_lon": 0.0, "bike_id": "71385e6e28305d15066b6d2234c774e7"}, {"type": "electric_scooter", "lon": -77.04995283333334, "is_disabled": 0, "name": "e311a1a518b3d1ef55a2fa1f160c7ae5", "lat": 38.901125, "fusion_lat": 0.0, "is_reserved": 0, "rental_uris": {"ios": "https://dc.lft.to/lastmile_qr_scan", "android": "https://dc.lft.to/lastmile_qr_scan"}, "fusion_lon": 0.0, "bike_id": "e311a1a518b3d1ef55a2fa1f160c7ae5"}, {"type": "electric_scooter", "lon": -77.01115066666667, "is_disabled": 0, "name": "2f1187a5f854aa3a78290caf0e013a4d", "lat": 38.885086333333334, "fusion_lat": 0.0, "is_reserved": 0, "rental_uris": {"ios": "https://dc.lft.to/lastmile_qr_scan", "android": "https://dc.lft.to/lastmile_qr_scan"}, "fusion_lon": 0.0, "bike_id": "2f1187a5f854aa3a78290caf0e013a4d"}, {"type": "electric_scooter", "lon": -77.02818733333334, "is_disabled": 0, "name": "f322b13ba07e361a450a70af1e3ef39c", "lat": 38.929695833333334, "fusion_lat": 0.0, "is_reserved": 0, "rental_uris": {"ios": "https://dc.lft.to/lastmile_qr_scan", "android": "https://dc.lft.to/lastmile_qr_scan"}, "fusion_lon": 0.0, "bike_id": "f322b13ba07e361a450a70af1e3ef39c"}, {"type": "electric_scooter", "lon": -77.042481, "is_disabled": 0, "name": "ea414f43b7f925341509f2cbb23a1441", "lat": 38.921924, "fusion_lat": 0.0, "is_reserved": 0, "rental_uris": {"ios": "https://dc.lft.to/lastmile_qr_scan", "android": "https://dc.lft.to/lastmile_qr_scan"}, "fusion_lon": 0.0, "bike_id": "ea414f43b7f925341509f2cbb23a1441"}, {"type": "electric_bike", "lon": -77.12980833333333, "is_disabled": 0, "name": "3634e1140fbbe293b6f8fc890a28632f", "lat": 38.7998495, "fusion_lat": 0.0, "is_reserved": 0, "rental_uris": {"ios": "https://dc.lft.to/lastmile_qr_scan", "android": "https://dc.lft.to/lastmile_qr_scan"}, "fusion_lon": 0.0, "bike_id": "3634e1140fbbe293b6f8fc890a28632f"}, {"type": "electric_scooter", "lon": -77.02104333333334, "is_disabled": 0, "name": "58f04177c8119ff40159fc34be3e51ec", "lat": 38.92154633333333, "fusion_lat": 0.0, "is_reserved": 0, "rental_uris": {"ios": "https://dc.lft.to/lastmile_qr_scan", "android": "https://dc.lft.to/lastmile_qr_scan"}, "fusion_lon": 0.0, "bike_id": "58f04177c8119ff40159fc34be3e51ec"}, {"type": "electric_scooter", "lon": -77.03904633333333, "is_disabled": 0, "name": "26e76a8aa8fc37e93d098beeb5bd024c", "lat": 38.91690933333334, "fusion_lat": 0.0, "is_reserved": 0, "rental_uris": {"ios": "https://dc.lft.to/lastmile_qr_scan", "android": "https://dc.lft.to/lastmile_qr_scan"}, "fusion_lon": 0.0, "bike_id": "26e76a8aa8fc37e93d098beeb5bd024c"}, {"type": "electric_scooter", "lon": -77.020293, "is_disabled": 0, "name": "e70c6827720d8d2ed67de41132908dee", "lat": 38.924395833333335, "fusion_lat": 0.0, "is_reserved": 0, "rental_uris": {"ios": "https://dc.lft.to/lastmile_qr_scan", "android": "https://dc.lft.to/lastmile_qr_scan"}, "fusion_lon": 0.0, "bike_id": "e70c6827720d8d2ed67de41132908dee"}, {"type": "electric_scooter", "lon": -77.02308133333334, "is_disabled": 0, "name": "aa386c8ea6a4c2de60a9e70b071aca9c", "lat": 38.920758166666666, "fusion_lat": 0.0, "is_reserved": 0, "rental_uris": {"ios": "https://dc.lft.to/lastmile_qr_scan", "android": "https://dc.lft.to/lastmile_qr_scan"}, "fusion_lon": 0.0, "bike_id": "aa386c8ea6a4c2de60a9e70b071aca9c"}, {"type": "electric_scooter", "lon": -77.02794683333333, "is_disabled": 0, "name": "4030057b36ddcb6a9acbbbb81b75a823", "lat": 38.88424366666667, "fusion_lat": 0.0, "is_reserved": 0, "rental_uris": {"ios": "https://dc.lft.to/lastmile_qr_scan", "android": "https://dc.lft.to/lastmile_qr_scan"}, "fusion_lon": 0.0, "bike_id": "4030057b36ddcb6a9acbbbb81b75a823"}, {"type": "electric_scooter", "lon": -77.02204766666667, "is_disabled": 0, "name": "77a2e74b059e9a83b4698c430127e280", "lat": 38.924696, "fusion_lat": 0.0, "is_reserved": 0, "rental_uris": {"ios": "https://dc.lft.to/lastmile_qr_scan", "android": "https://dc.lft.to/lastmile_qr_scan"}, "fusion_lon": 0.0, "bike_id": "77a2e74b059e9a83b4698c430127e280"}, {"type": "electric_scooter", "lon": -77.032262, "is_disabled": 0, "name": "3a7a7af772c43e74f22d986b48c9ddf8", "lat": 38.91910583333333, "fusion_lat": 0.0, "is_reserved": 0, "rental_uris": {"ios": "https://dc.lft.to/lastmile_qr_scan", "android": "https://dc.lft.to/lastmile_qr_scan"}, "fusion_lon": 0.0, "bike_id": "3a7a7af772c43e74f22d986b48c9ddf8"}, {"type": "electric_scooter", "lon": -77.024443, "is_disabled": 0, "name": "e647526bc191d65069085a36d207fbb5", "lat": 38.94977466666667, "fusion_lat": 0.0, "is_reserved": 0, "rental_uris": {"ios": "https://dc.lft.to/lastmile_qr_scan", "android": "https://dc.lft.to/lastmile_qr_scan"}, "fusion_lon": 0.0, "bike_id": "e647526bc191d65069085a36d207fbb5"}, {"type": "electric_scooter", "lon": -77.00352116666667, "is_disabled": 0, "name": "2985ff73bec4cf13e0a1625e7cc60796", "lat": 38.876811333333336, "fusion_lat": 0.0, "is_reserved": 0, "rental_uris": {"ios": "https://dc.lft.to/lastmile_qr_scan", "android": "https://dc.lft.to/lastmile_qr_scan"}, "fusion_lon": 0.0, "bike_id": "2985ff73bec4cf13e0a1625e7cc60796"}, {"type": "electric_scooter", "lon": -76.98507433333333, "is_disabled": 0, "name": "35fa8b903679038e8d1493c47c692280", "lat": 38.920071, "fusion_lat": 0.0, "is_reserved": 0, "rental_uris": {"ios": "https://dc.lft.to/lastmile_qr_scan", "android": "https://dc.lft.to/lastmile_qr_scan"}, "fusion_lon": 0.0, "bike_id": "35fa8b903679038e8d1493c47c692280"}, {"type": "electric_scooter", "lon": -77.03250416666667, "is_disabled": 0, "name": "20cb07d36d7f5fdb6c4ffde939c6011a", "lat": 38.920539166666664, "fusion_lat": 0.0, "is_reserved": 0, "rental_uris": {"ios": "https://dc.lft.to/lastmile_qr_scan", "android": "https://dc.lft.to/lastmile_qr_scan"}, "fusion_lon": 0.0, "bike_id": "20cb07d36d7f5fdb6c4ffde939c6011a"}, {"type": "electric_scooter", "lon": -77.02853233333333, "is_disabled": 0, "name": "5748350fb34aa04ed75470de3d17feca", "lat": 38.902085166666666, "fusion_lat": 0.0, "is_reserved": 0, "rental_uris": {"ios": "https://dc.lft.to/lastmile_qr_scan", "android": "https://dc.lft.to/lastmile_qr_scan"}, "fusion_lon": 0.0, "bike_id": "5748350fb34aa04ed75470de3d17feca"}, {"type": "electric_scooter", "lon": -77.032631, "is_disabled": 0, "name": "c1ff14fed9bac7c0ac0a89cf3179a464", "lat": 38.91990883333333, "fusion_lat": 0.0, "is_reserved": 0, "rental_uris": {"ios": "https://dc.lft.to/lastmile_qr_scan", "android": "https://dc.lft.to/lastmile_qr_scan"}, "fusion_lon": 0.0, "bike_id": "c1ff14fed9bac7c0ac0a89cf3179a464"}, {"type": "electric_scooter", "lon": -77.04093216666666, "is_disabled": 0, "name": "59092b08fefd86968caa3c6c1f68949d", "lat": 38.90528616666667, "fusion_lat": 0.0, "is_reserved": 0, "rental_uris": {"ios": "https://dc.lft.to/lastmile_qr_scan", "android": "https://dc.lft.to/lastmile_qr_scan"}, "fusion_lon": 0.0, "bike_id": "59092b08fefd86968caa3c6c1f68949d"}, {"type": "electric_scooter", "lon": -77.02223433333333, "is_disabled": 0, "name": "7c99bf484bfc280edadf7e768323f205", "lat": 38.92478, "fusion_lat": 0.0, "is_reserved": 0, "rental_uris": {"ios": "https://dc.lft.to/lastmile_qr_scan", "android": "https://dc.lft.to/lastmile_qr_scan"}, "fusion_lon": 0.0, "bike_id": "7c99bf484bfc280edadf7e768323f205"}, {"type": "electric_scooter", "lon": -77.02174983333333, "is_disabled": 0, "name": "081c190ac2fe9120fefd21160d207861", "lat": 38.91910333333333, "fusion_lat": 0.0, "is_reserved": 0, "rental_uris": {"ios": "https://dc.lft.to/lastmile_qr_scan", "android": "https://dc.lft.to/lastmile_qr_scan"}, "fusion_lon": 0.0, "bike_id": "081c190ac2fe9120fefd21160d207861"}, {"type": "electric_scooter", "lon": -77.01669866666667, "is_disabled": 0, "name": "d0b46f20bbe9d3ff9987431cd6943d0a", "lat": 38.91044, "fusion_lat": 0.0, "is_reserved": 0, "rental_uris": {"ios": "https://dc.lft.to/lastmile_qr_scan", "android": "https://dc.lft.to/lastmile_qr_scan"}, "fusion_lon": 0.0, "bike_id": "d0b46f20bbe9d3ff9987431cd6943d0a"}, {"type": "electric_bike", "lon": -77.0237865, "is_disabled": 0, "name": "0c12a4f34fc493a3e5a2bc25ddb36b31", "lat": 38.882151, "fusion_lat": 0.0, "is_reserved": 0, "rental_uris": {"ios": "https://dc.lft.to/lastmile_qr_scan", "android": "https://dc.lft.to/lastmile_qr_scan"}, "fusion_lon": 0.0, "bike_id": "0c12a4f34fc493a3e5a2bc25ddb36b31"}, {"type": "electric_scooter", "lon": -77.02568983333333, "is_disabled": 0, "name": "198447e7ca9ae1d8c8946aabaa2e865d", "lat": 38.916623, "fusion_lat": 0.0, "is_reserved": 0, "rental_uris": {"ios": "https://dc.lft.to/lastmile_qr_scan", "android": "https://dc.lft.to/lastmile_qr_scan"}, "fusion_lon": 0.0, "bike_id": "198447e7ca9ae1d8c8946aabaa2e865d"}, {"type": "electric_scooter", "lon": -77.00758983333333, "is_disabled": 0, "name": "78cfbba3945610b4e5955a5a55f69b4b", "lat": 38.89782966666667, "fusion_lat": 0.0, "is_reserved": 0, "rental_uris": {"ios": "https://dc.lft.to/lastmile_qr_scan", "android": "https://dc.lft.to/lastmile_qr_scan"}, "fusion_lon": 0.0, "bike_id": "78cfbba3945610b4e5955a5a55f69b4b"}, {"type": "electric_scooter", "lon": -77.02160433333333, "is_disabled": 0, "name": "739c8f91b633bb821fb5267ae7b38e65", "lat": 38.926138, "fusion_lat": 0.0, "is_reserved": 0, "rental_uris": {"ios": "https://dc.lft.to/lastmile_qr_scan", "android": "https://dc.lft.to/lastmile_qr_scan"}, "fusion_lon": 0.0, "bike_id": "739c8f91b633bb821fb5267ae7b38e65"}, {"type": "electric_scooter", "lon": -77.036561, "is_disabled": 0, "name": "5226c16907f2cef99858f30bc2d7afa4", "lat": 38.9028405, "fusion_lat": 0.0, "is_reserved": 0, "rental_uris": {"ios": "https://dc.lft.to/lastmile_qr_scan", "android": "https://dc.lft.to/lastmile_qr_scan"}, "fusion_lon": 0.0, "bike_id": "5226c16907f2cef99858f30bc2d7afa4"}, {"type": "electric_scooter", "lon": -77.0309555, "is_disabled": 0, "name": "050c33bad902e8b33f62e19ad6e8b04c", "lat": 38.883561, "fusion_lat": 0.0, "is_reserved": 0, "rental_uris": {"ios": "https://dc.lft.to/lastmile_qr_scan", "android": "https://dc.lft.to/lastmile_qr_scan"}, "fusion_lon": 0.0, "bike_id": "050c33bad902e8b33f62e19ad6e8b04c"}, {"type": "electric_scooter", "lon": -77.02276166666667, "is_disabled": 0, "name": "88b27b2d9500ea44ba88226edfccb1c9", "lat": 38.902816666666666, "fusion_lat": 0.0, "is_reserved": 0, "rental_uris": {"ios": "https://dc.lft.to/lastmile_qr_scan", "android": "https://dc.lft.to/lastmile_qr_scan"}, "fusion_lon": 0.0, "bike_id": "88b27b2d9500ea44ba88226edfccb1c9"}, {"type": "electric_scooter", "lon": -77.02153983333334, "is_disabled": 0, "name": "153d122582fa64f83a317ef6fcf4e5b6", "lat": 38.9259985, "fusion_lat": 0.0, "is_reserved": 0, "rental_uris": {"ios": "https://dc.lft.to/lastmile_qr_scan", "android": "https://dc.lft.to/lastmile_qr_scan"}, "fusion_lon": 0.0, "bike_id": "153d122582fa64f83a317ef6fcf4e5b6"}, {"type": "electric_bike", "lon": -77.03061916666667, "is_disabled": 0, "name": "9489d202b770ba4b0084a3f93e941a96", "lat": 38.920686333333336, "fusion_lat": 0.0, "is_reserved": 0, "rental_uris": {"ios": "https://dc.lft.to/lastmile_qr_scan", "android": "https://dc.lft.to/lastmile_qr_scan"}, "fusion_lon": 0.0, "bike_id": "9489d202b770ba4b0084a3f93e941a96"}, {"type": "electric_scooter", "lon": -77.02342933333334, "is_disabled": 0, "name": "1d2a3ccd5d1e3cdb7955f8c015afddb3", "lat": 38.916955, "fusion_lat": 0.0, "is_reserved": 0, "rental_uris": {"ios": "https://dc.lft.to/lastmile_qr_scan", "android": "https://dc.lft.to/lastmile_qr_scan"}, "fusion_lon": 0.0, "bike_id": "1d2a3ccd5d1e3cdb7955f8c015afddb3"}, {"type": "electric_bike", "lon": -76.99015816666666, "is_disabled": 0, "name": "591dfe8299b69faa7e6404cbbe26e3e1", "lat": 38.835840833333336, "fusion_lat": 0.0, "is_reserved": 0, "rental_uris": {"ios": "https://dc.lft.to/lastmile_qr_scan", "android": "https://dc.lft.to/lastmile_qr_scan"}, "fusion_lon": 0.0, "bike_id": "591dfe8299b69faa7e6404cbbe26e3e1"}, {"type": "electric_scooter", "lon": -77.00293033333334, "is_disabled": 0, "name": "27b4caefcc9abedbc566e909449efacd", "lat": 38.87691433333333, "fusion_lat": 0.0, "is_reserved": 0, "rental_uris": {"ios": "https://dc.lft.to/lastmile_qr_scan", "android": "https://dc.lft.to/lastmile_qr_scan"}, "fusion_lon": 0.0, "bike_id": "27b4caefcc9abedbc566e909449efacd"}, {"type": "electric_bike", "lon": -77.09613216666666, "is_disabled": 0, "name": "65c51820b395347dbf45744c38da5422", "lat": 38.87886016666667, "fusion_lat": 0.0, "is_reserved": 0, "rental_uris": {"ios": "https://dc.lft.to/lastmile_qr_scan", "android": "https://dc.lft.to/lastmile_qr_scan"}, "fusion_lon": 0.0, "bike_id": "65c51820b395347dbf45744c38da5422"}, {"type": "electric_scooter", "lon": -77.01957616666667, "is_disabled": 0, "name": "cfd4f598e8af2503be0b704b08b8c123", "lat": 38.923224833333336, "fusion_lat": 0.0, "is_reserved": 0, "rental_uris": {"ios": "https://dc.lft.to/lastmile_qr_scan", "android": "https://dc.lft.to/lastmile_qr_scan"}, "fusion_lon": 0.0, "bike_id": "cfd4f598e8af2503be0b704b08b8c123"}, {"type": "electric_scooter", "lon": -77.02573966666667, "is_disabled": 0, "name": "659a45e5a22c85055155a3639c85bff0", "lat": 38.926905833333336, "fusion_lat": 0.0, "is_reserved": 0, "rental_uris": {"ios": "https://dc.lft.to/lastmile_qr_scan", "android": "https://dc.lft.to/lastmile_qr_scan"}, "fusion_lon": 0.0, "bike_id": "659a45e5a22c85055155a3639c85bff0"}, {"type": "electric_scooter", "lon": -77.00678483333333, "is_disabled": 0, "name": "36a5847a7fde00899fc262bb204f2843", "lat": 38.90533216666667, "fusion_lat": 0.0, "is_reserved": 0, "rental_uris": {"ios": "https://dc.lft.to/lastmile_qr_scan", "android": "https://dc.lft.to/lastmile_qr_scan"}, "fusion_lon": 0.0, "bike_id": "36a5847a7fde00899fc262bb204f2843"}, {"type": "electric_bike", "lon": -76.98377783333333, "is_disabled": 0, "name": "d674bcfb6f5280f088b69638ca40bdc6", "lat": 38.91557916666667, "fusion_lat": 0.0, "is_reserved": 0, "rental_uris": {"ios": "https://dc.lft.to/lastmile_qr_scan", "android": "https://dc.lft.to/lastmile_qr_scan"}, "fusion_lon": 0.0, "bike_id": "d674bcfb6f5280f088b69638ca40bdc6"}, {"type": "electric_scooter", "lon": -77.0059995, "is_disabled": 0, "name": "8d55773f532d6acb78365443f74ab87b", "lat": 38.8755915, "fusion_lat": 0.0, "is_reserved": 0, "rental_uris": {"ios": "https://dc.lft.to/lastmile_qr_scan", "android": "https://dc.lft.to/lastmile_qr_scan"}, "fusion_lon": 0.0, "bike_id": "8d55773f532d6acb78365443f74ab87b"}, {"type": "electric_scooter", "lon": -77.0240615, "is_disabled": 0, "name": "c7ca609b4153bdf9abd3a0ad11189a39", "lat": 38.9127085, "fusion_lat": 0.0, "is_reserved": 0, "rental_uris": {"ios": "https://dc.lft.to/lastmile_qr_scan", "android": "https://dc.lft.to/lastmile_qr_scan"}, "fusion_lon": 0.0, "bike_id": "c7ca609b4153bdf9abd3a0ad11189a39"}, {"type": "electric_scooter", "lon": -77.03658583333333, "is_disabled": 0, "name": "c8c023b68206a1efa03cf2025efc3bdc", "lat": 38.936296166666665, "fusion_lat": 0.0, "is_reserved": 0, "rental_uris": {"ios": "https://dc.lft.to/lastmile_qr_scan", "android": "https://dc.lft.to/lastmile_qr_scan"}, "fusion_lon": 0.0, "bike_id": "c8c023b68206a1efa03cf2025efc3bdc"}, {"type": "electric_bike", "lon": -77.00749016666667, "is_disabled": 0, "name": "930317c7b62a3480e2d6c26e51700cbd", "lat": 38.878901, "fusion_lat": 0.0, "is_reserved": 0, "rental_uris": {"ios": "https://dc.lft.to/lastmile_qr_scan", "android": "https://dc.lft.to/lastmile_qr_scan"}, "fusion_lon": 0.0, "bike_id": "930317c7b62a3480e2d6c26e51700cbd"}, {"type": "electric_scooter", "lon": -76.99622016666666, "is_disabled": 0, "name": "ac43a1ff9aedf75bc036a8b27813282d", "lat": 38.881379833333334, "fusion_lat": 0.0, "is_reserved": 0, "rental_uris": {"ios": "https://dc.lft.to/lastmile_qr_scan", "android": "https://dc.lft.to/lastmile_qr_scan"}, "fusion_lon": 0.0, "bike_id": "ac43a1ff9aedf75bc036a8b27813282d"}, {"type": "electric_scooter", "lon": -77.0377495, "is_disabled": 0, "name": "fb4e29ec86ae172671ee2cfbf9ccc7b3", "lat": 38.91687, "fusion_lat": 0.0, "is_reserved": 0, "rental_uris": {"ios": "https://dc.lft.to/lastmile_qr_scan", "android": "https://dc.lft.to/lastmile_qr_scan"}, "fusion_lon": 0.0, "bike_id": "fb4e29ec86ae172671ee2cfbf9ccc7b3"}, {"type": "electric_scooter", "lon": -76.94579866666666, "is_disabled": 0, "name": "ac17807a33154f6e69238d2ca37d60a7", "lat": 38.89925733333333, "fusion_lat": 0.0, "is_reserved": 0, "rental_uris": {"ios": "https://dc.lft.to/lastmile_qr_scan", "android": "https://dc.lft.to/lastmile_qr_scan"}, "fusion_lon": 0.0, "bike_id": "ac17807a33154f6e69238d2ca37d60a7"}, {"type": "electric_scooter", "lon": -77.0021015, "is_disabled": 0, "name": "c8edc61006fde95b347dca418bb0f7ee", "lat": 38.90478516666667, "fusion_lat": 0.0, "is_reserved": 0, "rental_uris": {"ios": "https://dc.lft.to/lastmile_qr_scan", "android": "https://dc.lft.to/lastmile_qr_scan"}, "fusion_lon": 0.0, "bike_id": "c8edc61006fde95b347dca418bb0f7ee"}, {"type": "electric_bike", "lon": -77.12738516666667, "is_disabled": 0, "name": "0f2163133d93f662772cc5c6ede09308", "lat": 38.89566166666667, "fusion_lat": 0.0, "is_reserved": 0, "rental_uris": {"ios": "https://dc.lft.to/lastmile_qr_scan", "android": "https://dc.lft.to/lastmile_qr_scan"}, "fusion_lon": 0.0, "bike_id": "0f2163133d93f662772cc5c6ede09308"}, {"type": "electric_scooter", "lon": -77.04842866666667, "is_disabled": 0, "name": "7194c26e3f377974f0c78f3a3c42335e", "lat": 38.90201, "fusion_lat": 0.0, "is_reserved": 0, "rental_uris": {"ios": "https://dc.lft.to/lastmile_qr_scan", "android": "https://dc.lft.to/lastmile_qr_scan"}, "fusion_lon": 0.0, "bike_id": "7194c26e3f377974f0c78f3a3c42335e"}, {"type": "electric_scooter", "lon": -77.02379833333333, "is_disabled": 0, "name": "3ea0607c4ec0c19e4c96c1c29d98ddf8", "lat": 38.89195933333333, "fusion_lat": 0.0, "is_reserved": 0, "rental_uris": {"ios": "https://dc.lft.to/lastmile_qr_scan", "android": "https://dc.lft.to/lastmile_qr_scan"}, "fusion_lon": 0.0, "bike_id": "3ea0607c4ec0c19e4c96c1c29d98ddf8"}, {"type": "electric_scooter", "lon": -77.04556583333333, "is_disabled": 0, "name": "cedbbe239f7c8cf9ff1e5013af726a52", "lat": 38.901262, "fusion_lat": 0.0, "is_reserved": 0, "rental_uris": {"ios": "https://dc.lft.to/lastmile_qr_scan", "android": "https://dc.lft.to/lastmile_qr_scan"}, "fusion_lon": 0.0, "bike_id": "cedbbe239f7c8cf9ff1e5013af726a52"}, {"type": "electric_bike", "lon": -77.03879716666667, "is_disabled": 0, "name": "635d0fcd740b05269246b29649245634", "lat": 39.0262145, "fusion_lat": 0.0, "is_reserved": 0, "rental_uris": {"ios": "https://dc.lft.to/lastmile_qr_scan", "android": "https://dc.lft.to/lastmile_qr_scan"}, "fusion_lon": 0.0, "bike_id": "635d0fcd740b05269246b29649245634"}, {"type": "electric_scooter", "lon": -77.023141, "is_disabled": 0, "name": "d14f9c39953038fd4b3f9922e75c1764", "lat": 38.91176, "fusion_lat": 0.0, "is_reserved": 0, "rental_uris": {"ios": "https://dc.lft.to/lastmile_qr_scan", "android": "https://dc.lft.to/lastmile_qr_scan"}, "fusion_lon": 0.0, "bike_id": "d14f9c39953038fd4b3f9922e75c1764"}, {"type": "electric_scooter", "lon": -77.022795, "is_disabled": 0, "name": "83c3af4ec168cab0ffb577bb0f697194", "lat": 38.89841283333333, "fusion_lat": 0.0, "is_reserved": 0, "rental_uris": {"ios": "https://dc.lft.to/lastmile_qr_scan", "android": "https://dc.lft.to/lastmile_qr_scan"}, "fusion_lon": 0.0, "bike_id": "83c3af4ec168cab0ffb577bb0f697194"}, {"type": "electric_scooter", "lon": -77.0169985, "is_disabled": 0, "name": "abd725a6e489bb924885536df809293b", "lat": 38.872896, "fusion_lat": 0.0, "is_reserved": 0, "rental_uris": {"ios": "https://dc.lft.to/lastmile_qr_scan", "android": "https://dc.lft.to/lastmile_qr_scan"}, "fusion_lon": 0.0, "bike_id": "abd725a6e489bb924885536df809293b"}, {"type": "electric_scooter", "lon": -77.000555, "is_disabled": 0, "name": "07c7a001346804f66d29a66900717148", "lat": 38.87680116666667, "fusion_lat": 0.0, "is_reserved": 0, "rental_uris": {"ios": "https://dc.lft.to/lastmile_qr_scan", "android": "https://dc.lft.to/lastmile_qr_scan"}, "fusion_lon": 0.0, "bike_id": "07c7a001346804f66d29a66900717148"}, {"type": "electric_scooter", "lon": -76.92499183333334, "is_disabled": 0, "name": "6f8b0dd4ba425b9eee5499c4ae83fd0f", "lat": 38.88602933333333, "fusion_lat": 0.0, "is_reserved": 0, "rental_uris": {"ios": "https://dc.lft.to/lastmile_qr_scan", "android": "https://dc.lft.to/lastmile_qr_scan"}, "fusion_lon": 0.0, "bike_id": "6f8b0dd4ba425b9eee5499c4ae83fd0f"}, {"type": "electric_scooter", "lon": -77.020732, "is_disabled": 0, "name": "a932a82df26a2bf3f31ec327e86bbba2", "lat": 38.915551666666666, "fusion_lat": 0.0, "is_reserved": 0, "rental_uris": {"ios": "https://dc.lft.to/lastmile_qr_scan", "android": "https://dc.lft.to/lastmile_qr_scan"}, "fusion_lon": 0.0, "bike_id": "a932a82df26a2bf3f31ec327e86bbba2"}, {"type": "electric_scooter", "lon": -77.03274683333333, "is_disabled": 0, "name": "df2ca270a7722c7541d0e3b271c8cc00", "lat": 38.92758333333333, "fusion_lat": 0.0, "is_reserved": 0, "rental_uris": {"ios": "https://dc.lft.to/lastmile_qr_scan", "android": "https://dc.lft.to/lastmile_qr_scan"}, "fusion_lon": 0.0, "bike_id": "df2ca270a7722c7541d0e3b271c8cc00"}, {"type": "electric_scooter", "lon": -77.035299, "is_disabled": 0, "name": "8a43375cf2bf841966dc125b21a08ab3", "lat": 38.92415666666667, "fusion_lat": 0.0, "is_reserved": 0, "rental_uris": {"ios": "https://dc.lft.to/lastmile_qr_scan", "android": "https://dc.lft.to/lastmile_qr_scan"}, "fusion_lon": 0.0, "bike_id": "8a43375cf2bf841966dc125b21a08ab3"}, {"type": "electric_scooter", "lon": -77.0296765, "is_disabled": 0, "name": "d4a943f7483054877634aa85dfbbe9f9", "lat": 38.91724133333334, "fusion_lat": 0.0, "is_reserved": 0, "rental_uris": {"ios": "https://dc.lft.to/lastmile_qr_scan", "android": "https://dc.lft.to/lastmile_qr_scan"}, "fusion_lon": 0.0, "bike_id": "d4a943f7483054877634aa85dfbbe9f9"}, {"type": "electric_scooter", "lon": -76.99612316666666, "is_disabled": 0, "name": "d6b8cfd352fb591ffe47cb7101c6d262", "lat": 38.884850166666666, "fusion_lat": 0.0, "is_reserved": 0, "rental_uris": {"ios": "https://dc.lft.to/lastmile_qr_scan", "android": "https://dc.lft.to/lastmile_qr_scan"}, "fusion_lon": 0.0, "bike_id": "d6b8cfd352fb591ffe47cb7101c6d262"}, {"type": "electric_scooter", "lon": -77.04155083333333, "is_disabled": 0, "name": "d79c56dd698d0ac0dc3e3a842db1eb04", "lat": 38.916113, "fusion_lat": 0.0, "is_reserved": 0, "rental_uris": {"ios": "https://dc.lft.to/lastmile_qr_scan", "android": "https://dc.lft.to/lastmile_qr_scan"}, "fusion_lon": 0.0, "bike_id": "d79c56dd698d0ac0dc3e3a842db1eb04"}, {"type": "electric_scooter", "lon": -77.03540916666667, "is_disabled": 0, "name": "b7334caa53e9033b07b915348e74bf99", "lat": 38.925927, "fusion_lat": 0.0, "is_reserved": 0, "rental_uris": {"ios": "https://dc.lft.to/lastmile_qr_scan", "android": "https://dc.lft.to/lastmile_qr_scan"}, "fusion_lon": 0.0, "bike_id": "b7334caa53e9033b07b915348e74bf99"}, {"type": "electric_scooter", "lon": -77.027591, "is_disabled": 0, "name": "f6dee77dea42c4ee8ca62d0966730217", "lat": 38.956125666666665, "fusion_lat": 0.0, "is_reserved": 0, "rental_uris": {"ios": "https://dc.lft.to/lastmile_qr_scan", "android": "https://dc.lft.to/lastmile_qr_scan"}, "fusion_lon": 0.0, "bike_id": "f6dee77dea42c4ee8ca62d0966730217"}, {"type": "electric_scooter", "lon": -77.02182116666667, "is_disabled": 0, "name": "d83563c69bb64a581e80bd3fc8257a3d", "lat": 38.887124166666666, "fusion_lat": 0.0, "is_reserved": 0, "rental_uris": {"ios": "https://dc.lft.to/lastmile_qr_scan", "android": "https://dc.lft.to/lastmile_qr_scan"}, "fusion_lon": 0.0, "bike_id": "d83563c69bb64a581e80bd3fc8257a3d"}, {"type": "electric_scooter", "lon": -77.02988083333334, "is_disabled": 0, "name": "3c950e5e9880bebcd90409cc40290d29", "lat": 38.92052133333333, "fusion_lat": 0.0, "is_reserved": 0, "rental_uris": {"ios": "https://dc.lft.to/lastmile_qr_scan", "android": "https://dc.lft.to/lastmile_qr_scan"}, "fusion_lon": 0.0, "bike_id": "3c950e5e9880bebcd90409cc40290d29"}, {"type": "electric_scooter", "lon": -77.00598866666667, "is_disabled": 0, "name": "bdb07e5ba1de6686a7f2db6d7319d14c", "lat": 38.9055765, "fusion_lat": 0.0, "is_reserved": 0, "rental_uris": {"ios": "https://dc.lft.to/lastmile_qr_scan", "android": "https://dc.lft.to/lastmile_qr_scan"}, "fusion_lon": 0.0, "bike_id": "bdb07e5ba1de6686a7f2db6d7319d14c"}, {"type": "electric_scooter", "lon": -77.03191383333333, "is_disabled": 0, "name": "da1012238baaa6d4194636e950bad304", "lat": 38.915681166666666, "fusion_lat": 0.0, "is_reserved": 0, "rental_uris": {"ios": "https://dc.lft.to/lastmile_qr_scan", "android": "https://dc.lft.to/lastmile_qr_scan"}, "fusion_lon": 0.0, "bike_id": "da1012238baaa6d4194636e950bad304"}, {"type": "electric_bike", "lon": -76.90747483333334, "is_disabled": 0, "name": "0686365c896961887876d209f5346d01", "lat": 38.896207, "fusion_lat": 0.0, "is_reserved": 0, "rental_uris": {"ios": "https://dc.lft.to/lastmile_qr_scan", "android": "https://dc.lft.to/lastmile_qr_scan"}, "fusion_lon": 0.0, "bike_id": "0686365c896961887876d209f5346d01"}, {"type": "electric_scooter", "lon": -77.01506883333333, "is_disabled": 0, "name": "2a9dd850e8341ab88ddfdc344950e8a1", "lat": 38.89118033333333, "fusion_lat": 0.0, "is_reserved": 0, "rental_uris": {"ios": "https://dc.lft.to/lastmile_qr_scan", "android": "https://dc.lft.to/lastmile_qr_scan"}, "fusion_lon": 0.0, "bike_id": "2a9dd850e8341ab88ddfdc344950e8a1"}, {"type": "electric_scooter", "lon": -77.03067516666667, "is_disabled": 0, "name": "e15396712a130a3b60e1ef3c11a355a0", "lat": 38.9056995, "fusion_lat": 0.0, "is_reserved": 0, "rental_uris": {"ios": "https://dc.lft.to/lastmile_qr_scan", "android": "https://dc.lft.to/lastmile_qr_scan"}, "fusion_lon": 0.0, "bike_id": "e15396712a130a3b60e1ef3c11a355a0"}, {"type": "electric_bike", "lon": -76.97219583333333, "is_disabled": 0, "name": "4c80bc23fcbddd47028b790e93ba3370", "lat": 38.900301166666665, "fusion_lat": 0.0, "is_reserved": 0, "rental_uris": {"ios": "https://dc.lft.to/lastmile_qr_scan", "android": "https://dc.lft.to/lastmile_qr_scan"}, "fusion_lon": 0.0, "bike_id": "4c80bc23fcbddd47028b790e93ba3370"}, {"type": "electric_scooter", "lon": -76.9244045, "is_disabled": 0, "name": "4dd9d7832eb7440cc1ff4641c54b149f", "lat": 38.885113833333335, "fusion_lat": 0.0, "is_reserved": 0, "rental_uris": {"ios": "https://dc.lft.to/lastmile_qr_scan", "android": "https://dc.lft.to/lastmile_qr_scan"}, "fusion_lon": 0.0, "bike_id": "4dd9d7832eb7440cc1ff4641c54b149f"}, {"type": "electric_scooter", "lon": -77.0075165, "is_disabled": 0, "name": "711bedbcec385ad8f3507bcda384e4fa", "lat": 38.89731166666667, "fusion_lat": 0.0, "is_reserved": 0, "rental_uris": {"ios": "https://dc.lft.to/lastmile_qr_scan", "android": "https://dc.lft.to/lastmile_qr_scan"}, "fusion_lon": 0.0, "bike_id": "711bedbcec385ad8f3507bcda384e4fa"}, {"type": "electric_scooter", "lon": -77.01809616666667, "is_disabled": 0, "name": "42622f658e1ad04e45e671b19655ef1f", "lat": 38.902453, "fusion_lat": 0.0, "is_reserved": 0, "rental_uris": {"ios": "https://dc.lft.to/lastmile_qr_scan", "android": "https://dc.lft.to/lastmile_qr_scan"}, "fusion_lon": 0.0, "bike_id": "42622f658e1ad04e45e671b19655ef1f"}, {"type": "electric_scooter", "lon": -77.029523, "is_disabled": 0, "name": "880868846887ba51549c86c876a0ff63", "lat": 38.9050105, "fusion_lat": 0.0, "is_reserved": 0, "rental_uris": {"ios": "https://dc.lft.to/lastmile_qr_scan", "android": "https://dc.lft.to/lastmile_qr_scan"}, "fusion_lon": 0.0, "bike_id": "880868846887ba51549c86c876a0ff63"}, {"type": "electric_scooter", "lon": -77.05610583333333, "is_disabled": 0, "name": "39924b33eeb03f8c7ffbb11d10b00902", "lat": 38.93116533333333, "fusion_lat": 0.0, "is_reserved": 0, "rental_uris": {"ios": "https://dc.lft.to/lastmile_qr_scan", "android": "https://dc.lft.to/lastmile_qr_scan"}, "fusion_lon": 0.0, "bike_id": "39924b33eeb03f8c7ffbb11d10b00902"}, {"type": "electric_scooter", "lon": -77.02675, "is_disabled": 0, "name": "ac65f0e6f533ce45f95b3dcf8e976c44", "lat": 38.91695766666667, "fusion_lat": 0.0, "is_reserved": 0, "rental_uris": {"ios": "https://dc.lft.to/lastmile_qr_scan", "android": "https://dc.lft.to/lastmile_qr_scan"}, "fusion_lon": 0.0, "bike_id": "ac65f0e6f533ce45f95b3dcf8e976c44"}, {"type": "electric_scooter", "lon": -77.00311733333334, "is_disabled": 0, "name": "467e4ea602b50d3fb673175fd8d8045c", "lat": 38.87681466666667, "fusion_lat": 0.0, "is_reserved": 0, "rental_uris": {"ios": "https://dc.lft.to/lastmile_qr_scan", "android": "https://dc.lft.to/lastmile_qr_scan"}, "fusion_lon": 0.0, "bike_id": "467e4ea602b50d3fb673175fd8d8045c"}, {"type": "electric_scooter", "lon": -76.9653385, "is_disabled": 0, "name": "59387e1a6d26dfcc4a390dde5d13c183", "lat": 38.918605, "fusion_lat": 0.0, "is_reserved": 0, "rental_uris": {"ios": "https://dc.lft.to/lastmile_qr_scan", "android": "https://dc.lft.to/lastmile_qr_scan"}, "fusion_lon": 0.0, "bike_id": "59387e1a6d26dfcc4a390dde5d13c183"}, {"type": "electric_scooter", "lon": -77.02132383333333, "is_disabled": 0, "name": "e6c95a2a2917c5441f33fbe5787eef41", "lat": 38.92272883333333, "fusion_lat": 0.0, "is_reserved": 0, "rental_uris": {"ios": "https://dc.lft.to/lastmile_qr_scan", "android": "https://dc.lft.to/lastmile_qr_scan"}, "fusion_lon": 0.0, "bike_id": "e6c95a2a2917c5441f33fbe5787eef41"}, {"type": "electric_scooter", "lon": -77.02787916666666, "is_disabled": 0, "name": "ea38123802d67ae182c2439f0a28ac3e", "lat": 38.93412566666667, "fusion_lat": 0.0, "is_reserved": 0, "rental_uris": {"ios": "https://dc.lft.to/lastmile_qr_scan", "android": "https://dc.lft.to/lastmile_qr_scan"}, "fusion_lon": 0.0, "bike_id": "ea38123802d67ae182c2439f0a28ac3e"}, {"type": "electric_scooter", "lon": -77.0060275, "is_disabled": 0, "name": "7cc6046c752f33cb4653a73f19c69268", "lat": 38.87183483333333, "fusion_lat": 0.0, "is_reserved": 0, "rental_uris": {"ios": "https://dc.lft.to/lastmile_qr_scan", "android": "https://dc.lft.to/lastmile_qr_scan"}, "fusion_lon": 0.0, "bike_id": "7cc6046c752f33cb4653a73f19c69268"}, {"type": "electric_scooter", "lon": -77.00336, "is_disabled": 0, "name": "401a498af0d0e27648d1d4ba5cc192e5", "lat": 38.89982933333334, "fusion_lat": 0.0, "is_reserved": 0, "rental_uris": {"ios": "https://dc.lft.to/lastmile_qr_scan", "android": "https://dc.lft.to/lastmile_qr_scan"}, "fusion_lon": 0.0, "bike_id": "401a498af0d0e27648d1d4ba5cc192e5"}, {"type": "electric_scooter", "lon": -77.02180416666667, "is_disabled": 0, "name": "265866921045ddf2f17dfe31652c6b85", "lat": 38.887111833333336, "fusion_lat": 0.0, "is_reserved": 0, "rental_uris": {"ios": "https://dc.lft.to/lastmile_qr_scan", "android": "https://dc.lft.to/lastmile_qr_scan"}, "fusion_lon": 0.0, "bike_id": "265866921045ddf2f17dfe31652c6b85"}, {"type": "electric_scooter", "lon": -77.07013783333333, "is_disabled": 0, "name": "9dba4bb11c5e123c4a6784b43ca2330c", "lat": 38.905910666666664, "fusion_lat": 0.0, "is_reserved": 0, "rental_uris": {"ios": "https://dc.lft.to/lastmile_qr_scan", "android": "https://dc.lft.to/lastmile_qr_scan"}, "fusion_lon": 0.0, "bike_id": "9dba4bb11c5e123c4a6784b43ca2330c"}, {"type": "electric_scooter", "lon": -77.02638266666666, "is_disabled": 0, "name": "756853104605b9cf0ba1a6c97653343f", "lat": 38.911042, "fusion_lat": 0.0, "is_reserved": 0, "rental_uris": {"ios": "https://dc.lft.to/lastmile_qr_scan", "android": "https://dc.lft.to/lastmile_qr_scan"}, "fusion_lon": 0.0, "bike_id": "756853104605b9cf0ba1a6c97653343f"}, {"type": "electric_scooter", "lon": -77.03223833333334, "is_disabled": 0, "name": "35deb7e0418ebedfd4739f2bc341e410", "lat": 38.897149666666664, "fusion_lat": 0.0, "is_reserved": 0, "rental_uris": {"ios": "https://dc.lft.to/lastmile_qr_scan", "android": "https://dc.lft.to/lastmile_qr_scan"}, "fusion_lon": 0.0, "bike_id": "35deb7e0418ebedfd4739f2bc341e410"}, {"type": "electric_scooter", "lon": -77.01723616666666, "is_disabled": 0, "name": "ce832711076b380189728fb84f04d392", "lat": 38.97514783333333, "fusion_lat": 0.0, "is_reserved": 0, "rental_uris": {"ios": "https://dc.lft.to/lastmile_qr_scan", "android": "https://dc.lft.to/lastmile_qr_scan"}, "fusion_lon": 0.0, "bike_id": "ce832711076b380189728fb84f04d392"}, {"type": "electric_scooter", "lon": -77.03039416666667, "is_disabled": 0, "name": "25162bab90e7a5ed96fdb0179fd1c6e5", "lat": 38.950826, "fusion_lat": 0.0, "is_reserved": 0, "rental_uris": {"ios": "https://dc.lft.to/lastmile_qr_scan", "android": "https://dc.lft.to/lastmile_qr_scan"}, "fusion_lon": 0.0, "bike_id": "25162bab90e7a5ed96fdb0179fd1c6e5"}, {"type": "electric_scooter", "lon": -77.0118595, "is_disabled": 0, "name": "8cae6294efa671b850dce639d389134c", "lat": 38.90950816666667, "fusion_lat": 0.0, "is_reserved": 0, "rental_uris": {"ios": "https://dc.lft.to/lastmile_qr_scan", "android": "https://dc.lft.to/lastmile_qr_scan"}, "fusion_lon": 0.0, "bike_id": "8cae6294efa671b850dce639d389134c"}, {"type": "electric_scooter", "lon": -77.03218966666667, "is_disabled": 0, "name": "2dd32e28824af41f788aa263a45a6bf9", "lat": 38.8971675, "fusion_lat": 0.0, "is_reserved": 0, "rental_uris": {"ios": "https://dc.lft.to/lastmile_qr_scan", "android": "https://dc.lft.to/lastmile_qr_scan"}, "fusion_lon": 0.0, "bike_id": "2dd32e28824af41f788aa263a45a6bf9"}, {"type": "electric_bike", "lon": -77.12836116666666, "is_disabled": 0, "name": "357035c8d764b791c256f8eca3d424ff", "lat": 38.800535833333335, "fusion_lat": 0.0, "is_reserved": 0, "rental_uris": {"ios": "https://dc.lft.to/lastmile_qr_scan", "android": "https://dc.lft.to/lastmile_qr_scan"}, "fusion_lon": 0.0, "bike_id": "357035c8d764b791c256f8eca3d424ff"}, {"type": "electric_scooter", "lon": -77.03921333333334, "is_disabled": 0, "name": "d56dc4d2f140f9e1f0f2b25f3cbf6eae", "lat": 38.9249015, "fusion_lat": 0.0, "is_reserved": 0, "rental_uris": {"ios": "https://dc.lft.to/lastmile_qr_scan", "android": "https://dc.lft.to/lastmile_qr_scan"}, "fusion_lon": 0.0, "bike_id": "d56dc4d2f140f9e1f0f2b25f3cbf6eae"}, {"type": "electric_scooter", "lon": -77.00789933333333, "is_disabled": 0, "name": "5bf6c769e7761d78d0e20ffe1006729a", "lat": 38.9524795, "fusion_lat": 0.0, "is_reserved": 0, "rental_uris": {"ios": "https://dc.lft.to/lastmile_qr_scan", "android": "https://dc.lft.to/lastmile_qr_scan"}, "fusion_lon": 0.0, "bike_id": "5bf6c769e7761d78d0e20ffe1006729a"}, {"type": "electric_scooter", "lon": -77.019557, "is_disabled": 0, "name": "5ef62a8edca4d0a72b0c13576569140f", "lat": 38.923265, "fusion_lat": 0.0, "is_reserved": 0, "rental_uris": {"ios": "https://dc.lft.to/lastmile_qr_scan", "android": "https://dc.lft.to/lastmile_qr_scan"}, "fusion_lon": 0.0, "bike_id": "5ef62a8edca4d0a72b0c13576569140f"}, {"type": "electric_scooter", "lon": -77.0222965, "is_disabled": 0, "name": "17e2010f19cdf269dfa6dc28a8b9a347", "lat": 38.92468016666667, "fusion_lat": 0.0, "is_reserved": 0, "rental_uris": {"ios": "https://dc.lft.to/lastmile_qr_scan", "android": "https://dc.lft.to/lastmile_qr_scan"}, "fusion_lon": 0.0, "bike_id": "17e2010f19cdf269dfa6dc28a8b9a347"}, {"type": "electric_scooter", "lon": -77.04511483333333, "is_disabled": 0, "name": "c8f53f3224a999d49974e972bbe8a13f", "lat": 38.903547, "fusion_lat": 0.0, "is_reserved": 0, "rental_uris": {"ios": "https://dc.lft.to/lastmile_qr_scan", "android": "https://dc.lft.to/lastmile_qr_scan"}, "fusion_lon": 0.0, "bike_id": "c8f53f3224a999d49974e972bbe8a13f"}, {"type": "electric_scooter", "lon": -77.045109, "is_disabled": 0, "name": "bffcfb3d89a4c0cdda3c1058e7744890", "lat": 38.90265766666667, "fusion_lat": 0.0, "is_reserved": 0, "rental_uris": {"ios": "https://dc.lft.to/lastmile_qr_scan", "android": "https://dc.lft.to/lastmile_qr_scan"}, "fusion_lon": 0.0, "bike_id": "bffcfb3d89a4c0cdda3c1058e7744890"}, {"type": "electric_scooter", "lon": -77.03311616666667, "is_disabled": 0, "name": "0dbbab9a60469941f01a0f51e2bee469", "lat": 38.92641166666667, "fusion_lat": 0.0, "is_reserved": 0, "rental_uris": {"ios": "https://dc.lft.to/lastmile_qr_scan", "android": "https://dc.lft.to/lastmile_qr_scan"}, "fusion_lon": 0.0, "bike_id": "0dbbab9a60469941f01a0f51e2bee469"}, {"type": "electric_bike", "lon": -77.01201633333334, "is_disabled": 0, "name": "efee9a1cbb8791438ee7e964fdfc3478", "lat": 38.95070483333333, "fusion_lat": 0.0, "is_reserved": 0, "rental_uris": {"ios": "https://dc.lft.to/lastmile_qr_scan", "android": "https://dc.lft.to/lastmile_qr_scan"}, "fusion_lon": 0.0, "bike_id": "efee9a1cbb8791438ee7e964fdfc3478"}, {"type": "electric_scooter", "lon": -77.04455883333334, "is_disabled": 0, "name": "d44785133f6534322f0c477fca372407", "lat": 38.92471466666667, "fusion_lat": 0.0, "is_reserved": 0, "rental_uris": {"ios": "https://dc.lft.to/lastmile_qr_scan", "android": "https://dc.lft.to/lastmile_qr_scan"}, "fusion_lon": 0.0, "bike_id": "d44785133f6534322f0c477fca372407"}, {"type": "electric_bike", "lon": -76.95560833333333, "is_disabled": 0, "name": "c222a641c1bf41c2af0d27fc9da61651", "lat": 38.98501533333334, "fusion_lat": 0.0, "is_reserved": 0, "rental_uris": {"ios": "https://dc.lft.to/lastmile_qr_scan", "android": "https://dc.lft.to/lastmile_qr_scan"}, "fusion_lon": 0.0, "bike_id": "c222a641c1bf41c2af0d27fc9da61651"}, {"type": "electric_scooter", "lon": -77.02978366666666, "is_disabled": 0, "name": "ec12b47fab8820b066804a1e2c0d26e2", "lat": 38.94271366666667, "fusion_lat": 0.0, "is_reserved": 0, "rental_uris": {"ios": "https://dc.lft.to/lastmile_qr_scan", "android": "https://dc.lft.to/lastmile_qr_scan"}, "fusion_lon": 0.0, "bike_id": "ec12b47fab8820b066804a1e2c0d26e2"}, {"type": "electric_scooter", "lon": -77.021632, "is_disabled": 0, "name": "6802250ec383fd95206a33ab4fb9744a", "lat": 38.899382, "fusion_lat": 0.0, "is_reserved": 0, "rental_uris": {"ios": "https://dc.lft.to/lastmile_qr_scan", "android": "https://dc.lft.to/lastmile_qr_scan"}, "fusion_lon": 0.0, "bike_id": "6802250ec383fd95206a33ab4fb9744a"}, {"type": "electric_scooter", "lon": -77.04154433333333, "is_disabled": 0, "name": "c4257a998a7ba9f664c24477e398dd58", "lat": 38.89562333333333, "fusion_lat": 0.0, "is_reserved": 0, "rental_uris": {"ios": "https://dc.lft.to/lastmile_qr_scan", "android": "https://dc.lft.to/lastmile_qr_scan"}, "fusion_lon": 0.0, "bike_id": "c4257a998a7ba9f664c24477e398dd58"},