{"data": {"bikes": [{"lon": -77.0073005, "name": "c65837888d1857b9cb4cea924166dda6", "is_disabled": 0, "type": "electric_scooter", "is_reserved": 0, "fusion_lon": 0.0, "lat": 38.903552166666664, "rental_uris": {"ios": "https://dc.lft.to/lastmile_qr_scan", "android": "https://dc.lft.to/lastmile_qr_scan"}, "bike_id": "c65837888d1857b9cb4cea924166dda6", "fusion_lat": 0.0}, {"lon": -77.0243255, "name": "77b0a4e5fe3d68a4ddb710119de0788c", "is_disabled": 0, "type": "electric_scooter", "is_reserved": 0, "fusion_lon": 0.0, "lat": 38.93103083333333, "rental_uris": {"ios": "https://dc.lft.to/lastmile_qr_scan", "android": "https://dc.lft.to/lastmile_qr_scan"}, "bike_id": "77b0a4e5fe3d68a4ddb710119de0788c", "fusion_lat": 0.0}, {"lon": -77.03101966666667, "name": "ba4fad54540b2ae75f80f28d4e3c49dd", "is_disabled": 0, "type": "electric_scooter", "is_reserved": 0, "fusion_lon": 0.0, "lat": 38.88592883333333, "rental_uris": {"ios": "https://dc.lft.to/lastmile_qr_scan", "android": "https://dc.lft.to/lastmile_qr_scan"}, "bike_id": "ba4fad54540b2ae75f80f28d4e3c49dd", "fusion_lat": 0.0}, {"lon": -77.032547, "name": "b0ac6b829ea326aa6fe2d4655d137592", "is_disabled": 0, "type": "electric_scooter", "is_reserved": 0, "fusion_lon": 0.0, "lat": 38.93968366666667, "rental_uris": {"ios": "https://dc.lft.to/lastmile_qr_scan", "android": "https://dc.lft.to/lastmile_qr_scan"}, "bike_id": "b0ac6b829ea326aa6fe2d4655d137592", "fusion_lat": 0.0}, {"lon": -77.00116083333333, "name": "b9134f456b3aa84b320c810c3a5325a5", "is_disabled": 0, "type": "electric_scooter", "is_reserved": 0, "fusion_lon": 0.0, "lat": 38.88651516666667, "rental_uris": {"ios": "https://dc.lft.to/lastmile_qr_scan", "android": "https://dc.lft.to/lastmile_qr_scan"}, "bike_id": "b9134f456b3aa84b320c810c3a5325a5", "fusion_lat": 0.0}, {"lon": -77.03755266666667, "name": "0018ee7583388b7777b17e947be87d57", "is_disabled": 0, "type": "electric_scooter", "is_reserved": 0, "fusion_lon": 0.0, "lat": 38.887037666666664, "rental_uris": {"ios": "https://dc.lft.to/lastmile_qr_scan", "android": "https://dc.lft.to/lastmile_qr_scan"}, "bike_id": "0018ee7583388b7777b17e947be87d57", "fusion_lat": 0.0}, {"lon": -76.99761133333334, "name": "79d85325ade8b819b85c3195267fb82e", "is_disabled": 0, "type": "electric_scooter", "is_reserved": 0, "fusion_lon": 0.0, "lat": 38.91059816666667, "rental_uris": {"ios": "https://dc.lft.to/lastmile_qr_scan", "android": "https://dc.lft.to/lastmile_qr_scan"}, "bike_id": "79d85325ade8b819b85c3195267fb82e", "fusion_lat": 0.0}, {"lon": -76.99962583333334, "name": "65fa215c25ac935c0594ffae22a62cce", "is_disabled": 0, "type": "electric_scooter", "is_reserved": 0, "fusion_lon": 0.0, "lat": 38.918073166666666, "rental_uris": {"ios": "https://dc.lft.to/lastmile_qr_scan", "android": "https://dc.lft.to/lastmile_qr_scan"}, "bike_id": "65fa215c25ac935c0594ffae22a62cce", "fusion_lat": 0.0}, {"lon": -77.03199783333334, "name": "992c17f358343730c2fb40f9875aaf7b", "is_disabled": 0, "type": "electric_scooter", "is_reserved": 0, "fusion_lon": 0.0, "lat": 38.892262, "rental_uris": {"ios": "https://dc.lft.to/lastmile_qr_scan", "android": "https://dc.lft.to/lastmile_qr_scan"}, "bike_id": "992c17f358343730c2fb40f9875aaf7b", "fusion_lat": 0.0}, {"lon": -77.02826316666666, "name": "e26861fc8383d9d40ae8166e59cc1c27", "is_disabled": 0, "type": "electric_scooter", "is_reserved": 0, "fusion_lon": 0.0, "lat": 38.88740883333333, "rental_uris": {"ios": "https://dc.lft.to/lastmile_qr_scan", "android": "https://dc.lft.to/lastmile_qr_scan"}, "bike_id": "e26861fc8383d9d40ae8166e59cc1c27", "fusion_lat": 0.0}, {"lon": -77.02149866666667, "name": "647f79f81d547092a5bdd30968c9551b", "is_disabled": 0, "type": "electric_scooter", "is_reserved": 0, "fusion_lon": 0.0, "lat": 38.92449583333333, "rental_uris": {"ios": "https://dc.lft.to/lastmile_qr_scan", "android": "https://dc.lft.to/lastmile_qr_scan"}, "bike_id": "647f79f81d547092a5bdd30968c9551b", "fusion_lat": 0.0}, {"lon": -76.97338783333333, "name": "cbf6efd78c3a292e3c459465bafaa6a8", "is_disabled": 0, "type": "electric_scooter", "is_reserved": 0, "fusion_lon": 0.0, "lat": 38.865084, "rental_uris": {"ios": "https://dc.lft.to/lastmile_qr_scan", "android": "https://dc.lft.to/lastmile_qr_scan"}, "bike_id": "cbf6efd78c3a292e3c459465bafaa6a8", "fusion_lat": 0.0}, {"lon": -77.020663, "name": "2118cabae89b89e3003db51703ad43f3", "is_disabled": 0, "type": "electric_scooter", "is_reserved": 0, "fusion_lon": 0.0, "lat": 38.92251683333333, "rental_uris": {"ios": "https://dc.lft.to/lastmile_qr_scan", "android": "https://dc.lft.to/lastmile_qr_scan"}, "bike_id": "2118cabae89b89e3003db51703ad43f3", "fusion_lat": 0.0}, {"lon": -77.02686466666667, "name": "26019de3938e3c57c83f538246988935", "is_disabled": 0, "type": "electric_scooter", "is_reserved": 0, "fusion_lon": 0.0, "lat": 38.94836933333333, "rental_uris": {"ios": "https://dc.lft.to/lastmile_qr_scan", "android": "https://dc.lft.to/lastmile_qr_scan"}, "bike_id": "26019de3938e3c57c83f538246988935", "fusion_lat": 0.0}, {"lon": -77.060855, "name": "d71d95dfa4f02ab0e4103f9e954890a2", "is_disabled": 0, "type": "electric_scooter", "is_reserved": 0, "fusion_lon": 0.0, "lat": 38.91184466666667, "rental_uris": {"ios": "https://dc.lft.to/lastmile_qr_scan", "android": "https://dc.lft.to/lastmile_qr_scan"}, "bike_id": "d71d95dfa4f02ab0e4103f9e954890a2", "fusion_lat": 0.0}, {"lon": -77.01880066666666, "name": "d8c7b7d852a95b4a3104707063a62a4e", "is_disabled": 0, "type": "electric_scooter", "is_reserved": 0, "fusion_lon": 0.0, "lat": 38.90912333333333, "rental_uris": {"ios": "https://dc.lft.to/lastmile_qr_scan", "android": "https://dc.lft.to/lastmile_qr_scan"}, "bike_id": "d8c7b7d852a95b4a3104707063a62a4e", "fusion_lat": 0.0}, {"lon": -77.0237455, "name": "31f70170bf1f294b8efbb24a9aa26540", "is_disabled": 0, "type": "electric_scooter", "is_reserved": 0, "fusion_lon": 0.0, "lat": 38.92049383333333, "rental_uris": {"ios": "https://dc.lft.to/lastmile_qr_scan", "android": "https://dc.lft.to/lastmile_qr_scan"}, "bike_id": "31f70170bf1f294b8efbb24a9aa26540", "fusion_lat": 0.0}, {"lon": -77.02437183333333, "name": "455de484d65ee29235a649dee5843c8f", "is_disabled": 0, "type": "electric_scooter", "is_reserved": 0, "fusion_lon": 0.0, "lat": 38.923723833333334, "rental_uris": {"ios": "https://dc.lft.to/lastmile_qr_scan", "android": "https://dc.lft.to/lastmile_qr_scan"}, "bike_id": "455de484d65ee29235a649dee5843c8f", "fusion_lat": 0.0}, {"lon": -77.01158416666667, "name": "2a52b2609409c859215fe6a909b8b819", "is_disabled": 0, "type": "electric_scooter", "is_reserved": 0, "fusion_lon": 0.0, "lat": 38.91706033333333, "rental_uris": {"ios": "https://dc.lft.to/lastmile_qr_scan", "android": "https://dc.lft.to/lastmile_qr_scan"}, "bike_id": "2a52b2609409c859215fe6a909b8b819", "fusion_lat": 0.0}, {"lon": -77.0110765, "name": "b1095f07fe01430c6c0929c3bded1f04", "is_disabled": 0, "type": "electric_scooter", "is_reserved": 0, "fusion_lon": 0.0, "lat": 38.894671833333334, "rental_uris": {"ios": "https://dc.lft.to/lastmile_qr_scan", "android": "https://dc.lft.to/lastmile_qr_scan"}, "bike_id": "b1095f07fe01430c6c0929c3bded1f04", "fusion_lat": 0.0}, {"lon": -76.92949283333333, "name": "4ca144473a72b5c95ea2f57851907f88", "is_disabled": 0, "type": "electric_scooter", "is_reserved": 0, "fusion_lon": 0.0, "lat": 38.9017795, "rental_uris": {"ios": "https://dc.lft.to/lastmile_qr_scan", "android": "https://dc.lft.to/lastmile_qr_scan"}, "bike_id": "4ca144473a72b5c95ea2f57851907f88", "fusion_lat": 0.0}, {"lon": -77.04875183333333, "name": "133aae21c03985b688e52de824019b9d", "is_disabled": 0, "type": "electric_scooter", "is_reserved": 0, "fusion_lon": 0.0, "lat": 38.899452, "rental_uris": {"ios": "https://dc.lft.to/lastmile_qr_scan", "android": "https://dc.lft.to/lastmile_qr_scan"}, "bike_id": "133aae21c03985b688e52de824019b9d", "fusion_lat": 0.0}, {"lon": -77.03412633333333, "name": "8520bfd2b848404989654861d5158351", "is_disabled": 0, "type": "electric_scooter", "is_reserved": 0, "fusion_lon": 0.0, "lat": 38.9203555, "rental_uris": {"ios": "https://dc.lft.to/lastmile_qr_scan", "android": "https://dc.lft.to/lastmile_qr_scan"}, "bike_id": "8520bfd2b848404989654861d5158351", "fusion_lat": 0.0}, {"lon": -77.0200445, "name": "dc98fe7c2e426b3e2c40b33f7b11e5e3", "is_disabled": 0, "type": "electric_scooter", "is_reserved": 0, "fusion_lon": 0.0, "lat": 38.885533, "rental_uris": {"ios": "https://dc.lft.to/lastmile_qr_scan", "android": "https://dc.lft.to/lastmile_qr_scan"}, "bike_id": "dc98fe7c2e426b3e2c40b33f7b11e5e3", "fusion_lat": 0.0}, {"lon": -77.02791583333334, "name": "42d6a6655323d0ca4f234e4fc833f069", "is_disabled": 0, "type": "electric_scooter", "is_reserved": 0, "fusion_lon": 0.0, "lat": 38.92973416666667, "rental_uris": {"ios": "https://dc.lft.to/lastmile_qr_scan", "android": "https://dc.lft.to/lastmile_qr_scan"}, "bike_id": "42d6a6655323d0ca4f234e4fc833f069", "fusion_lat": 0.0}, {"lon": -77.02152016666666, "name": "ed883265fc0b2f651a99efa6d1b56339", "is_disabled": 0, "type": "electric_scooter", "is_reserved": 0, "fusion_lon": 0.0, "lat": 38.9245525, "rental_uris": {"ios": "https://dc.lft.to/lastmile_qr_scan", "android": "https://dc.lft.to/lastmile_qr_scan"}, "bike_id": "ed883265fc0b2f651a99efa6d1b56339", "fusion_lat": 0.0}, {"lon": -77.027427, "name": "616c0f2fe8faa50bd6e878251f87289e", "is_disabled": 0, "type": "electric_scooter", "is_reserved": 0, "fusion_lon": 0.0, "lat": 38.902663, "rental_uris": {"ios": "https://dc.lft.to/lastmile_qr_scan", "android": "https://dc.lft.to/lastmile_qr_scan"}, "bike_id": "616c0f2fe8faa50bd6e878251f87289e", "fusion_lat": 0.0}, {"lon": -77.009268, "name": "e050cb62f0c8cf26b589854dce80c8bc", "is_disabled": 0, "type": "electric_scooter", "is_reserved": 0, "fusion_lon": 0.0, "lat": 38.91693316666667, "rental_uris": {"ios": "https://dc.lft.to/lastmile_qr_scan", "android": "https://dc.lft.to/lastmile_qr_scan"}, "bike_id": "e050cb62f0c8cf26b589854dce80c8bc", "fusion_lat": 0.0}, {"lon": -77.03254433333333, "name": "1324c6aecd1edfcac2ea510a28a7b696", "is_disabled": 0, "type": "electric_scooter", "is_reserved": 0, "fusion_lon": 0.0, "lat": 38.939673166666665, "rental_uris": {"ios": "https://dc.lft.to/lastmile_qr_scan", "android": "https://dc.lft.to/lastmile_qr_scan"}, "bike_id": "1324c6aecd1edfcac2ea510a28a7b696", "fusion_lat": 0.0}, {"lon": -77.019167, "name": "9ca4c76995801d4d313be63c420919bf", "is_disabled": 0, "type": "electric_scooter", "is_reserved": 0, "fusion_lon": 0.0, "lat": 38.89727466666667, "rental_uris": {"ios": "https://dc.lft.to/lastmile_qr_scan", "android": "https://dc.lft.to/lastmile_qr_scan"}, "bike_id": "9ca4c76995801d4d313be63c420919bf", "fusion_lat": 0.0}, {"lon": -76.99507216666666, "name": "7f92016c590974716a0f0ab714ffdd3e", "is_disabled": 0, "type": "electric_scooter", "is_reserved": 0, "fusion_lon": 0.0, "lat": 38.8907495, "rental_uris": {"ios": "https://dc.lft.to/lastmile_qr_scan", "android": "https://dc.lft.to/lastmile_qr_scan"}, "bike_id": "7f92016c590974716a0f0ab714ffdd3e", "fusion_lat": 0.0}, {"lon": -76.99650766666667, "name": "2536a9e369d79e1f2fe80fb22f528983", "is_disabled": 0, "type": "electric_bike", "is_reserved": 0, "fusion_lon": 0.0, "lat": 38.96777983333333, "rental_uris": {"ios": "https://dc.lft.to/lastmile_qr_scan", "android": "https://dc.lft.to/lastmile_qr_scan"}, "bike_id": "2536a9e369d79e1f2fe80fb22f528983", "fusion_lat": 0.0}, {"lon": -77.030276, "name": "afee2cfa1d43b0c6982a10d529292228", "is_disabled": 0, "type": "electric_scooter", "is_reserved": 0, "fusion_lon": 0.0, "lat": 38.895358, "rental_uris": {"ios": "https://dc.lft.to/lastmile_qr_scan", "android": "https://dc.lft.to/lastmile_qr_scan"}, "bike_id": "afee2cfa1d43b0c6982a10d529292228", "fusion_lat": 0.0}, {"lon": -77.01487116666667, "name": "2897347614559e89bb741e6556ea1fc4", "is_disabled": 0, "type": "electric_scooter", "is_reserved": 0, "fusion_lon": 0.0, "lat": 38.8967755, "rental_uris": {"ios": "https://dc.lft.to/lastmile_qr_scan", "android": "https://dc.lft.to/lastmile_qr_scan"}, "bike_id": "2897347614559e89bb741e6556ea1fc4", "fusion_lat": 0.0}, {"lon": -76.97680033333333, "name": "b06e3190e03e0d24c4ab763ec46e4f74", "is_disabled": 0, "type": "electric_scooter", "is_reserved": 0, "fusion_lon": 0.0, "lat": 38.89193616666667, "rental_uris": {"ios": "https://dc.lft.to/lastmile_qr_scan", "android": "https://dc.lft.to/lastmile_qr_scan"}, "bike_id": "b06e3190e03e0d24c4ab763ec46e4f74", "fusion_lat": 0.0}, {"lon": -77.03199716666667, "name": "a5189b31e80fc701a3f270dae192c598", "is_disabled": 0, "type": "electric_scooter", "is_reserved": 0, "fusion_lon": 0.0, "lat": 38.90851833333333, "rental_uris": {"ios": "https://dc.lft.to/lastmile_qr_scan", "android": "https://dc.lft.to/lastmile_qr_scan"}, "bike_id": "a5189b31e80fc701a3f270dae192c598", "fusion_lat": 0.0}, {"lon": -76.93186433333334, "name": "3018398d932d06239bbb3389018eb8c6", "is_disabled": 0, "type": "electric_scooter", "is_reserved": 0, "fusion_lon": 0.0, "lat": 38.89876866666667, "rental_uris": {"ios": "https://dc.lft.to/lastmile_qr_scan", "android": "https://dc.lft.to/lastmile_qr_scan"}, "bike_id": "3018398d932d06239bbb3389018eb8c6", "fusion_lat": 0.0}, {"lon": -77.02258166666667, "name": "9295ac5e4325bb1e570ca5aac2bd30ab", "is_disabled": 0, "type": "electric_scooter", "is_reserved": 0, "fusion_lon": 0.0, "lat": 38.92824683333333, "rental_uris": {"ios": "https://dc.lft.to/lastmile_qr_scan", "android": "https://dc.lft.to/lastmile_qr_scan"}, "bike_id": "9295ac5e4325bb1e570ca5aac2bd30ab", "fusion_lat": 0.0}, {"lon": -77.03657833333334, "name": "f60a136bfb5079a8de125d0fd3ce637c", "is_disabled": 0, "type": "electric_scooter", "is_reserved": 0, "fusion_lon": 0.0, "lat": 38.9156905, "rental_uris": {"ios": "https://dc.lft.to/lastmile_qr_scan", "android": "https://dc.lft.to/lastmile_qr_scan"}, "bike_id": "f60a136bfb5079a8de125d0fd3ce637c", "fusion_lat": 0.0}, {"lon": -77.03256866666666, "name": "19e348e0bdc10a8e075e13fe32c5aa13", "is_disabled": 0, "type": "electric_scooter", "is_reserved": 0, "fusion_lon": 0.0, "lat": 38.93785316666666, "rental_uris": {"ios": "https://dc.lft.to/lastmile_qr_scan", "android": "https://dc.lft.to/lastmile_qr_scan"}, "bike_id": "19e348e0bdc10a8e075e13fe32c5aa13", "fusion_lat": 0.0}, {"lon": -77.01815366666666, "name": "a04e3b546857befffa824c804ea7c49e", "is_disabled": 0, "type": "electric_scooter", "is_reserved": 0, "fusion_lon": 0.0, "lat": 38.92062216666667, "rental_uris": {"ios": "https://dc.lft.to/lastmile_qr_scan", "android": "https://dc.lft.to/lastmile_qr_scan"}, "bike_id": "a04e3b546857befffa824c804ea7c49e", "fusion_lat": 0.0}, {"lon": -77.05455233333333, "name": "88c3b8b15accea9d5c62d9f982b8ceb5", "is_disabled": 0, "type": "electric_scooter", "is_reserved": 0, "fusion_lon": 0.0, "lat": 38.92898683333333, "rental_uris": {"ios": "https://dc.lft.to/lastmile_qr_scan", "android": "https://dc.lft.to/lastmile_qr_scan"}, "bike_id": "88c3b8b15accea9d5c62d9f982b8ceb5", "fusion_lat": 0.0}, {"lon": -77.025398, "name": "f9d5d67268bc32be17bf78c8636c4ada", "is_disabled": 0, "type": "electric_scooter", "is_reserved": 0, "fusion_lon": 0.0, "lat": 38.920871166666664, "rental_uris": {"ios": "https://dc.lft.to/lastmile_qr_scan", "android": "https://dc.lft.to/lastmile_qr_scan"}, "bike_id": "f9d5d67268bc32be17bf78c8636c4ada", "fusion_lat": 0.0}, {"lon": -77.00727933333333, "name": "d0408c2baac4e029b87a282d2ed49f0e", "is_disabled": 0, "type": "electric_scooter", "is_reserved": 0, "fusion_lon": 0.0, "lat": 38.878886333333334, "rental_uris": {"ios": "https://dc.lft.to/lastmile_qr_scan", "android": "https://dc.lft.to/lastmile_qr_scan"}, "bike_id": "d0408c2baac4e029b87a282d2ed49f0e", "fusion_lat": 0.0}, {"lon": -77.03380416666667, "name": "574f14eaa21ef16609b7414bbc5f9529", "is_disabled": 0, "type": "electric_scooter", "is_reserved": 0, "fusion_lon": 0.0, "lat": 38.92155983333333, "rental_uris": {"ios": "https://dc.lft.to/lastmile_qr_scan", "android": "https://dc.lft.to/lastmile_qr_scan"}, "bike_id": "574f14eaa21ef16609b7414bbc5f9529", "fusion_lat": 0.0}, {"lon": -77.03355666666667, "name": "dc2554e6ea8ef579e7d5708289d1be72", "is_disabled": 0, "type": "electric_scooter", "is_reserved": 0, "fusion_lon": 0.0, "lat": 38.928889, "rental_uris": {"ios": "https://dc.lft.to/lastmile_qr_scan", "android": "https://dc.lft.to/lastmile_qr_scan"}, "bike_id": "dc2554e6ea8ef579e7d5708289d1be72", "fusion_lat": 0.0}, {"lon": -77.00736333333333, "name": "6470eb70f1e8d6ce6133e887d6b19ae2", "is_disabled": 0, "type": "electric_scooter", "is_reserved": 0, "fusion_lon": 0.0, "lat": 38.90357766666666, "rental_uris": {"ios": "https://dc.lft.to/lastmile_qr_scan", "android": "https://dc.lft.to/lastmile_qr_scan"}, "bike_id": "6470eb70f1e8d6ce6133e887d6b19ae2", "fusion_lat": 0.0}, {"lon": -77.02033283333333, "name": "edaa5fc9861eea7e985407133abdfffa", "is_disabled": 0, "type": "electric_scooter", "is_reserved": 0, "fusion_lon": 0.0, "lat": 38.924150833333336, "rental_uris": {"ios": "https://dc.lft.to/lastmile_qr_scan", "android": "https://dc.lft.to/lastmile_qr_scan"}, "bike_id": "edaa5fc9861eea7e985407133abdfffa", "fusion_lat": 0.0}, {"lon": -76.98558966666667, "name": "72b2b43828d9b6add2127b2ac821910f", "is_disabled": 0, "type": "electric_scooter", "is_reserved": 0, "fusion_lon": 0.0, "lat": 38.907079, "rental_uris": {"ios": "https://dc.lft.to/lastmile_qr_scan", "android": "https://dc.lft.to/lastmile_qr_scan"}, "bike_id": "72b2b43828d9b6add2127b2ac821910f", "fusion_lat": 0.0}, {"lon": -77.02379683333334, "name": "6daa68b2595096b6ccccbad601c9fc10", "is_disabled": 0, "type": "electric_scooter", "is_reserved": 0, "fusion_lon": 0.0, "lat": 38.952715833333336, "rental_uris": {"ios": "https://dc.lft.to/lastmile_qr_scan", "android": "https://dc.lft.to/lastmile_qr_scan"}, "bike_id": "6daa68b2595096b6ccccbad601c9fc10", "fusion_lat": 0.0}, {"lon": -77.03855566666667, "name": "d0c9ae258250f35d56b0e5fe2c4a6ee8", "is_disabled": 0, "type": "electric_scooter", "is_reserved": 0, "fusion_lon": 0.0, "lat": 38.91709266666667, "rental_uris": {"ios": "https://dc.lft.to/lastmile_qr_scan", "android": "https://dc.lft.to/lastmile_qr_scan"}, "bike_id": "d0c9ae258250f35d56b0e5fe2c4a6ee8", "fusion_lat": 0.0}, {"lon": -77.00068816666666, "name": "b05e3caa7c3d5960081e40e965f479b8", "is_disabled": 0, "type": "electric_scooter", "is_reserved": 0, "fusion_lon": 0.0, "lat": 38.87536633333333, "rental_uris": {"ios": "https://dc.lft.to/lastmile_qr_scan", "android": "https://dc.lft.to/lastmile_qr_scan"}, "bike_id": "b05e3caa7c3d5960081e40e965f479b8", "fusion_lat": 0.0}, {"lon": -77.01277516666667, "name": "1c292412d7b07cbe11b70ab163deccc3", "is_disabled": 0, "type": "electric_scooter", "is_reserved": 0, "fusion_lon": 0.0, "lat": 38.909515166666665, "rental_uris": {"ios": "https://dc.lft.to/lastmile_qr_scan", "android": "https://dc.lft.to/lastmile_qr_scan"}, "bike_id": "1c292412d7b07cbe11b70ab163deccc3", "fusion_lat": 0.0}, {"lon": -76.9886035, "name": "b81e028123c7c03ecca9d73a1f9abe55", "is_disabled": 0, "type": "electric_scooter", "is_reserved": 0, "fusion_lon": 0.0, "lat": 38.900297, "rental_uris": {"ios": "https://dc.lft.to/lastmile_qr_scan", "android": "https://dc.lft.to/lastmile_qr_scan"}, "bike_id": "b81e028123c7c03ecca9d73a1f9abe55", "fusion_lat": 0.0}, {"lon": -77.01883766666667, "name": "bdfff62ab42ba5da7658000ffa753805", "is_disabled": 0, "type": "electric_scooter", "is_reserved": 0, "fusion_lon": 0.0, "lat": 38.919337666666664, "rental_uris": {"ios": "https://dc.lft.to/lastmile_qr_scan", "android": "https://dc.lft.to/lastmile_qr_scan"}, "bike_id": "bdfff62ab42ba5da7658000ffa753805", "fusion_lat": 0.0}, {"lon": -77.04588016666666, "name": "544941334514591275994e40b441919f", "is_disabled": 0, "type": "electric_scooter", "is_reserved": 0, "fusion_lon": 0.0, "lat": 38.900636666666664, "rental_uris": {"ios": "https://dc.lft.to/lastmile_qr_scan", "android": "https://dc.lft.to/lastmile_qr_scan"}, "bike_id": "544941334514591275994e40b441919f", "fusion_lat": 0.0}, {"lon": -77.01871366666667, "name": "322271d32248e84d5c74bf202eb4ab7b", "is_disabled": 0, "type": "electric_scooter", "is_reserved": 0, "fusion_lon": 0.0, "lat": 38.9305615, "rental_uris": {"ios": "https://dc.lft.to/lastmile_qr_scan", "android": "https://dc.lft.to/lastmile_qr_scan"}, "bike_id": "322271d32248e84d5c74bf202eb4ab7b", "fusion_lat": 0.0}, {"lon": -77.04535133333333, "name": "7188a80e2517a0298f9e72a33a003876", "is_disabled": 0, "type": "electric_scooter", "is_reserved": 0, "fusion_lon": 0.0, "lat": 38.911959833333334, "rental_uris": {"ios": "https://dc.lft.to/lastmile_qr_scan", "android": "https://dc.lft.to/lastmile_qr_scan"}, "bike_id": "7188a80e2517a0298f9e72a33a003876", "fusion_lat": 0.0}, {"lon": -77.02442583333334, "name": "a8c4c3af8f363a4a43968de31d0c3508", "is_disabled": 0, "type": "electric_scooter", "is_reserved": 0, "fusion_lon": 0.0, "lat": 38.92501683333333, "rental_uris": {"ios": "https://dc.lft.to/lastmile_qr_scan", "android": "https://dc.lft.to/lastmile_qr_scan"}, "bike_id": "a8c4c3af8f363a4a43968de31d0c3508", "fusion_lat": 0.0}, {"lon": -76.99100616666666, "name": "5183b785adabf9a0901e0fc7a94c6bec", "is_disabled": 0, "type": "electric_scooter", "is_reserved": 0, "fusion_lon": 0.0, "lat": 38.86338083333333, "rental_uris": {"ios": "https://dc.lft.to/lastmile_qr_scan", "android": "https://dc.lft.to/lastmile_qr_scan"}, "bike_id": "5183b785adabf9a0901e0fc7a94c6bec", "fusion_lat": 0.0}, {"lon": -77.09876416666667, "name": "d0811443220819247a14dc12be7de5dd", "is_disabled": 0, "type": "electric_bike", "is_reserved": 0, "fusion_lon": 0.0, "lat": 38.9471885, "rental_uris": {"ios": "https://dc.lft.to/lastmile_qr_scan", "android": "https://dc.lft.to/lastmile_qr_scan"}, "bike_id": "d0811443220819247a14dc12be7de5dd", "fusion_lat": 0.0}, {"lon": -77.0250445, "name": "159bd0f85c507a6690d592f3ec21f58c", "is_disabled": 0, "type": "electric_scooter", "is_reserved": 0, "fusion_lon": 0.0, "lat": 38.907175, "rental_uris": {"ios": "https://dc.lft.to/lastmile_qr_scan", "android": "https://dc.lft.to/lastmile_qr_scan"}, "bike_id": "159bd0f85c507a6690d592f3ec21f58c", "fusion_lat": 0.0}, {"lon": -76.98759933333334, "name": "42fd35027db5d5aaacfa526d1621c6d3", "is_disabled": 0, "type": "electric_bike", "is_reserved": 0, "fusion_lon": 0.0, "lat": 38.857814166666664, "rental_uris": {"ios": "https://dc.lft.to/lastmile_qr_scan", "android": "https://dc.lft.to/lastmile_qr_scan"}, "bike_id": "42fd35027db5d5aaacfa526d1621c6d3", "fusion_lat": 0.0}, {"lon": -77.0140245, "name": "db7dfe0bc27ea798189373b67eb9ad52", "is_disabled": 0, "type": "electric_scooter", "is_reserved": 0, "fusion_lon": 0.0, "lat": 38.91102883333333, "rental_uris": {"ios": "https://dc.lft.to/lastmile_qr_scan", "android": "https://dc.lft.to/lastmile_qr_scan"}, "bike_id": "db7dfe0bc27ea798189373b67eb9ad52", "fusion_lat": 0.0}, {"lon": -76.97558383333333, "name": "d911c97cd643d1168f76a1c0ffda0537", "is_disabled": 0, "type": "electric_bike", "is_reserved": 0, "fusion_lon": 0.0, "lat": 38.92458216666667, "rental_uris": {"ios": "https://dc.lft.to/lastmile_qr_scan", "android": "https://dc.lft.to/lastmile_qr_scan"}, "bike_id": "d911c97cd643d1168f76a1c0ffda0537", "fusion_lat": 0.0}, {"lon": -77.00194133333333, "name": "9ce2c0ced97179a8cbebb611e590fa75", "is_disabled": 0, "type": "electric_scooter", "is_reserved": 0, "fusion_lon": 0.0, "lat": 38.8948365, "rental_uris": {"ios": "https://dc.lft.to/lastmile_qr_scan", "android": "https://dc.lft.to/lastmile_qr_scan"}, "bike_id": "9ce2c0ced97179a8cbebb611e590fa75", "fusion_lat": 0.0}, {"lon": -77.06414983333333, "name": "7d6be03c477c9992b23fbe9d0a7cc7af", "is_disabled": 0, "type": "electric_bike", "is_reserved": 0, "fusion_lon": 0.0, "lat": 38.98016883333333, "rental_uris": {"ios": "https://dc.lft.to/lastmile_qr_scan", "android": "https://dc.lft.to/lastmile_qr_scan"}, "bike_id": "7d6be03c477c9992b23fbe9d0a7cc7af", "fusion_lat": 0.0}, {"lon": -77.03658833333333, "name": "25932058dbd4c1b83623c0a87aa98e84", "is_disabled": 0, "type": "electric_scooter", "is_reserved": 0, "fusion_lon": 0.0, "lat": 38.931556, "rental_uris": {"ios": "https://dc.lft.to/lastmile_qr_scan", "android": "https://dc.lft.to/lastmile_qr_scan"}, "bike_id": "25932058dbd4c1b83623c0a87aa98e84", "fusion_lat": 0.0}, {"lon": -77.02227416666666, "name": "07f1e21828b48133693be20b157d7369", "is_disabled": 0, "type": "electric_scooter", "is_reserved": 0, "fusion_lon": 0.0, "lat": 38.879066333333334, "rental_uris": {"ios": "https://dc.lft.to/lastmile_qr_scan", "android": "https://dc.lft.to/lastmile_qr_scan"}, "bike_id": "07f1e21828b48133693be20b157d7369", "fusion_lat": 0.0}, {"lon": -77.021845, "name": "be35c85c48b60701fdd5f1a5e44412f0", "is_disabled": 0, "type": "electric_scooter", "is_reserved": 0, "fusion_lon": 0.0, "lat": 38.9147935, "rental_uris": {"ios": "https://dc.lft.to/lastmile_qr_scan", "android": "https://dc.lft.to/lastmile_qr_scan"}, "bike_id": "be35c85c48b60701fdd5f1a5e44412f0", "fusion_lat": 0.0}, {"lon": -77.054299, "name": "a255a1a6c6d432229d1e364765679fbc", "is_disabled": 0, "type": "electric_scooter", "is_reserved": 0, "fusion_lon": 0.0, "lat": 38.923352333333334, "rental_uris": {"ios": "https://dc.lft.to/lastmile_qr_scan", "android": "https://dc.lft.to/lastmile_qr_scan"}, "bike_id": "a255a1a6c6d432229d1e364765679fbc", "fusion_lat": 0.0}, {"lon": -77.02230866666666, "name": "d3f7b534dfa325bfd34be4dc37ff3344", "is_disabled": 0, "type": "electric_scooter", "is_reserved": 0, "fusion_lon": 0.0, "lat": 38.923547666666664, "rental_uris": {"ios": "https://dc.lft.to/lastmile_qr_scan", "android": "https://dc.lft.to/lastmile_qr_scan"}, "bike_id": "d3f7b534dfa325bfd34be4dc37ff3344", "fusion_lat": 0.0}, {"lon": -77.0220575, "name": "9deacd3d628bb60186eede91bf7216cf", "is_disabled": 0, "type": "electric_scooter", "is_reserved": 0, "fusion_lon": 0.0, "lat": 38.93003016666667, "rental_uris": {"ios": "https://dc.lft.to/lastmile_qr_scan", "android": "https://dc.lft.to/lastmile_qr_scan"}, "bike_id": "9deacd3d628bb60186eede91bf7216cf", "fusion_lat": 0.0}, {"lon": -76.99801466666666, "name": "bc1a2c557cd08a98307356058dbe438d", "is_disabled": 0, "type": "electric_scooter", "is_reserved": 0, "fusion_lon": 0.0, "lat": 38.89607783333334, "rental_uris": {"ios": "https://dc.lft.to/lastmile_qr_scan", "android": "https://dc.lft.to/lastmile_qr_scan"}, "bike_id": "bc1a2c557cd08a98307356058dbe438d", "fusion_lat": 0.0}, {"lon": -77.00797883333334, "name": "3a79af875cbedabf757399f48ad26e12", "is_disabled": 0, "type": "electric_scooter", "is_reserved": 0, "fusion_lon": 0.0, "lat": 38.89714816666667, "rental_uris": {"ios": "https://dc.lft.to/lastmile_qr_scan", "android": "https://dc.lft.to/lastmile_qr_scan"}, "bike_id": "3a79af875cbedabf757399f48ad26e12", "fusion_lat": 0.0}, {"lon": -77.00075733333334, "name": "48f23f49cab8ae26c90c9107d3ce2e0f", "is_disabled": 0, "type": "electric_scooter", "is_reserved": 0, "fusion_lon": 0.0, "lat": 38.875376333333335, "rental_uris": {"ios": "https://dc.lft.to/lastmile_qr_scan", "android": "https://dc.lft.to/lastmile_qr_scan"}, "bike_id": "48f23f49cab8ae26c90c9107d3ce2e0f", "fusion_lat": 0.0}, {"lon": -77.04103866666667, "name": "43fe7c2ac3bcdfd243ab902742fb2940", "is_disabled": 0, "type": "electric_scooter", "is_reserved": 0, "fusion_lon": 0.0, "lat": 38.92118966666666, "rental_uris": {"ios": "https://dc.lft.to/lastmile_qr_scan", "android": "https://dc.lft.to/lastmile_qr_scan"}, "bike_id": "43fe7c2ac3bcdfd243ab902742fb2940", "fusion_lat": 0.0}, {"lon": -77.01906983333333, "name": "44da5ea402e1e2f323af6bc18309a040", "is_disabled": 0, "type": "electric_scooter", "is_reserved": 0, "fusion_lon": 0.0, "lat": 38.9293745, "rental_uris": {"ios": "https://dc.lft.to/lastmile_qr_scan", "android": "https://dc.lft.to/lastmile_qr_scan"}, "bike_id": "44da5ea402e1e2f323af6bc18309a040", "fusion_lat": 0.0}, {"lon": -77.05597666666667, "name": "7bd4cbab0f288fae442dc25262f3c595", "is_disabled": 0, "type": "electric_scooter", "is_reserved": 0, "fusion_lon": 0.0, "lat": 38.9311465, "rental_uris": {"ios": "https://dc.lft.to/lastmile_qr_scan", "android": "https://dc.lft.to/lastmile_qr_scan"}, "bike_id": "7bd4cbab0f288fae442dc25262f3c595", "fusion_lat": 0.0}, {"lon": -77.04025833333333, "name": "6404c45097073b3140b9fbf9017f7a70", "is_disabled": 0, "type": "electric_scooter", "is_reserved": 0, "fusion_lon": 0.0, "lat": 38.9216485, "rental_uris": {"ios": "https://dc.lft.to/lastmile_qr_scan", "android": "https://dc.lft.to/lastmile_qr_scan"}, "bike_id": "6404c45097073b3140b9fbf9017f7a70", "fusion_lat": 0.0}, {"lon": -77.02795916666666, "name": "26e4d7af3765224ce785551301bd0b85", "is_disabled": 0, "type": "electric_scooter", "is_reserved": 0, "fusion_lon": 0.0, "lat": 38.930798333333335, "rental_uris": {"ios": "https://dc.lft.to/lastmile_qr_scan", "android": "https://dc.lft.to/lastmile_qr_scan"}, "bike_id": "26e4d7af3765224ce785551301bd0b85", "fusion_lat": 0.0}, {"lon": -77.078321, "name": "ac747b87cb4030ccd3861d9e52254991", "is_disabled": 0, "type": "electric_scooter", "is_reserved": 0, "fusion_lon": 0.0, "lat": 38.926775166666665, "rental_uris": {"ios": "https://dc.lft.to/lastmile_qr_scan", "android": "https://dc.lft.to/lastmile_qr_scan"}, "bike_id": "ac747b87cb4030ccd3861d9e52254991", "fusion_lat": 0.0}, {"lon": -76.97590233333334, "name": "39eff4fb9592d3bedf74728e878b7d40", "is_disabled": 0, "type": "electric_scooter", "is_reserved": 0, "fusion_lon": 0.0, "lat": 38.903336333333336, "rental_uris": {"ios": "https://dc.lft.to/lastmile_qr_scan", "android": "https://dc.lft.to/lastmile_qr_scan"}, "bike_id": "39eff4fb9592d3bedf74728e878b7d40", "fusion_lat": 0.0}, {"lon": -77.02348333333333, "name": "26dd0064ddae89eaba8e4222fab9d926", "is_disabled": 0, "type": "electric_scooter", "is_reserved": 0, "fusion_lon": 0.0, "lat": 38.93132, "rental_uris": {"ios": "https://dc.lft.to/lastmile_qr_scan", "android": "https://dc.lft.to/lastmile_qr_scan"}, "bike_id": "26dd0064ddae89eaba8e4222fab9d926", "fusion_lat": 0.0}, {"lon": -76.92441783333334, "name": "4d036e587b56ebe2d7130a0a08e8c9e3", "is_disabled": 0, "type": "electric_scooter", "is_reserved": 0, "fusion_lon": 0.0, "lat": 38.885169833333336, "rental_uris": {"ios": "https://dc.lft.to/lastmile_qr_scan", "android": "https://dc.lft.to/lastmile_qr_scan"}, "bike_id": "4d036e587b56ebe2d7130a0a08e8c9e3", "fusion_lat": 0.0}, {"lon": -76.97222533333333, "name": "12f70c43ecea35682b1846d650d21f74", "is_disabled": 0, "type": "electric_bike", "is_reserved": 0, "fusion_lon": 0.0, "lat": 38.9003925, "rental_uris": {"ios": "https://dc.lft.to/lastmile_qr_scan", "android": "https://dc.lft.to/lastmile_qr_scan"}, "bike_id": "12f70c43ecea35682b1846d650d21f74", "fusion_lat": 0.0}, {"lon": -76.90746983333334, "name": "6516d0496a5ef5d8a99bb6ba91e14c31", "is_disabled": 0, "type": "electric_bike", "is_reserved": 0, "fusion_lon": 0.0, "lat": 38.8962005, "rental_uris": {"ios": "https://dc.lft.to/lastmile_qr_scan", "android": "https://dc.lft.to/lastmile_qr_scan"}, "bike_id": "6516d0496a5ef5d8a99bb6ba91e14c31", "fusion_lat": 0.0}, {"lon": -77.04106316666666, "name": "e3f2860d2a63218ac6b74b938442e459", "is_disabled": 0, "type": "electric_scooter", "is_reserved": 0, "fusion_lon": 0.0, "lat": 38.892211833333334, "rental_uris": {"ios": "https://dc.lft.to/lastmile_qr_scan", "android": "https://dc.lft.to/lastmile_qr_scan"}, "bike_id": "e3f2860d2a63218ac6b74b938442e459", "fusion_lat": 0.0}, {"lon": -77.021825, "name": "93ca2b71f105ba8eedc61866a5a3f866", "is_disabled": 0, "type": "electric_scooter", "is_reserved": 0, "fusion_lon": 0.0, "lat": 38.9012435, "rental_uris": {"ios": "https://dc.lft.to/lastmile_qr_scan", "android": "https://dc.lft.to/lastmile_qr_scan"}, "bike_id": "93ca2b71f105ba8eedc61866a5a3f866", "fusion_lat": 0.0}, {"lon": -77.0224175, "name": "b125bd4705a1c96950fa762a85339884", "is_disabled": 0, "type": "electric_scooter", "is_reserved": 0, "fusion_lon": 0.0, "lat": 38.924347833333336, "rental_uris": {"ios": "https://dc.lft.to/lastmile_qr_scan", "android": "https://dc.lft.to/lastmile_qr_scan"}, "bike_id": "b125bd4705a1c96950fa762a85339884", "fusion_lat": 0.0}, {"lon": -77.03931066666667, "name": "87851b19d836af97a59fa38eb02e7103", "is_disabled": 0, "type": "electric_scooter", "is_reserved": 0, "fusion_lon": 0.0, "lat": 38.9249295, "rental_uris": {"ios": "https://dc.lft.to/lastmile_qr_scan", "android": "https://dc.lft.to/lastmile_qr_scan"}, "bike_id": "87851b19d836af97a59fa38eb02e7103", "fusion_lat": 0.0}, {"lon": -77.03268833333334, "name": "e384baf7f8a1ba420c6d9433ec15ba9b", "is_disabled": 0, "type": "electric_scooter", "is_reserved": 0, "fusion_lon": 0.0, "lat": 38.932473333333334, "rental_uris": {"ios": "https://dc.lft.to/lastmile_qr_scan", "android": "https://dc.lft.to/lastmile_qr_scan"}, "bike_id": "e384baf7f8a1ba420c6d9433ec15ba9b", "fusion_lat": 0.0}, {"lon": -77.00206366666667, "name": "8c028b60aea5136920822040e696278c", "is_disabled": 0, "type": "electric_scooter", "is_reserved": 0, "fusion_lon": 0.0, "lat": 38.900275666666666, "rental_uris": {"ios": "https://dc.lft.to/lastmile_qr_scan", "android": "https://dc.lft.to/lastmile_qr_scan"}, "bike_id": "8c028b60aea5136920822040e696278c", "fusion_lat": 0.0}, {"lon": -77.026672, "name": "6b429859ce8e83027dc302a53c10a75b", "is_disabled": 0, "type": "electric_scooter", "is_reserved": 0, "fusion_lon": 0.0, "lat": 38.921690166666664, "rental_uris": {"ios": "https://dc.lft.to/lastmile_qr_scan", "android": "https://dc.lft.to/lastmile_qr_scan"}, "bike_id": "6b429859ce8e83027dc302a53c10a75b", "fusion_lat": 0.0}, {"lon": -76.988351, "name": "0ddb0b28afd97d99015fb1a899a97a49", "is_disabled": 0, "type": "electric_scooter", "is_reserved": 0, "fusion_lon": 0.0, "lat": 38.93464266666667, "rental_uris": {"ios": "https://dc.lft.to/lastmile_qr_scan", "android": "https://dc.lft.to/lastmile_qr_scan"}, "bike_id": "0ddb0b28afd97d99015fb1a899a97a49", "fusion_lat": 0.0}, {"lon": -77.02422083333333, "name": "c8a35068522131415f56cfc7afdddcc1", "is_disabled": 0, "type": "electric_scooter", "is_reserved": 0, "fusion_lon": 0.0, "lat": 38.92039966666667, "rental_uris": {"ios": "https://dc.lft.to/lastmile_qr_scan", "android": "https://dc.lft.to/lastmile_qr_scan"}, "bike_id": "c8a35068522131415f56cfc7afdddcc1", "fusion_lat": 0.0}, {"lon": -77.0253695, "name": "de468c1132bab502ff22a054158c7d2f", "is_disabled": 0, "type": "electric_scooter", "is_reserved": 0, "fusion_lon": 0.0, "lat": 38.892275166666664, "rental_uris": {"ios": "https://dc.lft.to/lastmile_qr_scan", "android": "https://dc.lft.to/lastmile_qr_scan"}, "bike_id": "de468c1132bab502ff22a054158c7d2f", "fusion_lat": 0.0}, {"lon": -77.04329833333334, "name": "52258353bcbb38ffaefb043c73b5e99d", "is_disabled": 0, "type": "electric_scooter", "is_reserved": 0, "fusion_lon": 0.0, "lat": 38.9249105, "rental_uris": {"ios": "https://dc.lft.to/lastmile_qr_scan", "android": "https://dc.lft.to/lastmile_qr_scan"}, "bike_id": "52258353bcbb38ffaefb043c73b5e99d", "fusion_lat": 0.0}, {"lon": -77.01311583333333, "name": "c86a6634283cd64683e7e62c526ba80e", "is_disabled": 0, "type": "electric_scooter", "is_reserved": 0, "fusion_lon": 0.0, "lat": 38.95107683333333, "rental_uris": {"ios": "https://dc.lft.to/lastmile_qr_scan", "android": "https://dc.lft.to/lastmile_qr_scan"}, "bike_id": "c86a6634283cd64683e7e62c526ba80e", "fusion_lat": 0.0}, {"lon": -77.0298585, "name": "fcf72297b2c5715353f189ee3cb61dd5", "is_disabled": 0, "type": "electric_scooter", "is_reserved": 0, "fusion_lon": 0.0, "lat": 38.92470083333333, "rental_uris": {"ios": "https://dc.lft.to/lastmile_qr_scan", "android": "https://dc.lft.to/lastmile_qr_scan"}, "bike_id": "fcf72297b2c5715353f189ee3cb61dd5", "fusion_lat": 0.0}, {"lon": -77.01954116666667, "name": "e144dc4d960005f02b773ce228bd00e3", "is_disabled": 0, "type": "electric_scooter", "is_reserved": 0, "fusion_lon": 0.0, "lat": 38.92368366666667, "rental_uris": {"ios": "https://dc.lft.to/lastmile_qr_scan", "android": "https://dc.lft.to/lastmile_qr_scan"}, "bike_id": "e144dc4d960005f02b773ce228bd00e3", "fusion_lat": 0.0}, {"lon": -77.00568733333333, "name": "bc3198b4b90d135fb38393eb8997918f", "is_disabled": 0, "type": "electric_scooter", "is_reserved": 0, "fusion_lon": 0.0, "lat": 38.8850385, "rental_uris": {"ios": "https://dc.lft.to/lastmile_qr_scan", "android": "https://dc.lft.to/lastmile_qr_scan"}, "bike_id": "bc3198b4b90d135fb38393eb8997918f", "fusion_lat": 0.0}, {"lon": -77.019646, "name": "5940b80057dd2dccbe6f09ea0e05555d", "is_disabled": 0, "type": "electric_scooter", "is_reserved": 0, "fusion_lon": 0.0, "lat": 38.87840666666666, "rental_uris": {"ios": "https://dc.lft.to/lastmile_qr_scan", "android": "https://dc.lft.to/lastmile_qr_scan"}, "bike_id": "5940b80057dd2dccbe6f09ea0e05555d", "fusion_lat": 0.0}, {"lon": -77.04289983333334, "name": "e3e77b3fe18478cabca11213da967f7c", "is_disabled": 0, "type": "electric_scooter", "is_reserved": 0, "fusion_lon": 0.0, "lat": 38.923898666666666, "rental_uris": {"ios": "https://dc.lft.to/lastmile_qr_scan", "android": "https://dc.lft.to/lastmile_qr_scan"}, "bike_id": "e3e77b3fe18478cabca11213da967f7c", "fusion_lat": 0.0}, {"lon": -77.01563766666666, "name": "b82cadb1e46441b7c4cb12f075b73a52", "is_disabled": 0, "type": "electric_scooter", "is_reserved": 0, "fusion_lon": 0.0, "lat": 38.90252783333333, "rental_uris": {"ios": "https://dc.lft.to/lastmile_qr_scan", "android": "https://dc.lft.to/lastmile_qr_scan"}, "bike_id": "b82cadb1e46441b7c4cb12f075b73a52", "fusion_lat": 0.0}, {"lon": -77.234112, "name": "acfa943f380e9866c6a94b13e2cd49a6", "is_disabled": 0, "type": "electric_bike", "is_reserved": 0, "fusion_lon": 0.0, "lat": 38.8758265, "rental_uris": {"ios": "https://dc.lft.to/lastmile_qr_scan", "android": "https://dc.lft.to/lastmile_qr_scan"}, "bike_id": "acfa943f380e9866c6a94b13e2cd49a6", "fusion_lat": 0.0}, {"lon": -77.02979083333334, "name": "bccb72a664b8c9cb1eb16c8e1dc119ca", "is_disabled": 0, "type": "electric_scooter", "is_reserved": 0, "fusion_lon": 0.0, "lat": 38.940503, "rental_uris": {"ios": "https://dc.lft.to/lastmile_qr_scan", "android": "https://dc.lft.to/lastmile_qr_scan"}, "bike_id": "bccb72a664b8c9cb1eb16c8e1dc119ca", "fusion_lat": 0.0}, {"lon": -77.02184383333334, "name": "8d902793bd779dbf8db3aa6cbb3faa01", "is_disabled": 0, "type": "electric_scooter", "is_reserved": 0, "fusion_lon": 0.0, "lat": 38.91543933333333, "rental_uris": {"ios": "https://dc.lft.to/lastmile_qr_scan", "android": "https://dc.lft.to/lastmile_qr_scan"}, "bike_id": "8d902793bd779dbf8db3aa6cbb3faa01", "fusion_lat": 0.0}, {"lon": -76.94892483333334, "name": "63d687c59ad2015efd4c53c846dfb543", "is_disabled": 0, "type": "electric_scooter", "is_reserved": 0, "fusion_lon": 0.0, "lat": 38.89536583333334, "rental_uris": {"ios": "https://dc.lft.to/lastmile_qr_scan", "android": "https://dc.lft.to/lastmile_qr_scan"}, "bike_id": "63d687c59ad2015efd4c53c846dfb543", "fusion_lat": 0.0}, {"lon": -76.97904783333334, "name": "5552377679a54098e607220cdd281c78", "is_disabled": 0, "type": "electric_scooter", "is_reserved": 0, "fusion_lon": 0.0, "lat": 38.88857516666667, "rental_uris": {"ios": "https://dc.lft.to/lastmile_qr_scan", "android": "https://dc.lft.to/lastmile_qr_scan"}, "bike_id": "5552377679a54098e607220cdd281c78", "fusion_lat": 0.0}, {"lon": -77.0033625, "name": "aa7fd4cf7793b24b159d4ba2e05e29a7", "is_disabled": 0, "type": "electric_scooter", "is_reserved": 0, "fusion_lon": 0.0, "lat": 38.893563, "rental_uris": {"ios": "https://dc.lft.to/lastmile_qr_scan", "android": "https://dc.lft.to/lastmile_qr_scan"}, "bike_id": "aa7fd4cf7793b24b159d4ba2e05e29a7", "fusion_lat": 0.0}, {"lon": -77.07700866666667, "name": "fb0941675d526daf3d5a40daa8f4367e", "is_disabled": 0, "type": "electric_scooter", "is_reserved": 0, "fusion_lon": 0.0, "lat": 38.92253133333333, "rental_uris": {"ios": "https://dc.lft.to/lastmile_qr_scan", "android": "https://dc.lft.to/lastmile_qr_scan"}, "bike_id": "fb0941675d526daf3d5a40daa8f4367e", "fusion_lat": 0.0}, {"lon": -77.03023833333333, "name": "b9574aebbdaaa3736e6b6de4003e36ac", "is_disabled": 0, "type": "electric_scooter", "is_reserved": 0, "fusion_lon": 0.0, "lat": 38.931092166666666, "rental_uris": {"ios": "https://dc.lft.to/lastmile_qr_scan", "android": "https://dc.lft.to/lastmile_qr_scan"}, "bike_id": "b9574aebbdaaa3736e6b6de4003e36ac", "fusion_lat": 0.0}, {"lon": -77.01444283333333, "name": "aa7b677b4bbb853a3f68e3b38321bbab", "is_disabled": 0, "type": "electric_bike", "is_reserved": 0, "fusion_lon": 0.0, "lat": 38.876755, "rental_uris": {"ios": "https://dc.lft.to/lastmile_qr_scan", "android": "https://dc.lft.to/lastmile_qr_scan"}, "bike_id": "aa7b677b4bbb853a3f68e3b38321bbab", "fusion_lat": 0.0}, {"lon": -77.03218416666667, "name": "5a201ea4297c490bd57357170d3050f2", "is_disabled": 0, "type": "electric_scooter", "is_reserved": 0, "fusion_lon": 0.0, "lat": 38.8964465, "rental_uris": {"ios": "https://dc.lft.to/lastmile_qr_scan", "android": "https://dc.lft.to/lastmile_qr_scan"}, "bike_id": "5a201ea4297c490bd57357170d3050f2", "fusion_lat": 0.0}, {"lon": -77.03882183333333, "name": "cf18791f59df1ab89552c4edff5f3055", "is_disabled": 0, "type": "electric_scooter", "is_reserved": 0, "fusion_lon": 0.0, "lat": 38.92142, "rental_uris": {"ios": "https://dc.lft.to/lastmile_qr_scan", "android": "https://dc.lft.to/lastmile_qr_scan"}, "bike_id": "cf18791f59df1ab89552c4edff5f3055", "fusion_lat": 0.0}, {"lon": -77.0962385, "name": "d7db2b8b64dc8ef70fdb926ec9b64bea", "is_disabled": 0, "type": "electric_bike", "is_reserved": 0, "fusion_lon": 0.0, "lat": 38.95249833333333, "rental_uris": {"ios": "https://dc.lft.to/lastmile_qr_scan", "android": "https://dc.lft.to/lastmile_qr_scan"}, "bike_id": "d7db2b8b64dc8ef70fdb926ec9b64bea", "fusion_lat": 0.0}, {"lon": -77.00221083333334, "name": "35cc880562b1010e3ef0bed93eadfc57", "is_disabled": 0, "type": "electric_bike", "is_reserved": 0, "fusion_lon": 0.0, "lat": 38.936072, "rental_uris": {"ios": "https://dc.lft.to/lastmile_qr_scan", "android": "https://dc.lft.to/lastmile_qr_scan"}, "bike_id": "35cc880562b1010e3ef0bed93eadfc57", "fusion_lat": 0.0}, {"lon": -77.0209215, "name": "3bbf7cbf3d33ecc965d3a61ac2a75091", "is_disabled": 0, "type": "electric_scooter", "is_reserved": 0, "fusion_lon": 0.0, "lat": 38.9301265, "rental_uris": {"ios": "https://dc.lft.to/lastmile_qr_scan", "android": "https://dc.lft.to/lastmile_qr_scan"}, "bike_id": "3bbf7cbf3d33ecc965d3a61ac2a75091", "fusion_lat": 0.0}, {"lon": -77.02980533333333, "name": "0b3e11eeaea414914988b38daf58b156", "is_disabled": 0, "type": "electric_scooter", "is_reserved": 0, "fusion_lon": 0.0, "lat": 38.9240305, "rental_uris": {"ios": "https://dc.lft.to/lastmile_qr_scan", "android": "https://dc.lft.to/lastmile_qr_scan"}, "bike_id": "0b3e11eeaea414914988b38daf58b156", "fusion_lat": 0.0}, {"lon": -77.00759116666667, "name": "2b6daa3e70fa325c6bcded12696f6df5", "is_disabled": 0, "type": "electric_bike", "is_reserved": 0, "fusion_lon": 0.0, "lat": 38.9978235, "rental_uris": {"ios": "https://dc.lft.to/lastmile_qr_scan", "android": "https://dc.lft.to/lastmile_qr_scan"}, "bike_id": "2b6daa3e70fa325c6bcded12696f6df5", "fusion_lat": 0.0}, {"lon": -77.03554966666667, "name": "95c24716bc6dda4ac4f45f47a73edef2", "is_disabled": 0, "type": "electric_bike", "is_reserved": 0, "fusion_lon": 0.0, "lat": 38.96473733333333, "rental_uris": {"ios": "https://dc.lft.to/lastmile_qr_scan", "android": "https://dc.lft.to/lastmile_qr_scan"}, "bike_id": "95c24716bc6dda4ac4f45f47a73edef2", "fusion_lat": 0.0}, {"lon": -77.03855383333334, "name": "c56311478a938298c551ea42886278c2", "is_disabled": 0, "type": "electric_scooter", "is_reserved": 0, "fusion_lon": 0.0, "lat": 38.9132095, "rental_uris": {"ios": "https://dc.lft.to/lastmile_qr_scan", "android": "https://dc.lft.to/lastmile_qr_scan"}, "bike_id": "c56311478a938298c551ea42886278c2", "fusion_lat": 0.0}, {"lon": -77.02686916666667, "name": "e9b7ac179344c4a845f830d9d271a8a0", "is_disabled": 0, "type": "electric_scooter", "is_reserved": 0, "fusion_lon": 0.0, "lat": 38.92575733333334, "rental_uris": {"ios": "https://dc.lft.to/lastmile_qr_scan", "android": "https://dc.lft.to/lastmile_qr_scan"}, "bike_id": "e9b7ac179344c4a845f830d9d271a8a0", "fusion_lat": 0.0}, {"lon": -77.03084166666666, "name": "7e54a2efc414260dcdce4f3da7df1b46", "is_disabled": 0, "type": "electric_scooter", "is_reserved": 0, "fusion_lon": 0.0, "lat": 38.935282, "rental_uris": {"ios": "https://dc.lft.to/lastmile_qr_scan", "android": "https://dc.lft.to/lastmile_qr_scan"}, "bike_id": "7e54a2efc414260dcdce4f3da7df1b46", "fusion_lat": 0.0}, {"lon": -77.02350583333333, "name": "9de373c4aa1c57868fea2f95d43be4f0", "is_disabled": 0, "type": "electric_scooter", "is_reserved": 0, "fusion_lon": 0.0, "lat": 38.94304283333334, "rental_uris": {"ios": "https://dc.lft.to/lastmile_qr_scan", "android": "https://dc.lft.to/lastmile_qr_scan"}, "bike_id": "9de373c4aa1c57868fea2f95d43be4f0", "fusion_lat": 0.0}, {"lon": -77.0598675, "name": "6123b6a13d9ba2820b3d121ae07a06a7", "is_disabled": 0, "type": "electric_scooter", "is_reserved": 0, "fusion_lon": 0.0, "lat": 38.927098, "rental_uris": {"ios": "https://dc.lft.to/lastmile_qr_scan", "android": "https://dc.lft.to/lastmile_qr_scan"}, "bike_id": "6123b6a13d9ba2820b3d121ae07a06a7", "fusion_lat": 0.0}, {"lon": -77.07359966666667, "name": "7c1b25d9ba45d2ac0d2544c9e7342e47", "is_disabled": 0, "type": "electric_scooter", "is_reserved": 0, "fusion_lon": 0.0, "lat": 38.933546, "rental_uris": {"ios": "https://dc.lft.to/lastmile_qr_scan", "android": "https://dc.lft.to/lastmile_qr_scan"}, "bike_id": "7c1b25d9ba45d2ac0d2544c9e7342e47", "fusion_lat": 0.0}, {"lon": -77.01955933333333, "name": "5a81366b9c0c04a6a4fa5e226c360da8", "is_disabled": 0, "type": "electric_scooter", "is_reserved": 0, "fusion_lon": 0.0, "lat": 38.92368666666667, "rental_uris": {"ios": "https://dc.lft.to/lastmile_qr_scan", "android": "https://dc.lft.to/lastmile_qr_scan"}, "bike_id": "5a81366b9c0c04a6a4fa5e226c360da8", "fusion_lat": 0.0}, {"lon": -77.03097183333334, "name": "c879896c6ad90c2d1c7994c1b1f76811", "is_disabled": 0, "type": "electric_scooter", "is_reserved": 0, "fusion_lon": 0.0, "lat": 38.90962916666667, "rental_uris": {"ios": "https://dc.lft.to/lastmile_qr_scan", "android": "https://dc.lft.to/lastmile_qr_scan"}, "bike_id": "c879896c6ad90c2d1c7994c1b1f76811", "fusion_lat": 0.0}, {"lon": -77.0378065, "name": "5984bfc366016153f818272687122c22", "is_disabled": 0, "type": "electric_bike", "is_reserved": 0, "fusion_lon": 0.0, "lat": 38.99668033333333, "rental_uris": {"ios": "https://dc.lft.to/lastmile_qr_scan", "android": "https://dc.lft.to/lastmile_qr_scan"}, "bike_id": "5984bfc366016153f818272687122c22", "fusion_lat": 0.0}, {"lon": -77.05339883333333, "name": "4b191ffc9de253c1365059d7ed6bd6be", "is_disabled": 0, "type": "electric_scooter", "is_reserved": 0, "fusion_lon": 0.0, "lat": 38.904175, "rental_uris": {"ios": "https://dc.lft.to/lastmile_qr_scan", "android": "https://dc.lft.to/lastmile_qr_scan"}, "bike_id": "4b191ffc9de253c1365059d7ed6bd6be", "fusion_lat": 0.0}, {"lon": -77.0327845, "name": "f5ff39dce7db4515048f9cecd78ca716", "is_disabled": 0, "type": "electric_scooter", "is_reserved": 0, "fusion_lon": 0.0, "lat": 38.93204583333333, "rental_uris": {"ios": "https://dc.lft.to/lastmile_qr_scan", "android": "https://dc.lft.to/lastmile_qr_scan"}, "bike_id": "f5ff39dce7db4515048f9cecd78ca716", "fusion_lat": 0.0}, {"lon": -77.0622195, "name": "1409d3b4b996a982aca1ef17aea1c023", "is_disabled": 0, "type": "electric_scooter", "is_reserved": 0, "fusion_lon": 0.0, "lat": 38.91315783333334, "rental_uris": {"ios": "https://dc.lft.to/lastmile_qr_scan", "android": "https://dc.lft.to/lastmile_qr_scan"}, "bike_id": "1409d3b4b996a982aca1ef17aea1c023", "fusion_lat": 0.0}, {"lon": -77.02389883333333, "name": "ba82d77465906b416ef8a716a0a7b666", "is_disabled": 0, "type": "electric_scooter", "is_reserved": 0, "fusion_lon": 0.0, "lat": 38.916707, "rental_uris": {"ios": "https://dc.lft.to/lastmile_qr_scan", "android": "https://dc.lft.to/lastmile_qr_scan"}, "bike_id": "ba82d77465906b416ef8a716a0a7b666", "fusion_lat": 0.0}, {"lon": -77.0165865, "name": "25a219d62b2acf8b4e4598a8bc5b000e", "is_disabled": 0, "type": "electric_scooter", "is_reserved": 0, "fusion_lon": 0.0, "lat": 38.92044716666667, "rental_uris": {"ios": "https://dc.lft.to/lastmile_qr_scan", "android": "https://dc.lft.to/lastmile_qr_scan"}, "bike_id": "25a219d62b2acf8b4e4598a8bc5b000e", "fusion_lat": 0.0}, {"lon": -77.018718, "name": "c623794fdc05084fc516dd71b3be9975", "is_disabled": 0, "type": "electric_scooter", "is_reserved": 0, "fusion_lon": 0.0, "lat": 38.88124233333333, "rental_uris": {"ios": "https://dc.lft.to/lastmile_qr_scan", "android": "https://dc.lft.to/lastmile_qr_scan"}, "bike_id": "c623794fdc05084fc516dd71b3be9975", "fusion_lat": 0.0}, {"lon": -77.01571, "name": "157d60ec9da8df2fe08c29a90a13a448", "is_disabled": 0, "type": "electric_scooter", "is_reserved": 0, "fusion_lon": 0.0, "lat": 38.92687016666667, "rental_uris": {"ios": "https://dc.lft.to/lastmile_qr_scan", "android": "https://dc.lft.to/lastmile_qr_scan"}, "bike_id": "157d60ec9da8df2fe08c29a90a13a448", "fusion_lat": 0.0}, {"lon": -77.044807, "name": "8cc77674d4f30a51e1fb40102c688c8a", "is_disabled": 0, "type": "electric_scooter", "is_reserved": 0, "fusion_lon": 0.0, "lat": 38.893624833333334, "rental_uris": {"ios": "https://dc.lft.to/lastmile_qr_scan", "android": "https://dc.lft.to/lastmile_qr_scan"}, "bike_id": "8cc77674d4f30a51e1fb40102c688c8a", "fusion_lat": 0.0}, {"lon": -77.13333716666666, "name": "c77709844da6b7e7d5e998d767af5b56", "is_disabled": 0, "type": "electric_bike", "is_reserved": 0, "fusion_lon": 0.0, "lat": 39.0603215, "rental_uris": {"ios": "https://dc.lft.to/lastmile_qr_scan", "android": "https://dc.lft.to/lastmile_qr_scan"}, "bike_id": "c77709844da6b7e7d5e998d767af5b56", "fusion_lat": 0.0}, {"lon": -77.05028333333334, "name": "173ccc20c1bb08a72ad9b75675ef3331", "is_disabled": 0, "type": "electric_scooter", "is_reserved": 0, "fusion_lon": 0.0, "lat": 38.892771, "rental_uris": {"ios": "https://dc.lft.to/lastmile_qr_scan", "android": "https://dc.lft.to/lastmile_qr_scan"}, "bike_id": "173ccc20c1bb08a72ad9b75675ef3331", "fusion_lat": 0.0}, {"lon": -77.01836183333333, "name": "7aaaad98ad24e3a3ad97c45808bcfa25", "is_disabled": 0, "type": "electric_scooter", "is_reserved": 0, "fusion_lon": 0.0, "lat": 38.907323, "rental_uris": {"ios": "https://dc.lft.to/lastmile_qr_scan", "android": "https://dc.lft.to/lastmile_qr_scan"}, "bike_id": "7aaaad98ad24e3a3ad97c45808bcfa25", "fusion_lat": 0.0}, {"lon": -77.00399366666667, "name": "f68aa6f203d6a81c3d09d937e9f9fc1a", "is_disabled": 0, "type": "electric_bike", "is_reserved": 0, "fusion_lon": 0.0, "lat": 38.98557016666667, "rental_uris": {"ios": "https://dc.lft.to/lastmile_qr_scan", "android": "https://dc.lft.to/lastmile_qr_scan"}, "bike_id": "f68aa6f203d6a81c3d09d937e9f9fc1a", "fusion_lat": 0.0}, {"lon": -76.972664, "name": "673bca9a6c6d02939b6381d2aa1efc93", "is_disabled": 0, "type": "electric_bike", "is_reserved": 0, "fusion_lon": 0.0, "lat": 38.855985833333335, "rental_uris": {"ios": "https://dc.lft.to/lastmile_qr_scan", "android": "https://dc.lft.to/lastmile_qr_scan"}, "bike_id": "673bca9a6c6d02939b6381d2aa1efc93", "fusion_lat": 0.0}, {"lon": -77.00980016666666, "name": "fe6b025deef36e50d44bb41ca78f4f2e", "is_disabled": 0, "type": "electric_scooter", "is_reserved": 0, "fusion_lon": 0.0, "lat": 38.9037815, "rental_uris": {"ios": "https://dc.lft.to/lastmile_qr_scan", "android": "https://dc.lft.to/lastmile_qr_scan"}, "bike_id": "fe6b025deef36e50d44bb41ca78f4f2e", "fusion_lat": 0.0}, {"lon": -77.22996333333333, "name": "c8afc13f7dc528d2b18bc9e0311bbe2b", "is_disabled": 0, "type": "electric_bike", "is_reserved": 0, "fusion_lon": 0.0, "lat": 38.8715255, "rental_uris": {"ios": "https://dc.lft.to/lastmile_qr_scan", "android": "https://dc.lft.to/lastmile_qr_scan"}, "bike_id": "c8afc13f7dc528d2b18bc9e0311bbe2b", "fusion_lat": 0.0}, {"lon": -77.00605033333333, "name": "c6b5b07b8e324068430794b20fc69261", "is_disabled": 0, "type": "electric_scooter", "is_reserved": 0, "fusion_lon": 0.0, "lat": 38.90551833333333, "rental_uris": {"ios": "https://dc.lft.to/lastmile_qr_scan", "android": "https://dc.lft.to/lastmile_qr_scan"}, "bike_id": "c6b5b07b8e324068430794b20fc69261", "fusion_lat": 0.0}, {"lon": -77.01681416666666, "name": "fc56d5646cb0ac6f255637d1cab8cd33", "is_disabled": 0, "type": "electric_scooter", "is_reserved": 0, "fusion_lon": 0.0, "lat": 38.902613833333334, "rental_uris": {"ios": "https://dc.lft.to/lastmile_qr_scan", "android": "https://dc.lft.to/lastmile_qr_scan"}, "bike_id": "fc56d5646cb0ac6f255637d1cab8cd33", "fusion_lat": 0.0}, {"lon": -77.02408583333333, "name": "1e8089cedef50fed0356521bff001e18", "is_disabled": 0, "type": "electric_scooter", "is_reserved": 0, "fusion_lon": 0.0, "lat": 38.9271125, "rental_uris": {"ios": "https://dc.lft.to/lastmile_qr_scan", "android": "https://dc.lft.to/lastmile_qr_scan"}, "bike_id": "1e8089cedef50fed0356521bff001e18", "fusion_lat": 0.0}, {"lon": -77.02811433333333, "name": "ff2a8cdd4a1dc5805725f15605305769", "is_disabled": 0, "type": "electric_scooter", "is_reserved": 0, "fusion_lon": 0.0, "lat": 38.90704233333334, "rental_uris": {"ios": "https://dc.lft.to/lastmile_qr_scan", "android": "https://dc.lft.to/lastmile_qr_scan"}, "bike_id": "ff2a8cdd4a1dc5805725f15605305769", "fusion_lat": 0.0}, {"lon": -77.03141733333334, "name": "50bb341cd68365c592e2af062550c2ce", "is_disabled": 0, "type": "electric_scooter", "is_reserved": 0, "fusion_lon": 0.0, "lat": 38.9281345, "rental_uris": {"ios": "https://dc.lft.to/lastmile_qr_scan", "android": "https://dc.lft.to/lastmile_qr_scan"}, "bike_id": "50bb341cd68365c592e2af062550c2ce", "fusion_lat": 0.0}, {"lon": -77.01583283333333, "name": "f860a19767425ceea688963a62288da3", "is_disabled": 0, "type": "electric_scooter", "is_reserved": 0, "fusion_lon": 0.0, "lat": 38.87632216666667, "rental_uris": {"ios": "https://dc.lft.to/lastmile_qr_scan", "android": "https://dc.lft.to/lastmile_qr_scan"}, "bike_id": "f860a19767425ceea688963a62288da3", "fusion_lat": 0.0}, {"lon": -77.05757416666667, "name": "a21042b7ac6b708a51cb7dc05a837caf", "is_disabled": 0, "type": "electric_scooter", "is_reserved": 0, "fusion_lon": 0.0, "lat": 38.924618, "rental_uris": {"ios": "https://dc.lft.to/lastmile_qr_scan", "android": "https://dc.lft.to/lastmile_qr_scan"}, "bike_id": "a21042b7ac6b708a51cb7dc05a837caf", "fusion_lat": 0.0}, {"lon": -77.02343133333333, "name": "ff76bd5c0e632de43744d99fdf2a4b84", "is_disabled": 0, "type": "electric_scooter", "is_reserved": 0, "fusion_lon": 0.0, "lat": 38.92967316666667, "rental_uris": {"ios": "https://dc.lft.to/lastmile_qr_scan", "android": "https://dc.lft.to/lastmile_qr_scan"}, "bike_id": "ff76bd5c0e632de43744d99fdf2a4b84", "fusion_lat": 0.0}, {"lon": -77.0339095, "name": "8504d9ddfcb3d1f46f2d3a20cfc27748", "is_disabled": 0, "type": "electric_scooter", "is_reserved": 0, "fusion_lon": 0.0, "lat": 38.9215735, "rental_uris": {"ios": "https://dc.lft.to/lastmile_qr_scan", "android": "https://dc.lft.to/lastmile_qr_scan"}, "bike_id": "8504d9ddfcb3d1f46f2d3a20cfc27748", "fusion_lat": 0.0}, {"lon": -77.0215095, "name": "416073c3641597ff71143779f912f9ef", "is_disabled": 0, "type": "electric_scooter", "is_reserved": 0, "fusion_lon": 0.0, "lat": 38.92441133333333, "rental_uris": {"ios": "https://dc.lft.to/lastmile_qr_scan", "android": "https://dc.lft.to/lastmile_qr_scan"}, "bike_id": "416073c3641597ff71143779f912f9ef", "fusion_lat": 0.0}, {"lon": -77.029511, "name": "0eb14d736d718eb2843fadac76e936d3", "is_disabled": 0, "type": "electric_scooter", "is_reserved": 0, "fusion_lon": 0.0, "lat": 38.94305283333333, "rental_uris": {"ios": "https://dc.lft.to/lastmile_qr_scan", "android": "https://dc.lft.to/lastmile_qr_scan"}, "bike_id": "0eb14d736d718eb2843fadac76e936d3", "fusion_lat": 0.0}, {"lon": -77.09023483333333, "name": "d54ab8fbe44572f2cb55426fad5bf991", "is_disabled": 0, "type": "electric_bike", "is_reserved": 0, "fusion_lon": 0.0, "lat": 38.92648766666667, "rental_uris": {"ios": "https://dc.lft.to/lastmile_qr_scan", "android": "https://dc.lft.to/lastmile_qr_scan"}, "bike_id": "d54ab8fbe44572f2cb55426fad5bf991", "fusion_lat": 0.0}, {"lon": -77.07229283333334, "name": "b5096647f0d0e5006926dd3ebe7c5db6", "is_disabled": 0, "type": "electric_scooter", "is_reserved": 0, "fusion_lon": 0.0, "lat": 38.916411333333336, "rental_uris": {"ios": "https://dc.lft.to/lastmile_qr_scan", "android": "https://dc.lft.to/lastmile_qr_scan"}, "bike_id": "b5096647f0d0e5006926dd3ebe7c5db6", "fusion_lat": 0.0}, {"lon": -77.04453016666666, "name": "4cd8fc3c8448a4e41dc6bfd2d01d601e", "is_disabled": 0, "type": "electric_scooter", "is_reserved": 0, "fusion_lon": 0.0, "lat": 38.92317, "rental_uris": {"ios": "https://dc.lft.to/lastmile_qr_scan", "android": "https://dc.lft.to/lastmile_qr_scan"}, "bike_id": "4cd8fc3c8448a4e41dc6bfd2d01d601e", "fusion_lat": 0.0}, {"lon": -77.06300016666667, "name": "656c8b9241a05fadbe2dc6919579da90", "is_disabled": 0, "type": "electric_scooter", "is_reserved": 0, "fusion_lon": 0.0, "lat": 38.907721333333335, "rental_uris": {"ios": "https://dc.lft.to/lastmile_qr_scan", "android": "https://dc.lft.to/lastmile_qr_scan"}, "bike_id": "656c8b9241a05fadbe2dc6919579da90", "fusion_lat": 0.0}, {"lon": -77.00494533333334, "name": "c54796e7f3810838150da272a17ff697", "is_disabled": 0, "type": "electric_scooter", "is_reserved": 0, "fusion_lon": 0.0, "lat": 38.916165666666664, "rental_uris": {"ios": "https://dc.lft.to/lastmile_qr_scan", "android": "https://dc.lft.to/lastmile_qr_scan"}, "bike_id": "c54796e7f3810838150da272a17ff697", "fusion_lat": 0.0}, {"lon": -77.04180283333334, "name": "a84156d5ec8d17bc89d6e074245dfc90", "is_disabled": 0, "type": "electric_scooter", "is_reserved": 0, "fusion_lon": 0.0, "lat": 38.920487333333334, "rental_uris": {"ios": "https://dc.lft.to/lastmile_qr_scan", "android": "https://dc.lft.to/lastmile_qr_scan"}, "bike_id": "a84156d5ec8d17bc89d6e074245dfc90", "fusion_lat": 0.0}, {"lon": -77.048891, "name": "fdfee8dcb7826eb036dd810a917219dc", "is_disabled": 0, "type": "electric_scooter", "is_reserved": 0, "fusion_lon": 0.0, "lat": 38.90063983333334, "rental_uris": {"ios": "https://dc.lft.to/lastmile_qr_scan", "android": "https://dc.lft.to/lastmile_qr_scan"}, "bike_id": "fdfee8dcb7826eb036dd810a917219dc", "fusion_lat": 0.0}, {"lon": -77.02128966666666, "name": "e2ec9054c67d2b9b075de2b2ebb28f31", "is_disabled": 0, "type": "electric_scooter", "is_reserved": 0, "fusion_lon": 0.0, "lat": 38.9227655, "rental_uris": {"ios": "https://dc.lft.to/lastmile_qr_scan", "android": "https://dc.lft.to/lastmile_qr_scan"}, "bike_id": "e2ec9054c67d2b9b075de2b2ebb28f31", "fusion_lat": 0.0}, {"lon": -77.03840933333333, "name": "9e3807aac179754b7b4bad2c807a5313", "is_disabled": 0, "type": "electric_scooter", "is_reserved": 0, "fusion_lon": 0.0, "lat": 38.9129005, "rental_uris": {"ios": "https://dc.lft.to/lastmile_qr_scan", "android": "https://dc.lft.to/lastmile_qr_scan"}, "bike_id": "9e3807aac179754b7b4bad2c807a5313", "fusion_lat": 0.0}, {"lon": -77.01606233333334, "name": "9dcd9f4f40c22dbbb737fcc16b6e0a8a", "is_disabled": 0, "type": "electric_scooter", "is_reserved": 0, "fusion_lon": 0.0, "lat": 38.919478, "rental_uris": {"ios": "https://dc.lft.to/lastmile_qr_scan", "android": "https://dc.lft.to/lastmile_qr_scan"}, "bike_id": "9dcd9f4f40c22dbbb737fcc16b6e0a8a", "fusion_lat": 0.0}, {"lon": -76.9982605, "name": "375b4c70be74df39c1c895ce09c287af", "is_disabled": 0, "type": "electric_scooter", "is_reserved": 0, "fusion_lon": 0.0, "lat": 38.90720183333333, "rental_uris": {"ios": "https://dc.lft.to/lastmile_qr_scan", "android": "https://dc.lft.to/lastmile_qr_scan"}, "bike_id": "375b4c70be74df39c1c895ce09c287af", "fusion_lat": 0.0}, {"lon": -77.00216166666667, "name": "c71b8c493df53ac33385fba3cb2a152e", "is_disabled": 0, "type": "electric_scooter", "is_reserved": 0, "fusion_lon": 0.0, "lat": 38.901855833333336, "rental_uris": {"ios": "https://dc.lft.to/lastmile_qr_scan", "android": "https://dc.lft.to/lastmile_qr_scan"}, "bike_id": "c71b8c493df53ac33385fba3cb2a152e", "fusion_lat": 0.0}, {"lon": -77.03184366666666, "name": "dfa7fd4a8834b1024c2c9f161fe3e87e", "is_disabled": 0, "type": "electric_scooter", "is_reserved": 0, "fusion_lon": 0.0, "lat": 38.91192933333333, "rental_uris": {"ios": "https://dc.lft.to/lastmile_qr_scan", "android": "https://dc.lft.to/lastmile_qr_scan"}, "bike_id": "dfa7fd4a8834b1024c2c9f161fe3e87e", "fusion_lat": 0.0}, {"lon": -77.03910366666666, "name": "668190b7cbe70f2a39fd0ff19a390934", "is_disabled": 0, "type": "electric_scooter", "is_reserved": 0, "fusion_lon": 0.0, "lat": 38.922359, "rental_uris": {"ios": "https://dc.lft.to/lastmile_qr_scan", "android": "https://dc.lft.to/lastmile_qr_scan"}, "bike_id": "668190b7cbe70f2a39fd0ff19a390934", "fusion_lat": 0.0}, {"lon": -77.03256316666666, "name": "05dcf6c7eeeb18d42c2fb34599483f4b", "is_disabled": 0, "type": "electric_scooter", "is_reserved": 0, "fusion_lon": 0.0, "lat": 38.939697333333335, "rental_uris": {"ios": "https://dc.lft.to/lastmile_qr_scan", "android": "https://dc.lft.to/lastmile_qr_scan"}, "bike_id": "05dcf6c7eeeb18d42c2fb34599483f4b", "fusion_lat": 0.0}, {"lon": -76.93629733333333, "name": "188a6f0e8a37751089a7238f2e878077", "is_disabled": 0, "type": "electric_scooter", "is_reserved": 0, "fusion_lon": 0.0, "lat": 38.8834545, "rental_uris": {"ios": "https://dc.lft.to/lastmile_qr_scan", "android": "https://dc.lft.to/lastmile_qr_scan"}, "bike_id": "188a6f0e8a37751089a7238f2e878077", "fusion_lat": 0.0}, {"lon": -76.94289983333333, "name": "0b4324b4989d2e50423e48eb5b1b2814", "is_disabled": 0, "type": "electric_scooter", "is_reserved": 0, "fusion_lon": 0.0, "lat": 38.898456833333334, "rental_uris": {"ios": "https://dc.lft.to/lastmile_qr_scan", "android": "https://dc.lft.to/lastmile_qr_scan"}, "bike_id": "0b4324b4989d2e50423e48eb5b1b2814", "fusion_lat": 0.0}, {"lon": -77.04389633333334, "name": "c8574562aa3b0c61a97cd6bd4005a586", "is_disabled": 0, "type": "electric_scooter", "is_reserved": 0, "fusion_lon": 0.0, "lat": 38.922346166666664, "rental_uris": {"ios": "https://dc.lft.to/lastmile_qr_scan", "android": "https://dc.lft.to/lastmile_qr_scan"}, "bike_id": "c8574562aa3b0c61a97cd6bd4005a586", "fusion_lat": 0.0}, {"lon": -76.98321333333334, "name": "46a828586b44df1b1bedb8fe210032b3", "is_disabled": 0, "type": "electric_scooter", "is_reserved": 0, "fusion_lon": 0.0, "lat": 38.92253566666667, "rental_uris": {"ios": "https://dc.lft.to/lastmile_qr_scan", "android": "https://dc.lft.to/lastmile_qr_scan"}, "bike_id": "46a828586b44df1b1bedb8fe210032b3", "fusion_lat": 0.0}, {"lon": -77.03883816666666, "name": "1a877e98f5a132e60ca058cdaad63c4f", "is_disabled": 0, "type": "electric_scooter", "is_reserved": 0, "fusion_lon": 0.0, "lat": 38.9184575, "rental_uris": {"ios": "https://dc.lft.to/lastmile_qr_scan", "android": "https://dc.lft.to/lastmile_qr_scan"}, "bike_id": "1a877e98f5a132e60ca058cdaad63c4f", "fusion_lat": 0.0}, {"lon": -76.99368516666667, "name": "a54ab51ea26b4f42aaaa5ae86ce64730", "is_disabled": 0, "type": "electric_bike", "is_reserved": 0, "fusion_lon": 0.0, "lat": 38.99098383333333, "rental_uris": {"ios": "https://dc.lft.to/lastmile_qr_scan", "android": "https://dc.lft.to/lastmile_qr_scan"}, "bike_id": "a54ab51ea26b4f42aaaa5ae86ce64730", "fusion_lat": 0.0}, {"lon": -77.04458316666667, "name": "5c0feaef55af60789099fb54a24c8a58", "is_disabled": 0, "type": "electric_scooter", "is_reserved": 0, "fusion_lon": 0.0, "lat": 38.919125333333334, "rental_uris": {"ios": "https://dc.lft.to/lastmile_qr_scan", "android": "https://dc.lft.to/lastmile_qr_scan"}, "bike_id": "5c0feaef55af60789099fb54a24c8a58", "fusion_lat": 0.0}, {"lon": -77.09519883333333, "name": "88c0823bccd32e4ab97421e2a5cef879", "is_disabled": 0, "type": "electric_bike", "is_reserved": 0, "fusion_lon": 0.0, "lat": 38.83808583333333, "rental_uris": {"ios": "https://dc.lft.to/lastmile_qr_scan", "android": "https://dc.lft.to/lastmile_qr_scan"}, "bike_id": "88c0823bccd32e4ab97421e2a5cef879", "fusion_lat": 0.0}, {"lon": -76.991692, "name": "1fc7d522bd29be95d2034b6149ab0971", "is_disabled": 0, "type": "electric_scooter", "is_reserved": 0, "fusion_lon": 0.0, "lat": 38.8897365, "rental_uris": {"ios": "https://dc.lft.to/lastmile_qr_scan", "android": "https://dc.lft.to/lastmile_qr_scan"}, "bike_id": "1fc7d522bd29be95d2034b6149ab0971", "fusion_lat": 0.0}, {"lon": -76.99958616666666, "name": "1cc33de0dd1afb8862dd18772cefb9ed", "is_disabled": 0, "type": "electric_scooter", "is_reserved": 0, "fusion_lon": 0.0, "lat": 38.903784333333334, "rental_uris": {"ios": "https://dc.lft.to/lastmile_qr_scan", "android": "https://dc.lft.to/lastmile_qr_scan"}, "bike_id": "1cc33de0dd1afb8862dd18772cefb9ed", "fusion_lat": 0.0}, {"lon": -77.04998083333334, "name": "eb645862ab2dc5aa0c8c1e59f7a3a47c", "is_disabled": 0, "type": "electric_scooter", "is_reserved": 0, "fusion_lon": 0.0, "lat": 38.892295, "rental_uris": {"ios": "https://dc.lft.to/lastmile_qr_scan", "android": "https://dc.lft.to/lastmile_qr_scan"}, "bike_id": "eb645862ab2dc5aa0c8c1e59f7a3a47c", "fusion_lat": 0.0}, {"lon": -77.02526566666667, "name": "1b5f3fa0adf3230bcce868cca392e3c8", "is_disabled": 0, "type": "electric_scooter", "is_reserved": 0, "fusion_lon": 0.0, "lat": 38.9223385, "rental_uris": {"ios": "https://dc.lft.to/lastmile_qr_scan", "android": "https://dc.lft.to/lastmile_qr_scan"}, "bike_id": "1b5f3fa0adf3230bcce868cca392e3c8", "fusion_lat": 0.0}, {"lon": -77.016147, "name": "b84da618d7aaad22d0746963eda4f210", "is_disabled": 0, "type": "electric_scooter", "is_reserved": 0, "fusion_lon": 0.0, "lat": 38.910722666666665, "rental_uris": {"ios": "https://dc.lft.to/lastmile_qr_scan", "android": "https://dc.lft.to/lastmile_qr_scan"}, "bike_id": "b84da618d7aaad22d0746963eda4f210", "fusion_lat": 0.0}, {"lon": -77.02189016666667, "name": "c8299ab27ac82f124b26ff0644b4a426", "is_disabled": 0, "type": "electric_scooter", "is_reserved": 0, "fusion_lon": 0.0, "lat": 38.9101205, "rental_uris": {"ios": "https://dc.lft.to/lastmile_qr_scan", "android": "https://dc.lft.to/lastmile_qr_scan"}, "bike_id": "c8299ab27ac82f124b26ff0644b4a426", "fusion_lat": 0.0}, {"lon": -77.02048933333333, "name": "2b48105049d25fb24bea95eea5c58de9", "is_disabled": 0, "type": "electric_scooter", "is_reserved": 0, "fusion_lon": 0.0, "lat": 38.921774, "rental_uris": {"ios": "https://dc.lft.to/lastmile_qr_scan", "android": "https://dc.lft.to/lastmile_qr_scan"}, "bike_id": "2b48105049d25fb24bea95eea5c58de9", "fusion_lat": 0.0}, {"lon": -77.0228465, "name": "6fb1bf644298540416bd91bd690dca4e", "is_disabled": 0, "type": "electric_scooter", "is_reserved": 0, "fusion_lon": 0.0, "lat": 38.91833716666667, "rental_uris": {"ios": "https://dc.lft.to/lastmile_qr_scan", "android": "https://dc.lft.to/lastmile_qr_scan"}, "bike_id": "6fb1bf644298540416bd91bd690dca4e", "fusion_lat": 0.0}, {"lon": -77.04316433333334, "name": "a711c70c5a90c1808018f47c2dc937bd", "is_disabled": 0, "type": "electric_scooter", "is_reserved": 0, "fusion_lon": 0.0, "lat": 38.92210933333333, "rental_uris": {"ios": "https://dc.lft.to/lastmile_qr_scan", "android": "https://dc.lft.to/lastmile_qr_scan"}, "bike_id": "a711c70c5a90c1808018f47c2dc937bd", "fusion_lat": 0.0}, {"lon": -77.0215845, "name": "a16941e7554250477f881c80004c5ab5", "is_disabled": 0, "type": "electric_scooter", "is_reserved": 0, "fusion_lon": 0.0, "lat": 38.926118333333335, "rental_uris": {"ios": "https://dc.lft.to/lastmile_qr_scan", "android": "https://dc.lft.to/lastmile_qr_scan"}, "bike_id": "a16941e7554250477f881c80004c5ab5", "fusion_lat": 0.0}, {"lon": -77.01844116666666, "name": "d705f9ae5ba7e47fd571395dd49e3a11", "is_disabled": 0, "type": "electric_scooter", "is_reserved": 0, "fusion_lon": 0.0, "lat": 38.903614833333336, "rental_uris": {"ios": "https://dc.lft.to/lastmile_qr_scan", "android": "https://dc.lft.to/lastmile_qr_scan"}, "bike_id": "d705f9ae5ba7e47fd571395dd49e3a11", "fusion_lat": 0.0}, {"lon": -77.08488633333333, "name": "e8c587aecd0e8501c206f93a4fb5adda", "is_disabled": 0, "type": "electric_scooter", "is_reserved": 0, "fusion_lon": 0.0, "lat": 38.9589135, "rental_uris": {"ios": "https://dc.lft.to/lastmile_qr_scan", "android": "https://dc.lft.to/lastmile_qr_scan"}, "bike_id": "e8c587aecd0e8501c206f93a4fb5adda", "fusion_lat": 0.0}, {"lon": -76.941546, "name": "6d0ac3067d485a7a6d8793a0fd75d5e5", "is_disabled": 0, "type": "electric_bike", "is_reserved": 0, "fusion_lon": 0.0, "lat": 38.865516, "rental_uris": {"ios": "https://dc.lft.to/lastmile_qr_scan", "android": "https://dc.lft.to/lastmile_qr_scan"}, "bike_id": "6d0ac3067d485a7a6d8793a0fd75d5e5", "fusion_lat": 0.0}, {"lon": -77.05090716666666, "name": "50662fac72d2bf1ec5615e58e0068ccf", "is_disabled": 0, "type": "electric_bike", "is_reserved": 0, "fusion_lon": 0.0, "lat": 38.8133125, "rental_uris": {"ios": "https://dc.lft.to/lastmile_qr_scan", "android": "https://dc.lft.to/lastmile_qr_scan"}, "bike_id": "50662fac72d2bf1ec5615e58e0068ccf", "fusion_lat": 0.0}, {"lon": -77.032647, "name": "c6ba869f5b3f8fe1b9135f2a60cfb361", "is_disabled": 0, "type": "electric_scooter", "is_reserved": 0, "fusion_lon": 0.0, "lat": 38.91982133333333, "rental_uris": {"ios": "https://dc.lft.to/lastmile_qr_scan", "android": "https://dc.lft.to/lastmile_qr_scan"}, "bike_id": "c6ba869f5b3f8fe1b9135f2a60cfb361", "fusion_lat": 0.0}, {"lon": -77.0296735, "name": "5c667866e13479260e657bc99cb043a7", "is_disabled": 0, "type": "electric_scooter", "is_reserved": 0, "fusion_lon": 0.0, "lat": 38.92591016666667, "rental_uris": {"ios": "https://dc.lft.to/lastmile_qr_scan", "android": "https://dc.lft.to/lastmile_qr_scan"}, "bike_id": "5c667866e13479260e657bc99cb043a7", "fusion_lat": 0.0}, {"lon": -77.02690233333334, "name": "5c23712a62af5f8c9ba6d5a9f3be2a9a", "is_disabled": 0, "type": "electric_scooter", "is_reserved": 0, "fusion_lon": 0.0, "lat": 38.916929, "rental_uris": {"ios": "https://dc.lft.to/lastmile_qr_scan", "android": "https://dc.lft.to/lastmile_qr_scan"}, "bike_id": "5c23712a62af5f8c9ba6d5a9f3be2a9a", "fusion_lat": 0.0}, {"lon": -76.9481335, "name": "b6f9f7eae0325134b9e7c71791b683ea", "is_disabled": 0, "type": "electric_bike", "is_reserved": 0, "fusion_lon": 0.0, "lat": 38.89354516666667, "rental_uris": {"ios": "https://dc.lft.to/lastmile_qr_scan", "android": "https://dc.lft.to/lastmile_qr_scan"}, "bike_id": "b6f9f7eae0325134b9e7c71791b683ea", "fusion_lat": 0.0}, {"lon": -77.0284465, "name": "e41f548eb2eee85cfd8d2120f3cb3bf2", "is_disabled": 0, "type": "electric_scooter", "is_reserved": 0, "fusion_lon": 0.0, "lat": 38.93532233333333, "rental_uris": {"ios": "https://dc.lft.to/lastmile_qr_scan", "android": "https://dc.lft.to/lastmile_qr_scan"}, "bike_id": "e41f548eb2eee85cfd8d2120f3cb3bf2", "fusion_lat": 0.0}, {"lon": -77.04125166666667, "name": "5ef8745031fe7e1d36aabb435fe2e5be", "is_disabled": 0, "type": "electric_scooter", "is_reserved": 0, "fusion_lon": 0.0, "lat": 38.9188895, "rental_uris": {"ios": "https://dc.lft.to/lastmile_qr_scan", "android": "https://dc.lft.to/lastmile_qr_scan"}, "bike_id": "5ef8745031fe7e1d36aabb435fe2e5be", "fusion_lat": 0.0}, {"lon": -77.0318165, "name": "4e431669c15cdd2e63c02d029dc0c04a", "is_disabled": 0, "type": "electric_scooter", "is_reserved": 0, "fusion_lon": 0.0, "lat": 38.91803266666667, "rental_uris": {"ios": "https://dc.lft.to/lastmile_qr_scan", "android": "https://dc.lft.to/lastmile_qr_scan"}, "bike_id": "4e431669c15cdd2e63c02d029dc0c04a", "fusion_lat": 0.0}, {"lon": -77.07189366666667, "name": "e11880c108708414e0307494960a05f7", "is_disabled": 0, "type": "electric_scooter", "is_reserved": 0, "fusion_lon": 0.0, "lat": 38.906725, "rental_uris": {"ios": "https://dc.lft.to/lastmile_qr_scan", "android": "https://dc.lft.to/lastmile_qr_scan"}, "bike_id": "e11880c108708414e0307494960a05f7", "fusion_lat": 0.0}, {"lon": -76.97822383333333, "name": "26791c7d64e5b18058fd567dbeb87f84", "is_disabled": 0, "type": "electric_bike", "is_reserved": 0, "fusion_lon": 0.0, "lat": 38.84613683333333, "rental_uris": {"ios": "https://dc.lft.to/lastmile_qr_scan", "android": "https://dc.lft.to/lastmile_qr_scan"}, "bike_id": "26791c7d64e5b18058fd567dbeb87f84", "fusion_lat": 0.0}, {"lon": -77.05747966666667, "name": "fb60861ab1ff32b2972c2ac438c6cb1c", "is_disabled": 0, "type": "electric_scooter", "is_reserved": 0, "fusion_lon": 0.0, "lat": 38.923702666666664, "rental_uris": {"ios": "https://dc.lft.to/lastmile_qr_scan", "android": "https://dc.lft.to/lastmile_qr_scan"}, "bike_id": "fb60861ab1ff32b2972c2ac438c6cb1c", "fusion_lat": 0.0}, {"lon": -77.02431933333334, "name": "bde092980a916dde67516e8dc3a03032", "is_disabled": 0, "type": "electric_scooter", "is_reserved": 0, "fusion_lon": 0.0, "lat": 38.917054, "rental_uris": {"ios": "https://dc.lft.to/lastmile_qr_scan", "android": "https://dc.lft.to/lastmile_qr_scan"}, "bike_id": "bde092980a916dde67516e8dc3a03032", "fusion_lat": 0.0}, {"lon": -77.04480916666667, "name": "22ad83b34255c94a9885d9a3b79c1552", "is_disabled": 0, "type": "electric_scooter", "is_reserved": 0, "fusion_lon": 0.0, "lat": 38.915398, "rental_uris": {"ios": "https://dc.lft.to/lastmile_qr_scan", "android": "https://dc.lft.to/lastmile_qr_scan"}, "bike_id": "22ad83b34255c94a9885d9a3b79c1552", "fusion_lat": 0.0}, {"lon": -77.01951883333334, "name": "392836ea479a01bc9135364698883cc5", "is_disabled": 0, "type": "electric_scooter", "is_reserved": 0, "fusion_lon": 0.0, "lat": 38.931953166666666, "rental_uris": {"ios": "https://dc.lft.to/lastmile_qr_scan", "android": "https://dc.lft.to/lastmile_qr_scan"}, "bike_id": "392836ea479a01bc9135364698883cc5", "fusion_lat": 0.0}, {"lon": -76.99782316666666, "name": "8a97b7b80b54513808d5da87416d6fb7", "is_disabled": 0, "type": "electric_scooter", "is_reserved": 0, "fusion_lon": 0.0, "lat": 38.90909083333333, "rental_uris": {"ios": "https://dc.lft.to/lastmile_qr_scan", "android": "https://dc.lft.to/lastmile_qr_scan"}, "bike_id": "8a97b7b80b54513808d5da87416d6fb7", "fusion_lat": 0.0}, {"lon": -77.03443466666667, "name": "52987e4b6766f975e8719899b6c137ea", "is_disabled": 0, "type": "electric_scooter", "is_reserved": 0, "fusion_lon": 0.0, "lat": 38.92866583333333, "rental_uris": {"ios": "https://dc.lft.to/lastmile_qr_scan", "android": "https://dc.lft.to/lastmile_qr_scan"}, "bike_id": "52987e4b6766f975e8719899b6c137ea", "fusion_lat": 0.0}, {"lon": -77.049553, "name": "3a62c9b3e6d9d2d53528ff1ec4a02de2", "is_disabled": 0, "type": "electric_scooter", "is_reserved": 0, "fusion_lon": 0.0, "lat": 38.90551983333334, "rental_uris": {"ios": "https://dc.lft.to/lastmile_qr_scan", "android": "https://dc.lft.to/lastmile_qr_scan"}, "bike_id": "3a62c9b3e6d9d2d53528ff1ec4a02de2", "fusion_lat": 0.0}, {"lon": -77.02880033333334, "name": "24003f6f32267a63f7f0c5a85467fa14", "is_disabled": 0, "type": "electric_scooter", "is_reserved": 0, "fusion_lon": 0.0, "lat": 38.91633983333333, "rental_uris": {"ios": "https://dc.lft.to/lastmile_qr_scan", "android": "https://dc.lft.to/lastmile_qr_scan"}, "bike_id": "24003f6f32267a63f7f0c5a85467fa14", "fusion_lat": 0.0}, {"lon": -77.0103355, "name": "6f40f042c5bfbe64a50603dec958e4f7", "is_disabled": 0, "type": "electric_bike", "is_reserved": 0, "fusion_lon": 0.0, "lat": 38.9587845, "rental_uris": {"ios": "https://dc.lft.to/lastmile_qr_scan", "android": "https://dc.lft.to/lastmile_qr_scan"}, "bike_id": "6f40f042c5bfbe64a50603dec958e4f7", "fusion_lat": 0.0}, {"lon": -76.98711483333334, "name": "fc0143e7a0a22620362e4d57f54aa4b8", "is_disabled": 0, "type": "electric_scooter", "is_reserved": 0, "fusion_lon": 0.0, "lat": 38.9048915, "rental_uris": {"ios": "https://dc.lft.to/lastmile_qr_scan", "android": "https://dc.lft.to/lastmile_qr_scan"}, "bike_id": "fc0143e7a0a22620362e4d57f54aa4b8", "fusion_lat": 0.0}, {"lon": -76.98415283333334, "name": "c63e45e2f4994ea664df7780393ceafb", "is_disabled": 0, "type": "electric_scooter", "is_reserved": 0, "fusion_lon": 0.0, "lat": 38.913895833333335, "rental_uris": {"ios": "https://dc.lft.to/lastmile_qr_scan", "android": "https://dc.lft.to/lastmile_qr_scan"}, "bike_id": "c63e45e2f4994ea664df7780393ceafb", "fusion_lat": 0.0}, {"lon": -77.02107716666667, "name": "f4d01720ac2c3e5b24221fae56a16023", "is_disabled": 0, "type": "electric_scooter", "is_reserved": 0, "fusion_lon": 0.0, "lat": 38.927849333333334, "rental_uris": {"ios": "https://dc.lft.to/lastmile_qr_scan", "android": "https://dc.lft.to/lastmile_qr_scan"}, "bike_id": "f4d01720ac2c3e5b24221fae56a16023", "fusion_lat": 0.0}, {"lon": -76.99797166666667, "name": "94988e6efe8ef7756b6a4e4ebed37aba", "is_disabled": 0, "type": "electric_bike", "is_reserved": 0, "fusion_lon": 0.0, "lat": 38.99817516666667, "rental_uris": {"ios": "https://dc.lft.to/lastmile_qr_scan", "android": "https://dc.lft.to/lastmile_qr_scan"}, "bike_id": "94988e6efe8ef7756b6a4e4ebed37aba", "fusion_lat": 0.0}, {"lon": -77.02420016666666, "name": "d81bd2d1ad7f0de2b6f23f1c15b49119", "is_disabled": 0, "type": "electric_scooter", "is_reserved": 0, "fusion_lon": 0.0, "lat": 38.92648633333334, "rental_uris": {"ios": "https://dc.lft.to/lastmile_qr_scan", "android": "https://dc.lft.to/lastmile_qr_scan"}, "bike_id": "d81bd2d1ad7f0de2b6f23f1c15b49119", "fusion_lat": 0.0}, {"lon": -76.98381566666667, "name": "f5058885ba7112db2971052c40e65b75", "is_disabled": 0, "type": "electric_scooter", "is_reserved": 0, "fusion_lon": 0.0, "lat": 38.90652466666667, "rental_uris": {"ios": "https://dc.lft.to/lastmile_qr_scan", "android": "https://dc.lft.to/lastmile_qr_scan"}, "bike_id": "f5058885ba7112db2971052c40e65b75", "fusion_lat": 0.0}, {"lon": -77.02546183333334, "name": "edebd0da76c46cf53de241e9b19eca6f", "is_disabled": 0, "type": "electric_scooter", "is_reserved": 0, "fusion_lon": 0.0, "lat": 38.922458666666664, "rental_uris": {"ios": "https://dc.lft.to/lastmile_qr_scan", "android": "https://dc.lft.to/lastmile_qr_scan"}, "bike_id": "edebd0da76c46cf53de241e9b19eca6f", "fusion_lat": 0.0}, {"lon": -77.02818816666667, "name": "e56dad3837d23d559e24dfde4cf468a8", "is_disabled": 0, "type": "electric_scooter", "is_reserved": 0, "fusion_lon": 0.0, "lat": 38.9069555, "rental_uris": {"ios": "https://dc.lft.to/lastmile_qr_scan", "android": "https://dc.lft.to/lastmile_qr_scan"}, "bike_id": "e56dad3837d23d559e24dfde4cf468a8", "fusion_lat": 0.0}, {"lon": -76.98601933333333, "name": "b13cf50e923b7f269cdc99444c6d2f22", "is_disabled": 0, "type": "electric_scooter", "is_reserved": 0, "fusion_lon": 0.0, "lat": 38.906567333333335, "rental_uris": {"ios": "https://dc.lft.to/lastmile_qr_scan", "android": "https://dc.lft.to/lastmile_qr_scan"}, "bike_id": "b13cf50e923b7f269cdc99444c6d2f22", "fusion_lat": 0.0}, {"lon": -77.03332516666667, "name": "77aea67c31be409994d81bece9341133", "is_disabled": 0, "type": "electric_scooter", "is_reserved": 0, "fusion_lon": 0.0, "lat": 38.91821233333334, "rental_uris": {"ios": "https://dc.lft.to/lastmile_qr_scan", "android": "https://dc.lft.to/lastmile_qr_scan"}, "bike_id": "77aea67c31be409994d81bece9341133", "fusion_lat": 0.0}, {"lon": -76.9907025, "name": "40751a78df91702e8e31d4ed16749fcf", "is_disabled": 0, "type": "electric_scooter", "is_reserved": 0, "fusion_lon": 0.0, "lat": 38.8562345, "rental_uris": {"ios": "https://dc.lft.to/lastmile_qr_scan", "android": "https://dc.lft.to/lastmile_qr_scan"}, "bike_id": "40751a78df91702e8e31d4ed16749fcf", "fusion_lat": 0.0}, {"lon": -77.032777, "name": "4870e20c2f1ef33d6db20f4d1534fca6", "is_disabled": 0, "type": "electric_scooter", "is_reserved": 0, "fusion_lon": 0.0, "lat": 38.89908916666667, "rental_uris": {"ios": "https://dc.lft.to/lastmile_qr_scan", "android": "https://dc.lft.to/lastmile_qr_scan"}, "bike_id": "4870e20c2f1ef33d6db20f4d1534fca6", "fusion_lat": 0.0}, {"lon": -76.96100433333334, "name": "75dbaf823b02722f41806f85165960a4", "is_disabled": 0, "type": "electric_scooter", "is_reserved": 0, "fusion_lon": 0.0, "lat": 38.892077, "rental_uris": {"ios": "https://dc.lft.to/lastmile_qr_scan", "android": "https://dc.lft.to/lastmile_qr_scan"}, "bike_id": "75dbaf823b02722f41806f85165960a4", "fusion_lat": 0.0}, {"lon": -77.0220595, "name": "cd65d246dec191a16158914c10219099", "is_disabled": 0, "type": "electric_scooter", "is_reserved": 0, "fusion_lon": 0.0, "lat": 38.92463633333333, "rental_uris": {"ios": "https://dc.lft.to/lastmile_qr_scan", "android": "https://dc.lft.to/lastmile_qr_scan"}, "bike_id": "cd65d246dec191a16158914c10219099", "fusion_lat": 0.0}, {"lon": -77.00700433333333, "name": "0aef008744f122ce161678780c386468", "is_disabled": 0, "type": "electric_scooter", "is_reserved": 0, "fusion_lon": 0.0, "lat": 38.90730883333333, "rental_uris": {"ios": "https://dc.lft.to/lastmile_qr_scan", "android": "https://dc.lft.to/lastmile_qr_scan"}, "bike_id": "0aef008744f122ce161678780c386468", "fusion_lat": 0.0}, {"lon": -77.03177066666667, "name": "137d21b44c5d9adcacfdd3428daaed1b", "is_disabled": 0, "type": "electric_scooter", "is_reserved": 0, "fusion_lon": 0.0, "lat": 38.892134, "rental_uris": {"ios": "https://dc.lft.to/lastmile_qr_scan", "android": "https://dc.lft.to/lastmile_qr_scan"}, "bike_id": "137d21b44c5d9adcacfdd3428daaed1b", "fusion_lat": 0.0}, {"lon": -76.9577015, "name": "10d68d4243168b6f860dde8d10532cca", "is_disabled": 0, "type": "electric_scooter", "is_reserved": 0, "fusion_lon": 0.0, "lat": 38.88357766666667, "rental_uris": {"ios": "https://dc.lft.to/lastmile_qr_scan", "android": "https://dc.lft.to/lastmile_qr_scan"}, "bike_id": "10d68d4243168b6f860dde8d10532cca", "fusion_lat": 0.0}, {"lon": -77.02277633333334, "name": "63f3cbac57f99402d69d82bc4f1c6d11", "is_disabled": 0, "type": "electric_scooter", "is_reserved": 0, "fusion_lon": 0.0, "lat": 38.91781133333333, "rental_uris": {"ios": "https://dc.lft.to/lastmile_qr_scan", "android": "https://dc.lft.to/lastmile_qr_scan"}, "bike_id": "63f3cbac57f99402d69d82bc4f1c6d11", "fusion_lat": 0.0}, {"lon": -77.02223783333334, "name": "18d49d325ad59e31b8f7291b36fd0fe7", "is_disabled": 0, "type": "electric_scooter", "is_reserved": 0, "fusion_lon": 0.0, "lat": 38.92481083333333, "rental_uris": {"ios": "https://dc.lft.to/lastmile_qr_scan", "android": "https://dc.lft.to/lastmile_qr_scan"}, "bike_id": "18d49d325ad59e31b8f7291b36fd0fe7", "fusion_lat": 0.0}, {"lon": -77.02795283333333, "name": "f40b8b2e155bc90223782479be5481ae", "is_disabled": 0, "type": "electric_scooter", "is_reserved": 0, "fusion_lon": 0.0, "lat": 38.94179316666666, "rental_uris": {"ios": "https://dc.lft.to/lastmile_qr_scan", "android": "https://dc.lft.to/lastmile_qr_scan"}, "bike_id": "f40b8b2e155bc90223782479be5481ae", "fusion_lat": 0.0}, {"lon": -77.013109, "name": "d2f06dec0a87213ce28c643e6eff31a6", "is_disabled": 0, "type": "electric_scooter", "is_reserved": 0, "fusion_lon": 0.0, "lat": 38.9432685, "rental_uris": {"ios": "https://dc.lft.to/lastmile_qr_scan", "android": "https://dc.lft.to/lastmile_qr_scan"}, "bike_id": "d2f06dec0a87213ce28c643e6eff31a6", "fusion_lat": 0.0}, {"lon": -76.98372133333334, "name": "1b8c72f09dffcd93788282204af714d3", "is_disabled": 0, "type": "electric_scooter", "is_reserved": 0, "fusion_lon": 0.0, "lat": 38.89269783333334, "rental_uris": {"ios": "https://dc.lft.to/lastmile_qr_scan", "android": "https://dc.lft.to/lastmile_qr_scan"}, "bike_id": "1b8c72f09dffcd93788282204af714d3", "fusion_lat": 0.0}, {"lon": -77.0373955, "name": "e61e917f0be9d0f02ca2bce8ac3405ed", "is_disabled": 0, "type": "electric_scooter", "is_reserved": 0, "fusion_lon": 0.0, "lat": 38.911206, "rental_uris": {"ios": "https://dc.lft.to/lastmile_qr_scan", "android": "https://dc.lft.to/lastmile_qr_scan"}, "bike_id": "e61e917f0be9d0f02ca2bce8ac3405ed", "fusion_lat": 0.0}, {"lon": -77.0316655, "name": "78fc3a74a80455fcb7ca6f1f3be05eff", "is_disabled": 0, "type": "electric_scooter", "is_reserved": 0, "fusion_lon": 0.0, "lat": 38.915624, "rental_uris": {"ios": "https://dc.lft.to/lastmile_qr_scan", "android": "https://dc.lft.to/lastmile_qr_scan"}, "bike_id": "78fc3a74a80455fcb7ca6f1f3be05eff", "fusion_lat": 0.0}, {"lon": -77.03166033333333, "name": "bd74d0ecc6c8105db5cd3800c62a079d", "is_disabled": 0, "type": "electric_scooter", "is_reserved": 0, "fusion_lon": 0.0, "lat": 38.915617, "rental_uris": {"ios": "https://dc.lft.to/lastmile_qr_scan", "android": "https://dc.lft.to/lastmile_qr_scan"}, "bike_id": "bd74d0ecc6c8105db5cd3800c62a079d", "fusion_lat": 0.0}, {"lon": -77.02199383333334, "name": "82c22058d9cd7f61af4ee37dce538c81", "is_disabled": 0, "type": "electric_scooter", "is_reserved": 0, "fusion_lon": 0.0, "lat": 38.88606683333333, "rental_uris": {"ios": "https://dc.lft.to/lastmile_qr_scan", "android": "https://dc.lft.to/lastmile_qr_scan"}, "bike_id": "82c22058d9cd7f61af4ee37dce538c81", "fusion_lat": 0.0}, {"lon": -77.02565416666667, "name": "07084632a30680c96e969025b8f7b633", "is_disabled": 0, "type": "electric_scooter", "is_reserved": 0, "fusion_lon": 0.0, "lat": 38.920893166666666, "rental_uris": {"ios": "https://dc.lft.to/lastmile_qr_scan", "android": "https://dc.lft.to/lastmile_qr_scan"}, "bike_id": "07084632a30680c96e969025b8f7b633", "fusion_lat": 0.0}, {"lon": -77.02945483333333, "name": "d781df258d616423f376439ccb60f3c9", "is_disabled": 0, "type": "electric_scooter", "is_reserved": 0, "fusion_lon": 0.0, "lat": 38.93974333333333, "rental_uris": {"ios": "https://dc.lft.to/lastmile_qr_scan", "android": "https://dc.lft.to/lastmile_qr_scan"}, "bike_id": "d781df258d616423f376439ccb60f3c9", "fusion_lat": 0.0}, {"lon": -77.0261185, "name": "b1d536413e4f817ec477026c8282116e", "is_disabled": 0, "type": "electric_scooter", "is_reserved": 0, "fusion_lon": 0.0, "lat": 38.89867783333333, "rental_uris": {"ios": "https://dc.lft.to/lastmile_qr_scan", "android": "https://dc.lft.to/lastmile_qr_scan"}, "bike_id": "b1d536413e4f817ec477026c8282116e", "fusion_lat": 0.0}, {"lon": -77.03499966666666, "name": "8ce2770d0478767396bb66cf33d42e24", "is_disabled": 0, "type": "electric_scooter", "is_reserved": 0, "fusion_lon": 0.0, "lat": 38.91628516666667, "rental_uris": {"ios": "https://dc.lft.to/lastmile_qr_scan", "android": "https://dc.lft.to/lastmile_qr_scan"}, "bike_id": "8ce2770d0478767396bb66cf33d42e24", "fusion_lat": 0.0}, {"lon": -76.98839366666667, "name": "e091bf4a11e1e4297106fc220819267b", "is_disabled": 0, "type": "electric_scooter", "is_reserved": 0, "fusion_lon": 0.0, "lat": 38.90176566666667, "rental_uris": {"ios": "https://dc.lft.to/lastmile_qr_scan", "android": "https://dc.lft.to/lastmile_qr_scan"}, "bike_id": "e091bf4a11e1e4297106fc220819267b", "fusion_lat": 0.0}, {"lon": -77.021491, "name": "bf7dd725ab0675db7571c53e4ec329e6", "is_disabled": 0, "type": "electric_scooter", "is_reserved": 0, "fusion_lon": 0.0, "lat": 38.8793205, "rental_uris": {"ios": "https://dc.lft.to/lastmile_qr_scan", "android": "https://dc.lft.to/lastmile_qr_scan"}, "bike_id": "bf7dd725ab0675db7571c53e4ec329e6", "fusion_lat": 0.0}, {"lon": -77.020378, "name": "13103e7f2b804345d742307f9942f968", "is_disabled": 0, "type": "electric_scooter", "is_reserved": 0, "fusion_lon": 0.0, "lat": 38.90108566666667, "rental_uris": {"ios": "https://dc.lft.to/lastmile_qr_scan", "android": "https://dc.lft.to/lastmile_qr_scan"}, "bike_id": "13103e7f2b804345d742307f9942f968", "fusion_lat": 0.0}, {"lon": -77.022055, "name": "cb3b0f97e2f6bd7662fac49dbcbad60c", "is_disabled": 0, "type": "electric_scooter", "is_reserved": 0, "fusion_lon": 0.0, "lat": 38.92469883333333, "rental_uris": {"ios": "https://dc.lft.to/lastmile_qr_scan", "android": "https://dc.lft.to/lastmile_qr_scan"}, "bike_id": "cb3b0f97e2f6bd7662fac49dbcbad60c", "fusion_lat": 0.0}, {"lon": -76.95127616666667, "name": "34bdc9e55fd9fec2ef5e0adf03a3bcfd", "is_disabled": 0, "type": "electric_bike", "is_reserved": 0, "fusion_lon": 0.0, "lat": 38.95186433333333, "rental_uris": {"ios": "https://dc.lft.to/lastmile_qr_scan", "android": "https://dc.lft.to/lastmile_qr_scan"}, "bike_id": "34bdc9e55fd9fec2ef5e0adf03a3bcfd", "fusion_lat": 0.0}, {"lon": -76.9969475, "name": "9bc4ec186942f58cdb72967ebb1af63a", "is_disabled": 0, "type": "electric_bike", "is_reserved": 0, "fusion_lon": 0.0, "lat": 38.838666, "rental_uris": {"ios": "https://dc.lft.to/lastmile_qr_scan", "android": "https://dc.lft.to/lastmile_qr_scan"}, "bike_id": "9bc4ec186942f58cdb72967ebb1af63a", "fusion_lat": 0.0}, {"lon": -77.02243066666666, "name": "66ff474c30507e0260687d02d6dabfa3", "is_disabled": 0, "type": "electric_scooter", "is_reserved": 0, "fusion_lon": 0.0, "lat": 38.924317333333335, "rental_uris": {"ios": "https://dc.lft.to/lastmile_qr_scan", "android": "https://dc.lft.to/lastmile_qr_scan"}, "bike_id": "66ff474c30507e0260687d02d6dabfa3", "fusion_lat": 0.0}, {"lon": -77.0200345, "name": "57946ed2a6c6c134de7fa2ecca88f889", "is_disabled": 0, "type": "electric_scooter", "is_reserved": 0, "fusion_lon": 0.0, "lat": 38.911023166666666, "rental_uris": {"ios": "https://dc.lft.to/lastmile_qr_scan", "android": "https://dc.lft.to/lastmile_qr_scan"}, "bike_id": "57946ed2a6c6c134de7fa2ecca88f889", "fusion_lat": 0.0}, {"lon": -77.02387066666667, "name": "075e39c177f5fd18a465f6cae69be5eb", "is_disabled": 0, "type": "electric_scooter", "is_reserved": 0, "fusion_lon": 0.0, "lat": 38.915967333333334, "rental_uris": {"ios": "https://dc.lft.to/lastmile_qr_scan", "android": "https://dc.lft.to/lastmile_qr_scan"}, "bike_id": "075e39c177f5fd18a465f6cae69be5eb", "fusion_lat": 0.0}, {"lon": -77.0098505, "name": "310d2fe9bebbccf3d9647fdbc9b0ba88", "is_disabled": 0, "type": "electric_scooter", "is_reserved": 0, "fusion_lon": 0.0, "lat": 38.9140445, "rental_uris": {"ios": "https://dc.lft.to/lastmile_qr_scan", "android": "https://dc.lft.to/lastmile_qr_scan"}, "bike_id": "310d2fe9bebbccf3d9647fdbc9b0ba88", "fusion_lat": 0.0}, {"lon": -76.998506, "name": "dc7dd3c71b4ca5ad6512cd8f60a60f8a", "is_disabled": 0, "type": "electric_scooter", "is_reserved": 0, "fusion_lon": 0.0, "lat": 38.901232, "rental_uris": {"ios": "https://dc.lft.to/lastmile_qr_scan", "android": "https://dc.lft.to/lastmile_qr_scan"}, "bike_id": "dc7dd3c71b4ca5ad6512cd8f60a60f8a", "fusion_lat": 0.0}, {"lon": -77.02508083333333, "name": "9917c1b2768baa3c330fc272a752b8e3", "is_disabled": 0, "type": "electric_scooter", "is_reserved": 0, "fusion_lon": 0.0, "lat": 38.91711333333333, "rental_uris": {"ios": "https://dc.lft.to/lastmile_qr_scan", "android": "https://dc.lft.to/lastmile_qr_scan"}, "bike_id": "9917c1b2768baa3c330fc272a752b8e3", "fusion_lat": 0.0}, {"lon": -77.02317416666666, "name": "943f728b78d09c69380b4654fdb7e6d1", "is_disabled": 0, "type": "electric_scooter", "is_reserved": 0, "fusion_lon": 0.0, "lat": 38.93986183333333, "rental_uris": {"ios": "https://dc.lft.to/lastmile_qr_scan", "android": "https://dc.lft.to/lastmile_qr_scan"}, "bike_id": "943f728b78d09c69380b4654fdb7e6d1", "fusion_lat": 0.0}, {"lon": -77.031692, "name": "145b5daf927728e38ed9d6c28c0f7995", "is_disabled": 0, "type": "electric_scooter", "is_reserved": 0, "fusion_lon": 0.0, "lat": 38.88389816666667, "rental_uris": {"ios": "https://dc.lft.to/lastmile_qr_scan", "android": "https://dc.lft.to/lastmile_qr_scan"}, "bike_id": "145b5daf927728e38ed9d6c28c0f7995", "fusion_lat": 0.0}, {"lon": -76.9956335, "name": "e1db9b37f62ae39a6f0e449fca477e2c", "is_disabled": 0, "type": "electric_scooter", "is_reserved": 0, "fusion_lon": 0.0, "lat": 38.95070833333333, "rental_uris": {"ios": "https://dc.lft.to/lastmile_qr_scan", "android": "https://dc.lft.to/lastmile_qr_scan"}, "bike_id": "e1db9b37f62ae39a6f0e449fca477e2c", "fusion_lat": 0.0}, {"lon": -77.037909, "name": "e0e10928a91b9ab4e66f145d31104e07", "is_disabled": 0, "type": "electric_scooter", "is_reserved": 0, "fusion_lon": 0.0, "lat": 38.92543533333333, "rental_uris": {"ios": "https://dc.lft.to/lastmile_qr_scan", "android": "https://dc.lft.to/lastmile_qr_scan"}, "bike_id": "e0e10928a91b9ab4e66f145d31104e07", "fusion_lat": 0.0}, {"lon": -77.018042, "name": "3b218ef7da7f7d0c304f7b2b76ca576e", "is_disabled": 0, "type": "electric_scooter", "is_reserved": 0, "fusion_lon": 0.0, "lat": 38.914033, "rental_uris": {"ios": "https://dc.lft.to/lastmile_qr_scan", "android": "https://dc.lft.to/lastmile_qr_scan"}, "bike_id": "3b218ef7da7f7d0c304f7b2b76ca576e", "fusion_lat": 0.0}, {"lon": -77.03240033333333, "name": "06f81873426f59ea29010833db226a00", "is_disabled": 0, "type": "electric_scooter", "is_reserved": 0, "fusion_lon": 0.0, "lat": 38.902838333333335, "rental_uris": {"ios": "https://dc.lft.to/lastmile_qr_scan", "android": "https://dc.lft.to/lastmile_qr_scan"}, "bike_id": "06f81873426f59ea29010833db226a00", "fusion_lat": 0.0}, {"lon": -77.0505935, "name": "5f4a10a4df3239967465480f999cd92c", "is_disabled": 0, "type": "electric_scooter", "is_reserved": 0, "fusion_lon": 0.0, "lat": 38.90081416666666, "rental_uris": {"ios": "https://dc.lft.to/lastmile_qr_scan", "android": "https://dc.lft.to/lastmile_qr_scan"}, "bike_id": "5f4a10a4df3239967465480f999cd92c", "fusion_lat": 0.0}, {"lon": -76.92632116666667, "name": "f1c14a57c4d659df20caf7b04fc95757", "is_disabled": 0, "type": "electric_scooter", "is_reserved": 0, "fusion_lon": 0.0, "lat": 38.886224, "rental_uris": {"ios": "https://dc.lft.to/lastmile_qr_scan", "android": "https://dc.lft.to/lastmile_qr_scan"}, "bike_id": "f1c14a57c4d659df20caf7b04fc95757", "fusion_lat": 0.0}, {"lon": -77.00900716666666, "name": "bdba719a871cda3f11b4290d59291e6b", "is_disabled": 0, "type": "electric_scooter", "is_reserved": 0, "fusion_lon": 0.0, "lat": 38.90975366666667, "rental_uris": {"ios": "https://dc.lft.to/lastmile_qr_scan", "android": "https://dc.lft.to/lastmile_qr_scan"}, "bike_id": "bdba719a871cda3f11b4290d59291e6b", "fusion_lat": 0.0}, {"lon": -77.06654833333333, "name": "2a093fd691a9f7516a75def59d55dd74", "is_disabled": 0, "type": "electric_scooter", "is_reserved": 0, "fusion_lon": 0.0, "lat": 38.906862, "rental_uris": {"ios": "https://dc.lft.to/lastmile_qr_scan", "android": "https://dc.lft.to/lastmile_qr_scan"}, "bike_id": "2a093fd691a9f7516a75def59d55dd74", "fusion_lat": 0.0}, {"lon": -77.04073166666667, "name": "1d20db04abd2468f512de1af867fdd01", "is_disabled": 0, "type": "electric_scooter", "is_reserved": 0, "fusion_lon": 0.0, "lat": 38.923825666666666, "rental_uris": {"ios": "https://dc.lft.to/lastmile_qr_scan", "android": "https://dc.lft.to/lastmile_qr_scan"}, "bike_id": "1d20db04abd2468f512de1af867fdd01", "fusion_lat": 0.0}, {"lon": -76.98377633333334, "name": "e54eb45211f8acf753c9803bd3709ffc", "is_disabled": 0, "type": "electric_scooter", "is_reserved": 0, "fusion_lon": 0.0, "lat": 38.8872555, "rental_uris": {"ios": "https://dc.lft.to/lastmile_qr_scan", "android": "https://dc.lft.to/lastmile_qr_scan"}, "bike_id": "e54eb45211f8acf753c9803bd3709ffc", "fusion_lat": 0.0}, {"lon": -77.0285765, "name": "965ed0fc587fab8d3804868e731d5c99", "is_disabled": 0, "type": "electric_scooter", "is_reserved": 0, "fusion_lon": 0.0, "lat": 38.9085895, "rental_uris": {"ios": "https://dc.lft.to/lastmile_qr_scan", "android": "https://dc.lft.to/lastmile_qr_scan"}, "bike_id": "965ed0fc587fab8d3804868e731d5c99", "fusion_lat": 0.0}, {"lon": -77.05744683333333, "name": "b94a5d4b45d5595f80a9f02364a7e4b6", "is_disabled": 0, "type": "electric_scooter", "is_reserved": 0, "fusion_lon": 0.0, "lat": 38.92867066666667, "rental_uris": {"ios": "https://dc.lft.to/lastmile_qr_scan", "android": "https://dc.lft.to/lastmile_qr_scan"}, "bike_id": "b94a5d4b45d5595f80a9f02364a7e4b6", "fusion_lat": 0.0}, {"lon": -76.986172, "name": "5c7e853f3333d6f795c06e12993e9990", "is_disabled": 0, "type": "electric_scooter", "is_reserved": 0, "fusion_lon": 0.0, "lat": 38.905798833333336, "rental_uris": {"ios": "https://dc.lft.to/lastmile_qr_scan", "android": "https://dc.lft.to/lastmile_qr_scan"}, "bike_id": "5c7e853f3333d6f795c06e12993e9990", "fusion_lat": 0.0}, {"lon": -77.0423285, "name": "b9069c32a1c9313de3dad6889a3561f4", "is_disabled": 0, "type": "electric_scooter", "is_reserved": 0, "fusion_lon": 0.0, "lat": 38.921808666666664, "rental_uris": {"ios": "https://dc.lft.to/lastmile_qr_scan", "android": "https://dc.lft.to/lastmile_qr_scan"}, "bike_id": "b9069c32a1c9313de3dad6889a3561f4", "fusion_lat": 0.0}, {"lon": -77.00952, "name": "2dde03f8535cc964fb9c8eaf4ca7507c", "is_disabled": 0, "type": "electric_scooter", "is_reserved": 0, "fusion_lon": 0.0, "lat": 38.907317, "rental_uris": {"ios": "https://dc.lft.to/lastmile_qr_scan", "android": "https://dc.lft.to/lastmile_qr_scan"}, "bike_id": "2dde03f8535cc964fb9c8eaf4ca7507c", "fusion_lat": 0.0}, {"lon": -77.02107133333334, "name": "c4f23e1cdbd7ff90e5518d3a061ae49a", "is_disabled": 0, "type": "electric_scooter", "is_reserved": 0, "fusion_lon": 0.0, "lat": 38.9217245, "rental_uris": {"ios": "https://dc.lft.to/lastmile_qr_scan", "android": "https://dc.lft.to/lastmile_qr_scan"}, "bike_id": "c4f23e1cdbd7ff90e5518d3a061ae49a", "fusion_lat": 0.0}, {"lon": -77.05520466666667, "name": "6bdd9a37547973536c1e91403bc81b68", "is_disabled": 0, "type": "electric_scooter", "is_reserved": 0, "fusion_lon": 0.0, "lat": 38.9105505, "rental_uris": {"ios": "https://dc.lft.to/lastmile_qr_scan", "android": "https://dc.lft.to/lastmile_qr_scan"}, "bike_id": "6bdd9a37547973536c1e91403bc81b68", "fusion_lat": 0.0}, {"lon": -77.00055016666667, "name": "8de6eeec67cd1bcc3bf98f3ce4829c1d", "is_disabled": 0, "type": "electric_scooter", "is_reserved": 0, "fusion_lon": 0.0, "lat": 38.874979333333336, "rental_uris": {"ios": "https://dc.lft.to/lastmile_qr_scan", "android": "https://dc.lft.to/lastmile_qr_scan"}, "bike_id": "8de6eeec67cd1bcc3bf98f3ce4829c1d", "fusion_lat": 0.0}, {"lon": -77.0270815, "name": "7724b3d024d2bddc010562ea6a5ceb9c", "is_disabled": 0, "type": "electric_scooter", "is_reserved": 0, "fusion_lon": 0.0, "lat": 38.927716, "rental_uris": {"ios": "https://dc.lft.to/lastmile_qr_scan", "android": "https://dc.lft.to/lastmile_qr_scan"}, "bike_id": "7724b3d024d2bddc010562ea6a5ceb9c", "fusion_lat": 0.0}, {"lon": -76.98361116666666, "name": "948522785c8564c7b4e2518d47c6a31e", "is_disabled": 0, "type": "electric_scooter", "is_reserved": 0, "fusion_lon": 0.0, "lat": 38.89158483333333, "rental_uris": {"ios": "https://dc.lft.to/lastmile_qr_scan", "android": "https://dc.lft.to/lastmile_qr_scan"}, "bike_id": "948522785c8564c7b4e2518d47c6a31e", "fusion_lat": 0.0}, {"lon": -77.0408425, "name": "b46eb31b3201ac1c8372d324b46d453d", "is_disabled": 0, "type": "electric_scooter", "is_reserved": 0, "fusion_lon": 0.0, "lat": 38.90516866666667, "rental_uris": {"ios": "https://dc.lft.to/lastmile_qr_scan", "android": "https://dc.lft.to/lastmile_qr_scan"}, "bike_id": "b46eb31b3201ac1c8372d324b46d453d", "fusion_lat": 0.0}, {"lon": -77.02299633333334, "name": "b86a9f6429a2c34a32527648bf6b3573", "is_disabled": 0, "type": "electric_scooter", "is_reserved": 0, "fusion_lon": 0.0, "lat": 38.89061016666667, "rental_uris": {"ios": "https://dc.lft.to/lastmile_qr_scan", "android": "https://dc.lft.to/lastmile_qr_scan"}, "bike_id": "b86a9f6429a2c34a32527648bf6b3573", "fusion_lat": 0.0}, {"lon": -77.02597933333334, "name": "47722048299c6cc47a5fa0701c2d600d", "is_disabled": 0, "type": "electric_scooter", "is_reserved": 0, "fusion_lon": 0.0, "lat": 38.918908, "rental_uris": {"ios": "https://dc.lft.to/lastmile_qr_scan", "android": "https://dc.lft.to/lastmile_qr_scan"}, "bike_id": "47722048299c6cc47a5fa0701c2d600d", "fusion_lat": 0.0}, {"lon": -77.0185825, "name": "05f805c2743fd830327f71dc3959d6bf", "is_disabled": 0, "type": "electric_scooter", "is_reserved": 0, "fusion_lon": 0.0, "lat": 38.94927966666667, "rental_uris": {"ios": "https://dc.lft.to/lastmile_qr_scan", "android": "https://dc.lft.to/lastmile_qr_scan"}, "bike_id": "05f805c2743fd830327f71dc3959d6bf", "fusion_lat": 0.0}, {"lon": -77.043273, "name": "49eab298eb1bf9ad316ea1aa27805476", "is_disabled": 0, "type": "electric_scooter", "is_reserved": 0, "fusion_lon": 0.0, "lat": 38.92619083333334, "rental_uris": {"ios": "https://dc.lft.to/lastmile_qr_scan", "android": "https://dc.lft.to/lastmile_qr_scan"}, "bike_id": "49eab298eb1bf9ad316ea1aa27805476", "fusion_lat": 0.0}, {"lon": -76.98570016666666, "name": "83b8a8182a102c0cc74dfcd0b90e5020", "is_disabled": 0, "type": "electric_scooter", "is_reserved": 0, "fusion_lon": 0.0, "lat": 38.89623266666667, "rental_uris": {"ios": "https://dc.lft.to/lastmile_qr_scan", "android": "https://dc.lft.to/lastmile_qr_scan"}, "bike_id": "83b8a8182a102c0cc74dfcd0b90e5020", "fusion_lat": 0.0},