{"data": {"bikes": [{"lat": 38.93700116666667, "type": "electric_scooter", "is_disabled": 0, "name": "112c352029cb0dab86b64503f64cf736", "bike_id": "112c352029cb0dab86b64503f64cf736", "fusion_lon": 0.0, "rental_uris": {"ios": "https://dc.lft.to/lastmile_qr_scan", "android": "https://dc.lft.to/lastmile_qr_scan"}, "is_reserved": 0, "fusion_lat": 0.0, "lon": -77.05599533333333}, {"lat": 38.92245783333333, "type": "electric_scooter", "is_disabled": 0, "name": "f27f823a38aa444ccc2226df6372623e", "bike_id": "f27f823a38aa444ccc2226df6372623e", "fusion_lon": 0.0, "rental_uris": {"ios": "https://dc.lft.to/lastmile_qr_scan", "android": "https://dc.lft.to/lastmile_qr_scan"}, "is_reserved": 0, "fusion_lat": 0.0, "lon": -77.03147633333333}, {"lat": 38.9275955, "type": "electric_scooter", "is_disabled": 0, "name": "6334b5ce35765977f237f6a2165263ab", "bike_id": "6334b5ce35765977f237f6a2165263ab", "fusion_lon": 0.0, "rental_uris": {"ios": "https://dc.lft.to/lastmile_qr_scan", "android": "https://dc.lft.to/lastmile_qr_scan"}, "is_reserved": 0, "fusion_lat": 0.0, "lon": -77.03211866666666}, {"lat": 38.924677833333334, "type": "electric_scooter", "is_disabled": 0, "name": "22ab2a27f756149475a7115741a3e1d9", "bike_id": "22ab2a27f756149475a7115741a3e1d9", "fusion_lon": 0.0, "rental_uris": {"ios": "https://dc.lft.to/lastmile_qr_scan", "android": "https://dc.lft.to/lastmile_qr_scan"}, "is_reserved": 0, "fusion_lat": 0.0, "lon": -77.02216433333334}, {"lat": 38.92104283333333, "type": "electric_scooter", "is_disabled": 0, "name": "cf59846871ab7301f4584e1553fdc0ed", "bike_id": "cf59846871ab7301f4584e1553fdc0ed", "fusion_lon": 0.0, "rental_uris": {"ios": "https://dc.lft.to/lastmile_qr_scan", "android": "https://dc.lft.to/lastmile_qr_scan"}, "is_reserved": 0, "fusion_lat": 0.0, "lon": -77.03660833333333}, {"lat": 38.88774, "type": "electric_scooter", "is_disabled": 0, "name": "632b50e2a5bc032381142b8958ea289e", "bike_id": "632b50e2a5bc032381142b8958ea289e", "fusion_lon": 0.0, "rental_uris": {"ios": "https://dc.lft.to/lastmile_qr_scan", "android": "https://dc.lft.to/lastmile_qr_scan"}, "is_reserved": 0, "fusion_lat": 0.0, "lon": -76.932615}, {"lat": 38.900325, "type": "electric_scooter", "is_disabled": 0, "name": "f56d15c6b5158d5cc47dcf6df84fc5fb", "bike_id": "f56d15c6b5158d5cc47dcf6df84fc5fb", "fusion_lon": 0.0, "rental_uris": {"ios": "https://dc.lft.to/lastmile_qr_scan", "android": "https://dc.lft.to/lastmile_qr_scan"}, "is_reserved": 0, "fusion_lat": 0.0, "lon": -77.01184983333333}, {"lat": 38.8848875, "type": "electric_scooter", "is_disabled": 0, "name": "11d167cac888d374794ae8597b7c4092", "bike_id": "11d167cac888d374794ae8597b7c4092", "fusion_lon": 0.0, "rental_uris": {"ios": "https://dc.lft.to/lastmile_qr_scan", "android": "https://dc.lft.to/lastmile_qr_scan"}, "is_reserved": 0, "fusion_lat": 0.0, "lon": -77.01587516666666}, {"lat": 38.898348666666664, "type": "electric_bike", "is_disabled": 0, "name": "00a85fe909e1ce9f328e0b1401647d1b", "bike_id": "00a85fe909e1ce9f328e0b1401647d1b", "fusion_lon": 0.0, "rental_uris": {"ios": "https://dc.lft.to/lastmile_qr_scan", "android": "https://dc.lft.to/lastmile_qr_scan"}, "is_reserved": 0, "fusion_lat": 0.0, "lon": -77.0246965}, {"lat": 38.884120333333335, "type": "electric_bike", "is_disabled": 0, "name": "004e92b3aaedd16b632302ce916d4f82", "bike_id": "004e92b3aaedd16b632302ce916d4f82", "fusion_lon": 0.0, "rental_uris": {"ios": "https://dc.lft.to/lastmile_qr_scan", "android": "https://dc.lft.to/lastmile_qr_scan"}, "is_reserved": 0, "fusion_lat": 0.0, "lon": -77.026436}, {"lat": 38.9321445, "type": "electric_scooter", "is_disabled": 0, "name": "e20874683e014341a8529405e6e0aea0", "bike_id": "e20874683e014341a8529405e6e0aea0", "fusion_lon": 0.0, "rental_uris": {"ios": "https://dc.lft.to/lastmile_qr_scan", "android": "https://dc.lft.to/lastmile_qr_scan"}, "is_reserved": 0, "fusion_lat": 0.0, "lon": -77.03858416666667}, {"lat": 38.8959455, "type": "electric_scooter", "is_disabled": 0, "name": "4226b720bacbb108b3e45b897e1142ec", "bike_id": "4226b720bacbb108b3e45b897e1142ec", "fusion_lon": 0.0, "rental_uris": {"ios": "https://dc.lft.to/lastmile_qr_scan", "android": "https://dc.lft.to/lastmile_qr_scan"}, "is_reserved": 0, "fusion_lat": 0.0, "lon": -77.04808}, {"lat": 38.913324333333335, "type": "electric_scooter", "is_disabled": 0, "name": "c91913ec6ba11f628cb6004b197d2aa5", "bike_id": "c91913ec6ba11f628cb6004b197d2aa5", "fusion_lon": 0.0, "rental_uris": {"ios": "https://dc.lft.to/lastmile_qr_scan", "android": "https://dc.lft.to/lastmile_qr_scan"}, "is_reserved": 0, "fusion_lat": 0.0, "lon": -77.04537566666667}, {"lat": 38.897416, "type": "electric_scooter", "is_disabled": 0, "name": "85b1f8cd9e33047dc5ea76a1aa05fa81", "bike_id": "85b1f8cd9e33047dc5ea76a1aa05fa81", "fusion_lon": 0.0, "rental_uris": {"ios": "https://dc.lft.to/lastmile_qr_scan", "android": "https://dc.lft.to/lastmile_qr_scan"}, "is_reserved": 0, "fusion_lat": 0.0, "lon": -77.02443066666666}, {"lat": 38.901844, "type": "electric_scooter", "is_disabled": 0, "name": "2e16474d9f13473ed969b592727b5ac4", "bike_id": "2e16474d9f13473ed969b592727b5ac4", "fusion_lon": 0.0, "rental_uris": {"ios": "https://dc.lft.to/lastmile_qr_scan", "android": "https://dc.lft.to/lastmile_qr_scan"}, "is_reserved": 0, "fusion_lat": 0.0, "lon": -77.0220195}, {"lat": 38.89225016666666, "type": "electric_scooter", "is_disabled": 0, "name": "75fa080ef4761c5708da232d76f50628", "bike_id": "75fa080ef4761c5708da232d76f50628", "fusion_lon": 0.0, "rental_uris": {"ios": "https://dc.lft.to/lastmile_qr_scan", "android": "https://dc.lft.to/lastmile_qr_scan"}, "is_reserved": 0, "fusion_lat": 0.0, "lon": -77.04643833333333}, {"lat": 38.887102666666664, "type": "electric_scooter", "is_disabled": 0, "name": "342f223ae01b8f12b45aa5e629f3556e", "bike_id": "342f223ae01b8f12b45aa5e629f3556e", "fusion_lon": 0.0, "rental_uris": {"ios": "https://dc.lft.to/lastmile_qr_scan", "android": "https://dc.lft.to/lastmile_qr_scan"}, "is_reserved": 0, "fusion_lat": 0.0, "lon": -77.0218965}, {"lat": 38.90341016666667, "type": "electric_scooter", "is_disabled": 0, "name": "4505b653e72dc7323cde32db8f4355a9", "bike_id": "4505b653e72dc7323cde32db8f4355a9", "fusion_lon": 0.0, "rental_uris": {"ios": "https://dc.lft.to/lastmile_qr_scan", "android": "https://dc.lft.to/lastmile_qr_scan"}, "is_reserved": 0, "fusion_lat": 0.0, "lon": -77.05297283333333}, {"lat": 38.90292683333333, "type": "electric_scooter", "is_disabled": 0, "name": "adf8f78b301496d533e4a424d8bdc6b3", "bike_id": "adf8f78b301496d533e4a424d8bdc6b3", "fusion_lon": 0.0, "rental_uris": {"ios": "https://dc.lft.to/lastmile_qr_scan", "android": "https://dc.lft.to/lastmile_qr_scan"}, "is_reserved": 0, "fusion_lat": 0.0, "lon": -77.0384425}, {"lat": 38.92889683333333, "type": "electric_scooter", "is_disabled": 0, "name": "a2aa5585f3749c512ae026e6e5308a2b", "bike_id": "a2aa5585f3749c512ae026e6e5308a2b", "fusion_lon": 0.0, "rental_uris": {"ios": "https://dc.lft.to/lastmile_qr_scan", "android": "https://dc.lft.to/lastmile_qr_scan"}, "is_reserved": 0, "fusion_lat": 0.0, "lon": -77.0324305}, {"lat": 38.98938233333333, "type": "electric_bike", "is_disabled": 0, "name": "bbf9d2053c8f5644d2fb23911a30e353", "bike_id": "bbf9d2053c8f5644d2fb23911a30e353", "fusion_lon": 0.0, "rental_uris": {"ios": "https://dc.lft.to/lastmile_qr_scan", "android": "https://dc.lft.to/lastmile_qr_scan"}, "is_reserved": 0, "fusion_lat": 0.0, "lon": -77.1010545}, {"lat": 38.9196905, "type": "electric_scooter", "is_disabled": 0, "name": "52344726097438f0a2ddd2d09669a945", "bike_id": "52344726097438f0a2ddd2d09669a945", "fusion_lon": 0.0, "rental_uris": {"ios": "https://dc.lft.to/lastmile_qr_scan", "android": "https://dc.lft.to/lastmile_qr_scan"}, "is_reserved": 0, "fusion_lat": 0.0, "lon": -77.01883566666666}, {"lat": 38.923748, "type": "electric_scooter", "is_disabled": 0, "name": "2095db107c74df5f9478251fc4fafe29", "bike_id": "2095db107c74df5f9478251fc4fafe29", "fusion_lon": 0.0, "rental_uris": {"ios": "https://dc.lft.to/lastmile_qr_scan", "android": "https://dc.lft.to/lastmile_qr_scan"}, "is_reserved": 0, "fusion_lat": 0.0, "lon": -77.01914566666666}, {"lat": 38.89960583333333, "type": "electric_scooter", "is_disabled": 0, "name": "4f3ad2a19d125d688e8ffcd66092351f", "bike_id": "4f3ad2a19d125d688e8ffcd66092351f", "fusion_lon": 0.0, "rental_uris": {"ios": "https://dc.lft.to/lastmile_qr_scan", "android": "https://dc.lft.to/lastmile_qr_scan"}, "is_reserved": 0, "fusion_lat": 0.0, "lon": -77.04507966666667}, {"lat": 38.899635, "type": "electric_scooter", "is_disabled": 0, "name": "ae48794d89879693053b7303ca65a9d0", "bike_id": "ae48794d89879693053b7303ca65a9d0", "fusion_lon": 0.0, "rental_uris": {"ios": "https://dc.lft.to/lastmile_qr_scan", "android": "https://dc.lft.to/lastmile_qr_scan"}, "is_reserved": 0, "fusion_lat": 0.0, "lon": -77.020215}, {"lat": 38.90786533333333, "type": "electric_scooter", "is_disabled": 0, "name": "3e09126107af0a5334ca658d4b724bb5", "bike_id": "3e09126107af0a5334ca658d4b724bb5", "fusion_lon": 0.0, "rental_uris": {"ios": "https://dc.lft.to/lastmile_qr_scan", "android": "https://dc.lft.to/lastmile_qr_scan"}, "is_reserved": 0, "fusion_lat": 0.0, "lon": -76.997167}, {"lat": 38.90203566666667, "type": "electric_scooter", "is_disabled": 0, "name": "9de8b1d395a945f6e07873a86f8f7c94", "bike_id": "9de8b1d395a945f6e07873a86f8f7c94", "fusion_lon": 0.0, "rental_uris": {"ios": "https://dc.lft.to/lastmile_qr_scan", "android": "https://dc.lft.to/lastmile_qr_scan"}, "is_reserved": 0, "fusion_lat": 0.0, "lon": -77.05023266666667}, {"lat": 38.897599666666665, "type": "electric_scooter", "is_disabled": 0, "name": "887e02e7000df96241e8864a3c8dd473", "bike_id": "887e02e7000df96241e8864a3c8dd473", "fusion_lon": 0.0, "rental_uris": {"ios": "https://dc.lft.to/lastmile_qr_scan", "android": "https://dc.lft.to/lastmile_qr_scan"}, "is_reserved": 0, "fusion_lat": 0.0, "lon": -77.02864783333334}, {"lat": 38.92595416666666, "type": "electric_scooter", "is_disabled": 0, "name": "36ad4b674bbdfbf2ac25b03b83e87d68", "bike_id": "36ad4b674bbdfbf2ac25b03b83e87d68", "fusion_lon": 0.0, "rental_uris": {"ios": "https://dc.lft.to/lastmile_qr_scan", "android": "https://dc.lft.to/lastmile_qr_scan"}, "is_reserved": 0, "fusion_lat": 0.0, "lon": -77.00918533333333}, {"lat": 38.91638483333333, "type": "electric_scooter", "is_disabled": 0, "name": "1abd482fd99c50cab52b56d87151db23", "bike_id": "1abd482fd99c50cab52b56d87151db23", "fusion_lon": 0.0, "rental_uris": {"ios": "https://dc.lft.to/lastmile_qr_scan", "android": "https://dc.lft.to/lastmile_qr_scan"}, "is_reserved": 0, "fusion_lat": 0.0, "lon": -77.04579516666666}, {"lat": 38.90245766666666, "type": "electric_scooter", "is_disabled": 0, "name": "e0c712cf7155204343d8a44893bae511", "bike_id": "e0c712cf7155204343d8a44893bae511", "fusion_lon": 0.0, "rental_uris": {"ios": "https://dc.lft.to/lastmile_qr_scan", "android": "https://dc.lft.to/lastmile_qr_scan"}, "is_reserved": 0, "fusion_lat": 0.0, "lon": -77.02659066666666}, {"lat": 38.93627883333333, "type": "electric_scooter", "is_disabled": 0, "name": "2a0a7de3cfc4039a4b8fcbbe2c363b97", "bike_id": "2a0a7de3cfc4039a4b8fcbbe2c363b97", "fusion_lon": 0.0, "rental_uris": {"ios": "https://dc.lft.to/lastmile_qr_scan", "android": "https://dc.lft.to/lastmile_qr_scan"}, "is_reserved": 0, "fusion_lat": 0.0, "lon": -77.064278}, {"lat": 38.896149666666666, "type": "electric_scooter", "is_disabled": 0, "name": "af0a5d22e398710b0ed60972f4f60ae6", "bike_id": "af0a5d22e398710b0ed60972f4f60ae6", "fusion_lon": 0.0, "rental_uris": {"ios": "https://dc.lft.to/lastmile_qr_scan", "android": "https://dc.lft.to/lastmile_qr_scan"}, "is_reserved": 0, "fusion_lat": 0.0, "lon": -77.04406666666667}, {"lat": 38.892271, "type": "electric_scooter", "is_disabled": 0, "name": "3970ed782ad0f597d1236b4a62f3de8d", "bike_id": "3970ed782ad0f597d1236b4a62f3de8d", "fusion_lon": 0.0, "rental_uris": {"ios": "https://dc.lft.to/lastmile_qr_scan", "android": "https://dc.lft.to/lastmile_qr_scan"}, "is_reserved": 0, "fusion_lat": 0.0, "lon": -77.044711}, {"lat": 38.92962283333333, "type": "electric_scooter", "is_disabled": 0, "name": "ed05ead0071d7306332a03b0ffa5c268", "bike_id": "ed05ead0071d7306332a03b0ffa5c268", "fusion_lon": 0.0, "rental_uris": {"ios": "https://dc.lft.to/lastmile_qr_scan", "android": "https://dc.lft.to/lastmile_qr_scan"}, "is_reserved": 0, "fusion_lat": 0.0, "lon": -77.01148783333333}, {"lat": 38.962292833333336, "type": "electric_scooter", "is_disabled": 0, "name": "09562b1797ef116b39515267f3de9973", "bike_id": "09562b1797ef116b39515267f3de9973", "fusion_lon": 0.0, "rental_uris": {"ios": "https://dc.lft.to/lastmile_qr_scan", "android": "https://dc.lft.to/lastmile_qr_scan"}, "is_reserved": 0, "fusion_lat": 0.0, "lon": -77.01362933333333}, {"lat": 38.9026465, "type": "electric_scooter", "is_disabled": 0, "name": "036e197e2fdb64552f63a630f41ae66b", "bike_id": "036e197e2fdb64552f63a630f41ae66b", "fusion_lon": 0.0, "rental_uris": {"ios": "https://dc.lft.to/lastmile_qr_scan", "android": "https://dc.lft.to/lastmile_qr_scan"}, "is_reserved": 0, "fusion_lat": 0.0, "lon": -77.045949}, {"lat": 38.902786166666665, "type": "electric_scooter", "is_disabled": 0, "name": "91e2aac5b01f86076f54f011aa359553", "bike_id": "91e2aac5b01f86076f54f011aa359553", "fusion_lon": 0.0, "rental_uris": {"ios": "https://dc.lft.to/lastmile_qr_scan", "android": "https://dc.lft.to/lastmile_qr_scan"}, "is_reserved": 0, "fusion_lat": 0.0, "lon": -77.03213033333333}, {"lat": 38.928000833333336, "type": "electric_scooter", "is_disabled": 0, "name": "a7057c8f14414b9f8ee3dd918b4c9184", "bike_id": "a7057c8f14414b9f8ee3dd918b4c9184", "fusion_lon": 0.0, "rental_uris": {"ios": "https://dc.lft.to/lastmile_qr_scan", "android": "https://dc.lft.to/lastmile_qr_scan"}, "is_reserved": 0, "fusion_lat": 0.0, "lon": -77.015563}, {"lat": 38.78466233333333, "type": "electric_bike", "is_disabled": 0, "name": "928e7d79f45ea95c8aed9ba91186f1a2", "bike_id": "928e7d79f45ea95c8aed9ba91186f1a2", "fusion_lon": 0.0, "rental_uris": {"ios": "https://dc.lft.to/lastmile_qr_scan", "android": "https://dc.lft.to/lastmile_qr_scan"}, "is_reserved": 0, "fusion_lat": 0.0, "lon": -77.0543855}, {"lat": 38.90949766666667, "type": "electric_scooter", "is_disabled": 0, "name": "9247944b28b595de37910fba051698ee", "bike_id": "9247944b28b595de37910fba051698ee", "fusion_lon": 0.0, "rental_uris": {"ios": "https://dc.lft.to/lastmile_qr_scan", "android": "https://dc.lft.to/lastmile_qr_scan"}, "is_reserved": 0, "fusion_lat": 0.0, "lon": -77.015291}, {"lat": 38.92144033333334, "type": "electric_scooter", "is_disabled": 0, "name": "be902db760b3cfbf8edf94c8af716e9f", "bike_id": "be902db760b3cfbf8edf94c8af716e9f", "fusion_lon": 0.0, "rental_uris": {"ios": "https://dc.lft.to/lastmile_qr_scan", "android": "https://dc.lft.to/lastmile_qr_scan"}, "is_reserved": 0, "fusion_lat": 0.0, "lon": -77.01840116666666}, {"lat": 38.901333666666666, "type": "electric_scooter", "is_disabled": 0, "name": "38a577c97a304994a83b43e8651837a0", "bike_id": "38a577c97a304994a83b43e8651837a0", "fusion_lon": 0.0, "rental_uris": {"ios": "https://dc.lft.to/lastmile_qr_scan", "android": "https://dc.lft.to/lastmile_qr_scan"}, "is_reserved": 0, "fusion_lat": 0.0, "lon": -77.02188016666666}, {"lat": 38.84066083333333, "type": "electric_bike", "is_disabled": 0, "name": "9d127c94b94b0f2fc665458d99a73c99", "bike_id": "9d127c94b94b0f2fc665458d99a73c99", "fusion_lon": 0.0, "rental_uris": {"ios": "https://dc.lft.to/lastmile_qr_scan", "android": "https://dc.lft.to/lastmile_qr_scan"}, "is_reserved": 0, "fusion_lat": 0.0, "lon": -76.9758685}, {"lat": 38.8955925, "type": "electric_scooter", "is_disabled": 0, "name": "40e47bcb70d35e7218c6ab00e2936dde", "bike_id": "40e47bcb70d35e7218c6ab00e2936dde", "fusion_lon": 0.0, "rental_uris": {"ios": "https://dc.lft.to/lastmile_qr_scan", "android": "https://dc.lft.to/lastmile_qr_scan"}, "is_reserved": 0, "fusion_lat": 0.0, "lon": -77.00916566666666}, {"lat": 38.9043295, "type": "electric_scooter", "is_disabled": 0, "name": "0f3ebdb88c5ccc0931113f57669e9f3a", "bike_id": "0f3ebdb88c5ccc0931113f57669e9f3a", "fusion_lon": 0.0, "rental_uris": {"ios": "https://dc.lft.to/lastmile_qr_scan", "android": "https://dc.lft.to/lastmile_qr_scan"}, "is_reserved": 0, "fusion_lat": 0.0, "lon": -77.03270716666667}, {"lat": 38.89607383333333, "type": "electric_scooter", "is_disabled": 0, "name": "17c59e716473771bddb5032d91b0a8ac", "bike_id": "17c59e716473771bddb5032d91b0a8ac", "fusion_lon": 0.0, "rental_uris": {"ios": "https://dc.lft.to/lastmile_qr_scan", "android": "https://dc.lft.to/lastmile_qr_scan"}, "is_reserved": 0, "fusion_lat": 0.0, "lon": -77.0237955}, {"lat": 38.9233765, "type": "electric_scooter", "is_disabled": 0, "name": "bf1f8c577a51e4b95bdbaac5d00afba3", "bike_id": "bf1f8c577a51e4b95bdbaac5d00afba3", "fusion_lon": 0.0, "rental_uris": {"ios": "https://dc.lft.to/lastmile_qr_scan", "android": "https://dc.lft.to/lastmile_qr_scan"}, "is_reserved": 0, "fusion_lat": 0.0, "lon": -77.05680433333333}, {"lat": 38.91369366666667, "type": "electric_scooter", "is_disabled": 0, "name": "b3d8e91f2465d19ec386d504b9a9c481", "bike_id": "b3d8e91f2465d19ec386d504b9a9c481", "fusion_lon": 0.0, "rental_uris": {"ios": "https://dc.lft.to/lastmile_qr_scan", "android": "https://dc.lft.to/lastmile_qr_scan"}, "is_reserved": 0, "fusion_lat": 0.0, "lon": -77.09193433333333}, {"lat": 38.89983383333333, "type": "electric_scooter", "is_disabled": 0, "name": "101cd50e61be08f61bc194e748a71d65", "bike_id": "101cd50e61be08f61bc194e748a71d65", "fusion_lon": 0.0, "rental_uris": {"ios": "https://dc.lft.to/lastmile_qr_scan", "android": "https://dc.lft.to/lastmile_qr_scan"}, "is_reserved": 0, "fusion_lat": 0.0, "lon": -77.04193983333333}, {"lat": 38.922462833333334, "type": "electric_scooter", "is_disabled": 0, "name": "87288cbf5b596f56e34074a642c6709f", "bike_id": "87288cbf5b596f56e34074a642c6709f", "fusion_lon": 0.0, "rental_uris": {"ios": "https://dc.lft.to/lastmile_qr_scan", "android": "https://dc.lft.to/lastmile_qr_scan"}, "is_reserved": 0, "fusion_lat": 0.0, "lon": -77.030731}, {"lat": 38.92368283333333, "type": "electric_scooter", "is_disabled": 0, "name": "c27ad7a169a2f0623db51d85ea469f1f", "bike_id": "c27ad7a169a2f0623db51d85ea469f1f", "fusion_lon": 0.0, "rental_uris": {"ios": "https://dc.lft.to/lastmile_qr_scan", "android": "https://dc.lft.to/lastmile_qr_scan"}, "is_reserved": 0, "fusion_lat": 0.0, "lon": -77.019563}, {"lat": 38.8959645, "type": "electric_scooter", "is_disabled": 0, "name": "7b06fbd331ded0abcd151c12b6fdc1c8", "bike_id": "7b06fbd331ded0abcd151c12b6fdc1c8", "fusion_lon": 0.0, "rental_uris": {"ios": "https://dc.lft.to/lastmile_qr_scan", "android": "https://dc.lft.to/lastmile_qr_scan"}, "is_reserved": 0, "fusion_lat": 0.0, "lon": -77.0266705}, {"lat": 38.924861666666665, "type": "electric_scooter", "is_disabled": 0, "name": "6373f2c38638b912faf1bb52ec15dd69", "bike_id": "6373f2c38638b912faf1bb52ec15dd69", "fusion_lon": 0.0, "rental_uris": {"ios": "https://dc.lft.to/lastmile_qr_scan", "android": "https://dc.lft.to/lastmile_qr_scan"}, "is_reserved": 0, "fusion_lat": 0.0, "lon": -77.021439}, {"lat": 38.9042125, "type": "electric_scooter", "is_disabled": 0, "name": "2bb4104a0a1c781439e35b80d5c7279c", "bike_id": "2bb4104a0a1c781439e35b80d5c7279c", "fusion_lon": 0.0, "rental_uris": {"ios": "https://dc.lft.to/lastmile_qr_scan", "android": "https://dc.lft.to/lastmile_qr_scan"}, "is_reserved": 0, "fusion_lat": 0.0, "lon": -77.03277516666667}, {"lat": 38.924691833333334, "type": "electric_scooter", "is_disabled": 0, "name": "bb08fc465a2a12efc0c13ef562f53316", "bike_id": "bb08fc465a2a12efc0c13ef562f53316", "fusion_lon": 0.0, "rental_uris": {"ios": "https://dc.lft.to/lastmile_qr_scan", "android": "https://dc.lft.to/lastmile_qr_scan"}, "is_reserved": 0, "fusion_lat": 0.0, "lon": -77.030061}, {"lat": 38.93598216666667, "type": "electric_scooter", "is_disabled": 0, "name": "36c863b3538bf7657d56c7ed80d2ed3b", "bike_id": "36c863b3538bf7657d56c7ed80d2ed3b", "fusion_lon": 0.0, "rental_uris": {"ios": "https://dc.lft.to/lastmile_qr_scan", "android": "https://dc.lft.to/lastmile_qr_scan"}, "is_reserved": 0, "fusion_lat": 0.0, "lon": -77.05885783333333}, {"lat": 38.88733916666666, "type": "electric_scooter", "is_disabled": 0, "name": "54dc7fe760d0dfc18e57f1ecf504dd8f", "bike_id": "54dc7fe760d0dfc18e57f1ecf504dd8f", "fusion_lon": 0.0, "rental_uris": {"ios": "https://dc.lft.to/lastmile_qr_scan", "android": "https://dc.lft.to/lastmile_qr_scan"}, "is_reserved": 0, "fusion_lat": 0.0, "lon": -77.01388766666666}, {"lat": 38.924423166666664, "type": "electric_scooter", "is_disabled": 0, "name": "a2c07dc2cac9652a0d5e3d657a4a906c", "bike_id": "a2c07dc2cac9652a0d5e3d657a4a906c", "fusion_lon": 0.0, "rental_uris": {"ios": "https://dc.lft.to/lastmile_qr_scan", "android": "https://dc.lft.to/lastmile_qr_scan"}, "is_reserved": 0, "fusion_lat": 0.0, "lon": -77.02034433333333}, {"lat": 38.9033265, "type": "electric_scooter", "is_disabled": 0, "name": "7cffa495851c4798b5a5b89bd0aa102f", "bike_id": "7cffa495851c4798b5a5b89bd0aa102f", "fusion_lon": 0.0, "rental_uris": {"ios": "https://dc.lft.to/lastmile_qr_scan", "android": "https://dc.lft.to/lastmile_qr_scan"}, "is_reserved": 0, "fusion_lat": 0.0, "lon": -77.024705}, {"lat": 38.89494966666667, "type": "electric_scooter", "is_disabled": 0, "name": "977e9076e06682259eef7039c48fc621", "bike_id": "977e9076e06682259eef7039c48fc621", "fusion_lon": 0.0, "rental_uris": {"ios": "https://dc.lft.to/lastmile_qr_scan", "android": "https://dc.lft.to/lastmile_qr_scan"}, "is_reserved": 0, "fusion_lat": 0.0, "lon": -76.9489145}, {"lat": 38.888417, "type": "electric_scooter", "is_disabled": 0, "name": "a914a057a02c9a8b6f1ade9ef6260ab3", "bike_id": "a914a057a02c9a8b6f1ade9ef6260ab3", "fusion_lon": 0.0, "rental_uris": {"ios": "https://dc.lft.to/lastmile_qr_scan", "android": "https://dc.lft.to/lastmile_qr_scan"}, "is_reserved": 0, "fusion_lat": 0.0, "lon": -76.9772045}, {"lat": 38.93464266666667, "type": "electric_scooter", "is_disabled": 0, "name": "c51e044d83ec91a4de799073d9381942", "bike_id": "c51e044d83ec91a4de799073d9381942", "fusion_lon": 0.0, "rental_uris": {"ios": "https://dc.lft.to/lastmile_qr_scan", "android": "https://dc.lft.to/lastmile_qr_scan"}, "is_reserved": 0, "fusion_lat": 0.0, "lon": -77.058071}, {"lat": 38.95118133333333, "type": "electric_bike", "is_disabled": 0, "name": "b3c91e7c732daa31e76b75ed410b6f74", "bike_id": "b3c91e7c732daa31e76b75ed410b6f74", "fusion_lon": 0.0, "rental_uris": {"ios": "https://dc.lft.to/lastmile_qr_scan", "android": "https://dc.lft.to/lastmile_qr_scan"}, "is_reserved": 0, "fusion_lat": 0.0, "lon": -77.08869583333333}, {"lat": 38.90647716666667, "type": "electric_scooter", "is_disabled": 0, "name": "8f4e548ccd5f66ac39782fa935c4637f", "bike_id": "8f4e548ccd5f66ac39782fa935c4637f", "fusion_lon": 0.0, "rental_uris": {"ios": "https://dc.lft.to/lastmile_qr_scan", "android": "https://dc.lft.to/lastmile_qr_scan"}, "is_reserved": 0, "fusion_lat": 0.0, "lon": -77.05313783333334}, {"lat": 38.9286035, "type": "electric_bike", "is_disabled": 0, "name": "5aa3fa2b29a6c1515af470fb41ba5b46", "bike_id": "5aa3fa2b29a6c1515af470fb41ba5b46", "fusion_lon": 0.0, "rental_uris": {"ios": "https://dc.lft.to/lastmile_qr_scan", "android": "https://dc.lft.to/lastmile_qr_scan"}, "is_reserved": 0, "fusion_lat": 0.0, "lon": -76.99010583333333}, {"lat": 38.906851333333336, "type": "electric_scooter", "is_disabled": 0, "name": "74169a249b8295f930a7cdfdb7b78981", "bike_id": "74169a249b8295f930a7cdfdb7b78981", "fusion_lon": 0.0, "rental_uris": {"ios": "https://dc.lft.to/lastmile_qr_scan", "android": "https://dc.lft.to/lastmile_qr_scan"}, "is_reserved": 0, "fusion_lat": 0.0, "lon": -77.02698716666667}, {"lat": 38.92451066666667, "type": "electric_scooter", "is_disabled": 0, "name": "81d7499d19e7d28d56ecf24eb15edc5b", "bike_id": "81d7499d19e7d28d56ecf24eb15edc5b", "fusion_lon": 0.0, "rental_uris": {"ios": "https://dc.lft.to/lastmile_qr_scan", "android": "https://dc.lft.to/lastmile_qr_scan"}, "is_reserved": 0, "fusion_lat": 0.0, "lon": -77.0402865}, {"lat": 38.96420583333333, "type": "electric_scooter", "is_disabled": 0, "name": "f895d255eeee706bfc4c3fff484e2c59", "bike_id": "f895d255eeee706bfc4c3fff484e2c59", "fusion_lon": 0.0, "rental_uris": {"ios": "https://dc.lft.to/lastmile_qr_scan", "android": "https://dc.lft.to/lastmile_qr_scan"}, "is_reserved": 0, "fusion_lat": 0.0, "lon": -77.03253333333333}, {"lat": 38.92117616666667, "type": "electric_bike", "is_disabled": 0, "name": "8074c626c759ecb8b0df7c080c467bbf", "bike_id": "8074c626c759ecb8b0df7c080c467bbf", "fusion_lon": 0.0, "rental_uris": {"ios": "https://dc.lft.to/lastmile_qr_scan", "android": "https://dc.lft.to/lastmile_qr_scan"}, "is_reserved": 0, "fusion_lat": 0.0, "lon": -76.98881233333333}, {"lat": 38.90275616666667, "type": "electric_scooter", "is_disabled": 0, "name": "792d66c71fc82741a84b7b7f12cb0dad", "bike_id": "792d66c71fc82741a84b7b7f12cb0dad", "fusion_lon": 0.0, "rental_uris": {"ios": "https://dc.lft.to/lastmile_qr_scan", "android": "https://dc.lft.to/lastmile_qr_scan"}, "is_reserved": 0, "fusion_lat": 0.0, "lon": -77.03884583333334}, {"lat": 38.90226883333333, "type": "electric_scooter", "is_disabled": 0, "name": "5fb6572481a34cf3b79f5f19959ff8da", "bike_id": "5fb6572481a34cf3b79f5f19959ff8da", "fusion_lon": 0.0, "rental_uris": {"ios": "https://dc.lft.to/lastmile_qr_scan", "android": "https://dc.lft.to/lastmile_qr_scan"}, "is_reserved": 0, "fusion_lat": 0.0, "lon": -77.0242185}, {"lat": 38.916891, "type": "electric_scooter", "is_disabled": 0, "name": "c88e474fd3c6f8ec1fd987d8db6add70", "bike_id": "c88e474fd3c6f8ec1fd987d8db6add70", "fusion_lon": 0.0, "rental_uris": {"ios": "https://dc.lft.to/lastmile_qr_scan", "android": "https://dc.lft.to/lastmile_qr_scan"}, "is_reserved": 0, "fusion_lat": 0.0, "lon": -77.02956116666667}, {"lat": 38.91290333333333, "type": "electric_scooter", "is_disabled": 0, "name": "9df0d46afb200f6a15ad96ff16bc95fb", "bike_id": "9df0d46afb200f6a15ad96ff16bc95fb", "fusion_lon": 0.0, "rental_uris": {"ios": "https://dc.lft.to/lastmile_qr_scan", "android": "https://dc.lft.to/lastmile_qr_scan"}, "is_reserved": 0, "fusion_lat": 0.0, "lon": -77.03199}, {"lat": 38.913525, "type": "electric_scooter", "is_disabled": 0, "name": "5b335004b3c9096f1567d99584da14eb", "bike_id": "5b335004b3c9096f1567d99584da14eb", "fusion_lon": 0.0, "rental_uris": {"ios": "https://dc.lft.to/lastmile_qr_scan", "android": "https://dc.lft.to/lastmile_qr_scan"}, "is_reserved": 0, "fusion_lat": 0.0, "lon": -77.03183666666666}, {"lat": 38.926029, "type": "electric_scooter", "is_disabled": 0, "name": "e952ea46f5eedf8e4acb23eeb959c7fc", "bike_id": "e952ea46f5eedf8e4acb23eeb959c7fc", "fusion_lon": 0.0, "rental_uris": {"ios": "https://dc.lft.to/lastmile_qr_scan", "android": "https://dc.lft.to/lastmile_qr_scan"}, "is_reserved": 0, "fusion_lat": 0.0, "lon": -77.0215355}, {"lat": 38.9208615, "type": "electric_scooter", "is_disabled": 0, "name": "a68ddc99a405104c74b387e1bca0f4d4", "bike_id": "a68ddc99a405104c74b387e1bca0f4d4", "fusion_lon": 0.0, "rental_uris": {"ios": "https://dc.lft.to/lastmile_qr_scan", "android": "https://dc.lft.to/lastmile_qr_scan"}, "is_reserved": 0, "fusion_lat": 0.0, "lon": -77.02534583333333}, {"lat": 38.8936745, "type": "electric_scooter", "is_disabled": 0, "name": "fcd87f3329d04080327c249c8b7ddd82", "bike_id": "fcd87f3329d04080327c249c8b7ddd82", "fusion_lon": 0.0, "rental_uris": {"ios": "https://dc.lft.to/lastmile_qr_scan", "android": "https://dc.lft.to/lastmile_qr_scan"}, "is_reserved": 0, "fusion_lat": 0.0, "lon": -77.00335583333333}, {"lat": 38.9192565, "type": "electric_scooter", "is_disabled": 0, "name": "d8b9ecf86e38887319c518d282ca9599", "bike_id": "d8b9ecf86e38887319c518d282ca9599", "fusion_lon": 0.0, "rental_uris": {"ios": "https://dc.lft.to/lastmile_qr_scan", "android": "https://dc.lft.to/lastmile_qr_scan"}, "is_reserved": 0, "fusion_lat": 0.0, "lon": -77.078952}, {"lat": 38.8974515, "type": "electric_scooter", "is_disabled": 0, "name": "fa83d35c2154eef993f52a561f99c92e", "bike_id": "fa83d35c2154eef993f52a561f99c92e", "fusion_lon": 0.0, "rental_uris": {"ios": "https://dc.lft.to/lastmile_qr_scan", "android": "https://dc.lft.to/lastmile_qr_scan"}, "is_reserved": 0, "fusion_lat": 0.0, "lon": -77.03124966666667}, {"lat": 38.92241666666666, "type": "electric_scooter", "is_disabled": 0, "name": "0eb4f2056dc283767bc7d13e3a051b60", "bike_id": "0eb4f2056dc283767bc7d13e3a051b60", "fusion_lon": 0.0, "rental_uris": {"ios": "https://dc.lft.to/lastmile_qr_scan", "android": "https://dc.lft.to/lastmile_qr_scan"}, "is_reserved": 0, "fusion_lat": 0.0, "lon": -77.028499}, {"lat": 38.902085666666665, "type": "electric_scooter", "is_disabled": 0, "name": "bb23a0b280b9bece670eec171b1b88c4", "bike_id": "bb23a0b280b9bece670eec171b1b88c4", "fusion_lon": 0.0, "rental_uris": {"ios": "https://dc.lft.to/lastmile_qr_scan", "android": "https://dc.lft.to/lastmile_qr_scan"}, "is_reserved": 0, "fusion_lat": 0.0, "lon": -77.0225145}, {"lat": 38.9445495, "type": "electric_scooter", "is_disabled": 0, "name": "aeb81417d2104938780a4c80b6a7d0da", "bike_id": "aeb81417d2104938780a4c80b6a7d0da", "fusion_lon": 0.0, "rental_uris": {"ios": "https://dc.lft.to/lastmile_qr_scan", "android": "https://dc.lft.to/lastmile_qr_scan"}, "is_reserved": 0, "fusion_lat": 0.0, "lon": -77.06362333333334}, {"lat": 38.90195716666667, "type": "electric_scooter", "is_disabled": 0, "name": "fcde3b6fe2ca4354bf44ac0b998ba8d5", "bike_id": "fcde3b6fe2ca4354bf44ac0b998ba8d5", "fusion_lon": 0.0, "rental_uris": {"ios": "https://dc.lft.to/lastmile_qr_scan", "android": "https://dc.lft.to/lastmile_qr_scan"}, "is_reserved": 0, "fusion_lat": 0.0, "lon": -77.04511583333333}, {"lat": 38.877187666666664, "type": "electric_scooter", "is_disabled": 0, "name": "9f327f45ba48e40f6a7f7944f3bae1dc", "bike_id": "9f327f45ba48e40f6a7f7944f3bae1dc", "fusion_lon": 0.0, "rental_uris": {"ios": "https://dc.lft.to/lastmile_qr_scan", "android": "https://dc.lft.to/lastmile_qr_scan"}, "is_reserved": 0, "fusion_lat": 0.0, "lon": -77.0164765}, {"lat": 38.90031333333334, "type": "electric_scooter", "is_disabled": 0, "name": "d428f367608361752206ce89803defd4", "bike_id": "d428f367608361752206ce89803defd4", "fusion_lon": 0.0, "rental_uris": {"ios": "https://dc.lft.to/lastmile_qr_scan", "android": "https://dc.lft.to/lastmile_qr_scan"}, "is_reserved": 0, "fusion_lat": 0.0, "lon": -77.04092733333333}, {"lat": 38.929642666666666, "type": "electric_scooter", "is_disabled": 0, "name": "867f660d2cd51ee750a4d5239d55dd39", "bike_id": "867f660d2cd51ee750a4d5239d55dd39", "fusion_lon": 0.0, "rental_uris": {"ios": "https://dc.lft.to/lastmile_qr_scan", "android": "https://dc.lft.to/lastmile_qr_scan"}, "is_reserved": 0, "fusion_lat": 0.0, "lon": -77.04201833333333}, {"lat": 38.8946675, "type": "electric_scooter", "is_disabled": 0, "name": "87f079e7ffe65de353eb81bd18386f6e", "bike_id": "87f079e7ffe65de353eb81bd18386f6e", "fusion_lon": 0.0, "rental_uris": {"ios": "https://dc.lft.to/lastmile_qr_scan", "android": "https://dc.lft.to/lastmile_qr_scan"}, "is_reserved": 0, "fusion_lat": 0.0, "lon": -76.9970665}, {"lat": 39.08433466666666, "type": "electric_bike", "is_disabled": 0, "name": "ee6edd0818a648278c33f2b349164598", "bike_id": "ee6edd0818a648278c33f2b349164598", "fusion_lon": 0.0, "rental_uris": {"ios": "https://dc.lft.to/lastmile_qr_scan", "android": "https://dc.lft.to/lastmile_qr_scan"}, "is_reserved": 0, "fusion_lat": 0.0, "lon": -76.9514685}, {"lat": 38.886620666666666, "type": "electric_scooter", "is_disabled": 0, "name": "e280ef43758c97af5afe6da55cd7172b", "bike_id": "e280ef43758c97af5afe6da55cd7172b", "fusion_lon": 0.0, "rental_uris": {"ios": "https://dc.lft.to/lastmile_qr_scan", "android": "https://dc.lft.to/lastmile_qr_scan"}, "is_reserved": 0, "fusion_lat": 0.0, "lon": -76.9367335}, {"lat": 38.92159566666667, "type": "electric_scooter", "is_disabled": 0, "name": "7c7c77f668021d9b366eed9ce8e0efa7", "bike_id": "7c7c77f668021d9b366eed9ce8e0efa7", "fusion_lon": 0.0, "rental_uris": {"ios": "https://dc.lft.to/lastmile_qr_scan", "android": "https://dc.lft.to/lastmile_qr_scan"}, "is_reserved": 0, "fusion_lat": 0.0, "lon": -77.02080466666666}, {"lat": 38.898396, "type": "electric_scooter", "is_disabled": 0, "name": "b5c485720b112f3d864d2cf8b1ff04d6", "bike_id": "b5c485720b112f3d864d2cf8b1ff04d6", "fusion_lon": 0.0, "rental_uris": {"ios": "https://dc.lft.to/lastmile_qr_scan", "android": "https://dc.lft.to/lastmile_qr_scan"}, "is_reserved": 0, "fusion_lat": 0.0, "lon": -77.0436895}, {"lat": 38.924682833333335, "type": "electric_scooter", "is_disabled": 0, "name": "9df07e9c6131ef750441c2b424cb53d6", "bike_id": "9df07e9c6131ef750441c2b424cb53d6", "fusion_lon": 0.0, "rental_uris": {"ios": "https://dc.lft.to/lastmile_qr_scan", "android": "https://dc.lft.to/lastmile_qr_scan"}, "is_reserved": 0, "fusion_lat": 0.0, "lon": -77.02213333333333}, {"lat": 38.91929483333333, "type": "electric_scooter", "is_disabled": 0, "name": "181b65b448e2a0dc130156a2abc49c80", "bike_id": "181b65b448e2a0dc130156a2abc49c80", "fusion_lon": 0.0, "rental_uris": {"ios": "https://dc.lft.to/lastmile_qr_scan", "android": "https://dc.lft.to/lastmile_qr_scan"}, "is_reserved": 0, "fusion_lat": 0.0, "lon": -77.00995316666666}, {"lat": 38.920419, "type": "electric_scooter", "is_disabled": 0, "name": "e1c12748a5d60fbc301b3416f3cbf224", "bike_id": "e1c12748a5d60fbc301b3416f3cbf224", "fusion_lon": 0.0, "rental_uris": {"ios": "https://dc.lft.to/lastmile_qr_scan", "android": "https://dc.lft.to/lastmile_qr_scan"}, "is_reserved": 0, "fusion_lat": 0.0, "lon": -77.017299}, {"lat": 38.9207225, "type": "electric_scooter", "is_disabled": 0, "name": "5f905396bb36fde7b799dbf7d0edab34", "bike_id": "5f905396bb36fde7b799dbf7d0edab34", "fusion_lon": 0.0, "rental_uris": {"ios": "https://dc.lft.to/lastmile_qr_scan", "android": "https://dc.lft.to/lastmile_qr_scan"}, "is_reserved": 0, "fusion_lat": 0.0, "lon": -77.04554333333333}, {"lat": 38.90874, "type": "electric_scooter", "is_disabled": 0, "name": "d2db0d8b76106356ffee86922ee302c0", "bike_id": "d2db0d8b76106356ffee86922ee302c0", "fusion_lon": 0.0, "rental_uris": {"ios": "https://dc.lft.to/lastmile_qr_scan", "android": "https://dc.lft.to/lastmile_qr_scan"}, "is_reserved": 0, "fusion_lat": 0.0, "lon": -77.07166983333333}, {"lat": 38.88399666666667, "type": "electric_scooter", "is_disabled": 0, "name": "bba6a672fb2b8b30a63c9b4119ce822b", "bike_id": "bba6a672fb2b8b30a63c9b4119ce822b", "fusion_lon": 0.0, "rental_uris": {"ios": "https://dc.lft.to/lastmile_qr_scan", "android": "https://dc.lft.to/lastmile_qr_scan"}, "is_reserved": 0, "fusion_lat": 0.0, "lon": -76.93044}, {"lat": 38.88235366666667, "type": "electric_scooter", "is_disabled": 0, "name": "be8483e12bd5d89366227a42f7a37202", "bike_id": "be8483e12bd5d89366227a42f7a37202", "fusion_lon": 0.0, "rental_uris": {"ios": "https://dc.lft.to/lastmile_qr_scan", "android": "https://dc.lft.to/lastmile_qr_scan"}, "is_reserved": 0, "fusion_lat": 0.0, "lon": -76.9949545}, {"lat": 38.9260375, "type": "electric_scooter", "is_disabled": 0, "name": "cda59ecae896c5857274ec666b133944", "bike_id": "cda59ecae896c5857274ec666b133944", "fusion_lon": 0.0, "rental_uris": {"ios": "https://dc.lft.to/lastmile_qr_scan", "android": "https://dc.lft.to/lastmile_qr_scan"}, "is_reserved": 0, "fusion_lat": 0.0, "lon": -77.02158183333333}, {"lat": 38.91953183333333, "type": "electric_scooter", "is_disabled": 0, "name": "13cfc528cf33dadd114d0de096bb939f", "bike_id": "13cfc528cf33dadd114d0de096bb939f", "fusion_lon": 0.0, "rental_uris": {"ios": "https://dc.lft.to/lastmile_qr_scan", "android": "https://dc.lft.to/lastmile_qr_scan"}, "is_reserved": 0, "fusion_lat": 0.0, "lon": -77.02182116666667}, {"lat": 38.9213365, "type": "electric_scooter", "is_disabled": 0, "name": "f179e61be12dc19f05ace73fa1cb67ca", "bike_id": "f179e61be12dc19f05ace73fa1cb67ca", "fusion_lon": 0.0, "rental_uris": {"ios": "https://dc.lft.to/lastmile_qr_scan", "android": "https://dc.lft.to/lastmile_qr_scan"}, "is_reserved": 0, "fusion_lat": 0.0, "lon": -77.01167566666666}, {"lat": 38.918584833333334, "type": "electric_scooter", "is_disabled": 0, "name": "0a5bde3410f4c3c11be680796c19f537", "bike_id": "0a5bde3410f4c3c11be680796c19f537", "fusion_lon": 0.0, "rental_uris": {"ios": "https://dc.lft.to/lastmile_qr_scan", "android": "https://dc.lft.to/lastmile_qr_scan"}, "is_reserved": 0, "fusion_lat": 0.0, "lon": -77.02527233333333}, {"lat": 38.91692533333333, "type": "electric_scooter", "is_disabled": 0, "name": "dcd655601558475fe060da3cf73092c9", "bike_id": "dcd655601558475fe060da3cf73092c9", "fusion_lon": 0.0, "rental_uris": {"ios": "https://dc.lft.to/lastmile_qr_scan", "android": "https://dc.lft.to/lastmile_qr_scan"}, "is_reserved": 0, "fusion_lat": 0.0, "lon": -77.02890333333333}, {"lat": 38.945450666666666, "type": "electric_bike", "is_disabled": 0, "name": "5dfe98ffa8ea2c53ef934ccb25f1722d", "bike_id": "5dfe98ffa8ea2c53ef934ccb25f1722d", "fusion_lon": 0.0, "rental_uris": {"ios": "https://dc.lft.to/lastmile_qr_scan", "android": "https://dc.lft.to/lastmile_qr_scan"}, "is_reserved": 0, "fusion_lat": 0.0, "lon": -77.34463516666666}, {"lat": 38.924577, "type": "electric_scooter", "is_disabled": 0, "name": "a062cd605e83a555f07d373dd673c585", "bike_id": "a062cd605e83a555f07d373dd673c585", "fusion_lon": 0.0, "rental_uris": {"ios": "https://dc.lft.to/lastmile_qr_scan", "android": "https://dc.lft.to/lastmile_qr_scan"}, "is_reserved": 0, "fusion_lat": 0.0, "lon": -76.99916966666666}, {"lat": 38.8649365, "type": "electric_bike", "is_disabled": 0, "name": "439b77c70710c20c87076d3b1bd1eb66", "bike_id": "439b77c70710c20c87076d3b1bd1eb66", "fusion_lon": 0.0, "rental_uris": {"ios": "https://dc.lft.to/lastmile_qr_scan", "android": "https://dc.lft.to/lastmile_qr_scan"}, "is_reserved": 0, "fusion_lat": 0.0, "lon": -76.977473}, {"lat": 38.898831333333334, "type": "electric_scooter", "is_disabled": 0, "name": "3571a3daaef1c5d06862a8af997dc6d5", "bike_id": "3571a3daaef1c5d06862a8af997dc6d5", "fusion_lon": 0.0, "rental_uris": {"ios": "https://dc.lft.to/lastmile_qr_scan", "android": "https://dc.lft.to/lastmile_qr_scan"}, "is_reserved": 0, "fusion_lat": 0.0, "lon": -76.98006266666667}, {"lat": 38.8987775, "type": "electric_scooter", "is_disabled": 0, "name": "b4c29e58493e5a6b41e6fc03b7482682", "bike_id": "b4c29e58493e5a6b41e6fc03b7482682", "fusion_lon": 0.0, "rental_uris": {"ios": "https://dc.lft.to/lastmile_qr_scan", "android": "https://dc.lft.to/lastmile_qr_scan"}, "is_reserved": 0, "fusion_lat": 0.0, "lon": -77.02784016666666}, {"lat": 38.92158366666666, "type": "electric_scooter", "is_disabled": 0, "name": "515ed052319f997a2951d28ba469c80a", "bike_id": "515ed052319f997a2951d28ba469c80a", "fusion_lon": 0.0, "rental_uris": {"ios": "https://dc.lft.to/lastmile_qr_scan", "android": "https://dc.lft.to/lastmile_qr_scan"}, "is_reserved": 0, "fusion_lat": 0.0, "lon": -77.02095866666667}, {"lat": 38.90297483333333, "type": "electric_scooter", "is_disabled": 0, "name": "b8aa2430ee2c94558caa244749c33040", "bike_id": "b8aa2430ee2c94558caa244749c33040", "fusion_lon": 0.0, "rental_uris": {"ios": "https://dc.lft.to/lastmile_qr_scan", "android": "https://dc.lft.to/lastmile_qr_scan"}, "is_reserved": 0, "fusion_lat": 0.0, "lon": -77.03356266666667}, {"lat": 38.926713666666664, "type": "electric_scooter", "is_disabled": 0, "name": "4329f116ae056c140ddaa69221ab3582", "bike_id": "4329f116ae056c140ddaa69221ab3582", "fusion_lon": 0.0, "rental_uris": {"ios": "https://dc.lft.to/lastmile_qr_scan", "android": "https://dc.lft.to/lastmile_qr_scan"}, "is_reserved": 0, "fusion_lat": 0.0, "lon": -77.05438466666666}, {"lat": 38.92338983333333, "type": "electric_scooter", "is_disabled": 0, "name": "eff77f7bed62f29a0186b61bdf172351", "bike_id": "eff77f7bed62f29a0186b61bdf172351", "fusion_lon": 0.0, "rental_uris": {"ios": "https://dc.lft.to/lastmile_qr_scan", "android": "https://dc.lft.to/lastmile_qr_scan"}, "is_reserved": 0, "fusion_lat": 0.0, "lon": -77.02152183333334}, {"lat": 38.91660383333333, "type": "electric_scooter", "is_disabled": 0, "name": "2ab17b82958005239df0d8057a30cbb0", "bike_id": "2ab17b82958005239df0d8057a30cbb0", "fusion_lon": 0.0, "rental_uris": {"ios": "https://dc.lft.to/lastmile_qr_scan", "android": "https://dc.lft.to/lastmile_qr_scan"}, "is_reserved": 0, "fusion_lat": 0.0, "lon": -77.03209416666667}, {"lat": 38.91642616666667, "type": "electric_scooter", "is_disabled": 0, "name": "7eee7c246332b038740588d1b10b62f7", "bike_id": "7eee7c246332b038740588d1b10b62f7", "fusion_lon": 0.0, "rental_uris": {"ios": "https://dc.lft.to/lastmile_qr_scan", "android": "https://dc.lft.to/lastmile_qr_scan"}, "is_reserved": 0, "fusion_lat": 0.0, "lon": -77.06946733333334}, {"lat": 38.9078785, "type": "electric_scooter", "is_disabled": 0, "name": "2f4a7323a2db29c731bf78e37875091e", "bike_id": "2f4a7323a2db29c731bf78e37875091e", "fusion_lon": 0.0, "rental_uris": {"ios": "https://dc.lft.to/lastmile_qr_scan", "android": "https://dc.lft.to/lastmile_qr_scan"}, "is_reserved": 0, "fusion_lat": 0.0, "lon": -77.0320115}, {"lat": 38.911309, "type": "electric_scooter", "is_disabled": 0, "name": "fdc9b4ce65e000cc453d15a243d8b6b1", "bike_id": "fdc9b4ce65e000cc453d15a243d8b6b1", "fusion_lon": 0.0, "rental_uris": {"ios": "https://dc.lft.to/lastmile_qr_scan", "android": "https://dc.lft.to/lastmile_qr_scan"}, "is_reserved": 0, "fusion_lat": 0.0, "lon": -77.04414683333333}, {"lat": 38.937048, "type": "electric_scooter", "is_disabled": 0, "name": "cb03f427d5322bf0e063fb38e3e47c26", "bike_id": "cb03f427d5322bf0e063fb38e3e47c26", "fusion_lon": 0.0, "rental_uris": {"ios": "https://dc.lft.to/lastmile_qr_scan", "android": "https://dc.lft.to/lastmile_qr_scan"}, "is_reserved": 0, "fusion_lat": 0.0, "lon": -77.03280283333334}, {"lat": 38.88743566666667, "type": "electric_scooter", "is_disabled": 0, "name": "985eaf11f9d0191674ac3a35ad8db198", "bike_id": "985eaf11f9d0191674ac3a35ad8db198", "fusion_lon": 0.0, "rental_uris": {"ios": "https://dc.lft.to/lastmile_qr_scan", "android": "https://dc.lft.to/lastmile_qr_scan"}, "is_reserved": 0, "fusion_lat": 0.0, "lon": -76.996431}, {"lat": 38.92301466666667, "type": "electric_scooter", "is_disabled": 0, "name": "d8d4eef3eee5c48c2b45e9c8e37a467a", "bike_id": "d8d4eef3eee5c48c2b45e9c8e37a467a", "fusion_lon": 0.0, "rental_uris": {"ios": "https://dc.lft.to/lastmile_qr_scan", "android": "https://dc.lft.to/lastmile_qr_scan"}, "is_reserved": 0, "fusion_lat": 0.0, "lon": -76.997728}, {"lat": 38.92939533333333, "type": "electric_scooter", "is_disabled": 0, "name": "97f8d940c3b8d57e50bde2ce24d95534", "bike_id": "97f8d940c3b8d57e50bde2ce24d95534", "fusion_lon": 0.0, "rental_uris": {"ios": "https://dc.lft.to/lastmile_qr_scan", "android": "https://dc.lft.to/lastmile_qr_scan"}, "is_reserved": 0, "fusion_lat": 0.0, "lon": -77.03275316666667}, {"lat": 38.9249505, "type": "electric_scooter", "is_disabled": 0, "name": "24399705cd213a0395f2584b82519aaf", "bike_id": "24399705cd213a0395f2584b82519aaf", "fusion_lon": 0.0, "rental_uris": {"ios": "https://dc.lft.to/lastmile_qr_scan", "android": "https://dc.lft.to/lastmile_qr_scan"}, "is_reserved": 0, "fusion_lat": 0.0, "lon": -77.03912016666666}, {"lat": 38.924968666666665, "type": "electric_scooter", "is_disabled": 0, "name": "fa734a7d565876121299c22c829418be", "bike_id": "fa734a7d565876121299c22c829418be", "fusion_lon": 0.0, "rental_uris": {"ios": "https://dc.lft.to/lastmile_qr_scan", "android": "https://dc.lft.to/lastmile_qr_scan"}, "is_reserved": 0, "fusion_lat": 0.0, "lon": -77.03937316666666}, {"lat": 38.93193616666667, "type": "electric_scooter", "is_disabled": 0, "name": "85ce157c7c649f9004265e3450043d80", "bike_id": "85ce157c7c649f9004265e3450043d80", "fusion_lon": 0.0, "rental_uris": {"ios": "https://dc.lft.to/lastmile_qr_scan", "android": "https://dc.lft.to/lastmile_qr_scan"}, "is_reserved": 0, "fusion_lat": 0.0, "lon": -77.028345}, {"lat": 38.89620166666667, "type": "electric_scooter", "is_disabled": 0, "name": "6e3f5ff572113d6fa9fc06f1eac15a45", "bike_id": "6e3f5ff572113d6fa9fc06f1eac15a45", "fusion_lon": 0.0, "rental_uris": {"ios": "https://dc.lft.to/lastmile_qr_scan", "android": "https://dc.lft.to/lastmile_qr_scan"}, "is_reserved": 0, "fusion_lat": 0.0, "lon": -77.0303615}, {"lat": 38.926056, "type": "electric_scooter", "is_disabled": 0, "name": "1caf8444a53a546f1ec7a1cab15cea6e", "bike_id": "1caf8444a53a546f1ec7a1cab15cea6e", "fusion_lon": 0.0, "rental_uris": {"ios": "https://dc.lft.to/lastmile_qr_scan", "android": "https://dc.lft.to/lastmile_qr_scan"}, "is_reserved": 0, "fusion_lat": 0.0, "lon": -77.02159516666667}, {"lat": 38.8960135, "type": "electric_bike", "is_disabled": 0, "name": "969d6c034e5781d8d8046ff7d82ff9d2", "bike_id": "969d6c034e5781d8d8046ff7d82ff9d2", "fusion_lon": 0.0, "rental_uris": {"ios": "https://dc.lft.to/lastmile_qr_scan", "android": "https://dc.lft.to/lastmile_qr_scan"}, "is_reserved": 0, "fusion_lat": 0.0, "lon": -76.96783083333334}, {"lat": 38.892011, "type": "electric_scooter", "is_disabled": 0, "name": "9f5cac556a42268778045de44b0ccd59", "bike_id": "9f5cac556a42268778045de44b0ccd59", "fusion_lon": 0.0, "rental_uris": {"ios": "https://dc.lft.to/lastmile_qr_scan", "android": "https://dc.lft.to/lastmile_qr_scan"}, "is_reserved": 0, "fusion_lat": 0.0, "lon": -77.00298616666667}, {"lat": 38.9069065, "type": "electric_scooter", "is_disabled": 0, "name": "313684a0d033c060a56cee8e03db367a", "bike_id": "313684a0d033c060a56cee8e03db367a", "fusion_lon": 0.0, "rental_uris": {"ios": "https://dc.lft.to/lastmile_qr_scan", "android": "https://dc.lft.to/lastmile_qr_scan"}, "is_reserved": 0, "fusion_lat": 0.0, "lon": -77.02697933333333}, {"lat": 38.879251333333336, "type": "electric_scooter", "is_disabled": 0, "name": "ccf17f150a2ba90e9d49ed479c403372", "bike_id": "ccf17f150a2ba90e9d49ed479c403372", "fusion_lon": 0.0, "rental_uris": {"ios": "https://dc.lft.to/lastmile_qr_scan", "android": "https://dc.lft.to/lastmile_qr_scan"}, "is_reserved": 0, "fusion_lat": 0.0, "lon": -77.02371533333333}, {"lat": 38.876484, "type": "electric_bike", "is_disabled": 0, "name": "42078e1118ce10405be84b0ff7b75b39", "bike_id": "42078e1118ce10405be84b0ff7b75b39", "fusion_lon": 0.0, "rental_uris": {"ios": "https://dc.lft.to/lastmile_qr_scan", "android": "https://dc.lft.to/lastmile_qr_scan"}, "is_reserved": 0, "fusion_lat": 0.0, "lon": -76.93547566666666}, {"lat": 38.925375333333335, "type": "electric_scooter", "is_disabled": 0, "name": "1dd2241ea9f653b6ad59e000783489c6", "bike_id": "1dd2241ea9f653b6ad59e000783489c6", "fusion_lon": 0.0, "rental_uris": {"ios": "https://dc.lft.to/lastmile_qr_scan", "android": "https://dc.lft.to/lastmile_qr_scan"}, "is_reserved": 0, "fusion_lat": 0.0, "lon": -77.03262416666666}, {"lat": 38.91599466666667, "type": "electric_scooter", "is_disabled": 0, "name": "d1dfd8883a013a9ef7d5b8b35e1adbc9", "bike_id": "d1dfd8883a013a9ef7d5b8b35e1adbc9", "fusion_lon": 0.0, "rental_uris": {"ios": "https://dc.lft.to/lastmile_qr_scan", "android": "https://dc.lft.to/lastmile_qr_scan"}, "is_reserved": 0, "fusion_lat": 0.0, "lon": -77.049089}, {"lat": 38.89773116666667, "type": "electric_scooter", "is_disabled": 0, "name": "cf2814292263a67d26303a66f3e5c291", "bike_id": "cf2814292263a67d26303a66f3e5c291", "fusion_lon": 0.0, "rental_uris": {"ios": "https://dc.lft.to/lastmile_qr_scan", "android": "https://dc.lft.to/lastmile_qr_scan"}, "is_reserved": 0, "fusion_lat": 0.0, "lon": -77.0123335}, {"lat": 38.91801783333333, "type": "electric_scooter", "is_disabled": 0, "name": "3d984a115977a223184e437934f02c37", "bike_id": "3d984a115977a223184e437934f02c37", "fusion_lon": 0.0, "rental_uris": {"ios": "https://dc.lft.to/lastmile_qr_scan", "android": "https://dc.lft.to/lastmile_qr_scan"}, "is_reserved": 0, "fusion_lat": 0.0, "lon": -77.04022416666666}, {"lat": 38.91812616666667, "type": "electric_scooter", "is_disabled": 0, "name": "3d0d846fcad5a565c9fe498080f0742d", "bike_id": "3d0d846fcad5a565c9fe498080f0742d", "fusion_lon": 0.0, "rental_uris": {"ios": "https://dc.lft.to/lastmile_qr_scan", "android": "https://dc.lft.to/lastmile_qr_scan"}, "is_reserved": 0, "fusion_lat": 0.0, "lon": -77.03638333333333}, {"lat": 38.89259216666667, "type": "electric_scooter", "is_disabled": 0, "name": "f8810a0635d3c82e24b0c6658d24d0f6", "bike_id": "f8810a0635d3c82e24b0c6658d24d0f6", "fusion_lon": 0.0, "rental_uris": {"ios": "https://dc.lft.to/lastmile_qr_scan", "android": "https://dc.lft.to/lastmile_qr_scan"}, "is_reserved": 0, "fusion_lat": 0.0, "lon": -77.05025133333334}, {"lat": 38.96414983333333, "type": "electric_scooter", "is_disabled": 0, "name": "e8597b24bca29d26a8fef16b56189b6d", "bike_id": "e8597b24bca29d26a8fef16b56189b6d", "fusion_lon": 0.0, "rental_uris": {"ios": "https://dc.lft.to/lastmile_qr_scan", "android": "https://dc.lft.to/lastmile_qr_scan"}, "is_reserved": 0, "fusion_lat": 0.0, "lon": -77.03288816666667}, {"lat": 38.90621766666667, "type": "electric_scooter", "is_disabled": 0, "name": "9bd59699b13be5fa56d6c13e2d0df12d", "bike_id": "9bd59699b13be5fa56d6c13e2d0df12d", "fusion_lon": 0.0, "rental_uris": {"ios": "https://dc.lft.to/lastmile_qr_scan", "android": "https://dc.lft.to/lastmile_qr_scan"}, "is_reserved": 0, "fusion_lat": 0.0, "lon": -77.04358766666667}, {"lat": 38.899885833333336, "type": "electric_scooter", "is_disabled": 0, "name": "bec9d778049af00df9adb3e8d3fd003a", "bike_id": "bec9d778049af00df9adb3e8d3fd003a", "fusion_lon": 0.0, "rental_uris": {"ios": "https://dc.lft.to/lastmile_qr_scan", "android": "https://dc.lft.to/lastmile_qr_scan"}, "is_reserved": 0, "fusion_lat": 0.0, "lon": -77.0092875}, {"lat": 38.897277833333334, "type": "electric_scooter", "is_disabled": 0, "name": "79eab19dd64c72550863ca1fcc725350", "bike_id": "79eab19dd64c72550863ca1fcc725350", "fusion_lon": 0.0, "rental_uris": {"ios": "https://dc.lft.to/lastmile_qr_scan", "android": "https://dc.lft.to/lastmile_qr_scan"}, "is_reserved": 0, "fusion_lat": 0.0, "lon": -77.05526416666666}, {"lat": 38.903654, "type": "electric_scooter", "is_disabled": 0, "name": "e78d30758dbac6a70dba6ff4fcf04b25", "bike_id": "e78d30758dbac6a70dba6ff4fcf04b25", "fusion_lon": 0.0, "rental_uris": {"ios": "https://dc.lft.to/lastmile_qr_scan", "android": "https://dc.lft.to/lastmile_qr_scan"}, "is_reserved": 0, "fusion_lat": 0.0, "lon": -77.04535616666666}, {"lat": 38.90260083333333, "type": "electric_scooter", "is_disabled": 0, "name": "0fa13a1f5e805b153b0b6e436ce7218b", "bike_id": "0fa13a1f5e805b153b0b6e436ce7218b", "fusion_lon": 0.0, "rental_uris": {"ios": "https://dc.lft.to/lastmile_qr_scan", "android": "https://dc.lft.to/lastmile_qr_scan"}, "is_reserved": 0, "fusion_lat": 0.0, "lon": -77.04583666666667}, {"lat": 38.895190166666666, "type": "electric_scooter", "is_disabled": 0, "name": "5d15d9f778c44a13fbfbc97b4ad19c3b", "bike_id": "5d15d9f778c44a13fbfbc97b4ad19c3b", "fusion_lon": 0.0, "rental_uris": {"ios": "https://dc.lft.to/lastmile_qr_scan", "android": "https://dc.lft.to/lastmile_qr_scan"}, "is_reserved": 0, "fusion_lat": 0.0, "lon": -77.02295183333334}, {"lat": 38.896080833333336, "type": "electric_scooter", "is_disabled": 0, "name": "0150078c09331dca5cb463a2ae5034ed", "bike_id": "0150078c09331dca5cb463a2ae5034ed", "fusion_lon": 0.0, "rental_uris": {"ios": "https://dc.lft.to/lastmile_qr_scan", "android": "https://dc.lft.to/lastmile_qr_scan"}, "is_reserved": 0, "fusion_lat": 0.0, "lon": -77.0092915}, {"lat": 38.8706785, "type": "electric_bike", "is_disabled": 0, "name": "91f736d7945a0c983f32726f470af4e0", "bike_id": "91f736d7945a0c983f32726f470af4e0", "fusion_lon": 0.0, "rental_uris": {"ios": "https://dc.lft.to/lastmile_qr_scan", "android": "https://dc.lft.to/lastmile_qr_scan"}, "is_reserved": 0, "fusion_lat": 0.0, "lon": -77.11035333333334}, {"lat": 38.9323675, "type": "electric_scooter", "is_disabled": 0, "name": "758e584860d7d3adb6515097b0e1523d", "bike_id": "758e584860d7d3adb6515097b0e1523d", "fusion_lon": 0.0, "rental_uris": {"ios": "https://dc.lft.to/lastmile_qr_scan", "android": "https://dc.lft.to/lastmile_qr_scan"}, "is_reserved": 0, "fusion_lat": 0.0, "lon": -77.0385185}, {"lat": 38.92689933333333, "type": "electric_scooter", "is_disabled": 0, "name": "a6d36a2073ad057a5e7519373cdca6d3", "bike_id": "a6d36a2073ad057a5e7519373cdca6d3", "fusion_lon": 0.0, "rental_uris": {"ios": "https://dc.lft.to/lastmile_qr_scan", "android": "https://dc.lft.to/lastmile_qr_scan"}, "is_reserved": 0, "fusion_lat": 0.0, "lon": -77.0296495}, {"lat": 38.922540833333336, "type": "electric_scooter", "is_disabled": 0, "name": "72e936ea727e117e0dbf7042ef2307f2", "bike_id": "72e936ea727e117e0dbf7042ef2307f2", "fusion_lon": 0.0, "rental_uris": {"ios": "https://dc.lft.to/lastmile_qr_scan", "android": "https://dc.lft.to/lastmile_qr_scan"}, "is_reserved": 0, "fusion_lat": 0.0, "lon": -77.019447}, {"lat": 38.92081733333333, "type": "electric_scooter", "is_disabled": 0, "name": "506242a0ae6783924d17fb6845f41e93", "bike_id": "506242a0ae6783924d17fb6845f41e93", "fusion_lon": 0.0, "rental_uris": {"ios": "https://dc.lft.to/lastmile_qr_scan", "android": "https://dc.lft.to/lastmile_qr_scan"}, "is_reserved": 0, "fusion_lat": 0.0, "lon": -77.02538633333333}, {"lat": 38.9239555, "type": "electric_scooter", "is_disabled": 0, "name": "cfafc68fbefba59c6c5b5168ad13e341", "bike_id": "cfafc68fbefba59c6c5b5168ad13e341", "fusion_lon": 0.0, "rental_uris": {"ios": "https://dc.lft.to/lastmile_qr_scan", "android": "https://dc.lft.to/lastmile_qr_scan"}, "is_reserved": 0, "fusion_lat": 0.0, "lon": -77.03402883333334}, {"lat": 38.906802, "type": "electric_scooter", "is_disabled": 0, "name": "53a4ef84093557810d9d93cd2178d526", "bike_id": "53a4ef84093557810d9d93cd2178d526", "fusion_lon": 0.0, "rental_uris": {"ios": "https://dc.lft.to/lastmile_qr_scan", "android": "https://dc.lft.to/lastmile_qr_scan"}, "is_reserved": 0, "fusion_lat": 0.0, "lon": -77.03450466666666}, {"lat": 38.928538, "type": "electric_scooter", "is_disabled": 0, "name": "d4b9e9e9927a69f7c2c964f0253356b7", "bike_id": "d4b9e9e9927a69f7c2c964f0253356b7", "fusion_lon": 0.0, "rental_uris": {"ios": "https://dc.lft.to/lastmile_qr_scan", "android": "https://dc.lft.to/lastmile_qr_scan"}, "is_reserved": 0, "fusion_lat": 0.0, "lon": -77.03294816666667}, {"lat": 38.917119166666666, "type": "electric_scooter", "is_disabled": 0, "name": "7558267640e4069465e125be495a8073", "bike_id": "7558267640e4069465e125be495a8073", "fusion_lon": 0.0, "rental_uris": {"ios": "https://dc.lft.to/lastmile_qr_scan", "android": "https://dc.lft.to/lastmile_qr_scan"}, "is_reserved": 0, "fusion_lat": 0.0, "lon": -77.03726333333333}, {"lat": 38.923429666666664, "type": "electric_scooter", "is_disabled": 0, "name": "af8f74ef48512795e6439b2d47596855", "bike_id": "af8f74ef48512795e6439b2d47596855", "fusion_lon": 0.0, "rental_uris": {"ios": "https://dc.lft.to/lastmile_qr_scan", "android": "https://dc.lft.to/lastmile_qr_scan"}, "is_reserved": 0, "fusion_lat": 0.0, "lon": -77.03495133333334}, {"lat": 38.951156, "type": "electric_scooter", "is_disabled": 0, "name": "0d3cc86bb52ac3a387f017fdbbe73fd5", "bike_id": "0d3cc86bb52ac3a387f017fdbbe73fd5", "fusion_lon": 0.0, "rental_uris": {"ios": "https://dc.lft.to/lastmile_qr_scan", "android": "https://dc.lft.to/lastmile_qr_scan"}, "is_reserved": 0, "fusion_lat": 0.0, "lon": -77.01314616666667}, {"lat": 38.89235266666667, "type": "electric_scooter", "is_disabled": 0, "name": "5c86963715665aa238a5ee0ed4ecb79f", "bike_id": "5c86963715665aa238a5ee0ed4ecb79f", "fusion_lon": 0.0, "rental_uris": {"ios": "https://dc.lft.to/lastmile_qr_scan", "android": "https://dc.lft.to/lastmile_qr_scan"}, "is_reserved": 0, "fusion_lat": 0.0, "lon": -77.03194616666667}, {"lat": 38.897407333333334, "type": "electric_scooter", "is_disabled": 0, "name": "c8bf7f489b35dd4de62c53d8d0a44b75", "bike_id": "c8bf7f489b35dd4de62c53d8d0a44b75", "fusion_lon": 0.0, "rental_uris": {"ios": "https://dc.lft.to/lastmile_qr_scan", "android": "https://dc.lft.to/lastmile_qr_scan"}, "is_reserved": 0, "fusion_lat": 0.0, "lon": -77.00931566666667}, {"lat": 38.932539166666665, "type": "electric_scooter", "is_disabled": 0, "name": "562fccf94398d42e675f40e55708a91c", "bike_id": "562fccf94398d42e675f40e55708a91c", "fusion_lon": 0.0, "rental_uris": {"ios": "https://dc.lft.to/lastmile_qr_scan", "android": "https://dc.lft.to/lastmile_qr_scan"}, "is_reserved": 0, "fusion_lat": 0.0, "lon": -77.0328685}, {"lat": 38.895546833333334, "type": "electric_scooter", "is_disabled": 0, "name": "adb105fd540fe704ee3cdec0718e681f", "bike_id": "adb105fd540fe704ee3cdec0718e681f", "fusion_lon": 0.0, "rental_uris": {"ios": "https://dc.lft.to/lastmile_qr_scan", "android": "https://dc.lft.to/lastmile_qr_scan"}, "is_reserved": 0, "fusion_lat": 0.0, "lon": -77.00917083333333}, {"lat": 38.892512333333336, "type": "electric_bike", "is_disabled": 0, "name": "051215b96f073a44c59427140e696e5a", "bike_id": "051215b96f073a44c59427140e696e5a", "fusion_lon": 0.0, "rental_uris": {"ios": "https://dc.lft.to/lastmile_qr_scan", "android": "https://dc.lft.to/lastmile_qr_scan"}, "is_reserved": 0, "fusion_lat": 0.0, "lon": -77.046598}, {"lat": 38.89731033333333, "type": "electric_scooter", "is_disabled": 0, "name": "5cd806fb4d767a281b736b5f96af2e7c", "bike_id": "5cd806fb4d767a281b736b5f96af2e7c", "fusion_lon": 0.0, "rental_uris": {"ios": "https://dc.lft.to/lastmile_qr_scan", "android": "https://dc.lft.to/lastmile_qr_scan"}, "is_reserved": 0, "fusion_lat": 0.0, "lon": -77.03255683333333}, {"lat": 38.9609955, "type": "electric_scooter", "is_disabled": 0, "name": "e9dea9b11862b30d5a3e139f35d9d027", "bike_id": "e9dea9b11862b30d5a3e139f35d9d027", "fusion_lon": 0.0, "rental_uris": {"ios": "https://dc.lft.to/lastmile_qr_scan", "android": "https://dc.lft.to/lastmile_qr_scan"}, "is_reserved": 0, "fusion_lat": 0.0, "lon": -77.06754066666667}, {"lat": 38.943274333333335, "type": "electric_scooter", "is_disabled": 0, "name": "a399a99b8aa7dda1d058ef53780bb6e0", "bike_id": "a399a99b8aa7dda1d058ef53780bb6e0", "fusion_lon": 0.0, "rental_uris": {"ios": "https://dc.lft.to/lastmile_qr_scan", "android": "https://dc.lft.to/lastmile_qr_scan"}, "is_reserved": 0, "fusion_lat": 0.0, "lon": -77.01312533333333}, {"lat": 38.92958466666666, "type": "electric_scooter", "is_disabled": 0, "name": "9af0df06465cbf428df767471c280b02", "bike_id": "9af0df06465cbf428df767471c280b02", "fusion_lon": 0.0, "rental_uris": {"ios": "https://dc.lft.to/lastmile_qr_scan", "android": "https://dc.lft.to/lastmile_qr_scan"}, "is_reserved": 0, "fusion_lat": 0.0, "lon": -77.0115115}, {"lat": 38.902824333333335, "type": "electric_scooter", "is_disabled": 0, "name": "77f036b968128036182b84a40ffd10bc", "bike_id": "77f036b968128036182b84a40ffd10bc", "fusion_lon": 0.0, "rental_uris": {"ios": "https://dc.lft.to/lastmile_qr_scan", "android": "https://dc.lft.to/lastmile_qr_scan"}, "is_reserved": 0, "fusion_lat": 0.0, "lon": -77.03854483333333}, {"lat": 38.865309333333336, "type": "electric_scooter", "is_disabled": 0, "name": "52dff23aa2826cf0b3b8003dfd6c02e4", "bike_id": "52dff23aa2826cf0b3b8003dfd6c02e4", "fusion_lon": 0.0, "rental_uris": {"ios": "https://dc.lft.to/lastmile_qr_scan", "android": "https://dc.lft.to/lastmile_qr_scan"}, "is_reserved": 0, "fusion_lat": 0.0, "lon": -76.96909083333334}, {"lat": 38.8995785, "type": "electric_bike", "is_disabled": 0, "name": "d79cf1b71743018f6f04a137f4946a55", "bike_id": "d79cf1b71743018f6f04a137f4946a55", "fusion_lon": 0.0, "rental_uris": {"ios": "https://dc.lft.to/lastmile_qr_scan", "android": "https://dc.lft.to/lastmile_qr_scan"}, "is_reserved": 0, "fusion_lat": 0.0, "lon": -77.04529283333333}, {"lat": 38.903094, "type": "electric_scooter", "is_disabled": 0, "name": "f515275c7d45f629a8589d0347d365d9", "bike_id": "f515275c7d45f629a8589d0347d365d9", "fusion_lon": 0.0, "rental_uris": {"ios": "https://dc.lft.to/lastmile_qr_scan", "android": "https://dc.lft.to/lastmile_qr_scan"}, "is_reserved": 0, "fusion_lat": 0.0, "lon": -76.9750335}, {"lat": 38.93718116666667, "type": "electric_scooter", "is_disabled": 0, "name": "95458df736148504eb585a180c801e35", "bike_id": "95458df736148504eb585a180c801e35", "fusion_lon": 0.0, "rental_uris": {"ios": "https://dc.lft.to/lastmile_qr_scan", "android": "https://dc.lft.to/lastmile_qr_scan"}, "is_reserved": 0, "fusion_lat": 0.0, "lon": -77.0245345}, {"lat": 38.91575783333333, "type": "electric_scooter", "is_disabled": 0, "name": "118b06ef1f662cb0cded9818337dd8ed", "bike_id": "118b06ef1f662cb0cded9818337dd8ed", "fusion_lon": 0.0, "rental_uris": {"ios": "https://dc.lft.to/lastmile_qr_scan", "android": "https://dc.lft.to/lastmile_qr_scan"}, "is_reserved": 0, "fusion_lat": 0.0, "lon": -77.06810866666666}, {"lat": 38.9251135, "type": "electric_scooter", "is_disabled": 0, "name": "a89c25d3dbe127cc523ea84623932626", "bike_id": "a89c25d3dbe127cc523ea84623932626", "fusion_lon": 0.0, "rental_uris": {"ios": "https://dc.lft.to/lastmile_qr_scan", "android": "https://dc.lft.to/lastmile_qr_scan"}, "is_reserved": 0, "fusion_lat": 0.0, "lon": -77.02581266666667}, {"lat": 38.919413, "type": "electric_scooter", "is_disabled": 0, "name": "df82dfef8517b3e83979298b89c09fa6", "bike_id": "df82dfef8517b3e83979298b89c09fa6", "fusion_lon": 0.0, "rental_uris": {"ios": "https://dc.lft.to/lastmile_qr_scan", "android": "https://dc.lft.to/lastmile_qr_scan"}, "is_reserved": 0, "fusion_lat": 0.0, "lon": -77.01802116666667}, {"lat": 38.884361166666665, "type": "electric_scooter", "is_disabled": 0, "name": "f91b651c2188e253efa94b8e4892eaa3", "bike_id": "f91b651c2188e253efa94b8e4892eaa3", "fusion_lon": 0.0, "rental_uris": {"ios": "https://dc.lft.to/lastmile_qr_scan", "android": "https://dc.lft.to/lastmile_qr_scan"}, "is_reserved": 0, "fusion_lat": 0.0, "lon": -76.99731916666667}, {"lat": 38.924461, "type": "electric_scooter", "is_disabled": 0, "name": "6d4e40d55a387473f91df8099faa33f4", "bike_id": "6d4e40d55a387473f91df8099faa33f4", "fusion_lon": 0.0, "rental_uris": {"ios": "https://dc.lft.to/lastmile_qr_scan", "android": "https://dc.lft.to/lastmile_qr_scan"}, "is_reserved": 0, "fusion_lat": 0.0, "lon": -76.9682805}, {"lat": 38.91916616666666, "type": "electric_scooter", "is_disabled": 0, "name": "f3b1e4a14635567d82294a08c5a6985e", "bike_id": "f3b1e4a14635567d82294a08c5a6985e", "fusion_lon": 0.0, "rental_uris": {"ios": "https://dc.lft.to/lastmile_qr_scan", "android": "https://dc.lft.to/lastmile_qr_scan"}, "is_reserved": 0, "fusion_lat": 0.0, "lon": -77.0343075}, {"lat": 38.919819833333335, "type": "electric_scooter", "is_disabled": 0, "name": "37a375ae0ca10560dc5fce2baae4aaa9", "bike_id": "37a375ae0ca10560dc5fce2baae4aaa9", "fusion_lon": 0.0, "rental_uris": {"ios": "https://dc.lft.to/lastmile_qr_scan", "android": "https://dc.lft.to/lastmile_qr_scan"}, "is_reserved": 0, "fusion_lat": 0.0, "lon": -77.02188766666667}, {"lat": 38.872933333333336, "type": "electric_scooter", "is_disabled": 0, "name": "e14bae0623e75edc4a2146f805f6b0fb", "bike_id": "e14bae0623e75edc4a2146f805f6b0fb", "fusion_lon": 0.0, "rental_uris": {"ios": "https://dc.lft.to/lastmile_qr_scan", "android": "https://dc.lft.to/lastmile_qr_scan"}, "is_reserved": 0, "fusion_lat": 0.0, "lon": -77.01590116666667}, {"lat": 38.918949166666664, "type": "electric_scooter", "is_disabled": 0, "name": "7d8e94d4f4f84df7ea8a22acd64ae7ca", "bike_id": "7d8e94d4f4f84df7ea8a22acd64ae7ca", "fusion_lon": 0.0, "rental_uris": {"ios": "https://dc.lft.to/lastmile_qr_scan", "android": "https://dc.lft.to/lastmile_qr_scan"}, "is_reserved": 0, "fusion_lat": 0.0, "lon": -77.02095483333333}, {"lat": 38.88441816666667, "type": "electric_scooter", "is_disabled": 0, "name": "b646d581985a59ae8cece038c6c30276", "bike_id": "b646d581985a59ae8cece038c6c30276", "fusion_lon": 0.0, "rental_uris": {"ios": "https://dc.lft.to/lastmile_qr_scan", "android": "https://dc.lft.to/lastmile_qr_scan"}, "is_reserved": 0, "fusion_lat": 0.0, "lon": -76.95767583333334}, {"lat": 38.89696433333334, "type": "electric_bike", "is_disabled": 0, "name": "ba87234a38aa7c4e6ecea7f8ae753fd8", "bike_id": "ba87234a38aa7c4e6ecea7f8ae753fd8", "fusion_lon": 0.0, "rental_uris": {"ios": "https://dc.lft.to/lastmile_qr_scan", "android": "https://dc.lft.to/lastmile_qr_scan"}, "is_reserved": 0, "fusion_lat": 0.0, "lon": -76.932416}, {"lat": 38.921568666666666, "type": "electric_scooter", "is_disabled": 0, "name": "d1ed38e951afa08597754f0309488ec4", "bike_id": "d1ed38e951afa08597754f0309488ec4", "fusion_lon": 0.0, "rental_uris": {"ios": "https://dc.lft.to/lastmile_qr_scan", "android": "https://dc.lft.to/lastmile_qr_scan"}, "is_reserved": 0, "fusion_lat": 0.0, "lon": -77.04239616666666}, {"lat": 38.89608916666667, "type": "electric_scooter", "is_disabled": 0, "name": "c862d7e26b0d857e5acd634fecb2b81e", "bike_id": "c862d7e26b0d857e5acd634fecb2b81e", "fusion_lon": 0.0, "rental_uris": {"ios": "https://dc.lft.to/lastmile_qr_scan", "android": "https://dc.lft.to/lastmile_qr_scan"}, "is_reserved": 0, "fusion_lat": 0.0, "lon": -77.03050666666667}, {"lat": 38.92142533333333, "type": "electric_scooter", "is_disabled": 0, "name": "ba26c7600547af219620c44c574126ac", "bike_id": "ba26c7600547af219620c44c574126ac", "fusion_lon": 0.0, "rental_uris": {"ios": "https://dc.lft.to/lastmile_qr_scan", "android": "https://dc.lft.to/lastmile_qr_scan"}, "is_reserved": 0, "fusion_lat": 0.0, "lon": -77.0180225}, {"lat": 38.89226, "type": "electric_scooter", "is_disabled": 0, "name": "7b2df460ab3e682c36db94664c05b924", "bike_id": "7b2df460ab3e682c36db94664c05b924", "fusion_lon": 0.0, "rental_uris": {"ios": "https://dc.lft.to/lastmile_qr_scan", "android": "https://dc.lft.to/lastmile_qr_scan"}, "is_reserved": 0, "fusion_lat": 0.0, "lon": -77.046449}, {"lat": 38.929922, "type": "electric_scooter", "is_disabled": 0, "name": "141de4c34ab16bfaed03f17705ce1bee", "bike_id": "141de4c34ab16bfaed03f17705ce1bee", "fusion_lon": 0.0, "rental_uris": {"ios": "https://dc.lft.to/lastmile_qr_scan", "android": "https://dc.lft.to/lastmile_qr_scan"}, "is_reserved": 0, "fusion_lat": 0.0, "lon": -77.03477216666667}, {"lat": 38.9215, "type": "electric_scooter", "is_disabled": 0, "name": "1041d871606ada219599269b2ead15be", "bike_id": "1041d871606ada219599269b2ead15be", "fusion_lon": 0.0, "rental_uris": {"ios": "https://dc.lft.to/lastmile_qr_scan", "android": "https://dc.lft.to/lastmile_qr_scan"}, "is_reserved": 0, "fusion_lat": 0.0, "lon": -77.02137383333333}, {"lat": 38.91270466666667, "type": "electric_scooter", "is_disabled": 0, "name": "d56290f28c482d41ea1910790916489a", "bike_id": "d56290f28c482d41ea1910790916489a", "fusion_lon": 0.0, "rental_uris": {"ios": "https://dc.lft.to/lastmile_qr_scan", "android": "https://dc.lft.to/lastmile_qr_scan"}, "is_reserved": 0, "fusion_lat": 0.0, "lon": -77.01473016666667}, {"lat": 38.90418616666667, "type": "electric_scooter", "is_disabled": 0, "name": "4dedf5467e267d6bdb4d3fad96470d4e", "bike_id": "4dedf5467e267d6bdb4d3fad96470d4e", "fusion_lon": 0.0, "rental_uris": {"ios": "https://dc.lft.to/lastmile_qr_scan", "android": "https://dc.lft.to/lastmile_qr_scan"}, "is_reserved": 0, "fusion_lat": 0.0, "lon": -77.0259135}, {"lat": 38.89224816666667, "type": "electric_scooter", "is_disabled": 0, "name": "071c5468b592a8ab51ba195a1d51e2e8", "bike_id": "071c5468b592a8ab51ba195a1d51e2e8", "fusion_lon": 0.0, "rental_uris": {"ios": "https://dc.lft.to/lastmile_qr_scan", "android": "https://dc.lft.to/lastmile_qr_scan"}, "is_reserved": 0, "fusion_lat": 0.0, "lon": -77.04502466666666}, {"lat": 38.915192, "type": "electric_scooter", "is_disabled": 0, "name": "531dd9a6b5470a8b543dbddb989e1e44", "bike_id": "531dd9a6b5470a8b543dbddb989e1e44", "fusion_lon": 0.0, "rental_uris": {"ios": "https://dc.lft.to/lastmile_qr_scan", "android": "https://dc.lft.to/lastmile_qr_scan"}, "is_reserved": 0, "fusion_lat": 0.0, "lon": -77.04491783333333}, {"lat": 38.9346525, "type": "electric_scooter", "is_disabled": 0, "name": "bd95933d762da97d958e5d1420de1d1f", "bike_id": "bd95933d762da97d958e5d1420de1d1f", "fusion_lon": 0.0, "rental_uris": {"ios": "https://dc.lft.to/lastmile_qr_scan", "android": "https://dc.lft.to/lastmile_qr_scan"}, "is_reserved": 0, "fusion_lat": 0.0, "lon": -77.05810983333333}, {"lat": 38.92929633333333, "type": "electric_scooter", "is_disabled": 0, "name": "d8fcc28cf53cc27345d437f0599ca284", "bike_id": "d8fcc28cf53cc27345d437f0599ca284", "fusion_lon": 0.0, "rental_uris": {"ios": "https://dc.lft.to/lastmile_qr_scan", "android": "https://dc.lft.to/lastmile_qr_scan"}, "is_reserved": 0, "fusion_lat": 0.0, "lon": -77.00676616666667}, {"lat": 38.897764333333335, "type": "electric_scooter", "is_disabled": 0, "name": "f05bbba2a760fc891b24c3c2e8174aa1", "bike_id": "f05bbba2a760fc891b24c3c2e8174aa1", "fusion_lon": 0.0, "rental_uris": {"ios": "https://dc.lft.to/lastmile_qr_scan", "android": "https://dc.lft.to/lastmile_qr_scan"}, "is_reserved": 0, "fusion_lat": 0.0, "lon": -77.027044}, {"lat": 38.90219283333333, "type": "electric_scooter", "is_disabled": 0, "name": "27d9b6657517580e51ad65e5008a40d0", "bike_id": "27d9b6657517580e51ad65e5008a40d0", "fusion_lon": 0.0, "rental_uris": {"ios": "https://dc.lft.to/lastmile_qr_scan", "android": "https://dc.lft.to/lastmile_qr_scan"}, "is_reserved": 0, "fusion_lat": 0.0, "lon": -77.02371}, {"lat": 38.926688666666664, "type": "electric_scooter", "is_disabled": 0, "name": "48cc42de8a6e1596e066ad0f1f5c63b7", "bike_id": "48cc42de8a6e1596e066ad0f1f5c63b7", "fusion_lon": 0.0, "rental_uris": {"ios": "https://dc.lft.to/lastmile_qr_scan", "android": "https://dc.lft.to/lastmile_qr_scan"}, "is_reserved": 0, "fusion_lat": 0.0, "lon": -77.02765533333333}, {"lat": 38.908601166666664, "type": "electric_scooter", "is_disabled": 0, "name": "5e02a2d2c62c766904b22f4db701c138", "bike_id": "5e02a2d2c62c766904b22f4db701c138", "fusion_lon": 0.0, "rental_uris": {"ios": "https://dc.lft.to/lastmile_qr_scan", "android": "https://dc.lft.to/lastmile_qr_scan"}, "is_reserved": 0, "fusion_lat": 0.0, "lon": -76.99679416666666}, {"lat": 38.92867666666667, "type": "electric_scooter", "is_disabled": 0, "name": "006586ee212fbbb34a672ccae5b998c3", "bike_id": "006586ee212fbbb34a672ccae5b998c3", "fusion_lon": 0.0, "rental_uris": {"ios": "https://dc.lft.to/lastmile_qr_scan", "android": "https://dc.lft.to/lastmile_qr_scan"}, "is_reserved": 0, "fusion_lat": 0.0, "lon": -77.037132}, {"lat": 38.91470566666667, "type": "electric_scooter", "is_disabled": 0, "name": "0576e1dca463221123b50df792b3581a", "bike_id": "0576e1dca463221123b50df792b3581a", "fusion_lon": 0.0, "rental_uris": {"ios": "https://dc.lft.to/lastmile_qr_scan", "android": "https://dc.lft.to/lastmile_qr_scan"}, "is_reserved": 0, "fusion_lat": 0.0, "lon": -77.03214016666666}, {"lat": 38.887477833333335, "type": "electric_scooter", "is_disabled": 0, "name": "f9832ecd32595ae372171a3be3d90672", "bike_id": "f9832ecd32595ae372171a3be3d90672", "fusion_lon": 0.0, "rental_uris": {"ios": "https://dc.lft.to/lastmile_qr_scan", "android": "https://dc.lft.to/lastmile_qr_scan"}, "is_reserved": 0, "fusion_lat": 0.0, "lon": -77.02870683333333}, {"lat": 38.8974355, "type": "electric_scooter", "is_disabled": 0, "name": "313219c656f4fb47b50362d4ae4131c3", "bike_id": "313219c656f4fb47b50362d4ae4131c3", "fusion_lon": 0.0, "rental_uris": {"ios": "https://dc.lft.to/lastmile_qr_scan", "android": "https://dc.lft.to/lastmile_qr_scan"}, "is_reserved": 0, "fusion_lat": 0.0, "lon": -77.01277133333333}, {"lat": 38.957855, "type": "electric_scooter", "is_disabled": 0, "name": "11cb4d0b42d31bb8d4571aa5d10bc595", "bike_id": "11cb4d0b42d31bb8d4571aa5d10bc595", "fusion_lon": 0.0, "rental_uris": {"ios": "https://dc.lft.to/lastmile_qr_scan", "android": "https://dc.lft.to/lastmile_qr_scan"}, "is_reserved": 0, "fusion_lat": 0.0, "lon": -77.02832}, {"lat": 38.880588333333336, "type": "electric_scooter", "is_disabled": 0, "name": "4870a5e7ebc6038de8dbe40300c75121", "bike_id": "4870a5e7ebc6038de8dbe40300c75121", "fusion_lon": 0.0, "rental_uris": {"ios": "https://dc.lft.to/lastmile_qr_scan", "android": "https://dc.lft.to/lastmile_qr_scan"}, "is_reserved": 0, "fusion_lat": 0.0, "lon": -77.00541683333333}, {"lat": 38.9033335, "type": "electric_scooter", "is_disabled": 0, "name": "b95e988cca91070fa1911920e7cd7c5e", "bike_id": "b95e988cca91070fa1911920e7cd7c5e", "fusion_lon": 0.0, "rental_uris": {"ios": "https://dc.lft.to/lastmile_qr_scan", "android": "https://dc.lft.to/lastmile_qr_scan"}, "is_reserved": 0, "fusion_lat": 0.0, "lon": -77.03862933333333}, {"lat": 38.90374683333334, "type": "electric_scooter", "is_disabled": 0, "name": "64b8c3974a3fcacf7755736812bbd260", "bike_id": "64b8c3974a3fcacf7755736812bbd260", "fusion_lon": 0.0, "rental_uris": {"ios": "https://dc.lft.to/lastmile_qr_scan", "android": "https://dc.lft.to/lastmile_qr_scan"}, "is_reserved": 0, "fusion_lat": 0.0, "lon": -77.03846983333334}, {"lat": 38.88875633333333, "type": "electric_scooter", "is_disabled": 0, "name": "950f588b5a78a5ae365470ab21a08216", "bike_id": "950f588b5a78a5ae365470ab21a08216", "fusion_lon": 0.0, "rental_uris": {"ios": "https://dc.lft.to/lastmile_qr_scan", "android": "https://dc.lft.to/lastmile_qr_scan"}, "is_reserved": 0, "fusion_lat": 0.0, "lon": -76.986761}, {"lat": 38.90058616666666, "type": "electric_scooter", "is_disabled": 0, "name": "19946b51a8f18622a0ee2e16765508e4", "bike_id": "19946b51a8f18622a0ee2e16765508e4", "fusion_lon": 0.0, "rental_uris": {"ios": "https://dc.lft.to/lastmile_qr_scan", "android": "https://dc.lft.to/lastmile_qr_scan"}, "is_reserved": 0, "fusion_lat": 0.0, "lon": -76.98486633333333}, {"lat": 38.8878725, "type": "electric_scooter", "is_disabled": 0, "name": "016f2e4016da2c207aacf5d516f1114b", "bike_id": "016f2e4016da2c207aacf5d516f1114b", "fusion_lon": 0.0, "rental_uris": {"ios": "https://dc.lft.to/lastmile_qr_scan", "android": "https://dc.lft.to/lastmile_qr_scan"}, "is_reserved": 0, "fusion_lat": 0.0, "lon": -77.01596366666666}, {"lat": 38.9230945, "type": "electric_scooter", "is_disabled": 0, "name": "a5895c9eed75bfedc752d173a0c12a6f", "bike_id": "a5895c9eed75bfedc752d173a0c12a6f", "fusion_lon": 0.0, "rental_uris": {"ios": "https://dc.lft.to/lastmile_qr_scan", "android": "https://dc.lft.to/lastmile_qr_scan"}, "is_reserved": 0, "fusion_lat": 0.0, "lon": -77.031136}, {"lat": 38.89852533333333, "type": "electric_bike", "is_disabled": 0, "name": "16ae9f1ced7b43597f9148aa4f2439c4", "bike_id": "16ae9f1ced7b43597f9148aa4f2439c4", "fusion_lon": 0.0, "rental_uris": {"ios": "https://dc.lft.to/lastmile_qr_scan", "android": "https://dc.lft.to/lastmile_qr_scan"}, "is_reserved": 0, "fusion_lat": 0.0, "lon": -76.93187566666667}, {"lat": 38.910527333333334, "type": "electric_scooter", "is_disabled": 0, "name": "02dd994782ff2f320ac580a555b9aa11", "bike_id": "02dd994782ff2f320ac580a555b9aa11", "fusion_lon": 0.0, "rental_uris": {"ios": "https://dc.lft.to/lastmile_qr_scan", "android": "https://dc.lft.to/lastmile_qr_scan"}, "is_reserved": 0, "fusion_lat": 0.0, "lon": -77.04488866666667}, {"lat": 38.90271516666667, "type": "electric_scooter", "is_disabled": 0, "name": "17364e9d4efbb562523047b5573d54a9", "bike_id": "17364e9d4efbb562523047b5573d54a9", "fusion_lon": 0.0, "rental_uris": {"ios": "https://dc.lft.to/lastmile_qr_scan", "android": "https://dc.lft.to/lastmile_qr_scan"}, "is_reserved": 0, "fusion_lat": 0.0, "lon": -77.06006116666667}, {"lat": 38.929153666666664, "type": "electric_scooter", "is_disabled": 0, "name": "4fcd0c25309fdbb9a361ed4d1df58270", "bike_id": "4fcd0c25309fdbb9a361ed4d1df58270", "fusion_lon": 0.0, "rental_uris": {"ios": "https://dc.lft.to/lastmile_qr_scan", "android": "https://dc.lft.to/lastmile_qr_scan"}, "is_reserved": 0, "fusion_lat": 0.0, "lon": -77.03255933333334}, {"lat": 38.90847466666666, "type": "electric_scooter", "is_disabled": 0, "name": "2d2e88464ed4422e4e37ca565ffeb754", "bike_id": "2d2e88464ed4422e4e37ca565ffeb754", "fusion_lon": 0.0, "rental_uris": {"ios": "https://dc.lft.to/lastmile_qr_scan", "android": "https://dc.lft.to/lastmile_qr_scan"}, "is_reserved": 0, "fusion_lat": 0.0, "lon": -77.04016266666666}, {"lat": 38.893512, "type": "electric_scooter", "is_disabled": 0, "name": "1e80dbc45cac63425ccc37f03bc2b7f0", "bike_id": "1e80dbc45cac63425ccc37f03bc2b7f0", "fusion_lon": 0.0, "rental_uris": {"ios": "https://dc.lft.to/lastmile_qr_scan", "android": "https://dc.lft.to/lastmile_qr_scan"}, "is_reserved": 0, "fusion_lat": 0.0, "lon": -77.01533633333334}, {"lat": 38.93592266666667, "type": "electric_scooter", "is_disabled": 0, "name": "71878cfd1ee4e730aa4857101eacedc1", "bike_id": "71878cfd1ee4e730aa4857101eacedc1", "fusion_lon": 0.0, "rental_uris": {"ios": "https://dc.lft.to/lastmile_qr_scan", "android": "https://dc.lft.to/lastmile_qr_scan"}, "is_reserved": 0, "fusion_lat": 0.0, "lon": -77.0584465}, {"lat": 38.8718395, "type": "electric_scooter", "is_disabled": 0, "name": "9d173406ef281a1429bd8df6985e49b5", "bike_id": "9d173406ef281a1429bd8df6985e49b5", "fusion_lon": 0.0, "rental_uris": {"ios": "https://dc.lft.to/lastmile_qr_scan", "android": "https://dc.lft.to/lastmile_qr_scan"}, "is_reserved": 0, "fusion_lat": 0.0, "lon": -77.00641733333333}, {"lat": 38.9276005, "type": "electric_scooter", "is_disabled": 0, "name": "ad1cb612d377c49104e5af3dca7e8c6f", "bike_id": "ad1cb612d377c49104e5af3dca7e8c6f", "fusion_lon": 0.0, "rental_uris": {"ios": "https://dc.lft.to/lastmile_qr_scan", "android": "https://dc.lft.to/lastmile_qr_scan"}, "is_reserved": 0, "fusion_lat": 0.0, "lon": -77.032038}, {"lat": 38.910169333333336, "type": "electric_scooter", "is_disabled": 0, "name": "15112d0b0638dd559b1a6c2e58dd6811", "bike_id": "15112d0b0638dd559b1a6c2e58dd6811", "fusion_lon": 0.0, "rental_uris": {"ios": "https://dc.lft.to/lastmile_qr_scan", "android": "https://dc.lft.to/lastmile_qr_scan"}, "is_reserved": 0, "fusion_lat": 0.0, "lon": -77.04454}, {"lat": 38.926864333333334, "type": "electric_scooter", "is_disabled": 0, "name": "b13938ca7ea74fd0e86317dbc444560d", "bike_id": "b13938ca7ea74fd0e86317dbc444560d", "fusion_lon": 0.0, "rental_uris": {"ios": "https://dc.lft.to/lastmile_qr_scan", "android": "https://dc.lft.to/lastmile_qr_scan"}, "is_reserved": 0, "fusion_lat": 0.0, "lon": -77.00774466666667}, {"lat": 38.92455666666667, "type": "electric_scooter", "is_disabled": 0, "name": "14b64357775d79e3427a5bcf2461fa31", "bike_id": "14b64357775d79e3427a5bcf2461fa31", "fusion_lon": 0.0, "rental_uris": {"ios": "https://dc.lft.to/lastmile_qr_scan", "android": "https://dc.lft.to/lastmile_qr_scan"}, "is_reserved": 0, "fusion_lat": 0.0, "lon": -77.040186}, {"lat": 38.9002795, "type": "electric_scooter", "is_disabled": 0, "name": "1d75e67584b7269c2ace3cc32ff74e6e", "bike_id": "1d75e67584b7269c2ace3cc32ff74e6e", "fusion_lon": 0.0, "rental_uris": {"ios": "https://dc.lft.to/lastmile_qr_scan", "android": "https://dc.lft.to/lastmile_qr_scan"}, "is_reserved": 0, "fusion_lat": 0.0, "lon": -77.0378315}, {"lat": 38.900207333333334, "type": "electric_scooter", "is_disabled": 0, "name": "fd427e639ec6e5727dcc872a1e3d4b38", "bike_id": "fd427e639ec6e5727dcc872a1e3d4b38", "fusion_lon": 0.0, "rental_uris": {"ios": "https://dc.lft.to/lastmile_qr_scan", "android": "https://dc.lft.to/lastmile_qr_scan"}, "is_reserved": 0, "fusion_lat": 0.0, "lon": -77.04361483333334}, {"lat": 38.9290355, "type": "electric_scooter", "is_disabled": 0, "name": "66f3a13791432c302e6196433b1a812f", "bike_id": "66f3a13791432c302e6196433b1a812f", "fusion_lon": 0.0, "rental_uris": {"ios": "https://dc.lft.to/lastmile_qr_scan", "android": "https://dc.lft.to/lastmile_qr_scan"}, "is_reserved": 0, "fusion_lat": 0.0, "lon": -77.03244583333333}, {"lat": 38.92041616666667, "type": "electric_scooter", "is_disabled": 0, "name": "817820d1c076a611e91d707d15250e45", "bike_id": "817820d1c076a611e91d707d15250e45", "fusion_lon": 0.0, "rental_uris": {"ios": "https://dc.lft.to/lastmile_qr_scan", "android": "https://dc.lft.to/lastmile_qr_scan"}, "is_reserved": 0, "fusion_lat": 0.0, "lon": -77.016663}, {"lat": 38.92311566666667, "type": "electric_scooter", "is_disabled": 0, "name": "2ea06709c7284548890081bf7c940687", "bike_id": "2ea06709c7284548890081bf7c940687", "fusion_lon": 0.0, "rental_uris": {"ios": "https://dc.lft.to/lastmile_qr_scan", "android": "https://dc.lft.to/lastmile_qr_scan"}, "is_reserved": 0, "fusion_lat": 0.0, "lon": -77.04276633333333}, {"lat": 38.896405, "type": "electric_scooter", "is_disabled": 0, "name": "914eedaef0961b28bda9709f974dafca", "bike_id": "914eedaef0961b28bda9709f974dafca", "fusion_lon": 0.0, "rental_uris": {"ios": "https://dc.lft.to/lastmile_qr_scan", "android": "https://dc.lft.to/lastmile_qr_scan"}, "is_reserved": 0, "fusion_lat": 0.0, "lon": -77.028579}, {"lat": 38.906109, "type": "electric_scooter", "is_disabled": 0, "name": "17a3d3b13ac5af52e5b8a9e78d889dc2", "bike_id": "17a3d3b13ac5af52e5b8a9e78d889dc2", "fusion_lon": 0.0, "rental_uris": {"ios": "https://dc.lft.to/lastmile_qr_scan", "android": "https://dc.lft.to/lastmile_qr_scan"}, "is_reserved": 0, "fusion_lat": 0.0, "lon": -77.04326333333333}, {"lat": 38.913356, "type": "electric_scooter", "is_disabled": 0, "name": "27ca99eead8e5f31ffd2e2b49b8357dd", "bike_id": "27ca99eead8e5f31ffd2e2b49b8357dd", "fusion_lon": 0.0, "rental_uris": {"ios": "https://dc.lft.to/lastmile_qr_scan", "android": "https://dc.lft.to/lastmile_qr_scan"}, "is_reserved": 0, "fusion_lat": 0.0, "lon": -77.03182566666666}, {"lat": 38.903819166666665, "type": "electric_scooter", "is_disabled": 0, "name": "8d50a28222bb63d5faae90f914f7e323", "bike_id": "8d50a28222bb63d5faae90f914f7e323", "fusion_lon": 0.0, "rental_uris": {"ios": "https://dc.lft.to/lastmile_qr_scan", "android": "https://dc.lft.to/lastmile_qr_scan"}, "is_reserved": 0, "fusion_lat": 0.0, "lon": -77.04220666666667}, {"lat": 38.918296166666664, "type": "electric_scooter", "is_disabled": 0, "name": "1dab3fb929a017b42768b212dfa33265", "bike_id": "1dab3fb929a017b42768b212dfa33265", "fusion_lon": 0.0, "rental_uris": {"ios": "https://dc.lft.to/lastmile_qr_scan", "android": "https://dc.lft.to/lastmile_qr_scan"}, "is_reserved": 0, "fusion_lat": 0.0, "lon": -77.03199816666667}, {"lat": 38.90397183333333, "type": "electric_scooter", "is_disabled": 0, "name": "8aa0955cc901d40b19d53630df5095b7", "bike_id": "8aa0955cc901d40b19d53630df5095b7", "fusion_lon": 0.0, "rental_uris": {"ios": "https://dc.lft.to/lastmile_qr_scan", "android": "https://dc.lft.to/lastmile_qr_scan"}, "is_reserved": 0, "fusion_lat": 0.0, "lon": -77.06301166666667}, {"lat": 38.85442316666666, "type": "electric_scooter", "is_disabled": 0, "name": "093c754866f56cf7cff2bc98ea394259", "bike_id": "093c754866f56cf7cff2bc98ea394259", "fusion_lon": 0.0, "rental_uris": {"ios": "https://dc.lft.to/lastmile_qr_scan", "android": "https://dc.lft.to/lastmile_qr_scan"}, "is_reserved": 0, "fusion_lat": 0.0, "lon": -76.9717555}, {"lat": 38.9199845, "type": "electric_scooter", "is_disabled": 0, "name": "b4e81abeee2c31f849898737cf238e35", "bike_id": "b4e81abeee2c31f849898737cf238e35", "fusion_lon": 0.0, "rental_uris": {"ios": "https://dc.lft.to/lastmile_qr_scan", "android": "https://dc.lft.to/lastmile_qr_scan"}, "is_reserved": 0, "fusion_lat": 0.0, "lon": -76.98399066666667}, {"lat": 38.8922445, "type": "electric_scooter", "is_disabled": 0, "name": "42a4242e6083d9134f0a08968fb7d3c2", "bike_id": "42a4242e6083d9134f0a08968fb7d3c2", "fusion_lon": 0.0, "rental_uris": {"ios": "https://dc.lft.to/lastmile_qr_scan", "android": "https://dc.lft.to/lastmile_qr_scan"}, "is_reserved": 0, "fusion_lat": 0.0, "lon": -77.04363416666666}, {"lat": 38.89754666666666, "type": "electric_scooter", "is_disabled": 0, "name": "88192780174f805ae00595fb9e33cac1", "bike_id": "88192780174f805ae00595fb9e33cac1", "fusion_lon": 0.0, "rental_uris": {"ios": "https://dc.lft.to/lastmile_qr_scan", "android": "https://dc.lft.to/lastmile_qr_scan"}, "is_reserved": 0, "fusion_lat": 0.0, "lon": -77.0301535}, {"lat": 38.9157565, "type": "electric_scooter", "is_disabled": 0, "name": "ce14c2ec38faa4aea428ebbea348b796", "bike_id": "ce14c2ec38faa4aea428ebbea348b796", "fusion_lon": 0.0, "rental_uris": {"ios": "https://dc.lft.to/lastmile_qr_scan", "android": "https://dc.lft.to/lastmile_qr_scan"}, "is_reserved": 0, "fusion_lat": 0.0, "lon": -77.03189616666667}, {"lat": 38.93391833333333, "type": "electric_scooter", "is_disabled": 0, "name": "1681246e7fd6855f4c631e9009fa827d", "bike_id": "1681246e7fd6855f4c631e9009fa827d", "fusion_lon": 0.0, "rental_uris": {"ios": "https://dc.lft.to/lastmile_qr_scan", "android": "https://dc.lft.to/lastmile_qr_scan"}, "is_reserved": 0, "fusion_lat": 0.0, "lon": -77.03220033333334}, {"lat": 38.901654, "type": "electric_bike", "is_disabled": 0, "name": "94dbf22a047952cca1223f0b0bae6936", "bike_id": "94dbf22a047952cca1223f0b0bae6936", "fusion_lon": 0.0, "rental_uris": {"ios": "https://dc.lft.to/lastmile_qr_scan", "android": "https://dc.lft.to/lastmile_qr_scan"}, "is_reserved": 0, "fusion_lat": 0.0, "lon": -76.9769015}, {"lat": 38.922634, "type": "electric_bike", "is_disabled": 0, "name": "6b54449fdd23af1d91cb450e45377876", "bike_id": "6b54449fdd23af1d91cb450e45377876", "fusion_lon": 0.0, "rental_uris": {"ios": "https://dc.lft.to/lastmile_qr_scan", "android": "https://dc.lft.to/lastmile_qr_scan"}, "is_reserved": 0, "fusion_lat": 0.0, "lon": -76.98635716666666}, {"lat": 38.899507166666666, "type": "electric_scooter", "is_disabled": 0, "name": "c1c2fbeae1539bc982c27ff32063c8ce", "bike_id": "c1c2fbeae1539bc982c27ff32063c8ce", "fusion_lon": 0.0, "rental_uris": {"ios": "https://dc.lft.to/lastmile_qr_scan", "android": "https://dc.lft.to/lastmile_qr_scan"}, "is_reserved": 0, "fusion_lat": 0.0, "lon": -77.044944}, {"lat": 38.941666, "type": "electric_scooter", "is_disabled": 0, "name": "1b1845d1bce71134debd3943d75596b6", "bike_id": "1b1845d1bce71134debd3943d75596b6", "fusion_lon": 0.0, "rental_uris": {"ios": "https://dc.lft.to/lastmile_qr_scan", "android": "https://dc.lft.to/lastmile_qr_scan"}, "is_reserved": 0, "fusion_lat": 0.0, "lon": -77.0340335}, {"lat": 38.90331716666667, "type": "electric_scooter", "is_disabled": 0, "name": "d60dd8d52706da8053d0317b7d6a666d", "bike_id": "d60dd8d52706da8053d0317b7d6a666d", "fusion_lon": 0.0, "rental_uris": {"ios": "https://dc.lft.to/lastmile_qr_scan", "android": "https://dc.lft.to/lastmile_qr_scan"}, "is_reserved": 0, "fusion_lat": 0.0, "lon": -77.02468566666667}, {"lat": 38.900293166666664, "type": "electric_scooter", "is_disabled": 0, "name": "a6bb31f5ae19e0892065fbbab01dc8a6", "bike_id": "a6bb31f5ae19e0892065fbbab01dc8a6", "fusion_lon": 0.0, "rental_uris": {"ios": "https://dc.lft.to/lastmile_qr_scan", "android": "https://dc.lft.to/lastmile_qr_scan"}, "is_reserved": 0, "fusion_lat": 0.0, "lon": -76.99906833333333}, {"lat": 38.9084085, "type": "electric_scooter", "is_disabled": 0, "name": "22772683796c58cea7c784eb694e2d19", "bike_id": "22772683796c58cea7c784eb694e2d19", "fusion_lon": 0.0, "rental_uris": {"ios": "https://dc.lft.to/lastmile_qr_scan", "android": "https://dc.lft.to/lastmile_qr_scan"}, "is_reserved": 0, "fusion_lat": 0.0, "lon": -77.035659}, {"lat": 38.924651833333336, "type": "electric_scooter", "is_disabled": 0, "name": "eea9868c1ad8bad637c32bdcbc365dc8", "bike_id": "eea9868c1ad8bad637c32bdcbc365dc8", "fusion_lon": 0.0, "rental_uris": {"ios": "https://dc.lft.to/lastmile_qr_scan", "android": "https://dc.lft.to/lastmile_qr_scan"}, "is_reserved": 0, "fusion_lat": 0.0, "lon": -77.02190116666667}, {"lat": 38.89748933333333, "type": "electric_scooter", "is_disabled": 0, "name": "fa1b0a980a1f36ac9331d99d77153185", "bike_id": "fa1b0a980a1f36ac9331d99d77153185", "fusion_lon": 0.0, "rental_uris": {"ios": "https://dc.lft.to/lastmile_qr_scan", "android": "https://dc.lft.to/lastmile_qr_scan"}, "is_reserved": 0, "fusion_lat": 0.0, "lon": -77.043458}, {"lat": 38.89220366666667, "type": "electric_scooter", "is_disabled": 0, "name": "96ac4a2c864ea1c6fa76cf6104e26d8d", "bike_id": "96ac4a2c864ea1c6fa76cf6104e26d8d", "fusion_lon": 0.0, "rental_uris": {"ios": "https://dc.lft.to/lastmile_qr_scan", "android": "https://dc.lft.to/lastmile_qr_scan"}, "is_reserved": 0, "fusion_lat": 0.0, "lon": -77.02163133333333}, {"lat": 38.92060033333333, "type": "electric_bike", "is_disabled": 0, "name": "f7cb5c49c7f2ec8fbd3d28eac83a4d7d", "bike_id": "f7cb5c49c7f2ec8fbd3d28eac83a4d7d", "fusion_lon": 0.0, "rental_uris": {"ios": "https://dc.lft.to/lastmile_qr_scan", "android": "https://dc.lft.to/lastmile_qr_scan"}, "is_reserved": 0, "fusion_lat": 0.0, "lon": -76.9707205}, {"lat": 38.905530666666664, "type": "electric_scooter", "is_disabled": 0, "name": "0ac8d85b121e078a443c3ab2f32f95d8", "bike_id": "0ac8d85b121e078a443c3ab2f32f95d8", "fusion_lon": 0.0, "rental_uris": {"ios": "https://dc.lft.to/lastmile_qr_scan", "android": "https://dc.lft.to/lastmile_qr_scan"}, "is_reserved": 0, "fusion_lat": 0.0, "lon": -77.03981816666666}, {"lat": 38.894798, "type": "electric_scooter", "is_disabled": 0, "name": "4be85f3aa7b666422d4775fc1bf98d31", "bike_id": "4be85f3aa7b666422d4775fc1bf98d31", "fusion_lon": 0.0, "rental_uris": {"ios": "https://dc.lft.to/lastmile_qr_scan", "android": "https://dc.lft.to/lastmile_qr_scan"}, "is_reserved": 0, "fusion_lat": 0.0, "lon": -77.02115216666667}, {"lat": 38.88129766666667, "type": "electric_scooter", "is_disabled": 0, "name": "e3d43a6ed62f8cf50018b382105e57f9", "bike_id": "e3d43a6ed62f8cf50018b382105e57f9", "fusion_lon": 0.0, "rental_uris": {"ios": "https://dc.lft.to/lastmile_qr_scan", "android": "https://dc.lft.to/lastmile_qr_scan"}, "is_reserved": 0, "fusion_lat": 0.0, "lon": -77.00453966666667}, {"lat": 38.940988, "type": "electric_scooter", "is_disabled": 0, "name": "6664651b5aeb4e804b9c57e3e3924ced", "bike_id": "6664651b5aeb4e804b9c57e3e3924ced", "fusion_lon": 0.0, "rental_uris": {"ios": "https://dc.lft.to/lastmile_qr_scan", "android": "https://dc.lft.to/lastmile_qr_scan"}, "is_reserved": 0, "fusion_lat": 0.0, "lon": -77.0297995}, {"lat": 38.893596, "type": "electric_scooter", "is_disabled": 0, "name": "819fefa1d0278a353ba7bfca62fc79e7", "bike_id": "819fefa1d0278a353ba7bfca62fc79e7", "fusion_lon": 0.0, "rental_uris": {"ios": "https://dc.lft.to/lastmile_qr_scan", "android": "https://dc.lft.to/lastmile_qr_scan"}, "is_reserved": 0, "fusion_lat": 0.0, "lon": -77.00337733333333}, {"lat": 38.924534, "type": "electric_scooter", "is_disabled": 0, "name": "f99eb368087ab335fd491335873118f9", "bike_id": "f99eb368087ab335fd491335873118f9", "fusion_lon": 0.0, "rental_uris": {"ios": "https://dc.lft.to/lastmile_qr_scan", "android": "https://dc.lft.to/lastmile_qr_scan"}, "is_reserved": 0, "fusion_lat": 0.0, "lon": -77.021129}, {"lat": 38.892235, "type": "electric_scooter", "is_disabled": 0, "name": "78476072099791ccbaf0a972677357ae", "bike_id": "78476072099791ccbaf0a972677357ae", "fusion_lon": 0.0, "rental_uris": {"ios": "https://dc.lft.to/lastmile_qr_scan", "android": "https://dc.lft.to/lastmile_qr_scan"}, "is_reserved": 0, "fusion_lat": 0.0, "lon": -77.03131583333334}, {"lat": 38.9498745, "type": "electric_scooter", "is_disabled": 0, "name": "9a2f84a4cc8ea604b57dbaa431d35853", "bike_id": "9a2f84a4cc8ea604b57dbaa431d35853", "fusion_lon": 0.0, "rental_uris": {"ios": "https://dc.lft.to/lastmile_qr_scan", "android": "https://dc.lft.to/lastmile_qr_scan"}, "is_reserved": 0, "fusion_lat": 0.0, "lon": -77.06673566666667}, {"lat": 38.90695483333333, "type": "electric_scooter", "is_disabled": 0, "name": "c2707b72a9e544e16051f56de1f0d95e", "bike_id": "c2707b72a9e544e16051f56de1f0d95e", "fusion_lon": 0.0, "rental_uris": {"ios": "https://dc.lft.to/lastmile_qr_scan", "android": "https://dc.lft.to/lastmile_qr_scan"}, "is_reserved": 0, "fusion_lat": 0.0, "lon": -77.06304033333333}, {"lat": 38.92253016666667, "type": "electric_scooter", "is_disabled": 0, "name": "e2214c3f1c134df63bd65d9d37ca2995", "bike_id": "e2214c3f1c134df63bd65d9d37ca2995", "fusion_lon": 0.0, "rental_uris": {"ios": "https://dc.lft.to/lastmile_qr_scan", "android": "https://dc.lft.to/lastmile_qr_scan"}, "is_reserved": 0, "fusion_lat": 0.0, "lon": -77.02888633333333}, {"lat": 38.9244875, "type": "electric_scooter", "is_disabled": 0, "name": "912328ef41b6ad71d9cfb3f77d1ef38e", "bike_id": "912328ef41b6ad71d9cfb3f77d1ef38e", "fusion_lon": 0.0, "rental_uris": {"ios": "https://dc.lft.to/lastmile_qr_scan", "android": "https://dc.lft.to/lastmile_qr_scan"}, "is_reserved": 0, "fusion_lat": 0.0, "lon": -77.020157}, {"lat": 38.938605333333335, "type": "electric_scooter", "is_disabled": 0, "name": "33f9aac5280a479353400c67ca311861", "bike_id": "33f9aac5280a479353400c67ca311861", "fusion_lon": 0.0, "rental_uris": {"ios": "https://dc.lft.to/lastmile_qr_scan", "android": "https://dc.lft.to/lastmile_qr_scan"}, "is_reserved": 0, "fusion_lat": 0.0, "lon": -77.024755}, {"lat": 38.90130466666667, "type": "electric_scooter", "is_disabled": 0, "name": "2825c10551e1d4030751753dec72b95d", "bike_id": "2825c10551e1d4030751753dec72b95d", "fusion_lon": 0.0, "rental_uris": {"ios": "https://dc.lft.to/lastmile_qr_scan", "android": "https://dc.lft.to/lastmile_qr_scan"}, "is_reserved": 0, "fusion_lat": 0.0, "lon": -77.04192483333334}, {"lat": 38.92057033333333, "type": "electric_scooter", "is_disabled": 0, "name": "ebf33ccf732ae3a7cbc01d4432ffdac4", "bike_id": "ebf33ccf732ae3a7cbc01d4432ffdac4", "fusion_lon": 0.0, "rental_uris": {"ios": "https://dc.lft.to/lastmile_qr_scan", "android": "https://dc.lft.to/lastmile_qr_scan"}, "is_reserved": 0, "fusion_lat": 0.0, "lon": -76.984332}, {"lat": 38.913338833333334, "type": "electric_scooter", "is_disabled": 0, "name": "45ff2c93efede495d3416a794b4a0ec1", "bike_id": "45ff2c93efede495d3416a794b4a0ec1", "fusion_lon": 0.0, "rental_uris": {"ios": "https://dc.lft.to/lastmile_qr_scan", "android": "https://dc.lft.to/lastmile_qr_scan"}, "is_reserved": 0, "fusion_lat": 0.0, "lon": -77.04534916666667}, {"lat": 38.9005585, "type": "electric_scooter", "is_disabled": 0, "name": "3ca1554bb0420bd2509cd0a57b35c165", "bike_id": "3ca1554bb0420bd2509cd0a57b35c165", "fusion_lon": 0.0, "rental_uris": {"ios": "https://dc.lft.to/lastmile_qr_scan", "android": "https://dc.lft.to/lastmile_qr_scan"}, "is_reserved": 0, "fusion_lat": 0.0, "lon": -76.98487683333333}, {"lat": 38.92420466666667, "type": "electric_scooter", "is_disabled": 0, "name": "47604f24cb74b955f1e8294c8026ac08", "bike_id": "47604f24cb74b955f1e8294c8026ac08", "fusion_lon": 0.0, "rental_uris": {"ios": "https://dc.lft.to/lastmile_qr_scan", "android": "https://dc.lft.to/lastmile_qr_scan"}, "is_reserved": 0, "fusion_lat": 0.0, "lon": -77.02039883333333}, {"lat": 38.929694833333336, "type": "electric_scooter", "is_disabled": 0, "name": "f923067ffa98c357f8a92c7960e865f3", "bike_id": "f923067ffa98c357f8a92c7960e865f3", "fusion_lon": 0.0, "rental_uris": {"ios": "https://dc.lft.to/lastmile_qr_scan", "android": "https://dc.lft.to/lastmile_qr_scan"}, "is_reserved": 0, "fusion_lat": 0.0, "lon": -77.04114183333333}, {"lat": 39.0424345, "type": "electric_bike", "is_disabled": 0, "name": "edd3be86d4cad541159d28e8553970e5", "bike_id": "edd3be86d4cad541159d28e8553970e5", "fusion_lon": 0.0, "rental_uris": {"ios": "https://dc.lft.to/lastmile_qr_scan", "android": "https://dc.lft.to/lastmile_qr_scan"}, "is_reserved": 0, "fusion_lat": 0.0, "lon": -76.99738366666666}, {"lat": 38.919420333333335, "type": "electric_scooter", "is_disabled": 0, "name": "32aa975bd4f0a563071835cb1cf26c1f", "bike_id": "32aa975bd4f0a563071835cb1cf26c1f", "fusion_lon": 0.0, "rental_uris": {"ios": "https://dc.lft.to/lastmile_qr_scan", "android": "https://dc.lft.to/lastmile_qr_scan"}, "is_reserved": 0, "fusion_lat": 0.0, "lon": -77.018031}, {"lat": 38.92118883333333, "type": "electric_scooter", "is_disabled": 0, "name": "dae6bb6c2c946a36bec7958b24e426c6", "bike_id": "dae6bb6c2c946a36bec7958b24e426c6", "fusion_lon": 0.0, "rental_uris": {"ios": "https://dc.lft.to/lastmile_qr_scan", "android": "https://dc.lft.to/lastmile_qr_scan"}, "is_reserved": 0, "fusion_lat": 0.0, "lon": -77.02070216666667}, {"lat": 38.90498083333333, "type": "electric_scooter", "is_disabled": 0, "name": "0526f30671662128f325eee3a27e3330", "bike_id": "0526f30671662128f325eee3a27e3330", "fusion_lon": 0.0, "rental_uris": {"ios": "https://dc.lft.to/lastmile_qr_scan", "android": "https://dc.lft.to/lastmile_qr_scan"}, "is_reserved": 0, "fusion_lat": 0.0, "lon": -77.05473766666667}, {"lat": 38.97339083333333, "type": "electric_bike", "is_disabled": 0, "name": "8c0e5d666006b349a4575857ae1b26a5", "bike_id": "8c0e5d666006b349a4575857ae1b26a5", "fusion_lon": 0.0, "rental_uris": {"ios": "https://dc.lft.to/lastmile_qr_scan", "android": "https://dc.lft.to/lastmile_qr_scan"}, "is_reserved": 0, "fusion_lat": 0.0, "lon": -76.99594216666667}, {"lat": 38.935341333333334, "type": "electric_scooter", "is_disabled": 0, "name": "5be1ae1bb3467304a7b0a6b20cdfa543", "bike_id": "5be1ae1bb3467304a7b0a6b20cdfa543", "fusion_lon": 0.0, "rental_uris": {"ios": "https://dc.lft.to/lastmile_qr_scan", "android": "https://dc.lft.to/lastmile_qr_scan"}, "is_reserved": 0, "fusion_lat": 0.0, "lon": -77.02353883333333}, {"lat": 38.877224166666664, "type": "electric_scooter", "is_disabled": 0, "name": "64a1b7757842256ba8a75f1cf0777995", "bike_id": "64a1b7757842256ba8a75f1cf0777995", "fusion_lon": 0.0, "rental_uris": {"ios": "https://dc.lft.to/lastmile_qr_scan", "android": "https://dc.lft.to/lastmile_qr_scan"}, "is_reserved": 0, "fusion_lat": 0.0, "lon": -77.01760166666666}, {"lat": 38.8588235, "type": "electric_scooter", "is_disabled": 0, "name": "8fb91ee39b58047d0d1fa9fdea709fa1", "bike_id": "8fb91ee39b58047d0d1fa9fdea709fa1", "fusion_lon": 0.0, "rental_uris": {"ios": "https://dc.lft.to/lastmile_qr_scan", "android": "https://dc.lft.to/lastmile_qr_scan"}, "is_reserved": 0, "fusion_lat": 0.0, "lon": -76.98944733333333}, {"lat": 38.913488, "type": "electric_scooter", "is_disabled": 0, "name": "87165b658e61206904a0b188d36c9cea", "bike_id": "87165b658e61206904a0b188d36c9cea", "fusion_lon": 0.0, "rental_uris": {"ios": "https://dc.lft.to/lastmile_qr_scan", "android": "https://dc.lft.to/lastmile_qr_scan"}, "is_reserved": 0, "fusion_lat": 0.0, "lon": -77.020544}, {"lat": 38.917412666666664, "type": "electric_scooter", "is_disabled": 0, "name": "6e0b37f6d2f68823041e31fcdda12e79", "bike_id": "6e0b37f6d2f68823041e31fcdda12e79", "fusion_lon": 0.0, "rental_uris": {"ios": "https://dc.lft.to/lastmile_qr_scan", "android": "https://dc.lft.to/lastmile_qr_scan"}, "is_reserved": 0, "fusion_lat": 0.0, "lon": -77.02120633333334}, {"lat": 38.9015425, "type": "electric_scooter", "is_disabled": 0, "name": "4175d43b3e41f1c5d6e81a2258aca854", "bike_id": "4175d43b3e41f1c5d6e81a2258aca854", "fusion_lon": 0.0, "rental_uris": {"ios": "https://dc.lft.to/lastmile_qr_scan", "android": "https://dc.lft.to/lastmile_qr_scan"}, "is_reserved": 0, "fusion_lat": 0.0, "lon": -76.974225}, {"lat": 38.88635033333333, "type": "electric_scooter", "is_disabled": 0, "name": "257ec358c753685c20d5985cb1224016", "bike_id": "257ec358c753685c20d5985cb1224016", "fusion_lon": 0.0, "rental_uris": {"ios": "https://dc.lft.to/lastmile_qr_scan", "android": "https://dc.lft.to/lastmile_qr_scan"}, "is_reserved": 0, "fusion_lat": 0.0, "lon": -77.02168183333333}, {"lat": 38.922191, "type": "electric_scooter", "is_disabled": 0, "name": "98be98b92caca4f29af288bee40ccae1", "bike_id": "98be98b92caca4f29af288bee40ccae1", "fusion_lon": 0.0, "rental_uris": {"ios": "https://dc.lft.to/lastmile_qr_scan", "android": "https://dc.lft.to/lastmile_qr_scan"}, "is_reserved": 0, "fusion_lat": 0.0, "lon": -77.04260683333334}, {"lat": 38.909755, "type": "electric_scooter", "is_disabled": 0, "name": "3a50ebf28275a17bde3e574dd1794b9a", "bike_id": "3a50ebf28275a17bde3e574dd1794b9a", "fusion_lon": 0.0, "rental_uris": {"ios": "https://dc.lft.to/lastmile_qr_scan", "android": "https://dc.lft.to/lastmile_qr_scan"}, "is_reserved": 0, "fusion_lat": 0.0, "lon": -77.04523466666667}, {"lat": 38.90946066666667, "type": "electric_scooter", "is_disabled": 0, "name": "9c28e57cbafd9cf7803db10398541105", "bike_id": "9c28e57cbafd9cf7803db10398541105", "fusion_lon": 0.0, "rental_uris": {"ios": "https://dc.lft.to/lastmile_qr_scan", "android": "https://dc.lft.to/lastmile_qr_scan"}, "is_reserved": 0, "fusion_lat": 0.0, "lon": -77.057439},