{"data": {"bikes": [{"fusion_lat": 0.0, "name": "516e63760cce60f683eb6f6e090b9f5b", "is_disabled": 0, "rental_uris": {"android": "https://dc.lft.to/lastmile_qr_scan", "ios": "https://dc.lft.to/lastmile_qr_scan"}, "fusion_lon": 0.0, "lat": 38.88525416666667, "bike_id": "516e63760cce60f683eb6f6e090b9f5b", "type": "electric_scooter", "is_reserved": 0, "lon": -77.015148}, {"fusion_lat": 0.0, "name": "53e1ef7eac3fcee009e0f508400078d8", "is_disabled": 0, "rental_uris": {"android": "https://dc.lft.to/lastmile_qr_scan", "ios": "https://dc.lft.to/lastmile_qr_scan"}, "fusion_lon": 0.0, "lat": 38.8872535, "bike_id": "53e1ef7eac3fcee009e0f508400078d8", "type": "electric_scooter", "is_reserved": 0, "lon": -76.98356716666666}, {"fusion_lat": 0.0, "name": "f1824f6e6dff8730b064e27064cc8e0a", "is_disabled": 0, "rental_uris": {"android": "https://dc.lft.to/lastmile_qr_scan", "ios": "https://dc.lft.to/lastmile_qr_scan"}, "fusion_lon": 0.0, "lat": 38.899609833333336, "bike_id": "f1824f6e6dff8730b064e27064cc8e0a", "type": "electric_scooter", "is_reserved": 0, "lon": -76.98709433333333}, {"fusion_lat": 0.0, "name": "1051394c7a151e591f11bf5acb0a309f", "is_disabled": 0, "rental_uris": {"android": "https://dc.lft.to/lastmile_qr_scan", "ios": "https://dc.lft.to/lastmile_qr_scan"}, "fusion_lon": 0.0, "lat": 38.92792466666667, "bike_id": "1051394c7a151e591f11bf5acb0a309f", "type": "electric_scooter", "is_reserved": 0, "lon": -77.02726116666666}, {"fusion_lat": 0.0, "name": "c0319c6befbda4439b881c9adc0d2601", "is_disabled": 0, "rental_uris": {"android": "https://dc.lft.to/lastmile_qr_scan", "ios": "https://dc.lft.to/lastmile_qr_scan"}, "fusion_lon": 0.0, "lat": 38.90013916666667, "bike_id": "c0319c6befbda4439b881c9adc0d2601", "type": "electric_scooter", "is_reserved": 0, "lon": -77.01246066666667}, {"fusion_lat": 0.0, "name": "6f44333737b5ef05daefdcccef0bc107", "is_disabled": 0, "rental_uris": {"android": "https://dc.lft.to/lastmile_qr_scan", "ios": "https://dc.lft.to/lastmile_qr_scan"}, "fusion_lon": 0.0, "lat": 38.942243500000004, "bike_id": "6f44333737b5ef05daefdcccef0bc107", "type": "electric_scooter", "is_reserved": 0, "lon": -77.01385966666666}, {"fusion_lat": 0.0, "name": "ab334acd1a7ca61c03f2dde96e5f1bda", "is_disabled": 0, "rental_uris": {"android": "https://dc.lft.to/lastmile_qr_scan", "ios": "https://dc.lft.to/lastmile_qr_scan"}, "fusion_lon": 0.0, "lat": 38.93646783333333, "bike_id": "ab334acd1a7ca61c03f2dde96e5f1bda", "type": "electric_scooter", "is_reserved": 0, "lon": -77.03053983333334}, {"fusion_lat": 0.0, "name": "0c4535e679f1016924ebf056bd3c1d29", "is_disabled": 0, "rental_uris": {"android": "https://dc.lft.to/lastmile_qr_scan", "ios": "https://dc.lft.to/lastmile_qr_scan"}, "fusion_lon": 0.0, "lat": 38.917674833333336, "bike_id": "0c4535e679f1016924ebf056bd3c1d29", "type": "electric_scooter", "is_reserved": 0, "lon": -77.014957}, {"fusion_lat": 0.0, "name": "4d24896885a0301747cb3ac7ad1f1ffa", "is_disabled": 0, "rental_uris": {"android": "https://dc.lft.to/lastmile_qr_scan", "ios": "https://dc.lft.to/lastmile_qr_scan"}, "fusion_lon": 0.0, "lat": 38.89739066666667, "bike_id": "4d24896885a0301747cb3ac7ad1f1ffa", "type": "electric_scooter", "is_reserved": 0, "lon": -77.0335195}, {"fusion_lat": 0.0, "name": "4802b360eb3691e1393948aea38d0a59", "is_disabled": 0, "rental_uris": {"android": "https://dc.lft.to/lastmile_qr_scan", "ios": "https://dc.lft.to/lastmile_qr_scan"}, "fusion_lon": 0.0, "lat": 38.920796, "bike_id": "4802b360eb3691e1393948aea38d0a59", "type": "electric_bike", "is_reserved": 0, "lon": -76.98943483333333}, {"fusion_lat": 0.0, "name": "e9035b183dea3b0d808c65718d913f3c", "is_disabled": 0, "rental_uris": {"android": "https://dc.lft.to/lastmile_qr_scan", "ios": "https://dc.lft.to/lastmile_qr_scan"}, "fusion_lon": 0.0, "lat": 38.9166715, "bike_id": "e9035b183dea3b0d808c65718d913f3c", "type": "electric_scooter", "is_reserved": 0, "lon": -77.0295985}, {"fusion_lat": 0.0, "name": "b459e1e098d83a35f4c4d24a1d6d31e2", "is_disabled": 0, "rental_uris": {"android": "https://dc.lft.to/lastmile_qr_scan", "ios": "https://dc.lft.to/lastmile_qr_scan"}, "fusion_lon": 0.0, "lat": 38.893192, "bike_id": "b459e1e098d83a35f4c4d24a1d6d31e2", "type": "electric_scooter", "is_reserved": 0, "lon": -77.02252166666666}, {"fusion_lat": 0.0, "name": "21339b83e8b75c870290259935471b2c", "is_disabled": 0, "rental_uris": {"android": "https://dc.lft.to/lastmile_qr_scan", "ios": "https://dc.lft.to/lastmile_qr_scan"}, "fusion_lon": 0.0, "lat": 38.9065385, "bike_id": "21339b83e8b75c870290259935471b2c", "type": "electric_scooter", "is_reserved": 0, "lon": -77.02962916666667}, {"fusion_lat": 0.0, "name": "bd42b4788a36d9f2584c98e1037fe59b", "is_disabled": 0, "rental_uris": {"android": "https://dc.lft.to/lastmile_qr_scan", "ios": "https://dc.lft.to/lastmile_qr_scan"}, "fusion_lon": 0.0, "lat": 38.895184, "bike_id": "bd42b4788a36d9f2584c98e1037fe59b", "type": "electric_scooter", "is_reserved": 0, "lon": -76.98083516666667}, {"fusion_lat": 0.0, "name": "def70897ab56c4b2ecd2c2cc5c9a2b0e", "is_disabled": 0, "rental_uris": {"android": "https://dc.lft.to/lastmile_qr_scan", "ios": "https://dc.lft.to/lastmile_qr_scan"}, "fusion_lon": 0.0, "lat": 38.92674233333334, "bike_id": "def70897ab56c4b2ecd2c2cc5c9a2b0e", "type": "electric_scooter", "is_reserved": 0, "lon": -77.02249733333333}, {"fusion_lat": 0.0, "name": "3b7e71f3d7cfdebae5dced4a8005bf91", "is_disabled": 0, "rental_uris": {"android": "https://dc.lft.to/lastmile_qr_scan", "ios": "https://dc.lft.to/lastmile_qr_scan"}, "fusion_lon": 0.0, "lat": 38.93552666666667, "bike_id": "3b7e71f3d7cfdebae5dced4a8005bf91", "type": "electric_scooter", "is_reserved": 0, "lon": -77.0222}, {"fusion_lat": 0.0, "name": "c7c04082796605be3307408b5ba38334", "is_disabled": 0, "rental_uris": {"android": "https://dc.lft.to/lastmile_qr_scan", "ios": "https://dc.lft.to/lastmile_qr_scan"}, "fusion_lon": 0.0, "lat": 38.95343483333333, "bike_id": "c7c04082796605be3307408b5ba38334", "type": "electric_scooter", "is_reserved": 0, "lon": -77.07949783333333}, {"fusion_lat": 0.0, "name": "cec340ddfda655984e8641bd81c09645", "is_disabled": 0, "rental_uris": {"android": "https://dc.lft.to/lastmile_qr_scan", "ios": "https://dc.lft.to/lastmile_qr_scan"}, "fusion_lon": 0.0, "lat": 38.95917133333333, "bike_id": "cec340ddfda655984e8641bd81c09645", "type": "electric_scooter", "is_reserved": 0, "lon": -77.08479183333333}, {"fusion_lat": 0.0, "name": "27c0c55f8d152ad49092e8dda082ec5b", "is_disabled": 0, "rental_uris": {"android": "https://dc.lft.to/lastmile_qr_scan", "ios": "https://dc.lft.to/lastmile_qr_scan"}, "fusion_lon": 0.0, "lat": 38.91113583333333, "bike_id": "27c0c55f8d152ad49092e8dda082ec5b", "type": "electric_scooter", "is_reserved": 0, "lon": -76.99770216666667}, {"fusion_lat": 0.0, "name": "dccd8af97747afe6776c957f6e64c2a2", "is_disabled": 0, "rental_uris": {"android": "https://dc.lft.to/lastmile_qr_scan", "ios": "https://dc.lft.to/lastmile_qr_scan"}, "fusion_lon": 0.0, "lat": 38.93054933333333, "bike_id": "dccd8af97747afe6776c957f6e64c2a2", "type": "electric_scooter", "is_reserved": 0, "lon": -77.03944866666667}, {"fusion_lat": 0.0, "name": "9785fdcf466c45c0e1cf258155944898", "is_disabled": 0, "rental_uris": {"android": "https://dc.lft.to/lastmile_qr_scan", "ios": "https://dc.lft.to/lastmile_qr_scan"}, "fusion_lon": 0.0, "lat": 38.94978483333333, "bike_id": "9785fdcf466c45c0e1cf258155944898", "type": "electric_scooter", "is_reserved": 0, "lon": -77.02698266666667}, {"fusion_lat": 0.0, "name": "579b80335f0e68dffa9cdc71e6ede33e", "is_disabled": 0, "rental_uris": {"android": "https://dc.lft.to/lastmile_qr_scan", "ios": "https://dc.lft.to/lastmile_qr_scan"}, "fusion_lon": 0.0, "lat": 38.86848033333333, "bike_id": "579b80335f0e68dffa9cdc71e6ede33e", "type": "electric_scooter", "is_reserved": 0, "lon": -76.9883075}, {"fusion_lat": 0.0, "name": "488a7e4cfe8ded2208c04c204b62a396", "is_disabled": 0, "rental_uris": {"android": "https://dc.lft.to/lastmile_qr_scan", "ios": "https://dc.lft.to/lastmile_qr_scan"}, "fusion_lon": 0.0, "lat": 38.90796266666667, "bike_id": "488a7e4cfe8ded2208c04c204b62a396", "type": "electric_bike", "is_reserved": 0, "lon": -77.01891866666666}, {"fusion_lat": 0.0, "name": "2f804f7df83016d14accae3c0ae1cbff", "is_disabled": 0, "rental_uris": {"android": "https://dc.lft.to/lastmile_qr_scan", "ios": "https://dc.lft.to/lastmile_qr_scan"}, "fusion_lon": 0.0, "lat": 38.945073666666666, "bike_id": "2f804f7df83016d14accae3c0ae1cbff", "type": "electric_bike", "is_reserved": 0, "lon": -77.0067215}, {"fusion_lat": 0.0, "name": "f4da901945b5d03d81af3de15f8310be", "is_disabled": 0, "rental_uris": {"android": "https://dc.lft.to/lastmile_qr_scan", "ios": "https://dc.lft.to/lastmile_qr_scan"}, "fusion_lon": 0.0, "lat": 38.94978233333333, "bike_id": "f4da901945b5d03d81af3de15f8310be", "type": "electric_scooter", "is_reserved": 0, "lon": -77.02699883333334}, {"fusion_lat": 0.0, "name": "1e428cf275f16f110dbb32b93163926f", "is_disabled": 0, "rental_uris": {"android": "https://dc.lft.to/lastmile_qr_scan", "ios": "https://dc.lft.to/lastmile_qr_scan"}, "fusion_lon": 0.0, "lat": 38.916425, "bike_id": "1e428cf275f16f110dbb32b93163926f", "type": "electric_bike", "is_reserved": 0, "lon": -76.9822565}, {"fusion_lat": 0.0, "name": "30df235818801742551225add7c4c9db", "is_disabled": 0, "rental_uris": {"android": "https://dc.lft.to/lastmile_qr_scan", "ios": "https://dc.lft.to/lastmile_qr_scan"}, "fusion_lon": 0.0, "lat": 38.89218616666667, "bike_id": "30df235818801742551225add7c4c9db", "type": "electric_scooter", "is_reserved": 0, "lon": -77.01499416666667}, {"fusion_lat": 0.0, "name": "9703235caed8b89629252e3f9bce6a4d", "is_disabled": 0, "rental_uris": {"android": "https://dc.lft.to/lastmile_qr_scan", "ios": "https://dc.lft.to/lastmile_qr_scan"}, "fusion_lon": 0.0, "lat": 38.925315833333336, "bike_id": "9703235caed8b89629252e3f9bce6a4d", "type": "electric_scooter", "is_reserved": 0, "lon": -77.05120083333334}, {"fusion_lat": 0.0, "name": "a35fde93d096aa13fc3d827f8da1b50e", "is_disabled": 0, "rental_uris": {"android": "https://dc.lft.to/lastmile_qr_scan", "ios": "https://dc.lft.to/lastmile_qr_scan"}, "fusion_lon": 0.0, "lat": 38.957278333333335, "bike_id": "a35fde93d096aa13fc3d827f8da1b50e", "type": "electric_scooter", "is_reserved": 0, "lon": -77.02403516666666}, {"fusion_lat": 0.0, "name": "510b621b3e43cf900f1a31c20b5a873f", "is_disabled": 0, "rental_uris": {"android": "https://dc.lft.to/lastmile_qr_scan", "ios": "https://dc.lft.to/lastmile_qr_scan"}, "fusion_lon": 0.0, "lat": 38.87557483333333, "bike_id": "510b621b3e43cf900f1a31c20b5a873f", "type": "electric_scooter", "is_reserved": 0, "lon": -77.00721833333333}, {"fusion_lat": 0.0, "name": "4595f75abe3f0a585cf8742299520e0d", "is_disabled": 0, "rental_uris": {"android": "https://dc.lft.to/lastmile_qr_scan", "ios": "https://dc.lft.to/lastmile_qr_scan"}, "fusion_lon": 0.0, "lat": 38.96628166666667, "bike_id": "4595f75abe3f0a585cf8742299520e0d", "type": "electric_scooter", "is_reserved": 0, "lon": -77.02001166666666}, {"fusion_lat": 0.0, "name": "e651f28c6b1bde9f04d3eb72742ee5d7", "is_disabled": 0, "rental_uris": {"android": "https://dc.lft.to/lastmile_qr_scan", "ios": "https://dc.lft.to/lastmile_qr_scan"}, "fusion_lon": 0.0, "lat": 38.933811666666664, "bike_id": "e651f28c6b1bde9f04d3eb72742ee5d7", "type": "electric_scooter", "is_reserved": 0, "lon": -77.0388745}, {"fusion_lat": 0.0, "name": "ce0abeb4fcb8b719b5b16cdd208ef224", "is_disabled": 0, "rental_uris": {"android": "https://dc.lft.to/lastmile_qr_scan", "ios": "https://dc.lft.to/lastmile_qr_scan"}, "fusion_lon": 0.0, "lat": 38.879275666666665, "bike_id": "ce0abeb4fcb8b719b5b16cdd208ef224", "type": "electric_scooter", "is_reserved": 0, "lon": -77.02384183333334}, {"fusion_lat": 0.0, "name": "7e0dfa323bd8532f2e514ad042be4fa0", "is_disabled": 0, "rental_uris": {"android": "https://dc.lft.to/lastmile_qr_scan", "ios": "https://dc.lft.to/lastmile_qr_scan"}, "fusion_lon": 0.0, "lat": 38.896864, "bike_id": "7e0dfa323bd8532f2e514ad042be4fa0", "type": "electric_scooter", "is_reserved": 0, "lon": -77.04326416666666}, {"fusion_lat": 0.0, "name": "af4c995ccaa06b01bddec9518c2608c9", "is_disabled": 0, "rental_uris": {"android": "https://dc.lft.to/lastmile_qr_scan", "ios": "https://dc.lft.to/lastmile_qr_scan"}, "fusion_lon": 0.0, "lat": 38.878471, "bike_id": "af4c995ccaa06b01bddec9518c2608c9", "type": "electric_bike", "is_reserved": 0, "lon": -77.0301815}, {"fusion_lat": 0.0, "name": "df6a41bad2735b36a5e7ac50055d7d75", "is_disabled": 0, "rental_uris": {"android": "https://dc.lft.to/lastmile_qr_scan", "ios": "https://dc.lft.to/lastmile_qr_scan"}, "fusion_lon": 0.0, "lat": 38.90017533333334, "bike_id": "df6a41bad2735b36a5e7ac50055d7d75", "type": "electric_scooter", "is_reserved": 0, "lon": -76.9885905}, {"fusion_lat": 0.0, "name": "181e371ae1abbf20e3b95d8fd61f87af", "is_disabled": 0, "rental_uris": {"android": "https://dc.lft.to/lastmile_qr_scan", "ios": "https://dc.lft.to/lastmile_qr_scan"}, "fusion_lon": 0.0, "lat": 38.9207565, "bike_id": "181e371ae1abbf20e3b95d8fd61f87af", "type": "electric_scooter", "is_reserved": 0, "lon": -77.00447}, {"fusion_lat": 0.0, "name": "66ba9942abeb173c9e271301455e612c", "is_disabled": 0, "rental_uris": {"android": "https://dc.lft.to/lastmile_qr_scan", "ios": "https://dc.lft.to/lastmile_qr_scan"}, "fusion_lon": 0.0, "lat": 38.916154, "bike_id": "66ba9942abeb173c9e271301455e612c", "type": "electric_scooter", "is_reserved": 0, "lon": -77.03641416666666}, {"fusion_lat": 0.0, "name": "d836080364ac826a10148187e4557bca", "is_disabled": 0, "rental_uris": {"android": "https://dc.lft.to/lastmile_qr_scan", "ios": "https://dc.lft.to/lastmile_qr_scan"}, "fusion_lon": 0.0, "lat": 38.9365605, "bike_id": "d836080364ac826a10148187e4557bca", "type": "electric_scooter", "is_reserved": 0, "lon": -77.03678533333333}, {"fusion_lat": 0.0, "name": "ef1ba869e43a68c877aa15570f41b2f1", "is_disabled": 0, "rental_uris": {"android": "https://dc.lft.to/lastmile_qr_scan", "ios": "https://dc.lft.to/lastmile_qr_scan"}, "fusion_lon": 0.0, "lat": 38.904917, "bike_id": "ef1ba869e43a68c877aa15570f41b2f1", "type": "electric_scooter", "is_reserved": 0, "lon": -77.04075}, {"fusion_lat": 0.0, "name": "ace8e1c0a82b20812fb4c066d416ceea", "is_disabled": 0, "rental_uris": {"android": "https://dc.lft.to/lastmile_qr_scan", "ios": "https://dc.lft.to/lastmile_qr_scan"}, "fusion_lon": 0.0, "lat": 38.874666833333336, "bike_id": "ace8e1c0a82b20812fb4c066d416ceea", "type": "electric_scooter", "is_reserved": 0, "lon": -77.00032383333334}, {"fusion_lat": 0.0, "name": "ec425ce62d87ef3d8c0f4559bf7af958", "is_disabled": 0, "rental_uris": {"android": "https://dc.lft.to/lastmile_qr_scan", "ios": "https://dc.lft.to/lastmile_qr_scan"}, "fusion_lon": 0.0, "lat": 38.903762666666665, "bike_id": "ec425ce62d87ef3d8c0f4559bf7af958", "type": "electric_scooter", "is_reserved": 0, "lon": -77.04619883333334}, {"fusion_lat": 0.0, "name": "02bba2e41009e522215e65339692cd82", "is_disabled": 0, "rental_uris": {"android": "https://dc.lft.to/lastmile_qr_scan", "ios": "https://dc.lft.to/lastmile_qr_scan"}, "fusion_lon": 0.0, "lat": 38.81937166666667, "bike_id": "02bba2e41009e522215e65339692cd82", "type": "electric_bike", "is_reserved": 0, "lon": -77.002017}, {"fusion_lat": 0.0, "name": "dbb20dfbf939123a04a5dcc8f3b7449d", "is_disabled": 0, "rental_uris": {"android": "https://dc.lft.to/lastmile_qr_scan", "ios": "https://dc.lft.to/lastmile_qr_scan"}, "fusion_lon": 0.0, "lat": 38.909510166666664, "bike_id": "dbb20dfbf939123a04a5dcc8f3b7449d", "type": "electric_scooter", "is_reserved": 0, "lon": -76.985394}, {"fusion_lat": 0.0, "name": "74ef8a5462c47b877502b0db672aacfd", "is_disabled": 0, "rental_uris": {"android": "https://dc.lft.to/lastmile_qr_scan", "ios": "https://dc.lft.to/lastmile_qr_scan"}, "fusion_lon": 0.0, "lat": 38.904562, "bike_id": "74ef8a5462c47b877502b0db672aacfd", "type": "electric_scooter", "is_reserved": 0, "lon": -77.02951866666666}, {"fusion_lat": 0.0, "name": "5f06d5736c2982dc35b15360ef25619d", "is_disabled": 0, "rental_uris": {"android": "https://dc.lft.to/lastmile_qr_scan", "ios": "https://dc.lft.to/lastmile_qr_scan"}, "fusion_lon": 0.0, "lat": 38.88829583333333, "bike_id": "5f06d5736c2982dc35b15360ef25619d", "type": "electric_scooter", "is_reserved": 0, "lon": -77.04846283333333}, {"fusion_lat": 0.0, "name": "72b83251982f0cf76464986d3bd0a974", "is_disabled": 0, "rental_uris": {"android": "https://dc.lft.to/lastmile_qr_scan", "ios": "https://dc.lft.to/lastmile_qr_scan"}, "fusion_lon": 0.0, "lat": 38.90717333333333, "bike_id": "72b83251982f0cf76464986d3bd0a974", "type": "electric_scooter", "is_reserved": 0, "lon": -77.02538416666667}, {"fusion_lat": 0.0, "name": "e7d8a2c5a170708125f4db6a5bceabc4", "is_disabled": 0, "rental_uris": {"android": "https://dc.lft.to/lastmile_qr_scan", "ios": "https://dc.lft.to/lastmile_qr_scan"}, "fusion_lon": 0.0, "lat": 38.93745716666667, "bike_id": "e7d8a2c5a170708125f4db6a5bceabc4", "type": "electric_scooter", "is_reserved": 0, "lon": -77.02529866666667}, {"fusion_lat": 0.0, "name": "b33dcd92b43d779f18be8f1972afaa2f", "is_disabled": 0, "rental_uris": {"android": "https://dc.lft.to/lastmile_qr_scan", "ios": "https://dc.lft.to/lastmile_qr_scan"}, "fusion_lon": 0.0, "lat": 38.93148433333333, "bike_id": "b33dcd92b43d779f18be8f1972afaa2f", "type": "electric_scooter", "is_reserved": 0, "lon": -77.0397655}, {"fusion_lat": 0.0, "name": "f5086a3e6954bf1774c82e24f5436fce", "is_disabled": 0, "rental_uris": {"android": "https://dc.lft.to/lastmile_qr_scan", "ios": "https://dc.lft.to/lastmile_qr_scan"}, "fusion_lon": 0.0, "lat": 38.84125133333333, "bike_id": "f5086a3e6954bf1774c82e24f5436fce", "type": "electric_bike", "is_reserved": 0, "lon": -77.06309316666666}, {"fusion_lat": 0.0, "name": "c32322f9492d18dbe621d7f81d8b4edc", "is_disabled": 0, "rental_uris": {"android": "https://dc.lft.to/lastmile_qr_scan", "ios": "https://dc.lft.to/lastmile_qr_scan"}, "fusion_lon": 0.0, "lat": 38.8634965, "bike_id": "c32322f9492d18dbe621d7f81d8b4edc", "type": "electric_bike", "is_reserved": 0, "lon": -77.07720933333333}, {"fusion_lat": 0.0, "name": "2296cfe52f3d45af57e285c9e892b7ad", "is_disabled": 0, "rental_uris": {"android": "https://dc.lft.to/lastmile_qr_scan", "ios": "https://dc.lft.to/lastmile_qr_scan"}, "fusion_lon": 0.0, "lat": 38.89227433333333, "bike_id": "2296cfe52f3d45af57e285c9e892b7ad", "type": "electric_scooter", "is_reserved": 0, "lon": -77.0030515}, {"fusion_lat": 0.0, "name": "0663cd228309616d50cda49aef348d0e", "is_disabled": 0, "rental_uris": {"android": "https://dc.lft.to/lastmile_qr_scan", "ios": "https://dc.lft.to/lastmile_qr_scan"}, "fusion_lon": 0.0, "lat": 38.90557716666667, "bike_id": "0663cd228309616d50cda49aef348d0e", "type": "electric_scooter", "is_reserved": 0, "lon": -77.00587266666666}, {"fusion_lat": 0.0, "name": "bafd982e217e3d25b233b4a2a8342b2a", "is_disabled": 0, "rental_uris": {"android": "https://dc.lft.to/lastmile_qr_scan", "ios": "https://dc.lft.to/lastmile_qr_scan"}, "fusion_lon": 0.0, "lat": 38.8947345, "bike_id": "bafd982e217e3d25b233b4a2a8342b2a", "type": "electric_scooter", "is_reserved": 0, "lon": -77.021888}, {"fusion_lat": 0.0, "name": "a822767cc4f1b592adc451bd21d09311", "is_disabled": 0, "rental_uris": {"android": "https://dc.lft.to/lastmile_qr_scan", "ios": "https://dc.lft.to/lastmile_qr_scan"}, "fusion_lon": 0.0, "lat": 38.92533916666667, "bike_id": "a822767cc4f1b592adc451bd21d09311", "type": "electric_scooter", "is_reserved": 0, "lon": -77.00754266666667}, {"fusion_lat": 0.0, "name": "77fe77651589ffa1dc6b4fcf9661f966", "is_disabled": 0, "rental_uris": {"android": "https://dc.lft.to/lastmile_qr_scan", "ios": "https://dc.lft.to/lastmile_qr_scan"}, "fusion_lon": 0.0, "lat": 38.892460166666666, "bike_id": "77fe77651589ffa1dc6b4fcf9661f966", "type": "electric_scooter", "is_reserved": 0, "lon": -77.03348166666666}, {"fusion_lat": 0.0, "name": "9d52c576aaa571c512810b3d6f801fdd", "is_disabled": 0, "rental_uris": {"android": "https://dc.lft.to/lastmile_qr_scan", "ios": "https://dc.lft.to/lastmile_qr_scan"}, "fusion_lon": 0.0, "lat": 38.926795166666665, "bike_id": "9d52c576aaa571c512810b3d6f801fdd", "type": "electric_scooter", "is_reserved": 0, "lon": -77.03091683333334}, {"fusion_lat": 0.0, "name": "feea10a1b797cdd016ed6b29b1474575", "is_disabled": 0, "rental_uris": {"android": "https://dc.lft.to/lastmile_qr_scan", "ios": "https://dc.lft.to/lastmile_qr_scan"}, "fusion_lon": 0.0, "lat": 38.89954866666667, "bike_id": "feea10a1b797cdd016ed6b29b1474575", "type": "electric_scooter", "is_reserved": 0, "lon": -77.03326}, {"fusion_lat": 0.0, "name": "88c61ccb940cfa3cac6784c8e4f6ca16", "is_disabled": 0, "rental_uris": {"android": "https://dc.lft.to/lastmile_qr_scan", "ios": "https://dc.lft.to/lastmile_qr_scan"}, "fusion_lon": 0.0, "lat": 38.90715133333333, "bike_id": "88c61ccb940cfa3cac6784c8e4f6ca16", "type": "electric_scooter", "is_reserved": 0, "lon": -77.0475445}, {"fusion_lat": 0.0, "name": "8b9172aa3a738b06a596539b8f6639e0", "is_disabled": 0, "rental_uris": {"android": "https://dc.lft.to/lastmile_qr_scan", "ios": "https://dc.lft.to/lastmile_qr_scan"}, "fusion_lon": 0.0, "lat": 38.90012333333333, "bike_id": "8b9172aa3a738b06a596539b8f6639e0", "type": "electric_scooter", "is_reserved": 0, "lon": -77.01123066666666}, {"fusion_lat": 0.0, "name": "fd3ece1f626acd9b7fad23a343fcaa5d", "is_disabled": 0, "rental_uris": {"android": "https://dc.lft.to/lastmile_qr_scan", "ios": "https://dc.lft.to/lastmile_qr_scan"}, "fusion_lon": 0.0, "lat": 38.903395833333335, "bike_id": "fd3ece1f626acd9b7fad23a343fcaa5d", "type": "electric_scooter", "is_reserved": 0, "lon": -76.93370933333334}, {"fusion_lat": 0.0, "name": "0b764f9a497883e0ce83f9b9244e10bf", "is_disabled": 0, "rental_uris": {"android": "https://dc.lft.to/lastmile_qr_scan", "ios": "https://dc.lft.to/lastmile_qr_scan"}, "fusion_lon": 0.0, "lat": 38.80755416666667, "bike_id": "0b764f9a497883e0ce83f9b9244e10bf", "type": "electric_bike", "is_reserved": 0, "lon": -77.09454983333333}, {"fusion_lat": 0.0, "name": "4f4c2d6e15f22219c20efb7bfa06a121", "is_disabled": 0, "rental_uris": {"android": "https://dc.lft.to/lastmile_qr_scan", "ios": "https://dc.lft.to/lastmile_qr_scan"}, "fusion_lon": 0.0, "lat": 38.883019, "bike_id": "4f4c2d6e15f22219c20efb7bfa06a121", "type": "electric_scooter", "is_reserved": 0, "lon": -76.94859433333333}, {"fusion_lat": 0.0, "name": "89689064282b0e83c250860bb30e9ea0", "is_disabled": 0, "rental_uris": {"android": "https://dc.lft.to/lastmile_qr_scan", "ios": "https://dc.lft.to/lastmile_qr_scan"}, "fusion_lon": 0.0, "lat": 38.819108666666665, "bike_id": "89689064282b0e83c250860bb30e9ea0", "type": "electric_bike", "is_reserved": 0, "lon": -77.047929}, {"fusion_lat": 0.0, "name": "93887d1cc8a8aa39795b653bda179bcd", "is_disabled": 0, "rental_uris": {"android": "https://dc.lft.to/lastmile_qr_scan", "ios": "https://dc.lft.to/lastmile_qr_scan"}, "fusion_lon": 0.0, "lat": 38.928625, "bike_id": "93887d1cc8a8aa39795b653bda179bcd", "type": "electric_scooter", "is_reserved": 0, "lon": -77.03414733333334}, {"fusion_lat": 0.0, "name": "981ab7572af1273fa7fafe0d1c8aa47b", "is_disabled": 0, "rental_uris": {"android": "https://dc.lft.to/lastmile_qr_scan", "ios": "https://dc.lft.to/lastmile_qr_scan"}, "fusion_lon": 0.0, "lat": 38.89359133333333, "bike_id": "981ab7572af1273fa7fafe0d1c8aa47b", "type": "electric_scooter", "is_reserved": 0, "lon": -77.022574}, {"fusion_lat": 0.0, "name": "f793f229e89056dcbf8da13f6bfef4a4", "is_disabled": 0, "rental_uris": {"android": "https://dc.lft.to/lastmile_qr_scan", "ios": "https://dc.lft.to/lastmile_qr_scan"}, "fusion_lon": 0.0, "lat": 38.8873145, "bike_id": "f793f229e89056dcbf8da13f6bfef4a4", "type": "electric_bike", "is_reserved": 0, "lon": -77.01532733333333}, {"fusion_lat": 0.0, "name": "ad13c48ded0120e7fdcd6c6f16117b2b", "is_disabled": 0, "rental_uris": {"android": "https://dc.lft.to/lastmile_qr_scan", "ios": "https://dc.lft.to/lastmile_qr_scan"}, "fusion_lon": 0.0, "lat": 38.89608783333333, "bike_id": "ad13c48ded0120e7fdcd6c6f16117b2b", "type": "electric_scooter", "is_reserved": 0, "lon": -77.02288233333333}, {"fusion_lat": 0.0, "name": "14e0de5edced586cae1911f96d6b4265", "is_disabled": 0, "rental_uris": {"android": "https://dc.lft.to/lastmile_qr_scan", "ios": "https://dc.lft.to/lastmile_qr_scan"}, "fusion_lon": 0.0, "lat": 38.92080033333333, "bike_id": "14e0de5edced586cae1911f96d6b4265", "type": "electric_scooter", "is_reserved": 0, "lon": -76.99483033333334}, {"fusion_lat": 0.0, "name": "7bd75b29fe768268ef13cf63cee34832", "is_disabled": 0, "rental_uris": {"android": "https://dc.lft.to/lastmile_qr_scan", "ios": "https://dc.lft.to/lastmile_qr_scan"}, "fusion_lon": 0.0, "lat": 38.93980283333333, "bike_id": "7bd75b29fe768268ef13cf63cee34832", "type": "electric_scooter", "is_reserved": 0, "lon": -77.02873766666667}, {"fusion_lat": 0.0, "name": "2a6e4b947e8591e4b792881c34036fc2", "is_disabled": 0, "rental_uris": {"android": "https://dc.lft.to/lastmile_qr_scan", "ios": "https://dc.lft.to/lastmile_qr_scan"}, "fusion_lon": 0.0, "lat": 38.900243, "bike_id": "2a6e4b947e8591e4b792881c34036fc2", "type": "electric_scooter", "is_reserved": 0, "lon": -76.99861016666667}, {"fusion_lat": 0.0, "name": "9d15a66fed6180aff529432b144c01ac", "is_disabled": 0, "rental_uris": {"android": "https://dc.lft.to/lastmile_qr_scan", "ios": "https://dc.lft.to/lastmile_qr_scan"}, "fusion_lon": 0.0, "lat": 38.907301833333335, "bike_id": "9d15a66fed6180aff529432b144c01ac", "type": "electric_scooter", "is_reserved": 0, "lon": -77.04768233333333}, {"fusion_lat": 0.0, "name": "882558c7d2a8682f97a992a1b0eba1f7", "is_disabled": 0, "rental_uris": {"android": "https://dc.lft.to/lastmile_qr_scan", "ios": "https://dc.lft.to/lastmile_qr_scan"}, "fusion_lon": 0.0, "lat": 38.89016516666667, "bike_id": "882558c7d2a8682f97a992a1b0eba1f7", "type": "electric_scooter", "is_reserved": 0, "lon": -76.93747933333333}, {"fusion_lat": 0.0, "name": "7edeb9922b59a9ac2734d259fb48ec68", "is_disabled": 0, "rental_uris": {"android": "https://dc.lft.to/lastmile_qr_scan", "ios": "https://dc.lft.to/lastmile_qr_scan"}, "fusion_lon": 0.0, "lat": 38.89723683333333, "bike_id": "7edeb9922b59a9ac2734d259fb48ec68", "type": "electric_scooter", "is_reserved": 0, "lon": -77.02760066666667}, {"fusion_lat": 0.0, "name": "bc231a2209794ce443e3fbd761b93edb", "is_disabled": 0, "rental_uris": {"android": "https://dc.lft.to/lastmile_qr_scan", "ios": "https://dc.lft.to/lastmile_qr_scan"}, "fusion_lon": 0.0, "lat": 38.896018166666664, "bike_id": "bc231a2209794ce443e3fbd761b93edb", "type": "electric_scooter", "is_reserved": 0, "lon": -76.98113533333333}, {"fusion_lat": 0.0, "name": "ffd347eef73584a060008a3baef40acf", "is_disabled": 0, "rental_uris": {"android": "https://dc.lft.to/lastmile_qr_scan", "ios": "https://dc.lft.to/lastmile_qr_scan"}, "fusion_lon": 0.0, "lat": 38.924784, "bike_id": "ffd347eef73584a060008a3baef40acf", "type": "electric_scooter", "is_reserved": 0, "lon": -77.02544533333334}, {"fusion_lat": 0.0, "name": "376238354ff425979c38d5d58c8c1ec6", "is_disabled": 0, "rental_uris": {"android": "https://dc.lft.to/lastmile_qr_scan", "ios": "https://dc.lft.to/lastmile_qr_scan"}, "fusion_lon": 0.0, "lat": 38.9046565, "bike_id": "376238354ff425979c38d5d58c8c1ec6", "type": "electric_scooter", "is_reserved": 0, "lon": -77.04847}, {"fusion_lat": 0.0, "name": "92dda628fed98d434b789f51d29bca5b", "is_disabled": 0, "rental_uris": {"android": "https://dc.lft.to/lastmile_qr_scan", "ios": "https://dc.lft.to/lastmile_qr_scan"}, "fusion_lon": 0.0, "lat": 38.9083495, "bike_id": "92dda628fed98d434b789f51d29bca5b", "type": "electric_scooter", "is_reserved": 0, "lon": -77.00112466666667}, {"fusion_lat": 0.0, "name": "8633d6cdb59d702d041766dfc8bb5b69", "is_disabled": 0, "rental_uris": {"android": "https://dc.lft.to/lastmile_qr_scan", "ios": "https://dc.lft.to/lastmile_qr_scan"}, "fusion_lon": 0.0, "lat": 38.961837, "bike_id": "8633d6cdb59d702d041766dfc8bb5b69", "type": "electric_bike", "is_reserved": 0, "lon": -77.052664}, {"fusion_lat": 0.0, "name": "9823e0b59b8188d5e2dc3e841887d872", "is_disabled": 0, "rental_uris": {"android": "https://dc.lft.to/lastmile_qr_scan", "ios": "https://dc.lft.to/lastmile_qr_scan"}, "fusion_lon": 0.0, "lat": 38.930568666666666, "bike_id": "9823e0b59b8188d5e2dc3e841887d872", "type": "electric_scooter", "is_reserved": 0, "lon": -77.04059583333333}, {"fusion_lat": 0.0, "name": "a9bda9c3ca805ec740255fad668752a4", "is_disabled": 0, "rental_uris": {"android": "https://dc.lft.to/lastmile_qr_scan", "ios": "https://dc.lft.to/lastmile_qr_scan"}, "fusion_lon": 0.0, "lat": 38.9047915, "bike_id": "a9bda9c3ca805ec740255fad668752a4", "type": "electric_scooter", "is_reserved": 0, "lon": -77.04879583333333}, {"fusion_lat": 0.0, "name": "538d482fa6c5e166d8d4f6358459e554", "is_disabled": 0, "rental_uris": {"android": "https://dc.lft.to/lastmile_qr_scan", "ios": "https://dc.lft.to/lastmile_qr_scan"}, "fusion_lon": 0.0, "lat": 38.897471, "bike_id": "538d482fa6c5e166d8d4f6358459e554", "type": "electric_scooter", "is_reserved": 0, "lon": -77.02489966666667}, {"fusion_lat": 0.0, "name": "4fc766bfd4d8de14d6184ab24a91cde8", "is_disabled": 0, "rental_uris": {"android": "https://dc.lft.to/lastmile_qr_scan", "ios": "https://dc.lft.to/lastmile_qr_scan"}, "fusion_lon": 0.0, "lat": 38.911118, "bike_id": "4fc766bfd4d8de14d6184ab24a91cde8", "type": "electric_scooter", "is_reserved": 0, "lon": -77.0293035}, {"fusion_lat": 0.0, "name": "f8e8c33d15be3ea4eeb96a19ac633150", "is_disabled": 0, "rental_uris": {"android": "https://dc.lft.to/lastmile_qr_scan", "ios": "https://dc.lft.to/lastmile_qr_scan"}, "fusion_lon": 0.0, "lat": 38.92429666666666, "bike_id": "f8e8c33d15be3ea4eeb96a19ac633150", "type": "electric_scooter", "is_reserved": 0, "lon": -77.04458533333333}, {"fusion_lat": 0.0, "name": "6fd8bc7dfbd75e4b48b07c84b63ef315", "is_disabled": 0, "rental_uris": {"android": "https://dc.lft.to/lastmile_qr_scan", "ios": "https://dc.lft.to/lastmile_qr_scan"}, "fusion_lon": 0.0, "lat": 38.90422066666667, "bike_id": "6fd8bc7dfbd75e4b48b07c84b63ef315", "type": "electric_scooter", "is_reserved": 0, "lon": -77.01890416666667}, {"fusion_lat": 0.0, "name": "eb85af16c8c3d3ef483339efd40bd890", "is_disabled": 0, "rental_uris": {"android": "https://dc.lft.to/lastmile_qr_scan", "ios": "https://dc.lft.to/lastmile_qr_scan"}, "fusion_lon": 0.0, "lat": 38.97374133333334, "bike_id": "eb85af16c8c3d3ef483339efd40bd890", "type": "electric_scooter", "is_reserved": 0, "lon": -77.0128535}, {"fusion_lat": 0.0, "name": "8b63f27e80e5e80aa8ce05ca0c57c04e", "is_disabled": 0, "rental_uris": {"android": "https://dc.lft.to/lastmile_qr_scan", "ios": "https://dc.lft.to/lastmile_qr_scan"}, "fusion_lon": 0.0, "lat": 38.902793, "bike_id": "8b63f27e80e5e80aa8ce05ca0c57c04e", "type": "electric_scooter", "is_reserved": 0, "lon": -77.03646716666667}, {"fusion_lat": 0.0, "name": "69ed5cc06e854d676082882b79c33e80", "is_disabled": 0, "rental_uris": {"android": "https://dc.lft.to/lastmile_qr_scan", "ios": "https://dc.lft.to/lastmile_qr_scan"}, "fusion_lon": 0.0, "lat": 38.96988283333334, "bike_id": "69ed5cc06e854d676082882b79c33e80", "type": "electric_scooter", "is_reserved": 0, "lon": -77.01160683333333}, {"fusion_lat": 0.0, "name": "3238327cad7ed13652a4663b7cf50f72", "is_disabled": 0, "rental_uris": {"android": "https://dc.lft.to/lastmile_qr_scan", "ios": "https://dc.lft.to/lastmile_qr_scan"}, "fusion_lon": 0.0, "lat": 38.89235566666667, "bike_id": "3238327cad7ed13652a4663b7cf50f72", "type": "electric_scooter", "is_reserved": 0, "lon": -77.03354083333333}, {"fusion_lat": 0.0, "name": "63b779a5504faae1ae4aba2f291f31a0", "is_disabled": 0, "rental_uris": {"android": "https://dc.lft.to/lastmile_qr_scan", "ios": "https://dc.lft.to/lastmile_qr_scan"}, "fusion_lon": 0.0, "lat": 38.911915666666665, "bike_id": "63b779a5504faae1ae4aba2f291f31a0", "type": "electric_scooter", "is_reserved": 0, "lon": -77.01196216666666}, {"fusion_lat": 0.0, "name": "85c8f8f4655bb6cac61f6a8d252d62b7", "is_disabled": 0, "rental_uris": {"android": "https://dc.lft.to/lastmile_qr_scan", "ios": "https://dc.lft.to/lastmile_qr_scan"}, "fusion_lon": 0.0, "lat": 38.8910515, "bike_id": "85c8f8f4655bb6cac61f6a8d252d62b7", "type": "electric_scooter", "is_reserved": 0, "lon": -76.943815}, {"fusion_lat": 0.0, "name": "52f3e9a61e28938f8a6523666be0d0c2", "is_disabled": 0, "rental_uris": {"android": "https://dc.lft.to/lastmile_qr_scan", "ios": "https://dc.lft.to/lastmile_qr_scan"}, "fusion_lon": 0.0, "lat": 38.9040875, "bike_id": "52f3e9a61e28938f8a6523666be0d0c2", "type": "electric_scooter", "is_reserved": 0, "lon": -76.97330016666666}, {"fusion_lat": 0.0, "name": "da810f5f2a5632f382cf5b4326ed3c72", "is_disabled": 0, "rental_uris": {"android": "https://dc.lft.to/lastmile_qr_scan", "ios": "https://dc.lft.to/lastmile_qr_scan"}, "fusion_lon": 0.0, "lat": 38.86014266666667, "bike_id": "da810f5f2a5632f382cf5b4326ed3c72", "type": "electric_bike", "is_reserved": 0, "lon": -77.128096}, {"fusion_lat": 0.0, "name": "a986fc89ee870b39674f51d9a2d79eb0", "is_disabled": 0, "rental_uris": {"android": "https://dc.lft.to/lastmile_qr_scan", "ios": "https://dc.lft.to/lastmile_qr_scan"}, "fusion_lon": 0.0, "lat": 38.9025615, "bike_id": "a986fc89ee870b39674f51d9a2d79eb0", "type": "electric_scooter", "is_reserved": 0, "lon": -76.974553}, {"fusion_lat": 0.0, "name": "1419b540c4fb5fc4794ae99373cb7c77", "is_disabled": 0, "rental_uris": {"android": "https://dc.lft.to/lastmile_qr_scan", "ios": "https://dc.lft.to/lastmile_qr_scan"}, "fusion_lon": 0.0, "lat": 38.92069266666667, "bike_id": "1419b540c4fb5fc4794ae99373cb7c77", "type": "electric_scooter", "is_reserved": 0, "lon": -77.02415016666667}, {"fusion_lat": 0.0, "name": "788fcec02b51c4021d2859da3dcacbb2", "is_disabled": 0, "rental_uris": {"android": "https://dc.lft.to/lastmile_qr_scan", "ios": "https://dc.lft.to/lastmile_qr_scan"}, "fusion_lon": 0.0, "lat": 38.91817133333333, "bike_id": "788fcec02b51c4021d2859da3dcacbb2", "type": "electric_scooter", "is_reserved": 0, "lon": -77.02491066666667}, {"fusion_lat": 0.0, "name": "eef0daec06656aaefacb632db7040a87", "is_disabled": 0, "rental_uris": {"android": "https://dc.lft.to/lastmile_qr_scan", "ios": "https://dc.lft.to/lastmile_qr_scan"}, "fusion_lon": 0.0, "lat": 38.92927783333333, "bike_id": "eef0daec06656aaefacb632db7040a87", "type": "electric_scooter", "is_reserved": 0, "lon": -77.02338566666667}, {"fusion_lat": 0.0, "name": "ed170cc501b4f9ef205073f6f9881615", "is_disabled": 0, "rental_uris": {"android": "https://dc.lft.to/lastmile_qr_scan", "ios": "https://dc.lft.to/lastmile_qr_scan"}, "fusion_lon": 0.0, "lat": 38.930741166666664, "bike_id": "ed170cc501b4f9ef205073f6f9881615", "type": "electric_scooter", "is_reserved": 0, "lon": -77.0776445}, {"fusion_lat": 0.0, "name": "85dd806b70a7fb5258098c3a07594348", "is_disabled": 0, "rental_uris": {"android": "https://dc.lft.to/lastmile_qr_scan", "ios": "https://dc.lft.to/lastmile_qr_scan"}, "fusion_lon": 0.0, "lat": 38.92315883333333, "bike_id": "85dd806b70a7fb5258098c3a07594348", "type": "electric_scooter", "is_reserved": 0, "lon": -77.02038483333334}, {"fusion_lat": 0.0, "name": "36ef0de231f6bb8576b41a06148b520c", "is_disabled": 0, "rental_uris": {"android": "https://dc.lft.to/lastmile_qr_scan", "ios": "https://dc.lft.to/lastmile_qr_scan"}, "fusion_lon": 0.0, "lat": 38.908067, "bike_id": "36ef0de231f6bb8576b41a06148b520c", "type": "electric_scooter", "is_reserved": 0, "lon": -77.03444033333334}, {"fusion_lat": 0.0, "name": "828b3b44761bc675996c4d411e47d917", "is_disabled": 0, "rental_uris": {"android": "https://dc.lft.to/lastmile_qr_scan", "ios": "https://dc.lft.to/lastmile_qr_scan"}, "fusion_lon": 0.0, "lat": 38.92148066666667, "bike_id": "828b3b44761bc675996c4d411e47d917", "type": "electric_scooter", "is_reserved": 0, "lon": -77.03357266666667}, {"fusion_lat": 0.0, "name": "5650e29dc27ca1bde41917ff62066e0b", "is_disabled": 0, "rental_uris": {"android": "https://dc.lft.to/lastmile_qr_scan", "ios": "https://dc.lft.to/lastmile_qr_scan"}, "fusion_lon": 0.0, "lat": 38.952302333333336, "bike_id": "5650e29dc27ca1bde41917ff62066e0b", "type": "electric_scooter", "is_reserved": 0, "lon": -76.99009133333334}, {"fusion_lat": 0.0, "name": "38454d16164ef9f24f0f4ac9d957d857", "is_disabled": 0, "rental_uris": {"android": "https://dc.lft.to/lastmile_qr_scan", "ios": "https://dc.lft.to/lastmile_qr_scan"}, "fusion_lon": 0.0, "lat": 38.907127333333335, "bike_id": "38454d16164ef9f24f0f4ac9d957d857", "type": "electric_scooter", "is_reserved": 0, "lon": -77.02893683333333}, {"fusion_lat": 0.0, "name": "30b5c6e507dac59ac3e6c4560ecda66e", "is_disabled": 0, "rental_uris": {"android": "https://dc.lft.to/lastmile_qr_scan", "ios": "https://dc.lft.to/lastmile_qr_scan"}, "fusion_lon": 0.0, "lat": 38.903941833333334, "bike_id": "30b5c6e507dac59ac3e6c4560ecda66e", "type": "electric_scooter", "is_reserved": 0, "lon": -76.99010766666666}, {"fusion_lat": 0.0, "name": "6dff0b68c473fae9d7840cd0937e19b0", "is_disabled": 0, "rental_uris": {"android": "https://dc.lft.to/lastmile_qr_scan", "ios": "https://dc.lft.to/lastmile_qr_scan"}, "fusion_lon": 0.0, "lat": 38.90727616666667, "bike_id": "6dff0b68c473fae9d7840cd0937e19b0", "type": "electric_scooter", "is_reserved": 0, "lon": -77.012251}, {"fusion_lat": 0.0, "name": "face0a18be8976fd2e5284820b5f0459", "is_disabled": 0, "rental_uris": {"android": "https://dc.lft.to/lastmile_qr_scan", "ios": "https://dc.lft.to/lastmile_qr_scan"}, "fusion_lon": 0.0, "lat": 38.93521483333333, "bike_id": "face0a18be8976fd2e5284820b5f0459", "type": "electric_scooter", "is_reserved": 0, "lon": -77.03262016666666}, {"fusion_lat": 0.0, "name": "549ae434e81cd986655f2040292e4b44", "is_disabled": 0, "rental_uris": {"android": "https://dc.lft.to/lastmile_qr_scan", "ios": "https://dc.lft.to/lastmile_qr_scan"}, "fusion_lon": 0.0, "lat": 38.952191666666664, "bike_id": "549ae434e81cd986655f2040292e4b44", "type": "electric_scooter", "is_reserved": 0, "lon": -77.08218583333333}, {"fusion_lat": 0.0, "name": "df56e060063e31739b708dcc1db18616", "is_disabled": 0, "rental_uris": {"android": "https://dc.lft.to/lastmile_qr_scan", "ios": "https://dc.lft.to/lastmile_qr_scan"}, "fusion_lon": 0.0, "lat": 38.931482833333334, "bike_id": "df56e060063e31739b708dcc1db18616", "type": "electric_scooter", "is_reserved": 0, "lon": -77.03965883333333}, {"fusion_lat": 0.0, "name": "7ec6a1bd3de32f8572dc5892c12952f7", "is_disabled": 0, "rental_uris": {"android": "https://dc.lft.to/lastmile_qr_scan", "ios": "https://dc.lft.to/lastmile_qr_scan"}, "fusion_lon": 0.0, "lat": 38.882171166666666, "bike_id": "7ec6a1bd3de32f8572dc5892c12952f7", "type": "electric_scooter", "is_reserved": 0, "lon": -77.02936666666666}, {"fusion_lat": 0.0, "name": "fa89dd6a1a7f937f2f199ddeaa7a435d", "is_disabled": 0, "rental_uris": {"android": "https://dc.lft.to/lastmile_qr_scan", "ios": "https://dc.lft.to/lastmile_qr_scan"}, "fusion_lon": 0.0, "lat": 38.91993683333333, "bike_id": "fa89dd6a1a7f937f2f199ddeaa7a435d", "type": "electric_scooter", "is_reserved": 0, "lon": -77.07194466666667}, {"fusion_lat": 0.0, "name": "c2988551b51c755c114dfd4b94429239", "is_disabled": 0, "rental_uris": {"android": "https://dc.lft.to/lastmile_qr_scan", "ios": "https://dc.lft.to/lastmile_qr_scan"}, "fusion_lon": 0.0, "lat": 38.94847033333333, "bike_id": "c2988551b51c755c114dfd4b94429239", "type": "electric_scooter", "is_reserved": 0, "lon": -77.0256585}, {"fusion_lat": 0.0, "name": "db9298caeb43fb5539760b7300a0428d", "is_disabled": 0, "rental_uris": {"android": "https://dc.lft.to/lastmile_qr_scan", "ios": "https://dc.lft.to/lastmile_qr_scan"}, "fusion_lon": 0.0, "lat": 38.882986333333335, "bike_id": "db9298caeb43fb5539760b7300a0428d", "type": "electric_scooter", "is_reserved": 0, "lon": -76.948537}, {"fusion_lat": 0.0, "name": "ec4bb923c9c9404508b7ce7b7b0483bf", "is_disabled": 0, "rental_uris": {"android": "https://dc.lft.to/lastmile_qr_scan", "ios": "https://dc.lft.to/lastmile_qr_scan"}, "fusion_lon": 0.0, "lat": 38.92082966666667, "bike_id": "ec4bb923c9c9404508b7ce7b7b0483bf", "type": "electric_scooter", "is_reserved": 0, "lon": -76.99450066666667}, {"fusion_lat": 0.0, "name": "16201c62ef5781b8f8e12f4d76115b5d", "is_disabled": 0, "rental_uris": {"android": "https://dc.lft.to/lastmile_qr_scan", "ios": "https://dc.lft.to/lastmile_qr_scan"}, "fusion_lon": 0.0, "lat": 38.91255783333333, "bike_id": "16201c62ef5781b8f8e12f4d76115b5d", "type": "electric_scooter", "is_reserved": 0, "lon": -77.00630416666667}, {"fusion_lat": 0.0, "name": "2baffd2fc1d36b086b68037110223d25", "is_disabled": 0, "rental_uris": {"android": "https://dc.lft.to/lastmile_qr_scan", "ios": "https://dc.lft.to/lastmile_qr_scan"}, "fusion_lon": 0.0, "lat": 38.9242385, "bike_id": "2baffd2fc1d36b086b68037110223d25", "type": "electric_scooter", "is_reserved": 0, "lon": -77.0254915}, {"fusion_lat": 0.0, "name": "d8e139d50e46b5c09657af604510de04", "is_disabled": 0, "rental_uris": {"android": "https://dc.lft.to/lastmile_qr_scan", "ios": "https://dc.lft.to/lastmile_qr_scan"}, "fusion_lon": 0.0, "lat": 38.854180166666666, "bike_id": "d8e139d50e46b5c09657af604510de04", "type": "electric_bike", "is_reserved": 0, "lon": -77.12075783333333}, {"fusion_lat": 0.0, "name": "dc2980efb4ac6e54b8a6c4ee38ec870f", "is_disabled": 0, "rental_uris": {"android": "https://dc.lft.to/lastmile_qr_scan", "ios": "https://dc.lft.to/lastmile_qr_scan"}, "fusion_lon": 0.0, "lat": 38.935778666666664, "bike_id": "dc2980efb4ac6e54b8a6c4ee38ec870f", "type": "electric_scooter", "is_reserved": 0, "lon": -77.02847166666666}, {"fusion_lat": 0.0, "name": "05aa2b2c72a06e5514d0b8831803b809", "is_disabled": 0, "rental_uris": {"android": "https://dc.lft.to/lastmile_qr_scan", "ios": "https://dc.lft.to/lastmile_qr_scan"}, "fusion_lon": 0.0, "lat": 38.89995416666667, "bike_id": "05aa2b2c72a06e5514d0b8831803b809", "type": "electric_scooter", "is_reserved": 0, "lon": -76.99843666666666}, {"fusion_lat": 0.0, "name": "ef09df643e253d1df68e5ed1eb6f87ba", "is_disabled": 0, "rental_uris": {"android": "https://dc.lft.to/lastmile_qr_scan", "ios": "https://dc.lft.to/lastmile_qr_scan"}, "fusion_lon": 0.0, "lat": 38.91799783333333, "bike_id": "ef09df643e253d1df68e5ed1eb6f87ba", "type": "electric_scooter", "is_reserved": 0, "lon": -77.0271045}, {"fusion_lat": 0.0, "name": "b1d7b7d52a565bb90ae76c1e579a99bb", "is_disabled": 0, "rental_uris": {"android": "https://dc.lft.to/lastmile_qr_scan", "ios": "https://dc.lft.to/lastmile_qr_scan"}, "fusion_lon": 0.0, "lat": 38.930031666666665, "bike_id": "b1d7b7d52a565bb90ae76c1e579a99bb", "type": "electric_scooter", "is_reserved": 0, "lon": -77.0208105}, {"fusion_lat": 0.0, "name": "dc6ea01a9c84a0ef0cd7ad2536deb368", "is_disabled": 0, "rental_uris": {"android": "https://dc.lft.to/lastmile_qr_scan", "ios": "https://dc.lft.to/lastmile_qr_scan"}, "fusion_lon": 0.0, "lat": 38.899884166666666, "bike_id": "dc6ea01a9c84a0ef0cd7ad2536deb368", "type": "electric_scooter", "is_reserved": 0, "lon": -76.997481}, {"fusion_lat": 0.0, "name": "23d52b107e3c032988ad859563fc1fdf", "is_disabled": 0, "rental_uris": {"android": "https://dc.lft.to/lastmile_qr_scan", "ios": "https://dc.lft.to/lastmile_qr_scan"}, "fusion_lon": 0.0, "lat": 38.92480966666667, "bike_id": "23d52b107e3c032988ad859563fc1fdf", "type": "electric_scooter", "is_reserved": 0, "lon": -77.02715083333334}, {"fusion_lat": 0.0, "name": "cbff960dff885dc4455db6135ace14f4", "is_disabled": 0, "rental_uris": {"android": "https://dc.lft.to/lastmile_qr_scan", "ios": "https://dc.lft.to/lastmile_qr_scan"}, "fusion_lon": 0.0, "lat": 38.8535915, "bike_id": "cbff960dff885dc4455db6135ace14f4", "type": "electric_bike", "is_reserved": 0, "lon": -77.11505516666666}, {"fusion_lat": 0.0, "name": "8ce3aaae2446dde029a9b248745c9d04", "is_disabled": 0, "rental_uris": {"android": "https://dc.lft.to/lastmile_qr_scan", "ios": "https://dc.lft.to/lastmile_qr_scan"}, "fusion_lon": 0.0, "lat": 38.909432, "bike_id": "8ce3aaae2446dde029a9b248745c9d04", "type": "electric_scooter", "is_reserved": 0, "lon": -77.0474585}, {"fusion_lat": 0.0, "name": "102f64ff0c675c75227452cfb4107e29", "is_disabled": 0, "rental_uris": {"android": "https://dc.lft.to/lastmile_qr_scan", "ios": "https://dc.lft.to/lastmile_qr_scan"}, "fusion_lon": 0.0, "lat": 38.927512666666665, "bike_id": "102f64ff0c675c75227452cfb4107e29", "type": "electric_scooter", "is_reserved": 0, "lon": -77.03302883333333}, {"fusion_lat": 0.0, "name": "ab29d14842d4f96554d0ef7955460329", "is_disabled": 0, "rental_uris": {"android": "https://dc.lft.to/lastmile_qr_scan", "ios": "https://dc.lft.to/lastmile_qr_scan"}, "fusion_lon": 0.0, "lat": 38.9072775, "bike_id": "ab29d14842d4f96554d0ef7955460329", "type": "electric_scooter", "is_reserved": 0, "lon": -77.0260285}, {"fusion_lat": 0.0, "name": "d0f65c61ca9d609a510d6dfdb40e1afa", "is_disabled": 0, "rental_uris": {"android": "https://dc.lft.to/lastmile_qr_scan", "ios": "https://dc.lft.to/lastmile_qr_scan"}, "fusion_lon": 0.0, "lat": 39.03425166666667, "bike_id": "d0f65c61ca9d609a510d6dfdb40e1afa", "type": "electric_bike", "is_reserved": 0, "lon": -77.04290016666667}, {"fusion_lat": 0.0, "name": "d7dd16dce5ced43a7e3d8e5ac1a3ff23", "is_disabled": 0, "rental_uris": {"android": "https://dc.lft.to/lastmile_qr_scan", "ios": "https://dc.lft.to/lastmile_qr_scan"}, "fusion_lon": 0.0, "lat": 38.938573, "bike_id": "d7dd16dce5ced43a7e3d8e5ac1a3ff23", "type": "electric_scooter", "is_reserved": 0, "lon": -77.03207116666667}, {"fusion_lat": 0.0, "name": "fb8d6e2a74529aa50f0fd4c2aa775861", "is_disabled": 0, "rental_uris": {"android": "https://dc.lft.to/lastmile_qr_scan", "ios": "https://dc.lft.to/lastmile_qr_scan"}, "fusion_lon": 0.0, "lat": 38.9141955, "bike_id": "fb8d6e2a74529aa50f0fd4c2aa775861", "type": "electric_scooter", "is_reserved": 0, "lon": -76.98441}, {"fusion_lat": 0.0, "name": "8339a59e91decdefffae93f940cd613f", "is_disabled": 0, "rental_uris": {"android": "https://dc.lft.to/lastmile_qr_scan", "ios": "https://dc.lft.to/lastmile_qr_scan"}, "fusion_lon": 0.0, "lat": 38.91561, "bike_id": "8339a59e91decdefffae93f940cd613f", "type": "electric_scooter", "is_reserved": 0, "lon": -77.031522}, {"fusion_lat": 0.0, "name": "ad3fdbfb02a996bb46aa6ed3970ffe7f", "is_disabled": 0, "rental_uris": {"android": "https://dc.lft.to/lastmile_qr_scan", "ios": "https://dc.lft.to/lastmile_qr_scan"}, "fusion_lon": 0.0, "lat": 38.90043583333333, "bike_id": "ad3fdbfb02a996bb46aa6ed3970ffe7f", "type": "electric_scooter", "is_reserved": 0, "lon": -77.04486}, {"fusion_lat": 0.0, "name": "790b89ecf3232c5337e433553e22a714", "is_disabled": 0, "rental_uris": {"android": "https://dc.lft.to/lastmile_qr_scan", "ios": "https://dc.lft.to/lastmile_qr_scan"}, "fusion_lon": 0.0, "lat": 38.87826166666667, "bike_id": "790b89ecf3232c5337e433553e22a714", "type": "electric_scooter", "is_reserved": 0, "lon": -76.99013966666666}, {"fusion_lat": 0.0, "name": "99cd87afb6edbf54c9383faa9fb55e02", "is_disabled": 0, "rental_uris": {"android": "https://dc.lft.to/lastmile_qr_scan", "ios": "https://dc.lft.to/lastmile_qr_scan"}, "fusion_lon": 0.0, "lat": 38.91152983333333, "bike_id": "99cd87afb6edbf54c9383faa9fb55e02", "type": "electric_scooter", "is_reserved": 0, "lon": -76.987258}, {"fusion_lat": 0.0, "name": "e9db57c1f317d83c5f4108602fc12a3d", "is_disabled": 0, "rental_uris": {"android": "https://dc.lft.to/lastmile_qr_scan", "ios": "https://dc.lft.to/lastmile_qr_scan"}, "fusion_lon": 0.0, "lat": 38.924053, "bike_id": "e9db57c1f317d83c5f4108602fc12a3d", "type": "electric_scooter", "is_reserved": 0, "lon": -77.02537733333334}, {"fusion_lat": 0.0, "name": "ddf84b2f14f8af687d4520442093cdc9", "is_disabled": 0, "rental_uris": {"android": "https://dc.lft.to/lastmile_qr_scan", "ios": "https://dc.lft.to/lastmile_qr_scan"}, "fusion_lon": 0.0, "lat": 38.9112555, "bike_id": "ddf84b2f14f8af687d4520442093cdc9", "type": "electric_scooter", "is_reserved": 0, "lon": -77.015234}, {"fusion_lat": 0.0, "name": "fe44e30172a8369b5283795ebdd7823d", "is_disabled": 0, "rental_uris": {"android": "https://dc.lft.to/lastmile_qr_scan", "ios": "https://dc.lft.to/lastmile_qr_scan"}, "fusion_lon": 0.0, "lat": 38.902071166666666, "bike_id": "fe44e30172a8369b5283795ebdd7823d", "type": "electric_scooter", "is_reserved": 0, "lon": -77.02204566666667}, {"fusion_lat": 0.0, "name": "e629392b89a231131996f1780ef12762", "is_disabled": 0, "rental_uris": {"android": "https://dc.lft.to/lastmile_qr_scan", "ios": "https://dc.lft.to/lastmile_qr_scan"}, "fusion_lon": 0.0, "lat": 38.867601, "bike_id": "e629392b89a231131996f1780ef12762", "type": "electric_scooter", "is_reserved": 0, "lon": -76.98275216666667}, {"fusion_lat": 0.0, "name": "bc36b68ffce68076ea370a00bdbccccd", "is_disabled": 0, "rental_uris": {"android": "https://dc.lft.to/lastmile_qr_scan", "ios": "https://dc.lft.to/lastmile_qr_scan"}, "fusion_lon": 0.0, "lat": 38.89613583333333, "bike_id": "bc36b68ffce68076ea370a00bdbccccd", "type": "electric_scooter", "is_reserved": 0, "lon": -77.02651516666667}, {"fusion_lat": 0.0, "name": "ea1a3d326a63c3a10ee1344f3123226b", "is_disabled": 0, "rental_uris": {"android": "https://dc.lft.to/lastmile_qr_scan", "ios": "https://dc.lft.to/lastmile_qr_scan"}, "fusion_lon": 0.0, "lat": 38.8738205, "bike_id": "ea1a3d326a63c3a10ee1344f3123226b", "type": "electric_scooter", "is_reserved": 0, "lon": -77.00129983333333}, {"fusion_lat": 0.0, "name": "e5cc743bc28f8fb1a15c01108dba5a4b", "is_disabled": 0, "rental_uris": {"android": "https://dc.lft.to/lastmile_qr_scan", "ios": "https://dc.lft.to/lastmile_qr_scan"}, "fusion_lon": 0.0, "lat": 38.9148935, "bike_id": "e5cc743bc28f8fb1a15c01108dba5a4b", "type": "electric_scooter", "is_reserved": 0, "lon": -77.0141955}, {"fusion_lat": 0.0, "name": "753729fd26d6f3a75e63bf533b02f6b0", "is_disabled": 0, "rental_uris": {"android": "https://dc.lft.to/lastmile_qr_scan", "ios": "https://dc.lft.to/lastmile_qr_scan"}, "fusion_lon": 0.0, "lat": 38.926620666666665, "bike_id": "753729fd26d6f3a75e63bf533b02f6b0", "type": "electric_scooter", "is_reserved": 0, "lon": -77.05159933333333}, {"fusion_lat": 0.0, "name": "d13ff7ec66c6ed606cf2997db6066a12", "is_disabled": 0, "rental_uris": {"android": "https://dc.lft.to/lastmile_qr_scan", "ios": "https://dc.lft.to/lastmile_qr_scan"}, "fusion_lon": 0.0, "lat": 38.89546416666666, "bike_id": "d13ff7ec66c6ed606cf2997db6066a12", "type": "electric_scooter", "is_reserved": 0, "lon": -77.0110005}, {"fusion_lat": 0.0, "name": "95fa39fcf4ef8394c20a73b2fdfb7268", "is_disabled": 0, "rental_uris": {"android": "https://dc.lft.to/lastmile_qr_scan", "ios": "https://dc.lft.to/lastmile_qr_scan"}, "fusion_lon": 0.0, "lat": 38.940854333333334, "bike_id": "95fa39fcf4ef8394c20a73b2fdfb7268", "type": "electric_scooter", "is_reserved": 0, "lon": -77.06182666666666}, {"fusion_lat": 0.0, "name": "bc80bd0f27b3e17c55911fcb0b7d3748", "is_disabled": 0, "rental_uris": {"android": "https://dc.lft.to/lastmile_qr_scan", "ios": "https://dc.lft.to/lastmile_qr_scan"}, "fusion_lon": 0.0, "lat": 38.909460833333334, "bike_id": "bc80bd0f27b3e17c55911fcb0b7d3748", "type": "electric_scooter", "is_reserved": 0, "lon": -77.0271345}, {"fusion_lat": 0.0, "name": "43375c4e38631b6039d157d96581adf4", "is_disabled": 0, "rental_uris": {"android": "https://dc.lft.to/lastmile_qr_scan", "ios": "https://dc.lft.to/lastmile_qr_scan"}, "fusion_lon": 0.0, "lat": 38.9112525, "bike_id": "43375c4e38631b6039d157d96581adf4", "type": "electric_scooter", "is_reserved": 0, "lon": -77.03733366666667}, {"fusion_lat": 0.0, "name": "17cadc19a0a4e0fa0d06e4a9ba1f9fd3", "is_disabled": 0, "rental_uris": {"android": "https://dc.lft.to/lastmile_qr_scan", "ios": "https://dc.lft.to/lastmile_qr_scan"}, "fusion_lon": 0.0, "lat": 38.8576885, "bike_id": "17cadc19a0a4e0fa0d06e4a9ba1f9fd3", "type": "electric_bike", "is_reserved": 0, "lon": -76.98770066666667}, {"fusion_lat": 0.0, "name": "ea7a00d55a2139ad756359625d8c130a", "is_disabled": 0, "rental_uris": {"android": "https://dc.lft.to/lastmile_qr_scan", "ios": "https://dc.lft.to/lastmile_qr_scan"}, "fusion_lon": 0.0, "lat": 38.898101, "bike_id": "ea7a00d55a2139ad756359625d8c130a", "type": "electric_scooter", "is_reserved": 0, "lon": -77.027183}, {"fusion_lat": 0.0, "name": "9869270d0d83478c0c36c09eb5907d1e", "is_disabled": 0, "rental_uris": {"android": "https://dc.lft.to/lastmile_qr_scan", "ios": "https://dc.lft.to/lastmile_qr_scan"}, "fusion_lon": 0.0, "lat": 38.88388283333333, "bike_id": "9869270d0d83478c0c36c09eb5907d1e", "type": "electric_scooter", "is_reserved": 0, "lon": -76.93049533333334}, {"fusion_lat": 0.0, "name": "514044898728a5214b5b147a99962869", "is_disabled": 0, "rental_uris": {"android": "https://dc.lft.to/lastmile_qr_scan", "ios": "https://dc.lft.to/lastmile_qr_scan"}, "fusion_lon": 0.0, "lat": 38.938207, "bike_id": "514044898728a5214b5b147a99962869", "type": "electric_scooter", "is_reserved": 0, "lon": -77.06152866666666}, {"fusion_lat": 0.0, "name": "6902f5d773830702ce59cf9d161517a4", "is_disabled": 0, "rental_uris": {"android": "https://dc.lft.to/lastmile_qr_scan", "ios": "https://dc.lft.to/lastmile_qr_scan"}, "fusion_lon": 0.0, "lat": 38.91793833333333, "bike_id": "6902f5d773830702ce59cf9d161517a4", "type": "electric_scooter", "is_reserved": 0, "lon": -77.02313433333333}, {"fusion_lat": 0.0, "name": "1a6808378f7b907001c72a2024634397", "is_disabled": 0, "rental_uris": {"android": "https://dc.lft.to/lastmile_qr_scan", "ios": "https://dc.lft.to/lastmile_qr_scan"}, "fusion_lon": 0.0, "lat": 38.93388316666667, "bike_id": "1a6808378f7b907001c72a2024634397", "type": "electric_scooter", "is_reserved": 0, "lon": -77.0284925}, {"fusion_lat": 0.0, "name": "659f5fa16ea2eef8b8923f83e595e240", "is_disabled": 0, "rental_uris": {"android": "https://dc.lft.to/lastmile_qr_scan", "ios": "https://dc.lft.to/lastmile_qr_scan"}, "fusion_lon": 0.0, "lat": 38.916077, "bike_id": "659f5fa16ea2eef8b8923f83e595e240", "type": "electric_scooter", "is_reserved": 0, "lon": -77.017286}, {"fusion_lat": 0.0, "name": "c3ba97affad97cd7197bbb5875d6c802", "is_disabled": 0, "rental_uris": {"android": "https://dc.lft.to/lastmile_qr_scan", "ios": "https://dc.lft.to/lastmile_qr_scan"}, "fusion_lon": 0.0, "lat": 38.904141833333334, "bike_id": "c3ba97affad97cd7197bbb5875d6c802", "type": "electric_scooter", "is_reserved": 0, "lon": -77.02561233333333}, {"fusion_lat": 0.0, "name": "deb91b371fee61950791d4ad6c289c0d", "is_disabled": 0, "rental_uris": {"android": "https://dc.lft.to/lastmile_qr_scan", "ios": "https://dc.lft.to/lastmile_qr_scan"}, "fusion_lon": 0.0, "lat": 38.90146283333333, "bike_id": "deb91b371fee61950791d4ad6c289c0d", "type": "electric_scooter", "is_reserved": 0, "lon": -77.04040866666666}, {"fusion_lat": 0.0, "name": "d4e02ed3b6d86dca27c2fe50ea10272c", "is_disabled": 0, "rental_uris": {"android": "https://dc.lft.to/lastmile_qr_scan", "ios": "https://dc.lft.to/lastmile_qr_scan"}, "fusion_lon": 0.0, "lat": 38.94108883333333, "bike_id": "d4e02ed3b6d86dca27c2fe50ea10272c", "type": "electric_scooter", "is_reserved": 0, "lon": -77.034764}, {"fusion_lat": 0.0, "name": "a421d0393d599c9ecd0584a5c28207a4", "is_disabled": 0, "rental_uris": {"android": "https://dc.lft.to/lastmile_qr_scan", "ios": "https://dc.lft.to/lastmile_qr_scan"}, "fusion_lon": 0.0, "lat": 38.90306416666667, "bike_id": "a421d0393d599c9ecd0584a5c28207a4", "type": "electric_scooter", "is_reserved": 0, "lon": -77.03191466666667}, {"fusion_lat": 0.0, "name": "999b9695d6112f4aa4eb6e50de986374", "is_disabled": 0, "rental_uris": {"android": "https://dc.lft.to/lastmile_qr_scan", "ios": "https://dc.lft.to/lastmile_qr_scan"}, "fusion_lon": 0.0, "lat": 38.887533166666664, "bike_id": "999b9695d6112f4aa4eb6e50de986374", "type": "electric_scooter", "is_reserved": 0, "lon": -76.99784}, {"fusion_lat": 0.0, "name": "4c89ce58fb46c4336167bb061ce58570", "is_disabled": 0, "rental_uris": {"android": "https://dc.lft.to/lastmile_qr_scan", "ios": "https://dc.lft.to/lastmile_qr_scan"}, "fusion_lon": 0.0, "lat": 38.935824333333336, "bike_id": "4c89ce58fb46c4336167bb061ce58570", "type": "electric_scooter", "is_reserved": 0, "lon": -77.02378066666667}, {"fusion_lat": 0.0, "name": "3bb0b06704b619aa73f28ab5eb55c304", "is_disabled": 0, "rental_uris": {"android": "https://dc.lft.to/lastmile_qr_scan", "ios": "https://dc.lft.to/lastmile_qr_scan"}, "fusion_lon": 0.0, "lat": 38.90660533333333, "bike_id": "3bb0b06704b619aa73f28ab5eb55c304", "type": "electric_scooter", "is_reserved": 0, "lon": -77.0296295}, {"fusion_lat": 0.0, "name": "d41a4f4c72b03afb0b61a230443d3fd1", "is_disabled": 0, "rental_uris": {"android": "https://dc.lft.to/lastmile_qr_scan", "ios": "https://dc.lft.to/lastmile_qr_scan"}, "fusion_lon": 0.0, "lat": 38.889864833333334, "bike_id": "d41a4f4c72b03afb0b61a230443d3fd1", "type": "electric_scooter", "is_reserved": 0, "lon": -76.92986566666667}, {"fusion_lat": 0.0, "name": "55c225fe9b5b2a1a083363937524dc41", "is_disabled": 0, "rental_uris": {"android": "https://dc.lft.to/lastmile_qr_scan", "ios": "https://dc.lft.to/lastmile_qr_scan"}, "fusion_lon": 0.0, "lat": 38.91709616666667, "bike_id": "55c225fe9b5b2a1a083363937524dc41", "type": "electric_scooter", "is_reserved": 0, "lon": -77.02748883333334}, {"fusion_lat": 0.0, "name": "92944076862bf2f5f24c2121398983a3", "is_disabled": 0, "rental_uris": {"android": "https://dc.lft.to/lastmile_qr_scan", "ios": "https://dc.lft.to/lastmile_qr_scan"}, "fusion_lon": 0.0, "lat": 38.92340633333333, "bike_id": "92944076862bf2f5f24c2121398983a3", "type": "electric_scooter", "is_reserved": 0, "lon": -76.99249483333334}, {"fusion_lat": 0.0, "name": "087f7d8de393386f0612e7c69ab73c4f", "is_disabled": 0, "rental_uris": {"android": "https://dc.lft.to/lastmile_qr_scan", "ios": "https://dc.lft.to/lastmile_qr_scan"}, "fusion_lon": 0.0, "lat": 38.84754366666667, "bike_id": "087f7d8de393386f0612e7c69ab73c4f", "type": "electric_scooter", "is_reserved": 0, "lon": -76.99499133333333}, {"fusion_lat": 0.0, "name": "e464314a0f351c86765502462dad35df", "is_disabled": 0, "rental_uris": {"android": "https://dc.lft.to/lastmile_qr_scan", "ios": "https://dc.lft.to/lastmile_qr_scan"}, "fusion_lon": 0.0, "lat": 38.9451585, "bike_id": "e464314a0f351c86765502462dad35df", "type": "electric_scooter", "is_reserved": 0, "lon": -77.03888416666666}, {"fusion_lat": 0.0, "name": "3ad05bf7b02656734335e7bd347c529f", "is_disabled": 0, "rental_uris": {"android": "https://dc.lft.to/lastmile_qr_scan", "ios": "https://dc.lft.to/lastmile_qr_scan"}, "fusion_lon": 0.0, "lat": 38.937030666666665, "bike_id": "3ad05bf7b02656734335e7bd347c529f", "type": "electric_scooter", "is_reserved": 0, "lon": -77.06102866666667}, {"fusion_lat": 0.0, "name": "83a9f52e84d5ccf3e57e9ece8e733225", "is_disabled": 0, "rental_uris": {"android": "https://dc.lft.to/lastmile_qr_scan", "ios": "https://dc.lft.to/lastmile_qr_scan"}, "fusion_lon": 0.0, "lat": 38.905813, "bike_id": "83a9f52e84d5ccf3e57e9ece8e733225", "type": "electric_scooter", "is_reserved": 0, "lon": -77.029599}, {"fusion_lat": 0.0, "name": "245ca8ce83981ad0e7ee4b3cc6265245", "is_disabled": 0, "rental_uris": {"android": "https://dc.lft.to/lastmile_qr_scan", "ios": "https://dc.lft.to/lastmile_qr_scan"}, "fusion_lon": 0.0, "lat": 38.912643833333334, "bike_id": "245ca8ce83981ad0e7ee4b3cc6265245", "type": "electric_scooter", "is_reserved": 0, "lon": -77.033946}, {"fusion_lat": 0.0, "name": "aa9402004a5edcc48d81fb49630cd49b", "is_disabled": 0, "rental_uris": {"android": "https://dc.lft.to/lastmile_qr_scan", "ios": "https://dc.lft.to/lastmile_qr_scan"}, "fusion_lon": 0.0, "lat": 38.91358866666667, "bike_id": "aa9402004a5edcc48d81fb49630cd49b", "type": "electric_scooter", "is_reserved": 0, "lon": -77.04876216666666}, {"fusion_lat": 0.0, "name": "40e2a0b7da6980c2ace357d45d179ad4", "is_disabled": 0, "rental_uris": {"android": "https://dc.lft.to/lastmile_qr_scan", "ios": "https://dc.lft.to/lastmile_qr_scan"}, "fusion_lon": 0.0, "lat": 38.91251333333334, "bike_id": "40e2a0b7da6980c2ace357d45d179ad4", "type": "electric_scooter", "is_reserved": 0, "lon": -77.04931383333333}, {"fusion_lat": 0.0, "name": "8737d1501d733f1c0a52d3008833d215", "is_disabled": 0, "rental_uris": {"android": "https://dc.lft.to/lastmile_qr_scan", "ios": "https://dc.lft.to/lastmile_qr_scan"}, "fusion_lon": 0.0, "lat": 38.899386666666665, "bike_id": "8737d1501d733f1c0a52d3008833d215", "type": "electric_scooter", "is_reserved": 0, "lon": -77.04854}, {"fusion_lat": 0.0, "name": "c930509bbe63f52598cadec0a38c0433", "is_disabled": 0, "rental_uris": {"android": "https://dc.lft.to/lastmile_qr_scan", "ios": "https://dc.lft.to/lastmile_qr_scan"}, "fusion_lon": 0.0, "lat": 38.92306816666667, "bike_id": "c930509bbe63f52598cadec0a38c0433", "type": "electric_scooter", "is_reserved": 0, "lon": -77.04262083333333}, {"fusion_lat": 0.0, "name": "e6cccac32a9e27ed27df17b4fe9900fd", "is_disabled": 0, "rental_uris": {"android": "https://dc.lft.to/lastmile_qr_scan", "ios": "https://dc.lft.to/lastmile_qr_scan"}, "fusion_lon": 0.0, "lat": 38.90030266666667, "bike_id": "e6cccac32a9e27ed27df17b4fe9900fd", "type": "electric_scooter", "is_reserved": 0, "lon": -76.98855033333334}, {"fusion_lat": 0.0, "name": "7945aec2f3f635590a3cd21b478ff7e0", "is_disabled": 0, "rental_uris": {"android": "https://dc.lft.to/lastmile_qr_scan", "ios": "https://dc.lft.to/lastmile_qr_scan"}, "fusion_lon": 0.0, "lat": 38.876425, "bike_id": "7945aec2f3f635590a3cd21b478ff7e0", "type": "electric_scooter", "is_reserved": 0, "lon": -77.007546}, {"fusion_lat": 0.0, "name": "34509fa0e5f815e351dc1cbfd21b3611", "is_disabled": 0, "rental_uris": {"android": "https://dc.lft.to/lastmile_qr_scan", "ios": "https://dc.lft.to/lastmile_qr_scan"}, "fusion_lon": 0.0, "lat": 38.90457283333333, "bike_id": "34509fa0e5f815e351dc1cbfd21b3611", "type": "electric_scooter", "is_reserved": 0, "lon": -77.03357883333334}, {"fusion_lat": 0.0, "name": "5701ab6c4ecad014c767f174fd683592", "is_disabled": 0, "rental_uris": {"android": "https://dc.lft.to/lastmile_qr_scan", "ios": "https://dc.lft.to/lastmile_qr_scan"}, "fusion_lon": 0.0, "lat": 38.92359116666667, "bike_id": "5701ab6c4ecad014c767f174fd683592", "type": "electric_scooter", "is_reserved": 0, "lon": -77.02059683333333}, {"fusion_lat": 0.0, "name": "772ab909f826ef360fc2606d6006b370", "is_disabled": 0, "rental_uris": {"android": "https://dc.lft.to/lastmile_qr_scan", "ios": "https://dc.lft.to/lastmile_qr_scan"}, "fusion_lon": 0.0, "lat": 38.902165333333336, "bike_id": "772ab909f826ef360fc2606d6006b370", "type": "electric_scooter", "is_reserved": 0, "lon": -77.05116283333334}, {"fusion_lat": 0.0, "name": "039e7923cfc08511eb71b994e9e7fa3f", "is_disabled": 0, "rental_uris": {"android": "https://dc.lft.to/lastmile_qr_scan", "ios": "https://dc.lft.to/lastmile_qr_scan"}, "fusion_lon": 0.0, "lat": 38.932629666666664, "bike_id": "039e7923cfc08511eb71b994e9e7fa3f", "type": "electric_scooter", "is_reserved": 0, "lon": -77.0389685}, {"fusion_lat": 0.0, "name": "557f939ef6597ef2a3879e0954e10b11", "is_disabled": 0, "rental_uris": {"android": "https://dc.lft.to/lastmile_qr_scan", "ios": "https://dc.lft.to/lastmile_qr_scan"}, "fusion_lon": 0.0, "lat": 38.93109283333333, "bike_id": "557f939ef6597ef2a3879e0954e10b11", "type": "electric_scooter", "is_reserved": 0, "lon": -77.02134966666667}, {"fusion_lat": 0.0, "name": "4b5cfab4e23b952126cf1416e729885b", "is_disabled": 0, "rental_uris": {"android": "https://dc.lft.to/lastmile_qr_scan", "ios": "https://dc.lft.to/lastmile_qr_scan"}, "fusion_lon": 0.0, "lat": 38.93396666666666, "bike_id": "4b5cfab4e23b952126cf1416e729885b", "type": "electric_scooter", "is_reserved": 0, "lon": -77.05747883333333}, {"fusion_lat": 0.0, "name": "4ab0068ccca366c4cb7bd6da51065c68", "is_disabled": 0, "rental_uris": {"android": "https://dc.lft.to/lastmile_qr_scan", "ios": "https://dc.lft.to/lastmile_qr_scan"}, "fusion_lon": 0.0, "lat": 38.90558083333333, "bike_id": "4ab0068ccca366c4cb7bd6da51065c68", "type": "electric_scooter", "is_reserved": 0, "lon": -76.99792183333334}, {"fusion_lat": 0.0, "name": "acaf7372f36189e83b55c317855d9a0a", "is_disabled": 0, "rental_uris": {"android": "https://dc.lft.to/lastmile_qr_scan", "ios": "https://dc.lft.to/lastmile_qr_scan"}, "fusion_lon": 0.0, "lat": 38.90787816666667, "bike_id": "acaf7372f36189e83b55c317855d9a0a", "type": "electric_scooter", "is_reserved": 0, "lon": -76.99430633333333}, {"fusion_lat": 0.0, "name": "9e4c81da504b1d97d42ba1d5e20f2cdb", "is_disabled": 0, "rental_uris": {"android": "https://dc.lft.to/lastmile_qr_scan", "ios": "https://dc.lft.to/lastmile_qr_scan"}, "fusion_lon": 0.0, "lat": 38.905593, "bike_id": "9e4c81da504b1d97d42ba1d5e20f2cdb", "type": "electric_scooter", "is_reserved": 0, "lon": -76.981995}, {"fusion_lat": 0.0, "name": "7ce6fa05fb464f797ec08c7413fb10af", "is_disabled": 0, "rental_uris": {"android": "https://dc.lft.to/lastmile_qr_scan", "ios": "https://dc.lft.to/lastmile_qr_scan"}, "fusion_lon": 0.0, "lat": 38.8882175, "bike_id": "7ce6fa05fb464f797ec08c7413fb10af", "type": "electric_scooter", "is_reserved": 0, "lon": -76.98663766666667}, {"fusion_lat": 0.0, "name": "ec3b264233c8946f318049e5f74f3c46", "is_disabled": 0, "rental_uris": {"android": "https://dc.lft.to/lastmile_qr_scan", "ios": "https://dc.lft.to/lastmile_qr_scan"}, "fusion_lon": 0.0, "lat": 38.9054715, "bike_id": "ec3b264233c8946f318049e5f74f3c46", "type": "electric_scooter", "is_reserved": 0, "lon": -77.06512216666667}, {"fusion_lat": 0.0, "name": "eac14096ee0d4b305d11e54f7f888020", "is_disabled": 0, "rental_uris": {"android": "https://dc.lft.to/lastmile_qr_scan", "ios": "https://dc.lft.to/lastmile_qr_scan"}, "fusion_lon": 0.0, "lat": 38.922492166666665, "bike_id": "eac14096ee0d4b305d11e54f7f888020", "type": "electric_scooter", "is_reserved": 0, "lon": -77.0744985}, {"fusion_lat": 0.0, "name": "9471b522bdd9acc899ea385263f243b5", "is_disabled": 0, "rental_uris": {"android": "https://dc.lft.to/lastmile_qr_scan", "ios": "https://dc.lft.to/lastmile_qr_scan"}, "fusion_lon": 0.0, "lat": 38.91477066666667, "bike_id": "9471b522bdd9acc899ea385263f243b5", "type": "electric_scooter", "is_reserved": 0, "lon": -76.98335966666667}, {"fusion_lat": 0.0, "name": "ce8a3ec7e45ccefffec3d33c26de03b6", "is_disabled": 0, "rental_uris": {"android": "https://dc.lft.to/lastmile_qr_scan", "ios": "https://dc.lft.to/lastmile_qr_scan"}, "fusion_lon": 0.0, "lat": 38.93701083333333, "bike_id": "ce8a3ec7e45ccefffec3d33c26de03b6", "type": "electric_scooter", "is_reserved": 0, "lon": -77.061065}, {"fusion_lat": 0.0, "name": "0dee06510ce2f311b8b1c969d715685e", "is_disabled": 0, "rental_uris": {"android": "https://dc.lft.to/lastmile_qr_scan", "ios": "https://dc.lft.to/lastmile_qr_scan"}, "fusion_lon": 0.0, "lat": 38.935139166666666, "bike_id": "0dee06510ce2f311b8b1c969d715685e", "type": "electric_scooter", "is_reserved": 0, "lon": -77.033466}, {"fusion_lat": 0.0, "name": "50e6a0e6a0d3409c0f50ee2925a6ca15", "is_disabled": 0, "rental_uris": {"android": "https://dc.lft.to/lastmile_qr_scan", "ios": "https://dc.lft.to/lastmile_qr_scan"}, "fusion_lon": 0.0, "lat": 38.9197165, "bike_id": "50e6a0e6a0d3409c0f50ee2925a6ca15", "type": "electric_scooter", "is_reserved": 0, "lon": -77.07100183333333}, {"fusion_lat": 0.0, "name": "ff37e4a63354075c44aad66684207cd2", "is_disabled": 0, "rental_uris": {"android": "https://dc.lft.to/lastmile_qr_scan", "ios": "https://dc.lft.to/lastmile_qr_scan"}, "fusion_lon": 0.0, "lat": 38.904016166666665, "bike_id": "ff37e4a63354075c44aad66684207cd2", "type": "electric_scooter", "is_reserved": 0, "lon": -77.05014866666667}, {"fusion_lat": 0.0, "name": "b243c038c95cb06480c2fd84b600c7c3", "is_disabled": 0, "rental_uris": {"android": "https://dc.lft.to/lastmile_qr_scan", "ios": "https://dc.lft.to/lastmile_qr_scan"}, "fusion_lon": 0.0, "lat": 38.9182045, "bike_id": "b243c038c95cb06480c2fd84b600c7c3", "type": "electric_scooter", "is_reserved": 0, "lon": -77.04531916666667}, {"fusion_lat": 0.0, "name": "1d44374f44ac096c3b5e8238d446aae8", "is_disabled": 0, "rental_uris": {"android": "https://dc.lft.to/lastmile_qr_scan", "ios": "https://dc.lft.to/lastmile_qr_scan"}, "fusion_lon": 0.0, "lat": 38.9100975, "bike_id": "1d44374f44ac096c3b5e8238d446aae8", "type": "electric_scooter", "is_reserved": 0, "lon": -77.0077925}, {"fusion_lat": 0.0, "name": "778531e6ec1542ae9fa6a6a52b2fb7c5", "is_disabled": 0, "rental_uris": {"android": "https://dc.lft.to/lastmile_qr_scan", "ios": "https://dc.lft.to/lastmile_qr_scan"}, "fusion_lon": 0.0, "lat": 38.90644783333333, "bike_id": "778531e6ec1542ae9fa6a6a52b2fb7c5", "type": "electric_scooter", "is_reserved": 0, "lon": -77.02146216666667}, {"fusion_lat": 0.0, "name": "717a958d4940ab413408ac2b79df7172", "is_disabled": 0, "rental_uris": {"android": "https://dc.lft.to/lastmile_qr_scan", "ios": "https://dc.lft.to/lastmile_qr_scan"}, "fusion_lon": 0.0, "lat": 38.883986666666665, "bike_id": "717a958d4940ab413408ac2b79df7172", "type": "electric_scooter", "is_reserved": 0, "lon": -77.020178}, {"fusion_lat": 0.0, "name": "c39f35f9f5d60250a441ffe01924dc44", "is_disabled": 0, "rental_uris": {"android": "https://dc.lft.to/lastmile_qr_scan", "ios": "https://dc.lft.to/lastmile_qr_scan"}, "fusion_lon": 0.0, "lat": 38.961422, "bike_id": "c39f35f9f5d60250a441ffe01924dc44", "type": "electric_bike", "is_reserved": 0, "lon": -77.03236566666666}, {"fusion_lat": 0.0, "name": "caf070bd0a025be77b4acc8ceb32e8db", "is_disabled": 0, "rental_uris": {"android": "https://dc.lft.to/lastmile_qr_scan", "ios": "https://dc.lft.to/lastmile_qr_scan"}, "fusion_lon": 0.0, "lat": 38.9003, "bike_id": "caf070bd0a025be77b4acc8ceb32e8db", "type": "electric_scooter", "is_reserved": 0, "lon": -76.9913955}, {"fusion_lat": 0.0, "name": "a10042dfc3a3b00eec3dc64c8c97496f", "is_disabled": 0, "rental_uris": {"android": "https://dc.lft.to/lastmile_qr_scan", "ios": "https://dc.lft.to/lastmile_qr_scan"}, "fusion_lon": 0.0, "lat": 38.90573966666667, "bike_id": "a10042dfc3a3b00eec3dc64c8c97496f", "type": "electric_scooter", "is_reserved": 0, "lon": -77.0069415}, {"fusion_lat": 0.0, "name": "ef5f610d2a92ce4c32d2f99d8989e373", "is_disabled": 0, "rental_uris": {"android": "https://dc.lft.to/lastmile_qr_scan", "ios": "https://dc.lft.to/lastmile_qr_scan"}, "fusion_lon": 0.0, "lat": 38.92335333333333, "bike_id": "ef5f610d2a92ce4c32d2f99d8989e373", "type": "electric_scooter", "is_reserved": 0, "lon": -77.001903}, {"fusion_lat": 0.0, "name": "a4fe211ee7bb1d41fd88b5e0e9982a4c", "is_disabled": 0, "rental_uris": {"android": "https://dc.lft.to/lastmile_qr_scan", "ios": "https://dc.lft.to/lastmile_qr_scan"}, "fusion_lon": 0.0, "lat": 38.90554316666667, "bike_id": "a4fe211ee7bb1d41fd88b5e0e9982a4c", "type": "electric_scooter", "is_reserved": 0, "lon": -77.005994}, {"fusion_lat": 0.0, "name": "e17e68feed31a00410e59aa95729ca9c", "is_disabled": 0, "rental_uris": {"android": "https://dc.lft.to/lastmile_qr_scan", "ios": "https://dc.lft.to/lastmile_qr_scan"}, "fusion_lon": 0.0, "lat": 38.939174333333334, "bike_id": "e17e68feed31a00410e59aa95729ca9c", "type": "electric_scooter", "is_reserved": 0, "lon": -77.02798816666666}, {"fusion_lat": 0.0, "name": "3a1eb6bc84e5657f075d2c2cf83fd2ec", "is_disabled": 0, "rental_uris": {"android": "https://dc.lft.to/lastmile_qr_scan", "ios": "https://dc.lft.to/lastmile_qr_scan"}, "fusion_lon": 0.0, "lat": 38.92053933333333, "bike_id": "3a1eb6bc84e5657f075d2c2cf83fd2ec", "type": "electric_scooter", "is_reserved": 0, "lon": -76.99856583333333}, {"fusion_lat": 0.0, "name": "4567b5be1b0ded900f61a65ebb1346ef", "is_disabled": 0, "rental_uris": {"android": "https://dc.lft.to/lastmile_qr_scan", "ios": "https://dc.lft.to/lastmile_qr_scan"}, "fusion_lon": 0.0, "lat": 38.881124, "bike_id": "4567b5be1b0ded900f61a65ebb1346ef", "type": "electric_scooter", "is_reserved": 0, "lon": -77.016539}, {"fusion_lat": 0.0, "name": "dfbdc03c7b52185572106a04791a47f9", "is_disabled": 0, "rental_uris": {"android": "https://dc.lft.to/lastmile_qr_scan", "ios": "https://dc.lft.to/lastmile_qr_scan"}, "fusion_lon": 0.0, "lat": 38.902902166666664, "bike_id": "dfbdc03c7b52185572106a04791a47f9", "type": "electric_scooter", "is_reserved": 0, "lon": -76.97634533333333}, {"fusion_lat": 0.0, "name": "7e3f8470c4c32031f0bc7cd81ba751ad", "is_disabled": 0, "rental_uris": {"android": "https://dc.lft.to/lastmile_qr_scan", "ios": "https://dc.lft.to/lastmile_qr_scan"}, "fusion_lon": 0.0, "lat": 38.80756133333333, "bike_id": "7e3f8470c4c32031f0bc7cd81ba751ad", "type": "electric_bike", "is_reserved": 0, "lon": -77.09464516666667}, {"fusion_lat": 0.0, "name": "bb6559dfae6978c7ed7d93cbe1d128dc", "is_disabled": 0, "rental_uris": {"android": "https://dc.lft.to/lastmile_qr_scan", "ios": "https://dc.lft.to/lastmile_qr_scan"}, "fusion_lon": 0.0, "lat": 38.90128583333333, "bike_id": "bb6559dfae6978c7ed7d93cbe1d128dc", "type": "electric_scooter", "is_reserved": 0, "lon": -77.030537}, {"fusion_lat": 0.0, "name": "34e023395d2658ed001c9e44ad453973", "is_disabled": 0, "rental_uris": {"android": "https://dc.lft.to/lastmile_qr_scan", "ios": "https://dc.lft.to/lastmile_qr_scan"}, "fusion_lon": 0.0, "lat": 38.997687166666665, "bike_id": "34e023395d2658ed001c9e44ad453973", "type": "electric_bike", "is_reserved": 0, "lon": -77.0472135}, {"fusion_lat": 0.0, "name": "f4217219373ff5d131f020bf4b6ecab1", "is_disabled": 0, "rental_uris": {"android": "https://dc.lft.to/lastmile_qr_scan", "ios": "https://dc.lft.to/lastmile_qr_scan"}, "fusion_lon": 0.0, "lat": 38.91626683333333, "bike_id": "f4217219373ff5d131f020bf4b6ecab1", "type": "electric_scooter", "is_reserved": 0, "lon": -77.03154266666667}, {"fusion_lat": 0.0, "name": "adb69c6d311b9007e4126274ab5cdc64", "is_disabled": 0, "rental_uris": {"android": "https://dc.lft.to/lastmile_qr_scan", "ios": "https://dc.lft.to/lastmile_qr_scan"}, "fusion_lon": 0.0, "lat": 38.9263795, "bike_id": "adb69c6d311b9007e4126274ab5cdc64", "type": "electric_scooter", "is_reserved": 0, "lon": -77.03229733333333}, {"fusion_lat": 0.0, "name": "24fd49f7843e01002cd2c2805604d98e", "is_disabled": 0, "rental_uris": {"android": "https://dc.lft.to/lastmile_qr_scan", "ios": "https://dc.lft.to/lastmile_qr_scan"}, "fusion_lon": 0.0, "lat": 38.92409933333333, "bike_id": "24fd49f7843e01002cd2c2805604d98e", "type": "electric_scooter", "is_reserved": 0, "lon": -77.021066}, {"fusion_lat": 0.0, "name": "bdafe57b08c5af7f1975e6bcee49370c", "is_disabled": 0, "rental_uris": {"android": "https://dc.lft.to/lastmile_qr_scan", "ios": "https://dc.lft.to/lastmile_qr_scan"}, "fusion_lon": 0.0, "lat": 38.92161683333333, "bike_id": "bdafe57b08c5af7f1975e6bcee49370c", "type": "electric_scooter", "is_reserved": 0, "lon": -77.0401575}, {"fusion_lat": 0.0, "name": "e7902f2ea01927c595ecad2bb04fab7c", "is_disabled": 0, "rental_uris": {"android": "https://dc.lft.to/lastmile_qr_scan", "ios": "https://dc.lft.to/lastmile_qr_scan"}, "fusion_lon": 0.0, "lat": 38.9057405, "bike_id": "e7902f2ea01927c595ecad2bb04fab7c", "type": "electric_scooter", "is_reserved": 0, "lon": -77.02202316666667}, {"fusion_lat": 0.0, "name": "a33adcbdec9f0bcb9102f3bdbb621a80", "is_disabled": 0, "rental_uris": {"android": "https://dc.lft.to/lastmile_qr_scan", "ios": "https://dc.lft.to/lastmile_qr_scan"}, "fusion_lon": 0.0, "lat": 38.90558333333333, "bike_id": "a33adcbdec9f0bcb9102f3bdbb621a80", "type": "electric_scooter", "is_reserved": 0, "lon": -77.005881}, {"fusion_lat": 0.0, "name": "2905e9d570956e65121b152b4e7bed24", "is_disabled": 0, "rental_uris": {"android": "https://dc.lft.to/lastmile_qr_scan", "ios": "https://dc.lft.to/lastmile_qr_scan"}, "fusion_lon": 0.0, "lat": 38.93107466666667, "bike_id": "2905e9d570956e65121b152b4e7bed24", "type": "electric_scooter", "is_reserved": 0, "lon": -77.021248}, {"fusion_lat": 0.0, "name": "ab95d405868c75ac58528a127a0801ee", "is_disabled": 0, "rental_uris": {"android": "https://dc.lft.to/lastmile_qr_scan", "ios": "https://dc.lft.to/lastmile_qr_scan"}, "fusion_lon": 0.0, "lat": 38.94124683333333, "bike_id": "ab95d405868c75ac58528a127a0801ee", "type": "electric_scooter", "is_reserved": 0, "lon": -77.02652333333333}, {"fusion_lat": 0.0, "name": "14593b48509ad1c5bdd28d1da01243ad", "is_disabled": 0, "rental_uris": {"android": "https://dc.lft.to/lastmile_qr_scan", "ios": "https://dc.lft.to/lastmile_qr_scan"}, "fusion_lon": 0.0, "lat": 38.90515216666667, "bike_id": "14593b48509ad1c5bdd28d1da01243ad", "type": "electric_scooter", "is_reserved": 0, "lon": -77.06499783333334}, {"fusion_lat": 0.0, "name": "2e8ecde651617a95ca78b7e5a0162991", "is_disabled": 0, "rental_uris": {"android": "https://dc.lft.to/lastmile_qr_scan", "ios": "https://dc.lft.to/lastmile_qr_scan"}, "fusion_lon": 0.0, "lat": 38.911148833333336, "bike_id": "2e8ecde651617a95ca78b7e5a0162991", "type": "electric_scooter", "is_reserved": 0, "lon": -77.08143266666667}, {"fusion_lat": 0.0, "name": "407a139edcd545018c06bd8694570a7a", "is_disabled": 0, "rental_uris": {"android": "https://dc.lft.to/lastmile_qr_scan", "ios": "https://dc.lft.to/lastmile_qr_scan"}, "fusion_lon": 0.0, "lat": 38.937746, "bike_id": "407a139edcd545018c06bd8694570a7a", "type": "electric_scooter", "is_reserved": 0, "lon": -77.03264966666667}, {"fusion_lat": 0.0, "name": "8b1e3a121447a57ff6c1443ce0ed994d", "is_disabled": 0, "rental_uris": {"android": "https://dc.lft.to/lastmile_qr_scan", "ios": "https://dc.lft.to/lastmile_qr_scan"}, "fusion_lon": 0.0, "lat": 38.921469333333334, "bike_id": "8b1e3a121447a57ff6c1443ce0ed994d", "type": "electric_scooter", "is_reserved": 0, "lon": -77.03359966666666}, {"fusion_lat": 0.0, "name": "1b71f810aed2e32dc1eb2f0ac6e4bc61", "is_disabled": 0, "rental_uris": {"android": "https://dc.lft.to/lastmile_qr_scan", "ios": "https://dc.lft.to/lastmile_qr_scan"}, "fusion_lon": 0.0, "lat": 38.905781166666664, "bike_id": "1b71f810aed2e32dc1eb2f0ac6e4bc61", "type": "electric_scooter", "is_reserved": 0, "lon": -77.04166416666666}, {"fusion_lat": 0.0, "name": "855bd5eddb803bd55f677061a374f014", "is_disabled": 0, "rental_uris": {"android": "https://dc.lft.to/lastmile_qr_scan", "ios": "https://dc.lft.to/lastmile_qr_scan"}, "fusion_lon": 0.0, "lat": 38.914741, "bike_id": "855bd5eddb803bd55f677061a374f014", "type": "electric_scooter", "is_reserved": 0, "lon": -77.0401945}, {"fusion_lat": 0.0, "name": "c117d34d173e70110da539236a06718c", "is_disabled": 0, "rental_uris": {"android": "https://dc.lft.to/lastmile_qr_scan", "ios": "https://dc.lft.to/lastmile_qr_scan"}, "fusion_lon": 0.0, "lat": 38.82777316666667, "bike_id": "c117d34d173e70110da539236a06718c", "type": "electric_bike", "is_reserved": 0, "lon": -77.1248465}, {"fusion_lat": 0.0, "name": "01dd5e2e4fb5138f62d06a01000b15de", "is_disabled": 0, "rental_uris": {"android": "https://dc.lft.to/lastmile_qr_scan", "ios": "https://dc.lft.to/lastmile_qr_scan"}, "fusion_lon": 0.0, "lat": 38.89706116666667, "bike_id": "01dd5e2e4fb5138f62d06a01000b15de", "type": "electric_scooter", "is_reserved": 0, "lon": -77.0228665}, {"fusion_lat": 0.0, "name": "3b17b27cc05bc4a1ea672fb4333092b3", "is_disabled": 0, "rental_uris": {"android": "https://dc.lft.to/lastmile_qr_scan", "ios": "https://dc.lft.to/lastmile_qr_scan"}, "fusion_lon": 0.0, "lat": 38.92823816666667, "bike_id": "3b17b27cc05bc4a1ea672fb4333092b3", "type": "electric_scooter", "is_reserved": 0, "lon": -77.022616}, {"fusion_lat": 0.0, "name": "42d0954e5683ae6ecc890c21333fa4c6", "is_disabled": 0, "rental_uris": {"android": "https://dc.lft.to/lastmile_qr_scan", "ios": "https://dc.lft.to/lastmile_qr_scan"}, "fusion_lon": 0.0, "lat": 38.892254, "bike_id": "42d0954e5683ae6ecc890c21333fa4c6", "type": "electric_scooter", "is_reserved": 0, "lon": -77.0028965}, {"fusion_lat": 0.0, "name": "5c94494d10cf5292935141b4b7983f31", "is_disabled": 0, "rental_uris": {"android": "https://dc.lft.to/lastmile_qr_scan", "ios": "https://dc.lft.to/lastmile_qr_scan"}, "fusion_lon": 0.0, "lat": 38.90226966666667, "bike_id": "5c94494d10cf5292935141b4b7983f31", "type": "electric_scooter", "is_reserved": 0, "lon": -77.03470866666666}, {"fusion_lat": 0.0, "name": "ddf916271e3eeba8f041adc665c2acf0", "is_disabled": 0, "rental_uris": {"android": "https://dc.lft.to/lastmile_qr_scan", "ios": "https://dc.lft.to/lastmile_qr_scan"}, "fusion_lon": 0.0, "lat": 38.907618166666666, "bike_id": "ddf916271e3eeba8f041adc665c2acf0", "type": "electric_scooter", "is_reserved": 0, "lon": -77.05653983333333}, {"fusion_lat": 0.0, "name": "37fab5844b9426c1429f441486d5b53b", "is_disabled": 0, "rental_uris": {"android": "https://dc.lft.to/lastmile_qr_scan", "ios": "https://dc.lft.to/lastmile_qr_scan"}, "fusion_lon": 0.0, "lat": 38.916346833333336, "bike_id": "37fab5844b9426c1429f441486d5b53b", "type": "electric_scooter", "is_reserved": 0, "lon": -77.00101616666667}, {"fusion_lat": 0.0, "name": "2c9297e4491cfd32d2e4dfa4b050fc8a", "is_disabled": 0, "rental_uris": {"android": "https://dc.lft.to/lastmile_qr_scan", "ios": "https://dc.lft.to/lastmile_qr_scan"}, "fusion_lon": 0.0, "lat": 38.89602266666667, "bike_id": "2c9297e4491cfd32d2e4dfa4b050fc8a", "type": "electric_scooter", "is_reserved": 0, "lon": -77.00931916666667}, {"fusion_lat": 0.0, "name": "1a5e7b56b7ba09acb491f90c19a10608", "is_disabled": 0, "rental_uris": {"android": "https://dc.lft.to/lastmile_qr_scan", "ios": "https://dc.lft.to/lastmile_qr_scan"}, "fusion_lon": 0.0, "lat": 38.9222515, "bike_id": "1a5e7b56b7ba09acb491f90c19a10608", "type": "electric_scooter", "is_reserved": 0, "lon": -77.0236905}, {"fusion_lat": 0.0, "name": "51b8df8ab1bad437a8b25b22367479f4", "is_disabled": 0, "rental_uris": {"android": "https://dc.lft.to/lastmile_qr_scan", "ios": "https://dc.lft.to/lastmile_qr_scan"}, "fusion_lon": 0.0, "lat": 38.930684, "bike_id": "51b8df8ab1bad437a8b25b22367479f4", "type": "electric_scooter", "is_reserved": 0, "lon": -77.0217895}, {"fusion_lat": 0.0, "name": "f5b672ce8cd508d87a14f7ce69848807", "is_disabled": 0, "rental_uris": {"android": "https://dc.lft.to/lastmile_qr_scan", "ios": "https://dc.lft.to/lastmile_qr_scan"}, "fusion_lon": 0.0, "lat": 38.9395965, "bike_id": "f5b672ce8cd508d87a14f7ce69848807", "type": "electric_scooter", "is_reserved": 0, "lon": -77.03280866666667}, {"fusion_lat": 0.0, "name": "962bce11b1299a6936a6d1a9b6fd3754", "is_disabled": 0, "rental_uris": {"android": "https://dc.lft.to/lastmile_qr_scan", "ios": "https://dc.lft.to/lastmile_qr_scan"}, "fusion_lon": 0.0, "lat": 38.883232, "bike_id": "962bce11b1299a6936a6d1a9b6fd3754", "type": "electric_bike", "is_reserved": 0, "lon": -76.96059666666666}, {"fusion_lat": 0.0, "name": "4d74013f834273da1d696639c59d61d1", "is_disabled": 0, "rental_uris": {"android": "https://dc.lft.to/lastmile_qr_scan", "ios": "https://dc.lft.to/lastmile_qr_scan"}, "fusion_lon": 0.0, "lat": 38.8972145, "bike_id": "4d74013f834273da1d696639c59d61d1", "type": "electric_scooter", "is_reserved": 0, "lon": -77.04638983333334}, {"fusion_lat": 0.0, "name": "d32110c6849e940523863450589e6eb8", "is_disabled": 0, "rental_uris": {"android": "https://dc.lft.to/lastmile_qr_scan", "ios": "https://dc.lft.to/lastmile_qr_scan"}, "fusion_lon": 0.0, "lat": 38.9012135, "bike_id": "d32110c6849e940523863450589e6eb8", "type": "electric_scooter", "is_reserved": 0, "lon": -77.05150183333333}, {"fusion_lat": 0.0, "name": "11769ff79d429e2fb219da9f16478f7c", "is_disabled": 0, "rental_uris": {"android": "https://dc.lft.to/lastmile_qr_scan", "ios": "https://dc.lft.to/lastmile_qr_scan"}, "fusion_lon": 0.0, "lat": 38.89479033333333, "bike_id": "11769ff79d429e2fb219da9f16478f7c", "type": "electric_scooter", "is_reserved": 0, "lon": -76.99736983333334}, {"fusion_lat": 0.0, "name": "06a5abffa0e33daa2713c2a45ea1d483", "is_disabled": 0, "rental_uris": {"android": "https://dc.lft.to/lastmile_qr_scan", "ios": "https://dc.lft.to/lastmile_qr_scan"}, "fusion_lon": 0.0, "lat": 38.901792666666665, "bike_id": "06a5abffa0e33daa2713c2a45ea1d483", "type": "electric_scooter", "is_reserved": 0, "lon": -76.92903633333333}, {"fusion_lat": 0.0, "name": "09ee19ab5e8a540f915fd35e38564877", "is_disabled": 0, "rental_uris": {"android": "https://dc.lft.to/lastmile_qr_scan", "ios": "https://dc.lft.to/lastmile_qr_scan"}, "fusion_lon": 0.0, "lat": 38.9050675, "bike_id": "09ee19ab5e8a540f915fd35e38564877", "type": "electric_scooter", "is_reserved": 0, "lon": -77.01717433333333}, {"fusion_lat": 0.0, "name": "64fd6871fe14bb5b9bc13c25c65a3765", "is_disabled": 0, "rental_uris": {"android": "https://dc.lft.to/lastmile_qr_scan", "ios": "https://dc.lft.to/lastmile_qr_scan"}, "fusion_lon": 0.0, "lat": 38.85512883333333, "bike_id": "64fd6871fe14bb5b9bc13c25c65a3765", "type": "electric_bike", "is_reserved": 0, "lon": -77.10540533333334}, {"fusion_lat": 0.0, "name": "190f65c138663be6679b07038b5d22a3", "is_disabled": 0, "rental_uris": {"android": "https://dc.lft.to/lastmile_qr_scan", "ios": "https://dc.lft.to/lastmile_qr_scan"}, "fusion_lon": 0.0, "lat": 38.88743766666666, "bike_id": "190f65c138663be6679b07038b5d22a3", "type": "electric_scooter", "is_reserved": 0, "lon": -76.99625516666667}, {"fusion_lat": 0.0, "name": "9952c9212a30cc4ca883cac52ae34953", "is_disabled": 0, "rental_uris": {"android": "https://dc.lft.to/lastmile_qr_scan", "ios": "https://dc.lft.to/lastmile_qr_scan"}, "fusion_lon": 0.0, "lat": 38.919769, "bike_id": "9952c9212a30cc4ca883cac52ae34953", "type": "electric_scooter", "is_reserved": 0, "lon": -77.02188983333333}, {"fusion_lat": 0.0, "name": "72ef3e182c5c9063897c16bc82446312", "is_disabled": 0, "rental_uris": {"android": "https://dc.lft.to/lastmile_qr_scan", "ios": "https://dc.lft.to/lastmile_qr_scan"}, "fusion_lon": 0.0, "lat": 38.903108833333334, "bike_id": "72ef3e182c5c9063897c16bc82446312", "type": "electric_scooter", "is_reserved": 0, "lon": -76.9780125}, {"fusion_lat": 0.0, "name": "6e262e597c1166ab5b566e7da902bb51", "is_disabled": 0, "rental_uris": {"android": "https://dc.lft.to/lastmile_qr_scan", "ios": "https://dc.lft.to/lastmile_qr_scan"}, "fusion_lon": 0.0, "lat": 38.924217666666664, "bike_id": "6e262e597c1166ab5b566e7da902bb51", "type": "electric_scooter", "is_reserved": 0, "lon": -76.9860005}, {"fusion_lat": 0.0, "name": "084507ce8162ccae2a83c0ccc0199f81", "is_disabled": 0, "rental_uris": {"android": "https://dc.lft.to/lastmile_qr_scan", "ios": "https://dc.lft.to/lastmile_qr_scan"}, "fusion_lon": 0.0, "lat": 38.88863166666667, "bike_id": "084507ce8162ccae2a83c0ccc0199f81", "type": "electric_scooter", "is_reserved": 0, "lon": -76.984555}, {"fusion_lat": 0.0, "name": "a2d8047fb6c8ffb471953c9168929a7e", "is_disabled": 0, "rental_uris": {"android": "https://dc.lft.to/lastmile_qr_scan", "ios": "https://dc.lft.to/lastmile_qr_scan"}, "fusion_lon": 0.0, "lat": 38.92365016666667, "bike_id": "a2d8047fb6c8ffb471953c9168929a7e", "type": "electric_scooter", "is_reserved": 0, "lon": -77.08155466666666}, {"fusion_lat": 0.0, "name": "61f30e9d80f48e747cb4908cec685ac0", "is_disabled": 0, "rental_uris": {"android": "https://dc.lft.to/lastmile_qr_scan", "ios": "https://dc.lft.to/lastmile_qr_scan"}, "fusion_lon": 0.0, "lat": 38.916691, "bike_id": "61f30e9d80f48e747cb4908cec685ac0", "type": "electric_scooter", "is_reserved": 0, "lon": -77.02296866666667}, {"fusion_lat": 0.0, "name": "ec3534560182d951afef95e4506f4379", "is_disabled": 0, "rental_uris": {"android": "https://dc.lft.to/lastmile_qr_scan", "ios": "https://dc.lft.to/lastmile_qr_scan"}, "fusion_lon": 0.0, "lat": 38.961291, "bike_id": "ec3534560182d951afef95e4506f4379", "type": "electric_scooter", "is_reserved": 0, "lon": -77.02791133333334}, {"fusion_lat": 0.0, "name": "27614acbe2f31c2ae6983180f2149414", "is_disabled": 0, "rental_uris": {"android": "https://dc.lft.to/lastmile_qr_scan", "ios": "https://dc.lft.to/lastmile_qr_scan"}, "fusion_lon": 0.0, "lat": 38.920589666666665, "bike_id": "27614acbe2f31c2ae6983180f2149414", "type": "electric_scooter", "is_reserved": 0, "lon": -77.02712716666667}, {"fusion_lat": 0.0, "name": "261caa611406e9b4411981d7a4640503", "is_disabled": 0, "rental_uris": {"android": "https://dc.lft.to/lastmile_qr_scan", "ios": "https://dc.lft.to/lastmile_qr_scan"}, "fusion_lon": 0.0, "lat": 38.907636833333335, "bike_id": "261caa611406e9b4411981d7a4640503", "type": "electric_scooter", "is_reserved": 0, "lon": -77.03199516666666}, {"fusion_lat": 0.0, "name": "ff9fba819e4c2da02ce8999f66105807", "is_disabled": 0, "rental_uris": {"android": "https://dc.lft.to/lastmile_qr_scan", "ios": "https://dc.lft.to/lastmile_qr_scan"}, "fusion_lon": 0.0, "lat": 38.90025283333333, "bike_id": "ff9fba819e4c2da02ce8999f66105807", "type": "electric_scooter", "is_reserved": 0, "lon": -76.991421}, {"fusion_lat": 0.0, "name": "9fbb954e47f12c8087eafc785fc405bb", "is_disabled": 0, "rental_uris": {"android": "https://dc.lft.to/lastmile_qr_scan", "ios": "https://dc.lft.to/lastmile_qr_scan"}, "fusion_lon": 0.0, "lat": 38.889623, "bike_id": "9fbb954e47f12c8087eafc785fc405bb", "type": "electric_scooter", "is_reserved": 0, "lon": -77.01503433333333}, {"fusion_lat": 0.0, "name": "5e4c627ce1df244996f5e9083a37bc4a", "is_disabled": 0, "rental_uris": {"android": "https://dc.lft.to/lastmile_qr_scan", "ios": "https://dc.lft.to/lastmile_qr_scan"}, "fusion_lon": 0.0, "lat": 38.91543, "bike_id": "5e4c627ce1df244996f5e9083a37bc4a", "type": "electric_scooter", "is_reserved": 0, "lon": -77.03246066666667}, {"fusion_lat": 0.0, "name": "b30c20e3d33fd69a4532af85215b9cfa", "is_disabled": 0, "rental_uris": {"android": "https://dc.lft.to/lastmile_qr_scan", "ios": "https://dc.lft.to/lastmile_qr_scan"}, "fusion_lon": 0.0, "lat": 38.92299116666667, "bike_id": "b30c20e3d33fd69a4532af85215b9cfa", "type": "electric_scooter", "is_reserved": 0, "lon": -76.9938}, {"fusion_lat": 0.0, "name": "09c2c7511e57bc0ab16f24ae402b9ca5", "is_disabled": 0, "rental_uris": {"android": "https://dc.lft.to/lastmile_qr_scan", "ios": "https://dc.lft.to/lastmile_qr_scan"}, "fusion_lon": 0.0, "lat": 38.8901115, "bike_id": "09c2c7511e57bc0ab16f24ae402b9ca5", "type": "electric_scooter", "is_reserved": 0, "lon": -76.93741133333333}, {"fusion_lat": 0.0, "name": "7765e5bfbf8cbec19cbe06cd744c8094", "is_disabled": 0, "rental_uris": {"android": "https://dc.lft.to/lastmile_qr_scan", "ios": "https://dc.lft.to/lastmile_qr_scan"}, "fusion_lon": 0.0, "lat": 38.87685883333333, "bike_id": "7765e5bfbf8cbec19cbe06cd744c8094", "type": "electric_scooter", "is_reserved": 0, "lon": -77.01756883333333}, {"fusion_lat": 0.0, "name": "9427cd9d71f6e1853095a59fa187c4d4", "is_disabled": 0, "rental_uris": {"android": "https://dc.lft.to/lastmile_qr_scan", "ios": "https://dc.lft.to/lastmile_qr_scan"}, "fusion_lon": 0.0, "lat": 38.884902, "bike_id": "9427cd9d71f6e1853095a59fa187c4d4", "type": "electric_scooter", "is_reserved": 0, "lon": -77.024222}, {"fusion_lat": 0.0, "name": "44569eacbf486ae53fc0e99a57b10f3a", "is_disabled": 0, "rental_uris": {"android": "https://dc.lft.to/lastmile_qr_scan", "ios": "https://dc.lft.to/lastmile_qr_scan"}, "fusion_lon": 0.0, "lat": 38.9245725, "bike_id": "44569eacbf486ae53fc0e99a57b10f3a", "type": "electric_scooter", "is_reserved": 0, "lon": -77.024105}, {"fusion_lat": 0.0, "name": "35ee0898a72ae6af6b58c66eed083028", "is_disabled": 0, "rental_uris": {"android": "https://dc.lft.to/lastmile_qr_scan", "ios": "https://dc.lft.to/lastmile_qr_scan"}, "fusion_lon": 0.0, "lat": 38.91340266666667, "bike_id": "35ee0898a72ae6af6b58c66eed083028", "type": "electric_scooter", "is_reserved": 0, "lon": -77.00337216666667}, {"fusion_lat": 0.0, "name": "c5e52179ba44442488670d4806820d02", "is_disabled": 0, "rental_uris": {"android": "https://dc.lft.to/lastmile_qr_scan", "ios": "https://dc.lft.to/lastmile_qr_scan"}, "fusion_lon": 0.0, "lat": 38.903766166666664, "bike_id": "c5e52179ba44442488670d4806820d02", "type": "electric_scooter", "is_reserved": 0, "lon": -76.98483183333333}, {"fusion_lat": 0.0, "name": "3f0449684a391180ce6c11d5ba61585d", "is_disabled": 0, "rental_uris": {"android": "https://dc.lft.to/lastmile_qr_scan", "ios": "https://dc.lft.to/lastmile_qr_scan"}, "fusion_lon": 0.0, "lat": 38.9112375, "bike_id": "3f0449684a391180ce6c11d5ba61585d", "type": "electric_scooter", "is_reserved": 0, "lon": -77.02201316666667}, {"fusion_lat": 0.0, "name": "9d4cb67aec86ab10ac7fd37228b3a5c9", "is_disabled": 0, "rental_uris": {"android": "https://dc.lft.to/lastmile_qr_scan", "ios": "https://dc.lft.to/lastmile_qr_scan"}, "fusion_lon": 0.0, "lat": 38.929893166666666, "bike_id": "9d4cb67aec86ab10ac7fd37228b3a5c9", "type": "electric_scooter", "is_reserved": 0, "lon": -77.03242266666666}, {"fusion_lat": 0.0, "name": "bc0163ae63ea60a9da661e4c1c97ffe8", "is_disabled": 0, "rental_uris": {"android": "https://dc.lft.to/lastmile_qr_scan", "ios": "https://dc.lft.to/lastmile_qr_scan"}, "fusion_lon": 0.0, "lat": 38.925789333333334, "bike_id": "bc0163ae63ea60a9da661e4c1c97ffe8", "type": "electric_scooter", "is_reserved": 0, "lon": -77.02731316666667}, {"fusion_lat": 0.0, "name": "bb31318a9b8ec11bc8fdb0e91b431521", "is_disabled": 0, "rental_uris": {"android": "https://dc.lft.to/lastmile_qr_scan", "ios": "https://dc.lft.to/lastmile_qr_scan"}, "fusion_lon": 0.0, "lat": 38.901812666666665, "bike_id": "bb31318a9b8ec11bc8fdb0e91b431521", "type": "electric_scooter", "is_reserved": 0, "lon": -77.05910583333333}, {"fusion_lat": 0.0, "name": "eac11e098113485c52159bf4980e610a", "is_disabled": 0, "rental_uris": {"android": "https://dc.lft.to/lastmile_qr_scan", "ios": "https://dc.lft.to/lastmile_qr_scan"}, "fusion_lon": 0.0, "lat": 38.9103215, "bike_id": "eac11e098113485c52159bf4980e610a", "type": "electric_scooter", "is_reserved": 0, "lon": -77.0128685}, {"fusion_lat": 0.0, "name": "17bd787fffe72b2ab1a0a9c014d94393", "is_disabled": 0, "rental_uris": {"android": "https://dc.lft.to/lastmile_qr_scan", "ios": "https://dc.lft.to/lastmile_qr_scan"}, "fusion_lon": 0.0, "lat": 38.904535833333334, "bike_id": "17bd787fffe72b2ab1a0a9c014d94393", "type": "electric_bike", "is_reserved": 0, "lon": -76.97424933333333}, {"fusion_lat": 0.0, "name": "e95060bf06eb51ec03612293c1612db3", "is_disabled": 0, "rental_uris": {"android": "https://dc.lft.to/lastmile_qr_scan", "ios": "https://dc.lft.to/lastmile_qr_scan"}, "fusion_lon": 0.0, "lat": 38.855644, "bike_id": "e95060bf06eb51ec03612293c1612db3", "type": "electric_bike", "is_reserved": 0, "lon": -77.1131605}, {"fusion_lat": 0.0, "name": "dd009b56036fe9fd1fbb8ccb80882b9e", "is_disabled": 0, "rental_uris": {"android": "https://dc.lft.to/lastmile_qr_scan", "ios": "https://dc.lft.to/lastmile_qr_scan"}, "fusion_lon": 0.0, "lat": 38.89223966666667, "bike_id": "dd009b56036fe9fd1fbb8ccb80882b9e", "type": "electric_scooter", "is_reserved": 0, "lon": -77.032224}, {"fusion_lat": 0.0, "name": "bf2b5567703c76e4c0934efb5a1f6a47", "is_disabled": 0, "rental_uris": {"android": "https://dc.lft.to/lastmile_qr_scan", "ios": "https://dc.lft.to/lastmile_qr_scan"}, "fusion_lon": 0.0, "lat": 38.96068116666667, "bike_id": "bf2b5567703c76e4c0934efb5a1f6a47", "type": "electric_scooter", "is_reserved": 0, "lon": -77.00106616666666}, {"fusion_lat": 0.0, "name": "2f93bc08214f3854722fdca3f31deb11", "is_disabled": 0, "rental_uris": {"android": "https://dc.lft.to/lastmile_qr_scan", "ios": "https://dc.lft.to/lastmile_qr_scan"}, "fusion_lon": 0.0, "lat": 38.89729066666666, "bike_id": "2f93bc08214f3854722fdca3f31deb11", "type": "electric_scooter", "is_reserved": 0, "lon": -76.94701933333333}, {"fusion_lat": 0.0, "name": "060ad36cdfa5f445346f4fd471ec7fdd", "is_disabled": 0, "rental_uris": {"android": "https://dc.lft.to/lastmile_qr_scan", "ios": "https://dc.lft.to/lastmile_qr_scan"}, "fusion_lon": 0.0, "lat": 38.90504633333333, "bike_id": "060ad36cdfa5f445346f4fd471ec7fdd", "type": "electric_scooter", "is_reserved": 0, "lon": -77.0294195}, {"fusion_lat": 0.0, "name": "7069b4f32cc42ee231d7f2716ec33ec6", "is_disabled": 0, "rental_uris": {"android": "https://dc.lft.to/lastmile_qr_scan", "ios": "https://dc.lft.to/lastmile_qr_scan"}, "fusion_lon": 0.0, "lat": 38.90952266666667, "bike_id": "7069b4f32cc42ee231d7f2716ec33ec6", "type": "electric_scooter", "is_reserved": 0, "lon": -77.04865183333334}, {"fusion_lat": 0.0, "name": "57373cba6456c700dcf7470821f70a94", "is_disabled": 0, "rental_uris": {"android": "https://dc.lft.to/lastmile_qr_scan", "ios": "https://dc.lft.to/lastmile_qr_scan"}, "fusion_lon": 0.0, "lat": 38.952888333333334, "bike_id": "57373cba6456c700dcf7470821f70a94", "type": "electric_bike", "is_reserved": 0, "lon": -77.068396}, {"fusion_lat": 0.0, "name": "5c3d484239a2385679596fc422e2f156", "is_disabled": 0, "rental_uris": {"android": "https://dc.lft.to/lastmile_qr_scan", "ios": "https://dc.lft.to/lastmile_qr_scan"}, "fusion_lon": 0.0, "lat": 38.92081966666667, "bike_id": "5c3d484239a2385679596fc422e2f156", "type": "electric_scooter", "is_reserved": 0, "lon": -77.02407383333333}, {"fusion_lat": 0.0, "name": "275c5bf641aded1f90b847e07c91ae50", "is_disabled": 0, "rental_uris": {"android": "https://dc.lft.to/lastmile_qr_scan", "ios": "https://dc.lft.to/lastmile_qr_scan"}, "fusion_lon": 0.0, "lat": 38.949075666666666, "bike_id": "275c5bf641aded1f90b847e07c91ae50", "type": "electric_bike", "is_reserved": 0, "lon": -77.0380415}, {"fusion_lat": 0.0, "name": "1fe723075aaecaa327d05e71b6d66480", "is_disabled": 0, "rental_uris": {"android": "https://dc.lft.to/lastmile_qr_scan", "ios": "https://dc.lft.to/lastmile_qr_scan"}, "fusion_lon": 0.0, "lat": 38.906518, "bike_id": "1fe723075aaecaa327d05e71b6d66480", "type": "electric_scooter", "is_reserved": 0, "lon": -77.04290383333333}, {"fusion_lat": 0.0, "name": "e732c3b819ec94c60bbc1d4050950288", "is_disabled": 0, "rental_uris": {"android": "https://dc.lft.to/lastmile_qr_scan", "ios": "https://dc.lft.to/lastmile_qr_scan"}, "fusion_lon": 0.0, "lat": 38.898698, "bike_id": "e732c3b819ec94c60bbc1d4050950288", "type": "electric_scooter", "is_reserved": 0, "lon": -76.94632216666666}, {"fusion_lat": 0.0, "name": "95ba02cc37b0147c29db088fa724276f", "is_disabled": 0, "rental_uris": {"android": "https://dc.lft.to/lastmile_qr_scan", "ios": "https://dc.lft.to/lastmile_qr_scan"}, "fusion_lon": 0.0, "lat": 38.912589833333335, "bike_id": "95ba02cc37b0147c29db088fa724276f", "type": "electric_scooter", "is_reserved": 0, "lon": -77.02257933333334}, {"fusion_lat": 0.0, "name": "dce095cf5f0acca28420534ca9b07373", "is_disabled": 0, "rental_uris": {"android": "https://dc.lft.to/lastmile_qr_scan", "ios": "https://dc.lft.to/lastmile_qr_scan"}, "fusion_lon": 0.0, "lat": 38.916501, "bike_id": "dce095cf5f0acca28420534ca9b07373", "type": "electric_scooter", "is_reserved": 0, "lon": -77.02400083333333}, {"fusion_lat": 0.0, "name": "3950d851df4ef3a318705af1735aa683", "is_disabled": 0, "rental_uris": {"android": "https://dc.lft.to/lastmile_qr_scan", "ios": "https://dc.lft.to/lastmile_qr_scan"}, "fusion_lon": 0.0, "lat": 38.917042333333335, "bike_id": "3950d851df4ef3a318705af1735aa683", "type": "electric_scooter", "is_reserved": 0, "lon": -77.03223983333334}, {"fusion_lat": 0.0, "name": "35012a4417405748581197d6495f8e56", "is_disabled": 0, "rental_uris": {"android": "https://dc.lft.to/lastmile_qr_scan", "ios": "https://dc.lft.to/lastmile_qr_scan"}, "fusion_lon": 0.0, "lat": 38.99520066666667, "bike_id": "35012a4417405748581197d6495f8e56", "type": "electric_bike", "is_reserved": 0, "lon": -77.02906033333333}, {"fusion_lat": 0.0, "name": "9cc1304017c451055b45f8476ab84fe8", "is_disabled": 0, "rental_uris": {"android": "https://dc.lft.to/lastmile_qr_scan", "ios": "https://dc.lft.to/lastmile_qr_scan"}, "fusion_lon": 0.0, "lat": 38.8995355, "bike_id": "9cc1304017c451055b45f8476ab84fe8", "type": "electric_scooter", "is_reserved": 0, "lon": -77.04532166666667}, {"fusion_lat": 0.0, "name": "591b91376550032726fe3483e6ba7ac3", "is_disabled": 0, "rental_uris": {"android": "https://dc.lft.to/lastmile_qr_scan", "ios": "https://dc.lft.to/lastmile_qr_scan"}, "fusion_lon": 0.0, "lat": 38.907369, "bike_id": "591b91376550032726fe3483e6ba7ac3", "type": "electric_scooter", "is_reserved": 0, "lon": -76.9982345}, {"fusion_lat": 0.0, "name": "8b7bb8844cfd4a41cc7d0716352ea98a", "is_disabled": 0, "rental_uris": {"android": "https://dc.lft.to/lastmile_qr_scan", "ios": "https://dc.lft.to/lastmile_qr_scan"}, "fusion_lon": 0.0, "lat": 38.902893, "bike_id": "8b7bb8844cfd4a41cc7d0716352ea98a", "type": "electric_scooter", "is_reserved": 0, "lon": -76.99035833333333},