{"data": {"bikes": [{"type": "electric_scooter", "rental_uris": {"ios": "https://dc.lft.to/lastmile_qr_scan", "android": "https://dc.lft.to/lastmile_qr_scan"}, "lon": -77.04540016666667, "fusion_lon": 0.0, "is_disabled": 0, "lat": 38.918251, "bike_id": "6f9d9565c869a4c57e76aea7ea20bfa5", "name": "6f9d9565c869a4c57e76aea7ea20bfa5", "is_reserved": 0, "fusion_lat": 0.0}, {"type": "electric_scooter", "rental_uris": {"ios": "https://dc.lft.to/lastmile_qr_scan", "android": "https://dc.lft.to/lastmile_qr_scan"}, "lon": -77.044863, "fusion_lon": 0.0, "is_disabled": 0, "lat": 38.907851666666666, "bike_id": "c52ef4d22302a77f6ff335bc4c93b8a9", "name": "c52ef4d22302a77f6ff335bc4c93b8a9", "is_reserved": 0, "fusion_lat": 0.0}, {"type": "electric_scooter", "rental_uris": {"ios": "https://dc.lft.to/lastmile_qr_scan", "android": "https://dc.lft.to/lastmile_qr_scan"}, "lon": -77.00587183333333, "fusion_lon": 0.0, "is_disabled": 0, "lat": 38.90571333333333, "bike_id": "75b22fb2c5a30002707655e493684dcc", "name": "75b22fb2c5a30002707655e493684dcc", "is_reserved": 0, "fusion_lat": 0.0}, {"type": "electric_scooter", "rental_uris": {"ios": "https://dc.lft.to/lastmile_qr_scan", "android": "https://dc.lft.to/lastmile_qr_scan"}, "lon": -77.034114, "fusion_lon": 0.0, "is_disabled": 0, "lat": 38.927390833333334, "bike_id": "9c8ff20df178e0bb11cc21bf075f9c04", "name": "9c8ff20df178e0bb11cc21bf075f9c04", "is_reserved": 0, "fusion_lat": 0.0}, {"type": "electric_scooter", "rental_uris": {"ios": "https://dc.lft.to/lastmile_qr_scan", "android": "https://dc.lft.to/lastmile_qr_scan"}, "lon": -77.03163566666667, "fusion_lon": 0.0, "is_disabled": 0, "lat": 38.89225, "bike_id": "e34333244ec7ba1e025474d392ccd2cc", "name": "e34333244ec7ba1e025474d392ccd2cc", "is_reserved": 0, "fusion_lat": 0.0}, {"type": "electric_scooter", "rental_uris": {"ios": "https://dc.lft.to/lastmile_qr_scan", "android": "https://dc.lft.to/lastmile_qr_scan"}, "lon": -77.06559516666667, "fusion_lon": 0.0, "is_disabled": 0, "lat": 38.95487333333333, "bike_id": "35bd00edc35dc5d8c6b5f789725d6b93", "name": "35bd00edc35dc5d8c6b5f789725d6b93", "is_reserved": 0, "fusion_lat": 0.0}, {"type": "electric_scooter", "rental_uris": {"ios": "https://dc.lft.to/lastmile_qr_scan", "android": "https://dc.lft.to/lastmile_qr_scan"}, "lon": -77.01867266666666, "fusion_lon": 0.0, "is_disabled": 0, "lat": 38.951508, "bike_id": "37a6ba583719d062eb1876cd1665c8ef", "name": "37a6ba583719d062eb1876cd1665c8ef", "is_reserved": 0, "fusion_lat": 0.0}, {"type": "electric_scooter", "rental_uris": {"ios": "https://dc.lft.to/lastmile_qr_scan", "android": "https://dc.lft.to/lastmile_qr_scan"}, "lon": -77.03186266666667, "fusion_lon": 0.0, "is_disabled": 0, "lat": 38.92128483333333, "bike_id": "95b80d6ff35efa09265f4de435b745bf", "name": "95b80d6ff35efa09265f4de435b745bf", "is_reserved": 0, "fusion_lat": 0.0}, {"type": "electric_scooter", "rental_uris": {"ios": "https://dc.lft.to/lastmile_qr_scan", "android": "https://dc.lft.to/lastmile_qr_scan"}, "lon": -77.04670533333334, "fusion_lon": 0.0, "is_disabled": 0, "lat": 38.909432, "bike_id": "366351fa024a480738087d8388cf66ba", "name": "366351fa024a480738087d8388cf66ba", "is_reserved": 0, "fusion_lat": 0.0}, {"type": "electric_scooter", "rental_uris": {"ios": "https://dc.lft.to/lastmile_qr_scan", "android": "https://dc.lft.to/lastmile_qr_scan"}, "lon": -77.03742916666667, "fusion_lon": 0.0, "is_disabled": 0, "lat": 38.9308515, "bike_id": "d907938346d72714edf3ecbdea0c0a65", "name": "d907938346d72714edf3ecbdea0c0a65", "is_reserved": 0, "fusion_lat": 0.0}, {"type": "electric_scooter", "rental_uris": {"ios": "https://dc.lft.to/lastmile_qr_scan", "android": "https://dc.lft.to/lastmile_qr_scan"}, "lon": -77.0317955, "fusion_lon": 0.0, "is_disabled": 0, "lat": 38.918624, "bike_id": "bfb170d910d50b2bad688ffc76edf542", "name": "bfb170d910d50b2bad688ffc76edf542", "is_reserved": 0, "fusion_lat": 0.0}, {"type": "electric_scooter", "rental_uris": {"ios": "https://dc.lft.to/lastmile_qr_scan", "android": "https://dc.lft.to/lastmile_qr_scan"}, "lon": -77.01587883333333, "fusion_lon": 0.0, "is_disabled": 0, "lat": 38.928474333333334, "bike_id": "311ca382d8ebbbb723aa99f2561c7f44", "name": "311ca382d8ebbbb723aa99f2561c7f44", "is_reserved": 0, "fusion_lat": 0.0}, {"type": "electric_scooter", "rental_uris": {"ios": "https://dc.lft.to/lastmile_qr_scan", "android": "https://dc.lft.to/lastmile_qr_scan"}, "lon": -77.032632, "fusion_lon": 0.0, "is_disabled": 0, "lat": 38.935209, "bike_id": "da8d6325d602cccf262c48b763643bb4", "name": "da8d6325d602cccf262c48b763643bb4", "is_reserved": 0, "fusion_lat": 0.0}, {"type": "electric_scooter", "rental_uris": {"ios": "https://dc.lft.to/lastmile_qr_scan", "android": "https://dc.lft.to/lastmile_qr_scan"}, "lon": -77.00751383333333, "fusion_lon": 0.0, "is_disabled": 0, "lat": 38.876555, "bike_id": "2efe1e5914a889c829409431adea7857", "name": "2efe1e5914a889c829409431adea7857", "is_reserved": 0, "fusion_lat": 0.0}, {"type": "electric_scooter", "rental_uris": {"ios": "https://dc.lft.to/lastmile_qr_scan", "android": "https://dc.lft.to/lastmile_qr_scan"}, "lon": -77.043637, "fusion_lon": 0.0, "is_disabled": 0, "lat": 38.9083305, "bike_id": "166273410d30e774f540c32f934501c0", "name": "166273410d30e774f540c32f934501c0", "is_reserved": 0, "fusion_lat": 0.0}, {"type": "electric_scooter", "rental_uris": {"ios": "https://dc.lft.to/lastmile_qr_scan", "android": "https://dc.lft.to/lastmile_qr_scan"}, "lon": -77.04177716666666, "fusion_lon": 0.0, "is_disabled": 0, "lat": 38.91838933333333, "bike_id": "87f1ecba5b0f8256b775da6fff98fab2", "name": "87f1ecba5b0f8256b775da6fff98fab2", "is_reserved": 0, "fusion_lat": 0.0}, {"type": "electric_scooter", "rental_uris": {"ios": "https://dc.lft.to/lastmile_qr_scan", "android": "https://dc.lft.to/lastmile_qr_scan"}, "lon": -77.05756, "fusion_lon": 0.0, "is_disabled": 0, "lat": 38.925712833333336, "bike_id": "12a7919969a8c57a18ede4ecc6c83667", "name": "12a7919969a8c57a18ede4ecc6c83667", "is_reserved": 0, "fusion_lat": 0.0}, {"type": "electric_scooter", "rental_uris": {"ios": "https://dc.lft.to/lastmile_qr_scan", "android": "https://dc.lft.to/lastmile_qr_scan"}, "lon": -77.0040445, "fusion_lon": 0.0, "is_disabled": 0, "lat": 38.8767285, "bike_id": "48725a238c771850a85e022bf3167510", "name": "48725a238c771850a85e022bf3167510", "is_reserved": 0, "fusion_lat": 0.0}, {"type": "electric_scooter", "rental_uris": {"ios": "https://dc.lft.to/lastmile_qr_scan", "android": "https://dc.lft.to/lastmile_qr_scan"}, "lon": -77.02581766666667, "fusion_lon": 0.0, "is_disabled": 0, "lat": 38.904148666666664, "bike_id": "a56b8f9be4c1f59f64fafd23615b2208", "name": "a56b8f9be4c1f59f64fafd23615b2208", "is_reserved": 0, "fusion_lat": 0.0}, {"type": "electric_bike", "rental_uris": {"ios": "https://dc.lft.to/lastmile_qr_scan", "android": "https://dc.lft.to/lastmile_qr_scan"}, "lon": -76.93888033333333, "fusion_lon": 0.0, "is_disabled": 0, "lat": 38.95635383333333, "bike_id": "f367aa93408f1db880dc86415a52e449", "name": "f367aa93408f1db880dc86415a52e449", "is_reserved": 0, "fusion_lat": 0.0}, {"type": "electric_scooter", "rental_uris": {"ios": "https://dc.lft.to/lastmile_qr_scan", "android": "https://dc.lft.to/lastmile_qr_scan"}, "lon": -77.03159516666666, "fusion_lon": 0.0, "is_disabled": 0, "lat": 38.892214, "bike_id": "bc835358194e908274f4c87f3d8fb965", "name": "bc835358194e908274f4c87f3d8fb965", "is_reserved": 0, "fusion_lat": 0.0}, {"type": "electric_scooter", "rental_uris": {"ios": "https://dc.lft.to/lastmile_qr_scan", "android": "https://dc.lft.to/lastmile_qr_scan"}, "lon": -77.02574, "fusion_lon": 0.0, "is_disabled": 0, "lat": 38.91726116666667, "bike_id": "8a0efaa35d372033983389940ecdc321", "name": "8a0efaa35d372033983389940ecdc321", "is_reserved": 0, "fusion_lat": 0.0}, {"type": "electric_bike", "rental_uris": {"ios": "https://dc.lft.to/lastmile_qr_scan", "android": "https://dc.lft.to/lastmile_qr_scan"}, "lon": -76.90447633333333, "fusion_lon": 0.0, "is_disabled": 0, "lat": 38.8977095, "bike_id": "de7251b5544eee3e2242ee67b6633399", "name": "de7251b5544eee3e2242ee67b6633399", "is_reserved": 0, "fusion_lat": 0.0}, {"type": "electric_scooter", "rental_uris": {"ios": "https://dc.lft.to/lastmile_qr_scan", "android": "https://dc.lft.to/lastmile_qr_scan"}, "lon": -76.99848616666667, "fusion_lon": 0.0, "is_disabled": 0, "lat": 38.90001733333333, "bike_id": "1478a9492f0b3d661c153653148f90c2", "name": "1478a9492f0b3d661c153653148f90c2", "is_reserved": 0, "fusion_lat": 0.0}, {"type": "electric_scooter", "rental_uris": {"ios": "https://dc.lft.to/lastmile_qr_scan", "android": "https://dc.lft.to/lastmile_qr_scan"}, "lon": -77.04314983333333, "fusion_lon": 0.0, "is_disabled": 0, "lat": 38.9111835, "bike_id": "40a2e0c34f96d4cc1f1e5ae41c329c94", "name": "40a2e0c34f96d4cc1f1e5ae41c329c94", "is_reserved": 0, "fusion_lat": 0.0}, {"type": "electric_scooter", "rental_uris": {"ios": "https://dc.lft.to/lastmile_qr_scan", "android": "https://dc.lft.to/lastmile_qr_scan"}, "lon": -76.98561233333334, "fusion_lon": 0.0, "is_disabled": 0, "lat": 38.88674816666666, "bike_id": "c72fc9118c17e04cde0b87285aea88e8", "name": "c72fc9118c17e04cde0b87285aea88e8", "is_reserved": 0, "fusion_lat": 0.0}, {"type": "electric_bike", "rental_uris": {"ios": "https://dc.lft.to/lastmile_qr_scan", "android": "https://dc.lft.to/lastmile_qr_scan"}, "lon": -76.98553166666667, "fusion_lon": 0.0, "is_disabled": 0, "lat": 38.85209916666667, "bike_id": "72561e0013924c592aabf984bb58544f", "name": "72561e0013924c592aabf984bb58544f", "is_reserved": 0, "fusion_lat": 0.0}, {"type": "electric_scooter", "rental_uris": {"ios": "https://dc.lft.to/lastmile_qr_scan", "android": "https://dc.lft.to/lastmile_qr_scan"}, "lon": -77.02492433333333, "fusion_lon": 0.0, "is_disabled": 0, "lat": 38.91941633333333, "bike_id": "46bcdeabcc8c684f26f4cf43b10e6692", "name": "46bcdeabcc8c684f26f4cf43b10e6692", "is_reserved": 0, "fusion_lat": 0.0}, {"type": "electric_scooter", "rental_uris": {"ios": "https://dc.lft.to/lastmile_qr_scan", "android": "https://dc.lft.to/lastmile_qr_scan"}, "lon": -77.03258083333333, "fusion_lon": 0.0, "is_disabled": 0, "lat": 38.9379445, "bike_id": "9f225b7eac2aac0c90978fd74ecee80c", "name": "9f225b7eac2aac0c90978fd74ecee80c", "is_reserved": 0, "fusion_lat": 0.0}, {"type": "electric_scooter", "rental_uris": {"ios": "https://dc.lft.to/lastmile_qr_scan", "android": "https://dc.lft.to/lastmile_qr_scan"}, "lon": -77.03349566666667, "fusion_lon": 0.0, "is_disabled": 0, "lat": 38.917146833333334, "bike_id": "f3a15edd231ed066842dd7b4aa919678", "name": "f3a15edd231ed066842dd7b4aa919678", "is_reserved": 0, "fusion_lat": 0.0}, {"type": "electric_scooter", "rental_uris": {"ios": "https://dc.lft.to/lastmile_qr_scan", "android": "https://dc.lft.to/lastmile_qr_scan"}, "lon": -76.9955345, "fusion_lon": 0.0, "is_disabled": 0, "lat": 38.926626166666665, "bike_id": "d484088f13a2e6decd3c3e73ddaf6f04", "name": "d484088f13a2e6decd3c3e73ddaf6f04", "is_reserved": 0, "fusion_lat": 0.0}, {"type": "electric_scooter", "rental_uris": {"ios": "https://dc.lft.to/lastmile_qr_scan", "android": "https://dc.lft.to/lastmile_qr_scan"}, "lon": -77.02774216666667, "fusion_lon": 0.0, "is_disabled": 0, "lat": 38.8922145, "bike_id": "585728e5193c30a54bf31a7e1959f299", "name": "585728e5193c30a54bf31a7e1959f299", "is_reserved": 0, "fusion_lat": 0.0}, {"type": "electric_scooter", "rental_uris": {"ios": "https://dc.lft.to/lastmile_qr_scan", "android": "https://dc.lft.to/lastmile_qr_scan"}, "lon": -76.96604916666666, "fusion_lon": 0.0, "is_disabled": 0, "lat": 38.8738615, "bike_id": "f73649f43d66585cced3c4412ba70f89", "name": "f73649f43d66585cced3c4412ba70f89", "is_reserved": 0, "fusion_lat": 0.0}, {"type": "electric_scooter", "rental_uris": {"ios": "https://dc.lft.to/lastmile_qr_scan", "android": "https://dc.lft.to/lastmile_qr_scan"}, "lon": -77.03181666666667, "fusion_lon": 0.0, "is_disabled": 0, "lat": 38.914291, "bike_id": "97e36ef514c1d96140199079b157e202", "name": "97e36ef514c1d96140199079b157e202", "is_reserved": 0, "fusion_lat": 0.0}, {"type": "electric_scooter", "rental_uris": {"ios": "https://dc.lft.to/lastmile_qr_scan", "android": "https://dc.lft.to/lastmile_qr_scan"}, "lon": -77.043725, "fusion_lon": 0.0, "is_disabled": 0, "lat": 38.9211905, "bike_id": "8f40f45ab5bb023151af3fe31606c8f6", "name": "8f40f45ab5bb023151af3fe31606c8f6", "is_reserved": 0, "fusion_lat": 0.0}, {"type": "electric_scooter", "rental_uris": {"ios": "https://dc.lft.to/lastmile_qr_scan", "android": "https://dc.lft.to/lastmile_qr_scan"}, "lon": -76.99036616666666, "fusion_lon": 0.0, "is_disabled": 0, "lat": 38.863645166666664, "bike_id": "80cd40905461e26d80514c9b2ecfe6f5", "name": "80cd40905461e26d80514c9b2ecfe6f5", "is_reserved": 0, "fusion_lat": 0.0}, {"type": "electric_scooter", "rental_uris": {"ios": "https://dc.lft.to/lastmile_qr_scan", "android": "https://dc.lft.to/lastmile_qr_scan"}, "lon": -77.037947, "fusion_lon": 0.0, "is_disabled": 0, "lat": 38.92626666666666, "bike_id": "e3fdded28f9d4812f51bb2fcc179355c", "name": "e3fdded28f9d4812f51bb2fcc179355c", "is_reserved": 0, "fusion_lat": 0.0}, {"type": "electric_scooter", "rental_uris": {"ios": "https://dc.lft.to/lastmile_qr_scan", "android": "https://dc.lft.to/lastmile_qr_scan"}, "lon": -77.04218483333334, "fusion_lon": 0.0, "is_disabled": 0, "lat": 38.923123, "bike_id": "bf9778d7640362005d9f7ad912d46bd1", "name": "bf9778d7640362005d9f7ad912d46bd1", "is_reserved": 0, "fusion_lat": 0.0}, {"type": "electric_scooter", "rental_uris": {"ios": "https://dc.lft.to/lastmile_qr_scan", "android": "https://dc.lft.to/lastmile_qr_scan"}, "lon": -77.02320883333333, "fusion_lon": 0.0, "is_disabled": 0, "lat": 38.91685433333333, "bike_id": "dd8b3c0a757c73bcfb6a0ffab12fbb7f", "name": "dd8b3c0a757c73bcfb6a0ffab12fbb7f", "is_reserved": 0, "fusion_lat": 0.0}, {"type": "electric_scooter", "rental_uris": {"ios": "https://dc.lft.to/lastmile_qr_scan", "android": "https://dc.lft.to/lastmile_qr_scan"}, "lon": -77.03357316666667, "fusion_lon": 0.0, "is_disabled": 0, "lat": 38.8875665, "bike_id": "b064d104f033ef2ac4132fe3a9a7641f", "name": "b064d104f033ef2ac4132fe3a9a7641f", "is_reserved": 0, "fusion_lat": 0.0}, {"type": "electric_scooter", "rental_uris": {"ios": "https://dc.lft.to/lastmile_qr_scan", "android": "https://dc.lft.to/lastmile_qr_scan"}, "lon": -76.92621416666667, "fusion_lon": 0.0, "is_disabled": 0, "lat": 38.884594166666666, "bike_id": "0834dd9bd1efd5dd0c0e5499158612b1", "name": "0834dd9bd1efd5dd0c0e5499158612b1", "is_reserved": 0, "fusion_lat": 0.0}, {"type": "electric_scooter", "rental_uris": {"ios": "https://dc.lft.to/lastmile_qr_scan", "android": "https://dc.lft.to/lastmile_qr_scan"}, "lon": -77.04513433333334, "fusion_lon": 0.0, "is_disabled": 0, "lat": 38.918296833333336, "bike_id": "a4b87ead56837c2befc2ba7ad6cd223b", "name": "a4b87ead56837c2befc2ba7ad6cd223b", "is_reserved": 0, "fusion_lat": 0.0}, {"type": "electric_scooter", "rental_uris": {"ios": "https://dc.lft.to/lastmile_qr_scan", "android": "https://dc.lft.to/lastmile_qr_scan"}, "lon": -77.03513583333333, "fusion_lon": 0.0, "is_disabled": 0, "lat": 38.92147716666667, "bike_id": "7735590a9566d76f34a931e82baa1d77", "name": "7735590a9566d76f34a931e82baa1d77", "is_reserved": 0, "fusion_lat": 0.0}, {"type": "electric_scooter", "rental_uris": {"ios": "https://dc.lft.to/lastmile_qr_scan", "android": "https://dc.lft.to/lastmile_qr_scan"}, "lon": -76.99505283333333, "fusion_lon": 0.0, "is_disabled": 0, "lat": 38.89486633333333, "bike_id": "610a5883104e3b8cdd2dc731ca871bd9", "name": "610a5883104e3b8cdd2dc731ca871bd9", "is_reserved": 0, "fusion_lat": 0.0}, {"type": "electric_scooter", "rental_uris": {"ios": "https://dc.lft.to/lastmile_qr_scan", "android": "https://dc.lft.to/lastmile_qr_scan"}, "lon": -77.020932, "fusion_lon": 0.0, "is_disabled": 0, "lat": 38.93117566666667, "bike_id": "7c3cf993b8deb39ef1af059380ab669e", "name": "7c3cf993b8deb39ef1af059380ab669e", "is_reserved": 0, "fusion_lat": 0.0}, {"type": "electric_bike", "rental_uris": {"ios": "https://dc.lft.to/lastmile_qr_scan", "android": "https://dc.lft.to/lastmile_qr_scan"}, "lon": -76.93650416666667, "fusion_lon": 0.0, "is_disabled": 0, "lat": 38.871532, "bike_id": "57521ebe278a625fc5c74bc32b33b270", "name": "57521ebe278a625fc5c74bc32b33b270", "is_reserved": 0, "fusion_lat": 0.0}, {"type": "electric_scooter", "rental_uris": {"ios": "https://dc.lft.to/lastmile_qr_scan", "android": "https://dc.lft.to/lastmile_qr_scan"}, "lon": -77.03196733333333, "fusion_lon": 0.0, "is_disabled": 0, "lat": 38.91322816666667, "bike_id": "68bfd579197b968154a1f5bd2ee6249a", "name": "68bfd579197b968154a1f5bd2ee6249a", "is_reserved": 0, "fusion_lat": 0.0}, {"type": "electric_scooter", "rental_uris": {"ios": "https://dc.lft.to/lastmile_qr_scan", "android": "https://dc.lft.to/lastmile_qr_scan"}, "lon": -77.02837733333334, "fusion_lon": 0.0, "is_disabled": 0, "lat": 38.93190633333333, "bike_id": "1a859698fd7fd6ce3c456ae6d4236ab6", "name": "1a859698fd7fd6ce3c456ae6d4236ab6", "is_reserved": 0, "fusion_lat": 0.0}, {"type": "electric_scooter", "rental_uris": {"ios": "https://dc.lft.to/lastmile_qr_scan", "android": "https://dc.lft.to/lastmile_qr_scan"}, "lon": -76.9951615, "fusion_lon": 0.0, "is_disabled": 0, "lat": 38.883723833333335, "bike_id": "7e5b2fda6d0d2c12c46843d9a922a530", "name": "7e5b2fda6d0d2c12c46843d9a922a530", "is_reserved": 0, "fusion_lat": 0.0}, {"type": "electric_scooter", "rental_uris": {"ios": "https://dc.lft.to/lastmile_qr_scan", "android": "https://dc.lft.to/lastmile_qr_scan"}, "lon": -77.03862733333334, "fusion_lon": 0.0, "is_disabled": 0, "lat": 38.91035933333333, "bike_id": "4abafa9312012a43597aa45bb5e02fee", "name": "4abafa9312012a43597aa45bb5e02fee", "is_reserved": 0, "fusion_lat": 0.0}, {"type": "electric_bike", "rental_uris": {"ios": "https://dc.lft.to/lastmile_qr_scan", "android": "https://dc.lft.to/lastmile_qr_scan"}, "lon": -76.97241683333333, "fusion_lon": 0.0, "is_disabled": 0, "lat": 38.949029, "bike_id": "4c701fb9399a4ac0444e0554dea50f95", "name": "4c701fb9399a4ac0444e0554dea50f95", "is_reserved": 0, "fusion_lat": 0.0}, {"type": "electric_scooter", "rental_uris": {"ios": "https://dc.lft.to/lastmile_qr_scan", "android": "https://dc.lft.to/lastmile_qr_scan"}, "lon": -77.03180516666667, "fusion_lon": 0.0, "is_disabled": 0, "lat": 38.9142835, "bike_id": "be589aeb934b179337b8c0a185984e09", "name": "be589aeb934b179337b8c0a185984e09", "is_reserved": 0, "fusion_lat": 0.0}, {"type": "electric_scooter", "rental_uris": {"ios": "https://dc.lft.to/lastmile_qr_scan", "android": "https://dc.lft.to/lastmile_qr_scan"}, "lon": -77.009328, "fusion_lon": 0.0, "is_disabled": 0, "lat": 38.883398166666666, "bike_id": "0ec8055f996e761df284defb9f21abdf", "name": "0ec8055f996e761df284defb9f21abdf", "is_reserved": 0, "fusion_lat": 0.0}, {"type": "electric_scooter", "rental_uris": {"ios": "https://dc.lft.to/lastmile_qr_scan", "android": "https://dc.lft.to/lastmile_qr_scan"}, "lon": -77.026933, "fusion_lon": 0.0, "is_disabled": 0, "lat": 38.90685583333333, "bike_id": "9fb15c623319a2613fe9f3839a8eeb1b", "name": "9fb15c623319a2613fe9f3839a8eeb1b", "is_reserved": 0, "fusion_lat": 0.0}, {"type": "electric_bike", "rental_uris": {"ios": "https://dc.lft.to/lastmile_qr_scan", "android": "https://dc.lft.to/lastmile_qr_scan"}, "lon": -77.04018, "fusion_lon": 0.0, "is_disabled": 0, "lat": 38.79324866666666, "bike_id": "a80407c581e25e672e819b1b6f54bf20", "name": "a80407c581e25e672e819b1b6f54bf20", "is_reserved": 0, "fusion_lat": 0.0}, {"type": "electric_scooter", "rental_uris": {"ios": "https://dc.lft.to/lastmile_qr_scan", "android": "https://dc.lft.to/lastmile_qr_scan"}, "lon": -77.03508966666666, "fusion_lon": 0.0, "is_disabled": 0, "lat": 38.921477, "bike_id": "1b76d8d575a390880af9cc19ea5dd5a6", "name": "1b76d8d575a390880af9cc19ea5dd5a6", "is_reserved": 0, "fusion_lat": 0.0}, {"type": "electric_scooter", "rental_uris": {"ios": "https://dc.lft.to/lastmile_qr_scan", "android": "https://dc.lft.to/lastmile_qr_scan"}, "lon": -77.03267716666667, "fusion_lon": 0.0, "is_disabled": 0, "lat": 38.8989635, "bike_id": "d7994c4cbd9d5330414bbaeee60970bb", "name": "d7994c4cbd9d5330414bbaeee60970bb", "is_reserved": 0, "fusion_lat": 0.0}, {"type": "electric_scooter", "rental_uris": {"ios": "https://dc.lft.to/lastmile_qr_scan", "android": "https://dc.lft.to/lastmile_qr_scan"}, "lon": -77.02623716666666, "fusion_lon": 0.0, "is_disabled": 0, "lat": 38.892191, "bike_id": "92899f0f804171c840f603099a0395a4", "name": "92899f0f804171c840f603099a0395a4", "is_reserved": 0, "fusion_lat": 0.0}, {"type": "electric_scooter", "rental_uris": {"ios": "https://dc.lft.to/lastmile_qr_scan", "android": "https://dc.lft.to/lastmile_qr_scan"}, "lon": -77.00872383333333, "fusion_lon": 0.0, "is_disabled": 0, "lat": 38.91706, "bike_id": "903056bde8126edc8f78f8234a847aeb", "name": "903056bde8126edc8f78f8234a847aeb", "is_reserved": 0, "fusion_lat": 0.0}, {"type": "electric_bike", "rental_uris": {"ios": "https://dc.lft.to/lastmile_qr_scan", "android": "https://dc.lft.to/lastmile_qr_scan"}, "lon": -77.11805216666667, "fusion_lon": 0.0, "is_disabled": 0, "lat": 38.8736975, "bike_id": "9418e576fa95cf90a3e865eb22487571", "name": "9418e576fa95cf90a3e865eb22487571", "is_reserved": 0, "fusion_lat": 0.0}, {"type": "electric_scooter", "rental_uris": {"ios": "https://dc.lft.to/lastmile_qr_scan", "android": "https://dc.lft.to/lastmile_qr_scan"}, "lon": -76.97703533333333, "fusion_lon": 0.0, "is_disabled": 0, "lat": 38.90250566666667, "bike_id": "a57025961ffa9bf75daef0e904c592ee", "name": "a57025961ffa9bf75daef0e904c592ee", "is_reserved": 0, "fusion_lat": 0.0}, {"type": "electric_scooter", "rental_uris": {"ios": "https://dc.lft.to/lastmile_qr_scan", "android": "https://dc.lft.to/lastmile_qr_scan"}, "lon": -76.98079533333333, "fusion_lon": 0.0, "is_disabled": 0, "lat": 38.91953316666667, "bike_id": "006b2158592f6f14c697ed57ce91b5c3", "name": "006b2158592f6f14c697ed57ce91b5c3", "is_reserved": 0, "fusion_lat": 0.0}, {"type": "electric_scooter", "rental_uris": {"ios": "https://dc.lft.to/lastmile_qr_scan", "android": "https://dc.lft.to/lastmile_qr_scan"}, "lon": -77.03423516666666, "fusion_lon": 0.0, "is_disabled": 0, "lat": 38.930826333333336, "bike_id": "fe8d58d1eadba2782a3d6c01b4e469be", "name": "fe8d58d1eadba2782a3d6c01b4e469be", "is_reserved": 0, "fusion_lat": 0.0}, {"type": "electric_scooter", "rental_uris": {"ios": "https://dc.lft.to/lastmile_qr_scan", "android": "https://dc.lft.to/lastmile_qr_scan"}, "lon": -77.06046883333333, "fusion_lon": 0.0, "is_disabled": 0, "lat": 38.902335666666666, "bike_id": "bccce1aa17d3941c617a70f77992de5f", "name": "bccce1aa17d3941c617a70f77992de5f", "is_reserved": 0, "fusion_lat": 0.0}, {"type": "electric_bike", "rental_uris": {"ios": "https://dc.lft.to/lastmile_qr_scan", "android": "https://dc.lft.to/lastmile_qr_scan"}, "lon": -77.01017833333333, "fusion_lon": 0.0, "is_disabled": 0, "lat": 38.955985, "bike_id": "711fa79d5093884969860b21d78b1f74", "name": "711fa79d5093884969860b21d78b1f74", "is_reserved": 0, "fusion_lat": 0.0}, {"type": "electric_scooter", "rental_uris": {"ios": "https://dc.lft.to/lastmile_qr_scan", "android": "https://dc.lft.to/lastmile_qr_scan"}, "lon": -77.02181066666667, "fusion_lon": 0.0, "is_disabled": 0, "lat": 38.91573133333333, "bike_id": "2278215f3925592c950f9920a59912f6", "name": "2278215f3925592c950f9920a59912f6", "is_reserved": 0, "fusion_lat": 0.0}, {"type": "electric_scooter", "rental_uris": {"ios": "https://dc.lft.to/lastmile_qr_scan", "android": "https://dc.lft.to/lastmile_qr_scan"}, "lon": -77.01133366666667, "fusion_lon": 0.0, "is_disabled": 0, "lat": 38.885276166666664, "bike_id": "dd2a4a9c60e3268c276d98d03e4dab58", "name": "dd2a4a9c60e3268c276d98d03e4dab58", "is_reserved": 0, "fusion_lat": 0.0}, {"type": "electric_scooter", "rental_uris": {"ios": "https://dc.lft.to/lastmile_qr_scan", "android": "https://dc.lft.to/lastmile_qr_scan"}, "lon": -77.02729883333333, "fusion_lon": 0.0, "is_disabled": 0, "lat": 38.932542, "bike_id": "f95b7bdf6f29fa121161a4b6e0d45175", "name": "f95b7bdf6f29fa121161a4b6e0d45175", "is_reserved": 0, "fusion_lat": 0.0}, {"type": "electric_scooter", "rental_uris": {"ios": "https://dc.lft.to/lastmile_qr_scan", "android": "https://dc.lft.to/lastmile_qr_scan"}, "lon": -77.03962533333333, "fusion_lon": 0.0, "is_disabled": 0, "lat": 38.8924185, "bike_id": "3e68cd34db8928e168457293b2894846", "name": "3e68cd34db8928e168457293b2894846", "is_reserved": 0, "fusion_lat": 0.0}, {"type": "electric_bike", "rental_uris": {"ios": "https://dc.lft.to/lastmile_qr_scan", "android": "https://dc.lft.to/lastmile_qr_scan"}, "lon": -77.0861515, "fusion_lon": 0.0, "is_disabled": 0, "lat": 38.85940316666667, "bike_id": "8e25681fcbc5a67e510a86036c8f5370", "name": "8e25681fcbc5a67e510a86036c8f5370", "is_reserved": 0, "fusion_lat": 0.0}, {"type": "electric_scooter", "rental_uris": {"ios": "https://dc.lft.to/lastmile_qr_scan", "android": "https://dc.lft.to/lastmile_qr_scan"}, "lon": -77.04232433333334, "fusion_lon": 0.0, "is_disabled": 0, "lat": 38.921732, "bike_id": "c0d456ab79e787803d783bfc2f363174", "name": "c0d456ab79e787803d783bfc2f363174", "is_reserved": 0, "fusion_lat": 0.0}, {"type": "electric_scooter", "rental_uris": {"ios": "https://dc.lft.to/lastmile_qr_scan", "android": "https://dc.lft.to/lastmile_qr_scan"}, "lon": -77.03740866666666, "fusion_lon": 0.0, "is_disabled": 0, "lat": 38.902833333333334, "bike_id": "2fe1ac74cba3639d1f52064651f38d54", "name": "2fe1ac74cba3639d1f52064651f38d54", "is_reserved": 0, "fusion_lat": 0.0}, {"type": "electric_scooter", "rental_uris": {"ios": "https://dc.lft.to/lastmile_qr_scan", "android": "https://dc.lft.to/lastmile_qr_scan"}, "lon": -77.043679, "fusion_lon": 0.0, "is_disabled": 0, "lat": 38.933252833333334, "bike_id": "0a8f78a00c8174e7f486f84769a2176d", "name": "0a8f78a00c8174e7f486f84769a2176d", "is_reserved": 0, "fusion_lat": 0.0}, {"type": "electric_scooter", "rental_uris": {"ios": "https://dc.lft.to/lastmile_qr_scan", "android": "https://dc.lft.to/lastmile_qr_scan"}, "lon": -77.02211083333333, "fusion_lon": 0.0, "is_disabled": 0, "lat": 38.90569216666667, "bike_id": "2cf6df85658eeb007a5c112e4e44c1b1", "name": "2cf6df85658eeb007a5c112e4e44c1b1", "is_reserved": 0, "fusion_lat": 0.0}, {"type": "electric_scooter", "rental_uris": {"ios": "https://dc.lft.to/lastmile_qr_scan", "android": "https://dc.lft.to/lastmile_qr_scan"}, "lon": -76.99509816666666, "fusion_lon": 0.0, "is_disabled": 0, "lat": 38.88194716666667, "bike_id": "fd191571042bcaa9ac03a99ef1cdc183", "name": "fd191571042bcaa9ac03a99ef1cdc183", "is_reserved": 0, "fusion_lat": 0.0}, {"type": "electric_scooter", "rental_uris": {"ios": "https://dc.lft.to/lastmile_qr_scan", "android": "https://dc.lft.to/lastmile_qr_scan"}, "lon": -77.024317, "fusion_lon": 0.0, "is_disabled": 0, "lat": 38.9060355, "bike_id": "df0239529a18ec18a1f841f59e3fe168", "name": "df0239529a18ec18a1f841f59e3fe168", "is_reserved": 0, "fusion_lat": 0.0}, {"type": "electric_scooter", "rental_uris": {"ios": "https://dc.lft.to/lastmile_qr_scan", "android": "https://dc.lft.to/lastmile_qr_scan"}, "lon": -77.02489166666666, "fusion_lon": 0.0, "is_disabled": 0, "lat": 38.941863, "bike_id": "fc0f73fdc32cb76784e36518f2a45f8c", "name": "fc0f73fdc32cb76784e36518f2a45f8c", "is_reserved": 0, "fusion_lat": 0.0}, {"type": "electric_scooter", "rental_uris": {"ios": "https://dc.lft.to/lastmile_qr_scan", "android": "https://dc.lft.to/lastmile_qr_scan"}, "lon": -77.0585685, "fusion_lon": 0.0, "is_disabled": 0, "lat": 38.935481, "bike_id": "77aba5f066ddfc3b68abe44b50f0ab42", "name": "77aba5f066ddfc3b68abe44b50f0ab42", "is_reserved": 0, "fusion_lat": 0.0}, {"type": "electric_scooter", "rental_uris": {"ios": "https://dc.lft.to/lastmile_qr_scan", "android": "https://dc.lft.to/lastmile_qr_scan"}, "lon": -77.0458445, "fusion_lon": 0.0, "is_disabled": 0, "lat": 38.914039333333335, "bike_id": "a506618de092cf3498e9b9cc1e6f71a8", "name": "a506618de092cf3498e9b9cc1e6f71a8", "is_reserved": 0, "fusion_lat": 0.0}, {"type": "electric_scooter", "rental_uris": {"ios": "https://dc.lft.to/lastmile_qr_scan", "android": "https://dc.lft.to/lastmile_qr_scan"}, "lon": -77.03149933333333, "fusion_lon": 0.0, "is_disabled": 0, "lat": 38.915607333333334, "bike_id": "eded973c4cdc65c0445d9d4503acb2f3", "name": "eded973c4cdc65c0445d9d4503acb2f3", "is_reserved": 0, "fusion_lat": 0.0}, {"type": "electric_scooter", "rental_uris": {"ios": "https://dc.lft.to/lastmile_qr_scan", "android": "https://dc.lft.to/lastmile_qr_scan"}, "lon": -77.0264865, "fusion_lon": 0.0, "is_disabled": 0, "lat": 38.938651, "bike_id": "4173d6fe2304b778032dc97c01233e57", "name": "4173d6fe2304b778032dc97c01233e57", "is_reserved": 0, "fusion_lat": 0.0}, {"type": "electric_scooter", "rental_uris": {"ios": "https://dc.lft.to/lastmile_qr_scan", "android": "https://dc.lft.to/lastmile_qr_scan"}, "lon": -77.003063, "fusion_lon": 0.0, "is_disabled": 0, "lat": 38.924767333333335, "bike_id": "020fec0e75bc54779587e503591a3cc9", "name": "020fec0e75bc54779587e503591a3cc9", "is_reserved": 0, "fusion_lat": 0.0}, {"type": "electric_scooter", "rental_uris": {"ios": "https://dc.lft.to/lastmile_qr_scan", "android": "https://dc.lft.to/lastmile_qr_scan"}, "lon": -77.00376883333334, "fusion_lon": 0.0, "is_disabled": 0, "lat": 38.884424, "bike_id": "53339b83bdd14f1954b30afe37621aff", "name": "53339b83bdd14f1954b30afe37621aff", "is_reserved": 0, "fusion_lat": 0.0}, {"type": "electric_scooter", "rental_uris": {"ios": "https://dc.lft.to/lastmile_qr_scan", "android": "https://dc.lft.to/lastmile_qr_scan"}, "lon": -77.0358975, "fusion_lon": 0.0, "is_disabled": 0, "lat": 38.93740783333333, "bike_id": "fb7da190abcaf70b6f1cfea2fced2f8f", "name": "fb7da190abcaf70b6f1cfea2fced2f8f", "is_reserved": 0, "fusion_lat": 0.0}, {"type": "electric_scooter", "rental_uris": {"ios": "https://dc.lft.to/lastmile_qr_scan", "android": "https://dc.lft.to/lastmile_qr_scan"}, "lon": -77.0092605, "fusion_lon": 0.0, "is_disabled": 0, "lat": 38.871995, "bike_id": "608026fe49f3c02deac813923b947b6f", "name": "608026fe49f3c02deac813923b947b6f", "is_reserved": 0, "fusion_lat": 0.0}, {"type": "electric_scooter", "rental_uris": {"ios": "https://dc.lft.to/lastmile_qr_scan", "android": "https://dc.lft.to/lastmile_qr_scan"}, "lon": -77.02194266666666, "fusion_lon": 0.0, "is_disabled": 0, "lat": 38.89871683333333, "bike_id": "246f70deaef5d10fc5935101243c4ca0", "name": "246f70deaef5d10fc5935101243c4ca0", "is_reserved": 0, "fusion_lat": 0.0}, {"type": "electric_scooter", "rental_uris": {"ios": "https://dc.lft.to/lastmile_qr_scan", "android": "https://dc.lft.to/lastmile_qr_scan"}, "lon": -76.98610883333333, "fusion_lon": 0.0, "is_disabled": 0, "lat": 38.880056, "bike_id": "eb5d3d7521d51d32ae309bfb5e2b6187", "name": "eb5d3d7521d51d32ae309bfb5e2b6187", "is_reserved": 0, "fusion_lat": 0.0}, {"type": "electric_scooter", "rental_uris": {"ios": "https://dc.lft.to/lastmile_qr_scan", "android": "https://dc.lft.to/lastmile_qr_scan"}, "lon": -77.06449166666667, "fusion_lon": 0.0, "is_disabled": 0, "lat": 38.9052215, "bike_id": "42a095401e6fbb7aea1147d639558ae5", "name": "42a095401e6fbb7aea1147d639558ae5", "is_reserved": 0, "fusion_lat": 0.0}, {"type": "electric_scooter", "rental_uris": {"ios": "https://dc.lft.to/lastmile_qr_scan", "android": "https://dc.lft.to/lastmile_qr_scan"}, "lon": -77.02096483333334, "fusion_lon": 0.0, "is_disabled": 0, "lat": 38.910842333333335, "bike_id": "20db27957cbed0dbb6816f255f60d898", "name": "20db27957cbed0dbb6816f255f60d898", "is_reserved": 0, "fusion_lat": 0.0}, {"type": "electric_scooter", "rental_uris": {"ios": "https://dc.lft.to/lastmile_qr_scan", "android": "https://dc.lft.to/lastmile_qr_scan"}, "lon": -77.02353600000001, "fusion_lon": 0.0, "is_disabled": 0, "lat": 38.930470666666665, "bike_id": "289820060f925cec8cb29b084efcbe55", "name": "289820060f925cec8cb29b084efcbe55", "is_reserved": 0, "fusion_lat": 0.0}, {"type": "electric_scooter", "rental_uris": {"ios": "https://dc.lft.to/lastmile_qr_scan", "android": "https://dc.lft.to/lastmile_qr_scan"}, "lon": -76.925795, "fusion_lon": 0.0, "is_disabled": 0, "lat": 38.89776833333333, "bike_id": "a334e39ef5a51000721aa5bb387a155d", "name": "a334e39ef5a51000721aa5bb387a155d", "is_reserved": 0, "fusion_lat": 0.0}, {"type": "electric_scooter", "rental_uris": {"ios": "https://dc.lft.to/lastmile_qr_scan", "android": "https://dc.lft.to/lastmile_qr_scan"}, "lon": -77.0417925, "fusion_lon": 0.0, "is_disabled": 0, "lat": 38.91731583333333, "bike_id": "4cf8cb554ef23011929442a8934faa1d", "name": "4cf8cb554ef23011929442a8934faa1d", "is_reserved": 0, "fusion_lat": 0.0}, {"type": "electric_scooter", "rental_uris": {"ios": "https://dc.lft.to/lastmile_qr_scan", "android": "https://dc.lft.to/lastmile_qr_scan"}, "lon": -76.99827516666667, "fusion_lon": 0.0, "is_disabled": 0, "lat": 38.8853375, "bike_id": "81e1b167a50cda3e9c2a3fc740217ecc", "name": "81e1b167a50cda3e9c2a3fc740217ecc", "is_reserved": 0, "fusion_lat": 0.0}, {"type": "electric_scooter", "rental_uris": {"ios": "https://dc.lft.to/lastmile_qr_scan", "android": "https://dc.lft.to/lastmile_qr_scan"}, "lon": -77.02717883333334, "fusion_lon": 0.0, "is_disabled": 0, "lat": 38.906861666666664, "bike_id": "3294a99f68a304b330bc50b32bae5673", "name": "3294a99f68a304b330bc50b32bae5673", "is_reserved": 0, "fusion_lat": 0.0}, {"type": "electric_scooter", "rental_uris": {"ios": "https://dc.lft.to/lastmile_qr_scan", "android": "https://dc.lft.to/lastmile_qr_scan"}, "lon": -77.02199583333334, "fusion_lon": 0.0, "is_disabled": 0, "lat": 38.91051983333333, "bike_id": "e62ea8d0e83d7656ee90d1d94b5bb7fd", "name": "e62ea8d0e83d7656ee90d1d94b5bb7fd", "is_reserved": 0, "fusion_lat": 0.0}, {"type": "electric_scooter", "rental_uris": {"ios": "https://dc.lft.to/lastmile_qr_scan", "android": "https://dc.lft.to/lastmile_qr_scan"}, "lon": -77.02594333333333, "fusion_lon": 0.0, "is_disabled": 0, "lat": 38.91413266666667, "bike_id": "c3ad577c68f19453cd41b0b247540d94", "name": "c3ad577c68f19453cd41b0b247540d94", "is_reserved": 0, "fusion_lat": 0.0}, {"type": "electric_bike", "rental_uris": {"ios": "https://dc.lft.to/lastmile_qr_scan", "android": "https://dc.lft.to/lastmile_qr_scan"}, "lon": -76.99353233333333, "fusion_lon": 0.0, "is_disabled": 0, "lat": 38.84506783333333, "bike_id": "5ff4dfcfd95381fa82cb844d76cd7655", "name": "5ff4dfcfd95381fa82cb844d76cd7655", "is_reserved": 0, "fusion_lat": 0.0}, {"type": "electric_bike", "rental_uris": {"ios": "https://dc.lft.to/lastmile_qr_scan", "android": "https://dc.lft.to/lastmile_qr_scan"}, "lon": -77.02268716666667, "fusion_lon": 0.0, "is_disabled": 0, "lat": 38.9447435, "bike_id": "ffba6ce3a956883017f762565067c8cb", "name": "ffba6ce3a956883017f762565067c8cb", "is_reserved": 0, "fusion_lat": 0.0}, {"type": "electric_scooter", "rental_uris": {"ios": "https://dc.lft.to/lastmile_qr_scan", "android": "https://dc.lft.to/lastmile_qr_scan"}, "lon": -77.02352633333334, "fusion_lon": 0.0, "is_disabled": 0, "lat": 38.93187416666667, "bike_id": "2f0485468336ac2f3861c6d85046a537", "name": "2f0485468336ac2f3861c6d85046a537", "is_reserved": 0, "fusion_lat": 0.0}, {"type": "electric_scooter", "rental_uris": {"ios": "https://dc.lft.to/lastmile_qr_scan", "android": "https://dc.lft.to/lastmile_qr_scan"}, "lon": -77.02694583333333, "fusion_lon": 0.0, "is_disabled": 0, "lat": 38.90676166666667, "bike_id": "994ac08032b382cc906c41d1dde764d5", "name": "994ac08032b382cc906c41d1dde764d5", "is_reserved": 0, "fusion_lat": 0.0}, {"type": "electric_scooter", "rental_uris": {"ios": "https://dc.lft.to/lastmile_qr_scan", "android": "https://dc.lft.to/lastmile_qr_scan"}, "lon": -76.98726866666667, "fusion_lon": 0.0, "is_disabled": 0, "lat": 38.867140166666665, "bike_id": "7dc5291a9ec8aec553a7348f1590178b", "name": "7dc5291a9ec8aec553a7348f1590178b", "is_reserved": 0, "fusion_lat": 0.0}, {"type": "electric_scooter", "rental_uris": {"ios": "https://dc.lft.to/lastmile_qr_scan", "android": "https://dc.lft.to/lastmile_qr_scan"}, "lon": -77.03121983333334, "fusion_lon": 0.0, "is_disabled": 0, "lat": 38.9376625, "bike_id": "a131271860f7401a9eb830fcbe9de48d", "name": "a131271860f7401a9eb830fcbe9de48d", "is_reserved": 0, "fusion_lat": 0.0}, {"type": "electric_scooter", "rental_uris": {"ios": "https://dc.lft.to/lastmile_qr_scan", "android": "https://dc.lft.to/lastmile_qr_scan"}, "lon": -77.05276983333333, "fusion_lon": 0.0, "is_disabled": 0, "lat": 38.925474666666666, "bike_id": "1c6b240a88712c7c78c51ef06ca43edb", "name": "1c6b240a88712c7c78c51ef06ca43edb", "is_reserved": 0, "fusion_lat": 0.0}, {"type": "electric_scooter", "rental_uris": {"ios": "https://dc.lft.to/lastmile_qr_scan", "android": "https://dc.lft.to/lastmile_qr_scan"}, "lon": -77.0201965, "fusion_lon": 0.0, "is_disabled": 0, "lat": 38.898742666666664, "bike_id": "2457063a9f9c8ed50e290e62057dd3ab", "name": "2457063a9f9c8ed50e290e62057dd3ab", "is_reserved": 0, "fusion_lat": 0.0}, {"type": "electric_scooter", "rental_uris": {"ios": "https://dc.lft.to/lastmile_qr_scan", "android": "https://dc.lft.to/lastmile_qr_scan"}, "lon": -77.02592616666666, "fusion_lon": 0.0, "is_disabled": 0, "lat": 38.94201666666667, "bike_id": "664aba46ad94fa41a2e1995e6517f49a", "name": "664aba46ad94fa41a2e1995e6517f49a", "is_reserved": 0, "fusion_lat": 0.0}, {"type": "electric_scooter", "rental_uris": {"ios": "https://dc.lft.to/lastmile_qr_scan", "android": "https://dc.lft.to/lastmile_qr_scan"}, "lon": -77.0220425, "fusion_lon": 0.0, "is_disabled": 0, "lat": 38.91087, "bike_id": "1c859750c8940c9138dba53932ad20b7", "name": "1c859750c8940c9138dba53932ad20b7", "is_reserved": 0, "fusion_lat": 0.0}, {"type": "electric_scooter", "rental_uris": {"ios": "https://dc.lft.to/lastmile_qr_scan", "android": "https://dc.lft.to/lastmile_qr_scan"}, "lon": -76.9854325, "fusion_lon": 0.0, "is_disabled": 0, "lat": 38.866774, "bike_id": "9fb91df8c7c61f2fed94da5589c21a8f", "name": "9fb91df8c7c61f2fed94da5589c21a8f", "is_reserved": 0, "fusion_lat": 0.0}, {"type": "electric_scooter", "rental_uris": {"ios": "https://dc.lft.to/lastmile_qr_scan", "android": "https://dc.lft.to/lastmile_qr_scan"}, "lon": -77.01609733333333, "fusion_lon": 0.0, "is_disabled": 0, "lat": 38.8982445, "bike_id": "83120a50bd8425a7c26ee35595c075c3", "name": "83120a50bd8425a7c26ee35595c075c3", "is_reserved": 0, "fusion_lat": 0.0}, {"type": "electric_scooter", "rental_uris": {"ios": "https://dc.lft.to/lastmile_qr_scan", "android": "https://dc.lft.to/lastmile_qr_scan"}, "lon": -77.0487185, "fusion_lon": 0.0, "is_disabled": 0, "lat": 38.90977933333333, "bike_id": "f696cd207b39b270d790be94478341db", "name": "f696cd207b39b270d790be94478341db", "is_reserved": 0, "fusion_lat": 0.0}, {"type": "electric_scooter", "rental_uris": {"ios": "https://dc.lft.to/lastmile_qr_scan", "android": "https://dc.lft.to/lastmile_qr_scan"}, "lon": -76.99005683333333, "fusion_lon": 0.0, "is_disabled": 0, "lat": 38.900102, "bike_id": "0e595f61594aced82ec3db1b9c9588e1", "name": "0e595f61594aced82ec3db1b9c9588e1", "is_reserved": 0, "fusion_lat": 0.0}, {"type": "electric_scooter", "rental_uris": {"ios": "https://dc.lft.to/lastmile_qr_scan", "android": "https://dc.lft.to/lastmile_qr_scan"}, "lon": -77.0021705, "fusion_lon": 0.0, "is_disabled": 0, "lat": 38.90033, "bike_id": "6d471f794dbdee72bfc47a475f2de5e7", "name": "6d471f794dbdee72bfc47a475f2de5e7", "is_reserved": 0, "fusion_lat": 0.0}, {"type": "electric_scooter", "rental_uris": {"ios": "https://dc.lft.to/lastmile_qr_scan", "android": "https://dc.lft.to/lastmile_qr_scan"}, "lon": -77.022911, "fusion_lon": 0.0, "is_disabled": 0, "lat": 38.916874, "bike_id": "70ff1188ce84caf13a77f55c5bde7818", "name": "70ff1188ce84caf13a77f55c5bde7818", "is_reserved": 0, "fusion_lat": 0.0}, {"type": "electric_scooter", "rental_uris": {"ios": "https://dc.lft.to/lastmile_qr_scan", "android": "https://dc.lft.to/lastmile_qr_scan"}, "lon": -77.03164833333334, "fusion_lon": 0.0, "is_disabled": 0, "lat": 38.89222983333333, "bike_id": "ae982cafaaa38118f33fffc8c72133ee", "name": "ae982cafaaa38118f33fffc8c72133ee", "is_reserved": 0, "fusion_lat": 0.0}, {"type": "electric_scooter", "rental_uris": {"ios": "https://dc.lft.to/lastmile_qr_scan", "android": "https://dc.lft.to/lastmile_qr_scan"}, "lon": -77.04028066666666, "fusion_lon": 0.0, "is_disabled": 0, "lat": 38.922116, "bike_id": "8d8df05244941936500ebb93087c07ff", "name": "8d8df05244941936500ebb93087c07ff", "is_reserved": 0, "fusion_lat": 0.0}, {"type": "electric_scooter", "rental_uris": {"ios": "https://dc.lft.to/lastmile_qr_scan", "android": "https://dc.lft.to/lastmile_qr_scan"}, "lon": -77.04523383333333, "fusion_lon": 0.0, "is_disabled": 0, "lat": 38.933121166666666, "bike_id": "3f096bacb2876bf8432ea5985dce776e", "name": "3f096bacb2876bf8432ea5985dce776e", "is_reserved": 0, "fusion_lat": 0.0}, {"type": "electric_scooter", "rental_uris": {"ios": "https://dc.lft.to/lastmile_qr_scan", "android": "https://dc.lft.to/lastmile_qr_scan"}, "lon": -77.0270775, "fusion_lon": 0.0, "is_disabled": 0, "lat": 38.89764533333334, "bike_id": "2075d09a954183466ffeb42524b74dcf", "name": "2075d09a954183466ffeb42524b74dcf", "is_reserved": 0, "fusion_lat": 0.0}, {"type": "electric_scooter", "rental_uris": {"ios": "https://dc.lft.to/lastmile_qr_scan", "android": "https://dc.lft.to/lastmile_qr_scan"}, "lon": -77.00606683333334, "fusion_lon": 0.0, "is_disabled": 0, "lat": 38.905843, "bike_id": "23ffcefcc9140014acd812a9585cf7cf", "name": "23ffcefcc9140014acd812a9585cf7cf", "is_reserved": 0, "fusion_lat": 0.0}, {"type": "electric_bike", "rental_uris": {"ios": "https://dc.lft.to/lastmile_qr_scan", "android": "https://dc.lft.to/lastmile_qr_scan"}, "lon": -76.98106983333334, "fusion_lon": 0.0, "is_disabled": 0, "lat": 38.877296666666666, "bike_id": "4fc2446926a2ab7597e73c0f54b821cf", "name": "4fc2446926a2ab7597e73c0f54b821cf", "is_reserved": 0, "fusion_lat": 0.0}, {"type": "electric_scooter", "rental_uris": {"ios": "https://dc.lft.to/lastmile_qr_scan", "android": "https://dc.lft.to/lastmile_qr_scan"}, "lon": -77.04162733333334, "fusion_lon": 0.0, "is_disabled": 0, "lat": 38.91524, "bike_id": "d26342678a650a28290c7eb2ea1d43b1", "name": "d26342678a650a28290c7eb2ea1d43b1", "is_reserved": 0, "fusion_lat": 0.0}, {"type": "electric_scooter", "rental_uris": {"ios": "https://dc.lft.to/lastmile_qr_scan", "android": "https://dc.lft.to/lastmile_qr_scan"}, "lon": -77.03756633333333, "fusion_lon": 0.0, "is_disabled": 0, "lat": 38.93583816666667, "bike_id": "2fd989a8c392bda7cdb33a36cca6fd8f", "name": "2fd989a8c392bda7cdb33a36cca6fd8f", "is_reserved": 0, "fusion_lat": 0.0}, {"type": "electric_scooter", "rental_uris": {"ios": "https://dc.lft.to/lastmile_qr_scan", "android": "https://dc.lft.to/lastmile_qr_scan"}, "lon": -77.03871816666667, "fusion_lon": 0.0, "is_disabled": 0, "lat": 38.92155116666667, "bike_id": "f07b4ec97b2dd663e1f6d775dac7a2e6", "name": "f07b4ec97b2dd663e1f6d775dac7a2e6", "is_reserved": 0, "fusion_lat": 0.0}, {"type": "electric_scooter", "rental_uris": {"ios": "https://dc.lft.to/lastmile_qr_scan", "android": "https://dc.lft.to/lastmile_qr_scan"}, "lon": -77.05019816666666, "fusion_lon": 0.0, "is_disabled": 0, "lat": 38.9235455, "bike_id": "9db6c17417cd4d28f5cd0c1ed5b6c8b9", "name": "9db6c17417cd4d28f5cd0c1ed5b6c8b9", "is_reserved": 0, "fusion_lat": 0.0}, {"type": "electric_bike", "rental_uris": {"ios": "https://dc.lft.to/lastmile_qr_scan", "android": "https://dc.lft.to/lastmile_qr_scan"}, "lon": -76.93254183333333, "fusion_lon": 0.0, "is_disabled": 0, "lat": 38.882737666666664, "bike_id": "b05038fb569b73b041cb7910736f984a", "name": "b05038fb569b73b041cb7910736f984a", "is_reserved": 0, "fusion_lat": 0.0}, {"type": "electric_scooter", "rental_uris": {"ios": "https://dc.lft.to/lastmile_qr_scan", "android": "https://dc.lft.to/lastmile_qr_scan"}, "lon": -77.04176166666667, "fusion_lon": 0.0, "is_disabled": 0, "lat": 38.90298383333333, "bike_id": "bd84ae5f6e4bfd6f61c1752c6ed8517c", "name": "bd84ae5f6e4bfd6f61c1752c6ed8517c", "is_reserved": 0, "fusion_lat": 0.0}, {"type": "electric_scooter", "rental_uris": {"ios": "https://dc.lft.to/lastmile_qr_scan", "android": "https://dc.lft.to/lastmile_qr_scan"}, "lon": -77.06026116666666, "fusion_lon": 0.0, "is_disabled": 0, "lat": 38.9022875, "bike_id": "4cfa5054c31d3ef89cb296bb2dacc714", "name": "4cfa5054c31d3ef89cb296bb2dacc714", "is_reserved": 0, "fusion_lat": 0.0}, {"type": "electric_scooter", "rental_uris": {"ios": "https://dc.lft.to/lastmile_qr_scan", "android": "https://dc.lft.to/lastmile_qr_scan"}, "lon": -77.0435845, "fusion_lon": 0.0, "is_disabled": 0, "lat": 38.9214305, "bike_id": "04286e60d7fe726cf116fcb6769b3a0f", "name": "04286e60d7fe726cf116fcb6769b3a0f", "is_reserved": 0, "fusion_lat": 0.0}, {"type": "electric_scooter", "rental_uris": {"ios": "https://dc.lft.to/lastmile_qr_scan", "android": "https://dc.lft.to/lastmile_qr_scan"}, "lon": -77.01854866666666, "fusion_lon": 0.0, "is_disabled": 0, "lat": 38.91490983333333, "bike_id": "aedc8c458b50fc52a28b5b55e2eefcd0", "name": "aedc8c458b50fc52a28b5b55e2eefcd0", "is_reserved": 0, "fusion_lat": 0.0}, {"type": "electric_scooter", "rental_uris": {"ios": "https://dc.lft.to/lastmile_qr_scan", "android": "https://dc.lft.to/lastmile_qr_scan"}, "lon": -77.0326405, "fusion_lon": 0.0, "is_disabled": 0, "lat": 38.930031, "bike_id": "420bea8f5531b5d7a5c06a5daca2a1c5", "name": "420bea8f5531b5d7a5c06a5daca2a1c5", "is_reserved": 0, "fusion_lat": 0.0}, {"type": "electric_scooter", "rental_uris": {"ios": "https://dc.lft.to/lastmile_qr_scan", "android": "https://dc.lft.to/lastmile_qr_scan"}, "lon": -77.02791333333333, "fusion_lon": 0.0, "is_disabled": 0, "lat": 38.930836666666664, "bike_id": "f625a9cfd47e1fb5cf1063007220d534", "name": "f625a9cfd47e1fb5cf1063007220d534", "is_reserved": 0, "fusion_lat": 0.0}, {"type": "electric_bike", "rental_uris": {"ios": "https://dc.lft.to/lastmile_qr_scan", "android": "https://dc.lft.to/lastmile_qr_scan"}, "lon": -77.01200183333333, "fusion_lon": 0.0, "is_disabled": 0, "lat": 38.95076916666667, "bike_id": "93183fea7764bf6660f12b3020b86e1f", "name": "93183fea7764bf6660f12b3020b86e1f", "is_reserved": 0, "fusion_lat": 0.0}, {"type": "electric_scooter", "rental_uris": {"ios": "https://dc.lft.to/lastmile_qr_scan", "android": "https://dc.lft.to/lastmile_qr_scan"}, "lon": -77.02204733333333, "fusion_lon": 0.0, "is_disabled": 0, "lat": 38.90623816666667, "bike_id": "74653b3c11904a62905bbf76123f07ac", "name": "74653b3c11904a62905bbf76123f07ac", "is_reserved": 0, "fusion_lat": 0.0}, {"type": "electric_bike", "rental_uris": {"ios": "https://dc.lft.to/lastmile_qr_scan", "android": "https://dc.lft.to/lastmile_qr_scan"}, "lon": -77.012077, "fusion_lon": 0.0, "is_disabled": 0, "lat": 38.870830166666664, "bike_id": "bf7f9443f90049afdcbb7c88817c90b6", "name": "bf7f9443f90049afdcbb7c88817c90b6", "is_reserved": 0, "fusion_lat": 0.0}, {"type": "electric_scooter", "rental_uris": {"ios": "https://dc.lft.to/lastmile_qr_scan", "android": "https://dc.lft.to/lastmile_qr_scan"}, "lon": -77.02528533333333, "fusion_lon": 0.0, "is_disabled": 0, "lat": 38.914858333333335, "bike_id": "9450b8959f4dab9b999b003f3179ca4f", "name": "9450b8959f4dab9b999b003f3179ca4f", "is_reserved": 0, "fusion_lat": 0.0}, {"type": "electric_scooter", "rental_uris": {"ios": "https://dc.lft.to/lastmile_qr_scan", "android": "https://dc.lft.to/lastmile_qr_scan"}, "lon": -77.05277366666667, "fusion_lon": 0.0, "is_disabled": 0, "lat": 38.925453166666664, "bike_id": "1f75631792fded2d25f4a10cb066575e", "name": "1f75631792fded2d25f4a10cb066575e", "is_reserved": 0, "fusion_lat": 0.0}, {"type": "electric_scooter", "rental_uris": {"ios": "https://dc.lft.to/lastmile_qr_scan", "android": "https://dc.lft.to/lastmile_qr_scan"}, "lon": -77.03846666666666, "fusion_lon": 0.0, "is_disabled": 0, "lat": 38.91543033333333, "bike_id": "7be6bfea1d821232987f05d0ac15caa8", "name": "7be6bfea1d821232987f05d0ac15caa8", "is_reserved": 0, "fusion_lat": 0.0}, {"type": "electric_scooter", "rental_uris": {"ios": "https://dc.lft.to/lastmile_qr_scan", "android": "https://dc.lft.to/lastmile_qr_scan"}, "lon": -77.02369916666666, "fusion_lon": 0.0, "is_disabled": 0, "lat": 38.892198, "bike_id": "97e0b14a8e7ab7806c26cbc80e0085c7", "name": "97e0b14a8e7ab7806c26cbc80e0085c7", "is_reserved": 0, "fusion_lat": 0.0}, {"type": "electric_scooter", "rental_uris": {"ios": "https://dc.lft.to/lastmile_qr_scan", "android": "https://dc.lft.to/lastmile_qr_scan"}, "lon": -77.0594265, "fusion_lon": 0.0, "is_disabled": 0, "lat": 38.943037, "bike_id": "d22d98b13e29189be4880c30e1941352", "name": "d22d98b13e29189be4880c30e1941352", "is_reserved": 0, "fusion_lat": 0.0}, {"type": "electric_scooter", "rental_uris": {"ios": "https://dc.lft.to/lastmile_qr_scan", "android": "https://dc.lft.to/lastmile_qr_scan"}, "lon": -77.035742, "fusion_lon": 0.0, "is_disabled": 0, "lat": 38.91869066666667, "bike_id": "a99fc6178e0f37c3d28285d5b2a75149", "name": "a99fc6178e0f37c3d28285d5b2a75149", "is_reserved": 0, "fusion_lat": 0.0}, {"type": "electric_scooter", "rental_uris": {"ios": "https://dc.lft.to/lastmile_qr_scan", "android": "https://dc.lft.to/lastmile_qr_scan"}, "lon": -77.0083965, "fusion_lon": 0.0, "is_disabled": 0, "lat": 38.8706535, "bike_id": "b158a34de235837d0b4efe232144e8e9", "name": "b158a34de235837d0b4efe232144e8e9", "is_reserved": 0, "fusion_lat": 0.0}, {"type": "electric_scooter", "rental_uris": {"ios": "https://dc.lft.to/lastmile_qr_scan", "android": "https://dc.lft.to/lastmile_qr_scan"}, "lon": -77.048699, "fusion_lon": 0.0, "is_disabled": 0, "lat": 38.892215, "bike_id": "185e3ea18836f85596838bf88dfc5cda", "name": "185e3ea18836f85596838bf88dfc5cda", "is_reserved": 0, "fusion_lat": 0.0}, {"type": "electric_scooter", "rental_uris": {"ios": "https://dc.lft.to/lastmile_qr_scan", "android": "https://dc.lft.to/lastmile_qr_scan"}, "lon": -76.98543333333333, "fusion_lon": 0.0, "is_disabled": 0, "lat": 38.866800833333336, "bike_id": "31ea905e3198db44413f0b5c907d3100", "name": "31ea905e3198db44413f0b5c907d3100", "is_reserved": 0, "fusion_lat": 0.0}, {"type": "electric_scooter", "rental_uris": {"ios": "https://dc.lft.to/lastmile_qr_scan", "android": "https://dc.lft.to/lastmile_qr_scan"}, "lon": -76.9317575, "fusion_lon": 0.0, "is_disabled": 0, "lat": 38.898832666666664, "bike_id": "e496d0f6f1c7b06becb2f7eca60f9cb6", "name": "e496d0f6f1c7b06becb2f7eca60f9cb6", "is_reserved": 0, "fusion_lat": 0.0}, {"type": "electric_scooter", "rental_uris": {"ios": "https://dc.lft.to/lastmile_qr_scan", "android": "https://dc.lft.to/lastmile_qr_scan"}, "lon": -77.02115466666666, "fusion_lon": 0.0, "is_disabled": 0, "lat": 38.90937366666667, "bike_id": "8120f83814a1a966ceedba36f51865a0", "name": "8120f83814a1a966ceedba36f51865a0", "is_reserved": 0, "fusion_lat": 0.0}, {"type": "electric_bike", "rental_uris": {"ios": "https://dc.lft.to/lastmile_qr_scan", "android": "https://dc.lft.to/lastmile_qr_scan"}, "lon": -76.99780716666666, "fusion_lon": 0.0, "is_disabled": 0, "lat": 38.862122, "bike_id": "a5ee0173ed9925e647d7fc50bea9428a", "name": "a5ee0173ed9925e647d7fc50bea9428a", "is_reserved": 0, "fusion_lat": 0.0}, {"type": "electric_scooter", "rental_uris": {"ios": "https://dc.lft.to/lastmile_qr_scan", "android": "https://dc.lft.to/lastmile_qr_scan"}, "lon": -77.02875116666667, "fusion_lon": 0.0, "is_disabled": 0, "lat": 38.92818833333333, "bike_id": "2da7abd15eae1b2953f59d8f92d7a9de", "name": "2da7abd15eae1b2953f59d8f92d7a9de", "is_reserved": 0, "fusion_lat": 0.0}, {"type": "electric_scooter", "rental_uris": {"ios": "https://dc.lft.to/lastmile_qr_scan", "android": "https://dc.lft.to/lastmile_qr_scan"}, "lon": -77.02714616666667, "fusion_lon": 0.0, "is_disabled": 0, "lat": 38.91708066666666, "bike_id": "f1eafba44033803efb30184f94c41c4b", "name": "f1eafba44033803efb30184f94c41c4b", "is_reserved": 0, "fusion_lat": 0.0}, {"type": "electric_scooter", "rental_uris": {"ios": "https://dc.lft.to/lastmile_qr_scan", "android": "https://dc.lft.to/lastmile_qr_scan"}, "lon": -77.03103216666666, "fusion_lon": 0.0, "is_disabled": 0, "lat": 38.928582, "bike_id": "aff9106e6ec63bd566870efdb33bf639", "name": "aff9106e6ec63bd566870efdb33bf639", "is_reserved": 0, "fusion_lat": 0.0}, {"type": "electric_scooter", "rental_uris": {"ios": "https://dc.lft.to/lastmile_qr_scan", "android": "https://dc.lft.to/lastmile_qr_scan"}, "lon": -76.99869733333334, "fusion_lon": 0.0, "is_disabled": 0, "lat": 38.907560833333335, "bike_id": "ce3f163d69c88a9d26cca42361f1a9c6", "name": "ce3f163d69c88a9d26cca42361f1a9c6", "is_reserved": 0, "fusion_lat": 0.0}, {"type": "electric_scooter", "rental_uris": {"ios": "https://dc.lft.to/lastmile_qr_scan", "android": "https://dc.lft.to/lastmile_qr_scan"}, "lon": -77.01543833333334, "fusion_lon": 0.0, "is_disabled": 0, "lat": 38.89170216666667, "bike_id": "6fcd62b2ebfeeac5deae24e681ed8e30", "name": "6fcd62b2ebfeeac5deae24e681ed8e30", "is_reserved": 0, "fusion_lat": 0.0}, {"type": "electric_scooter", "rental_uris": {"ios": "https://dc.lft.to/lastmile_qr_scan", "android": "https://dc.lft.to/lastmile_qr_scan"}, "lon": -77.021975, "fusion_lon": 0.0, "is_disabled": 0, "lat": 38.9329585, "bike_id": "b3eb78a10731005b4411d15734bfb8d6", "name": "b3eb78a10731005b4411d15734bfb8d6", "is_reserved": 0, "fusion_lat": 0.0}, {"type": "electric_scooter", "rental_uris": {"ios": "https://dc.lft.to/lastmile_qr_scan", "android": "https://dc.lft.to/lastmile_qr_scan"}, "lon": -77.072344, "fusion_lon": 0.0, "is_disabled": 0, "lat": 38.8990425, "bike_id": "6be0c5d85062398f959cf9d3c80711c6", "name": "6be0c5d85062398f959cf9d3c80711c6", "is_reserved": 0, "fusion_lat": 0.0}, {"type": "electric_scooter", "rental_uris": {"ios": "https://dc.lft.to/lastmile_qr_scan", "android": "https://dc.lft.to/lastmile_qr_scan"}, "lon": -77.04299616666667, "fusion_lon": 0.0, "is_disabled": 0, "lat": 38.922595, "bike_id": "47278b8e608bc985565ccb54748be7c8", "name": "47278b8e608bc985565ccb54748be7c8", "is_reserved": 0, "fusion_lat": 0.0}, {"type": "electric_scooter", "rental_uris": {"ios": "https://dc.lft.to/lastmile_qr_scan", "android": "https://dc.lft.to/lastmile_qr_scan"}, "lon": -77.0455195, "fusion_lon": 0.0, "is_disabled": 0, "lat": 38.91265166666667, "bike_id": "e52bdb7ffed3ea2ae1937ad02600d013", "name": "e52bdb7ffed3ea2ae1937ad02600d013", "is_reserved": 0, "fusion_lat": 0.0}, {"type": "electric_scooter", "rental_uris": {"ios": "https://dc.lft.to/lastmile_qr_scan", "android": "https://dc.lft.to/lastmile_qr_scan"}, "lon": -77.04186616666667, "fusion_lon": 0.0, "is_disabled": 0, "lat": 38.920541666666665, "bike_id": "9822443f053dde592f8e2194f90f460d", "name": "9822443f053dde592f8e2194f90f460d", "is_reserved": 0, "fusion_lat": 0.0}, {"type": "electric_scooter", "rental_uris": {"ios": "https://dc.lft.to/lastmile_qr_scan", "android": "https://dc.lft.to/lastmile_qr_scan"}, "lon": -77.0253415, "fusion_lon": 0.0, "is_disabled": 0, "lat": 38.923729, "bike_id": "7f0dfe54c509c227fc55327cb4b5cddf", "name": "7f0dfe54c509c227fc55327cb4b5cddf", "is_reserved": 0, "fusion_lat": 0.0}, {"type": "electric_scooter", "rental_uris": {"ios": "https://dc.lft.to/lastmile_qr_scan", "android": "https://dc.lft.to/lastmile_qr_scan"}, "lon": -77.023365, "fusion_lon": 0.0, "is_disabled": 0, "lat": 38.922991, "bike_id": "ea409f7acc84c567ae4d808ad4ae7fb5", "name": "ea409f7acc84c567ae4d808ad4ae7fb5", "is_reserved": 0, "fusion_lat": 0.0}, {"type": "electric_scooter", "rental_uris": {"ios": "https://dc.lft.to/lastmile_qr_scan", "android": "https://dc.lft.to/lastmile_qr_scan"}, "lon": -77.0219055, "fusion_lon": 0.0, "is_disabled": 0, "lat": 38.914902166666664, "bike_id": "135afaa11d765cf64ce3995c69cc55b7", "name": "135afaa11d765cf64ce3995c69cc55b7", "is_reserved": 0, "fusion_lat": 0.0}, {"type": "electric_scooter", "rental_uris": {"ios": "https://dc.lft.to/lastmile_qr_scan", "android": "https://dc.lft.to/lastmile_qr_scan"}, "lon": -76.99635383333333, "fusion_lon": 0.0, "is_disabled": 0, "lat": 38.908847, "bike_id": "a5492782e190af31e37fc85ee5a4c484", "name": "a5492782e190af31e37fc85ee5a4c484", "is_reserved": 0, "fusion_lat": 0.0}, {"type": "electric_scooter", "rental_uris": {"ios": "https://dc.lft.to/lastmile_qr_scan", "android": "https://dc.lft.to/lastmile_qr_scan"}, "lon": -77.059073, "fusion_lon": 0.0, "is_disabled": 0, "lat": 38.902409166666665, "bike_id": "9974609a29356c4d5400d99ab686e3a9", "name": "9974609a29356c4d5400d99ab686e3a9", "is_reserved": 0, "fusion_lat": 0.0}, {"type": "electric_scooter", "rental_uris": {"ios": "https://dc.lft.to/lastmile_qr_scan", "android": "https://dc.lft.to/lastmile_qr_scan"}, "lon": -76.99207466666667, "fusion_lon": 0.0, "is_disabled": 0, "lat": 38.908261, "bike_id": "57394b97505e5b4067b7c11a7e622395", "name": "57394b97505e5b4067b7c11a7e622395", "is_reserved": 0, "fusion_lat": 0.0}, {"type": "electric_scooter", "rental_uris": {"ios": "https://dc.lft.to/lastmile_qr_scan", "android": "https://dc.lft.to/lastmile_qr_scan"}, "lon": -77.02433516666666, "fusion_lon": 0.0, "is_disabled": 0, "lat": 38.920562833333335, "bike_id": "18604ec71c5b99f8be5fc365d584c897", "name": "18604ec71c5b99f8be5fc365d584c897", "is_reserved": 0, "fusion_lat": 0.0}, {"type": "electric_scooter", "rental_uris": {"ios": "https://dc.lft.to/lastmile_qr_scan", "android": "https://dc.lft.to/lastmile_qr_scan"}, "lon": -76.97731583333334, "fusion_lon": 0.0, "is_disabled": 0, "lat": 38.8728445, "bike_id": "76c83955be945103547f409e0141aded", "name": "76c83955be945103547f409e0141aded", "is_reserved": 0, "fusion_lat": 0.0}, {"type": "electric_scooter", "rental_uris": {"ios": "https://dc.lft.to/lastmile_qr_scan", "android": "https://dc.lft.to/lastmile_qr_scan"}, "lon": -77.04571816666666, "fusion_lon": 0.0, "is_disabled": 0, "lat": 38.922421, "bike_id": "f95f1b53873daf94f1c827032207b570", "name": "f95f1b53873daf94f1c827032207b570", "is_reserved": 0, "fusion_lat": 0.0}, {"type": "electric_scooter", "rental_uris": {"ios": "https://dc.lft.to/lastmile_qr_scan", "android": "https://dc.lft.to/lastmile_qr_scan"}, "lon": -77.00664783333333, "fusion_lon": 0.0, "is_disabled": 0, "lat": 38.90011283333333, "bike_id": "81d5f90fca109f4573a201e791987980", "name": "81d5f90fca109f4573a201e791987980", "is_reserved": 0, "fusion_lat": 0.0}, {"type": "electric_scooter", "rental_uris": {"ios": "https://dc.lft.to/lastmile_qr_scan", "android": "https://dc.lft.to/lastmile_qr_scan"}, "lon": -77.046622, "fusion_lon": 0.0, "is_disabled": 0, "lat": 38.9000435, "bike_id": "23a5928db0540b9ce83c711df4cb186c", "name": "23a5928db0540b9ce83c711df4cb186c", "is_reserved": 0, "fusion_lat": 0.0}, {"type": "electric_scooter", "rental_uris": {"ios": "https://dc.lft.to/lastmile_qr_scan", "android": "https://dc.lft.to/lastmile_qr_scan"}, "lon": -77.02299283333333, "fusion_lon": 0.0, "is_disabled": 0, "lat": 38.91611316666667, "bike_id": "1e3e9770ba0764954f2c528f305e95af", "name": "1e3e9770ba0764954f2c528f305e95af", "is_reserved": 0, "fusion_lat": 0.0}, {"type": "electric_scooter", "rental_uris": {"ios": "https://dc.lft.to/lastmile_qr_scan", "android": "https://dc.lft.to/lastmile_qr_scan"}, "lon": -77.01956466666667, "fusion_lon": 0.0, "is_disabled": 0, "lat": 38.92262516666667, "bike_id": "2997874b8a8e5aa2e87f87206f8beaa6", "name": "2997874b8a8e5aa2e87f87206f8beaa6", "is_reserved": 0, "fusion_lat": 0.0}, {"type": "electric_scooter", "rental_uris": {"ios": "https://dc.lft.to/lastmile_qr_scan", "android": "https://dc.lft.to/lastmile_qr_scan"}, "lon": -77.0321015, "fusion_lon": 0.0, "is_disabled": 0, "lat": 38.91845583333333, "bike_id": "aff61ba4045b3e26dc13d3e387ab3536", "name": "aff61ba4045b3e26dc13d3e387ab3536", "is_reserved": 0, "fusion_lat": 0.0}, {"type": "electric_scooter", "rental_uris": {"ios": "https://dc.lft.to/lastmile_qr_scan", "android": "https://dc.lft.to/lastmile_qr_scan"}, "lon": -77.06109233333333, "fusion_lon": 0.0, "is_disabled": 0, "lat": 38.90536483333333, "bike_id": "2a22ffdd95d039761ffde1f362eeea25", "name": "2a22ffdd95d039761ffde1f362eeea25", "is_reserved": 0, "fusion_lat": 0.0}, {"type": "electric_scooter", "rental_uris": {"ios": "https://dc.lft.to/lastmile_qr_scan", "android": "https://dc.lft.to/lastmile_qr_scan"}, "lon": -76.9953145, "fusion_lon": 0.0, "is_disabled": 0, "lat": 38.884511, "bike_id": "595fb8c9340e5c01e43420e919caed46", "name": "595fb8c9340e5c01e43420e919caed46", "is_reserved": 0, "fusion_lat": 0.0}, {"type": "electric_scooter", "rental_uris": {"ios": "https://dc.lft.to/lastmile_qr_scan", "android": "https://dc.lft.to/lastmile_qr_scan"}, "lon": -77.04179516666666, "fusion_lon": 0.0, "is_disabled": 0, "lat": 38.90536616666667, "bike_id": "c0319ea52cd3a69de7072776b60a8618", "name": "c0319ea52cd3a69de7072776b60a8618", "is_reserved": 0, "fusion_lat": 0.0}, {"type": "electric_scooter", "rental_uris": {"ios": "https://dc.lft.to/lastmile_qr_scan", "android": "https://dc.lft.to/lastmile_qr_scan"}, "lon": -77.0385695, "fusion_lon": 0.0, "is_disabled": 0, "lat": 38.90813, "bike_id": "2b4161e5591e13bb46df3ccc590c68c7", "name": "2b4161e5591e13bb46df3ccc590c68c7", "is_reserved": 0, "fusion_lat": 0.0}, {"type": "electric_scooter", "rental_uris": {"ios": "https://dc.lft.to/lastmile_qr_scan", "android": "https://dc.lft.to/lastmile_qr_scan"}, "lon": -76.9909225, "fusion_lon": 0.0, "is_disabled": 0, "lat": 38.882338833333336, "bike_id": "db0120a3f11dad1bd959622dc13af5bc", "name": "db0120a3f11dad1bd959622dc13af5bc", "is_reserved": 0, "fusion_lat": 0.0}, {"type": "electric_scooter", "rental_uris": {"ios": "https://dc.lft.to/lastmile_qr_scan", "android": "https://dc.lft.to/lastmile_qr_scan"}, "lon": -77.04188816666667, "fusion_lon": 0.0, "is_disabled": 0, "lat": 38.905767833333336, "bike_id": "54235b902716202733213519b3d8a6c4", "name": "54235b902716202733213519b3d8a6c4", "is_reserved": 0, "fusion_lat": 0.0}, {"type": "electric_scooter", "rental_uris": {"ios": "https://dc.lft.to/lastmile_qr_scan", "android": "https://dc.lft.to/lastmile_qr_scan"}, "lon": -77.04178866666666, "fusion_lon": 0.0, "is_disabled": 0, "lat": 38.91891533333333, "bike_id": "5ad54d77e99f7317f0f2bde0f39543d7", "name": "5ad54d77e99f7317f0f2bde0f39543d7", "is_reserved": 0, "fusion_lat": 0.0}, {"type": "electric_scooter", "rental_uris": {"ios": "https://dc.lft.to/lastmile_qr_scan", "android": "https://dc.lft.to/lastmile_qr_scan"}, "lon": -77.023391, "fusion_lon": 0.0, "is_disabled": 0, "lat": 38.91781116666667, "bike_id": "446172f22ef45b911a14d2c9eed3c832", "name": "446172f22ef45b911a14d2c9eed3c832", "is_reserved": 0, "fusion_lat": 0.0}, {"type": "electric_scooter", "rental_uris": {"ios": "https://dc.lft.to/lastmile_qr_scan", "android": "https://dc.lft.to/lastmile_qr_scan"}, "lon": -77.02288, "fusion_lon": 0.0, "is_disabled": 0, "lat": 38.9168975, "bike_id": "5940cd04e9a77b863256aa47df1c7433", "name": "5940cd04e9a77b863256aa47df1c7433", "is_reserved": 0, "fusion_lat": 0.0}, {"type": "electric_scooter", "rental_uris": {"ios": "https://dc.lft.to/lastmile_qr_scan", "android": "https://dc.lft.to/lastmile_qr_scan"}, "lon": -77.03385083333333, "fusion_lon": 0.0, "is_disabled": 0, "lat": 38.90640416666667, "bike_id": "e91bc8d9e5930f8b566fce70c399c805", "name": "e91bc8d9e5930f8b566fce70c399c805", "is_reserved": 0, "fusion_lat": 0.0}, {"type": "electric_scooter", "rental_uris": {"ios": "https://dc.lft.to/lastmile_qr_scan", "android": "https://dc.lft.to/lastmile_qr_scan"}, "lon": -77.0021195, "fusion_lon": 0.0, "is_disabled": 0, "lat": 38.8813, "bike_id": "b70fb292aa482ec49659f437e1254b62", "name": "b70fb292aa482ec49659f437e1254b62", "is_reserved": 0, "fusion_lat": 0.0}, {"type": "electric_scooter", "rental_uris": {"ios": "https://dc.lft.to/lastmile_qr_scan", "android": "https://dc.lft.to/lastmile_qr_scan"}, "lon": -77.03252566666667, "fusion_lon": 0.0, "is_disabled": 0, "lat": 38.93972983333333, "bike_id": "e59c7f3821b9c6ae86887154e3920f2a", "name": "e59c7f3821b9c6ae86887154e3920f2a", "is_reserved": 0, "fusion_lat": 0.0}, {"type": "electric_bike", "rental_uris": {"ios": "https://dc.lft.to/lastmile_qr_scan", "android": "https://dc.lft.to/lastmile_qr_scan"}, "lon": -77.0808875, "fusion_lon": 0.0, "is_disabled": 0, "lat": 38.90865516666667, "bike_id": "185251ee441830e839a8fa99577f7dda", "name": "185251ee441830e839a8fa99577f7dda", "is_reserved": 0, "fusion_lat": 0.0}, {"type": "electric_bike", "rental_uris": {"ios": "https://dc.lft.to/lastmile_qr_scan", "android": "https://dc.lft.to/lastmile_qr_scan"}, "lon": -77.0344515, "fusion_lon": 0.0, "is_disabled": 0, "lat": 38.892262, "bike_id": "06de63ad4e27d9f6ce9a8902132e20c3", "name": "06de63ad4e27d9f6ce9a8902132e20c3", "is_reserved": 0, "fusion_lat": 0.0}, {"type": "electric_scooter", "rental_uris": {"ios": "https://dc.lft.to/lastmile_qr_scan", "android": "https://dc.lft.to/lastmile_qr_scan"}, "lon": -77.04283683333334, "fusion_lon": 0.0, "is_disabled": 0, "lat": 38.935095833333335, "bike_id": "94aa60bb18b766b1b8642a7e8ebeec2f", "name": "94aa60bb18b766b1b8642a7e8ebeec2f", "is_reserved": 0, "fusion_lat": 0.0}, {"type": "electric_scooter", "rental_uris": {"ios": "https://dc.lft.to/lastmile_qr_scan", "android": "https://dc.lft.to/lastmile_qr_scan"}, "lon": -77.03642583333334, "fusion_lon": 0.0, "is_disabled": 0, "lat": 38.90328016666667, "bike_id": "6c1fb0079037b407e87bc31069f4c021", "name": "6c1fb0079037b407e87bc31069f4c021", "is_reserved": 0, "fusion_lat": 0.0}, {"type": "electric_bike", "rental_uris": {"ios": "https://dc.lft.to/lastmile_qr_scan", "android": "https://dc.lft.to/lastmile_qr_scan"}, "lon": -77.031155, "fusion_lon": 0.0, "is_disabled": 0, "lat": 38.994276166666666, "bike_id": "1d7cbeadc010c5bcdd29361baf9de92b", "name": "1d7cbeadc010c5bcdd29361baf9de92b", "is_reserved": 0, "fusion_lat": 0.0}, {"type": "electric_scooter", "rental_uris": {"ios": "https://dc.lft.to/lastmile_qr_scan", "android": "https://dc.lft.to/lastmile_qr_scan"}, "lon": -77.02183983333333, "fusion_lon": 0.0, "is_disabled": 0, "lat": 38.91566733333333, "bike_id": "fa4c52d2e0837207093dae6aebe1ec81", "name": "fa4c52d2e0837207093dae6aebe1ec81", "is_reserved": 0, "fusion_lat": 0.0}, {"type": "electric_bike", "rental_uris": {"ios": "https://dc.lft.to/lastmile_qr_scan", "android": "https://dc.lft.to/lastmile_qr_scan"}, "lon": -77.216508, "fusion_lon": 0.0, "is_disabled": 0, "lat": 38.93012433333333, "bike_id": "358146b814aca04ec67c99f975c476f7", "name": "358146b814aca04ec67c99f975c476f7", "is_reserved": 0, "fusion_lat": 0.0}, {"type": "electric_bike", "rental_uris": {"ios": "https://dc.lft.to/lastmile_qr_scan", "android": "https://dc.lft.to/lastmile_qr_scan"}, "lon": -76.95196616666667, "fusion_lon": 0.0, "is_disabled": 0, "lat": 38.93679483333333, "bike_id": "1e78059ab0a46fd7714cbe7c8e81ea20", "name": "1e78059ab0a46fd7714cbe7c8e81ea20", "is_reserved": 0, "fusion_lat": 0.0}, {"type": "electric_scooter", "rental_uris": {"ios": "https://dc.lft.to/lastmile_qr_scan", "android": "https://dc.lft.to/lastmile_qr_scan"}, "lon": -77.00736633333334, "fusion_lon": 0.0, "is_disabled": 0, "lat": 38.905400666666665, "bike_id": "f7272cfe7845276fad4dc765b31a8bf6", "name": "f7272cfe7845276fad4dc765b31a8bf6", "is_reserved": 0, "fusion_lat": 0.0}, {"type": "electric_scooter", "rental_uris": {"ios": "https://dc.lft.to/lastmile_qr_scan", "android": "https://dc.lft.to/lastmile_qr_scan"}, "lon": -77.01947016666666, "fusion_lon": 0.0, "is_disabled": 0, "lat": 38.9485285, "bike_id": "29d1142133d1a861854e55feadf31957", "name": "29d1142133d1a861854e55feadf31957", "is_reserved": 0, "fusion_lat": 0.0}, {"type": "electric_bike", "rental_uris": {"ios": "https://dc.lft.to/lastmile_qr_scan", "android": "https://dc.lft.to/lastmile_qr_scan"}, "lon": -76.97269383333334, "fusion_lon": 0.0, "is_disabled": 0, "lat": 38.919615666666665, "bike_id": "abaa278ba0c641362eef1fa020e386e3", "name": "abaa278ba0c641362eef1fa020e386e3", "is_reserved": 0, "fusion_lat": 0.0}, {"type": "electric_bike", "rental_uris": {"ios": "https://dc.lft.to/lastmile_qr_scan", "android": "https://dc.lft.to/lastmile_qr_scan"}, "lon": -77.080181, "fusion_lon": 0.0, "is_disabled": 0, "lat": 38.949810166666666, "bike_id": "3d28a42e04f0bd5f93bc2d53cea5b753", "name": "3d28a42e04f0bd5f93bc2d53cea5b753", "is_reserved": 0, "fusion_lat": 0.0}, {"type": "electric_scooter", "rental_uris": {"ios": "https://dc.lft.to/lastmile_qr_scan", "android": "https://dc.lft.to/lastmile_qr_scan"}, "lon": -77.02425983333333, "fusion_lon": 0.0, "is_disabled": 0, "lat": 38.91853183333333, "bike_id": "96444ac1db80c7079f43d14b9cc572c8", "name": "96444ac1db80c7079f43d14b9cc572c8", "is_reserved": 0, "fusion_lat": 0.0}, {"type": "electric_scooter", "rental_uris": {"ios": "https://dc.lft.to/lastmile_qr_scan", "android": "https://dc.lft.to/lastmile_qr_scan"}, "lon": -77.01165866666666, "fusion_lon": 0.0, "is_disabled": 0, "lat": 38.90023566666667, "bike_id": "26e048a8cba07feb19a29ad93c635b5b", "name": "26e048a8cba07feb19a29ad93c635b5b", "is_reserved": 0, "fusion_lat": 0.0}, {"type": "electric_scooter", "rental_uris": {"ios": "https://dc.lft.to/lastmile_qr_scan", "android": "https://dc.lft.to/lastmile_qr_scan"}, "lon": -77.026203, "fusion_lon": 0.0, "is_disabled": 0, "lat": 38.9482505, "bike_id": "81448e419a389d091017dc33d013ab10", "name": "81448e419a389d091017dc33d013ab10", "is_reserved": 0, "fusion_lat": 0.0}, {"type": "electric_scooter", "rental_uris": {"ios": "https://dc.lft.to/lastmile_qr_scan", "android": "https://dc.lft.to/lastmile_qr_scan"}, "lon": -77.02209183333333, "fusion_lon": 0.0, "is_disabled": 0, "lat": 38.89500533333333, "bike_id": "8abc3d55b72e8befbf82bf3e13629161", "name": "8abc3d55b72e8befbf82bf3e13629161", "is_reserved": 0, "fusion_lat": 0.0}, {"type": "electric_bike", "rental_uris": {"ios": "https://dc.lft.to/lastmile_qr_scan", "android": "https://dc.lft.to/lastmile_qr_scan"}, "lon": -76.96054983333333, "fusion_lon": 0.0, "is_disabled": 0, "lat": 38.884049, "bike_id": "21d4aa64b49fb475480149536615dbb5", "name": "21d4aa64b49fb475480149536615dbb5", "is_reserved": 0, "fusion_lat": 0.0}, {"type": "electric_scooter", "rental_uris": {"ios": "https://dc.lft.to/lastmile_qr_scan", "android": "https://dc.lft.to/lastmile_qr_scan"}, "lon": -77.04117383333333, "fusion_lon": 0.0, "is_disabled": 0, "lat": 38.899302166666665, "bike_id": "0d00b7511f7ba18f69b13c3f6b1db80d", "name": "0d00b7511f7ba18f69b13c3f6b1db80d", "is_reserved": 0, "fusion_lat": 0.0}, {"type": "electric_scooter", "rental_uris": {"ios": "https://dc.lft.to/lastmile_qr_scan", "android": "https://dc.lft.to/lastmile_qr_scan"}, "lon": -77.02721633333333, "fusion_lon": 0.0, "is_disabled": 0, "lat": 38.95181566666667, "bike_id": "e34edaa4195c8022e5dc19c8011db6cf", "name": "e34edaa4195c8022e5dc19c8011db6cf", "is_reserved": 0, "fusion_lat": 0.0}, {"type": "electric_scooter", "rental_uris": {"ios": "https://dc.lft.to/lastmile_qr_scan", "android": "https://dc.lft.to/lastmile_qr_scan"}, "lon": -76.98925466666667, "fusion_lon": 0.0, "is_disabled": 0, "lat": 38.84077416666667, "bike_id": "e4e9e8ff700677cc33ebcff9ae486aa8", "name": "e4e9e8ff700677cc33ebcff9ae486aa8", "is_reserved": 0, "fusion_lat": 0.0}, {"type": "electric_scooter", "rental_uris": {"ios": "https://dc.lft.to/lastmile_qr_scan", "android": "https://dc.lft.to/lastmile_qr_scan"}, "lon": -77.0271, "fusion_lon": 0.0, "is_disabled": 0, "lat": 38.9287505, "bike_id": "8b83d860d4eb3a8714328edf00d7c295", "name": "8b83d860d4eb3a8714328edf00d7c295", "is_reserved": 0, "fusion_lat": 0.0}, {"type": "electric_scooter", "rental_uris": {"ios": "https://dc.lft.to/lastmile_qr_scan", "android": "https://dc.lft.to/lastmile_qr_scan"}, "lon": -77.00388, "fusion_lon": 0.0, "is_disabled": 0, "lat": 38.91071066666667, "bike_id": "53c8831d11fae69a55a493d76a4405d2", "name": "53c8831d11fae69a55a493d76a4405d2", "is_reserved": 0, "fusion_lat": 0.0}, {"type": "electric_scooter", "rental_uris": {"ios": "https://dc.lft.to/lastmile_qr_scan", "android": "https://dc.lft.to/lastmile_qr_scan"}, "lon": -77.03729283333334, "fusion_lon": 0.0, "is_disabled": 0, "lat": 38.91712583333333, "bike_id": "f41866b29746bccbda58c925a9344fdc", "name": "f41866b29746bccbda58c925a9344fdc", "is_reserved": 0, "fusion_lat": 0.0}, {"type": "electric_scooter", "rental_uris": {"ios": "https://dc.lft.to/lastmile_qr_scan", "android": "https://dc.lft.to/lastmile_qr_scan"}, "lon": -77.04242466666666, "fusion_lon": 0.0, "is_disabled": 0, "lat": 38.922197833333335, "bike_id": "0a4102ea000dcfbbb8d5cd8fbd7912f9", "name": "0a4102ea000dcfbbb8d5cd8fbd7912f9", "is_reserved": 0, "fusion_lat": 0.0}, {"type": "electric_scooter", "rental_uris": {"ios": "https://dc.lft.to/lastmile_qr_scan", "android": "https://dc.lft.to/lastmile_qr_scan"}, "lon": -77.02714083333333, "fusion_lon": 0.0, "is_disabled": 0, "lat": 38.907315833333335, "bike_id": "6a8f0527209a404c7a3db86ccf559b19", "name": "6a8f0527209a404c7a3db86ccf559b19", "is_reserved": 0, "fusion_lat": 0.0}, {"type": "electric_scooter", "rental_uris": {"ios": "https://dc.lft.to/lastmile_qr_scan", "android": "https://dc.lft.to/lastmile_qr_scan"}, "lon": -77.04328066666666, "fusion_lon": 0.0, "is_disabled": 0, "lat": 38.8922555, "bike_id": "404e1ef86b6d7fa7a560d92b8cae911c", "name": "404e1ef86b6d7fa7a560d92b8cae911c", "is_reserved": 0, "fusion_lat": 0.0}, {"type": "electric_scooter", "rental_uris": {"ios": "https://dc.lft.to/lastmile_qr_scan", "android": "https://dc.lft.to/lastmile_qr_scan"}, "lon": -77.0277205, "fusion_lon": 0.0, "is_disabled": 0, "lat": 38.89721483333334, "bike_id": "48ad342af366e0836ee7facdb4ca789a", "name": "48ad342af366e0836ee7facdb4ca789a", "is_reserved": 0, "fusion_lat": 0.0}, {"type": "electric_scooter", "rental_uris": {"ios": "https://dc.lft.to/lastmile_qr_scan", "android": "https://dc.lft.to/lastmile_qr_scan"}, "lon": -77.03644616666666, "fusion_lon": 0.0, "is_disabled": 0, "lat": 38.91779983333333, "bike_id": "d08e27b5be1dc3d0665f70ebbb54aaf2", "name": "d08e27b5be1dc3d0665f70ebbb54aaf2", "is_reserved": 0, "fusion_lat": 0.0}, {"type": "electric_bike", "rental_uris": {"ios": "https://dc.lft.to/lastmile_qr_scan", "android": "https://dc.lft.to/lastmile_qr_scan"}, "lon": -77.06570566666667, "fusion_lon": 0.0, "is_disabled": 0, "lat": 38.86997866666667, "bike_id": "7a31a99168a5c5cbd565b4fce4dce8ae", "name": "7a31a99168a5c5cbd565b4fce4dce8ae", "is_reserved": 0, "fusion_lat": 0.0}, {"type": "electric_scooter", "rental_uris": {"ios": "https://dc.lft.to/lastmile_qr_scan", "android": "https://dc.lft.to/lastmile_qr_scan"}, "lon": -77.02582016666666, "fusion_lon": 0.0, "is_disabled": 0, "lat": 38.91816566666667, "bike_id": "66b177a8b5e8e71d46a1b8aa36b342d1", "name": "66b177a8b5e8e71d46a1b8aa36b342d1", "is_reserved": 0, "fusion_lat": 0.0}, {"type": "electric_scooter", "rental_uris": {"ios": "https://dc.lft.to/lastmile_qr_scan", "android": "https://dc.lft.to/lastmile_qr_scan"}, "lon": -77.03185383333333, "fusion_lon": 0.0, "is_disabled": 0, "lat": 38.914253333333335, "bike_id": "92ed79e7fc6f9e8e0a2c5fa78e32a2d8", "name": "92ed79e7fc6f9e8e0a2c5fa78e32a2d8", "is_reserved": 0, "fusion_lat": 0.0}, {"type": "electric_scooter", "rental_uris": {"ios": "https://dc.lft.to/lastmile_qr_scan", "android": "https://dc.lft.to/lastmile_qr_scan"}, "lon": -77.04391883333334, "fusion_lon": 0.0, "is_disabled": 0, "lat": 38.92103483333333, "bike_id": "3383c7319ae649b120a39bd115b2c332", "name": "3383c7319ae649b120a39bd115b2c332", "is_reserved": 0, "fusion_lat": 0.0}, {"type": "electric_scooter", "rental_uris": {"ios": "https://dc.lft.to/lastmile_qr_scan", "android": "https://dc.lft.to/lastmile_qr_scan"}, "lon": -77.01538966666666, "fusion_lon": 0.0, "is_disabled": 0, "lat": 38.884137, "bike_id": "627608ae80bb7c170c652d5bacc96c8e", "name": "627608ae80bb7c170c652d5bacc96c8e", "is_reserved": 0, "fusion_lat": 0.0}, {"type": "electric_scooter", "rental_uris": {"ios": "https://dc.lft.to/lastmile_qr_scan", "android": "https://dc.lft.to/lastmile_qr_scan"}, "lon": -77.00459783333334, "fusion_lon": 0.0, "is_disabled": 0, "lat": 38.9258655, "bike_id": "a7aa10df5a09009cdfefecfeec8492d7", "name": "a7aa10df5a09009cdfefecfeec8492d7", "is_reserved": 0, "fusion_lat": 0.0}, {"type": "electric_scooter", "rental_uris": {"ios": "https://dc.lft.to/lastmile_qr_scan", "android": "https://dc.lft.to/lastmile_qr_scan"}, "lon": -77.012771, "fusion_lon": 0.0, "is_disabled": 0, "lat": 38.888757166666664, "bike_id": "f25dd454ae44e0084b2cd7023b33aa89", "name": "f25dd454ae44e0084b2cd7023b33aa89", "is_reserved": 0, "fusion_lat": 0.0}, {"type": "electric_scooter", "rental_uris": {"ios": "https://dc.lft.to/lastmile_qr_scan", "android": "https://dc.lft.to/lastmile_qr_scan"}, "lon": -77.0093315, "fusion_lon": 0.0, "is_disabled": 0, "lat": 38.87620916666667, "bike_id": "b1dc31951176a3b2f3c51fd033e04893", "name": "b1dc31951176a3b2f3c51fd033e04893", "is_reserved": 0, "fusion_lat": 0.0}, {"type": "electric_scooter", "rental_uris": {"ios": "https://dc.lft.to/lastmile_qr_scan", "android": "https://dc.lft.to/lastmile_qr_scan"}, "lon": -77.02526833333333, "fusion_lon": 0.0, "is_disabled": 0, "lat": 38.912634, "bike_id": "ac2d60a3263d03747f56073cc47aa315", "name": "ac2d60a3263d03747f56073cc47aa315", "is_reserved": 0, "fusion_lat": 0.0}, {"type": "electric_scooter", "rental_uris": {"ios": "https://dc.lft.to/lastmile_qr_scan", "android": "https://dc.lft.to/lastmile_qr_scan"}, "lon": -77.04026266666666, "fusion_lon": 0.0, "is_disabled": 0, "lat": 38.924421, "bike_id": "44c015c719b39764d4cf1ed02e2a01ae", "name": "44c015c719b39764d4cf1ed02e2a01ae", "is_reserved": 0, "fusion_lat": 0.0}, {"type": "electric_scooter", "rental_uris": {"ios": "https://dc.lft.to/lastmile_qr_scan", "android": "https://dc.lft.to/lastmile_qr_scan"}, "lon": -77.0425305, "fusion_lon": 0.0, "is_disabled": 0, "lat": 38.903808, "bike_id": "95fa2c597fe73c5ada6b7bb30f345832", "name": "95fa2c597fe73c5ada6b7bb30f345832", "is_reserved": 0, "fusion_lat": 0.0}, {"type": "electric_scooter", "rental_uris": {"ios": "https://dc.lft.to/lastmile_qr_scan", "android": "https://dc.lft.to/lastmile_qr_scan"}, "lon": -77.04850333333333, "fusion_lon": 0.0, "is_disabled": 0, "lat": 38.90520033333333, "bike_id": "b2fb7e28d767773dc7238336ace84a39", "name": "b2fb7e28d767773dc7238336ace84a39", "is_reserved": 0, "fusion_lat": 0.0}, {"type": "electric_scooter", "rental_uris": {"ios": "https://dc.lft.to/lastmile_qr_scan", "android": "https://dc.lft.to/lastmile_qr_scan"}, "lon": -77.04360766666667, "fusion_lon": 0.0, "is_disabled": 0, "lat": 38.901533666666666, "bike_id": "c7bb972abd57219e139ae98e4563fa70", "name": "c7bb972abd57219e139ae98e4563fa70", "is_reserved": 0, "fusion_lat": 0.0}, {"type": "electric_scooter", "rental_uris": {"ios": "https://dc.lft.to/lastmile_qr_scan", "android": "https://dc.lft.to/lastmile_qr_scan"}, "lon": -77.0447935, "fusion_lon": 0.0, "is_disabled": 0, "lat": 38.91532083333333, "bike_id": "47c7ae866a0e5b71024190b138baa261", "name": "47c7ae866a0e5b71024190b138baa261", "is_reserved": 0, "fusion_lat": 0.0}, {"type": "electric_scooter", "rental_uris": {"ios": "https://dc.lft.to/lastmile_qr_scan", "android": "https://dc.lft.to/lastmile_qr_scan"}, "lon": -77.032872, "fusion_lon": 0.0, "is_disabled": 0, "lat": 38.89941733333333, "bike_id": "cecc95509527754ab6a0b2ea8c2cd877", "name": "cecc95509527754ab6a0b2ea8c2cd877", "is_reserved": 0, "fusion_lat": 0.0}, {"type": "electric_scooter", "rental_uris": {"ios": "https://dc.lft.to/lastmile_qr_scan", "android": "https://dc.lft.to/lastmile_qr_scan"}, "lon": -77.04241983333333, "fusion_lon": 0.0, "is_disabled": 0, "lat": 38.907806666666666, "bike_id": "822f79516e95f421045c685acfb753f6", "name": "822f79516e95f421045c685acfb753f6", "is_reserved": 0, "fusion_lat": 0.0}, {"type": "electric_scooter", "rental_uris": {"ios": "https://dc.lft.to/lastmile_qr_scan", "android": "https://dc.lft.to/lastmile_qr_scan"}, "lon": -77.04481716666666, "fusion_lon": 0.0, "is_disabled": 0, "lat": 38.912124, "bike_id": "b1c8e66cd2a9f16763e105d59cae975e", "name": "b1c8e66cd2a9f16763e105d59cae975e", "is_reserved": 0, "fusion_lat": 0.0}, {"type": "electric_scooter", "rental_uris": {"ios": "https://dc.lft.to/lastmile_qr_scan", "android": "https://dc.lft.to/lastmile_qr_scan"}, "lon": -77.01507583333333, "fusion_lon": 0.0, "is_disabled": 0, "lat": 38.91047533333333, "bike_id": "10200c423dfc67c5bbec9c6a89a7723a", "name": "10200c423dfc67c5bbec9c6a89a7723a", "is_reserved": 0, "fusion_lat": 0.0}, {"type": "electric_scooter", "rental_uris": {"ios": "https://dc.lft.to/lastmile_qr_scan", "android": "https://dc.lft.to/lastmile_qr_scan"}, "lon": -77.03662333333334, "fusion_lon": 0.0, "is_disabled": 0, "lat": 38.91724266666667, "bike_id": "ae492033ba793d3c8739e3c386b4bbdb", "name": "ae492033ba793d3c8739e3c386b4bbdb", "is_reserved": 0, "fusion_lat": 0.0}, {"type": "electric_scooter", "rental_uris": {"ios": "https://dc.lft.to/lastmile_qr_scan", "android": "https://dc.lft.to/lastmile_qr_scan"}, "lon": -77.02685633333333, "fusion_lon": 0.0, "is_disabled": 0, "lat": 38.91694433333333, "bike_id": "a87c199611d8dbf724474db672e2fef0", "name": "a87c199611d8dbf724474db672e2fef0", "is_reserved": 0, "fusion_lat": 0.0}, {"type": "electric_scooter", "rental_uris": {"ios": "https://dc.lft.to/lastmile_qr_scan", "android": "https://dc.lft.to/lastmile_qr_scan"}, "lon": -77.07008816666666, "fusion_lon": 0.0, "is_disabled": 0, "lat": 38.9553155, "bike_id": "a8b34bf861b57ad14f9712036e883ffe", "name": "a8b34bf861b57ad14f9712036e883ffe", "is_reserved": 0, "fusion_lat": 0.0}, {"type": "electric_scooter", "rental_uris": {"ios": "https://dc.lft.to/lastmile_qr_scan", "android": "https://dc.lft.to/lastmile_qr_scan"}, "lon": -76.94634066666667, "fusion_lon": 0.0, "is_disabled": 0, "lat": 38.898413166666664, "bike_id": "70d6c3a4cdeed44a7f39687f9be64679", "name": "70d6c3a4cdeed44a7f39687f9be64679", "is_reserved": 0, "fusion_lat": 0.0}, {"type": "electric_scooter", "rental_uris": {"ios": "https://dc.lft.to/lastmile_qr_scan", "android": "https://dc.lft.to/lastmile_qr_scan"}, "lon": -77.02610216666666, "fusion_lon": 0.0, "is_disabled": 0, "lat": 38.91413333333333, "bike_id": "f31645b0e6b48942a0b02e8e4ab2aaa6", "name": "f31645b0e6b48942a0b02e8e4ab2aaa6", "is_reserved": 0, "fusion_lat": 0.0}, {"type": "electric_scooter", "rental_uris": {"ios": "https://dc.lft.to/lastmile_qr_scan", "android": "https://dc.lft.to/lastmile_qr_scan"}, "lon": -77.03185766666667, "fusion_lon": 0.0, "is_disabled": 0, "lat": 38.911236, "bike_id": "a61a8b11e61d5d6a2b6f3b7d1497b988", "name": "a61a8b11e61d5d6a2b6f3b7d1497b988", "is_reserved": 0, "fusion_lat": 0.0}, {"type": "electric_bike", "rental_uris": {"ios": "https://dc.lft.to/lastmile_qr_scan", "android": "https://dc.lft.to/lastmile_qr_scan"}, "lon": -77.1874055, "fusion_lon": 0.0, "is_disabled": 0, "lat": 38.89354683333333, "bike_id": "0d0d7bd919efc3c5b713877b0d1fc56d", "name": "0d0d7bd919efc3c5b713877b0d1fc56d", "is_reserved": 0, "fusion_lat": 0.0}, {"type": "electric_scooter", "rental_uris": {"ios": "https://dc.lft.to/lastmile_qr_scan", "android": "https://dc.lft.to/lastmile_qr_scan"}, "lon": -77.04028383333333, "fusion_lon": 0.0, "is_disabled": 0, "lat": 38.9180785, "bike_id": "156c77ccf0cfed7c6509665a0b5b99d4", "name": "156c77ccf0cfed7c6509665a0b5b99d4", "is_reserved": 0, "fusion_lat": 0.0}, {"type": "electric_bike", "rental_uris": {"ios": "https://dc.lft.to/lastmile_qr_scan", "android": "https://dc.lft.to/lastmile_qr_scan"}, "lon": -77.04414616666666, "fusion_lon": 0.0, "is_disabled": 0, "lat": 39.015648666666664, "bike_id": "ca272730ede7283f3f8a970b2638c78a", "name": "ca272730ede7283f3f8a970b2638c78a", "is_reserved": 0, "fusion_lat": 0.0}, {"type": "electric_scooter", "rental_uris": {"ios": "https://dc.lft.to/lastmile_qr_scan", "android": "https://dc.lft.to/lastmile_qr_scan"}, "lon": -77.027937, "fusion_lon": 0.0, "is_disabled": 0, "lat": 38.96130216666667, "bike_id": "bc0d7f228b9ca501f13412930c432f2a", "name": "bc0d7f228b9ca501f13412930c432f2a", "is_reserved": 0, "fusion_lat": 0.0}, {"type": "electric_scooter", "rental_uris": {"ios": "https://dc.lft.to/lastmile_qr_scan", "android": "https://dc.lft.to/lastmile_qr_scan"}, "lon": -77.04021866666666, "fusion_lon": 0.0, "is_disabled": 0, "lat": 38.922008, "bike_id": "351f889efa67e33a745e23320859aa76", "name": "351f889efa67e33a745e23320859aa76", "is_reserved": 0, "fusion_lat": 0.0}, {"type": "electric_scooter", "rental_uris": {"ios": "https://dc.lft.to/lastmile_qr_scan", "android": "https://dc.lft.to/lastmile_qr_scan"}, "lon": -77.02727766666666, "fusion_lon": 0.0, "is_disabled": 0, "lat": 38.899366666666666, "bike_id": "1834b806d18d5bef39b82825d9ccbf5b", "name": "1834b806d18d5bef39b82825d9ccbf5b", "is_reserved": 0, "fusion_lat": 0.0}, {"type": "electric_scooter", "rental_uris": {"ios": "https://dc.lft.to/lastmile_qr_scan", "android": "https://dc.lft.to/lastmile_qr_scan"}, "lon": -77.03083283333333, "fusion_lon": 0.0, "is_disabled": 0, "lat": 38.91105183333333, "bike_id": "e560f45423b62e1007d38e5cbab8c6dd", "name": "e560f45423b62e1007d38e5cbab8c6dd", "is_reserved": 0, "fusion_lat": 0.0}, {"type": "electric_scooter", "rental_uris": {"ios": "https://dc.lft.to/lastmile_qr_scan", "android": "https://dc.lft.to/lastmile_qr_scan"}, "lon": -77.01337433333333, "fusion_lon": 0.0, "is_disabled": 0, "lat": 38.881588, "bike_id": "958e827129883e80faa7123f10a90b6e", "name": "958e827129883e80faa7123f10a90b6e", "is_reserved": 0, "fusion_lat": 0.0}, {"type": "electric_scooter", "rental_uris": {"ios": "https://dc.lft.to/lastmile_qr_scan", "android": "https://dc.lft.to/lastmile_qr_scan"}, "lon": -77.02334316666666, "fusion_lon": 0.0, "is_disabled": 0, "lat": 38.9178005, "bike_id": "f13896a8a548b09d62731e58d128dd75", "name": "f13896a8a548b09d62731e58d128dd75", "is_reserved": 0, "fusion_lat": 0.0}, {"type": "electric_scooter", "rental_uris": {"ios": "https://dc.lft.to/lastmile_qr_scan", "android": "https://dc.lft.to/lastmile_qr_scan"}, "lon": -77.03188633333333, "fusion_lon": 0.0, "is_disabled": 0, "lat": 38.914251166666666, "bike_id": "85026c2dc9f2af24f5caab76d4fca131", "name": "85026c2dc9f2af24f5caab76d4fca131", "is_reserved": 0, "fusion_lat": 0.0}, {"type": "electric_scooter", "rental_uris": {"ios": "https://dc.lft.to/lastmile_qr_scan", "android": "https://dc.lft.to/lastmile_qr_scan"}, "lon": -77.03721633333333, "fusion_lon": 0.0, "is_disabled": 0, "lat": 38.928645333333336, "bike_id": "8da1237a76c6304adc8e342aec084d78", "name": "8da1237a76c6304adc8e342aec084d78", "is_reserved": 0, "fusion_lat": 0.0}, {"type": "electric_scooter", "rental_uris": {"ios": "https://dc.lft.to/lastmile_qr_scan", "android": "https://dc.lft.to/lastmile_qr_scan"}, "lon": -77.02349166666667, "fusion_lon": 0.0, "is_disabled": 0, "lat": 38.917831666666665, "bike_id": "19bd048f41bf709e9eb402c33a5c517a", "name": "19bd048f41bf709e9eb402c33a5c517a", "is_reserved": 0, "fusion_lat": 0.0}, {"type": "electric_bike", "rental_uris": {"ios": "https://dc.lft.to/lastmile_qr_scan", "android": "https://dc.lft.to/lastmile_qr_scan"}, "lon": -77.12051266666667, "fusion_lon": 0.0, "is_disabled": 0, "lat": 38.855173666666666, "bike_id": "aff7c2489a900851cc71a6fa4b4e15f3", "name": "aff7c2489a900851cc71a6fa4b4e15f3", "is_reserved": 0, "fusion_lat": 0.0}, {"type": "electric_scooter", "rental_uris": {"ios": "https://dc.lft.to/lastmile_qr_scan", "android": "https://dc.lft.to/lastmile_qr_scan"}, "lon": -77.03425283333333, "fusion_lon": 0.0, "is_disabled": 0, "lat": 38.9224285, "bike_id": "781fcc937e79b92fa55bb25c1e90b1a2", "name": "781fcc937e79b92fa55bb25c1e90b1a2", "is_reserved": 0, "fusion_lat": 0.0}, {"type": "electric_scooter", "rental_uris": {"ios": "https://dc.lft.to/lastmile_qr_scan", "android": "https://dc.lft.to/lastmile_qr_scan"}, "lon": -77.02221216666666, "fusion_lon": 0.0, "is_disabled": 0, "lat": 38.908627333333335, "bike_id": "25f05f75d91240958921c46c70c0bf3a", "name": "25f05f75d91240958921c46c70c0bf3a", "is_reserved": 0, "fusion_lat": 0.0}, {"type": "electric_scooter", "rental_uris": {"ios": "https://dc.lft.to/lastmile_qr_scan", "android": "https://dc.lft.to/lastmile_qr_scan"}, "lon": -77.03527383333333, "fusion_lon": 0.0, "is_disabled": 0, "lat": 38.918254166666664, "bike_id": "11cea5b220b36e72864f5dae31d6859f", "name": "11cea5b220b36e72864f5dae31d6859f", "is_reserved": 0, "fusion_lat": 0.0}, {"type": "electric_scooter", "rental_uris": {"ios": "https://dc.lft.to/lastmile_qr_scan", "android": "https://dc.lft.to/lastmile_qr_scan"}, "lon": -76.976678, "fusion_lon": 0.0, "is_disabled": 0, "lat": 38.89857283333333, "bike_id": "47444929c728aa4ee9b0cfa7394d16d2", "name": "47444929c728aa4ee9b0cfa7394d16d2", "is_reserved": 0, "fusion_lat": 0.0}, {"type": "electric_scooter", "rental_uris": {"ios": "https://dc.lft.to/lastmile_qr_scan", "android": "https://dc.lft.to/lastmile_qr_scan"}, "lon": -77.03148183333333, "fusion_lon": 0.0, "is_disabled": 0, "lat": 38.9156375, "bike_id": "08f6ae1c80148a05e8ee2a488a39cb40", "name": "08f6ae1c80148a05e8ee2a488a39cb40", "is_reserved": 0, "fusion_lat": 0.0}, {"type": "electric_scooter", "rental_uris": {"ios": "https://dc.lft.to/lastmile_qr_scan", "android": "https://dc.lft.to/lastmile_qr_scan"}, "lon": -77.01944083333333, "fusion_lon": 0.0, "is_disabled": 0, "lat": 38.94926266666667, "bike_id": "6d03090364f4673f9f6d1cbe65d2dcf1", "name": "6d03090364f4673f9f6d1cbe65d2dcf1", "is_reserved": 0, "fusion_lat": 0.0}, {"type": "electric_scooter", "rental_uris": {"ios": "https://dc.lft.to/lastmile_qr_scan", "android": "https://dc.lft.to/lastmile_qr_scan"}, "lon": -76.94183716666667, "fusion_lon": 0.0, "is_disabled": 0, "lat": 38.8975785, "bike_id": "d6ca96188377bf42678aff114151440e", "name": "d6ca96188377bf42678aff114151440e", "is_reserved": 0, "fusion_lat": 0.0}, {"type": "electric_bike", "rental_uris": {"ios": "https://dc.lft.to/lastmile_qr_scan", "android": "https://dc.lft.to/lastmile_qr_scan"}, "lon": -76.9610865, "fusion_lon": 0.0, "is_disabled": 0, "lat": 38.85192266666667, "bike_id": "3a7f03102ac8fb6fe809e83f5a812f3b", "name": "3a7f03102ac8fb6fe809e83f5a812f3b", "is_reserved": 0, "fusion_lat": 0.0}, {"type": "electric_scooter", "rental_uris": {"ios": "https://dc.lft.to/lastmile_qr_scan", "android": "https://dc.lft.to/lastmile_qr_scan"}, "lon": -77.03438683333333, "fusion_lon": 0.0, "is_disabled": 0, "lat": 38.90732883333333, "bike_id": "4d326916a9b471158656f6c7ff90aea7", "name": "4d326916a9b471158656f6c7ff90aea7", "is_reserved": 0, "fusion_lat": 0.0}, {"type": "electric_scooter", "rental_uris": {"ios": "https://dc.lft.to/lastmile_qr_scan", "android": "https://dc.lft.to/lastmile_qr_scan"}, "lon": -77.04028883333334, "fusion_lon": 0.0, "is_disabled": 0, "lat": 38.918063833333335, "bike_id": "db0b7a5add706cfa149f033745415fba", "name": "db0b7a5add706cfa149f033745415fba", "is_reserved": 0, "fusion_lat": 0.0}, {"type": "electric_bike", "rental_uris": {"ios": "https://dc.lft.to/lastmile_qr_scan", "android": "https://dc.lft.to/lastmile_qr_scan"}, "lon": -76.92493933333333, "fusion_lon": 0.0, "is_disabled": 0, "lat": 38.95893933333333, "bike_id": "c27b8408238c985235d91b49a21ad108", "name": "c27b8408238c985235d91b49a21ad108", "is_reserved": 0, "fusion_lat": 0.0}, {"type": "electric_scooter", "rental_uris": {"ios": "https://dc.lft.to/lastmile_qr_scan", "android": "https://dc.lft.to/lastmile_qr_scan"}, "lon": -76.94154066666667, "fusion_lon": 0.0, "is_disabled": 0, "lat": 38.8836325, "bike_id": "5651ec3f42d4b1d86a546c1cbef8c279", "name": "5651ec3f42d4b1d86a546c1cbef8c279", "is_reserved": 0, "fusion_lat": 0.0}, {"type": "electric_scooter", "rental_uris": {"ios": "https://dc.lft.to/lastmile_qr_scan", "android": "https://dc.lft.to/lastmile_qr_scan"}, "lon": -76.995102, "fusion_lon": 0.0, "is_disabled": 0, "lat": 38.883655833333336, "bike_id": "2f6aad28ef71c05f2c53245f170a166d", "name": "2f6aad28ef71c05f2c53245f170a166d", "is_reserved": 0, "fusion_lat": 0.0}, {"type": "electric_scooter", "rental_uris": {"ios": "https://dc.lft.to/lastmile_qr_scan", "android": "https://dc.lft.to/lastmile_qr_scan"}, "lon": -77.0585815, "fusion_lon": 0.0, "is_disabled": 0, "lat": 38.936060499999996, "bike_id": "88b5f789f31e1849177cb1dde8c2a2b8", "name": "88b5f789f31e1849177cb1dde8c2a2b8", "is_reserved": 0, "fusion_lat": 0.0}, {"type": "electric_scooter", "rental_uris": {"ios": "https://dc.lft.to/lastmile_qr_scan", "android": "https://dc.lft.to/lastmile_qr_scan"}, "lon": -76.9652875, "fusion_lon": 0.0, "is_disabled": 0, "lat": 38.87629416666667, "bike_id": "08985dc2ce387d0be7c9717f6d290101", "name": "08985dc2ce387d0be7c9717f6d290101", "is_reserved": 0, "fusion_lat": 0.0}, {"type": "electric_scooter", "rental_uris": {"ios": "https://dc.lft.to/lastmile_qr_scan", "android": "https://dc.lft.to/lastmile_qr_scan"}, "lon": -77.02175516666667, "fusion_lon": 0.0, "is_disabled": 0, "lat": 38.94289366666667, "bike_id": "26b6e36ee3ffdef7b6da8c040f022bb4", "name": "26b6e36ee3ffdef7b6da8c040f022bb4", "is_reserved": 0, "fusion_lat": 0.0}, {"type": "electric_scooter", "rental_uris": {"ios": "https://dc.lft.to/lastmile_qr_scan", "android": "https://dc.lft.to/lastmile_qr_scan"}, "lon": -77.07888783333334, "fusion_lon": 0.0, "is_disabled": 0, "lat": 38.920657, "bike_id": "fdce6cefe94b19f620ba39c19f452bcf", "name": "fdce6cefe94b19f620ba39c19f452bcf", "is_reserved": 0, "fusion_lat": 0.0}, {"type": "electric_scooter", "rental_uris": {"ios": "https://dc.lft.to/lastmile_qr_scan", "android": "https://dc.lft.to/lastmile_qr_scan"}, "lon": -77.02632666666666, "fusion_lon": 0.0, "is_disabled": 0, "lat": 38.92534166666667, "bike_id": "ad3776b619f51de251d88ac4bd03a1a4", "name": "ad3776b619f51de251d88ac4bd03a1a4", "is_reserved": 0, "fusion_lat": 0.0}, {"type": "electric_scooter", "rental_uris": {"ios": "https://dc.lft.to/lastmile_qr_scan", "android": "https://dc.lft.to/lastmile_qr_scan"}, "lon": -77.0385835, "fusion_lon": 0.0, "is_disabled": 0, "lat": 38.916573666666665, "bike_id": "a4cfa4670b2ebbaa8135cc81ea8633ec", "name": "a4cfa4670b2ebbaa8135cc81ea8633ec", "is_reserved": 0, "fusion_lat": 0.0}, {"type": "electric_scooter", "rental_uris": {"ios": "https://dc.lft.to/lastmile_qr_scan", "android": "https://dc.lft.to/lastmile_qr_scan"}, "lon": -77.05932816666666, "fusion_lon": 0.0, "is_disabled": 0, "lat": 38.90942116666667, "bike_id": "c03afb03b4be792f0eefa6b8c2ab00c5", "name": "c03afb03b4be792f0eefa6b8c2ab00c5", "is_reserved": 0, "fusion_lat": 0.0}, {"type": "electric_scooter", "rental_uris": {"ios": "https://dc.lft.to/lastmile_qr_scan", "android": "https://dc.lft.to/lastmile_qr_scan"}, "lon": -77.04548133333333, "fusion_lon": 0.0, "is_disabled": 0, "lat": 38.91338483333333, "bike_id": "1b040b05a6fd3561b1783536f0e6f38f", "name": "1b040b05a6fd3561b1783536f0e6f38f", "is_reserved": 0, "fusion_lat": 0.0}, {"type": "electric_scooter", "rental_uris": {"ios": "https://dc.lft.to/lastmile_qr_scan", "android": "https://dc.lft.to/lastmile_qr_scan"}, "lon": -77.027989, "fusion_lon": 0.0, "is_disabled": 0, "lat": 38.93082116666667, "bike_id": "43fc1eb9f5edb1ef184df4b3c8bd6ed5", "name": "43fc1eb9f5edb1ef184df4b3c8bd6ed5", "is_reserved": 0, "fusion_lat": 0.0}, {"type": "electric_bike", "rental_uris": {"ios": "https://dc.lft.to/lastmile_qr_scan", "android": "https://dc.lft.to/lastmile_qr_scan"}, "lon": -76.92501, "fusion_lon": 0.0, "is_disabled": 0, "lat": 38.999962, "bike_id": "90299805101e7ff1d37de8ada0ecbb7f", "name": "90299805101e7ff1d37de8ada0ecbb7f", "is_reserved": 0, "fusion_lat": 0.0}, {"type": "electric_scooter", "rental_uris": {"ios": "https://dc.lft.to/lastmile_qr_scan", "android": "https://dc.lft.to/lastmile_qr_scan"}, "lon": -77.02030233333333, "fusion_lon": 0.0, "is_disabled": 0, "lat": 38.93189916666667, "bike_id": "aafff148968f36aead2128445d80b5e1", "name": "aafff148968f36aead2128445d80b5e1", "is_reserved": 0, "fusion_lat": 0.0}, {"type": "electric_scooter", "rental_uris": {"ios": "https://dc.lft.to/lastmile_qr_scan", "android": "https://dc.lft.to/lastmile_qr_scan"}, "lon": -77.03188483333334, "fusion_lon": 0.0, "is_disabled": 0, "lat": 38.91822716666667, "bike_id": "7411058f26b697f724b059a421ab7f9e", "name": "7411058f26b697f724b059a421ab7f9e", "is_reserved": 0, "fusion_lat": 0.0}, {"type": "electric_scooter", "rental_uris": {"ios": "https://dc.lft.to/lastmile_qr_scan", "android": "https://dc.lft.to/lastmile_qr_scan"}, "lon": -77.04173966666667, "fusion_lon": 0.0, "is_disabled": 0, "lat": 38.91840033333333, "bike_id": "0c643d75dcfee7dcb1fce889cdc6d0c3", "name": "0c643d75dcfee7dcb1fce889cdc6d0c3", "is_reserved": 0, "fusion_lat": 0.0}, {"type": "electric_scooter", "rental_uris": {"ios": "https://dc.lft.to/lastmile_qr_scan", "android": "https://dc.lft.to/lastmile_qr_scan"}, "lon": -77.0322135, "fusion_lon": 0.0, "is_disabled": 0, "lat": 38.89205366666667, "bike_id": "e022b8fc377712bfe8f09f2cd3a86d34", "name": "e022b8fc377712bfe8f09f2cd3a86d34", "is_reserved": 0, "fusion_lat": 0.0}, {"type": "electric_scooter", "rental_uris": {"ios": "https://dc.lft.to/lastmile_qr_scan", "android": "https://dc.lft.to/lastmile_qr_scan"}, "lon": -77.04529333333333, "fusion_lon": 0.0, "is_disabled": 0, "lat": 38.9132875, "bike_id": "93a67fc1cd09b15f1e87985d9551667b", "name": "93a67fc1cd09b15f1e87985d9551667b", "is_reserved": 0, "fusion_lat": 0.0}, {"type": "electric_scooter", "rental_uris": {"ios": "https://dc.lft.to/lastmile_qr_scan", "android": "https://dc.lft.to/lastmile_qr_scan"}, "lon": -77.04448883333333, "fusion_lon": 0.0, "is_disabled": 0, "lat": 38.92418266666667, "bike_id": "6f8b9b7b9362bdb9dc11cdaa6ae1e2c0", "name": "6f8b9b7b9362bdb9dc11cdaa6ae1e2c0", "is_reserved": 0, "fusion_lat": 0.0}, {"type": "electric_scooter", "rental_uris": {"ios": "https://dc.lft.to/lastmile_qr_scan", "android": "https://dc.lft.to/lastmile_qr_scan"}, "lon": -76.99227816666667, "fusion_lon": 0.0, "is_disabled": 0, "lat": 38.903741333333336, "bike_id": "b625766c20ad62a323379309ebe4340f", "name": "b625766c20ad62a323379309ebe4340f", "is_reserved": 0, "fusion_lat": 0.0}, {"type": "electric_scooter", "rental_uris": {"ios": "https://dc.lft.to/lastmile_qr_scan", "android": "https://dc.lft.to/lastmile_qr_scan"}, "lon": -77.02385666666666, "fusion_lon": 0.0, "is_disabled": 0, "lat": 38.897485333333336, "bike_id": "fff7199098d5e4e6c20faa9e5e202dc2", "name": "fff7199098d5e4e6c20faa9e5e202dc2", "is_reserved": 0, "fusion_lat": 0.0}, {"type": "electric_scooter", "rental_uris": {"ios": "https://dc.lft.to/lastmile_qr_scan", "android": "https://dc.lft.to/lastmile_qr_scan"}, "lon": -77.00917833333334, "fusion_lon": 0.0, "is_disabled": 0, "lat": 38.89550083333334, "bike_id": "e9a08059d48be074ecfddf34793b7c10", "name": "e9a08059d48be074ecfddf34793b7c10", "is_reserved": 0, "fusion_lat": 0.0}, {"type": "electric_scooter", "rental_uris": {"ios": "https://dc.lft.to/lastmile_qr_scan", "android": "https://dc.lft.to/lastmile_qr_scan"}, "lon": -77.02694716666667, "fusion_lon": 0.0, "is_disabled": 0, "lat": 38.9259005, "bike_id": "7a5f03d49d06223bd0014914aad2a61e", "name": "7a5f03d49d06223bd0014914aad2a61e", "is_reserved": 0, "fusion_lat": 0.0}, {"type": "electric_scooter", "rental_uris": {"ios": "https://dc.lft.to/lastmile_qr_scan", "android": "https://dc.lft.to/lastmile_qr_scan"}, "lon": -77.02197333333334, "fusion_lon": 0.0, "is_disabled": 0, "lat": 38.918413666666666, "bike_id": "1bf7e2e6673d390199696f98637aec70", "name": "1bf7e2e6673d390199696f98637aec70", "is_reserved": 0, "fusion_lat": 0.0}, {"type": "electric_scooter", "rental_uris": {"ios": "https://dc.lft.to/lastmile_qr_scan", "android": "https://dc.lft.to/lastmile_qr_scan"}, "lon": -77.07096983333334, "fusion_lon": 0.0, "is_disabled": 0, "lat": 38.93344966666667, "bike_id": "564422b1b65a6d01a372decfc9c6a99e", "name": "564422b1b65a6d01a372decfc9c6a99e", "is_reserved": 0, "fusion_lat": 0.0}, {"type": "electric_bike", "rental_uris": {"ios": "https://dc.lft.to/lastmile_qr_scan", "android": "https://dc.lft.to/lastmile_qr_scan"}, "lon": -76.99765833333333, "fusion_lon": 0.0, "is_disabled": 0, "lat": 38.837421166666665, "bike_id": "632d71074517e790364c48a2f37f5c08", "name": "632d71074517e790364c48a2f37f5c08", "is_reserved": 0, "fusion_lat": 0.0}, {"type": "electric_scooter", "rental_uris": {"ios": "https://dc.lft.to/lastmile_qr_scan", "android": "https://dc.lft.to/lastmile_qr_scan"}, "lon": -77.0429995, "fusion_lon": 0.0, "is_disabled": 0, "lat": 38.901250166666664, "bike_id": "122d66fa5cd12d2d5bf58cb5359fce87", "name": "122d66fa5cd12d2d5bf58cb5359fce87", "is_reserved": 0, "fusion_lat": 0.0}, {"type": "electric_bike", "rental_uris": {"ios": "https://dc.lft.to/lastmile_qr_scan", "android": "https://dc.lft.to/lastmile_qr_scan"},