{"data": {"bikes": [{"is_disabled": 0, "fusion_lon": 0.0, "fusion_lat": 0.0, "lat": 38.917995, "type": "electric_scooter", "lon": -77.0344565, "bike_id": "9c5cb282137390ea388dd917afb15950", "rental_uris": {"android": "https://dc.lft.to/lastmile_qr_scan", "ios": "https://dc.lft.to/lastmile_qr_scan"}, "name": "9c5cb282137390ea388dd917afb15950", "is_reserved": 0}, {"is_disabled": 0, "fusion_lon": 0.0, "fusion_lat": 0.0, "lat": 38.88566133333333, "type": "electric_scooter", "lon": -77.00069166666667, "bike_id": "61b61b7d44366a51b029a83f6c779256", "rental_uris": {"android": "https://dc.lft.to/lastmile_qr_scan", "ios": "https://dc.lft.to/lastmile_qr_scan"}, "name": "61b61b7d44366a51b029a83f6c779256", "is_reserved": 0}, {"is_disabled": 0, "fusion_lon": 0.0, "fusion_lat": 0.0, "lat": 38.9705845, "type": "electric_bike", "lon": -76.9605855, "bike_id": "b8be482cccfd30a187b7e658fbc6d6d6", "rental_uris": {"android": "https://dc.lft.to/lastmile_qr_scan", "ios": "https://dc.lft.to/lastmile_qr_scan"}, "name": "b8be482cccfd30a187b7e658fbc6d6d6", "is_reserved": 0}, {"is_disabled": 0, "fusion_lon": 0.0, "fusion_lat": 0.0, "lat": 38.90007683333333, "type": "electric_scooter", "lon": -76.99594333333333, "bike_id": "08e44c739ac83f1db74c2efd553e78e0", "rental_uris": {"android": "https://dc.lft.to/lastmile_qr_scan", "ios": "https://dc.lft.to/lastmile_qr_scan"}, "name": "08e44c739ac83f1db74c2efd553e78e0", "is_reserved": 0}, {"is_disabled": 0, "fusion_lon": 0.0, "fusion_lat": 0.0, "lat": 38.9156445, "type": "electric_scooter", "lon": -77.04674616666667, "bike_id": "b032ebb0505f54e9fb36f2a247087983", "rental_uris": {"android": "https://dc.lft.to/lastmile_qr_scan", "ios": "https://dc.lft.to/lastmile_qr_scan"}, "name": "b032ebb0505f54e9fb36f2a247087983", "is_reserved": 0}, {"is_disabled": 0, "fusion_lon": 0.0, "fusion_lat": 0.0, "lat": 38.9216425, "type": "electric_scooter", "lon": -77.04338233333333, "bike_id": "1468c4ecc88a15582c8220ec04eb92ff", "rental_uris": {"android": "https://dc.lft.to/lastmile_qr_scan", "ios": "https://dc.lft.to/lastmile_qr_scan"}, "name": "1468c4ecc88a15582c8220ec04eb92ff", "is_reserved": 0}, {"is_disabled": 0, "fusion_lon": 0.0, "fusion_lat": 0.0, "lat": 38.907283666666665, "type": "electric_scooter", "lon": -77.01135883333333, "bike_id": "db63e9e046da3ec13995a68db9eb5237", "rental_uris": {"android": "https://dc.lft.to/lastmile_qr_scan", "ios": "https://dc.lft.to/lastmile_qr_scan"}, "name": "db63e9e046da3ec13995a68db9eb5237", "is_reserved": 0}, {"is_disabled": 0, "fusion_lon": 0.0, "fusion_lat": 0.0, "lat": 38.915806, "type": "electric_scooter", "lon": -77.01998166666667, "bike_id": "a77b604cbffb19dc4e28f810a1e02003", "rental_uris": {"android": "https://dc.lft.to/lastmile_qr_scan", "ios": "https://dc.lft.to/lastmile_qr_scan"}, "name": "a77b604cbffb19dc4e28f810a1e02003", "is_reserved": 0}, {"is_disabled": 0, "fusion_lon": 0.0, "fusion_lat": 0.0, "lat": 38.9207055, "type": "electric_scooter", "lon": -77.02392083333334, "bike_id": "6c5274d6b7abd11ed5d85511793a83a8", "rental_uris": {"android": "https://dc.lft.to/lastmile_qr_scan", "ios": "https://dc.lft.to/lastmile_qr_scan"}, "name": "6c5274d6b7abd11ed5d85511793a83a8", "is_reserved": 0}, {"is_disabled": 0, "fusion_lon": 0.0, "fusion_lat": 0.0, "lat": 38.8921995, "type": "electric_scooter", "lon": -77.02220183333333, "bike_id": "48f078f588128e6600996f906c424e33", "rental_uris": {"android": "https://dc.lft.to/lastmile_qr_scan", "ios": "https://dc.lft.to/lastmile_qr_scan"}, "name": "48f078f588128e6600996f906c424e33", "is_reserved": 0}, {"is_disabled": 0, "fusion_lon": 0.0, "fusion_lat": 0.0, "lat": 38.911986, "type": "electric_scooter", "lon": -76.98487816666666, "bike_id": "a2de3a6da2b8b3de9e621f9ecd6636dd", "rental_uris": {"android": "https://dc.lft.to/lastmile_qr_scan", "ios": "https://dc.lft.to/lastmile_qr_scan"}, "name": "a2de3a6da2b8b3de9e621f9ecd6636dd", "is_reserved": 0}, {"is_disabled": 0, "fusion_lon": 0.0, "fusion_lat": 0.0, "lat": 38.90669066666667, "type": "electric_scooter", "lon": -77.034662, "bike_id": "90b6f26d3abe55c08268755a27ade456", "rental_uris": {"android": "https://dc.lft.to/lastmile_qr_scan", "ios": "https://dc.lft.to/lastmile_qr_scan"}, "name": "90b6f26d3abe55c08268755a27ade456", "is_reserved": 0}, {"is_disabled": 0, "fusion_lon": 0.0, "fusion_lat": 0.0, "lat": 38.9072615, "type": "electric_scooter", "lon": -77.02370833333333, "bike_id": "79fba67e75fa85b3e802791bb8a42763", "rental_uris": {"android": "https://dc.lft.to/lastmile_qr_scan", "ios": "https://dc.lft.to/lastmile_qr_scan"}, "name": "79fba67e75fa85b3e802791bb8a42763", "is_reserved": 0}, {"is_disabled": 0, "fusion_lon": 0.0, "fusion_lat": 0.0, "lat": 38.891949, "type": "electric_scooter", "lon": -77.03174633333333, "bike_id": "e9704596325613d9469ee30d7012b5ac", "rental_uris": {"android": "https://dc.lft.to/lastmile_qr_scan", "ios": "https://dc.lft.to/lastmile_qr_scan"}, "name": "e9704596325613d9469ee30d7012b5ac", "is_reserved": 0}, {"is_disabled": 0, "fusion_lon": 0.0, "fusion_lat": 0.0, "lat": 38.917300833333336, "type": "electric_scooter", "lon": -76.99179616666666, "bike_id": "b216fe04b4b88f8dd47dbdcec9479b84", "rental_uris": {"android": "https://dc.lft.to/lastmile_qr_scan", "ios": "https://dc.lft.to/lastmile_qr_scan"}, "name": "b216fe04b4b88f8dd47dbdcec9479b84", "is_reserved": 0}, {"is_disabled": 0, "fusion_lon": 0.0, "fusion_lat": 0.0, "lat": 38.915517, "type": "electric_scooter", "lon": -77.038526, "bike_id": "4542dffbc68d141dbf2102fc8f56ca03", "rental_uris": {"android": "https://dc.lft.to/lastmile_qr_scan", "ios": "https://dc.lft.to/lastmile_qr_scan"}, "name": "4542dffbc68d141dbf2102fc8f56ca03", "is_reserved": 0}, {"is_disabled": 0, "fusion_lon": 0.0, "fusion_lat": 0.0, "lat": 38.90297983333333, "type": "electric_scooter", "lon": -77.02210116666667, "bike_id": "1351f27159c55647162adf49d1536b7b", "rental_uris": {"android": "https://dc.lft.to/lastmile_qr_scan", "ios": "https://dc.lft.to/lastmile_qr_scan"}, "name": "1351f27159c55647162adf49d1536b7b", "is_reserved": 0}, {"is_disabled": 0, "fusion_lon": 0.0, "fusion_lat": 0.0, "lat": 38.922776999999996, "type": "electric_scooter", "lon": -77.07293783333333, "bike_id": "ccf6daee680752d285dafb42ee096482", "rental_uris": {"android": "https://dc.lft.to/lastmile_qr_scan", "ios": "https://dc.lft.to/lastmile_qr_scan"}, "name": "ccf6daee680752d285dafb42ee096482", "is_reserved": 0}, {"is_disabled": 0, "fusion_lon": 0.0, "fusion_lat": 0.0, "lat": 38.902264833333334, "type": "electric_scooter", "lon": -77.06090116666667, "bike_id": "d82185f0c193fc729de0117abc3006c5", "rental_uris": {"android": "https://dc.lft.to/lastmile_qr_scan", "ios": "https://dc.lft.to/lastmile_qr_scan"}, "name": "d82185f0c193fc729de0117abc3006c5", "is_reserved": 0}, {"is_disabled": 0, "fusion_lon": 0.0, "fusion_lat": 0.0, "lat": 38.901589, "type": "electric_scooter", "lon": -77.02208333333333, "bike_id": "49cd4b90efaac936cfb3413fa7928c77", "rental_uris": {"android": "https://dc.lft.to/lastmile_qr_scan", "ios": "https://dc.lft.to/lastmile_qr_scan"}, "name": "49cd4b90efaac936cfb3413fa7928c77", "is_reserved": 0}, {"is_disabled": 0, "fusion_lon": 0.0, "fusion_lat": 0.0, "lat": 39.0001585, "type": "electric_bike", "lon": -76.87286783333333, "bike_id": "7914999263abc859c7a814ee9096aaba", "rental_uris": {"android": "https://dc.lft.to/lastmile_qr_scan", "ios": "https://dc.lft.to/lastmile_qr_scan"}, "name": "7914999263abc859c7a814ee9096aaba", "is_reserved": 0}, {"is_disabled": 0, "fusion_lon": 0.0, "fusion_lat": 0.0, "lat": 38.91703916666667, "type": "electric_scooter", "lon": -77.02845266666667, "bike_id": "fc6a099bf0815e006d6d2653adb6a4cc", "rental_uris": {"android": "https://dc.lft.to/lastmile_qr_scan", "ios": "https://dc.lft.to/lastmile_qr_scan"}, "name": "fc6a099bf0815e006d6d2653adb6a4cc", "is_reserved": 0}, {"is_disabled": 0, "fusion_lon": 0.0, "fusion_lat": 0.0, "lat": 38.90387883333333, "type": "electric_scooter", "lon": -77.03286283333334, "bike_id": "762484dd38e065bb9e86c6f9a7b6ad52", "rental_uris": {"android": "https://dc.lft.to/lastmile_qr_scan", "ios": "https://dc.lft.to/lastmile_qr_scan"}, "name": "762484dd38e065bb9e86c6f9a7b6ad52", "is_reserved": 0}, {"is_disabled": 0, "fusion_lon": 0.0, "fusion_lat": 0.0, "lat": 38.828694, "type": "electric_bike", "lon": -77.11218266666667, "bike_id": "e1b137ce6ccce2efac398a1defb5d114", "rental_uris": {"android": "https://dc.lft.to/lastmile_qr_scan", "ios": "https://dc.lft.to/lastmile_qr_scan"}, "name": "e1b137ce6ccce2efac398a1defb5d114", "is_reserved": 0}, {"is_disabled": 0, "fusion_lon": 0.0, "fusion_lat": 0.0, "lat": 38.90766416666666, "type": "electric_scooter", "lon": -77.03835216666667, "bike_id": "557cf0bd7bd73229bee097c4ef0f7918", "rental_uris": {"android": "https://dc.lft.to/lastmile_qr_scan", "ios": "https://dc.lft.to/lastmile_qr_scan"}, "name": "557cf0bd7bd73229bee097c4ef0f7918", "is_reserved": 0}, {"is_disabled": 0, "fusion_lon": 0.0, "fusion_lat": 0.0, "lat": 38.897098666666665, "type": "electric_scooter", "lon": -77.02144133333333, "bike_id": "0166c1ccd8e812335f921811a2abb8c6", "rental_uris": {"android": "https://dc.lft.to/lastmile_qr_scan", "ios": "https://dc.lft.to/lastmile_qr_scan"}, "name": "0166c1ccd8e812335f921811a2abb8c6", "is_reserved": 0}, {"is_disabled": 0, "fusion_lon": 0.0, "fusion_lat": 0.0, "lat": 38.91813483333333, "type": "electric_scooter", "lon": -77.0317785, "bike_id": "dd624f3a36325b0cd50d28ee708e019c", "rental_uris": {"android": "https://dc.lft.to/lastmile_qr_scan", "ios": "https://dc.lft.to/lastmile_qr_scan"}, "name": "dd624f3a36325b0cd50d28ee708e019c", "is_reserved": 0}, {"is_disabled": 0, "fusion_lon": 0.0, "fusion_lat": 0.0, "lat": 38.9056765, "type": "electric_scooter", "lon": -77.02380883333333, "bike_id": "40675f74447e69437fc3a038fcb481b7", "rental_uris": {"android": "https://dc.lft.to/lastmile_qr_scan", "ios": "https://dc.lft.to/lastmile_qr_scan"}, "name": "40675f74447e69437fc3a038fcb481b7", "is_reserved": 0}, {"is_disabled": 0, "fusion_lon": 0.0, "fusion_lat": 0.0, "lat": 38.916889166666664, "type": "electric_scooter", "lon": -77.03388983333333, "bike_id": "ce79ab8c689cde275be7722fc1d2ee46", "rental_uris": {"android": "https://dc.lft.to/lastmile_qr_scan", "ios": "https://dc.lft.to/lastmile_qr_scan"}, "name": "ce79ab8c689cde275be7722fc1d2ee46", "is_reserved": 0}, {"is_disabled": 0, "fusion_lon": 0.0, "fusion_lat": 0.0, "lat": 38.93717816666667, "type": "electric_scooter", "lon": -77.03261666666667, "bike_id": "6d88ba2809b4e1fd90f72f152bfe2188", "rental_uris": {"android": "https://dc.lft.to/lastmile_qr_scan", "ios": "https://dc.lft.to/lastmile_qr_scan"}, "name": "6d88ba2809b4e1fd90f72f152bfe2188", "is_reserved": 0}, {"is_disabled": 0, "fusion_lon": 0.0, "fusion_lat": 0.0, "lat": 38.867054333333336, "type": "electric_scooter", "lon": -76.98731966666666, "bike_id": "402b0e5d725a3b27e0a6842c0641a889", "rental_uris": {"android": "https://dc.lft.to/lastmile_qr_scan", "ios": "https://dc.lft.to/lastmile_qr_scan"}, "name": "402b0e5d725a3b27e0a6842c0641a889", "is_reserved": 0}, {"is_disabled": 0, "fusion_lon": 0.0, "fusion_lat": 0.0, "lat": 38.902636, "type": "electric_scooter", "lon": -77.02142833333333, "bike_id": "c098e0791c39f6c062e89e036dc4fc32", "rental_uris": {"android": "https://dc.lft.to/lastmile_qr_scan", "ios": "https://dc.lft.to/lastmile_qr_scan"}, "name": "c098e0791c39f6c062e89e036dc4fc32", "is_reserved": 0}, {"is_disabled": 0, "fusion_lon": 0.0, "fusion_lat": 0.0, "lat": 38.910954333333336, "type": "electric_scooter", "lon": -77.0449205, "bike_id": "81efe1902c01bab522c9bcc756df19b9", "rental_uris": {"android": "https://dc.lft.to/lastmile_qr_scan", "ios": "https://dc.lft.to/lastmile_qr_scan"}, "name": "81efe1902c01bab522c9bcc756df19b9", "is_reserved": 0}, {"is_disabled": 0, "fusion_lon": 0.0, "fusion_lat": 0.0, "lat": 38.939197, "type": "electric_scooter", "lon": -77.02488283333334, "bike_id": "e7a3556bd0c6dd313c84be474cb0b1b2", "rental_uris": {"android": "https://dc.lft.to/lastmile_qr_scan", "ios": "https://dc.lft.to/lastmile_qr_scan"}, "name": "e7a3556bd0c6dd313c84be474cb0b1b2", "is_reserved": 0}, {"is_disabled": 0, "fusion_lon": 0.0, "fusion_lat": 0.0, "lat": 38.89906583333333, "type": "electric_scooter", "lon": -77.04169233333333, "bike_id": "233a7f41be6b36484f8c019e9458b855", "rental_uris": {"android": "https://dc.lft.to/lastmile_qr_scan", "ios": "https://dc.lft.to/lastmile_qr_scan"}, "name": "233a7f41be6b36484f8c019e9458b855", "is_reserved": 0}, {"is_disabled": 0, "fusion_lon": 0.0, "fusion_lat": 0.0, "lat": 38.9024475, "type": "electric_scooter", "lon": -77.0309705, "bike_id": "14829c09e16f347c149d622ba1913521", "rental_uris": {"android": "https://dc.lft.to/lastmile_qr_scan", "ios": "https://dc.lft.to/lastmile_qr_scan"}, "name": "14829c09e16f347c149d622ba1913521", "is_reserved": 0}, {"is_disabled": 0, "fusion_lon": 0.0, "fusion_lat": 0.0, "lat": 39.00378833333333, "type": "electric_bike", "lon": -77.01289333333334, "bike_id": "de94170a8ab4acd489180f4bfcf5a682", "rental_uris": {"android": "https://dc.lft.to/lastmile_qr_scan", "ios": "https://dc.lft.to/lastmile_qr_scan"}, "name": "de94170a8ab4acd489180f4bfcf5a682", "is_reserved": 0}, {"is_disabled": 0, "fusion_lon": 0.0, "fusion_lat": 0.0, "lat": 38.924572833333336, "type": "electric_scooter", "lon": -76.99903783333333, "bike_id": "66f04db1595b22218a646877fe844265", "rental_uris": {"android": "https://dc.lft.to/lastmile_qr_scan", "ios": "https://dc.lft.to/lastmile_qr_scan"}, "name": "66f04db1595b22218a646877fe844265", "is_reserved": 0}, {"is_disabled": 0, "fusion_lon": 0.0, "fusion_lat": 0.0, "lat": 38.884952166666665, "type": "electric_scooter", "lon": -77.0056695, "bike_id": "7ea54e2678feecd5978fa37e0810d187", "rental_uris": {"android": "https://dc.lft.to/lastmile_qr_scan", "ios": "https://dc.lft.to/lastmile_qr_scan"}, "name": "7ea54e2678feecd5978fa37e0810d187", "is_reserved": 0}, {"is_disabled": 0, "fusion_lon": 0.0, "fusion_lat": 0.0, "lat": 38.9126735, "type": "electric_scooter", "lon": -77.02221883333333, "bike_id": "f93ed8b0beec7e8adfa445a25dce26ee", "rental_uris": {"android": "https://dc.lft.to/lastmile_qr_scan", "ios": "https://dc.lft.to/lastmile_qr_scan"}, "name": "f93ed8b0beec7e8adfa445a25dce26ee", "is_reserved": 0}, {"is_disabled": 0, "fusion_lon": 0.0, "fusion_lat": 0.0, "lat": 38.95615266666667, "type": "electric_scooter", "lon": -77.0275955, "bike_id": "586f4b23cb20de5a00a059f6c3bf0825", "rental_uris": {"android": "https://dc.lft.to/lastmile_qr_scan", "ios": "https://dc.lft.to/lastmile_qr_scan"}, "name": "586f4b23cb20de5a00a059f6c3bf0825", "is_reserved": 0}, {"is_disabled": 0, "fusion_lon": 0.0, "fusion_lat": 0.0, "lat": 38.866539333333336, "type": "electric_scooter", "lon": -76.98884816666667, "bike_id": "1820bd1180c5a88dbede8b4f94b1e639", "rental_uris": {"android": "https://dc.lft.to/lastmile_qr_scan", "ios": "https://dc.lft.to/lastmile_qr_scan"}, "name": "1820bd1180c5a88dbede8b4f94b1e639", "is_reserved": 0}, {"is_disabled": 0, "fusion_lon": 0.0, "fusion_lat": 0.0, "lat": 38.9621595, "type": "electric_scooter", "lon": -77.02808866666666, "bike_id": "1acf904582cc231e0a7f8f586e005e5f", "rental_uris": {"android": "https://dc.lft.to/lastmile_qr_scan", "ios": "https://dc.lft.to/lastmile_qr_scan"}, "name": "1acf904582cc231e0a7f8f586e005e5f", "is_reserved": 0}, {"is_disabled": 0, "fusion_lon": 0.0, "fusion_lat": 0.0, "lat": 38.90502566666667, "type": "electric_scooter", "lon": -77.0294495, "bike_id": "12c969fd6c8c8a080fe5df53eacd3beb", "rental_uris": {"android": "https://dc.lft.to/lastmile_qr_scan", "ios": "https://dc.lft.to/lastmile_qr_scan"}, "name": "12c969fd6c8c8a080fe5df53eacd3beb", "is_reserved": 0}, {"is_disabled": 0, "fusion_lon": 0.0, "fusion_lat": 0.0, "lat": 38.893120833333334, "type": "electric_scooter", "lon": -77.0211965, "bike_id": "152fab9513c54082a271d963d3ec25e8", "rental_uris": {"android": "https://dc.lft.to/lastmile_qr_scan", "ios": "https://dc.lft.to/lastmile_qr_scan"}, "name": "152fab9513c54082a271d963d3ec25e8", "is_reserved": 0}, {"is_disabled": 0, "fusion_lon": 0.0, "fusion_lat": 0.0, "lat": 38.942242666666665, "type": "electric_scooter", "lon": -77.02157016666666, "bike_id": "01c593170645cf1ec5e58c3572b74516", "rental_uris": {"android": "https://dc.lft.to/lastmile_qr_scan", "ios": "https://dc.lft.to/lastmile_qr_scan"}, "name": "01c593170645cf1ec5e58c3572b74516", "is_reserved": 0}, {"is_disabled": 0, "fusion_lon": 0.0, "fusion_lat": 0.0, "lat": 38.8783145, "type": "electric_scooter", "lon": -77.0227865, "bike_id": "689b5ca422183446dffdd64425316107", "rental_uris": {"android": "https://dc.lft.to/lastmile_qr_scan", "ios": "https://dc.lft.to/lastmile_qr_scan"}, "name": "689b5ca422183446dffdd64425316107", "is_reserved": 0}, {"is_disabled": 0, "fusion_lon": 0.0, "fusion_lat": 0.0, "lat": 38.907985333333336, "type": "electric_scooter", "lon": -76.99694716666667, "bike_id": "7006a801302b3045edf31491365a01df", "rental_uris": {"android": "https://dc.lft.to/lastmile_qr_scan", "ios": "https://dc.lft.to/lastmile_qr_scan"}, "name": "7006a801302b3045edf31491365a01df", "is_reserved": 0}, {"is_disabled": 0, "fusion_lon": 0.0, "fusion_lat": 0.0, "lat": 38.937558, "type": "electric_scooter", "lon": -77.02474666666667, "bike_id": "f698258c839c89def0866a127d6abc2b", "rental_uris": {"android": "https://dc.lft.to/lastmile_qr_scan", "ios": "https://dc.lft.to/lastmile_qr_scan"}, "name": "f698258c839c89def0866a127d6abc2b", "is_reserved": 0}, {"is_disabled": 0, "fusion_lon": 0.0, "fusion_lat": 0.0, "lat": 38.847949666666665, "type": "electric_scooter", "lon": -76.96710966666667, "bike_id": "8cd88583202e63684963823725ffd243", "rental_uris": {"android": "https://dc.lft.to/lastmile_qr_scan", "ios": "https://dc.lft.to/lastmile_qr_scan"}, "name": "8cd88583202e63684963823725ffd243", "is_reserved": 0}, {"is_disabled": 0, "fusion_lon": 0.0, "fusion_lat": 0.0, "lat": 38.942766, "type": "electric_scooter", "lon": -77.0363555, "bike_id": "4d30837009479df227aeb0685752644f", "rental_uris": {"android": "https://dc.lft.to/lastmile_qr_scan", "ios": "https://dc.lft.to/lastmile_qr_scan"}, "name": "4d30837009479df227aeb0685752644f", "is_reserved": 0}, {"is_disabled": 0, "fusion_lon": 0.0, "fusion_lat": 0.0, "lat": 38.949807666666665, "type": "electric_scooter", "lon": -77.0270335, "bike_id": "1c2903728bf1ff7df28f50e4a52e9a71", "rental_uris": {"android": "https://dc.lft.to/lastmile_qr_scan", "ios": "https://dc.lft.to/lastmile_qr_scan"}, "name": "1c2903728bf1ff7df28f50e4a52e9a71", "is_reserved": 0}, {"is_disabled": 0, "fusion_lon": 0.0, "fusion_lat": 0.0, "lat": 38.90949333333333, "type": "electric_scooter", "lon": -77.023814, "bike_id": "5b201487b44a5d3924a8a6919ab5bb11", "rental_uris": {"android": "https://dc.lft.to/lastmile_qr_scan", "ios": "https://dc.lft.to/lastmile_qr_scan"}, "name": "5b201487b44a5d3924a8a6919ab5bb11", "is_reserved": 0}, {"is_disabled": 0, "fusion_lon": 0.0, "fusion_lat": 0.0, "lat": 38.85811183333333, "type": "electric_scooter", "lon": -76.98965483333333, "bike_id": "0997d642794da41da09553083d88c523", "rental_uris": {"android": "https://dc.lft.to/lastmile_qr_scan", "ios": "https://dc.lft.to/lastmile_qr_scan"}, "name": "0997d642794da41da09553083d88c523", "is_reserved": 0}, {"is_disabled": 0, "fusion_lon": 0.0, "fusion_lat": 0.0, "lat": 38.901397333333335, "type": "electric_scooter", "lon": -77.02871916666666, "bike_id": "34f322f11c68957b769293d759f4b82f", "rental_uris": {"android": "https://dc.lft.to/lastmile_qr_scan", "ios": "https://dc.lft.to/lastmile_qr_scan"}, "name": "34f322f11c68957b769293d759f4b82f", "is_reserved": 0}, {"is_disabled": 0, "fusion_lon": 0.0, "fusion_lat": 0.0, "lat": 38.9002875, "type": "electric_scooter", "lon": -76.99633016666667, "bike_id": "4791755098217d5c99970da4b38e1555", "rental_uris": {"android": "https://dc.lft.to/lastmile_qr_scan", "ios": "https://dc.lft.to/lastmile_qr_scan"}, "name": "4791755098217d5c99970da4b38e1555", "is_reserved": 0}, {"is_disabled": 0, "fusion_lon": 0.0, "fusion_lat": 0.0, "lat": 38.90637266666667, "type": "electric_scooter", "lon": -77.017939, "bike_id": "27b38dc4cd7f2ef131be88c5ce0850f3", "rental_uris": {"android": "https://dc.lft.to/lastmile_qr_scan", "ios": "https://dc.lft.to/lastmile_qr_scan"}, "name": "27b38dc4cd7f2ef131be88c5ce0850f3", "is_reserved": 0}, {"is_disabled": 0, "fusion_lon": 0.0, "fusion_lat": 0.0, "lat": 38.899596333333335, "type": "electric_scooter", "lon": -77.0461345, "bike_id": "8fbbe76976cf49c0f856523e49850a38", "rental_uris": {"android": "https://dc.lft.to/lastmile_qr_scan", "ios": "https://dc.lft.to/lastmile_qr_scan"}, "name": "8fbbe76976cf49c0f856523e49850a38", "is_reserved": 0}, {"is_disabled": 0, "fusion_lon": 0.0, "fusion_lat": 0.0, "lat": 38.897083333333335, "type": "electric_scooter", "lon": -77.007955, "bike_id": "5c9a3fe1079eee632da4caa153c881a9", "rental_uris": {"android": "https://dc.lft.to/lastmile_qr_scan", "ios": "https://dc.lft.to/lastmile_qr_scan"}, "name": "5c9a3fe1079eee632da4caa153c881a9", "is_reserved": 0}, {"is_disabled": 0, "fusion_lon": 0.0, "fusion_lat": 0.0, "lat": 38.861054833333334, "type": "electric_scooter", "lon": -76.98373116666667, "bike_id": "22138810abfc6e3e92443a1dae6ca100", "rental_uris": {"android": "https://dc.lft.to/lastmile_qr_scan", "ios": "https://dc.lft.to/lastmile_qr_scan"}, "name": "22138810abfc6e3e92443a1dae6ca100", "is_reserved": 0}, {"is_disabled": 0, "fusion_lon": 0.0, "fusion_lat": 0.0, "lat": 38.89619733333333, "type": "electric_scooter", "lon": -76.99636583333333, "bike_id": "a6e2e14e12b0334955e8d8999e91a5a9", "rental_uris": {"android": "https://dc.lft.to/lastmile_qr_scan", "ios": "https://dc.lft.to/lastmile_qr_scan"}, "name": "a6e2e14e12b0334955e8d8999e91a5a9", "is_reserved": 0}, {"is_disabled": 0, "fusion_lon": 0.0, "fusion_lat": 0.0, "lat": 38.920780666666666, "type": "electric_scooter", "lon": -77.02501983333333, "bike_id": "a6d4ff8b2e3617710e98197a0c1864cc", "rental_uris": {"android": "https://dc.lft.to/lastmile_qr_scan", "ios": "https://dc.lft.to/lastmile_qr_scan"}, "name": "a6d4ff8b2e3617710e98197a0c1864cc", "is_reserved": 0}, {"is_disabled": 0, "fusion_lon": 0.0, "fusion_lat": 0.0, "lat": 38.918681, "type": "electric_bike", "lon": -76.96125116666667, "bike_id": "0916e449d47261d2bc0c4328bb19dd5a", "rental_uris": {"android": "https://dc.lft.to/lastmile_qr_scan", "ios": "https://dc.lft.to/lastmile_qr_scan"}, "name": "0916e449d47261d2bc0c4328bb19dd5a", "is_reserved": 0}, {"is_disabled": 0, "fusion_lon": 0.0, "fusion_lat": 0.0, "lat": 38.922385, "type": "electric_scooter", "lon": -77.030862, "bike_id": "c0d91eb0657d41e8225fa98cfbb2cfa5", "rental_uris": {"android": "https://dc.lft.to/lastmile_qr_scan", "ios": "https://dc.lft.to/lastmile_qr_scan"}, "name": "c0d91eb0657d41e8225fa98cfbb2cfa5", "is_reserved": 0}, {"is_disabled": 0, "fusion_lon": 0.0, "fusion_lat": 0.0, "lat": 38.9353745, "type": "electric_scooter", "lon": -77.0728915, "bike_id": "901f4ac78a23f1ef9d94d87382bda042", "rental_uris": {"android": "https://dc.lft.to/lastmile_qr_scan", "ios": "https://dc.lft.to/lastmile_qr_scan"}, "name": "901f4ac78a23f1ef9d94d87382bda042", "is_reserved": 0}, {"is_disabled": 0, "fusion_lon": 0.0, "fusion_lat": 0.0, "lat": 38.9324755, "type": "electric_scooter", "lon": -77.03277333333334, "bike_id": "8bead77c0c69ee56bd0665c8266ba74f", "rental_uris": {"android": "https://dc.lft.to/lastmile_qr_scan", "ios": "https://dc.lft.to/lastmile_qr_scan"}, "name": "8bead77c0c69ee56bd0665c8266ba74f", "is_reserved": 0}, {"is_disabled": 0, "fusion_lon": 0.0, "fusion_lat": 0.0, "lat": 38.901755, "type": "electric_scooter", "lon": -76.92824283333333, "bike_id": "4b388c60ebd0bcbaa47ad8eda84ef44c", "rental_uris": {"android": "https://dc.lft.to/lastmile_qr_scan", "ios": "https://dc.lft.to/lastmile_qr_scan"}, "name": "4b388c60ebd0bcbaa47ad8eda84ef44c", "is_reserved": 0}, {"is_disabled": 0, "fusion_lon": 0.0, "fusion_lat": 0.0, "lat": 38.90522283333333, "type": "electric_scooter", "lon": -77.04754866666667, "bike_id": "24dcbb1ef5aced9a47a921c9d9089b5f", "rental_uris": {"android": "https://dc.lft.to/lastmile_qr_scan", "ios": "https://dc.lft.to/lastmile_qr_scan"}, "name": "24dcbb1ef5aced9a47a921c9d9089b5f", "is_reserved": 0}, {"is_disabled": 0, "fusion_lon": 0.0, "fusion_lat": 0.0, "lat": 38.905381166666665, "type": "electric_scooter", "lon": -77.029641, "bike_id": "4c469176e1b0670458fe5a68ec25c59a", "rental_uris": {"android": "https://dc.lft.to/lastmile_qr_scan", "ios": "https://dc.lft.to/lastmile_qr_scan"}, "name": "4c469176e1b0670458fe5a68ec25c59a", "is_reserved": 0}, {"is_disabled": 0, "fusion_lon": 0.0, "fusion_lat": 0.0, "lat": 38.912581833333334, "type": "electric_scooter", "lon": -77.03266016666667, "bike_id": "dcce0ba64b56c23ffecc06669adaea4b", "rental_uris": {"android": "https://dc.lft.to/lastmile_qr_scan", "ios": "https://dc.lft.to/lastmile_qr_scan"}, "name": "dcce0ba64b56c23ffecc06669adaea4b", "is_reserved": 0}, {"is_disabled": 0, "fusion_lon": 0.0, "fusion_lat": 0.0, "lat": 38.915574, "type": "electric_scooter", "lon": -77.0327595, "bike_id": "c1dbb357c34761c97e8a3d2c5670c7fc", "rental_uris": {"android": "https://dc.lft.to/lastmile_qr_scan", "ios": "https://dc.lft.to/lastmile_qr_scan"}, "name": "c1dbb357c34761c97e8a3d2c5670c7fc", "is_reserved": 0}, {"is_disabled": 0, "fusion_lon": 0.0, "fusion_lat": 0.0, "lat": 38.9053695, "type": "electric_scooter", "lon": -77.02948866666667, "bike_id": "92c7b19fafc78e756d3f0ad180b3b08c", "rental_uris": {"android": "https://dc.lft.to/lastmile_qr_scan", "ios": "https://dc.lft.to/lastmile_qr_scan"}, "name": "92c7b19fafc78e756d3f0ad180b3b08c", "is_reserved": 0}, {"is_disabled": 0, "fusion_lon": 0.0, "fusion_lat": 0.0, "lat": 38.90237316666666, "type": "electric_scooter", "lon": -77.00199166666667, "bike_id": "f8b4f3a2389d7599363e8a7f4dfe3835", "rental_uris": {"android": "https://dc.lft.to/lastmile_qr_scan", "ios": "https://dc.lft.to/lastmile_qr_scan"}, "name": "f8b4f3a2389d7599363e8a7f4dfe3835", "is_reserved": 0}, {"is_disabled": 0, "fusion_lon": 0.0, "fusion_lat": 0.0, "lat": 38.91785866666667, "type": "electric_scooter", "lon": -77.02303733333333, "bike_id": "f269a07c0c0a7289ae432a77a92135bf", "rental_uris": {"android": "https://dc.lft.to/lastmile_qr_scan", "ios": "https://dc.lft.to/lastmile_qr_scan"}, "name": "f269a07c0c0a7289ae432a77a92135bf", "is_reserved": 0}, {"is_disabled": 0, "fusion_lon": 0.0, "fusion_lat": 0.0, "lat": 38.885018, "type": "electric_scooter", "lon": -77.0056635, "bike_id": "960cbf774bf4cf3a74c251420b53dfcc", "rental_uris": {"android": "https://dc.lft.to/lastmile_qr_scan", "ios": "https://dc.lft.to/lastmile_qr_scan"}, "name": "960cbf774bf4cf3a74c251420b53dfcc", "is_reserved": 0}, {"is_disabled": 0, "fusion_lon": 0.0, "fusion_lat": 0.0, "lat": 38.945174, "type": "electric_scooter", "lon": -77.0297745, "bike_id": "fa04880ad26244a8c535d957ea275357", "rental_uris": {"android": "https://dc.lft.to/lastmile_qr_scan", "ios": "https://dc.lft.to/lastmile_qr_scan"}, "name": "fa04880ad26244a8c535d957ea275357", "is_reserved": 0}, {"is_disabled": 0, "fusion_lon": 0.0, "fusion_lat": 0.0, "lat": 38.89820133333333, "type": "electric_scooter", "lon": -77.031307, "bike_id": "f55e373706ecc85e2980be336ef547fe", "rental_uris": {"android": "https://dc.lft.to/lastmile_qr_scan", "ios": "https://dc.lft.to/lastmile_qr_scan"}, "name": "f55e373706ecc85e2980be336ef547fe", "is_reserved": 0}, {"is_disabled": 0, "fusion_lon": 0.0, "fusion_lat": 0.0, "lat": 38.90594766666667, "type": "electric_scooter", "lon": -77.06373166666667, "bike_id": "2639115d116d5c034865c1dde62160f4", "rental_uris": {"android": "https://dc.lft.to/lastmile_qr_scan", "ios": "https://dc.lft.to/lastmile_qr_scan"}, "name": "2639115d116d5c034865c1dde62160f4", "is_reserved": 0}, {"is_disabled": 0, "fusion_lon": 0.0, "fusion_lat": 0.0, "lat": 38.910123, "type": "electric_scooter", "lon": -77.03648733333333, "bike_id": "f5b2ca981e104bf29baee9f9755f5dfa", "rental_uris": {"android": "https://dc.lft.to/lastmile_qr_scan", "ios": "https://dc.lft.to/lastmile_qr_scan"}, "name": "f5b2ca981e104bf29baee9f9755f5dfa", "is_reserved": 0}, {"is_disabled": 0, "fusion_lon": 0.0, "fusion_lat": 0.0, "lat": 38.88374616666667, "type": "electric_scooter", "lon": -76.92374866666667, "bike_id": "c5cb807d933b664038502f8359222b36", "rental_uris": {"android": "https://dc.lft.to/lastmile_qr_scan", "ios": "https://dc.lft.to/lastmile_qr_scan"}, "name": "c5cb807d933b664038502f8359222b36", "is_reserved": 0}, {"is_disabled": 0, "fusion_lon": 0.0, "fusion_lat": 0.0, "lat": 38.90263816666667, "type": "electric_scooter", "lon": -77.036411, "bike_id": "6e4aab2579fe1adef112614a6292b69b", "rental_uris": {"android": "https://dc.lft.to/lastmile_qr_scan", "ios": "https://dc.lft.to/lastmile_qr_scan"}, "name": "6e4aab2579fe1adef112614a6292b69b", "is_reserved": 0}, {"is_disabled": 0, "fusion_lon": 0.0, "fusion_lat": 0.0, "lat": 38.90524883333333, "type": "electric_scooter", "lon": -77.04084766666666, "bike_id": "be698592dbc7616b7d7193582b7d7366", "rental_uris": {"android": "https://dc.lft.to/lastmile_qr_scan", "ios": "https://dc.lft.to/lastmile_qr_scan"}, "name": "be698592dbc7616b7d7193582b7d7366", "is_reserved": 0}, {"is_disabled": 0, "fusion_lon": 0.0, "fusion_lat": 0.0, "lat": 38.92412683333333, "type": "electric_scooter", "lon": -76.99738866666667, "bike_id": "56db6720dd6cacca244d18b8a6b73c73", "rental_uris": {"android": "https://dc.lft.to/lastmile_qr_scan", "ios": "https://dc.lft.to/lastmile_qr_scan"}, "name": "56db6720dd6cacca244d18b8a6b73c73", "is_reserved": 0}, {"is_disabled": 0, "fusion_lon": 0.0, "fusion_lat": 0.0, "lat": 38.902036833333334, "type": "electric_scooter", "lon": -76.98190916666667, "bike_id": "6d41153d9fa7cef3a8e2261f8df07aef", "rental_uris": {"android": "https://dc.lft.to/lastmile_qr_scan", "ios": "https://dc.lft.to/lastmile_qr_scan"}, "name": "6d41153d9fa7cef3a8e2261f8df07aef", "is_reserved": 0}, {"is_disabled": 0, "fusion_lon": 0.0, "fusion_lat": 0.0, "lat": 38.84618316666667, "type": "electric_scooter", "lon": -76.99631183333334, "bike_id": "2535038f81cae286cc45892360b7bb02", "rental_uris": {"android": "https://dc.lft.to/lastmile_qr_scan", "ios": "https://dc.lft.to/lastmile_qr_scan"}, "name": "2535038f81cae286cc45892360b7bb02", "is_reserved": 0}, {"is_disabled": 0, "fusion_lon": 0.0, "fusion_lat": 0.0, "lat": 38.90521283333333, "type": "electric_scooter", "lon": -77.04181566666666, "bike_id": "4a6487e87a6e5f8efc89b438575af462", "rental_uris": {"android": "https://dc.lft.to/lastmile_qr_scan", "ios": "https://dc.lft.to/lastmile_qr_scan"}, "name": "4a6487e87a6e5f8efc89b438575af462", "is_reserved": 0}, {"is_disabled": 0, "fusion_lon": 0.0, "fusion_lat": 0.0, "lat": 38.901378666666666, "type": "electric_scooter", "lon": -77.01631166666667, "bike_id": "643c99b646fa4d3360eb14d906019a97", "rental_uris": {"android": "https://dc.lft.to/lastmile_qr_scan", "ios": "https://dc.lft.to/lastmile_qr_scan"}, "name": "643c99b646fa4d3360eb14d906019a97", "is_reserved": 0}, {"is_disabled": 0, "fusion_lon": 0.0, "fusion_lat": 0.0, "lat": 38.863617, "type": "electric_scooter", "lon": -76.99057233333333, "bike_id": "b8c1b6f8679b234a521faf6ff33246fd", "rental_uris": {"android": "https://dc.lft.to/lastmile_qr_scan", "ios": "https://dc.lft.to/lastmile_qr_scan"}, "name": "b8c1b6f8679b234a521faf6ff33246fd", "is_reserved": 0}, {"is_disabled": 0, "fusion_lon": 0.0, "fusion_lat": 0.0, "lat": 38.91931533333333, "type": "electric_bike", "lon": -76.97506816666667, "bike_id": "823c5c61b4d3c82a817feb9a66a5f081", "rental_uris": {"android": "https://dc.lft.to/lastmile_qr_scan", "ios": "https://dc.lft.to/lastmile_qr_scan"}, "name": "823c5c61b4d3c82a817feb9a66a5f081", "is_reserved": 0}, {"is_disabled": 0, "fusion_lon": 0.0, "fusion_lat": 0.0, "lat": 38.904808833333334, "type": "electric_scooter", "lon": -77.0514525, "bike_id": "073d4b7bd594e8c846a43a5b1189147a", "rental_uris": {"android": "https://dc.lft.to/lastmile_qr_scan", "ios": "https://dc.lft.to/lastmile_qr_scan"}, "name": "073d4b7bd594e8c846a43a5b1189147a", "is_reserved": 0}, {"is_disabled": 0, "fusion_lon": 0.0, "fusion_lat": 0.0, "lat": 38.901421166666665, "type": "electric_scooter", "lon": -77.00074966666666, "bike_id": "bc927f297ce151780dbd7df12ec03934", "rental_uris": {"android": "https://dc.lft.to/lastmile_qr_scan", "ios": "https://dc.lft.to/lastmile_qr_scan"}, "name": "bc927f297ce151780dbd7df12ec03934", "is_reserved": 0}, {"is_disabled": 0, "fusion_lon": 0.0, "fusion_lat": 0.0, "lat": 38.917403166666666, "type": "electric_scooter", "lon": -77.04177033333333, "bike_id": "c75f53c2fc408d4b1e53712b2173810b", "rental_uris": {"android": "https://dc.lft.to/lastmile_qr_scan", "ios": "https://dc.lft.to/lastmile_qr_scan"}, "name": "c75f53c2fc408d4b1e53712b2173810b", "is_reserved": 0}, {"is_disabled": 0, "fusion_lon": 0.0, "fusion_lat": 0.0, "lat": 38.90020166666667, "type": "electric_scooter", "lon": -76.99637433333334, "bike_id": "100a13aeae9cb0aea496e8d5c71145bc", "rental_uris": {"android": "https://dc.lft.to/lastmile_qr_scan", "ios": "https://dc.lft.to/lastmile_qr_scan"}, "name": "100a13aeae9cb0aea496e8d5c71145bc", "is_reserved": 0}, {"is_disabled": 0, "fusion_lon": 0.0, "fusion_lat": 0.0, "lat": 38.94302583333333, "type": "electric_scooter", "lon": -77.02764466666666, "bike_id": "5fa316d331d1046301d4571d5551b447", "rental_uris": {"android": "https://dc.lft.to/lastmile_qr_scan", "ios": "https://dc.lft.to/lastmile_qr_scan"}, "name": "5fa316d331d1046301d4571d5551b447", "is_reserved": 0}, {"is_disabled": 0, "fusion_lon": 0.0, "fusion_lat": 0.0, "lat": 38.8952495, "type": "electric_scooter", "lon": -76.94890616666666, "bike_id": "0805eff9600d5edad2eaa62d19ba35b8", "rental_uris": {"android": "https://dc.lft.to/lastmile_qr_scan", "ios": "https://dc.lft.to/lastmile_qr_scan"}, "name": "0805eff9600d5edad2eaa62d19ba35b8", "is_reserved": 0}, {"is_disabled": 0, "fusion_lon": 0.0, "fusion_lat": 0.0, "lat": 38.914074, "type": "electric_scooter", "lon": -77.0417515, "bike_id": "c0cc0423c8d8c6cd0af2e1331d68f878", "rental_uris": {"android": "https://dc.lft.to/lastmile_qr_scan", "ios": "https://dc.lft.to/lastmile_qr_scan"}, "name": "c0cc0423c8d8c6cd0af2e1331d68f878", "is_reserved": 0}, {"is_disabled": 0, "fusion_lon": 0.0, "fusion_lat": 0.0, "lat": 38.891957, "type": "electric_scooter", "lon": -77.002985, "bike_id": "c8c77d979092011ca88fa6af7f80743e", "rental_uris": {"android": "https://dc.lft.to/lastmile_qr_scan", "ios": "https://dc.lft.to/lastmile_qr_scan"}, "name": "c8c77d979092011ca88fa6af7f80743e", "is_reserved": 0}, {"is_disabled": 0, "fusion_lon": 0.0, "fusion_lat": 0.0, "lat": 38.90108166666667, "type": "electric_scooter", "lon": -77.05981616666666, "bike_id": "0e240e18c1d29e8338d2a490354ac25c", "rental_uris": {"android": "https://dc.lft.to/lastmile_qr_scan", "ios": "https://dc.lft.to/lastmile_qr_scan"}, "name": "0e240e18c1d29e8338d2a490354ac25c", "is_reserved": 0}, {"is_disabled": 0, "fusion_lon": 0.0, "fusion_lat": 0.0, "lat": 38.9368905, "type": "electric_scooter", "lon": -77.03285566666666, "bike_id": "b5534bcf2a6945bece5a0f14530e44a4", "rental_uris": {"android": "https://dc.lft.to/lastmile_qr_scan", "ios": "https://dc.lft.to/lastmile_qr_scan"}, "name": "b5534bcf2a6945bece5a0f14530e44a4", "is_reserved": 0}, {"is_disabled": 0, "fusion_lon": 0.0, "fusion_lat": 0.0, "lat": 38.88081366666667, "type": "electric_scooter", "lon": -77.00652533333333, "bike_id": "ee1f44b383a926f69dff1c73f337a397", "rental_uris": {"android": "https://dc.lft.to/lastmile_qr_scan", "ios": "https://dc.lft.to/lastmile_qr_scan"}, "name": "ee1f44b383a926f69dff1c73f337a397", "is_reserved": 0}, {"is_disabled": 0, "fusion_lon": 0.0, "fusion_lat": 0.0, "lat": 38.916070833333336, "type": "electric_scooter", "lon": -77.02482983333333, "bike_id": "7d11544bb71ae07ae9ef89748d410616", "rental_uris": {"android": "https://dc.lft.to/lastmile_qr_scan", "ios": "https://dc.lft.to/lastmile_qr_scan"}, "name": "7d11544bb71ae07ae9ef89748d410616", "is_reserved": 0}, {"is_disabled": 0, "fusion_lon": 0.0, "fusion_lat": 0.0, "lat": 38.952016, "type": "electric_bike", "lon": -77.02368533333333, "bike_id": "4d38edbf13ca9fd4a0c14ae05118a097", "rental_uris": {"android": "https://dc.lft.to/lastmile_qr_scan", "ios": "https://dc.lft.to/lastmile_qr_scan"}, "name": "4d38edbf13ca9fd4a0c14ae05118a097", "is_reserved": 0}, {"is_disabled": 0, "fusion_lon": 0.0, "fusion_lat": 0.0, "lat": 38.919829166666666, "type": "electric_scooter", "lon": -77.0380575, "bike_id": "44af35dce78937cc5cc2d206e2f403ae", "rental_uris": {"android": "https://dc.lft.to/lastmile_qr_scan", "ios": "https://dc.lft.to/lastmile_qr_scan"}, "name": "44af35dce78937cc5cc2d206e2f403ae", "is_reserved": 0}, {"is_disabled": 0, "fusion_lon": 0.0, "fusion_lat": 0.0, "lat": 38.924943166666665, "type": "electric_scooter", "lon": -77.03931866666667, "bike_id": "d82e93543e279d493bde08d7adee9d99", "rental_uris": {"android": "https://dc.lft.to/lastmile_qr_scan", "ios": "https://dc.lft.to/lastmile_qr_scan"}, "name": "d82e93543e279d493bde08d7adee9d99", "is_reserved": 0}, {"is_disabled": 0, "fusion_lon": 0.0, "fusion_lat": 0.0, "lat": 38.90584233333333, "type": "electric_scooter", "lon": -77.02398983333333, "bike_id": "53f05e7334ab411db13680c66ccc71c0", "rental_uris": {"android": "https://dc.lft.to/lastmile_qr_scan", "ios": "https://dc.lft.to/lastmile_qr_scan"}, "name": "53f05e7334ab411db13680c66ccc71c0", "is_reserved": 0}, {"is_disabled": 0, "fusion_lon": 0.0, "fusion_lat": 0.0, "lat": 38.9563095, "type": "electric_scooter", "lon": -77.02979666666667, "bike_id": "b48334ba77679744e6806ab36786a90c", "rental_uris": {"android": "https://dc.lft.to/lastmile_qr_scan", "ios": "https://dc.lft.to/lastmile_qr_scan"}, "name": "b48334ba77679744e6806ab36786a90c", "is_reserved": 0}, {"is_disabled": 0, "fusion_lon": 0.0, "fusion_lat": 0.0, "lat": 38.902724, "type": "electric_scooter", "lon": -77.03846433333334, "bike_id": "f051f8b77624902d5f8c7cdf99161e25", "rental_uris": {"android": "https://dc.lft.to/lastmile_qr_scan", "ios": "https://dc.lft.to/lastmile_qr_scan"}, "name": "f051f8b77624902d5f8c7cdf99161e25", "is_reserved": 0}, {"is_disabled": 0, "fusion_lon": 0.0, "fusion_lat": 0.0, "lat": 38.948497833333334, "type": "electric_bike", "lon": -77.026864, "bike_id": "b1578fb3cee3ef4499a86c23c36a5479", "rental_uris": {"android": "https://dc.lft.to/lastmile_qr_scan", "ios": "https://dc.lft.to/lastmile_qr_scan"}, "name": "b1578fb3cee3ef4499a86c23c36a5479", "is_reserved": 0}, {"is_disabled": 0, "fusion_lon": 0.0, "fusion_lat": 0.0, "lat": 38.902213333333336, "type": "electric_scooter", "lon": -77.04642783333334, "bike_id": "6ae57d701fd96bcf2e25d339294728e4", "rental_uris": {"android": "https://dc.lft.to/lastmile_qr_scan", "ios": "https://dc.lft.to/lastmile_qr_scan"}, "name": "6ae57d701fd96bcf2e25d339294728e4", "is_reserved": 0}, {"is_disabled": 0, "fusion_lon": 0.0, "fusion_lat": 0.0, "lat": 38.910850333333336, "type": "electric_bike", "lon": -76.98479933333333, "bike_id": "39617f901189f4054551fec5d51d67b6", "rental_uris": {"android": "https://dc.lft.to/lastmile_qr_scan", "ios": "https://dc.lft.to/lastmile_qr_scan"}, "name": "39617f901189f4054551fec5d51d67b6", "is_reserved": 0}, {"is_disabled": 0, "fusion_lon": 0.0, "fusion_lat": 0.0, "lat": 38.907116333333335, "type": "electric_scooter", "lon": -77.03959916666666, "bike_id": "617ca89dc13b05bcee064f6772792616", "rental_uris": {"android": "https://dc.lft.to/lastmile_qr_scan", "ios": "https://dc.lft.to/lastmile_qr_scan"}, "name": "617ca89dc13b05bcee064f6772792616", "is_reserved": 0}, {"is_disabled": 0, "fusion_lon": 0.0, "fusion_lat": 0.0, "lat": 38.850633, "type": "electric_bike", "lon": -76.97329766666667, "bike_id": "128aa2e68a05f1266e19ec7b684728ac", "rental_uris": {"android": "https://dc.lft.to/lastmile_qr_scan", "ios": "https://dc.lft.to/lastmile_qr_scan"}, "name": "128aa2e68a05f1266e19ec7b684728ac", "is_reserved": 0}, {"is_disabled": 0, "fusion_lon": 0.0, "fusion_lat": 0.0, "lat": 38.8812115, "type": "electric_scooter", "lon": -76.9959705, "bike_id": "a5cad458b7daa20c72030aaf05640f8f", "rental_uris": {"android": "https://dc.lft.to/lastmile_qr_scan", "ios": "https://dc.lft.to/lastmile_qr_scan"}, "name": "a5cad458b7daa20c72030aaf05640f8f", "is_reserved": 0}, {"is_disabled": 0, "fusion_lon": 0.0, "fusion_lat": 0.0, "lat": 38.89600133333333, "type": "electric_scooter", "lon": -77.011228, "bike_id": "709768a87edaa85c41d8ab23e4297ab1", "rental_uris": {"android": "https://dc.lft.to/lastmile_qr_scan", "ios": "https://dc.lft.to/lastmile_qr_scan"}, "name": "709768a87edaa85c41d8ab23e4297ab1", "is_reserved": 0}, {"is_disabled": 0, "fusion_lon": 0.0, "fusion_lat": 0.0, "lat": 38.916774, "type": "electric_scooter", "lon": -77.01576733333333, "bike_id": "6676c35aa20fc56e3fc2d9ce12ffd0bc", "rental_uris": {"android": "https://dc.lft.to/lastmile_qr_scan", "ios": "https://dc.lft.to/lastmile_qr_scan"}, "name": "6676c35aa20fc56e3fc2d9ce12ffd0bc", "is_reserved": 0}, {"is_disabled": 0, "fusion_lon": 0.0, "fusion_lat": 0.0, "lat": 38.905884666666665, "type": "electric_scooter", "lon": -77.0239435, "bike_id": "1855b4b4b00ff00824118d4cbbd95c30", "rental_uris": {"android": "https://dc.lft.to/lastmile_qr_scan", "ios": "https://dc.lft.to/lastmile_qr_scan"}, "name": "1855b4b4b00ff00824118d4cbbd95c30", "is_reserved": 0}, {"is_disabled": 0, "fusion_lon": 0.0, "fusion_lat": 0.0, "lat": 38.99668416666667, "type": "electric_bike", "lon": -76.991412, "bike_id": "7159aec733a2131d4f849cac58e87922", "rental_uris": {"android": "https://dc.lft.to/lastmile_qr_scan", "ios": "https://dc.lft.to/lastmile_qr_scan"}, "name": "7159aec733a2131d4f849cac58e87922", "is_reserved": 0}, {"is_disabled": 0, "fusion_lon": 0.0, "fusion_lat": 0.0, "lat": 38.911035166666665, "type": "electric_scooter", "lon": -77.03179866666666, "bike_id": "5bcac5b5ebcdd831ef4732d2bd75629e", "rental_uris": {"android": "https://dc.lft.to/lastmile_qr_scan", "ios": "https://dc.lft.to/lastmile_qr_scan"}, "name": "5bcac5b5ebcdd831ef4732d2bd75629e", "is_reserved": 0}, {"is_disabled": 0, "fusion_lon": 0.0, "fusion_lat": 0.0, "lat": 38.875704, "type": "electric_scooter", "lon": -77.02081633333333, "bike_id": "e1891a6fed4018a78d8a510c7f636a4c", "rental_uris": {"android": "https://dc.lft.to/lastmile_qr_scan", "ios": "https://dc.lft.to/lastmile_qr_scan"}, "name": "e1891a6fed4018a78d8a510c7f636a4c", "is_reserved": 0}, {"is_disabled": 0, "fusion_lon": 0.0, "fusion_lat": 0.0, "lat": 38.903654, "type": "electric_scooter", "lon": -77.0111455, "bike_id": "31b60eb5654c8053c0fe452765ff1981", "rental_uris": {"android": "https://dc.lft.to/lastmile_qr_scan", "ios": "https://dc.lft.to/lastmile_qr_scan"}, "name": "31b60eb5654c8053c0fe452765ff1981", "is_reserved": 0}, {"is_disabled": 0, "fusion_lon": 0.0, "fusion_lat": 0.0, "lat": 38.90719333333333, "type": "electric_scooter", "lon": -77.02981716666666, "bike_id": "94b1461bd0806fa52f8e82fefafac6af", "rental_uris": {"android": "https://dc.lft.to/lastmile_qr_scan", "ios": "https://dc.lft.to/lastmile_qr_scan"}, "name": "94b1461bd0806fa52f8e82fefafac6af", "is_reserved": 0}, {"is_disabled": 0, "fusion_lon": 0.0, "fusion_lat": 0.0, "lat": 38.91249366666667, "type": "electric_scooter", "lon": -77.02226533333334, "bike_id": "28a18a88e7d50d759cc9398de8805817", "rental_uris": {"android": "https://dc.lft.to/lastmile_qr_scan", "ios": "https://dc.lft.to/lastmile_qr_scan"}, "name": "28a18a88e7d50d759cc9398de8805817", "is_reserved": 0}, {"is_disabled": 0, "fusion_lon": 0.0, "fusion_lat": 0.0, "lat": 38.89831, "type": "electric_scooter", "lon": -77.022251, "bike_id": "c2115098f9a68c466445598f86bbf5b5", "rental_uris": {"android": "https://dc.lft.to/lastmile_qr_scan", "ios": "https://dc.lft.to/lastmile_qr_scan"}, "name": "c2115098f9a68c466445598f86bbf5b5", "is_reserved": 0}, {"is_disabled": 0, "fusion_lon": 0.0, "fusion_lat": 0.0, "lat": 38.909519833333334, "type": "electric_scooter", "lon": -77.02716, "bike_id": "82f19b8fdd82df4bafae57e5384950b9", "rental_uris": {"android": "https://dc.lft.to/lastmile_qr_scan", "ios": "https://dc.lft.to/lastmile_qr_scan"}, "name": "82f19b8fdd82df4bafae57e5384950b9", "is_reserved": 0}, {"is_disabled": 0, "fusion_lon": 0.0, "fusion_lat": 0.0, "lat": 38.9020655, "type": "electric_scooter", "lon": -77.04792583333334, "bike_id": "12d9fd59232be99bae83239651a3d9cb", "rental_uris": {"android": "https://dc.lft.to/lastmile_qr_scan", "ios": "https://dc.lft.to/lastmile_qr_scan"}, "name": "12d9fd59232be99bae83239651a3d9cb", "is_reserved": 0}, {"is_disabled": 0, "fusion_lon": 0.0, "fusion_lat": 0.0, "lat": 38.892177333333336, "type": "electric_scooter", "lon": -77.0226075, "bike_id": "aed94e87bbb39f82feaf344aeaf7dc71", "rental_uris": {"android": "https://dc.lft.to/lastmile_qr_scan", "ios": "https://dc.lft.to/lastmile_qr_scan"}, "name": "aed94e87bbb39f82feaf344aeaf7dc71", "is_reserved": 0}, {"is_disabled": 0, "fusion_lon": 0.0, "fusion_lat": 0.0, "lat": 38.9103405, "type": "electric_scooter", "lon": -77.01374366666667, "bike_id": "0c3372ab129322fb8a760b018d4b4706", "rental_uris": {"android": "https://dc.lft.to/lastmile_qr_scan", "ios": "https://dc.lft.to/lastmile_qr_scan"}, "name": "0c3372ab129322fb8a760b018d4b4706", "is_reserved": 0}, {"is_disabled": 0, "fusion_lon": 0.0, "fusion_lat": 0.0, "lat": 38.93103633333333, "type": "electric_scooter", "lon": -77.04119966666667, "bike_id": "db4b72f536e8079aa04cb8e7e1131057", "rental_uris": {"android": "https://dc.lft.to/lastmile_qr_scan", "ios": "https://dc.lft.to/lastmile_qr_scan"}, "name": "db4b72f536e8079aa04cb8e7e1131057", "is_reserved": 0}, {"is_disabled": 0, "fusion_lon": 0.0, "fusion_lat": 0.0, "lat": 38.919103, "type": "electric_scooter", "lon": -77.030239, "bike_id": "2bb82321905b59afbecb5a62cae0173d", "rental_uris": {"android": "https://dc.lft.to/lastmile_qr_scan", "ios": "https://dc.lft.to/lastmile_qr_scan"}, "name": "2bb82321905b59afbecb5a62cae0173d", "is_reserved": 0}, {"is_disabled": 0, "fusion_lon": 0.0, "fusion_lat": 0.0, "lat": 38.90782216666667, "type": "electric_scooter", "lon": -77.045161, "bike_id": "050be2c2235188e49b42c73b47644392", "rental_uris": {"android": "https://dc.lft.to/lastmile_qr_scan", "ios": "https://dc.lft.to/lastmile_qr_scan"}, "name": "050be2c2235188e49b42c73b47644392", "is_reserved": 0}, {"is_disabled": 0, "fusion_lon": 0.0, "fusion_lat": 0.0, "lat": 38.94982266666667, "type": "electric_scooter", "lon": -77.02704083333333, "bike_id": "d425a951394ce85b29beb119728a30b4", "rental_uris": {"android": "https://dc.lft.to/lastmile_qr_scan", "ios": "https://dc.lft.to/lastmile_qr_scan"}, "name": "d425a951394ce85b29beb119728a30b4", "is_reserved": 0}, {"is_disabled": 0, "fusion_lon": 0.0, "fusion_lat": 0.0, "lat": 38.89164016666667, "type": "electric_scooter", "lon": -77.01541716666667, "bike_id": "f53a30828ab7cd642fb5cc0b8a1092e6", "rental_uris": {"android": "https://dc.lft.to/lastmile_qr_scan", "ios": "https://dc.lft.to/lastmile_qr_scan"}, "name": "f53a30828ab7cd642fb5cc0b8a1092e6", "is_reserved": 0}, {"is_disabled": 0, "fusion_lon": 0.0, "fusion_lat": 0.0, "lat": 38.85804683333333, "type": "electric_scooter", "lon": -76.98655, "bike_id": "e2668a2805c3de5e14bee2dcd82eabb6", "rental_uris": {"android": "https://dc.lft.to/lastmile_qr_scan", "ios": "https://dc.lft.to/lastmile_qr_scan"}, "name": "e2668a2805c3de5e14bee2dcd82eabb6", "is_reserved": 0}, {"is_disabled": 0, "fusion_lon": 0.0, "fusion_lat": 0.0, "lat": 38.906756666666666, "type": "electric_scooter", "lon": -77.037688, "bike_id": "287563d496906ccd11772f3125ee89c6", "rental_uris": {"android": "https://dc.lft.to/lastmile_qr_scan", "ios": "https://dc.lft.to/lastmile_qr_scan"}, "name": "287563d496906ccd11772f3125ee89c6", "is_reserved": 0}, {"is_disabled": 0, "fusion_lon": 0.0, "fusion_lat": 0.0, "lat": 38.92825283333333, "type": "electric_scooter", "lon": -77.02255316666667, "bike_id": "f8c86259ecc4064cf63409a7e6481877", "rental_uris": {"android": "https://dc.lft.to/lastmile_qr_scan", "ios": "https://dc.lft.to/lastmile_qr_scan"}, "name": "f8c86259ecc4064cf63409a7e6481877", "is_reserved": 0}, {"is_disabled": 0, "fusion_lon": 0.0, "fusion_lat": 0.0, "lat": 38.89527116666667, "type": "electric_scooter", "lon": -77.0294165, "bike_id": "f717f34f643f24dc12602f7e064b7977", "rental_uris": {"android": "https://dc.lft.to/lastmile_qr_scan", "ios": "https://dc.lft.to/lastmile_qr_scan"}, "name": "f717f34f643f24dc12602f7e064b7977", "is_reserved": 0}, {"is_disabled": 0, "fusion_lon": 0.0, "fusion_lat": 0.0, "lat": 38.9675905, "type": "electric_bike", "lon": -77.09164966666667, "bike_id": "17fce619907e90000bc023fdd3e7f675", "rental_uris": {"android": "https://dc.lft.to/lastmile_qr_scan", "ios": "https://dc.lft.to/lastmile_qr_scan"}, "name": "17fce619907e90000bc023fdd3e7f675", "is_reserved": 0}, {"is_disabled": 0, "fusion_lon": 0.0, "fusion_lat": 0.0, "lat": 38.901297, "type": "electric_scooter", "lon": -77.01199233333334, "bike_id": "01eff63fd36b086aa45cd36d0cda6847", "rental_uris": {"android": "https://dc.lft.to/lastmile_qr_scan", "ios": "https://dc.lft.to/lastmile_qr_scan"}, "name": "01eff63fd36b086aa45cd36d0cda6847", "is_reserved": 0}, {"is_disabled": 0, "fusion_lon": 0.0, "fusion_lat": 0.0, "lat": 38.91249766666667, "type": "electric_scooter", "lon": -77.01691033333333, "bike_id": "99e64a2bb70a087e12700ae2bff187be", "rental_uris": {"android": "https://dc.lft.to/lastmile_qr_scan", "ios": "https://dc.lft.to/lastmile_qr_scan"}, "name": "99e64a2bb70a087e12700ae2bff187be", "is_reserved": 0}, {"is_disabled": 0, "fusion_lon": 0.0, "fusion_lat": 0.0, "lat": 38.916822, "type": "electric_scooter", "lon": -77.04663016666667, "bike_id": "bd122100c02ac383b184da3ea59f2301", "rental_uris": {"android": "https://dc.lft.to/lastmile_qr_scan", "ios": "https://dc.lft.to/lastmile_qr_scan"}, "name": "bd122100c02ac383b184da3ea59f2301", "is_reserved": 0}, {"is_disabled": 0, "fusion_lon": 0.0, "fusion_lat": 0.0, "lat": 38.892232, "type": "electric_scooter", "lon": -77.04659516666666, "bike_id": "782725c330ae02d154a40021c479c4ac", "rental_uris": {"android": "https://dc.lft.to/lastmile_qr_scan", "ios": "https://dc.lft.to/lastmile_qr_scan"}, "name": "782725c330ae02d154a40021c479c4ac", "is_reserved": 0}, {"is_disabled": 0, "fusion_lon": 0.0, "fusion_lat": 0.0, "lat": 38.888904, "type": "electric_scooter", "lon": -77.01550866666666, "bike_id": "893fadd7efcd6734248ba516fbafe45d", "rental_uris": {"android": "https://dc.lft.to/lastmile_qr_scan", "ios": "https://dc.lft.to/lastmile_qr_scan"}, "name": "893fadd7efcd6734248ba516fbafe45d", "is_reserved": 0}, {"is_disabled": 0, "fusion_lon": 0.0, "fusion_lat": 0.0, "lat": 38.90504516666667, "type": "electric_bike", "lon": -77.05694766666667, "bike_id": "1dbd5c1bdbbc65abd4a8259ee08f06ef", "rental_uris": {"android": "https://dc.lft.to/lastmile_qr_scan", "ios": "https://dc.lft.to/lastmile_qr_scan"}, "name": "1dbd5c1bdbbc65abd4a8259ee08f06ef", "is_reserved": 0}, {"is_disabled": 0, "fusion_lon": 0.0, "fusion_lat": 0.0, "lat": 38.998465333333336, "type": "electric_bike", "lon": -77.028909, "bike_id": "1e90a4a1a4e60b83c6249c41c8268e7f", "rental_uris": {"android": "https://dc.lft.to/lastmile_qr_scan", "ios": "https://dc.lft.to/lastmile_qr_scan"}, "name": "1e90a4a1a4e60b83c6249c41c8268e7f", "is_reserved": 0}, {"is_disabled": 0, "fusion_lon": 0.0, "fusion_lat": 0.0, "lat": 38.90141933333334, "type": "electric_scooter", "lon": -77.04164316666666, "bike_id": "f2f299e7f38de363fcfad70c37b69b76", "rental_uris": {"android": "https://dc.lft.to/lastmile_qr_scan", "ios": "https://dc.lft.to/lastmile_qr_scan"}, "name": "f2f299e7f38de363fcfad70c37b69b76", "is_reserved": 0}, {"is_disabled": 0, "fusion_lon": 0.0, "fusion_lat": 0.0, "lat": 38.916786333333334, "type": "electric_scooter", "lon": -77.02695766666666, "bike_id": "426906067cd0474b4ac0d2d83b4a5986", "rental_uris": {"android": "https://dc.lft.to/lastmile_qr_scan", "ios": "https://dc.lft.to/lastmile_qr_scan"}, "name": "426906067cd0474b4ac0d2d83b4a5986", "is_reserved": 0}, {"is_disabled": 0, "fusion_lon": 0.0, "fusion_lat": 0.0, "lat": 38.86247516666667, "type": "electric_scooter", "lon": -76.995309, "bike_id": "8f226f35da861cc4ebef34af36996628", "rental_uris": {"android": "https://dc.lft.to/lastmile_qr_scan", "ios": "https://dc.lft.to/lastmile_qr_scan"}, "name": "8f226f35da861cc4ebef34af36996628", "is_reserved": 0}, {"is_disabled": 0, "fusion_lon": 0.0, "fusion_lat": 0.0, "lat": 38.887057166666665, "type": "electric_scooter", "lon": -76.95363883333333, "bike_id": "b4c2659c89ba211a8721079822e1d662", "rental_uris": {"android": "https://dc.lft.to/lastmile_qr_scan", "ios": "https://dc.lft.to/lastmile_qr_scan"}, "name": "b4c2659c89ba211a8721079822e1d662", "is_reserved": 0}, {"is_disabled": 0, "fusion_lon": 0.0, "fusion_lat": 0.0, "lat": 38.842893333333336, "type": "electric_scooter", "lon": -76.99948083333334, "bike_id": "2548f95accd8c550e50747a73703acd1", "rental_uris": {"android": "https://dc.lft.to/lastmile_qr_scan", "ios": "https://dc.lft.to/lastmile_qr_scan"}, "name": "2548f95accd8c550e50747a73703acd1", "is_reserved": 0}, {"is_disabled": 0, "fusion_lon": 0.0, "fusion_lat": 0.0, "lat": 38.8952195, "type": "electric_scooter", "lon": -76.94892283333333, "bike_id": "60c272315a83cd65a7cdb753faddc0f0", "rental_uris": {"android": "https://dc.lft.to/lastmile_qr_scan", "ios": "https://dc.lft.to/lastmile_qr_scan"}, "name": "60c272315a83cd65a7cdb753faddc0f0", "is_reserved": 0}, {"is_disabled": 0, "fusion_lon": 0.0, "fusion_lat": 0.0, "lat": 38.9000635, "type": "electric_scooter", "lon": -77.0066855, "bike_id": "e96f512f516c4457999859dcbd084c83", "rental_uris": {"android": "https://dc.lft.to/lastmile_qr_scan", "ios": "https://dc.lft.to/lastmile_qr_scan"}, "name": "e96f512f516c4457999859dcbd084c83", "is_reserved": 0}, {"is_disabled": 0, "fusion_lon": 0.0, "fusion_lat": 0.0, "lat": 38.919132833333336, "type": "electric_scooter", "lon": -77.03181333333333, "bike_id": "9f6336ad1358e9b79306b07654549705", "rental_uris": {"android": "https://dc.lft.to/lastmile_qr_scan", "ios": "https://dc.lft.to/lastmile_qr_scan"}, "name": "9f6336ad1358e9b79306b07654549705", "is_reserved": 0}, {"is_disabled": 0, "fusion_lon": 0.0, "fusion_lat": 0.0, "lat": 38.9173635, "type": "electric_scooter", "lon": -77.0366075, "bike_id": "fc1a1899ccb717af8e2d77a38a1b462c", "rental_uris": {"android": "https://dc.lft.to/lastmile_qr_scan", "ios": "https://dc.lft.to/lastmile_qr_scan"}, "name": "fc1a1899ccb717af8e2d77a38a1b462c", "is_reserved": 0}, {"is_disabled": 0, "fusion_lon": 0.0, "fusion_lat": 0.0, "lat": 38.904294166666666, "type": "electric_scooter", "lon": -77.0260415, "bike_id": "827d4a544e091e15a57f8a5f47b9400d", "rental_uris": {"android": "https://dc.lft.to/lastmile_qr_scan", "ios": "https://dc.lft.to/lastmile_qr_scan"}, "name": "827d4a544e091e15a57f8a5f47b9400d", "is_reserved": 0}, {"is_disabled": 0, "fusion_lon": 0.0, "fusion_lat": 0.0, "lat": 38.8874505, "type": "electric_scooter", "lon": -76.99627583333333, "bike_id": "9f6046dd06a9b1fde77754f9824ba6ee", "rental_uris": {"android": "https://dc.lft.to/lastmile_qr_scan", "ios": "https://dc.lft.to/lastmile_qr_scan"}, "name": "9f6046dd06a9b1fde77754f9824ba6ee", "is_reserved": 0}, {"is_disabled": 0, "fusion_lon": 0.0, "fusion_lat": 0.0, "lat": 38.896998833333335, "type": "electric_scooter", "lon": -76.94717016666667, "bike_id": "26cbddaa5670a21642321cda7c41bacc", "rental_uris": {"android": "https://dc.lft.to/lastmile_qr_scan", "ios": "https://dc.lft.to/lastmile_qr_scan"}, "name": "26cbddaa5670a21642321cda7c41bacc", "is_reserved": 0}, {"is_disabled": 0, "fusion_lon": 0.0, "fusion_lat": 0.0, "lat": 38.90357483333333, "type": "electric_scooter", "lon": -77.02511566666666, "bike_id": "8948ca2e6274a410765efcc7f6d620cf", "rental_uris": {"android": "https://dc.lft.to/lastmile_qr_scan", "ios": "https://dc.lft.to/lastmile_qr_scan"}, "name": "8948ca2e6274a410765efcc7f6d620cf", "is_reserved": 0}, {"is_disabled": 0, "fusion_lon": 0.0, "fusion_lat": 0.0, "lat": 38.93168683333333, "type": "electric_scooter", "lon": -77.03667816666666, "bike_id": "a5adf0b94a61f8b9b80fbebc541626ef", "rental_uris": {"android": "https://dc.lft.to/lastmile_qr_scan", "ios": "https://dc.lft.to/lastmile_qr_scan"}, "name": "a5adf0b94a61f8b9b80fbebc541626ef", "is_reserved": 0}, {"is_disabled": 0, "fusion_lon": 0.0, "fusion_lat": 0.0, "lat": 38.8765855, "type": "electric_scooter", "lon": -77.01735233333333, "bike_id": "4b1e2e8c4e4a8100e5366f23e580152a", "rental_uris": {"android": "https://dc.lft.to/lastmile_qr_scan", "ios": "https://dc.lft.to/lastmile_qr_scan"}, "name": "4b1e2e8c4e4a8100e5366f23e580152a", "is_reserved": 0}, {"is_disabled": 0, "fusion_lon": 0.0, "fusion_lat": 0.0, "lat": 38.895845, "type": "electric_scooter", "lon": -77.02319333333334, "bike_id": "ff6b1cfd3c0c32aba5d2a06c3500544a", "rental_uris": {"android": "https://dc.lft.to/lastmile_qr_scan", "ios": "https://dc.lft.to/lastmile_qr_scan"}, "name": "ff6b1cfd3c0c32aba5d2a06c3500544a", "is_reserved": 0}, {"is_disabled": 0, "fusion_lon": 0.0, "fusion_lat": 0.0, "lat": 38.9024815, "type": "electric_scooter", "lon": -76.9986145, "bike_id": "79eabeec9996e3217613076f1e851cc9", "rental_uris": {"android": "https://dc.lft.to/lastmile_qr_scan", "ios": "https://dc.lft.to/lastmile_qr_scan"}, "name": "79eabeec9996e3217613076f1e851cc9", "is_reserved": 0}, {"is_disabled": 0, "fusion_lon": 0.0, "fusion_lat": 0.0, "lat": 38.884997166666665, "type": "electric_scooter", "lon": -77.00563366666667, "bike_id": "f1e384cf24fc5bf80c38e3979c709790", "rental_uris": {"android": "https://dc.lft.to/lastmile_qr_scan", "ios": "https://dc.lft.to/lastmile_qr_scan"}, "name": "f1e384cf24fc5bf80c38e3979c709790", "is_reserved": 0}, {"is_disabled": 0, "fusion_lon": 0.0, "fusion_lat": 0.0, "lat": 38.92906166666667, "type": "electric_scooter", "lon": -77.03243683333334, "bike_id": "6960567f420049ab9d8556c0714ed09a", "rental_uris": {"android": "https://dc.lft.to/lastmile_qr_scan", "ios": "https://dc.lft.to/lastmile_qr_scan"}, "name": "6960567f420049ab9d8556c0714ed09a", "is_reserved": 0}, {"is_disabled": 0, "fusion_lon": 0.0, "fusion_lat": 0.0, "lat": 38.92157666666667, "type": "electric_scooter", "lon": -77.034595, "bike_id": "efae43cd06762a09ee0a01aa1c52f441", "rental_uris": {"android": "https://dc.lft.to/lastmile_qr_scan", "ios": "https://dc.lft.to/lastmile_qr_scan"}, "name": "efae43cd06762a09ee0a01aa1c52f441", "is_reserved": 0}, {"is_disabled": 0, "fusion_lon": 0.0, "fusion_lat": 0.0, "lat": 38.90470283333333, "type": "electric_scooter", "lon": -77.04857683333333, "bike_id": "0f3c6bf9848b19d22ee5213d25129422", "rental_uris": {"android": "https://dc.lft.to/lastmile_qr_scan", "ios": "https://dc.lft.to/lastmile_qr_scan"}, "name": "0f3c6bf9848b19d22ee5213d25129422", "is_reserved": 0}, {"is_disabled": 0, "fusion_lon": 0.0, "fusion_lat": 0.0, "lat": 39.02493833333333, "type": "electric_bike", "lon": -77.12567666666666, "bike_id": "efbb45e81301dca934f91c5644b99135", "rental_uris": {"android": "https://dc.lft.to/lastmile_qr_scan", "ios": "https://dc.lft.to/lastmile_qr_scan"}, "name": "efbb45e81301dca934f91c5644b99135", "is_reserved": 0}, {"is_disabled": 0, "fusion_lon": 0.0, "fusion_lat": 0.0, "lat": 38.94306916666667, "type": "electric_scooter", "lon": -77.061747, "bike_id": "62b0233573d6282f3a1bc5bed81deb12", "rental_uris": {"android": "https://dc.lft.to/lastmile_qr_scan", "ios": "https://dc.lft.to/lastmile_qr_scan"}, "name": "62b0233573d6282f3a1bc5bed81deb12", "is_reserved": 0}, {"is_disabled": 0, "fusion_lon": 0.0, "fusion_lat": 0.0, "lat": 38.9392345, "type": "electric_scooter", "lon": -77.07467616666666, "bike_id": "01a44d62a97aa59f48983d6ead6ab07f", "rental_uris": {"android": "https://dc.lft.to/lastmile_qr_scan", "ios": "https://dc.lft.to/lastmile_qr_scan"}, "name": "01a44d62a97aa59f48983d6ead6ab07f", "is_reserved": 0}, {"is_disabled": 0, "fusion_lon": 0.0, "fusion_lat": 0.0, "lat": 38.916819333333336, "type": "electric_scooter", "lon": -77.02970666666667, "bike_id": "00f982b298b32a55cedfc269ded8da4e", "rental_uris": {"android": "https://dc.lft.to/lastmile_qr_scan", "ios": "https://dc.lft.to/lastmile_qr_scan"}, "name": "00f982b298b32a55cedfc269ded8da4e", "is_reserved": 0}, {"is_disabled": 0, "fusion_lon": 0.0, "fusion_lat": 0.0, "lat": 38.92629633333333, "type": "electric_scooter", "lon": -77.035047, "bike_id": "82bc1209c20cca54fe13c6642f948438", "rental_uris": {"android": "https://dc.lft.to/lastmile_qr_scan", "ios": "https://dc.lft.to/lastmile_qr_scan"}, "name": "82bc1209c20cca54fe13c6642f948438", "is_reserved": 0}, {"is_disabled": 0, "fusion_lon": 0.0, "fusion_lat": 0.0, "lat": 38.89748933333333, "type": "electric_scooter", "lon": -77.00352433333333, "bike_id": "70457079eca57439c348d9fd5977aace", "rental_uris": {"android": "https://dc.lft.to/lastmile_qr_scan", "ios": "https://dc.lft.to/lastmile_qr_scan"}, "name": "70457079eca57439c348d9fd5977aace", "is_reserved": 0}, {"is_disabled": 0, "fusion_lon": 0.0, "fusion_lat": 0.0, "lat": 38.8900805, "type": "electric_scooter", "lon": -76.93839716666666, "bike_id": "bc541d29276b58c206e1848e04457f73", "rental_uris": {"android": "https://dc.lft.to/lastmile_qr_scan", "ios": "https://dc.lft.to/lastmile_qr_scan"}, "name": "bc541d29276b58c206e1848e04457f73", "is_reserved": 0}, {"is_disabled": 0, "fusion_lon": 0.0, "fusion_lat": 0.0, "lat": 38.93088483333333, "type": "electric_scooter", "lon": -77.03623583333334, "bike_id": "0dde5a117efc06359a5bfbdbf2d06121", "rental_uris": {"android": "https://dc.lft.to/lastmile_qr_scan", "ios": "https://dc.lft.to/lastmile_qr_scan"}, "name": "0dde5a117efc06359a5bfbdbf2d06121", "is_reserved": 0}, {"is_disabled": 0, "fusion_lon": 0.0, "fusion_lat": 0.0, "lat": 38.93060633333333, "type": "electric_scooter", "lon": -77.0296405, "bike_id": "085093167c37c8d3f99601d488782e72", "rental_uris": {"android": "https://dc.lft.to/lastmile_qr_scan", "ios": "https://dc.lft.to/lastmile_qr_scan"}, "name": "085093167c37c8d3f99601d488782e72", "is_reserved": 0}, {"is_disabled": 0, "fusion_lon": 0.0, "fusion_lat": 0.0, "lat": 38.896057, "type": "electric_scooter", "lon": -77.04541116666667, "bike_id": "c7bb1c052f18ccbb12ae5c494561b058", "rental_uris": {"android": "https://dc.lft.to/lastmile_qr_scan", "ios": "https://dc.lft.to/lastmile_qr_scan"}, "name": "c7bb1c052f18ccbb12ae5c494561b058", "is_reserved": 0}, {"is_disabled": 0, "fusion_lon": 0.0, "fusion_lat": 0.0, "lat": 38.897318166666665, "type": "electric_scooter", "lon": -77.0424095, "bike_id": "a1224d678e83550ff9ce76e8417d0ae1", "rental_uris": {"android": "https://dc.lft.to/lastmile_qr_scan", "ios": "https://dc.lft.to/lastmile_qr_scan"}, "name": "a1224d678e83550ff9ce76e8417d0ae1", "is_reserved": 0}, {"is_disabled": 0, "fusion_lon": 0.0, "fusion_lat": 0.0, "lat": 38.87916533333333, "type": "electric_bike", "lon": -77.022713, "bike_id": "c56450337080a98e9c469860cf3974a7", "rental_uris": {"android": "https://dc.lft.to/lastmile_qr_scan", "ios": "https://dc.lft.to/lastmile_qr_scan"}, "name": "c56450337080a98e9c469860cf3974a7", "is_reserved": 0}, {"is_disabled": 0, "fusion_lon": 0.0, "fusion_lat": 0.0, "lat": 38.91843716666666, "type": "electric_scooter", "lon": -77.03217183333334, "bike_id": "3f54a3e35151cee2f69c7af9e21c129d", "rental_uris": {"android": "https://dc.lft.to/lastmile_qr_scan", "ios": "https://dc.lft.to/lastmile_qr_scan"}, "name": "3f54a3e35151cee2f69c7af9e21c129d", "is_reserved": 0}, {"is_disabled": 0, "fusion_lon": 0.0, "fusion_lat": 0.0, "lat": 38.89836566666666, "type": "electric_scooter", "lon": -77.029181, "bike_id": "9ee19ee3537abd752bb91cef426c7416", "rental_uris": {"android": "https://dc.lft.to/lastmile_qr_scan", "ios": "https://dc.lft.to/lastmile_qr_scan"}, "name": "9ee19ee3537abd752bb91cef426c7416", "is_reserved": 0}, {"is_disabled": 0, "fusion_lon": 0.0, "fusion_lat": 0.0, "lat": 38.9168695, "type": "electric_scooter", "lon": -77.02740183333333, "bike_id": "c38bc25a636075a7e1ab63f3bf646b21", "rental_uris": {"android": "https://dc.lft.to/lastmile_qr_scan", "ios": "https://dc.lft.to/lastmile_qr_scan"}, "name": "c38bc25a636075a7e1ab63f3bf646b21", "is_reserved": 0}, {"is_disabled": 0, "fusion_lon": 0.0, "fusion_lat": 0.0, "lat": 38.9002365, "type": "electric_scooter", "lon": -77.0336375, "bike_id": "fcee13785d425d5a56ddfe7dda087e93", "rental_uris": {"android": "https://dc.lft.to/lastmile_qr_scan", "ios": "https://dc.lft.to/lastmile_qr_scan"}, "name": "fcee13785d425d5a56ddfe7dda087e93", "is_reserved": 0}, {"is_disabled": 0, "fusion_lon": 0.0, "fusion_lat": 0.0, "lat": 38.917336166666665, "type": "electric_scooter", "lon": -77.0364405, "bike_id": "6568550059e338ed1f540d1fd366b5d0", "rental_uris": {"android": "https://dc.lft.to/lastmile_qr_scan", "ios": "https://dc.lft.to/lastmile_qr_scan"}, "name": "6568550059e338ed1f540d1fd366b5d0", "is_reserved": 0}, {"is_disabled": 0, "fusion_lon": 0.0, "fusion_lat": 0.0, "lat": 38.9169445, "type": "electric_scooter", "lon": -77.03216716666667, "bike_id": "04f635cc297a1ed1cb953fd330328672", "rental_uris": {"android": "https://dc.lft.to/lastmile_qr_scan", "ios": "https://dc.lft.to/lastmile_qr_scan"}, "name": "04f635cc297a1ed1cb953fd330328672", "is_reserved": 0}, {"is_disabled": 0, "fusion_lon": 0.0, "fusion_lat": 0.0, "lat": 38.924179333333335, "type": "electric_scooter", "lon": -77.02005083333333, "bike_id": "0263303b24c4637eb5bb85de7dd06e9d", "rental_uris": {"android": "https://dc.lft.to/lastmile_qr_scan", "ios": "https://dc.lft.to/lastmile_qr_scan"}, "name": "0263303b24c4637eb5bb85de7dd06e9d", "is_reserved": 0}, {"is_disabled": 0, "fusion_lon": 0.0, "fusion_lat": 0.0, "lat": 38.89772983333334, "type": "electric_scooter", "lon": -77.05019916666667, "bike_id": "29387c33f9737bc29ebabf95a736454a", "rental_uris": {"android": "https://dc.lft.to/lastmile_qr_scan", "ios": "https://dc.lft.to/lastmile_qr_scan"}, "name": "29387c33f9737bc29ebabf95a736454a", "is_reserved": 0}, {"is_disabled": 0, "fusion_lon": 0.0, "fusion_lat": 0.0, "lat": 38.8967705, "type": "electric_scooter", "lon": -76.9352915, "bike_id": "67cd193082457ea11bc6b11759e72133", "rental_uris": {"android": "https://dc.lft.to/lastmile_qr_scan", "ios": "https://dc.lft.to/lastmile_qr_scan"}, "name": "67cd193082457ea11bc6b11759e72133", "is_reserved": 0}, {"is_disabled": 0, "fusion_lon": 0.0, "fusion_lat": 0.0, "lat": 38.90559716666667, "type": "electric_scooter", "lon": -77.00586733333333, "bike_id": "348b85e631a2cd4bc2119e112caf3edc", "rental_uris": {"android": "https://dc.lft.to/lastmile_qr_scan", "ios": "https://dc.lft.to/lastmile_qr_scan"}, "name": "348b85e631a2cd4bc2119e112caf3edc", "is_reserved": 0}, {"is_disabled": 0, "fusion_lon": 0.0, "fusion_lat": 0.0, "lat": 38.921331, "type": "electric_scooter", "lon": -77.04502233333334, "bike_id": "c40854744796ed9cde0581e4532ba703", "rental_uris": {"android": "https://dc.lft.to/lastmile_qr_scan", "ios": "https://dc.lft.to/lastmile_qr_scan"}, "name": "c40854744796ed9cde0581e4532ba703", "is_reserved": 0}, {"is_disabled": 0, "fusion_lon": 0.0, "fusion_lat": 0.0, "lat": 38.877751833333335, "type": "electric_scooter", "lon": -77.01435183333334, "bike_id": "e0725f28fb09a6e59fdbb2db2b2b83f5", "rental_uris": {"android": "https://dc.lft.to/lastmile_qr_scan", "ios": "https://dc.lft.to/lastmile_qr_scan"}, "name": "e0725f28fb09a6e59fdbb2db2b2b83f5", "is_reserved": 0}, {"is_disabled": 0, "fusion_lon": 0.0, "fusion_lat": 0.0, "lat": 38.98130966666667, "type": "electric_bike", "lon": -77.007662, "bike_id": "b30fc6ef64127e0dcdf8c885e23655a9", "rental_uris": {"android": "https://dc.lft.to/lastmile_qr_scan", "ios": "https://dc.lft.to/lastmile_qr_scan"}, "name": "b30fc6ef64127e0dcdf8c885e23655a9", "is_reserved": 0}, {"is_disabled": 0, "fusion_lon": 0.0, "fusion_lat": 0.0, "lat": 38.90053, "type": "electric_scooter", "lon": -77.00762233333333, "bike_id": "95b6186949cbc794e3db149b6137bd84", "rental_uris": {"android": "https://dc.lft.to/lastmile_qr_scan", "ios": "https://dc.lft.to/lastmile_qr_scan"}, "name": "95b6186949cbc794e3db149b6137bd84", "is_reserved": 0}, {"is_disabled": 0, "fusion_lon": 0.0, "fusion_lat": 0.0, "lat": 38.84875533333334, "type": "electric_scooter", "lon": -77.005195, "bike_id": "b90e6041cf59737d71fd0a9a33fc7b32", "rental_uris": {"android": "https://dc.lft.to/lastmile_qr_scan", "ios": "https://dc.lft.to/lastmile_qr_scan"}, "name": "b90e6041cf59737d71fd0a9a33fc7b32", "is_reserved": 0}, {"is_disabled": 0, "fusion_lon": 0.0, "fusion_lat": 0.0, "lat": 38.91866, "type": "electric_scooter", "lon": -77.0445015, "bike_id": "de8c5e66f1706916e6586745f1c20c0e", "rental_uris": {"android": "https://dc.lft.to/lastmile_qr_scan", "ios": "https://dc.lft.to/lastmile_qr_scan"}, "name": "de8c5e66f1706916e6586745f1c20c0e", "is_reserved": 0}, {"is_disabled": 0, "fusion_lon": 0.0, "fusion_lat": 0.0, "lat": 38.92599, "type": "electric_scooter", "lon": -77.02154983333334, "bike_id": "ee35531de8289dfc16f2e0648be2bdb9", "rental_uris": {"android": "https://dc.lft.to/lastmile_qr_scan", "ios": "https://dc.lft.to/lastmile_qr_scan"}, "name": "ee35531de8289dfc16f2e0648be2bdb9", "is_reserved": 0}, {"is_disabled": 0, "fusion_lon": 0.0, "fusion_lat": 0.0, "lat": 38.91810433333333, "type": "electric_scooter", "lon": -77.0415735, "bike_id": "afbd384aee8243b91e1e1ee354d1d696", "rental_uris": {"android": "https://dc.lft.to/lastmile_qr_scan", "ios": "https://dc.lft.to/lastmile_qr_scan"}, "name": "afbd384aee8243b91e1e1ee354d1d696", "is_reserved": 0}, {"is_disabled": 0, "fusion_lon": 0.0, "fusion_lat": 0.0, "lat": 38.92073166666667, "type": "electric_scooter", "lon": -77.02393066666667, "bike_id": "d01140db17966a2dd5515c472ee5ba09", "rental_uris": {"android": "https://dc.lft.to/lastmile_qr_scan", "ios": "https://dc.lft.to/lastmile_qr_scan"}, "name": "d01140db17966a2dd5515c472ee5ba09", "is_reserved": 0}, {"is_disabled": 0, "fusion_lon": 0.0, "fusion_lat": 0.0, "lat": 38.960528833333335, "type": "electric_scooter", "lon": -77.08571966666666, "bike_id": "cd17ee6f9c4eabec4ee41ab61c7e2257", "rental_uris": {"android": "https://dc.lft.to/lastmile_qr_scan", "ios": "https://dc.lft.to/lastmile_qr_scan"}, "name": "cd17ee6f9c4eabec4ee41ab61c7e2257", "is_reserved": 0}, {"is_disabled": 0, "fusion_lon": 0.0, "fusion_lat": 0.0, "lat": 38.89845866666667, "type": "electric_scooter", "lon": -76.94456166666667, "bike_id": "4b79046de64f1c8f078303291f498a4e", "rental_uris": {"android": "https://dc.lft.to/lastmile_qr_scan", "ios": "https://dc.lft.to/lastmile_qr_scan"}, "name": "4b79046de64f1c8f078303291f498a4e", "is_reserved": 0}, {"is_disabled": 0, "fusion_lon": 0.0, "fusion_lat": 0.0, "lat": 38.893222333333334, "type": "electric_scooter", "lon": -77.0212885, "bike_id": "7dc4d97330b5a6f9b20fe4928f1ad3c9", "rental_uris": {"android": "https://dc.lft.to/lastmile_qr_scan", "ios": "https://dc.lft.to/lastmile_qr_scan"}, "name": "7dc4d97330b5a6f9b20fe4928f1ad3c9", "is_reserved": 0}, {"is_disabled": 0, "fusion_lon": 0.0, "fusion_lat": 0.0, "lat": 38.91755216666667, "type": "electric_bike", "lon": -76.98964816666667, "bike_id": "34afdced37713c65b499651150ac3c5f", "rental_uris": {"android": "https://dc.lft.to/lastmile_qr_scan", "ios": "https://dc.lft.to/lastmile_qr_scan"}, "name": "34afdced37713c65b499651150ac3c5f", "is_reserved": 0}, {"is_disabled": 0, "fusion_lon": 0.0, "fusion_lat": 0.0, "lat": 38.940765, "type": "electric_scooter", "lon": -77.02720766666667, "bike_id": "3dcb28bf6cd6594ef0f9254ad3c1677d", "rental_uris": {"android": "https://dc.lft.to/lastmile_qr_scan", "ios": "https://dc.lft.to/lastmile_qr_scan"}, "name": "3dcb28bf6cd6594ef0f9254ad3c1677d", "is_reserved": 0}, {"is_disabled": 0, "fusion_lon": 0.0, "fusion_lat": 0.0, "lat": 38.907810833333336, "type": "electric_scooter", "lon": -77.04509133333333, "bike_id": "3dd9f4401401be68b9c8d0bf2d5af828", "rental_uris": {"android": "https://dc.lft.to/lastmile_qr_scan", "ios": "https://dc.lft.to/lastmile_qr_scan"}, "name": "3dd9f4401401be68b9c8d0bf2d5af828", "is_reserved": 0}, {"is_disabled": 0, "fusion_lon": 0.0, "fusion_lat": 0.0, "lat": 38.890412833333336, "type": "electric_scooter", "lon": -76.93750833333333, "bike_id": "3d38904160ea2d52444c0c1066566963", "rental_uris": {"android": "https://dc.lft.to/lastmile_qr_scan", "ios": "https://dc.lft.to/lastmile_qr_scan"}, "name": "3d38904160ea2d52444c0c1066566963", "is_reserved": 0}, {"is_disabled": 0, "fusion_lon": 0.0, "fusion_lat": 0.0, "lat": 38.89769366666667, "type": "electric_scooter", "lon": -77.05128666666667, "bike_id": "c730352ec3ff2323e69eef46267dec08", "rental_uris": {"android": "https://dc.lft.to/lastmile_qr_scan", "ios": "https://dc.lft.to/lastmile_qr_scan"}, "name": "c730352ec3ff2323e69eef46267dec08", "is_reserved": 0}, {"is_disabled": 0, "fusion_lon": 0.0, "fusion_lat": 0.0, "lat": 38.9066495, "type": "electric_scooter", "lon": -77.038523, "bike_id": "234912be98c0c6c0013cd7defd9ba468", "rental_uris": {"android": "https://dc.lft.to/lastmile_qr_scan", "ios": "https://dc.lft.to/lastmile_qr_scan"}, "name": "234912be98c0c6c0013cd7defd9ba468", "is_reserved": 0}, {"is_disabled": 0, "fusion_lon": 0.0, "fusion_lat": 0.0, "lat": 38.902246, "type": "electric_scooter", "lon": -77.01755, "bike_id": "d908d3bfe30527e0eee3864e4c408859", "rental_uris": {"android": "https://dc.lft.to/lastmile_qr_scan", "ios": "https://dc.lft.to/lastmile_qr_scan"}, "name": "d908d3bfe30527e0eee3864e4c408859", "is_reserved": 0}, {"is_disabled": 0, "fusion_lon": 0.0, "fusion_lat": 0.0, "lat": 38.903431499999996, "type": "electric_scooter", "lon": -77.0435035, "bike_id": "ccc2529e7b6a649377d36d7f1582eb06", "rental_uris": {"android": "https://dc.lft.to/lastmile_qr_scan", "ios": "https://dc.lft.to/lastmile_qr_scan"}, "name": "ccc2529e7b6a649377d36d7f1582eb06", "is_reserved": 0}, {"is_disabled": 0, "fusion_lon": 0.0, "fusion_lat": 0.0, "lat": 39.022985, "type": "electric_bike", "lon": -77.02106266666667, "bike_id": "453a31f178feac927dfb6f4195ef4f7d", "rental_uris": {"android": "https://dc.lft.to/lastmile_qr_scan", "ios": "https://dc.lft.to/lastmile_qr_scan"}, "name": "453a31f178feac927dfb6f4195ef4f7d", "is_reserved": 0}, {"is_disabled": 0, "fusion_lon": 0.0, "fusion_lat": 0.0, "lat": 38.9449375, "type": "electric_bike", "lon": -77.00681616666667, "bike_id": "ff60ca9800a42f11f8a9c8ac5232239a", "rental_uris": {"android": "https://dc.lft.to/lastmile_qr_scan", "ios": "https://dc.lft.to/lastmile_qr_scan"}, "name": "ff60ca9800a42f11f8a9c8ac5232239a", "is_reserved": 0}, {"is_disabled": 0, "fusion_lon": 0.0, "fusion_lat": 0.0, "lat": 38.915573, "type": "electric_scooter", "lon": -77.0387265, "bike_id": "70fdcfd3a6c89119fd8eeddb9ca752a2", "rental_uris": {"android": "https://dc.lft.to/lastmile_qr_scan", "ios": "https://dc.lft.to/lastmile_qr_scan"}, "name": "70fdcfd3a6c89119fd8eeddb9ca752a2", "is_reserved": 0}, {"is_disabled": 0, "fusion_lon": 0.0, "fusion_lat": 0.0, "lat": 38.93403716666667, "type": "electric_scooter", "lon": -77.03265383333333, "bike_id": "3464172b6099cd7f9690cf284b43e4b6", "rental_uris": {"android": "https://dc.lft.to/lastmile_qr_scan", "ios": "https://dc.lft.to/lastmile_qr_scan"}, "name": "3464172b6099cd7f9690cf284b43e4b6", "is_reserved": 0}, {"is_disabled": 0, "fusion_lon": 0.0, "fusion_lat": 0.0, "lat": 38.89722833333333, "type": "electric_scooter", "lon": -77.05187116666667, "bike_id": "d2de83ad2e5db7ed18fa691e779ab496", "rental_uris": {"android": "https://dc.lft.to/lastmile_qr_scan", "ios": "https://dc.lft.to/lastmile_qr_scan"}, "name": "d2de83ad2e5db7ed18fa691e779ab496", "is_reserved": 0}, {"is_disabled": 0, "fusion_lon": 0.0, "fusion_lat": 0.0, "lat": 38.921922, "type": "electric_scooter", "lon": -77.01853316666667, "bike_id": "324a12f6e28935bd27c50b59e99830b7", "rental_uris": {"android": "https://dc.lft.to/lastmile_qr_scan", "ios": "https://dc.lft.to/lastmile_qr_scan"}, "name": "324a12f6e28935bd27c50b59e99830b7", "is_reserved": 0}, {"is_disabled": 0, "fusion_lon": 0.0, "fusion_lat": 0.0, "lat": 38.917728833333335, "type": "electric_scooter", "lon": -77.03207883333333, "bike_id": "70b5f160ff0b7b21bd2645146e0ab143", "rental_uris": {"android": "https://dc.lft.to/lastmile_qr_scan", "ios": "https://dc.lft.to/lastmile_qr_scan"}, "name": "70b5f160ff0b7b21bd2645146e0ab143", "is_reserved": 0}, {"is_disabled": 0, "fusion_lon": 0.0, "fusion_lat": 0.0, "lat": 38.9154645, "type": "electric_scooter", "lon": -77.03148083333333, "bike_id": "3e92247b2fe34979e54f53956a7a7182", "rental_uris": {"android": "https://dc.lft.to/lastmile_qr_scan", "ios": "https://dc.lft.to/lastmile_qr_scan"}, "name": "3e92247b2fe34979e54f53956a7a7182", "is_reserved": 0}, {"is_disabled": 0, "fusion_lon": 0.0, "fusion_lat": 0.0, "lat": 38.91796266666667, "type": "electric_scooter", "lon": -77.03566483333333, "bike_id": "b638ff64538b00dfb0ab3e5cec44e338", "rental_uris": {"android": "https://dc.lft.to/lastmile_qr_scan", "ios": "https://dc.lft.to/lastmile_qr_scan"}, "name": "b638ff64538b00dfb0ab3e5cec44e338", "is_reserved": 0}, {"is_disabled": 0, "fusion_lon": 0.0, "fusion_lat": 0.0, "lat": 38.892531166666664, "type": "electric_scooter", "lon": -76.99848916666667, "bike_id": "037e6284e2beb7c1ce8a3f6b962da7c6", "rental_uris": {"android": "https://dc.lft.to/lastmile_qr_scan", "ios": "https://dc.lft.to/lastmile_qr_scan"}, "name": "037e6284e2beb7c1ce8a3f6b962da7c6", "is_reserved": 0}, {"is_disabled": 0, "fusion_lon": 0.0, "fusion_lat": 0.0, "lat": 38.91548783333333, "type": "electric_scooter", "lon": -77.02369433333334, "bike_id": "1c4115660ca2355acb975d37d22d17b3", "rental_uris": {"android": "https://dc.lft.to/lastmile_qr_scan", "ios": "https://dc.lft.to/lastmile_qr_scan"}, "name": "1c4115660ca2355acb975d37d22d17b3", "is_reserved": 0}, {"is_disabled": 0, "fusion_lon": 0.0, "fusion_lat": 0.0, "lat": 38.865912, "type": "electric_bike", "lon": -76.93228983333333, "bike_id": "515a477a7944a4cbaf10eb3ec5e9af10", "rental_uris": {"android": "https://dc.lft.to/lastmile_qr_scan", "ios": "https://dc.lft.to/lastmile_qr_scan"}, "name": "515a477a7944a4cbaf10eb3ec5e9af10", "is_reserved": 0}, {"is_disabled": 0, "fusion_lon": 0.0, "fusion_lat": 0.0, "lat": 38.88221516666667, "type": "electric_scooter", "lon": -76.9908175, "bike_id": "f005c75ac795c5d13a074fc6977f6bc5", "rental_uris": {"android": "https://dc.lft.to/lastmile_qr_scan", "ios": "https://dc.lft.to/lastmile_qr_scan"}, "name": "f005c75ac795c5d13a074fc6977f6bc5", "is_reserved": 0}, {"is_disabled": 0, "fusion_lon": 0.0, "fusion_lat": 0.0, "lat": 38.91924233333334, "type": "electric_scooter", "lon": -77.03426016666667, "bike_id": "8ba521ffbe962514c318969b5362b3b6", "rental_uris": {"android": "https://dc.lft.to/lastmile_qr_scan", "ios": "https://dc.lft.to/lastmile_qr_scan"}, "name": "8ba521ffbe962514c318969b5362b3b6", "is_reserved": 0}, {"is_disabled": 0, "fusion_lon": 0.0, "fusion_lat": 0.0, "lat": 38.897375833333335, "type": "electric_scooter", "lon": -77.04725816666667, "bike_id": "f445348c51157743f00f7fc4e0f9287d", "rental_uris": {"android": "https://dc.lft.to/lastmile_qr_scan", "ios": "https://dc.lft.to/lastmile_qr_scan"}, "name": "f445348c51157743f00f7fc4e0f9287d", "is_reserved": 0}, {"is_disabled": 0, "fusion_lon": 0.0, "fusion_lat": 0.0, "lat": 38.890136166666665, "type": "electric_scooter", "lon": -76.93737833333333, "bike_id": "d49ca29bea123d74ab8e8b83589f6d2a", "rental_uris": {"android": "https://dc.lft.to/lastmile_qr_scan", "ios": "https://dc.lft.to/lastmile_qr_scan"}, "name": "d49ca29bea123d74ab8e8b83589f6d2a", "is_reserved": 0}, {"is_disabled": 0, "fusion_lon": 0.0, "fusion_lat": 0.0, "lat": 38.90744516666667, "type": "electric_scooter", "lon": -77.03477183333334, "bike_id": "a4ebe61e667b3cc67cfd49e3b1e32e94", "rental_uris": {"android": "https://dc.lft.to/lastmile_qr_scan", "ios": "https://dc.lft.to/lastmile_qr_scan"}, "name": "a4ebe61e667b3cc67cfd49e3b1e32e94", "is_reserved": 0}, {"is_disabled": 0, "fusion_lon": 0.0, "fusion_lat": 0.0, "lat": 38.8521405, "type": "electric_bike", "lon": -77.12756183333333, "bike_id": "e988531c0aeac0c1c47a5f645e3ce7c6", "rental_uris": {"android": "https://dc.lft.to/lastmile_qr_scan", "ios": "https://dc.lft.to/lastmile_qr_scan"}, "name": "e988531c0aeac0c1c47a5f645e3ce7c6", "is_reserved": 0}, {"is_disabled": 0, "fusion_lon": 0.0, "fusion_lat": 0.0, "lat": 38.919908666666664, "type": "electric_scooter", "lon": -76.98396083333333, "bike_id": "173790b399106e159627ca47803c4408", "rental_uris": {"android": "https://dc.lft.to/lastmile_qr_scan", "ios": "https://dc.lft.to/lastmile_qr_scan"}, "name": "173790b399106e159627ca47803c4408", "is_reserved": 0}, {"is_disabled": 0, "fusion_lon": 0.0, "fusion_lat": 0.0, "lat": 38.901021166666666, "type": "electric_scooter", "lon": -77.0337495, "bike_id": "0c38ec09162a70d279a754d5d0c5b9b8", "rental_uris": {"android": "https://dc.lft.to/lastmile_qr_scan", "ios": "https://dc.lft.to/lastmile_qr_scan"}, "name": "0c38ec09162a70d279a754d5d0c5b9b8", "is_reserved": 0}, {"is_disabled": 0, "fusion_lon": 0.0, "fusion_lat": 0.0, "lat": 38.908703333333335, "type": "electric_scooter", "lon": -77.04356766666666, "bike_id": "9b1cbe1f50bf5719879a4634d6d5f398", "rental_uris": {"android": "https://dc.lft.to/lastmile_qr_scan", "ios": "https://dc.lft.to/lastmile_qr_scan"}, "name": "9b1cbe1f50bf5719879a4634d6d5f398", "is_reserved": 0}, {"is_disabled": 0, "fusion_lon": 0.0, "fusion_lat": 0.0, "lat": 38.887432, "type": "electric_scooter", "lon": -77.025711, "bike_id": "3665c7ca8f6e0d7f36868a14232f1606", "rental_uris": {"android": "https://dc.lft.to/lastmile_qr_scan", "ios": "https://dc.lft.to/lastmile_qr_scan"}, "name": "3665c7ca8f6e0d7f36868a14232f1606", "is_reserved": 0}, {"is_disabled": 0, "fusion_lon": 0.0, "fusion_lat": 0.0, "lat": 38.8965845, "type": "electric_scooter", "lon": -77.05038483333334, "bike_id": "f4296c12e3fb63728fe6d15e23f9355c", "rental_uris": {"android": "https://dc.lft.to/lastmile_qr_scan", "ios": "https://dc.lft.to/lastmile_qr_scan"}, "name": "f4296c12e3fb63728fe6d15e23f9355c", "is_reserved": 0}, {"is_disabled": 0, "fusion_lon": 0.0, "fusion_lat": 0.0, "lat": 38.9188195, "type": "electric_scooter", "lon": -77.041739, "bike_id": "db95c057e22ba94c3c78e4c79e413a0a", "rental_uris": {"android": "https://dc.lft.to/lastmile_qr_scan", "ios": "https://dc.lft.to/lastmile_qr_scan"}, "name": "db95c057e22ba94c3c78e4c79e413a0a", "is_reserved": 0}, {"is_disabled": 0, "fusion_lon": 0.0, "fusion_lat": 0.0, "lat": 38.927887166666665, "type": "electric_scooter", "lon": -77.031091, "bike_id": "3ce19ecb97a74730709431d7ea29e612", "rental_uris": {"android": "https://dc.lft.to/lastmile_qr_scan", "ios": "https://dc.lft.to/lastmile_qr_scan"}, "name": "3ce19ecb97a74730709431d7ea29e612", "is_reserved": 0}, {"is_disabled": 0, "fusion_lon": 0.0, "fusion_lat": 0.0, "lat": 38.89717783333333, "type": "electric_scooter", "lon": -77.019859, "bike_id": "606cec5003293025c3649a1f65f82718", "rental_uris": {"android": "https://dc.lft.to/lastmile_qr_scan", "ios": "https://dc.lft.to/lastmile_qr_scan"}, "name": "606cec5003293025c3649a1f65f82718", "is_reserved": 0}, {"is_disabled": 0, "fusion_lon": 0.0, "fusion_lat": 0.0, "lat": 38.90549433333333, "type": "electric_scooter", "lon": -77.0054515, "bike_id": "9db556f93cf7589f61cbbfdafbab6a28", "rental_uris": {"android": "https://dc.lft.to/lastmile_qr_scan", "ios": "https://dc.lft.to/lastmile_qr_scan"}, "name": "9db556f93cf7589f61cbbfdafbab6a28", "is_reserved": 0}, {"is_disabled": 0, "fusion_lon": 0.0, "fusion_lat": 0.0, "lat": 38.901478, "type": "electric_scooter", "lon": -77.039595, "bike_id": "3e7e5fb602bfd5a6cf88c75e4cc50e36", "rental_uris": {"android": "https://dc.lft.to/lastmile_qr_scan", "ios": "https://dc.lft.to/lastmile_qr_scan"}, "name": "3e7e5fb602bfd5a6cf88c75e4cc50e36", "is_reserved": 0}, {"is_disabled": 0, "fusion_lon": 0.0, "fusion_lat": 0.0, "lat": 38.898564666666665, "type": "electric_scooter", "lon": -77.03349883333334, "bike_id": "9c7b9ce338478105312c5ca53c883e65", "rental_uris": {"android": "https://dc.lft.to/lastmile_qr_scan", "ios": "https://dc.lft.to/lastmile_qr_scan"}, "name": "9c7b9ce338478105312c5ca53c883e65", "is_reserved": 0}, {"is_disabled": 0, "fusion_lon": 0.0, "fusion_lat": 0.0, "lat": 38.904260666666666, "type": "electric_scooter", "lon": -77.05144983333334, "bike_id": "6a06f8b29d9265832e4323b5bdfdf9a9", "rental_uris": {"android": "https://dc.lft.to/lastmile_qr_scan", "ios": "https://dc.lft.to/lastmile_qr_scan"}, "name": "6a06f8b29d9265832e4323b5bdfdf9a9", "is_reserved": 0}, {"is_disabled": 0, "fusion_lon": 0.0, "fusion_lat": 0.0, "lat": 38.9177005, "type": "electric_scooter", "lon": -77.02309516666666, "bike_id": "9f69a901910639728f8b013f19597772", "rental_uris": {"android": "https://dc.lft.to/lastmile_qr_scan", "ios": "https://dc.lft.to/lastmile_qr_scan"}, "name": "9f69a901910639728f8b013f19597772", "is_reserved": 0}, {"is_disabled": 0, "fusion_lon": 0.0, "fusion_lat": 0.0, "lat": 38.953949333333334, "type": "electric_scooter", "lon": -77.02755083333334, "bike_id": "333d264799833ee45edfb0c939ff7255", "rental_uris": {"android": "https://dc.lft.to/lastmile_qr_scan", "ios": "https://dc.lft.to/lastmile_qr_scan"}, "name": "333d264799833ee45edfb0c939ff7255", "is_reserved": 0}, {"is_disabled": 0, "fusion_lon": 0.0, "fusion_lat": 0.0, "lat": 38.908298, "type": "electric_scooter", "lon": -77.0488045, "bike_id": "8352ddc42a9e7bc29dd2646d870a3f0e", "rental_uris": {"android": "https://dc.lft.to/lastmile_qr_scan", "ios": "https://dc.lft.to/lastmile_qr_scan"}, "name": "8352ddc42a9e7bc29dd2646d870a3f0e", "is_reserved": 0}, {"is_disabled": 0, "fusion_lon": 0.0, "fusion_lat": 0.0, "lat": 38.91269, "type": "electric_scooter", "lon": -77.03642733333334, "bike_id": "1c0f55fc017c6acb23ce5c1b04f73576", "rental_uris": {"android": "https://dc.lft.to/lastmile_qr_scan", "ios": "https://dc.lft.to/lastmile_qr_scan"}, "name": "1c0f55fc017c6acb23ce5c1b04f73576", "is_reserved": 0}, {"is_disabled": 0, "fusion_lon": 0.0, "fusion_lat": 0.0, "lat": 38.85780166666667, "type": "electric_bike", "lon": -76.9876125, "bike_id": "b41fe9852d3bbcb00078ade07308f652", "rental_uris": {"android": "https://dc.lft.to/lastmile_qr_scan", "ios": "https://dc.lft.to/lastmile_qr_scan"}, "name": "b41fe9852d3bbcb00078ade07308f652", "is_reserved": 0}, {"is_disabled": 0, "fusion_lon": 0.0, "fusion_lat": 0.0, "lat": 38.90213966666666, "type": "electric_scooter", "lon": -77.01792066666667, "bike_id": "3c6e3b3876af3cadc0a6c9035cb35145", "rental_uris": {"android": "https://dc.lft.to/lastmile_qr_scan", "ios": "https://dc.lft.to/lastmile_qr_scan"}, "name": "3c6e3b3876af3cadc0a6c9035cb35145", "is_reserved": 0}, {"is_disabled": 0, "fusion_lon": 0.0, "fusion_lat": 0.0, "lat": 38.9419465, "type": "electric_scooter", "lon": -77.03326116666666, "bike_id": "aa9ff7111b313610fbb390a408435af8", "rental_uris": {"android": "https://dc.lft.to/lastmile_qr_scan", "ios": "https://dc.lft.to/lastmile_qr_scan"}, "name": "aa9ff7111b313610fbb390a408435af8", "is_reserved": 0}, {"is_disabled": 0, "fusion_lon": 0.0, "fusion_lat": 0.0, "lat": 38.909752, "type": "electric_scooter", "lon": -77.03852483333333, "bike_id": "fa454c0e25c65db699e6b91e7fdc1dc3", "rental_uris": {"android": "https://dc.lft.to/lastmile_qr_scan", "ios": "https://dc.lft.to/lastmile_qr_scan"}, "name": "fa454c0e25c65db699e6b91e7fdc1dc3", "is_reserved": 0}, {"is_disabled": 0, "fusion_lon": 0.0, "fusion_lat": 0.0, "lat": 38.91218333333333, "type": "electric_scooter", "lon": -77.0271555, "bike_id": "af54d8e7a0822414b3491e2ae2260d78", "rental_uris": {"android": "https://dc.lft.to/lastmile_qr_scan", "ios": "https://dc.lft.to/lastmile_qr_scan"}, "name": "af54d8e7a0822414b3491e2ae2260d78", "is_reserved": 0}, {"is_disabled": 0, "fusion_lon": 0.0, "fusion_lat": 0.0, "lat": 38.90380833333333, "type": "electric_bike", "lon": -77.03486616666666, "bike_id": "063e88e019be511763d6bff27aa1fcdc", "rental_uris": {"android": "https://dc.lft.to/lastmile_qr_scan", "ios": "https://dc.lft.to/lastmile_qr_scan"}, "name": "063e88e019be511763d6bff27aa1fcdc", "is_reserved": 0}, {"is_disabled": 0, "fusion_lon": 0.0, "fusion_lat": 0.0, "lat": 38.90366266666667, "type": "electric_scooter", "lon": -77.04503016666666, "bike_id": "68a55c481d1b766771c268f4b495de06", "rental_uris": {"android": "https://dc.lft.to/lastmile_qr_scan", "ios": "https://dc.lft.to/lastmile_qr_scan"}, "name": "68a55c481d1b766771c268f4b495de06", "is_reserved": 0}, {"is_disabled": 0, "fusion_lon": 0.0, "fusion_lat": 0.0, "lat": 38.966456666666666, "type": "electric_bike", "lon": -76.930208, "bike_id": "aac578371cedc69fec9c828d584290c0", "rental_uris": {"android": "https://dc.lft.to/lastmile_qr_scan", "ios": "https://dc.lft.to/lastmile_qr_scan"}, "name": "aac578371cedc69fec9c828d584290c0", "is_reserved": 0}, {"is_disabled": 0, "fusion_lon": 0.0, "fusion_lat": 0.0, "lat": 38.908549, "type": "electric_scooter", "lon": -76.99796483333333, "bike_id": "ee72b815cfb6550e44bb1d7a11b65b76", "rental_uris": {"android": "https://dc.lft.to/lastmile_qr_scan", "ios": "https://dc.lft.to/lastmile_qr_scan"}, "name": "ee72b815cfb6550e44bb1d7a11b65b76", "is_reserved": 0}, {"is_disabled": 0, "fusion_lon": 0.0, "fusion_lat": 0.0, "lat": 38.899130166666666, "type": "electric_scooter", "lon": -76.93368433333333, "bike_id": "e7be07c484c9439512bc2f5e8238fdcc", "rental_uris": {"android": "https://dc.lft.to/lastmile_qr_scan", "ios": "https://dc.lft.to/lastmile_qr_scan"}, "name": "e7be07c484c9439512bc2f5e8238fdcc", "is_reserved": 0}, {"is_disabled": 0, "fusion_lon": 0.0, "fusion_lat": 0.0, "lat": 38.92055166666667, "type": "electric_scooter", "lon": -77.0243115, "bike_id": "6d4d2ead76a1537cd56cc3d0ee0665a8", "rental_uris": {"android": "https://dc.lft.to/lastmile_qr_scan", "ios": "https://dc.lft.to/lastmile_qr_scan"}, "name": "6d4d2ead76a1537cd56cc3d0ee0665a8", "is_reserved": 0}, {"is_disabled": 0, "fusion_lon": 0.0, "fusion_lat": 0.0, "lat": 38.95611666666667, "type": "electric_scooter", "lon": -77.03279533333334, "bike_id": "efcaa227fd54b440080611c87848cb53", "rental_uris": {"android": "https://dc.lft.to/lastmile_qr_scan", "ios": "https://dc.lft.to/lastmile_qr_scan"}, "name": "efcaa227fd54b440080611c87848cb53", "is_reserved": 0}, {"is_disabled": 0, "fusion_lon": 0.0, "fusion_lat": 0.0, "lat": 38.905649, "type": "electric_scooter", "lon": -77.02613, "bike_id": "dde77240c43774d45ca54b6d00628caf", "rental_uris": {"android": "https://dc.lft.to/lastmile_qr_scan", "ios": "https://dc.lft.to/lastmile_qr_scan"}, "name": "dde77240c43774d45ca54b6d00628caf", "is_reserved": 0}, {"is_disabled": 0, "fusion_lon": 0.0, "fusion_lat": 0.0, "lat": 38.90697633333333, "type": "electric_scooter", "lon": -77.06319983333333, "bike_id": "2a3bd297c9be28d35c2601673bc181c2", "rental_uris": {"android": "https://dc.lft.to/lastmile_qr_scan", "ios": "https://dc.lft.to/lastmile_qr_scan"}, "name": "2a3bd297c9be28d35c2601673bc181c2", "is_reserved": 0}, {"is_disabled": 0, "fusion_lon": 0.0, "fusion_lat": 0.0, "lat": 38.8999635, "type": "electric_scooter", "lon": -77.04192583333334, "bike_id": "0fc1dbb6463bdc9f788433dd64d0b354", "rental_uris": {"android": "https://dc.lft.to/lastmile_qr_scan", "ios": "https://dc.lft.to/lastmile_qr_scan"}, "name": "0fc1dbb6463bdc9f788433dd64d0b354", "is_reserved": 0}, {"is_disabled": 0, "fusion_lon": 0.0, "fusion_lat": 0.0, "lat": 38.91437283333333, "type": "electric_scooter", "lon": -77.00887183333333, "bike_id": "94a5e90eaf2e2cab22c572a93a622f34", "rental_uris": {"android": "https://dc.lft.to/lastmile_qr_scan", "ios": "https://dc.lft.to/lastmile_qr_scan"}, "name": "94a5e90eaf2e2cab22c572a93a622f34", "is_reserved": 0}, {"is_disabled": 0, "fusion_lon": 0.0, "fusion_lat": 0.0, "lat": 38.92100683333334, "type": "electric_scooter", "lon": -77.031739, "bike_id": "630d04bbbea4d4558ab76aadcdbe4b26", "rental_uris": {"android": "https://dc.lft.to/lastmile_qr_scan", "ios": "https://dc.lft.to/lastmile_qr_scan"}, "name": "630d04bbbea4d4558ab76aadcdbe4b26", "is_reserved": 0}, {"is_disabled": 0, "fusion_lon": 0.0, "fusion_lat": 0.0, "lat": 38.915758833333335, "type": "electric_scooter", "lon": -77.04677383333333, "bike_id": "0495aa4393c91dfc66005d6fc9090c1d", "rental_uris": {"android": "https://dc.lft.to/lastmile_qr_scan", "ios": "https://dc.lft.to/lastmile_qr_scan"}, "name": "0495aa4393c91dfc66005d6fc9090c1d", "is_reserved": 0}, {"is_disabled": 0, "fusion_lon": 0.0, "fusion_lat": 0.0, "lat": 38.9196765, "type": "electric_scooter", "lon": -77.0416545, "bike_id": "1c22d7939c2bea9218560a202778a28c", "rental_uris": {"android": "https://dc.lft.to/lastmile_qr_scan", "ios": "https://dc.lft.to/lastmile_qr_scan"}, "name": "1c22d7939c2bea9218560a202778a28c", "is_reserved": 0}, {"is_disabled": 0, "fusion_lon": 0.0, "fusion_lat": 0.0, "lat": 38.92435183333333, "type": "electric_bike", "lon": -76.90755866666666, "bike_id": "a96f3806c3cc1bac84d120854ab87141", "rental_uris": {"android": "https://dc.lft.to/lastmile_qr_scan", "ios": "https://dc.lft.to/lastmile_qr_scan"}, "name": "a96f3806c3cc1bac84d120854ab87141", "is_reserved": 0}, {"is_disabled": 0, "fusion_lon": 0.0, "fusion_lat": 0.0, "lat": 38.89834183333333, "type": "electric_scooter", "lon": -77.02218133333334, "bike_id": "585563c588a6e174e88223352548f36c", "rental_uris": {"android": "https://dc.lft.to/lastmile_qr_scan", "ios": "https://dc.lft.to/lastmile_qr_scan"}, "name": "585563c588a6e174e88223352548f36c", "is_reserved": 0}, {"is_disabled": 0, "fusion_lon": 0.0, "fusion_lat": 0.0, "lat": 38.95614416666667, "type": "electric_scooter", "lon": -77.02759, "bike_id": "39592ee3a06614bb67dd601d01e263d1", "rental_uris": {"android": "https://dc.lft.to/lastmile_qr_scan", "ios": "https://dc.lft.to/lastmile_qr_scan"}, "name": "39592ee3a06614bb67dd601d01e263d1", "is_reserved": 0}, {"is_disabled": 0, "fusion_lon": 0.0, "fusion_lat": 0.0, "lat": 38.906063, "type": "electric_scooter", "lon": -77.0389265, "bike_id": "a4442e1e30d78e411c63d37d9b023352", "rental_uris": {"android": "https://dc.lft.to/lastmile_qr_scan", "ios": "https://dc.lft.to/lastmile_qr_scan"}, "name": "a4442e1e30d78e411c63d37d9b023352", "is_reserved": 0}, {"is_disabled": 0, "fusion_lon": 0.0, "fusion_lat": 0.0, "lat": 38.91536516666667, "type": "electric_scooter", "lon": -77.03207466666667, "bike_id": "834182413196789aa36c193f7aec0c3e", "rental_uris": {"android": "https://dc.lft.to/lastmile_qr_scan", "ios": "https://dc.lft.to/lastmile_qr_scan"}, "name": "834182413196789aa36c193f7aec0c3e", "is_reserved": 0}, {"is_disabled": 0, "fusion_lon": 0.0, "fusion_lat": 0.0, "lat": 38.903522333333335, "type": "electric_scooter", "lon": -77.02567283333333, "bike_id": "a6c4706b0ca23129115509f0a21515ae", "rental_uris": {"android": "https://dc.lft.to/lastmile_qr_scan", "ios": "https://dc.lft.to/lastmile_qr_scan"}, "name": "a6c4706b0ca23129115509f0a21515ae", "is_reserved": 0}, {"is_disabled": 0, "fusion_lon": 0.0, "fusion_lat": 0.0, "lat": 38.895038, "type": "electric_scooter", "lon": -77.0239685, "bike_id": "7daca9fe2327c97c36b584428a4ee13c", "rental_uris": {"android": "https://dc.lft.to/lastmile_qr_scan", "ios": "https://dc.lft.to/lastmile_qr_scan"}, "name": "7daca9fe2327c97c36b584428a4ee13c", "is_reserved": 0}, {"is_disabled": 0, "fusion_lon": 0.0, "fusion_lat": 0.0, "lat": 38.917026666666665, "type": "electric_scooter", "lon": -77.02618566666666, "bike_id": "2a6d13c16969712b934126e435874dd8", "rental_uris": {"android": "https://dc.lft.to/lastmile_qr_scan", "ios": "https://dc.lft.to/lastmile_qr_scan"}, "name": "2a6d13c16969712b934126e435874dd8", "is_reserved": 0}, {"is_disabled": 0, "fusion_lon": 0.0, "fusion_lat": 0.0, "lat": 38.88982883333333, "type": "electric_scooter", "lon": -77.00340083333333, "bike_id": "78713d768dd82d496f942f296b48e870", "rental_uris": {"android": "https://dc.lft.to/lastmile_qr_scan", "ios": "https://dc.lft.to/lastmile_qr_scan"}, "name": "78713d768dd82d496f942f296b48e870", "is_reserved": 0}, {"is_disabled": 0, "fusion_lon": 0.0, "fusion_lat": 0.0, "lat": 38.864612666666666, "type": "electric_scooter", "lon": -76.99608716666667, "bike_id": "4170b3c8c865edf52bcf780b988d7cba", "rental_uris": {"android": "https://dc.lft.to/lastmile_qr_scan", "ios": "https://dc.lft.to/lastmile_qr_scan"}, "name": "4170b3c8c865edf52bcf780b988d7cba", "is_reserved": 0}, {"is_disabled": 0, "fusion_lon": 0.0, "fusion_lat": 0.0, "lat": 38.89703766666667, "type": "electric_scooter", "lon": -77.02140833333333, "bike_id": "af6958aeefd85a28575c79bf3373fad7", "rental_uris": {"android": "https://dc.lft.to/lastmile_qr_scan", "ios": "https://dc.lft.to/lastmile_qr_scan"}, "name": "af6958aeefd85a28575c79bf3373fad7", "is_reserved": 0}, {"is_disabled": 0, "fusion_lon": 0.0, "fusion_lat": 0.0, "lat": 38.88584, "type": "electric_scooter", "lon": -77.01224433333333, "bike_id": "1baa62b37634d9df0a8f88ae4287a463", "rental_uris": {"android": "https://dc.lft.to/lastmile_qr_scan", "ios": "https://dc.lft.to/lastmile_qr_scan"}, "name": "1baa62b37634d9df0a8f88ae4287a463", "is_reserved": 0}, {"is_disabled": 0, "fusion_lon": 0.0, "fusion_lat": 0.0, "lat": 38.90378583333333, "type": "electric_scooter", "lon": -77.038648, "bike_id": "6e94556d4b247ac1cdf9ca814519803b", "rental_uris": {"android": "https://dc.lft.to/lastmile_qr_scan", "ios": "https://dc.lft.to/lastmile_qr_scan"}, "name": "6e94556d4b247ac1cdf9ca814519803b", "is_reserved": 0}, {"is_disabled": 0, "fusion_lon": 0.0, "fusion_lat": 0.0, "lat": 38.9095755, "type": "electric_scooter", "lon": -77.0458945, "bike_id": "167bcd3a1d8601138fe1cdd553bccc79", "rental_uris": {"android": "https://dc.lft.to/lastmile_qr_scan", "ios": "https://dc.lft.to/lastmile_qr_scan"}, "name": "167bcd3a1d8601138fe1cdd553bccc79", "is_reserved": 0}, {"is_disabled": 0, "fusion_lon": 0.0, "fusion_lat": 0.0, "lat": 38.89810583333333, "type": "electric_scooter", "lon": -77.03156983333334, "bike_id": "3a4fe2ab901615341c9b2d714cb36375", "rental_uris": {"android": "https://dc.lft.to/lastmile_qr_scan", "ios": "https://dc.lft.to/lastmile_qr_scan"}, "name": "3a4fe2ab901615341c9b2d714cb36375", "is_reserved": 0}, {"is_disabled": 0, "fusion_lon": 0.0, "fusion_lat": 0.0, "lat": 38.90836266666667, "type": "electric_scooter", "lon": -77.03460466666667, "bike_id": "7d56d8e9a0eedcc6e9c8ffa3997ad625", "rental_uris": {"android": "https://dc.lft.to/lastmile_qr_scan", "ios": "https://dc.lft.to/lastmile_qr_scan"}, "name": "7d56d8e9a0eedcc6e9c8ffa3997ad625", "is_reserved": 0}, {"is_disabled": 0, "fusion_lon": 0.0, "fusion_lat": 0.0, "lat": 38.90950516666667, "type": "electric_scooter", "lon": -77.02716783333334, "bike_id": "ab550a1cd34c8cf00d32ff3dbe9ee4cc", "rental_uris": {"android": "https://dc.lft.to/lastmile_qr_scan", "ios": "https://dc.lft.to/lastmile_qr_scan"}, "name": "ab550a1cd34c8cf00d32ff3dbe9ee4cc", "is_reserved": 0}, {"is_disabled": 0, "fusion_lon": 0.0, "fusion_lat": 0.0, "lat": 38.88484366666667, "type": "electric_scooter", "lon": -77.02075883333333, "bike_id": "ca78cc0e558d0730d13048a3485be120", "rental_uris": {"android": "https://dc.lft.to/lastmile_qr_scan", "ios": "https://dc.lft.to/lastmile_qr_scan"}, "name": "ca78cc0e558d0730d13048a3485be120", "is_reserved": 0}, {"is_disabled": 0, "fusion_lon": 0.0, "fusion_lat": 0.0, "lat": 38.936642, "type": "electric_scooter", "lon": -77.0592985, "bike_id": "58d9230a9d348ad966cf1fb0c19f4c2b", "rental_uris": {"android": "https://dc.lft.to/lastmile_qr_scan", "ios": "https://dc.lft.to/lastmile_qr_scan"}, "name": "58d9230a9d348ad966cf1fb0c19f4c2b", "is_reserved": 0}, {"is_disabled": 0, "fusion_lon": 0.0, "fusion_lat": 0.0, "lat": 38.89588366666667, "type": "electric_scooter", "lon": -77.02653833333333, "bike_id": "e49f8447f1cc7c11058515e21fd39560", "rental_uris": {"android": "https://dc.lft.to/lastmile_qr_scan", "ios": "https://dc.lft.to/lastmile_qr_scan"}, "name": "e49f8447f1cc7c11058515e21fd39560", "is_reserved": 0}, {"is_disabled": 0, "fusion_lon": 0.0, "fusion_lat": 0.0, "lat": 38.923263666666664, "type": "electric_scooter", "lon": -77.0345125, "bike_id": "a4a71c05285c8812af4fd3be89e714df", "rental_uris": {"android": "https://dc.lft.to/lastmile_qr_scan", "ios": "https://dc.lft.to/lastmile_qr_scan"}, "name": "a4a71c05285c8812af4fd3be89e714df", "is_reserved": 0}, {"is_disabled": 0, "fusion_lon": 0.0, "fusion_lat": 0.0, "lat": 38.97676766666667, "type": "electric_bike", "lon": -76.971691, "bike_id": "4542f42d14ae3abf1e88713b6f11c1a7", "rental_uris": {"android": "https://dc.lft.to/lastmile_qr_scan", "ios": "https://dc.lft.to/lastmile_qr_scan"}, "name": "4542f42d14ae3abf1e88713b6f11c1a7", "is_reserved": 0},