{"data": {"bikes": [{"rental_uris": {"android": "https://dc.lft.to/lastmile_qr_scan", "ios": "https://dc.lft.to/lastmile_qr_scan"}, "is_reserved": 0, "is_disabled": 0, "name": "4e78cef914c60a4a6e1bb06e6566973f", "bike_id": "4e78cef914c60a4a6e1bb06e6566973f", "fusion_lat": 0.0, "lon": -77.03598316666667, "type": "electric_scooter", "fusion_lon": 0.0, "lat": 38.928538}, {"rental_uris": {"android": "https://dc.lft.to/lastmile_qr_scan", "ios": "https://dc.lft.to/lastmile_qr_scan"}, "is_reserved": 0, "is_disabled": 0, "name": "05274cbab2247ec08c3a54329cbed30f", "bike_id": "05274cbab2247ec08c3a54329cbed30f", "fusion_lat": 0.0, "lon": -77.02555033333333, "type": "electric_scooter", "fusion_lon": 0.0, "lat": 38.8919575}, {"rental_uris": {"android": "https://dc.lft.to/lastmile_qr_scan", "ios": "https://dc.lft.to/lastmile_qr_scan"}, "is_reserved": 0, "is_disabled": 0, "name": "a34a4816a8c43c89284ddf390493dae0", "bike_id": "a34a4816a8c43c89284ddf390493dae0", "fusion_lat": 0.0, "lon": -77.03962166666666, "type": "electric_scooter", "fusion_lon": 0.0, "lat": 38.90188}, {"rental_uris": {"android": "https://dc.lft.to/lastmile_qr_scan", "ios": "https://dc.lft.to/lastmile_qr_scan"}, "is_reserved": 0, "is_disabled": 0, "name": "4afafdaa4b37892516153eee49a19b00", "bike_id": "4afafdaa4b37892516153eee49a19b00", "fusion_lat": 0.0, "lon": -77.04079083333333, "type": "electric_bike", "fusion_lon": 0.0, "lat": 38.830638666666665}, {"rental_uris": {"android": "https://dc.lft.to/lastmile_qr_scan", "ios": "https://dc.lft.to/lastmile_qr_scan"}, "is_reserved": 0, "is_disabled": 0, "name": "79f1afa419cd2513c5282551b629dc42", "bike_id": "79f1afa419cd2513c5282551b629dc42", "fusion_lat": 0.0, "lon": -77.03320616666667, "type": "electric_scooter", "fusion_lon": 0.0, "lat": 38.898759}, {"rental_uris": {"android": "https://dc.lft.to/lastmile_qr_scan", "ios": "https://dc.lft.to/lastmile_qr_scan"}, "is_reserved": 0, "is_disabled": 0, "name": "225f07d2c9d551c23bb10406707d41ac", "bike_id": "225f07d2c9d551c23bb10406707d41ac", "fusion_lat": 0.0, "lon": -77.01754633333333, "type": "electric_scooter", "fusion_lon": 0.0, "lat": 38.920514833333336}, {"rental_uris": {"android": "https://dc.lft.to/lastmile_qr_scan", "ios": "https://dc.lft.to/lastmile_qr_scan"}, "is_reserved": 0, "is_disabled": 0, "name": "896087f10bd17098b5a5e90dfbb1f228", "bike_id": "896087f10bd17098b5a5e90dfbb1f228", "fusion_lat": 0.0, "lon": -77.0343935, "type": "electric_scooter", "fusion_lon": 0.0, "lat": 38.902975}, {"rental_uris": {"android": "https://dc.lft.to/lastmile_qr_scan", "ios": "https://dc.lft.to/lastmile_qr_scan"}, "is_reserved": 0, "is_disabled": 0, "name": "fafab3f2fea737c5d040d782d7e6de33", "bike_id": "fafab3f2fea737c5d040d782d7e6de33", "fusion_lat": 0.0, "lon": -77.03177166666667, "type": "electric_scooter", "fusion_lon": 0.0, "lat": 38.90118733333333}, {"rental_uris": {"android": "https://dc.lft.to/lastmile_qr_scan", "ios": "https://dc.lft.to/lastmile_qr_scan"}, "is_reserved": 0, "is_disabled": 0, "name": "bf1d17359cfca09df7f610652486f6b3", "bike_id": "bf1d17359cfca09df7f610652486f6b3", "fusion_lat": 0.0, "lon": -76.991188, "type": "electric_scooter", "fusion_lon": 0.0, "lat": 38.900293166666664}, {"rental_uris": {"android": "https://dc.lft.to/lastmile_qr_scan", "ios": "https://dc.lft.to/lastmile_qr_scan"}, "is_reserved": 0, "is_disabled": 0, "name": "4a2a184f578710fd1a7d4c46026dac4c", "bike_id": "4a2a184f578710fd1a7d4c46026dac4c", "fusion_lat": 0.0, "lon": -77.05041283333334, "type": "electric_scooter", "fusion_lon": 0.0, "lat": 38.923636}, {"rental_uris": {"android": "https://dc.lft.to/lastmile_qr_scan", "ios": "https://dc.lft.to/lastmile_qr_scan"}, "is_reserved": 0, "is_disabled": 0, "name": "1f56c89d54fdea58ef0b409764ae8bae", "bike_id": "1f56c89d54fdea58ef0b409764ae8bae", "fusion_lat": 0.0, "lon": -77.02185533333333, "type": "electric_scooter", "fusion_lon": 0.0, "lat": 38.9019945}, {"rental_uris": {"android": "https://dc.lft.to/lastmile_qr_scan", "ios": "https://dc.lft.to/lastmile_qr_scan"}, "is_reserved": 0, "is_disabled": 0, "name": "a851f33ab1f71683d100ad440a647588", "bike_id": "a851f33ab1f71683d100ad440a647588", "fusion_lat": 0.0, "lon": -77.034618, "type": "electric_scooter", "fusion_lon": 0.0, "lat": 38.902727}, {"rental_uris": {"android": "https://dc.lft.to/lastmile_qr_scan", "ios": "https://dc.lft.to/lastmile_qr_scan"}, "is_reserved": 0, "is_disabled": 0, "name": "1ee0cda81100df114c8f780ba55897c2", "bike_id": "1ee0cda81100df114c8f780ba55897c2", "fusion_lat": 0.0, "lon": -77.01789033333333, "type": "electric_scooter", "fusion_lon": 0.0, "lat": 38.9003845}, {"rental_uris": {"android": "https://dc.lft.to/lastmile_qr_scan", "ios": "https://dc.lft.to/lastmile_qr_scan"}, "is_reserved": 0, "is_disabled": 0, "name": "00db7fc78a577f8dbd7d335d65ace2cd", "bike_id": "00db7fc78a577f8dbd7d335d65ace2cd", "fusion_lat": 0.0, "lon": -77.01373483333333, "type": "electric_scooter", "fusion_lon": 0.0, "lat": 38.878156833333335}, {"rental_uris": {"android": "https://dc.lft.to/lastmile_qr_scan", "ios": "https://dc.lft.to/lastmile_qr_scan"}, "is_reserved": 0, "is_disabled": 0, "name": "a41c2e43a0000798335d9211ee7336e9", "bike_id": "a41c2e43a0000798335d9211ee7336e9", "fusion_lat": 0.0, "lon": -77.019153, "type": "electric_scooter", "fusion_lon": 0.0, "lat": 38.9236925}, {"rental_uris": {"android": "https://dc.lft.to/lastmile_qr_scan", "ios": "https://dc.lft.to/lastmile_qr_scan"}, "is_reserved": 0, "is_disabled": 0, "name": "232a9679d4dd44c734cfa1b5e616dfe6", "bike_id": "232a9679d4dd44c734cfa1b5e616dfe6", "fusion_lat": 0.0, "lon": -77.01189133333334, "type": "electric_scooter", "fusion_lon": 0.0, "lat": 38.90007933333333}, {"rental_uris": {"android": "https://dc.lft.to/lastmile_qr_scan", "ios": "https://dc.lft.to/lastmile_qr_scan"}, "is_reserved": 0, "is_disabled": 0, "name": "d3727890794665eb47e4b46505ad7faa", "bike_id": "d3727890794665eb47e4b46505ad7faa", "fusion_lat": 0.0, "lon": -77.02404433333334, "type": "electric_scooter", "fusion_lon": 0.0, "lat": 38.901818166666665}, {"rental_uris": {"android": "https://dc.lft.to/lastmile_qr_scan", "ios": "https://dc.lft.to/lastmile_qr_scan"}, "is_reserved": 0, "is_disabled": 0, "name": "731efd4eca11196006d2d64387f9b863", "bike_id": "731efd4eca11196006d2d64387f9b863", "fusion_lat": 0.0, "lon": -77.000893, "type": "electric_scooter", "fusion_lon": 0.0, "lat": 38.92548083333333}, {"rental_uris": {"android": "https://dc.lft.to/lastmile_qr_scan", "ios": "https://dc.lft.to/lastmile_qr_scan"}, "is_reserved": 0, "is_disabled": 0, "name": "cd83dd9f42bfb060e2eafcf51a269ade", "bike_id": "cd83dd9f42bfb060e2eafcf51a269ade", "fusion_lat": 0.0, "lon": -77.02961333333333, "type": "electric_scooter", "fusion_lon": 0.0, "lat": 38.896342}, {"rental_uris": {"android": "https://dc.lft.to/lastmile_qr_scan", "ios": "https://dc.lft.to/lastmile_qr_scan"}, "is_reserved": 0, "is_disabled": 0, "name": "f221423c3d4091750ba0fd3bf50608cd", "bike_id": "f221423c3d4091750ba0fd3bf50608cd", "fusion_lat": 0.0, "lon": -77.0208905, "type": "electric_scooter", "fusion_lon": 0.0, "lat": 38.9073105}, {"rental_uris": {"android": "https://dc.lft.to/lastmile_qr_scan", "ios": "https://dc.lft.to/lastmile_qr_scan"}, "is_reserved": 0, "is_disabled": 0, "name": "0c186f53b2073a549abf74419ba1cde4", "bike_id": "0c186f53b2073a549abf74419ba1cde4", "fusion_lat": 0.0, "lon": -76.97902016666667, "type": "electric_bike", "fusion_lon": 0.0, "lat": 38.926941166666666}, {"rental_uris": {"android": "https://dc.lft.to/lastmile_qr_scan", "ios": "https://dc.lft.to/lastmile_qr_scan"}, "is_reserved": 0, "is_disabled": 0, "name": "86042351bab21bfaf67955e7a4cb4b07", "bike_id": "86042351bab21bfaf67955e7a4cb4b07", "fusion_lat": 0.0, "lon": -77.01335616666667, "type": "electric_scooter", "fusion_lon": 0.0, "lat": 38.88128666666667}, {"rental_uris": {"android": "https://dc.lft.to/lastmile_qr_scan", "ios": "https://dc.lft.to/lastmile_qr_scan"}, "is_reserved": 0, "is_disabled": 0, "name": "fc6702de5f623046d4971b2b4d68c98b", "bike_id": "fc6702de5f623046d4971b2b4d68c98b", "fusion_lat": 0.0, "lon": -77.05335966666667, "type": "electric_scooter", "fusion_lon": 0.0, "lat": 38.923196833333336}, {"rental_uris": {"android": "https://dc.lft.to/lastmile_qr_scan", "ios": "https://dc.lft.to/lastmile_qr_scan"}, "is_reserved": 0, "is_disabled": 0, "name": "64e3eb791893fe20da8ab8c78b6f1ed5", "bike_id": "64e3eb791893fe20da8ab8c78b6f1ed5", "fusion_lat": 0.0, "lon": -77.03364583333334, "type": "electric_scooter", "fusion_lon": 0.0, "lat": 38.89746433333333}, {"rental_uris": {"android": "https://dc.lft.to/lastmile_qr_scan", "ios": "https://dc.lft.to/lastmile_qr_scan"}, "is_reserved": 0, "is_disabled": 0, "name": "a47f193053b5d91821e8c65f244224d2", "bike_id": "a47f193053b5d91821e8c65f244224d2", "fusion_lat": 0.0, "lon": -77.01623266666667, "type": "electric_scooter", "fusion_lon": 0.0, "lat": 38.916898333333336}, {"rental_uris": {"android": "https://dc.lft.to/lastmile_qr_scan", "ios": "https://dc.lft.to/lastmile_qr_scan"}, "is_reserved": 0, "is_disabled": 0, "name": "b5d7117b2af38a61e950efb749a0cf83", "bike_id": "b5d7117b2af38a61e950efb749a0cf83", "fusion_lat": 0.0, "lon": -77.002119, "type": "electric_scooter", "fusion_lon": 0.0, "lat": 38.90036533333333}, {"rental_uris": {"android": "https://dc.lft.to/lastmile_qr_scan", "ios": "https://dc.lft.to/lastmile_qr_scan"}, "is_reserved": 0, "is_disabled": 0, "name": "79e3a9cee52912f4e649210e856adac0", "bike_id": "79e3a9cee52912f4e649210e856adac0", "fusion_lat": 0.0, "lon": -77.03065433333333, "type": "electric_scooter", "fusion_lon": 0.0, "lat": 38.899687}, {"rental_uris": {"android": "https://dc.lft.to/lastmile_qr_scan", "ios": "https://dc.lft.to/lastmile_qr_scan"}, "is_reserved": 0, "is_disabled": 0, "name": "734b0d5a9583e4aa6f88d25dae0fe11d", "bike_id": "734b0d5a9583e4aa6f88d25dae0fe11d", "fusion_lat": 0.0, "lon": -77.001556, "type": "electric_scooter", "fusion_lon": 0.0, "lat": 38.9078275}, {"rental_uris": {"android": "https://dc.lft.to/lastmile_qr_scan", "ios": "https://dc.lft.to/lastmile_qr_scan"}, "is_reserved": 0, "is_disabled": 0, "name": "3150871ca6c688f26b87954b77168e5b", "bike_id": "3150871ca6c688f26b87954b77168e5b", "fusion_lat": 0.0, "lon": -76.97289833333333, "type": "electric_bike", "fusion_lon": 0.0, "lat": 38.865015166666666}, {"rental_uris": {"android": "https://dc.lft.to/lastmile_qr_scan", "ios": "https://dc.lft.to/lastmile_qr_scan"}, "is_reserved": 0, "is_disabled": 0, "name": "6b173b88357300efe545fc5ad43da1c5", "bike_id": "6b173b88357300efe545fc5ad43da1c5", "fusion_lat": 0.0, "lon": -77.02164233333333, "type": "electric_scooter", "fusion_lon": 0.0, "lat": 38.924950333333335}, {"rental_uris": {"android": "https://dc.lft.to/lastmile_qr_scan", "ios": "https://dc.lft.to/lastmile_qr_scan"}, "is_reserved": 0, "is_disabled": 0, "name": "b93ae4bccd831e6bed6d754b4da3ca88", "bike_id": "b93ae4bccd831e6bed6d754b4da3ca88", "fusion_lat": 0.0, "lon": -77.0432745, "type": "electric_scooter", "fusion_lon": 0.0, "lat": 38.89221333333333}, {"rental_uris": {"android": "https://dc.lft.to/lastmile_qr_scan", "ios": "https://dc.lft.to/lastmile_qr_scan"}, "is_reserved": 0, "is_disabled": 0, "name": "22d14e802e8b06a3d9bb5b8d869647a4", "bike_id": "22d14e802e8b06a3d9bb5b8d869647a4", "fusion_lat": 0.0, "lon": -77.00201966666667, "type": "electric_scooter", "fusion_lon": 0.0, "lat": 38.902365}, {"rental_uris": {"android": "https://dc.lft.to/lastmile_qr_scan", "ios": "https://dc.lft.to/lastmile_qr_scan"}, "is_reserved": 0, "is_disabled": 0, "name": "5416bbeedf98c59d46e6f3390a104d51", "bike_id": "5416bbeedf98c59d46e6f3390a104d51", "fusion_lat": 0.0, "lon": -77.03538816666666, "type": "electric_scooter", "fusion_lon": 0.0, "lat": 38.923553166666665}, {"rental_uris": {"android": "https://dc.lft.to/lastmile_qr_scan", "ios": "https://dc.lft.to/lastmile_qr_scan"}, "is_reserved": 0, "is_disabled": 0, "name": "c3fc705537a1e239a1a0d0763c9294be", "bike_id": "c3fc705537a1e239a1a0d0763c9294be", "fusion_lat": 0.0, "lon": -77.01841066666667, "type": "electric_scooter", "fusion_lon": 0.0, "lat": 38.909574166666665}, {"rental_uris": {"android": "https://dc.lft.to/lastmile_qr_scan", "ios": "https://dc.lft.to/lastmile_qr_scan"}, "is_reserved": 0, "is_disabled": 0, "name": "fe9b8e12742c6557b78d4daaa241fb8f", "bike_id": "fe9b8e12742c6557b78d4daaa241fb8f", "fusion_lat": 0.0, "lon": -77.04053866666666, "type": "electric_scooter", "fusion_lon": 0.0, "lat": 38.901378666666666}, {"rental_uris": {"android": "https://dc.lft.to/lastmile_qr_scan", "ios": "https://dc.lft.to/lastmile_qr_scan"}, "is_reserved": 0, "is_disabled": 0, "name": "37c154eb4c55d85186de199f6429fb90", "bike_id": "37c154eb4c55d85186de199f6429fb90", "fusion_lat": 0.0, "lon": -77.02812666666667, "type": "electric_scooter", "fusion_lon": 0.0, "lat": 38.881772833333336}, {"rental_uris": {"android": "https://dc.lft.to/lastmile_qr_scan", "ios": "https://dc.lft.to/lastmile_qr_scan"}, "is_reserved": 0, "is_disabled": 0, "name": "e26852507e084d4749563cebbeee0e94", "bike_id": "e26852507e084d4749563cebbeee0e94", "fusion_lat": 0.0, "lon": -77.0344445, "type": "electric_scooter", "fusion_lon": 0.0, "lat": 38.9222215}, {"rental_uris": {"android": "https://dc.lft.to/lastmile_qr_scan", "ios": "https://dc.lft.to/lastmile_qr_scan"}, "is_reserved": 0, "is_disabled": 0, "name": "8dd1e17dc72757005e2de87f14347fd6", "bike_id": "8dd1e17dc72757005e2de87f14347fd6", "fusion_lat": 0.0, "lon": -77.042051, "type": "electric_scooter", "fusion_lon": 0.0, "lat": 38.92293216666667}, {"rental_uris": {"android": "https://dc.lft.to/lastmile_qr_scan", "ios": "https://dc.lft.to/lastmile_qr_scan"}, "is_reserved": 0, "is_disabled": 0, "name": "aba2d7aa9db228addbd364bbdc4c719f", "bike_id": "aba2d7aa9db228addbd364bbdc4c719f", "fusion_lat": 0.0, "lon": -77.012911, "type": "electric_scooter", "fusion_lon": 0.0, "lat": 38.897051}, {"rental_uris": {"android": "https://dc.lft.to/lastmile_qr_scan", "ios": "https://dc.lft.to/lastmile_qr_scan"}, "is_reserved": 0, "is_disabled": 0, "name": "16fc5d4cd4604dffea2b7fc8afac25f4", "bike_id": "16fc5d4cd4604dffea2b7fc8afac25f4", "fusion_lat": 0.0, "lon": -77.085355, "type": "electric_bike", "fusion_lon": 0.0, "lat": 38.85665866666667}, {"rental_uris": {"android": "https://dc.lft.to/lastmile_qr_scan", "ios": "https://dc.lft.to/lastmile_qr_scan"}, "is_reserved": 0, "is_disabled": 0, "name": "f0ea16a4953a1447f1748cde883d09e8", "bike_id": "f0ea16a4953a1447f1748cde883d09e8", "fusion_lat": 0.0, "lon": -77.02701583333334, "type": "electric_scooter", "fusion_lon": 0.0, "lat": 38.92658483333334}, {"rental_uris": {"android": "https://dc.lft.to/lastmile_qr_scan", "ios": "https://dc.lft.to/lastmile_qr_scan"}, "is_reserved": 0, "is_disabled": 0, "name": "293a73b8e1e0de60c7d627954e1c962f", "bike_id": "293a73b8e1e0de60c7d627954e1c962f", "fusion_lat": 0.0, "lon": -77.04474183333333, "type": "electric_scooter", "fusion_lon": 0.0, "lat": 38.898912833333334}, {"rental_uris": {"android": "https://dc.lft.to/lastmile_qr_scan", "ios": "https://dc.lft.to/lastmile_qr_scan"}, "is_reserved": 0, "is_disabled": 0, "name": "c787e97f22197653c9c88a6c0ad46099", "bike_id": "c787e97f22197653c9c88a6c0ad46099", "fusion_lat": 0.0, "lon": -77.010691, "type": "electric_scooter", "fusion_lon": 0.0, "lat": 38.919108333333334}, {"rental_uris": {"android": "https://dc.lft.to/lastmile_qr_scan", "ios": "https://dc.lft.to/lastmile_qr_scan"}, "is_reserved": 0, "is_disabled": 0, "name": "7e6e675a670aea61be78cde1d7fc831f", "bike_id": "7e6e675a670aea61be78cde1d7fc831f", "fusion_lat": 0.0, "lon": -77.03930916666667, "type": "electric_scooter", "fusion_lon": 0.0, "lat": 38.924887166666664}, {"rental_uris": {"android": "https://dc.lft.to/lastmile_qr_scan", "ios": "https://dc.lft.to/lastmile_qr_scan"}, "is_reserved": 0, "is_disabled": 0, "name": "90e1236667c8a8c275e1d77e35cb05ff", "bike_id": "90e1236667c8a8c275e1d77e35cb05ff", "fusion_lat": 0.0, "lon": -77.04956233333333, "type": "electric_scooter", "fusion_lon": 0.0, "lat": 38.905416833333334}, {"rental_uris": {"android": "https://dc.lft.to/lastmile_qr_scan", "ios": "https://dc.lft.to/lastmile_qr_scan"}, "is_reserved": 0, "is_disabled": 0, "name": "513ae65404cb8a8c447c936f8ba354a3", "bike_id": "513ae65404cb8a8c447c936f8ba354a3", "fusion_lat": 0.0, "lon": -77.038711, "type": "electric_scooter", "fusion_lon": 0.0, "lat": 38.921474833333335}, {"rental_uris": {"android": "https://dc.lft.to/lastmile_qr_scan", "ios": "https://dc.lft.to/lastmile_qr_scan"}, "is_reserved": 0, "is_disabled": 0, "name": "860849c47f7888a42a218716d02d08e7", "bike_id": "860849c47f7888a42a218716d02d08e7", "fusion_lat": 0.0, "lon": -77.028719, "type": "electric_bike", "fusion_lon": 0.0, "lat": 38.921383166666665}, {"rental_uris": {"android": "https://dc.lft.to/lastmile_qr_scan", "ios": "https://dc.lft.to/lastmile_qr_scan"}, "is_reserved": 0, "is_disabled": 0, "name": "cb7954c428cf5f2dab38cd134882465a", "bike_id": "cb7954c428cf5f2dab38cd134882465a", "fusion_lat": 0.0, "lon": -77.0517095, "type": "electric_scooter", "fusion_lon": 0.0, "lat": 38.90312333333333}, {"rental_uris": {"android": "https://dc.lft.to/lastmile_qr_scan", "ios": "https://dc.lft.to/lastmile_qr_scan"}, "is_reserved": 0, "is_disabled": 0, "name": "09d9e654f87543851cf687ed4b339a64", "bike_id": "09d9e654f87543851cf687ed4b339a64", "fusion_lat": 0.0, "lon": -76.973278, "type": "electric_scooter", "fusion_lon": 0.0, "lat": 38.865329333333335}, {"rental_uris": {"android": "https://dc.lft.to/lastmile_qr_scan", "ios": "https://dc.lft.to/lastmile_qr_scan"}, "is_reserved": 0, "is_disabled": 0, "name": "e6ae3869a67bc3b76670dec1b67958c3", "bike_id": "e6ae3869a67bc3b76670dec1b67958c3", "fusion_lat": 0.0, "lon": -76.99071783333333, "type": "electric_bike", "fusion_lon": 0.0, "lat": 38.89810266666667}, {"rental_uris": {"android": "https://dc.lft.to/lastmile_qr_scan", "ios": "https://dc.lft.to/lastmile_qr_scan"}, "is_reserved": 0, "is_disabled": 0, "name": "1fc17fa80ecc8521cf91026da102f834", "bike_id": "1fc17fa80ecc8521cf91026da102f834", "fusion_lat": 0.0, "lon": -77.02493133333333, "type": "electric_scooter", "fusion_lon": 0.0, "lat": 38.9418505}, {"rental_uris": {"android": "https://dc.lft.to/lastmile_qr_scan", "ios": "https://dc.lft.to/lastmile_qr_scan"}, "is_reserved": 0, "is_disabled": 0, "name": "64207cd6b6f2c508a81bd9dda28804af", "bike_id": "64207cd6b6f2c508a81bd9dda28804af", "fusion_lat": 0.0, "lon": -76.996536, "type": "electric_bike", "fusion_lon": 0.0, "lat": 38.9677665}, {"rental_uris": {"android": "https://dc.lft.to/lastmile_qr_scan", "ios": "https://dc.lft.to/lastmile_qr_scan"}, "is_reserved": 0, "is_disabled": 0, "name": "c9fe4c210998d8cc1ec82088cc6e6b1e", "bike_id": "c9fe4c210998d8cc1ec82088cc6e6b1e", "fusion_lat": 0.0, "lon": -76.93179433333333, "type": "electric_scooter", "fusion_lon": 0.0, "lat": 38.8988265}, {"rental_uris": {"android": "https://dc.lft.to/lastmile_qr_scan", "ios": "https://dc.lft.to/lastmile_qr_scan"}, "is_reserved": 0, "is_disabled": 0, "name": "d16178098a454ba2c5a4976f3a3b5200", "bike_id": "d16178098a454ba2c5a4976f3a3b5200", "fusion_lat": 0.0, "lon": -76.99069183333333, "type": "electric_bike", "fusion_lon": 0.0, "lat": 38.94261733333333}, {"rental_uris": {"android": "https://dc.lft.to/lastmile_qr_scan", "ios": "https://dc.lft.to/lastmile_qr_scan"}, "is_reserved": 0, "is_disabled": 0, "name": "22a3ec79802880cc1e5152062671e82e", "bike_id": "22a3ec79802880cc1e5152062671e82e", "fusion_lat": 0.0, "lon": -77.00622566666667, "type": "electric_scooter", "fusion_lon": 0.0, "lat": 38.87170483333333}, {"rental_uris": {"android": "https://dc.lft.to/lastmile_qr_scan", "ios": "https://dc.lft.to/lastmile_qr_scan"}, "is_reserved": 0, "is_disabled": 0, "name": "06a4b29b1c9a35a31e8128a513f733f0", "bike_id": "06a4b29b1c9a35a31e8128a513f733f0", "fusion_lat": 0.0, "lon": -77.024467, "type": "electric_scooter", "fusion_lon": 0.0, "lat": 38.938208}, {"rental_uris": {"android": "https://dc.lft.to/lastmile_qr_scan", "ios": "https://dc.lft.to/lastmile_qr_scan"}, "is_reserved": 0, "is_disabled": 0, "name": "dc69ff95e0543fd7c42c4357985d4826", "bike_id": "dc69ff95e0543fd7c42c4357985d4826", "fusion_lat": 0.0, "lon": -77.0480855, "type": "electric_scooter", "fusion_lon": 0.0, "lat": 38.9103635}, {"rental_uris": {"android": "https://dc.lft.to/lastmile_qr_scan", "ios": "https://dc.lft.to/lastmile_qr_scan"}, "is_reserved": 0, "is_disabled": 0, "name": "fb7de64acf5e0805453d661e919e9251", "bike_id": "fb7de64acf5e0805453d661e919e9251", "fusion_lat": 0.0, "lon": -77.0226305, "type": "electric_scooter", "fusion_lon": 0.0, "lat": 38.90196666666667}, {"rental_uris": {"android": "https://dc.lft.to/lastmile_qr_scan", "ios": "https://dc.lft.to/lastmile_qr_scan"}, "is_reserved": 0, "is_disabled": 0, "name": "29c6d0d3eacd25a8264836b2952be88e", "bike_id": "29c6d0d3eacd25a8264836b2952be88e", "fusion_lat": 0.0, "lon": -77.02194916666667, "type": "electric_scooter", "fusion_lon": 0.0, "lat": 38.91996}, {"rental_uris": {"android": "https://dc.lft.to/lastmile_qr_scan", "ios": "https://dc.lft.to/lastmile_qr_scan"}, "is_reserved": 0, "is_disabled": 0, "name": "b82ecd5f9589ecb755bf54a31f654ba5", "bike_id": "b82ecd5f9589ecb755bf54a31f654ba5", "fusion_lat": 0.0, "lon": -77.0208695, "type": "electric_scooter", "fusion_lon": 0.0, "lat": 38.90077983333333}, {"rental_uris": {"android": "https://dc.lft.to/lastmile_qr_scan", "ios": "https://dc.lft.to/lastmile_qr_scan"}, "is_reserved": 0, "is_disabled": 0, "name": "b3863d00ae8f86299311b151b1278fd0", "bike_id": "b3863d00ae8f86299311b151b1278fd0", "fusion_lat": 0.0, "lon": -77.0195755, "type": "electric_scooter", "fusion_lon": 0.0, "lat": 38.923232}, {"rental_uris": {"android": "https://dc.lft.to/lastmile_qr_scan", "ios": "https://dc.lft.to/lastmile_qr_scan"}, "is_reserved": 0, "is_disabled": 0, "name": "1a4793d34f0f89a9c3a82fbaa546bac6", "bike_id": "1a4793d34f0f89a9c3a82fbaa546bac6", "fusion_lat": 0.0, "lon": -77.0745375, "type": "electric_scooter", "fusion_lon": 0.0, "lat": 38.9378015}, {"rental_uris": {"android": "https://dc.lft.to/lastmile_qr_scan", "ios": "https://dc.lft.to/lastmile_qr_scan"}, "is_reserved": 0, "is_disabled": 0, "name": "92c0636e225cef953c62dd57710480bc", "bike_id": "92c0636e225cef953c62dd57710480bc", "fusion_lat": 0.0, "lon": -77.03978116666667, "type": "electric_scooter", "fusion_lon": 0.0, "lat": 38.901348166666665}, {"rental_uris": {"android": "https://dc.lft.to/lastmile_qr_scan", "ios": "https://dc.lft.to/lastmile_qr_scan"}, "is_reserved": 0, "is_disabled": 0, "name": "3f56692c5897e5da1ce777fb134880d3", "bike_id": "3f56692c5897e5da1ce777fb134880d3", "fusion_lat": 0.0, "lon": -77.01363716666667, "type": "electric_scooter", "fusion_lon": 0.0, "lat": 38.928671}, {"rental_uris": {"android": "https://dc.lft.to/lastmile_qr_scan", "ios": "https://dc.lft.to/lastmile_qr_scan"}, "is_reserved": 0, "is_disabled": 0, "name": "4d79579a0ce6d894cd391770f5cd1d98", "bike_id": "4d79579a0ce6d894cd391770f5cd1d98", "fusion_lat": 0.0, "lon": -76.98836283333333, "type": "electric_scooter", "fusion_lon": 0.0, "lat": 38.90038583333333}, {"rental_uris": {"android": "https://dc.lft.to/lastmile_qr_scan", "ios": "https://dc.lft.to/lastmile_qr_scan"}, "is_reserved": 0, "is_disabled": 0, "name": "d893581b52802fac75aeccba9efb061c", "bike_id": "d893581b52802fac75aeccba9efb061c", "fusion_lat": 0.0, "lon": -77.04315833333334, "type": "electric_bike", "fusion_lon": 0.0, "lat": 39.034249833333334}, {"rental_uris": {"android": "https://dc.lft.to/lastmile_qr_scan", "ios": "https://dc.lft.to/lastmile_qr_scan"}, "is_reserved": 0, "is_disabled": 0, "name": "dad612b4900b5363a6f65e0697e7e886", "bike_id": "dad612b4900b5363a6f65e0697e7e886", "fusion_lat": 0.0, "lon": -77.04650333333333, "type": "electric_scooter", "fusion_lon": 0.0, "lat": 38.90008616666667}, {"rental_uris": {"android": "https://dc.lft.to/lastmile_qr_scan", "ios": "https://dc.lft.to/lastmile_qr_scan"}, "is_reserved": 0, "is_disabled": 0, "name": "74924f3e7c80a781f8c6d84f8bfc9e1c", "bike_id": "74924f3e7c80a781f8c6d84f8bfc9e1c", "fusion_lat": 0.0, "lon": -76.97306233333333, "type": "electric_scooter", "fusion_lon": 0.0, "lat": 38.91988}, {"rental_uris": {"android": "https://dc.lft.to/lastmile_qr_scan", "ios": "https://dc.lft.to/lastmile_qr_scan"}, "is_reserved": 0, "is_disabled": 0, "name": "065cbc0bd4a9b4d4b3d5fd3679983a25", "bike_id": "065cbc0bd4a9b4d4b3d5fd3679983a25", "fusion_lat": 0.0, "lon": -77.01846316666666, "type": "electric_scooter", "fusion_lon": 0.0, "lat": 38.929116666666665}, {"rental_uris": {"android": "https://dc.lft.to/lastmile_qr_scan", "ios": "https://dc.lft.to/lastmile_qr_scan"}, "is_reserved": 0, "is_disabled": 0, "name": "dc2d11759f5ba7dcc8466893cf3457a8", "bike_id": "dc2d11759f5ba7dcc8466893cf3457a8", "fusion_lat": 0.0, "lon": -77.043776, "type": "electric_scooter", "fusion_lon": 0.0, "lat": 38.900177666666664}, {"rental_uris": {"android": "https://dc.lft.to/lastmile_qr_scan", "ios": "https://dc.lft.to/lastmile_qr_scan"}, "is_reserved": 0, "is_disabled": 0, "name": "354f639f850d2deed1cd6ac128f56c0d", "bike_id": "354f639f850d2deed1cd6ac128f56c0d", "fusion_lat": 0.0, "lon": -77.00363683333333, "type": "electric_scooter", "fusion_lon": 0.0, "lat": 38.9155255}, {"rental_uris": {"android": "https://dc.lft.to/lastmile_qr_scan", "ios": "https://dc.lft.to/lastmile_qr_scan"}, "is_reserved": 0, "is_disabled": 0, "name": "d9b9849815231cd38fdad987811d97bc", "bike_id": "d9b9849815231cd38fdad987811d97bc", "fusion_lat": 0.0, "lon": -77.01758333333333, "type": "electric_scooter", "fusion_lon": 0.0, "lat": 38.87684466666666}, {"rental_uris": {"android": "https://dc.lft.to/lastmile_qr_scan", "ios": "https://dc.lft.to/lastmile_qr_scan"}, "is_reserved": 0, "is_disabled": 0, "name": "fc26726b7c2e722b55d93f5f7855cdb5", "bike_id": "fc26726b7c2e722b55d93f5f7855cdb5", "fusion_lat": 0.0, "lon": -77.00021716666667, "type": "electric_scooter", "fusion_lon": 0.0, "lat": 38.91974833333333}, {"rental_uris": {"android": "https://dc.lft.to/lastmile_qr_scan", "ios": "https://dc.lft.to/lastmile_qr_scan"}, "is_reserved": 0, "is_disabled": 0, "name": "aa679cc9dabf002561acf3e611e67823", "bike_id": "aa679cc9dabf002561acf3e611e67823", "fusion_lat": 0.0, "lon": -77.00798216666666, "type": "electric_bike", "fusion_lon": 0.0, "lat": 38.87860366666666}, {"rental_uris": {"android": "https://dc.lft.to/lastmile_qr_scan", "ios": "https://dc.lft.to/lastmile_qr_scan"}, "is_reserved": 0, "is_disabled": 0, "name": "7ce01fcebb853ad0d2bfc79964eae8c8", "bike_id": "7ce01fcebb853ad0d2bfc79964eae8c8", "fusion_lat": 0.0, "lon": -76.99301816666667, "type": "electric_bike", "fusion_lon": 0.0, "lat": 38.90764816666667}, {"rental_uris": {"android": "https://dc.lft.to/lastmile_qr_scan", "ios": "https://dc.lft.to/lastmile_qr_scan"}, "is_reserved": 0, "is_disabled": 0, "name": "5dabed5929418dea5cad8298a2f90648", "bike_id": "5dabed5929418dea5cad8298a2f90648", "fusion_lat": 0.0, "lon": -77.0337035, "type": "electric_scooter", "fusion_lon": 0.0, "lat": 38.90040066666667}, {"rental_uris": {"android": "https://dc.lft.to/lastmile_qr_scan", "ios": "https://dc.lft.to/lastmile_qr_scan"}, "is_reserved": 0, "is_disabled": 0, "name": "f4ef4443f3a6cbea57c56329c2ece64c", "bike_id": "f4ef4443f3a6cbea57c56329c2ece64c", "fusion_lat": 0.0, "lon": -77.027224, "type": "electric_bike", "fusion_lon": 0.0, "lat": 38.8963325}, {"rental_uris": {"android": "https://dc.lft.to/lastmile_qr_scan", "ios": "https://dc.lft.to/lastmile_qr_scan"}, "is_reserved": 0, "is_disabled": 0, "name": "a286194e10c56aef3cacbf20e8581581", "bike_id": "a286194e10c56aef3cacbf20e8581581", "fusion_lat": 0.0, "lon": -77.0134855, "type": "electric_scooter", "fusion_lon": 0.0, "lat": 38.941888}, {"rental_uris": {"android": "https://dc.lft.to/lastmile_qr_scan", "ios": "https://dc.lft.to/lastmile_qr_scan"}, "is_reserved": 0, "is_disabled": 0, "name": "6ca0ce5ecc1b6c1a21e8bd8ca45498ba", "bike_id": "6ca0ce5ecc1b6c1a21e8bd8ca45498ba", "fusion_lat": 0.0, "lon": -77.0245885, "type": "electric_scooter", "fusion_lon": 0.0, "lat": 38.957730833333336}, {"rental_uris": {"android": "https://dc.lft.to/lastmile_qr_scan", "ios": "https://dc.lft.to/lastmile_qr_scan"}, "is_reserved": 0, "is_disabled": 0, "name": "97360305cf9a4eb5d7e297bdce777e73", "bike_id": "97360305cf9a4eb5d7e297bdce777e73", "fusion_lat": 0.0, "lon": -77.04429833333333, "type": "electric_scooter", "fusion_lon": 0.0, "lat": 38.89606766666667}, {"rental_uris": {"android": "https://dc.lft.to/lastmile_qr_scan", "ios": "https://dc.lft.to/lastmile_qr_scan"}, "is_reserved": 0, "is_disabled": 0, "name": "2146a442161395ad6560b09a2bcea5b2", "bike_id": "2146a442161395ad6560b09a2bcea5b2", "fusion_lat": 0.0, "lon": -76.97331116666666, "type": "electric_scooter", "fusion_lon": 0.0, "lat": 38.90407966666667}, {"rental_uris": {"android": "https://dc.lft.to/lastmile_qr_scan", "ios": "https://dc.lft.to/lastmile_qr_scan"}, "is_reserved": 0, "is_disabled": 0, "name": "90775ed2dd32a06529fea457472bd93e", "bike_id": "90775ed2dd32a06529fea457472bd93e", "fusion_lat": 0.0, "lon": -77.0252465, "type": "electric_scooter", "fusion_lon": 0.0, "lat": 38.92966666666667}, {"rental_uris": {"android": "https://dc.lft.to/lastmile_qr_scan", "ios": "https://dc.lft.to/lastmile_qr_scan"}, "is_reserved": 0, "is_disabled": 0, "name": "c631cb5d2fc0bcb11c66046061152a4c", "bike_id": "c631cb5d2fc0bcb11c66046061152a4c", "fusion_lat": 0.0, "lon": -77.0378095, "type": "electric_scooter", "fusion_lon": 0.0, "lat": 38.90649366666667}, {"rental_uris": {"android": "https://dc.lft.to/lastmile_qr_scan", "ios": "https://dc.lft.to/lastmile_qr_scan"}, "is_reserved": 0, "is_disabled": 0, "name": "cefe13f3ad5f0502abe08081ece4f98f", "bike_id": "cefe13f3ad5f0502abe08081ece4f98f", "fusion_lat": 0.0, "lon": -77.0694855, "type": "electric_bike", "fusion_lon": 0.0, "lat": 38.836288333333336}, {"rental_uris": {"android": "https://dc.lft.to/lastmile_qr_scan", "ios": "https://dc.lft.to/lastmile_qr_scan"}, "is_reserved": 0, "is_disabled": 0, "name": "1ae01c0795bd0c1691f15e5f24c30a33", "bike_id": "1ae01c0795bd0c1691f15e5f24c30a33", "fusion_lat": 0.0, "lon": -77.02445783333333, "type": "electric_scooter", "fusion_lon": 0.0, "lat": 38.949786833333334}, {"rental_uris": {"android": "https://dc.lft.to/lastmile_qr_scan", "ios": "https://dc.lft.to/lastmile_qr_scan"}, "is_reserved": 0, "is_disabled": 0, "name": "98309e736d2671217511d6ddb3760338", "bike_id": "98309e736d2671217511d6ddb3760338", "fusion_lat": 0.0, "lon": -77.05818416666666, "type": "electric_scooter", "fusion_lon": 0.0, "lat": 38.93530916666667}, {"rental_uris": {"android": "https://dc.lft.to/lastmile_qr_scan", "ios": "https://dc.lft.to/lastmile_qr_scan"}, "is_reserved": 0, "is_disabled": 0, "name": "09a542a3de732c2fecedc67df5ceab37", "bike_id": "09a542a3de732c2fecedc67df5ceab37", "fusion_lat": 0.0, "lon": -77.03636116666667, "type": "electric_scooter", "fusion_lon": 0.0, "lat": 38.916274}, {"rental_uris": {"android": "https://dc.lft.to/lastmile_qr_scan", "ios": "https://dc.lft.to/lastmile_qr_scan"}, "is_reserved": 0, "is_disabled": 0, "name": "1f781788ca4ede4401070a21ad9c2357", "bike_id": "1f781788ca4ede4401070a21ad9c2357", "fusion_lat": 0.0, "lon": -77.02400533333333, "type": "electric_scooter", "fusion_lon": 0.0, "lat": 38.91264133333333}, {"rental_uris": {"android": "https://dc.lft.to/lastmile_qr_scan", "ios": "https://dc.lft.to/lastmile_qr_scan"}, "is_reserved": 0, "is_disabled": 0, "name": "1aca6b907f585e5583548f2cf907c861", "bike_id": "1aca6b907f585e5583548f2cf907c861", "fusion_lat": 0.0, "lon": -77.01842983333333, "type": "electric_scooter", "fusion_lon": 0.0, "lat": 38.90956033333333}, {"rental_uris": {"android": "https://dc.lft.to/lastmile_qr_scan", "ios": "https://dc.lft.to/lastmile_qr_scan"}, "is_reserved": 0, "is_disabled": 0, "name": "1d5aa142897f60337cdbba241550023d", "bike_id": "1d5aa142897f60337cdbba241550023d", "fusion_lat": 0.0, "lon": -77.00914716666666, "type": "electric_scooter", "fusion_lon": 0.0, "lat": 38.913820333333334}, {"rental_uris": {"android": "https://dc.lft.to/lastmile_qr_scan", "ios": "https://dc.lft.to/lastmile_qr_scan"}, "is_reserved": 0, "is_disabled": 0, "name": "8d0ccd9e7a8ed32455605b9f3d38498a", "bike_id": "8d0ccd9e7a8ed32455605b9f3d38498a", "fusion_lat": 0.0, "lon": -77.02936366666667, "type": "electric_scooter", "fusion_lon": 0.0, "lat": 38.920583}, {"rental_uris": {"android": "https://dc.lft.to/lastmile_qr_scan", "ios": "https://dc.lft.to/lastmile_qr_scan"}, "is_reserved": 0, "is_disabled": 0, "name": "9a1632f8f7c9e786d03d52b0eb3af775", "bike_id": "9a1632f8f7c9e786d03d52b0eb3af775", "fusion_lat": 0.0, "lon": -76.98580366666667, "type": "electric_scooter", "fusion_lon": 0.0, "lat": 38.900121166666665}, {"rental_uris": {"android": "https://dc.lft.to/lastmile_qr_scan", "ios": "https://dc.lft.to/lastmile_qr_scan"}, "is_reserved": 0, "is_disabled": 0, "name": "bcd5bb762f7d6e20103a9fe65a786c55", "bike_id": "bcd5bb762f7d6e20103a9fe65a786c55", "fusion_lat": 0.0, "lon": -76.92586516666667, "type": "electric_scooter", "fusion_lon": 0.0, "lat": 38.8973255}, {"rental_uris": {"android": "https://dc.lft.to/lastmile_qr_scan", "ios": "https://dc.lft.to/lastmile_qr_scan"}, "is_reserved": 0, "is_disabled": 0, "name": "626102eb9f9d4890a47ed6fbddd7a1de", "bike_id": "626102eb9f9d4890a47ed6fbddd7a1de", "fusion_lat": 0.0, "lon": -77.02200016666667, "type": "electric_scooter", "fusion_lon": 0.0, "lat": 38.89740333333334}, {"rental_uris": {"android": "https://dc.lft.to/lastmile_qr_scan", "ios": "https://dc.lft.to/lastmile_qr_scan"}, "is_reserved": 0, "is_disabled": 0, "name": "135a7986d9f039e4adbc21fcc9246532", "bike_id": "135a7986d9f039e4adbc21fcc9246532", "fusion_lat": 0.0, "lon": -77.02892833333334, "type": "electric_scooter", "fusion_lon": 0.0, "lat": 38.92676066666667}, {"rental_uris": {"android": "https://dc.lft.to/lastmile_qr_scan", "ios": "https://dc.lft.to/lastmile_qr_scan"}, "is_reserved": 0, "is_disabled": 0, "name": "2c51727ca37d8da3727fde7bc4445c9c", "bike_id": "2c51727ca37d8da3727fde7bc4445c9c", "fusion_lat": 0.0, "lon": -77.02562083333333, "type": "electric_scooter", "fusion_lon": 0.0, "lat": 38.8834865}, {"rental_uris": {"android": "https://dc.lft.to/lastmile_qr_scan", "ios": "https://dc.lft.to/lastmile_qr_scan"}, "is_reserved": 0, "is_disabled": 0, "name": "74ce5ddda6158246d2314107500315e8", "bike_id": "74ce5ddda6158246d2314107500315e8", "fusion_lat": 0.0, "lon": -77.043329, "type": "electric_scooter", "fusion_lon": 0.0, "lat": 38.896935166666665}, {"rental_uris": {"android": "https://dc.lft.to/lastmile_qr_scan", "ios": "https://dc.lft.to/lastmile_qr_scan"}, "is_reserved": 0, "is_disabled": 0, "name": "88847879eb728376274164e45543fd2b", "bike_id": "88847879eb728376274164e45543fd2b", "fusion_lat": 0.0, "lon": -77.03542, "type": "electric_scooter", "fusion_lon": 0.0, "lat": 38.924683}, {"rental_uris": {"android": "https://dc.lft.to/lastmile_qr_scan", "ios": "https://dc.lft.to/lastmile_qr_scan"}, "is_reserved": 0, "is_disabled": 0, "name": "6c39e6ed0be24ef1d56a6c139957f7aa", "bike_id": "6c39e6ed0be24ef1d56a6c139957f7aa", "fusion_lat": 0.0, "lon": -76.98642833333334, "type": "electric_scooter", "fusion_lon": 0.0, "lat": 38.855158}, {"rental_uris": {"android": "https://dc.lft.to/lastmile_qr_scan", "ios": "https://dc.lft.to/lastmile_qr_scan"}, "is_reserved": 0, "is_disabled": 0, "name": "5137fb369ac71369565ea52f4a1d7b5c", "bike_id": "5137fb369ac71369565ea52f4a1d7b5c", "fusion_lat": 0.0, "lon": -77.04009966666666, "type": "electric_scooter", "fusion_lon": 0.0, "lat": 38.92434266666667}, {"rental_uris": {"android": "https://dc.lft.to/lastmile_qr_scan", "ios": "https://dc.lft.to/lastmile_qr_scan"}, "is_reserved": 0, "is_disabled": 0, "name": "a4d93ed3f41787489cce00b0de23f31b", "bike_id": "a4d93ed3f41787489cce00b0de23f31b", "fusion_lat": 0.0, "lon": -77.01571766666666, "type": "electric_scooter", "fusion_lon": 0.0, "lat": 38.9268485}, {"rental_uris": {"android": "https://dc.lft.to/lastmile_qr_scan", "ios": "https://dc.lft.to/lastmile_qr_scan"}, "is_reserved": 0, "is_disabled": 0, "name": "0e8ca8e2ebc1a632ea8fe754dbc35015", "bike_id": "0e8ca8e2ebc1a632ea8fe754dbc35015", "fusion_lat": 0.0, "lon": -77.02964733333333, "type": "electric_scooter", "fusion_lon": 0.0, "lat": 38.9429195}, {"rental_uris": {"android": "https://dc.lft.to/lastmile_qr_scan", "ios": "https://dc.lft.to/lastmile_qr_scan"}, "is_reserved": 0, "is_disabled": 0, "name": "36c99451ef69cd0241828231a8eb6e1e", "bike_id": "36c99451ef69cd0241828231a8eb6e1e", "fusion_lat": 0.0, "lon": -77.01497883333333, "type": "electric_scooter", "fusion_lon": 0.0, "lat": 38.89325916666667}, {"rental_uris": {"android": "https://dc.lft.to/lastmile_qr_scan", "ios": "https://dc.lft.to/lastmile_qr_scan"}, "is_reserved": 0, "is_disabled": 0, "name": "8ded620c3e66758345a4e0438c9e9a69", "bike_id": "8ded620c3e66758345a4e0438c9e9a69", "fusion_lat": 0.0, "lon": -77.01090416666666, "type": "electric_scooter", "fusion_lon": 0.0, "lat": 38.895663666666664}, {"rental_uris": {"android": "https://dc.lft.to/lastmile_qr_scan", "ios": "https://dc.lft.to/lastmile_qr_scan"}, "is_reserved": 0, "is_disabled": 0, "name": "1d8d7d7169d708fac6da28461df62a75", "bike_id": "1d8d7d7169d708fac6da28461df62a75", "fusion_lat": 0.0, "lon": -77.0202085, "type": "electric_scooter", "fusion_lon": 0.0, "lat": 38.91562016666666}, {"rental_uris": {"android": "https://dc.lft.to/lastmile_qr_scan", "ios": "https://dc.lft.to/lastmile_qr_scan"}, "is_reserved": 0, "is_disabled": 0, "name": "b6b2f63186d5b054911c1bb118d5fecb", "bike_id": "b6b2f63186d5b054911c1bb118d5fecb", "fusion_lat": 0.0, "lon": -77.04158183333334, "type": "electric_scooter", "fusion_lon": 0.0, "lat": 38.895649666666664}, {"rental_uris": {"android": "https://dc.lft.to/lastmile_qr_scan", "ios": "https://dc.lft.to/lastmile_qr_scan"}, "is_reserved": 0, "is_disabled": 0, "name": "9c0b27bb16832b86709fb273ed65b4c9", "bike_id": "9c0b27bb16832b86709fb273ed65b4c9", "fusion_lat": 0.0, "lon": -77.03540866666667, "type": "electric_scooter", "fusion_lon": 0.0, "lat": 38.924161}, {"rental_uris": {"android": "https://dc.lft.to/lastmile_qr_scan", "ios": "https://dc.lft.to/lastmile_qr_scan"}, "is_reserved": 0, "is_disabled": 0, "name": "840d1f15a010246e8dceacaa43cd2f58", "bike_id": "840d1f15a010246e8dceacaa43cd2f58", "fusion_lat": 0.0, "lon": -77.06296633333334, "type": "electric_scooter", "fusion_lon": 0.0, "lat": 38.903965666666664}, {"rental_uris": {"android": "https://dc.lft.to/lastmile_qr_scan", "ios": "https://dc.lft.to/lastmile_qr_scan"}, "is_reserved": 0, "is_disabled": 0, "name": "ae2e6dcfbcbfb88d6270a940485af053", "bike_id": "ae2e6dcfbcbfb88d6270a940485af053", "fusion_lat": 0.0, "lon": -77.023703, "type": "electric_scooter", "fusion_lon": 0.0, "lat": 38.8922045}, {"rental_uris": {"android": "https://dc.lft.to/lastmile_qr_scan", "ios": "https://dc.lft.to/lastmile_qr_scan"}, "is_reserved": 0, "is_disabled": 0, "name": "74bd3aea6442257cf8422a671d233752", "bike_id": "74bd3aea6442257cf8422a671d233752", "fusion_lat": 0.0, "lon": -77.02200783333333, "type": "electric_scooter", "fusion_lon": 0.0, "lat": 38.9112365}, {"rental_uris": {"android": "https://dc.lft.to/lastmile_qr_scan", "ios": "https://dc.lft.to/lastmile_qr_scan"}, "is_reserved": 0, "is_disabled": 0, "name": "c9080788b3d0f810282c2b4521c7c04d", "bike_id": "c9080788b3d0f810282c2b4521c7c04d", "fusion_lat": 0.0, "lon": -77.04174233333333, "type": "electric_scooter", "fusion_lon": 0.0, "lat": 38.91724033333333}, {"rental_uris": {"android": "https://dc.lft.to/lastmile_qr_scan", "ios": "https://dc.lft.to/lastmile_qr_scan"}, "is_reserved": 0, "is_disabled": 0, "name": "b3b20e0a84888c52504cd90c9e2c755d", "bike_id": "b3b20e0a84888c52504cd90c9e2c755d", "fusion_lat": 0.0, "lon": -77.0209375, "type": "electric_scooter", "fusion_lon": 0.0, "lat": 38.923637166666666}, {"rental_uris": {"android": "https://dc.lft.to/lastmile_qr_scan", "ios": "https://dc.lft.to/lastmile_qr_scan"}, "is_reserved": 0, "is_disabled": 0, "name": "6f8ff969949ec1c6dae26d9eca846e9e", "bike_id": "6f8ff969949ec1c6dae26d9eca846e9e", "fusion_lat": 0.0, "lon": -77.014815, "type": "electric_scooter", "fusion_lon": 0.0, "lat": 38.91406766666667}, {"rental_uris": {"android": "https://dc.lft.to/lastmile_qr_scan", "ios": "https://dc.lft.to/lastmile_qr_scan"}, "is_reserved": 0, "is_disabled": 0, "name": "75fa3c55439abbd4dc3ebbafe818f015", "bike_id": "75fa3c55439abbd4dc3ebbafe818f015", "fusion_lat": 0.0, "lon": -77.01809816666666, "type": "electric_scooter", "fusion_lon": 0.0, "lat": 38.91995333333333}, {"rental_uris": {"android": "https://dc.lft.to/lastmile_qr_scan", "ios": "https://dc.lft.to/lastmile_qr_scan"}, "is_reserved": 0, "is_disabled": 0, "name": "2eb1cf39bbbd2bd12182f54aae13c6b8", "bike_id": "2eb1cf39bbbd2bd12182f54aae13c6b8", "fusion_lat": 0.0, "lon": -77.011962, "type": "electric_bike", "fusion_lon": 0.0, "lat": 38.9506615}, {"rental_uris": {"android": "https://dc.lft.to/lastmile_qr_scan", "ios": "https://dc.lft.to/lastmile_qr_scan"}, "is_reserved": 0, "is_disabled": 0, "name": "ddedcc5a24e76c8ed9a0a0c0315ee27b", "bike_id": "ddedcc5a24e76c8ed9a0a0c0315ee27b", "fusion_lat": 0.0, "lon": -77.019784, "type": "electric_scooter", "fusion_lon": 0.0, "lat": 38.887187}, {"rental_uris": {"android": "https://dc.lft.to/lastmile_qr_scan", "ios": "https://dc.lft.to/lastmile_qr_scan"}, "is_reserved": 0, "is_disabled": 0, "name": "a6deef9f3b7a08c0eea370c91ef8fe01", "bike_id": "a6deef9f3b7a08c0eea370c91ef8fe01", "fusion_lat": 0.0, "lon": -77.045406, "type": "electric_scooter", "fusion_lon": 0.0, "lat": 38.902659666666665}, {"rental_uris": {"android": "https://dc.lft.to/lastmile_qr_scan", "ios": "https://dc.lft.to/lastmile_qr_scan"}, "is_reserved": 0, "is_disabled": 0, "name": "5aa9e311c2d3a21c90daa0e2a22a5b8b", "bike_id": "5aa9e311c2d3a21c90daa0e2a22a5b8b", "fusion_lat": 0.0, "lon": -77.0445985, "type": "electric_scooter", "fusion_lon": 0.0, "lat": 38.924708833333334}, {"rental_uris": {"android": "https://dc.lft.to/lastmile_qr_scan", "ios": "https://dc.lft.to/lastmile_qr_scan"}, "is_reserved": 0, "is_disabled": 0, "name": "efc0b0dd8c9c95bc70d10c65d54e193c", "bike_id": "efc0b0dd8c9c95bc70d10c65d54e193c", "fusion_lat": 0.0, "lon": -76.95561733333334, "type": "electric_bike", "fusion_lon": 0.0, "lat": 38.984994}, {"rental_uris": {"android": "https://dc.lft.to/lastmile_qr_scan", "ios": "https://dc.lft.to/lastmile_qr_scan"}, "is_reserved": 0, "is_disabled": 0, "name": "82bc87028cc1738a5067f763fe46b82e", "bike_id": "82bc87028cc1738a5067f763fe46b82e", "fusion_lat": 0.0, "lon": -77.042676, "type": "electric_scooter", "fusion_lon": 0.0, "lat": 38.92232883333333}, {"rental_uris": {"android": "https://dc.lft.to/lastmile_qr_scan", "ios": "https://dc.lft.to/lastmile_qr_scan"}, "is_reserved": 0, "is_disabled": 0, "name": "61235f9c3dcc7080022d9c089596997b", "bike_id": "61235f9c3dcc7080022d9c089596997b", "fusion_lat": 0.0, "lon": -76.9652385, "type": "electric_scooter", "fusion_lon": 0.0, "lat": 38.876281166666665}, {"rental_uris": {"android": "https://dc.lft.to/lastmile_qr_scan", "ios": "https://dc.lft.to/lastmile_qr_scan"}, "is_reserved": 0, "is_disabled": 0, "name": "8a0a0f9e8de38984bb82f50edfcf2b70", "bike_id": "8a0a0f9e8de38984bb82f50edfcf2b70", "fusion_lat": 0.0, "lon": -76.995156, "type": "electric_scooter", "fusion_lon": 0.0, "lat": 38.88794083333333}, {"rental_uris": {"android": "https://dc.lft.to/lastmile_qr_scan", "ios": "https://dc.lft.to/lastmile_qr_scan"}, "is_reserved": 0, "is_disabled": 0, "name": "7b53ede61361bdfd3de11be528fb6899", "bike_id": "7b53ede61361bdfd3de11be528fb6899", "fusion_lat": 0.0, "lon": -77.03416016666667, "type": "electric_scooter", "fusion_lon": 0.0, "lat": 38.930873166666665}, {"rental_uris": {"android": "https://dc.lft.to/lastmile_qr_scan", "ios": "https://dc.lft.to/lastmile_qr_scan"}, "is_reserved": 0, "is_disabled": 0, "name": "eb048967eab0840db038794a7f68d5ee", "bike_id": "eb048967eab0840db038794a7f68d5ee", "fusion_lat": 0.0, "lon": -77.04097866666666, "type": "electric_scooter", "fusion_lon": 0.0, "lat": 38.90108266666667}, {"rental_uris": {"android": "https://dc.lft.to/lastmile_qr_scan", "ios": "https://dc.lft.to/lastmile_qr_scan"}, "is_reserved": 0, "is_disabled": 0, "name": "a0e6271ba716e6f58b2f0ddb57f479d8", "bike_id": "a0e6271ba716e6f58b2f0ddb57f479d8", "fusion_lat": 0.0, "lon": -77.03839616666667, "type": "electric_scooter", "fusion_lon": 0.0, "lat": 38.902628666666665}, {"rental_uris": {"android": "https://dc.lft.to/lastmile_qr_scan", "ios": "https://dc.lft.to/lastmile_qr_scan"}, "is_reserved": 0, "is_disabled": 0, "name": "b7433907f77cf01773ebca60611222c2", "bike_id": "b7433907f77cf01773ebca60611222c2", "fusion_lat": 0.0, "lon": -76.9823325, "type": "electric_scooter", "fusion_lon": 0.0, "lat": 38.86890066666667}, {"rental_uris": {"android": "https://dc.lft.to/lastmile_qr_scan", "ios": "https://dc.lft.to/lastmile_qr_scan"}, "is_reserved": 0, "is_disabled": 0, "name": "603cb0c94df8d30c7ad709155e256b35", "bike_id": "603cb0c94df8d30c7ad709155e256b35", "fusion_lat": 0.0, "lon": -77.048697, "type": "electric_scooter", "fusion_lon": 0.0, "lat": 38.8995395}, {"rental_uris": {"android": "https://dc.lft.to/lastmile_qr_scan", "ios": "https://dc.lft.to/lastmile_qr_scan"}, "is_reserved": 0, "is_disabled": 0, "name": "ac161fb5ce993075df193f68de6630ee", "bike_id": "ac161fb5ce993075df193f68de6630ee", "fusion_lat": 0.0, "lon": -76.995421, "type": "electric_bike", "fusion_lon": 0.0, "lat": 38.9562925}, {"rental_uris": {"android": "https://dc.lft.to/lastmile_qr_scan", "ios": "https://dc.lft.to/lastmile_qr_scan"}, "is_reserved": 0, "is_disabled": 0, "name": "012c0e7bed2271abb5b8478ad78844d0", "bike_id": "012c0e7bed2271abb5b8478ad78844d0", "fusion_lat": 0.0, "lon": -76.9653775, "type": "electric_scooter", "fusion_lon": 0.0, "lat": 38.91846316666667}, {"rental_uris": {"android": "https://dc.lft.to/lastmile_qr_scan", "ios": "https://dc.lft.to/lastmile_qr_scan"}, "is_reserved": 0, "is_disabled": 0, "name": "6f1b2ee832b591f599a153bc7a01426d", "bike_id": "6f1b2ee832b591f599a153bc7a01426d", "fusion_lat": 0.0, "lon": -76.93553083333333, "type": "electric_scooter", "fusion_lon": 0.0, "lat": 38.8827495}, {"rental_uris": {"android": "https://dc.lft.to/lastmile_qr_scan", "ios": "https://dc.lft.to/lastmile_qr_scan"}, "is_reserved": 0, "is_disabled": 0, "name": "0f450151e2ac6b5885931ae80134d198", "bike_id": "0f450151e2ac6b5885931ae80134d198", "fusion_lat": 0.0, "lon": -77.00679383333333, "type": "electric_scooter", "fusion_lon": 0.0, "lat": 38.900166666666664}, {"rental_uris": {"android": "https://dc.lft.to/lastmile_qr_scan", "ios": "https://dc.lft.to/lastmile_qr_scan"}, "is_reserved": 0, "is_disabled": 0, "name": "d0d8d0fc3e29395189e9d5f37c146650", "bike_id": "d0d8d0fc3e29395189e9d5f37c146650", "fusion_lat": 0.0, "lon": -77.02132233333333, "type": "electric_scooter", "fusion_lon": 0.0, "lat": 38.922788}, {"rental_uris": {"android": "https://dc.lft.to/lastmile_qr_scan", "ios": "https://dc.lft.to/lastmile_qr_scan"}, "is_reserved": 0, "is_disabled": 0, "name": "a991daa5f312eb49c365d013aff7fe74", "bike_id": "a991daa5f312eb49c365d013aff7fe74", "fusion_lat": 0.0, "lon": -77.0303885, "type": "electric_scooter", "fusion_lon": 0.0, "lat": 38.95083833333333}, {"rental_uris": {"android": "https://dc.lft.to/lastmile_qr_scan", "ios": "https://dc.lft.to/lastmile_qr_scan"}, "is_reserved": 0, "is_disabled": 0, "name": "1792382428e546d982a2df11b335e5b7", "bike_id": "1792382428e546d982a2df11b335e5b7", "fusion_lat": 0.0, "lon": -76.96715033333334, "type": "electric_scooter", "fusion_lon": 0.0, "lat": 38.859706333333335}, {"rental_uris": {"android": "https://dc.lft.to/lastmile_qr_scan", "ios": "https://dc.lft.to/lastmile_qr_scan"}, "is_reserved": 0, "is_disabled": 0, "name": "be4a896063e217a6b67f2684ca5974ba", "bike_id": "be4a896063e217a6b67f2684ca5974ba", "fusion_lat": 0.0, "lon": -77.04230816666667, "type": "electric_scooter", "fusion_lon": 0.0, "lat": 38.934106666666665}, {"rental_uris": {"android": "https://dc.lft.to/lastmile_qr_scan", "ios": "https://dc.lft.to/lastmile_qr_scan"}, "is_reserved": 0, "is_disabled": 0, "name": "139a63404afaeba03435d8b809a7a94f", "bike_id": "139a63404afaeba03435d8b809a7a94f", "fusion_lat": 0.0, "lon": -77.01868766666666, "type": "electric_scooter", "fusion_lon": 0.0, "lat": 38.97370166666666}, {"rental_uris": {"android": "https://dc.lft.to/lastmile_qr_scan", "ios": "https://dc.lft.to/lastmile_qr_scan"}, "is_reserved": 0, "is_disabled": 0, "name": "bec2c31de452861654cc44c439a8a5f4", "bike_id": "bec2c31de452861654cc44c439a8a5f4", "fusion_lat": 0.0, "lon": -77.00311433333333, "type": "electric_scooter", "fusion_lon": 0.0, "lat": 38.876659}, {"rental_uris": {"android": "https://dc.lft.to/lastmile_qr_scan", "ios": "https://dc.lft.to/lastmile_qr_scan"}, "is_reserved": 0, "is_disabled": 0, "name": "720212b076b2e2af3e336e598decfef3", "bike_id": "720212b076b2e2af3e336e598decfef3", "fusion_lat": 0.0, "lon": -77.02185533333333, "type": "electric_scooter", "fusion_lon": 0.0, "lat": 38.887201}, {"rental_uris": {"android": "https://dc.lft.to/lastmile_qr_scan", "ios": "https://dc.lft.to/lastmile_qr_scan"}, "is_reserved": 0, "is_disabled": 0, "name": "6e26522416cebde2db06a62fee36057c", "bike_id": "6e26522416cebde2db06a62fee36057c", "fusion_lat": 0.0, "lon": -77.02574933333334, "type": "electric_scooter", "fusion_lon": 0.0, "lat": 38.9125625}, {"rental_uris": {"android": "https://dc.lft.to/lastmile_qr_scan", "ios": "https://dc.lft.to/lastmile_qr_scan"}, "is_reserved": 0, "is_disabled": 0, "name": "083e3959213c07e1137f2da072cc7802", "bike_id": "083e3959213c07e1137f2da072cc7802", "fusion_lat": 0.0, "lon": -77.03207933333333, "type": "electric_scooter", "fusion_lon": 0.0, "lat": 38.908939833333335}, {"rental_uris": {"android": "https://dc.lft.to/lastmile_qr_scan", "ios": "https://dc.lft.to/lastmile_qr_scan"}, "is_reserved": 0, "is_disabled": 0, "name": "41841d47d9c4895e8abf5158501b214b", "bike_id": "41841d47d9c4895e8abf5158501b214b", "fusion_lat": 0.0, "lon": -77.02771566666667, "type": "electric_scooter", "fusion_lon": 0.0, "lat": 38.934143666666664}, {"rental_uris": {"android": "https://dc.lft.to/lastmile_qr_scan", "ios": "https://dc.lft.to/lastmile_qr_scan"}, "is_reserved": 0, "is_disabled": 0, "name": "b70b70685364922c4863ceec57f6f315", "bike_id": "b70b70685364922c4863ceec57f6f315", "fusion_lat": 0.0, "lon": -77.042094, "type": "electric_scooter", "fusion_lon": 0.0, "lat": 38.90908983333333}, {"rental_uris": {"android": "https://dc.lft.to/lastmile_qr_scan", "ios": "https://dc.lft.to/lastmile_qr_scan"}, "is_reserved": 0, "is_disabled": 0, "name": "ad2d35d31fa1f6a6cb96c1d7da30c571", "bike_id": "ad2d35d31fa1f6a6cb96c1d7da30c571", "fusion_lat": 0.0, "lon": -77.02695416666667, "type": "electric_scooter", "fusion_lon": 0.0, "lat": 38.92781166666666}, {"rental_uris": {"android": "https://dc.lft.to/lastmile_qr_scan", "ios": "https://dc.lft.to/lastmile_qr_scan"}, "is_reserved": 0, "is_disabled": 0, "name": "99d75a24b485304b2e6b8129c9987891", "bike_id": "99d75a24b485304b2e6b8129c9987891", "fusion_lat": 0.0, "lon": -76.98351066666666, "type": "electric_scooter", "fusion_lon": 0.0, "lat": 38.91550016666667}, {"rental_uris": {"android": "https://dc.lft.to/lastmile_qr_scan", "ios": "https://dc.lft.to/lastmile_qr_scan"}, "is_reserved": 0, "is_disabled": 0, "name": "eb8c2de4241c602d5ce4e6bbb60a3015", "bike_id": "eb8c2de4241c602d5ce4e6bbb60a3015", "fusion_lat": 0.0, "lon": -77.045084, "type": "electric_scooter", "fusion_lon": 0.0, "lat": 38.892197333333336}, {"rental_uris": {"android": "https://dc.lft.to/lastmile_qr_scan", "ios": "https://dc.lft.to/lastmile_qr_scan"}, "is_reserved": 0, "is_disabled": 0, "name": "52270fae3b6f7fc40086fd44ec808893", "bike_id": "52270fae3b6f7fc40086fd44ec808893", "fusion_lat": 0.0, "lon": -76.985446, "type": "electric_scooter", "fusion_lon": 0.0, "lat": 38.905912666666666}, {"rental_uris": {"android": "https://dc.lft.to/lastmile_qr_scan", "ios": "https://dc.lft.to/lastmile_qr_scan"}, "is_reserved": 0, "is_disabled": 0, "name": "60cd38e1b0a4390e576f7ed26179a9e3", "bike_id": "60cd38e1b0a4390e576f7ed26179a9e3", "fusion_lat": 0.0, "lon": -77.03756483333333, "type": "electric_scooter", "fusion_lon": 0.0, "lat": 38.903442166666665}, {"rental_uris": {"android": "https://dc.lft.to/lastmile_qr_scan", "ios": "https://dc.lft.to/lastmile_qr_scan"}, "is_reserved": 0, "is_disabled": 0, "name": "6d07f4a31f6731009aab63d000770aee", "bike_id": "6d07f4a31f6731009aab63d000770aee", "fusion_lat": 0.0, "lon": -77.03845466666667, "type": "electric_scooter", "fusion_lon": 0.0, "lat": 38.90350633333333}, {"rental_uris": {"android": "https://dc.lft.to/lastmile_qr_scan", "ios": "https://dc.lft.to/lastmile_qr_scan"}, "is_reserved": 0, "is_disabled": 0, "name": "ff0358898d9657d375143d8ff03ae011", "bike_id": "ff0358898d9657d375143d8ff03ae011", "fusion_lat": 0.0, "lon": -77.02410383333333, "type": "electric_scooter", "fusion_lon": 0.0, "lat": 38.9170765}, {"rental_uris": {"android": "https://dc.lft.to/lastmile_qr_scan", "ios": "https://dc.lft.to/lastmile_qr_scan"}, "is_reserved": 0, "is_disabled": 0, "name": "bcc56e02c235384ef3e10858a377b944", "bike_id": "bcc56e02c235384ef3e10858a377b944", "fusion_lat": 0.0, "lon": -76.97706716666667, "type": "electric_bike", "fusion_lon": 0.0, "lat": 38.822048}, {"rental_uris": {"android": "https://dc.lft.to/lastmile_qr_scan", "ios": "https://dc.lft.to/lastmile_qr_scan"}, "is_reserved": 0, "is_disabled": 0, "name": "44c6080ddd8b7858da8b717300f32e80", "bike_id": "44c6080ddd8b7858da8b717300f32e80", "fusion_lat": 0.0, "lon": -76.93526816666666, "type": "electric_scooter", "fusion_lon": 0.0, "lat": 38.87893}, {"rental_uris": {"android": "https://dc.lft.to/lastmile_qr_scan", "ios": "https://dc.lft.to/lastmile_qr_scan"}, "is_reserved": 0, "is_disabled": 0, "name": "b21dc340ef206aaf0ea30fab3a9ab999", "bike_id": "b21dc340ef206aaf0ea30fab3a9ab999", "fusion_lat": 0.0, "lon": -77.031866, "type": "electric_scooter", "fusion_lon": 0.0, "lat": 38.91346633333333}, {"rental_uris": {"android": "https://dc.lft.to/lastmile_qr_scan", "ios": "https://dc.lft.to/lastmile_qr_scan"}, "is_reserved": 0, "is_disabled": 0, "name": "8af9c87b7f0af1aedcad8c9f77309747", "bike_id": "8af9c87b7f0af1aedcad8c9f77309747", "fusion_lat": 0.0, "lon": -77.00740733333333, "type": "electric_scooter", "fusion_lon": 0.0, "lat": 38.89845783333333}, {"rental_uris": {"android": "https://dc.lft.to/lastmile_qr_scan", "ios": "https://dc.lft.to/lastmile_qr_scan"}, "is_reserved": 0, "is_disabled": 0, "name": "9d5aff887c14df8551253251d6db58f6", "bike_id": "9d5aff887c14df8551253251d6db58f6", "fusion_lat": 0.0, "lon": -77.03547966666666, "type": "electric_scooter", "fusion_lon": 0.0, "lat": 38.908024166666664}, {"rental_uris": {"android": "https://dc.lft.to/lastmile_qr_scan", "ios": "https://dc.lft.to/lastmile_qr_scan"}, "is_reserved": 0, "is_disabled": 0, "name": "44a32c3ba1da50de118ca65e3fe72b52", "bike_id": "44a32c3ba1da50de118ca65e3fe72b52", "fusion_lat": 0.0, "lon": -77.06389883333334, "type": "electric_scooter", "fusion_lon": 0.0, "lat": 38.90918533333333}, {"rental_uris": {"android": "https://dc.lft.to/lastmile_qr_scan", "ios": "https://dc.lft.to/lastmile_qr_scan"}, "is_reserved": 0, "is_disabled": 0, "name": "6daf5796f48c24572aa3a4a906a29a3d", "bike_id": "6daf5796f48c24572aa3a4a906a29a3d", "fusion_lat": 0.0, "lon": -77.027868, "type": "electric_scooter", "fusion_lon": 0.0, "lat": 38.96129283333333}, {"rental_uris": {"android": "https://dc.lft.to/lastmile_qr_scan", "ios": "https://dc.lft.to/lastmile_qr_scan"}, "is_reserved": 0, "is_disabled": 0, "name": "8ef40ba24ebfb9826933c072c940de00", "bike_id": "8ef40ba24ebfb9826933c072c940de00", "fusion_lat": 0.0, "lon": -77.05992866666666, "type": "electric_bike", "fusion_lon": 0.0, "lat": 38.86211933333333}, {"rental_uris": {"android": "https://dc.lft.to/lastmile_qr_scan", "ios": "https://dc.lft.to/lastmile_qr_scan"}, "is_reserved": 0, "is_disabled": 0, "name": "5d08af8157181472c5b178e7cf370b82", "bike_id": "5d08af8157181472c5b178e7cf370b82", "fusion_lat": 0.0, "lon": -77.233931, "type": "electric_bike", "fusion_lon": 0.0, "lat": 38.871735666666666}, {"rental_uris": {"android": "https://dc.lft.to/lastmile_qr_scan", "ios": "https://dc.lft.to/lastmile_qr_scan"}, "is_reserved": 0, "is_disabled": 0, "name": "541a30f33ea04475d075e33b3487d6a9", "bike_id": "541a30f33ea04475d075e33b3487d6a9", "fusion_lat": 0.0, "lon": -77.00598483333333, "type": "electric_scooter", "fusion_lon": 0.0, "lat": 38.875450666666666}, {"rental_uris": {"android": "https://dc.lft.to/lastmile_qr_scan", "ios": "https://dc.lft.to/lastmile_qr_scan"}, "is_reserved": 0, "is_disabled": 0, "name": "f0b05ee49b5bf494ab6d55ec7a02a8a3", "bike_id": "f0b05ee49b5bf494ab6d55ec7a02a8a3", "fusion_lat": 0.0, "lon": -77.04236483333334, "type": "electric_scooter", "fusion_lon": 0.0, "lat": 38.92064633333333}, {"rental_uris": {"android": "https://dc.lft.to/lastmile_qr_scan", "ios": "https://dc.lft.to/lastmile_qr_scan"}, "is_reserved": 0, "is_disabled": 0, "name": "69117aa9cc032b32635f9ce4b386d993", "bike_id": "69117aa9cc032b32635f9ce4b386d993", "fusion_lat": 0.0, "lon": -77.01945766666667, "type": "electric_scooter", "fusion_lon": 0.0, "lat": 38.92442283333333}, {"rental_uris": {"android": "https://dc.lft.to/lastmile_qr_scan", "ios": "https://dc.lft.to/lastmile_qr_scan"}, "is_reserved": 0, "is_disabled": 0, "name": "30e19518efb33d6e564174b1f6263bf3", "bike_id": "30e19518efb33d6e564174b1f6263bf3", "fusion_lat": 0.0, "lon": -77.00203716666667, "type": "electric_scooter", "fusion_lon": 0.0, "lat": 38.9003255}, {"rental_uris": {"android": "https://dc.lft.to/lastmile_qr_scan", "ios": "https://dc.lft.to/lastmile_qr_scan"}, "is_reserved": 0, "is_disabled": 0, "name": "ea0fdf7e44b602f70d7456d863a261ef", "bike_id": "ea0fdf7e44b602f70d7456d863a261ef", "fusion_lat": 0.0, "lon": -77.015203, "type": "electric_scooter", "fusion_lon": 0.0, "lat": 38.872798833333334}, {"rental_uris": {"android": "https://dc.lft.to/lastmile_qr_scan", "ios": "https://dc.lft.to/lastmile_qr_scan"}, "is_reserved": 0, "is_disabled": 0, "name": "1db7991e8f64deb04fcec2c5acf1ceda", "bike_id": "1db7991e8f64deb04fcec2c5acf1ceda", "fusion_lat": 0.0, "lon": -77.05211916666667, "type": "electric_scooter", "fusion_lon": 0.0, "lat": 38.924331}, {"rental_uris": {"android": "https://dc.lft.to/lastmile_qr_scan", "ios": "https://dc.lft.to/lastmile_qr_scan"}, "is_reserved": 0, "is_disabled": 0, "name": "ac76ab9a9256666faa18d0d53e8e3c63", "bike_id": "ac76ab9a9256666faa18d0d53e8e3c63", "fusion_lat": 0.0, "lon": -76.984219, "type": "electric_bike", "fusion_lon": 0.0, "lat": 38.855074333333334}, {"rental_uris": {"android": "https://dc.lft.to/lastmile_qr_scan", "ios": "https://dc.lft.to/lastmile_qr_scan"}, "is_reserved": 0, "is_disabled": 0, "name": "75a8be3105ef44676309216d58b02d5c", "bike_id": "75a8be3105ef44676309216d58b02d5c", "fusion_lat": 0.0, "lon": -77.03842266666666, "type": "electric_scooter", "fusion_lon": 0.0, "lat": 38.90256683333333}, {"rental_uris": {"android": "https://dc.lft.to/lastmile_qr_scan", "ios": "https://dc.lft.to/lastmile_qr_scan"}, "is_reserved": 0, "is_disabled": 0, "name": "2ae5eb8def019c54f82fafbe1fdc17ca", "bike_id": "2ae5eb8def019c54f82fafbe1fdc17ca", "fusion_lat": 0.0, "lon": -77.01721366666666, "type": "electric_scooter", "fusion_lon": 0.0, "lat": 38.9748675}, {"rental_uris": {"android": "https://dc.lft.to/lastmile_qr_scan", "ios": "https://dc.lft.to/lastmile_qr_scan"}, "is_reserved": 0, "is_disabled": 0, "name": "879c9389bce8aa9b8d84d755d52c2995", "bike_id": "879c9389bce8aa9b8d84d755d52c2995", "fusion_lat": 0.0, "lon": -77.00889583333333, "type": "electric_scooter", "fusion_lon": 0.0, "lat": 38.92465883333333}, {"rental_uris": {"android": "https://dc.lft.to/lastmile_qr_scan", "ios": "https://dc.lft.to/lastmile_qr_scan"}, "is_reserved": 0, "is_disabled": 0, "name": "126ce9c2e6fa55612513987e54d7364c", "bike_id": "126ce9c2e6fa55612513987e54d7364c", "fusion_lat": 0.0, "lon": -77.0968565, "type": "electric_bike", "fusion_lon": 0.0, "lat": 38.8073815}, {"rental_uris": {"android": "https://dc.lft.to/lastmile_qr_scan", "ios": "https://dc.lft.to/lastmile_qr_scan"}, "is_reserved": 0, "is_disabled": 0, "name": "97e54a352d2908af80d0a6abc6115368", "bike_id": "97e54a352d2908af80d0a6abc6115368", "fusion_lat": 0.0, "lon": -76.98511366666666, "type": "electric_scooter", "fusion_lon": 0.0, "lat": 38.90043883333333}, {"rental_uris": {"android": "https://dc.lft.to/lastmile_qr_scan", "ios": "https://dc.lft.to/lastmile_qr_scan"}, "is_reserved": 0, "is_disabled": 0, "name": "65a24c55cf436fce78b820aae3dd6336", "bike_id": "65a24c55cf436fce78b820aae3dd6336", "fusion_lat": 0.0, "lon": -76.9487325, "type": "electric_scooter", "fusion_lon": 0.0, "lat": 38.89499583333333}, {"rental_uris": {"android": "https://dc.lft.to/lastmile_qr_scan", "ios": "https://dc.lft.to/lastmile_qr_scan"}, "is_reserved": 0, "is_disabled": 0, "name": "39fcc0f72d04d86fdeb04f9d71228d73", "bike_id": "39fcc0f72d04d86fdeb04f9d71228d73", "fusion_lat": 0.0, "lon": -77.03865833333333, "type": "electric_scooter", "fusion_lon": 0.0, "lat": 38.917059333333334}, {"rental_uris": {"android": "https://dc.lft.to/lastmile_qr_scan", "ios": "https://dc.lft.to/lastmile_qr_scan"}, "is_reserved": 0, "is_disabled": 0, "name": "12eddac0fb0dd94906de62f143c1d704", "bike_id": "12eddac0fb0dd94906de62f143c1d704", "fusion_lat": 0.0, "lon": -77.040956, "type": "electric_scooter", "fusion_lon": 0.0, "lat": 38.905826166666664}, {"rental_uris": {"android": "https://dc.lft.to/lastmile_qr_scan", "ios": "https://dc.lft.to/lastmile_qr_scan"}, "is_reserved": 0, "is_disabled": 0, "name": "0b58e811ee5ff229c001b6f07b828d4b", "bike_id": "0b58e811ee5ff229c001b6f07b828d4b", "fusion_lat": 0.0, "lon": -77.04617383333333, "type": "electric_scooter", "fusion_lon": 0.0, "lat": 38.8979965}, {"rental_uris": {"android": "https://dc.lft.to/lastmile_qr_scan", "ios": "https://dc.lft.to/lastmile_qr_scan"}, "is_reserved": 0, "is_disabled": 0, "name": "e3ae9ddffa71b753eba0e1f6811983d6", "bike_id": "e3ae9ddffa71b753eba0e1f6811983d6", "fusion_lat": 0.0, "lon": -77.03854033333333, "type": "electric_scooter", "fusion_lon": 0.0, "lat": 38.92168916666667}, {"rental_uris": {"android": "https://dc.lft.to/lastmile_qr_scan", "ios": "https://dc.lft.to/lastmile_qr_scan"}, "is_reserved": 0, "is_disabled": 0, "name": "11ca25b9b6e6867abed2592306dff591", "bike_id": "11ca25b9b6e6867abed2592306dff591", "fusion_lat": 0.0, "lon": -77.01445616666666, "type": "electric_scooter", "fusion_lon": 0.0, "lat": 38.95816966666667}, {"rental_uris": {"android": "https://dc.lft.to/lastmile_qr_scan", "ios": "https://dc.lft.to/lastmile_qr_scan"}, "is_reserved": 0, "is_disabled": 0, "name": "cddb2bc3df057d2f041cd9116df860d9", "bike_id": "cddb2bc3df057d2f041cd9116df860d9", "fusion_lat": 0.0, "lon": -77.02633383333334, "type": "electric_scooter", "fusion_lon": 0.0, "lat": 38.929142166666665}, {"rental_uris": {"android": "https://dc.lft.to/lastmile_qr_scan", "ios": "https://dc.lft.to/lastmile_qr_scan"}, "is_reserved": 0, "is_disabled": 0, "name": "e96b6fe8f5ff38bb3ebc0e2550adc605", "bike_id": "e96b6fe8f5ff38bb3ebc0e2550adc605", "fusion_lat": 0.0, "lon": -76.933595, "type": "electric_scooter", "fusion_lon": 0.0, "lat": 38.89826733333334}, {"rental_uris": {"android": "https://dc.lft.to/lastmile_qr_scan", "ios": "https://dc.lft.to/lastmile_qr_scan"}, "is_reserved": 0, "is_disabled": 0, "name": "2045e2686521ec5fc10eb7a09fe7fd90", "bike_id": "2045e2686521ec5fc10eb7a09fe7fd90", "fusion_lat": 0.0, "lon": -77.01943533333333, "type": "electric_scooter", "fusion_lon": 0.0, "lat": 38.923344166666666}, {"rental_uris": {"android": "https://dc.lft.to/lastmile_qr_scan", "ios": "https://dc.lft.to/lastmile_qr_scan"}, "is_reserved": 0, "is_disabled": 0, "name": "6bc9f52cba79bc87771dca987d0f1ad2", "bike_id": "6bc9f52cba79bc87771dca987d0f1ad2", "fusion_lat": 0.0, "lon": -76.99309683333334, "type": "electric_bike", "fusion_lon": 0.0, "lat": 38.8974045}, {"rental_uris": {"android": "https://dc.lft.to/lastmile_qr_scan", "ios": "https://dc.lft.to/lastmile_qr_scan"}, "is_reserved": 0, "is_disabled": 0, "name": "8119507002902985086b2db343bd64a3", "bike_id": "8119507002902985086b2db343bd64a3", "fusion_lat": 0.0, "lon": -77.037265, "type": "electric_scooter", "fusion_lon": 0.0, "lat": 38.91704466666667}, {"rental_uris": {"android": "https://dc.lft.to/lastmile_qr_scan", "ios": "https://dc.lft.to/lastmile_qr_scan"}, "is_reserved": 0, "is_disabled": 0, "name": "d5c410876dbae5b61e6990d37c021d6e", "bike_id": "d5c410876dbae5b61e6990d37c021d6e", "fusion_lat": 0.0, "lon": -77.038524, "type": "electric_scooter", "fusion_lon": 0.0, "lat": 38.908199}, {"rental_uris": {"android": "https://dc.lft.to/lastmile_qr_scan", "ios": "https://dc.lft.to/lastmile_qr_scan"}, "is_reserved": 0, "is_disabled": 0, "name": "116e85166c3cd5f152ba003c3fe86942", "bike_id": "116e85166c3cd5f152ba003c3fe86942", "fusion_lat": 0.0, "lon": -77.072294, "type": "electric_scooter", "fusion_lon": 0.0, "lat": 38.9345565}, {"rental_uris": {"android": "https://dc.lft.to/lastmile_qr_scan", "ios": "https://dc.lft.to/lastmile_qr_scan"}, "is_reserved": 0, "is_disabled": 0, "name": "151fe7952c5d2df6b0eed33f4123557d", "bike_id": "151fe7952c5d2df6b0eed33f4123557d", "fusion_lat": 0.0, "lon": -77.02181016666667, "type": "electric_scooter", "fusion_lon": 0.0, "lat": 38.892301}, {"rental_uris": {"android": "https://dc.lft.to/lastmile_qr_scan", "ios": "https://dc.lft.to/lastmile_qr_scan"}, "is_reserved": 0, "is_disabled": 0, "name": "0684efcb8458898435d42dfd09128adb", "bike_id": "0684efcb8458898435d42dfd09128adb", "fusion_lat": 0.0, "lon": -77.03354716666666, "type": "electric_scooter", "fusion_lon": 0.0, "lat": 38.935813}, {"rental_uris": {"android": "https://dc.lft.to/lastmile_qr_scan", "ios": "https://dc.lft.to/lastmile_qr_scan"}, "is_reserved": 0, "is_disabled": 0, "name": "4928fdbd8a6526cdc9dd3c087d6429de", "bike_id": "4928fdbd8a6526cdc9dd3c087d6429de", "fusion_lat": 0.0, "lon": -77.07911566666667, "type": "electric_bike", "fusion_lon": 0.0, "lat": 38.8382925}, {"rental_uris": {"android": "https://dc.lft.to/lastmile_qr_scan", "ios": "https://dc.lft.to/lastmile_qr_scan"}, "is_reserved": 0, "is_disabled": 0, "name": "61377989252432db49e8f47f71e9d729", "bike_id": "61377989252432db49e8f47f71e9d729", "fusion_lat": 0.0, "lon": -77.2317825, "type": "electric_bike", "fusion_lon": 0.0, "lat": 38.928936}, {"rental_uris": {"android": "https://dc.lft.to/lastmile_qr_scan", "ios": "https://dc.lft.to/lastmile_qr_scan"}, "is_reserved": 0, "is_disabled": 0, "name": "7803110a5d4b8bc72a485561659d56d2", "bike_id": "7803110a5d4b8bc72a485561659d56d2", "fusion_lat": 0.0, "lon": -77.0211655, "type": "electric_scooter", "fusion_lon": 0.0, "lat": 38.91738133333333}, {"rental_uris": {"android": "https://dc.lft.to/lastmile_qr_scan", "ios": "https://dc.lft.to/lastmile_qr_scan"}, "is_reserved": 0, "is_disabled": 0, "name": "84387dc3cee456504ca9a01cb6388a3d", "bike_id": "84387dc3cee456504ca9a01cb6388a3d", "fusion_lat": 0.0, "lon": -77.10290266666667, "type": "electric_bike", "fusion_lon": 0.0, "lat": 38.85254166666667}, {"rental_uris": {"android": "https://dc.lft.to/lastmile_qr_scan", "ios": "https://dc.lft.to/lastmile_qr_scan"}, "is_reserved": 0, "is_disabled": 0, "name": "9efc19cba721da84e2e98f4dce419e38", "bike_id": "9efc19cba721da84e2e98f4dce419e38", "fusion_lat": 0.0, "lon": -77.0626165, "type": "electric_bike", "fusion_lon": 0.0, "lat": 38.944042833333334}, {"rental_uris": {"android": "https://dc.lft.to/lastmile_qr_scan", "ios": "https://dc.lft.to/lastmile_qr_scan"}, "is_reserved": 0, "is_disabled": 0, "name": "ded83e5a1f40f31af8ebcd9123478cb5", "bike_id": "ded83e5a1f40f31af8ebcd9123478cb5", "fusion_lat": 0.0, "lon": -77.02077866666667, "type": "electric_scooter", "fusion_lon": 0.0, "lat": 38.92120416666667}, {"rental_uris": {"android": "https://dc.lft.to/lastmile_qr_scan", "ios": "https://dc.lft.to/lastmile_qr_scan"}, "is_reserved": 0, "is_disabled": 0, "name": "8cb07ef2b0e1a3d24094e207b4c3ac19", "bike_id": "8cb07ef2b0e1a3d24094e207b4c3ac19", "fusion_lat": 0.0, "lon": -77.0716495, "type": "electric_scooter", "fusion_lon": 0.0, "lat": 38.90768666666666}, {"rental_uris": {"android": "https://dc.lft.to/lastmile_qr_scan", "ios": "https://dc.lft.to/lastmile_qr_scan"}, "is_reserved": 0, "is_disabled": 0, "name": "a70a59c164f88bdf575de6fce5439a68", "bike_id": "a70a59c164f88bdf575de6fce5439a68", "fusion_lat": 0.0, "lon": -77.00650216666666, "type": "electric_scooter", "fusion_lon": 0.0, "lat": 38.909826}, {"rental_uris": {"android": "https://dc.lft.to/lastmile_qr_scan", "ios": "https://dc.lft.to/lastmile_qr_scan"}, "is_reserved": 0, "is_disabled": 0, "name": "dfc9712a3b7144f9b705dddbfbc85e19", "bike_id": "dfc9712a3b7144f9b705dddbfbc85e19", "fusion_lat": 0.0, "lon": -77.00611166666667, "type": "electric_scooter", "fusion_lon": 0.0, "lat": 38.90585083333333}, {"rental_uris": {"android": "https://dc.lft.to/lastmile_qr_scan", "ios": "https://dc.lft.to/lastmile_qr_scan"}, "is_reserved": 0, "is_disabled": 0, "name": "1e631a4985ecc69b5ebea64856e52d4e", "bike_id": "1e631a4985ecc69b5ebea64856e52d4e", "fusion_lat": 0.0, "lon": -77.04350066666667, "type": "electric_scooter", "fusion_lon": 0.0, "lat": 38.910871}, {"rental_uris": {"android": "https://dc.lft.to/lastmile_qr_scan", "ios": "https://dc.lft.to/lastmile_qr_scan"}, "is_reserved": 0, "is_disabled": 0, "name": "f5bc6e627e684bba32882262370bba72", "bike_id": "f5bc6e627e684bba32882262370bba72", "fusion_lat": 0.0, "lon": -77.018864, "type": "electric_scooter", "fusion_lon": 0.0, "lat": 38.897481}, {"rental_uris": {"android": "https://dc.lft.to/lastmile_qr_scan", "ios": "https://dc.lft.to/lastmile_qr_scan"}, "is_reserved": 0, "is_disabled": 0, "name": "62c12cc0e2714cb6e17c6fb1c4047e3e", "bike_id": "62c12cc0e2714cb6e17c6fb1c4047e3e", "fusion_lat": 0.0, "lon": -77.02372233333334, "type": "electric_scooter", "fusion_lon": 0.0, "lat": 38.8921795}, {"rental_uris": {"android": "https://dc.lft.to/lastmile_qr_scan", "ios": "https://dc.lft.to/lastmile_qr_scan"}, "is_reserved": 0, "is_disabled": 0, "name": "cf093739f036d1090f50292655392318", "bike_id": "cf093739f036d1090f50292655392318", "fusion_lat": 0.0, "lon": -77.03277916666667, "type": "electric_scooter", "fusion_lon": 0.0, "lat": 38.89838183333333}, {"rental_uris": {"android": "https://dc.lft.to/lastmile_qr_scan", "ios": "https://dc.lft.to/lastmile_qr_scan"}, "is_reserved": 0, "is_disabled": 0, "name": "9205d5fe8e3ba688e09929e7015c5b9f", "bike_id": "9205d5fe8e3ba688e09929e7015c5b9f", "fusion_lat": 0.0, "lon": -77.03087516666666, "type": "electric_scooter", "fusion_lon": 0.0, "lat": 38.9237805}, {"rental_uris": {"android": "https://dc.lft.to/lastmile_qr_scan", "ios": "https://dc.lft.to/lastmile_qr_scan"}, "is_reserved": 0, "is_disabled": 0, "name": "207f0aaf1e83b8c995b2e00d48ceac0e", "bike_id": "207f0aaf1e83b8c995b2e00d48ceac0e", "fusion_lat": 0.0, "lon": -77.02727616666667, "type": "electric_scooter", "fusion_lon": 0.0, "lat": 38.951997666666664}, {"rental_uris": {"android": "https://dc.lft.to/lastmile_qr_scan", "ios": "https://dc.lft.to/lastmile_qr_scan"}, "is_reserved": 0, "is_disabled": 0, "name": "c811a6e3e7b18cefc0826f1a0a8f574d", "bike_id": "c811a6e3e7b18cefc0826f1a0a8f574d", "fusion_lat": 0.0, "lon": -77.04624483333333, "type": "electric_scooter", "fusion_lon": 0.0, "lat": 38.909691}, {"rental_uris": {"android": "https://dc.lft.to/lastmile_qr_scan", "ios": "https://dc.lft.to/lastmile_qr_scan"}, "is_reserved": 0, "is_disabled": 0, "name": "0acdfce13173fb4ddb962fc4bb080260", "bike_id": "0acdfce13173fb4ddb962fc4bb080260", "fusion_lat": 0.0, "lon": -77.02126033333333, "type": "electric_scooter", "fusion_lon": 0.0, "lat": 38.92409983333334}, {"rental_uris": {"android": "https://dc.lft.to/lastmile_qr_scan", "ios": "https://dc.lft.to/lastmile_qr_scan"}, "is_reserved": 0, "is_disabled": 0, "name": "d4f965ad60a21655f8a7bddadd1a5ff8", "bike_id": "d4f965ad60a21655f8a7bddadd1a5ff8", "fusion_lat": 0.0, "lon": -77.03984883333334, "type": "electric_scooter", "fusion_lon": 0.0, "lat": 38.90133333333333}, {"rental_uris": {"android": "https://dc.lft.to/lastmile_qr_scan", "ios": "https://dc.lft.to/lastmile_qr_scan"}, "is_reserved": 0, "is_disabled": 0, "name": "5f830baeed2436f89e80cfcfeee43444", "bike_id": "5f830baeed2436f89e80cfcfeee43444", "fusion_lat": 0.0, "lon": -77.0446055, "type": "electric_scooter", "fusion_lon": 0.0, "lat": 38.909716833333334}, {"rental_uris": {"android": "https://dc.lft.to/lastmile_qr_scan", "ios": "https://dc.lft.to/lastmile_qr_scan"}, "is_reserved": 0, "is_disabled": 0, "name": "a5aff8f4c5d93108bf5707129e97fc67", "bike_id": "a5aff8f4c5d93108bf5707129e97fc67", "fusion_lat": 0.0, "lon": -77.02031583333333, "type": "electric_scooter", "fusion_lon": 0.0, "lat": 38.922104166666664}, {"rental_uris": {"android": "https://dc.lft.to/lastmile_qr_scan", "ios": "https://dc.lft.to/lastmile_qr_scan"}, "is_reserved": 0, "is_disabled": 0, "name": "a39a80aec32c7e0dd883515f5dedcab7", "bike_id": "a39a80aec32c7e0dd883515f5dedcab7", "fusion_lat": 0.0, "lon": -77.044674, "type": "electric_scooter", "fusion_lon": 0.0, "lat": 38.902717}, {"rental_uris": {"android": "https://dc.lft.to/lastmile_qr_scan", "ios": "https://dc.lft.to/lastmile_qr_scan"}, "is_reserved": 0, "is_disabled": 0, "name": "eb290917b7ad4711935495145404fc5d", "bike_id": "eb290917b7ad4711935495145404fc5d", "fusion_lat": 0.0, "lon": -76.9977175, "type": "electric_scooter", "fusion_lon": 0.0, "lat": 38.9012465}, {"rental_uris": {"android": "https://dc.lft.to/lastmile_qr_scan", "ios": "https://dc.lft.to/lastmile_qr_scan"}, "is_reserved": 0, "is_disabled": 0, "name": "17043689f611f662d40a2e40622075ac", "bike_id": "17043689f611f662d40a2e40622075ac", "fusion_lat": 0.0, "lon": -77.0364065, "type": "electric_scooter", "fusion_lon": 0.0, "lat": 38.90286533333333}, {"rental_uris": {"android": "https://dc.lft.to/lastmile_qr_scan", "ios": "https://dc.lft.to/lastmile_qr_scan"}, "is_reserved": 0, "is_disabled": 0, "name": "ee04e47cf9a87401afa406e387ee5632", "bike_id": "ee04e47cf9a87401afa406e387ee5632", "fusion_lat": 0.0, "lon": -77.02172783333333, "type": "electric_scooter", "fusion_lon": 0.0, "lat": 38.9040435}, {"rental_uris": {"android": "https://dc.lft.to/lastmile_qr_scan", "ios": "https://dc.lft.to/lastmile_qr_scan"}, "is_reserved": 0, "is_disabled": 0, "name": "a4a75bb8a475395e5f06842cfc46875d", "bike_id": "a4a75bb8a475395e5f06842cfc46875d", "fusion_lat": 0.0, "lon": -77.01346883333333, "type": "electric_scooter", "fusion_lon": 0.0, "lat": 38.919383333333336}, {"rental_uris": {"android": "https://dc.lft.to/lastmile_qr_scan", "ios": "https://dc.lft.to/lastmile_qr_scan"}, "is_reserved": 0, "is_disabled": 0, "name": "19993b740adcb1dc73de14287eec1c04", "bike_id": "19993b740adcb1dc73de14287eec1c04", "fusion_lat": 0.0, "lon": -77.04100383333333, "type": "electric_scooter", "fusion_lon": 0.0, "lat": 38.903887166666664}, {"rental_uris": {"android": "https://dc.lft.to/lastmile_qr_scan", "ios": "https://dc.lft.to/lastmile_qr_scan"}, "is_reserved": 0, "is_disabled": 0, "name": "21167de0c9e3a62670c63865eb64044f", "bike_id": "21167de0c9e3a62670c63865eb64044f", "fusion_lat": 0.0, "lon": -77.0456825, "type": "electric_scooter", "fusion_lon": 0.0, "lat": 38.90372633333333}, {"rental_uris": {"android": "https://dc.lft.to/lastmile_qr_scan", "ios": "https://dc.lft.to/lastmile_qr_scan"}, "is_reserved": 0, "is_disabled": 0, "name": "787e7805988c87b8c31f4815db9ee75c", "bike_id": "787e7805988c87b8c31f4815db9ee75c", "fusion_lat": 0.0, "lon": -77.02447716666667, "type": "electric_scooter", "fusion_lon": 0.0, "lat": 38.949747}, {"rental_uris": {"android": "https://dc.lft.to/lastmile_qr_scan", "ios": "https://dc.lft.to/lastmile_qr_scan"}, "is_reserved": 0, "is_disabled": 0, "name": "8b3ef10d87fdf1ed5338e48a8d44c15f", "bike_id": "8b3ef10d87fdf1ed5338e48a8d44c15f", "fusion_lat": 0.0, "lon": -77.02595183333334, "type": "electric_scooter", "fusion_lon": 0.0, "lat": 38.91417783333333}, {"rental_uris": {"android": "https://dc.lft.to/lastmile_qr_scan", "ios": "https://dc.lft.to/lastmile_qr_scan"}, "is_reserved": 0, "is_disabled": 0, "name": "00a2c73c735d730125272ba34d1bd1d6", "bike_id": "00a2c73c735d730125272ba34d1bd1d6", "fusion_lat": 0.0, "lon": -77.0325805, "type": "electric_scooter", "fusion_lon": 0.0, "lat": 38.91982383333333}, {"rental_uris": {"android": "https://dc.lft.to/lastmile_qr_scan", "ios": "https://dc.lft.to/lastmile_qr_scan"}, "is_reserved": 0, "is_disabled": 0, "name": "c2af05803c89a0d071e99b15294035d4", "bike_id": "c2af05803c89a0d071e99b15294035d4", "fusion_lat": 0.0, "lon": -77.01822783333333, "type": "electric_scooter", "fusion_lon": 0.0, "lat": 38.909743}, {"rental_uris": {"android": "https://dc.lft.to/lastmile_qr_scan", "ios": "https://dc.lft.to/lastmile_qr_scan"}, "is_reserved": 0, "is_disabled": 0, "name": "9ff49865b77afe0c0f733d68b05d5343", "bike_id": "9ff49865b77afe0c0f733d68b05d5343", "fusion_lat": 0.0, "lon": -77.0467325, "type": "electric_scooter", "fusion_lon": 0.0, "lat": 38.898168166666665}, {"rental_uris": {"android": "https://dc.lft.to/lastmile_qr_scan", "ios": "https://dc.lft.to/lastmile_qr_scan"}, "is_reserved": 0, "is_disabled": 0, "name": "89b9f1037ce2116fbeaeec5d4069f90c", "bike_id": "89b9f1037ce2116fbeaeec5d4069f90c", "fusion_lat": 0.0, "lon": -77.02223333333333, "type": "electric_scooter", "fusion_lon": 0.0, "lat": 38.924806833333335}, {"rental_uris": {"android": "https://dc.lft.to/lastmile_qr_scan", "ios": "https://dc.lft.to/lastmile_qr_scan"}, "is_reserved": 0, "is_disabled": 0, "name": "4aad9add55148e5163f7c59b0ff8f5ba", "bike_id": "4aad9add55148e5163f7c59b0ff8f5ba", "fusion_lat": 0.0, "lon": -77.03254233333334, "type": "electric_scooter", "fusion_lon": 0.0, "lat": 38.92057033333333}, {"rental_uris": {"android": "https://dc.lft.to/lastmile_qr_scan", "ios": "https://dc.lft.to/lastmile_qr_scan"}, "is_reserved": 0, "is_disabled": 0, "name": "b57f0c4ef2b09fec88162d66815327ea", "bike_id": "b57f0c4ef2b09fec88162d66815327ea", "fusion_lat": 0.0, "lon": -77.020037, "type": "electric_scooter", "fusion_lon": 0.0, "lat": 38.9055485}, {"rental_uris": {"android": "https://dc.lft.to/lastmile_qr_scan", "ios": "https://dc.lft.to/lastmile_qr_scan"}, "is_reserved": 0, "is_disabled": 0, "name": "e261e4b7df2e4c35419547bd98ee4cf1", "bike_id": "e261e4b7df2e4c35419547bd98ee4cf1", "fusion_lat": 0.0, "lon": -77.00301866666666, "type": "electric_scooter", "fusion_lon": 0.0, "lat": 38.876741}, {"rental_uris": {"android": "https://dc.lft.to/lastmile_qr_scan", "ios": "https://dc.lft.to/lastmile_qr_scan"}, "is_reserved": 0, "is_disabled": 0, "name": "7a69484b389d843ba09b07822f2eeb0d", "bike_id": "7a69484b389d843ba09b07822f2eeb0d", "fusion_lat": 0.0, "lon": -77.02162216666666, "type": "electric_scooter", "fusion_lon": 0.0, "lat": 38.92614183333333}, {"rental_uris": {"android": "https://dc.lft.to/lastmile_qr_scan", "ios": "https://dc.lft.to/lastmile_qr_scan"}, "is_reserved": 0, "is_disabled": 0, "name": "e9e211878edb9c0e6230ef24dbe3c7fb", "bike_id": "e9e211878edb9c0e6230ef24dbe3c7fb", "fusion_lat": 0.0, "lon": -77.02786816666666, "type": "electric_bike", "fusion_lon": 0.0, "lat": 38.9267535}, {"rental_uris": {"android": "https://dc.lft.to/lastmile_qr_scan", "ios": "https://dc.lft.to/lastmile_qr_scan"}, "is_reserved": 0, "is_disabled": 0, "name": "7702adef42ea51580a6517dc0684d299", "bike_id": "7702adef42ea51580a6517dc0684d299", "fusion_lat": 0.0, "lon": -76.99696833333333, "type": "electric_scooter", "fusion_lon": 0.0, "lat": 38.8842385}, {"rental_uris": {"android": "https://dc.lft.to/lastmile_qr_scan", "ios": "https://dc.lft.to/lastmile_qr_scan"}, "is_reserved": 0, "is_disabled": 0, "name": "6d056694c04a49ec7b0aee2c4c087225", "bike_id": "6d056694c04a49ec7b0aee2c4c087225", "fusion_lat": 0.0, "lon": -77.04622166666667, "type": "electric_scooter", "fusion_lon": 0.0, "lat": 38.9156925}, {"rental_uris": {"android": "https://dc.lft.to/lastmile_qr_scan", "ios": "https://dc.lft.to/lastmile_qr_scan"}, "is_reserved": 0, "is_disabled": 0, "name": "ba149465f20f156657f13e35db4e3bc0", "bike_id": "ba149465f20f156657f13e35db4e3bc0", "fusion_lat": 0.0, "lon": -77.00336883333334, "type": "electric_scooter", "fusion_lon": 0.0, "lat": 38.89365566666667}, {"rental_uris": {"android": "https://dc.lft.to/lastmile_qr_scan", "ios": "https://dc.lft.to/lastmile_qr_scan"}, "is_reserved": 0, "is_disabled": 0, "name": "10d75f944d901afe5daa5a273c55fc0d", "bike_id": "10d75f944d901afe5daa5a273c55fc0d", "fusion_lat": 0.0, "lon": -77.02330683333334, "type": "electric_scooter", "fusion_lon": 0.0, "lat": 38.9304835}, {"rental_uris": {"android": "https://dc.lft.to/lastmile_qr_scan", "ios": "https://dc.lft.to/lastmile_qr_scan"}, "is_reserved": 0, "is_disabled": 0, "name": "f48603a298f2e57c5a1835c8aa9a40f4", "bike_id": "f48603a298f2e57c5a1835c8aa9a40f4", "fusion_lat": 0.0, "lon": -76.9984075, "type": "electric_scooter", "fusion_lon": 0.0, "lat": 38.90084433333333}, {"rental_uris": {"android": "https://dc.lft.to/lastmile_qr_scan", "ios": "https://dc.lft.to/lastmile_qr_scan"}, "is_reserved": 0, "is_disabled": 0, "name": "d8abee770f6566b7119b0f4eb7ff0cc2", "bike_id": "d8abee770f6566b7119b0f4eb7ff0cc2", "fusion_lat": 0.0, "lon": -77.06364433333333, "type": "electric_scooter", "fusion_lon": 0.0, "lat": 38.9201785}, {"rental_uris": {"android": "https://dc.lft.to/lastmile_qr_scan", "ios": "https://dc.lft.to/lastmile_qr_scan"}, "is_reserved": 0, "is_disabled": 0, "name": "d77cd880a528c64af0c55a2502c5f638", "bike_id": "d77cd880a528c64af0c55a2502c5f638", "fusion_lat": 0.0, "lon": -77.04208366666667, "type": "electric_scooter", "fusion_lon": 0.0, "lat": 38.909285833333335}, {"rental_uris": {"android": "https://dc.lft.to/lastmile_qr_scan", "ios": "https://dc.lft.to/lastmile_qr_scan"}, "is_reserved": 0, "is_disabled": 0, "name": "f270da2e2b2c9ef6a74317708ad8a8e7", "bike_id": "f270da2e2b2c9ef6a74317708ad8a8e7", "fusion_lat": 0.0, "lon": -77.02345216666667, "type": "electric_scooter", "fusion_lon": 0.0, "lat": 38.94192283333334}, {"rental_uris": {"android": "https://dc.lft.to/lastmile_qr_scan", "ios": "https://dc.lft.to/lastmile_qr_scan"}, "is_reserved": 0, "is_disabled": 0, "name": "2781cd70bbb476641261ff66040329b1", "bike_id": "2781cd70bbb476641261ff66040329b1", "fusion_lat": 0.0, "lon": -76.9837195, "type": "electric_scooter", "fusion_lon": 0.0, "lat": 38.89264283333333}, {"rental_uris": {"android": "https://dc.lft.to/lastmile_qr_scan", "ios": "https://dc.lft.to/lastmile_qr_scan"}, "is_reserved": 0, "is_disabled": 0, "name": "9c02534f81cd0b0b482203dd0a196116", "bike_id": "9c02534f81cd0b0b482203dd0a196116", "fusion_lat": 0.0, "lon": -77.030834, "type": "electric_scooter", "fusion_lon": 0.0, "lat": 38.91626383333333}, {"rental_uris": {"android": "https://dc.lft.to/lastmile_qr_scan", "ios": "https://dc.lft.to/lastmile_qr_scan"}, "is_reserved": 0, "is_disabled": 0, "name": "7cc3b18100d7c51c9dae69b2be4f79ee", "bike_id": "7cc3b18100d7c51c9dae69b2be4f79ee", "fusion_lat": 0.0, "lon": -77.02632466666667, "type": "electric_scooter", "fusion_lon": 0.0, "lat": 38.951857}, {"rental_uris": {"android": "https://dc.lft.to/lastmile_qr_scan", "ios": "https://dc.lft.to/lastmile_qr_scan"}, "is_reserved": 0, "is_disabled": 0, "name": "b056e2c57e9b1807da3fa81a6962797e", "bike_id": "b056e2c57e9b1807da3fa81a6962797e", "fusion_lat": 0.0, "lon": -77.03063616666667, "type": "electric_scooter", "fusion_lon": 0.0, "lat": 38.922547333333334}, {"rental_uris": {"android": "https://dc.lft.to/lastmile_qr_scan", "ios": "https://dc.lft.to/lastmile_qr_scan"}, "is_reserved": 0, "is_disabled": 0, "name": "d13178bee604fab854fc1e7d41cd115b", "bike_id": "d13178bee604fab854fc1e7d41cd115b", "fusion_lat": 0.0, "lon": -76.98683316666667, "type": "electric_bike", "fusion_lon": 0.0, "lat": 38.944714833333336}, {"rental_uris": {"android": "https://dc.lft.to/lastmile_qr_scan", "ios": "https://dc.lft.to/lastmile_qr_scan"}, "is_reserved": 0, "is_disabled": 0, "name": "4e2d99e73237a6ebd5d84bc8e709f025", "bike_id": "4e2d99e73237a6ebd5d84bc8e709f025", "fusion_lat": 0.0, "lon": -77.02256183333333, "type": "electric_bike", "fusion_lon": 0.0, "lat": 38.96685516666667}, {"rental_uris": {"android": "https://dc.lft.to/lastmile_qr_scan", "ios": "https://dc.lft.to/lastmile_qr_scan"}, "is_reserved": 0, "is_disabled": 0, "name": "b12289d1b70f9709ab15029c07b178a2", "bike_id": "b12289d1b70f9709ab15029c07b178a2", "fusion_lat": 0.0, "lon": -77.04281433333334, "type": "electric_bike", "fusion_lon": 0.0, "lat": 38.899936833333335}, {"rental_uris": {"android": "https://dc.lft.to/lastmile_qr_scan", "ios": "https://dc.lft.to/lastmile_qr_scan"}, "is_reserved": 0, "is_disabled": 0, "name": "15d6fb0fc8001ec94ada807b329eb205", "bike_id": "15d6fb0fc8001ec94ada807b329eb205", "fusion_lat": 0.0, "lon": -77.02967283333334, "type": "electric_scooter", "fusion_lon": 0.0, "lat": 38.92592716666667}, {"rental_uris": {"android": "https://dc.lft.to/lastmile_qr_scan", "ios": "https://dc.lft.to/lastmile_qr_scan"}, "is_reserved": 0, "is_disabled": 0, "name": "b024b1645ad4f13d18cf7b8e5a61e754", "bike_id": "b024b1645ad4f13d18cf7b8e5a61e754", "fusion_lat": 0.0, "lon": -77.04689966666666, "type": "electric_scooter", "fusion_lon": 0.0, "lat": 38.896063166666664}, {"rental_uris": {"android": "https://dc.lft.to/lastmile_qr_scan", "ios": "https://dc.lft.to/lastmile_qr_scan"}, "is_reserved": 0, "is_disabled": 0, "name": "c271a50f7cf6e094b469138c6cc585b9", "bike_id": "c271a50f7cf6e094b469138c6cc585b9", "fusion_lat": 0.0, "lon": -77.009143, "type": "electric_scooter", "fusion_lon": 0.0, "lat": 38.895557333333336}, {"rental_uris": {"android": "https://dc.lft.to/lastmile_qr_scan", "ios": "https://dc.lft.to/lastmile_qr_scan"}, "is_reserved": 0, "is_disabled": 0, "name": "1843d63b533a69f3b8772d05774863ee", "bike_id": "1843d63b533a69f3b8772d05774863ee", "fusion_lat": 0.0, "lon": -76.9626145, "type": "electric_bike", "fusion_lon": 0.0, "lat": 38.967839166666664}, {"rental_uris": {"android": "https://dc.lft.to/lastmile_qr_scan", "ios": "https://dc.lft.to/lastmile_qr_scan"}, "is_reserved": 0, "is_disabled": 0, "name": "536851df349a4e2d0f39a8399d5c9df0", "bike_id": "536851df349a4e2d0f39a8399d5c9df0", "fusion_lat": 0.0, "lon": -77.03839966666666, "type": "electric_scooter", "fusion_lon": 0.0, "lat": 38.903248}, {"rental_uris": {"android": "https://dc.lft.to/lastmile_qr_scan", "ios": "https://dc.lft.to/lastmile_qr_scan"}, "is_reserved": 0, "is_disabled": 0, "name": "e55f36d1bd7f01bd0d87350de5eafeea", "bike_id": "e55f36d1bd7f01bd0d87350de5eafeea", "fusion_lat": 0.0, "lon": -76.96091616666666, "type": "electric_bike", "fusion_lon": 0.0, "lat": 38.918549666666664}, {"rental_uris": {"android": "https://dc.lft.to/lastmile_qr_scan", "ios": "https://dc.lft.to/lastmile_qr_scan"}, "is_reserved": 0, "is_disabled": 0, "name": "7b577bb42ef4810ce3994e4562e5de39", "bike_id": "7b577bb42ef4810ce3994e4562e5de39", "fusion_lat": 0.0, "lon": -76.98817733333334, "type": "electric_bike", "fusion_lon": 0.0, "lat": 38.842754}, {"rental_uris": {"android": "https://dc.lft.to/lastmile_qr_scan", "ios": "https://dc.lft.to/lastmile_qr_scan"}, "is_reserved": 0, "is_disabled": 0, "name": "67bd54b33a5b99342f2eaee331ccf225", "bike_id": "67bd54b33a5b99342f2eaee331ccf225", "fusion_lat": 0.0, "lon": -77.00984283333334, "type": "electric_scooter", "fusion_lon": 0.0, "lat": 38.87290266666667}, {"rental_uris": {"android": "https://dc.lft.to/lastmile_qr_scan", "ios": "https://dc.lft.to/lastmile_qr_scan"}, "is_reserved": 0, "is_disabled": 0, "name": "0aa734f689bfd65764a757da192afa03", "bike_id": "0aa734f689bfd65764a757da192afa03", "fusion_lat": 0.0, "lon": -77.0861955, "type": "electric_bike", "fusion_lon": 0.0, "lat": 38.931279333333336}, {"rental_uris": {"android": "https://dc.lft.to/lastmile_qr_scan", "ios": "https://dc.lft.to/lastmile_qr_scan"}, "is_reserved": 0, "is_disabled": 0, "name": "37475b516d3d4430a4b40b53db27b297", "bike_id": "37475b516d3d4430a4b40b53db27b297", "fusion_lat": 0.0, "lon": -77.10211783333334, "type": "electric_bike", "fusion_lon": 0.0, "lat": 38.919936166666666}, {"rental_uris": {"android": "https://dc.lft.to/lastmile_qr_scan", "ios": "https://dc.lft.to/lastmile_qr_scan"}, "is_reserved": 0, "is_disabled": 0, "name": "0895f643d47d9aeebab1b5f43f83377d", "bike_id": "0895f643d47d9aeebab1b5f43f83377d", "fusion_lat": 0.0, "lon": -77.0222935, "type": "electric_scooter", "fusion_lon": 0.0, "lat": 38.91243883333333}, {"rental_uris": {"android": "https://dc.lft.to/lastmile_qr_scan", "ios": "https://dc.lft.to/lastmile_qr_scan"}, "is_reserved": 0, "is_disabled": 0, "name": "7bd0cadae7d21f4dc15308a2f75bd1b4", "bike_id": "7bd0cadae7d21f4dc15308a2f75bd1b4", "fusion_lat": 0.0, "lon": -77.03073266666667, "type": "electric_scooter", "fusion_lon": 0.0, "lat": 38.89822816666667}, {"rental_uris": {"android": "https://dc.lft.to/lastmile_qr_scan", "ios": "https://dc.lft.to/lastmile_qr_scan"}, "is_reserved": 0, "is_disabled": 0, "name": "1dd9176091b6db0680131eaee1a4772e", "bike_id": "1dd9176091b6db0680131eaee1a4772e", "fusion_lat": 0.0, "lon": -76.99347033333333, "type": "electric_scooter", "fusion_lon": 0.0, "lat": 38.90011283333333}, {"rental_uris": {"android": "https://dc.lft.to/lastmile_qr_scan", "ios": "https://dc.lft.to/lastmile_qr_scan"}, "is_reserved": 0, "is_disabled": 0, "name": "005d80ba8ebb1e6311a4dff73b0552d0", "bike_id": "005d80ba8ebb1e6311a4dff73b0552d0", "fusion_lat": 0.0, "lon": -77.05040783333334, "type": "electric_scooter", "fusion_lon": 0.0, "lat": 38.923634}, {"rental_uris": {"android": "https://dc.lft.to/lastmile_qr_scan", "ios": "https://dc.lft.to/lastmile_qr_scan"}, "is_reserved": 0, "is_disabled": 0, "name": "b5c66f812c7ac066cb7c424954cb8105", "bike_id": "b5c66f812c7ac066cb7c424954cb8105", "fusion_lat": 0.0, "lon": -77.02549583333334, "type": "electric_scooter", "fusion_lon": 0.0, "lat": 38.948229}, {"rental_uris": {"android": "https://dc.lft.to/lastmile_qr_scan", "ios": "https://dc.lft.to/lastmile_qr_scan"}, "is_reserved": 0, "is_disabled": 0, "name": "e06488ae651d267168fa0ba66155f6b7", "bike_id": "e06488ae651d267168fa0ba66155f6b7", "fusion_lat": 0.0, "lon": -77.02404666666666, "type": "electric_scooter", "fusion_lon": 0.0, "lat": 38.9336175}, {"rental_uris": {"android": "https://dc.lft.to/lastmile_qr_scan", "ios": "https://dc.lft.to/lastmile_qr_scan"}, "is_reserved": 0, "is_disabled": 0, "name": "3b1771606afce2045ac035e30a086b46", "bike_id": "3b1771606afce2045ac035e30a086b46", "fusion_lat": 0.0, "lon": -76.999715, "type": "electric_scooter", "fusion_lon": 0.0, "lat": 38.9071655}, {"rental_uris": {"android": "https://dc.lft.to/lastmile_qr_scan", "ios": "https://dc.lft.to/lastmile_qr_scan"}, "is_reserved": 0, "is_disabled": 0, "name": "d2ad897399f88b2aee141e59799cb9cf", "bike_id": "d2ad897399f88b2aee141e59799cb9cf", "fusion_lat": 0.0, "lon": -77.04637316666667, "type": "electric_scooter", "fusion_lon": 0.0, "lat": 38.89217983333333}, {"rental_uris": {"android": "https://dc.lft.to/lastmile_qr_scan", "ios": "https://dc.lft.to/lastmile_qr_scan"}, "is_reserved": 0, "is_disabled": 0, "name": "8bfb034d735beb9f2136adf56d3190ea", "bike_id": "8bfb034d735beb9f2136adf56d3190ea", "fusion_lat": 0.0, "lon": -77.04088, "type": "electric_scooter", "fusion_lon": 0.0, "lat": 38.90098733333333}, {"rental_uris": {"android": "https://dc.lft.to/lastmile_qr_scan", "ios": "https://dc.lft.to/lastmile_qr_scan"}, "is_reserved": 0, "is_disabled": 0, "name": "38ecc07b515e3602c2d61776fd12956c", "bike_id": "38ecc07b515e3602c2d61776fd12956c", "fusion_lat": 0.0, "lon": -77.0256475, "type": "electric_scooter", "fusion_lon": 0.0, "lat": 38.9418805}, {"rental_uris": {"android": "https://dc.lft.to/lastmile_qr_scan", "ios": "https://dc.lft.to/lastmile_qr_scan"}, "is_reserved": 0, "is_disabled": 0, "name": "f47a19a3b7ea99e91e1a63987fdb65cb", "bike_id": "f47a19a3b7ea99e91e1a63987fdb65cb", "fusion_lat": 0.0, "lon": -77.01659816666667, "type": "electric_scooter", "fusion_lon": 0.0, "lat": 38.9420695}, {"rental_uris": {"android": "https://dc.lft.to/lastmile_qr_scan", "ios": "https://dc.lft.to/lastmile_qr_scan"}, "is_reserved": 0, "is_disabled": 0, "name": "235a1be315a1eac9d217733bda231fef", "bike_id": "235a1be315a1eac9d217733bda231fef", "fusion_lat": 0.0, "lon": -77.03695816666666, "type": "electric_scooter", "fusion_lon": 0.0, "lat": 38.926322166666665}, {"rental_uris": {"android": "https://dc.lft.to/lastmile_qr_scan", "ios": "https://dc.lft.to/lastmile_qr_scan"}, "is_reserved": 0, "is_disabled": 0, "name": "e8cb2b0764537dca1c8227fbf3db177f", "bike_id": "e8cb2b0764537dca1c8227fbf3db177f", "fusion_lat": 0.0, "lon": -76.95524466666667, "type": "electric_scooter", "fusion_lon": 0.0, "lat": 38.887811166666665}, {"rental_uris": {"android": "https://dc.lft.to/lastmile_qr_scan", "ios": "https://dc.lft.to/lastmile_qr_scan"}, "is_reserved": 0, "is_disabled": 0, "name": "c61c5f9f53769636f9833fba7bc1fc48", "bike_id": "c61c5f9f53769636f9833fba7bc1fc48", "fusion_lat": 0.0, "lon": -77.03234716666667, "type": "electric_scooter", "fusion_lon": 0.0, "lat": 38.9300535}, {"rental_uris": {"android": "https://dc.lft.to/lastmile_qr_scan", "ios": "https://dc.lft.to/lastmile_qr_scan"}, "is_reserved": 0, "is_disabled": 0, "name": "4b1dcedf2fddb29b7683dca0edf806b7", "bike_id": "4b1dcedf2fddb29b7683dca0edf806b7", "fusion_lat": 0.0, "lon": -77.043499, "type": "electric_scooter", "fusion_lon": 0.0, "lat": 38.90549816666667}, {"rental_uris": {"android": "https://dc.lft.to/lastmile_qr_scan", "ios": "https://dc.lft.to/lastmile_qr_scan"}, "is_reserved": 0, "is_disabled": 0, "name": "351362a066614d62546759e9b7d8e698", "bike_id": "351362a066614d62546759e9b7d8e698", "fusion_lat": 0.0, "lon": -77.07010716666667, "type": "electric_bike", "fusion_lon": 0.0, "lat": 38.90524966666667}, {"rental_uris": {"android": "https://dc.lft.to/lastmile_qr_scan", "ios": "https://dc.lft.to/lastmile_qr_scan"}, "is_reserved": 0, "is_disabled": 0, "name": "6d5bf6e7d174c0b6275600178e11059f", "bike_id": "6d5bf6e7d174c0b6275600178e11059f", "fusion_lat": 0.0, "lon": -77.04433683333333, "type": "electric_scooter", "fusion_lon": 0.0, "lat": 38.9057065}, {"rental_uris": {"android": "https://dc.lft.to/lastmile_qr_scan", "ios": "https://dc.lft.to/lastmile_qr_scan"}, "is_reserved": 0, "is_disabled": 0, "name": "e0246a0cbe6aae219028e9b5a995383d", "bike_id": "e0246a0cbe6aae219028e9b5a995383d", "fusion_lat": 0.0, "lon": -77.00305283333333, "type": "electric_scooter", "fusion_lon": 0.0, "lat": 38.8764775}, {"rental_uris": {"android": "https://dc.lft.to/lastmile_qr_scan", "ios": "https://dc.lft.to/lastmile_qr_scan"}, "is_reserved": 0, "is_disabled": 0, "name": "c79cde111b619d1ab4b43be1af36cade", "bike_id": "c79cde111b619d1ab4b43be1af36cade", "fusion_lat": 0.0, "lon": -77.026573, "type": "electric_scooter", "fusion_lon": 0.0, "lat": 38.930962}, {"rental_uris": {"android": "https://dc.lft.to/lastmile_qr_scan", "ios": "https://dc.lft.to/lastmile_qr_scan"}, "is_reserved": 0, "is_disabled": 0, "name": "5b726d0e38f25c88b8e52cdc31265f23", "bike_id": "5b726d0e38f25c88b8e52cdc31265f23", "fusion_lat": 0.0, "lon": -77.0365115, "type": "electric_scooter", "fusion_lon": 0.0, "lat": 38.906854333333335}, {"rental_uris": {"android": "https://dc.lft.to/lastmile_qr_scan", "ios": "https://dc.lft.to/lastmile_qr_scan"}, "is_reserved": 0, "is_disabled": 0, "name": "b9137d594fca1a24d794d655780c62b6", "bike_id": "b9137d594fca1a24d794d655780c62b6", "fusion_lat": 0.0, "lon": -76.97529716666666, "type": "electric_bike", "fusion_lon": 0.0, "lat": 38.9032895}, {"rental_uris": {"android": "https://dc.lft.to/lastmile_qr_scan", "ios": "https://dc.lft.to/lastmile_qr_scan"}, "is_reserved": 0, "is_disabled": 0, "name": "17f5fb8cbd666d9a2f7bf250e40b0d61", "bike_id": "17f5fb8cbd666d9a2f7bf250e40b0d61", "fusion_lat": 0.0, "lon": -77.05264133333333, "type": "electric_scooter", "fusion_lon": 0.0, "lat": 38.901397333333335}, {"rental_uris": {"android": "https://dc.lft.to/lastmile_qr_scan", "ios": "https://dc.lft.to/lastmile_qr_scan"}, "is_reserved": 0, "is_disabled": 0, "name": "febba700fc8576fc3f9aacf9c462178e", "bike_id": "febba700fc8576fc3f9aacf9c462178e", "fusion_lat": 0.0, "lon": -77.02638283333333, "type": "electric_scooter", "fusion_lon": 0.0, "lat": 38.92379066666667}, {"rental_uris": {"android": "https://dc.lft.to/lastmile_qr_scan", "ios": "https://dc.lft.to/lastmile_qr_scan"}, "is_reserved": 0, "is_disabled": 0, "name": "ae37dae9097c38fef832fbdd405714b1", "bike_id": "ae37dae9097c38fef832fbdd405714b1", "fusion_lat": 0.0, "lon": -76.99123, "type": "electric_scooter", "fusion_lon": 0.0, "lat": 38.9090335}, {"rental_uris": {"android": "https://dc.lft.to/lastmile_qr_scan", "ios": "https://dc.lft.to/lastmile_qr_scan"}, "is_reserved": 0, "is_disabled": 0, "name": "fafe68a829a886b44f5b6dcb7be4fdde", "bike_id": "fafe68a829a886b44f5b6dcb7be4fdde", "fusion_lat": 0.0, "lon": -77.03084583333333, "type": "electric_scooter", "fusion_lon": 0.0, "lat": 38.899902}, {"rental_uris": {"android": "https://dc.lft.to/lastmile_qr_scan", "ios": "https://dc.lft.to/lastmile_qr_scan"}, "is_reserved": 0, "is_disabled": 0, "name": "eaddfe2145bd592ac199a60b45e260f3", "bike_id": "eaddfe2145bd592ac199a60b45e260f3", "fusion_lat": 0.0, "lon": -77.04648333333333, "type": "electric_scooter", "fusion_lon": 0.0, "lat": 38.90464766666667}, {"rental_uris": {"android": "https://dc.lft.to/lastmile_qr_scan", "ios": "https://dc.lft.to/lastmile_qr_scan"}, "is_reserved": 0, "is_disabled": 0, "name": "edcd08a77cd8d093ab1364ceb681a8d1", "bike_id": "edcd08a77cd8d093ab1364ceb681a8d1", "fusion_lat": 0.0, "lon": -77.05005533333333, "type": "electric_scooter", "fusion_lon": 0.0, "lat": 38.892288666666666}, {"rental_uris": {"android": "https://dc.lft.to/lastmile_qr_scan", "ios": "https://dc.lft.to/lastmile_qr_scan"}, "is_reserved": 0, "is_disabled": 0, "name": "cf7116d4a7bfc7acfa865a7ace1954df", "bike_id": "cf7116d4a7bfc7acfa865a7ace1954df", "fusion_lat": 0.0, "lon": -77.01885116666666, "type": "electric_scooter", "fusion_lon": 0.0, "lat": 38.9148505}, {"rental_uris": {"android": "https://dc.lft.to/lastmile_qr_scan", "ios": "https://dc.lft.to/lastmile_qr_scan"}, "is_reserved": 0, "is_disabled": 0, "name": "6d73c5ce18c11ff84b2872a6ed869cb6", "bike_id": "6d73c5ce18c11ff84b2872a6ed869cb6", "fusion_lat": 0.0, "lon": -77.03655183333333, "type": "electric_scooter", "fusion_lon": 0.0, "lat": 38.903538}, {"rental_uris": {"android": "https://dc.lft.to/lastmile_qr_scan", "ios": "https://dc.lft.to/lastmile_qr_scan"}, "is_reserved": 0, "is_disabled": 0, "name": "92dcfa246a972e365891ce99e80fe1f4", "bike_id": "92dcfa246a972e365891ce99e80fe1f4", "fusion_lat": 0.0, "lon": -76.95189733333333, "type": "electric_scooter", "fusion_lon": 0.0, "lat": 38.90507616666667}, {"rental_uris": {"android": "https://dc.lft.to/lastmile_qr_scan", "ios": "https://dc.lft.to/lastmile_qr_scan"}, "is_reserved": 0, "is_disabled": 0, "name": "407eca154a57e53f635e77ba6df828a3", "bike_id": "407eca154a57e53f635e77ba6df828a3", "fusion_lat": 0.0, "lon": -77.02892866666667, "type": "electric_scooter", "fusion_lon": 0.0, "lat": 38.91398866666667}, {"rental_uris": {"android": "https://dc.lft.to/lastmile_qr_scan", "ios": "https://dc.lft.to/lastmile_qr_scan"}, "is_reserved": 0, "is_disabled": 0, "name": "b18c0cb20947caf94273d3790e18b1c3", "bike_id": "b18c0cb20947caf94273d3790e18b1c3", "fusion_lat": 0.0, "lon": -76.99838083333333, "type": "electric_bike", "fusion_lon": 0.0, "lat": 38.883872333333336}, {"rental_uris": {"android": "https://dc.lft.to/lastmile_qr_scan", "ios": "https://dc.lft.to/lastmile_qr_scan"}, "is_reserved": 0, "is_disabled": 0, "name": "99225cc37fe17be43ea5e18df6bc7b15", "bike_id": "99225cc37fe17be43ea5e18df6bc7b15", "fusion_lat": 0.0, "lon": -77.03932966666666, "type": "electric_bike", "fusion_lon": 0.0, "lat": 38.8015845}, {"rental_uris": {"android": "https://dc.lft.to/lastmile_qr_scan", "ios": "https://dc.lft.to/lastmile_qr_scan"}, "is_reserved": 0, "is_disabled": 0, "name": "8f1f753ea6f8980b546ee681be67e626", "bike_id": "8f1f753ea6f8980b546ee681be67e626", "fusion_lat": 0.0, "lon": -77.0031665, "type": "electric_scooter", "fusion_lon": 0.0, "lat": 38.8898645}, {"rental_uris": {"android": "https://dc.lft.to/lastmile_qr_scan", "ios": "https://dc.lft.to/lastmile_qr_scan"},