{"data": {"bikes": [{"bike_id": "5ec11f21ab0712745636f7e315d5570d", "type": "electric_scooter", "is_disabled": 0, "lat": 38.900397166666664, "rental_uris": {"ios": "https://dc.lft.to/lastmile_qr_scan", "android": "https://dc.lft.to/lastmile_qr_scan"}, "is_reserved": 0, "fusion_lon": 0.0, "fusion_lat": 0.0, "lon": -77.0131135, "name": "5ec11f21ab0712745636f7e315d5570d"}, {"bike_id": "59484bed601af6b2d7b490f613824bf2", "type": "electric_scooter", "is_disabled": 0, "lat": 38.86972766666667, "rental_uris": {"ios": "https://dc.lft.to/lastmile_qr_scan", "android": "https://dc.lft.to/lastmile_qr_scan"}, "is_reserved": 0, "fusion_lon": 0.0, "fusion_lat": 0.0, "lon": -76.98176283333333, "name": "59484bed601af6b2d7b490f613824bf2"}, {"bike_id": "8b3412c4b69cc7cb31a11aba6af93e02", "type": "electric_scooter", "is_disabled": 0, "lat": 38.91847283333333, "rental_uris": {"ios": "https://dc.lft.to/lastmile_qr_scan", "android": "https://dc.lft.to/lastmile_qr_scan"}, "is_reserved": 0, "fusion_lon": 0.0, "fusion_lat": 0.0, "lon": -77.03881283333334, "name": "8b3412c4b69cc7cb31a11aba6af93e02"}, {"bike_id": "44c25e1752089d6935b2cea08549be2b", "type": "electric_scooter", "is_disabled": 0, "lat": 38.90420733333333, "rental_uris": {"ios": "https://dc.lft.to/lastmile_qr_scan", "android": "https://dc.lft.to/lastmile_qr_scan"}, "is_reserved": 0, "fusion_lon": 0.0, "fusion_lat": 0.0, "lon": -77.04350166666667, "name": "44c25e1752089d6935b2cea08549be2b"}, {"bike_id": "9761abcee2c900e00377dcf1da65fb6c", "type": "electric_scooter", "is_disabled": 0, "lat": 38.90260633333333, "rental_uris": {"ios": "https://dc.lft.to/lastmile_qr_scan", "android": "https://dc.lft.to/lastmile_qr_scan"}, "is_reserved": 0, "fusion_lon": 0.0, "fusion_lat": 0.0, "lon": -77.00211766666666, "name": "9761abcee2c900e00377dcf1da65fb6c"}, {"bike_id": "fddb41b362949fbfed0ed2ba9daf12b2", "type": "electric_scooter", "is_disabled": 0, "lat": 38.90627283333333, "rental_uris": {"ios": "https://dc.lft.to/lastmile_qr_scan", "android": "https://dc.lft.to/lastmile_qr_scan"}, "is_reserved": 0, "fusion_lon": 0.0, "fusion_lat": 0.0, "lon": -77.05558266666667, "name": "fddb41b362949fbfed0ed2ba9daf12b2"}, {"bike_id": "b95e8b5d8ad8fde27b4d293281a02494", "type": "electric_scooter", "is_disabled": 0, "lat": 38.9054195, "rental_uris": {"ios": "https://dc.lft.to/lastmile_qr_scan", "android": "https://dc.lft.to/lastmile_qr_scan"}, "is_reserved": 0, "fusion_lon": 0.0, "fusion_lat": 0.0, "lon": -77.04160133333333, "name": "b95e8b5d8ad8fde27b4d293281a02494"}, {"bike_id": "4ddaf0fee77d840a1df31acf6957370d", "type": "electric_bike", "is_disabled": 0, "lat": 38.88869533333333, "rental_uris": {"ios": "https://dc.lft.to/lastmile_qr_scan", "android": "https://dc.lft.to/lastmile_qr_scan"}, "is_reserved": 0, "fusion_lon": 0.0, "fusion_lat": 0.0, "lon": -76.97842016666667, "name": "4ddaf0fee77d840a1df31acf6957370d"}, {"bike_id": "79e0cc61c991fea8ce46bfa6e2b96e97", "type": "electric_scooter", "is_disabled": 0, "lat": 38.90597616666667, "rental_uris": {"ios": "https://dc.lft.to/lastmile_qr_scan", "android": "https://dc.lft.to/lastmile_qr_scan"}, "is_reserved": 0, "fusion_lon": 0.0, "fusion_lat": 0.0, "lon": -77.06420816666666, "name": "79e0cc61c991fea8ce46bfa6e2b96e97"}, {"bike_id": "9585bb3d6088ac220ebd63685df67fd0", "type": "electric_scooter", "is_disabled": 0, "lat": 38.928091333333334, "rental_uris": {"ios": "https://dc.lft.to/lastmile_qr_scan", "android": "https://dc.lft.to/lastmile_qr_scan"}, "is_reserved": 0, "fusion_lon": 0.0, "fusion_lat": 0.0, "lon": -77.0327205, "name": "9585bb3d6088ac220ebd63685df67fd0"}, {"bike_id": "b47c60ad91800bcb99fdef42d632d98a", "type": "electric_bike", "is_disabled": 0, "lat": 38.8552545, "rental_uris": {"ios": "https://dc.lft.to/lastmile_qr_scan", "android": "https://dc.lft.to/lastmile_qr_scan"}, "is_reserved": 0, "fusion_lon": 0.0, "fusion_lat": 0.0, "lon": -77.10742216666667, "name": "b47c60ad91800bcb99fdef42d632d98a"}, {"bike_id": "08c67274735c1cf078af78edd6a6f327", "type": "electric_scooter", "is_disabled": 0, "lat": 38.944149333333336, "rental_uris": {"ios": "https://dc.lft.to/lastmile_qr_scan", "android": "https://dc.lft.to/lastmile_qr_scan"}, "is_reserved": 0, "fusion_lon": 0.0, "fusion_lat": 0.0, "lon": -77.063228, "name": "08c67274735c1cf078af78edd6a6f327"}, {"bike_id": "88b5f7c89f2f40126d80fc03e60b7abb", "type": "electric_scooter", "is_disabled": 0, "lat": 38.958962666666665, "rental_uris": {"ios": "https://dc.lft.to/lastmile_qr_scan", "android": "https://dc.lft.to/lastmile_qr_scan"}, "is_reserved": 0, "fusion_lon": 0.0, "fusion_lat": 0.0, "lon": -77.08592966666667, "name": "88b5f7c89f2f40126d80fc03e60b7abb"}, {"bike_id": "f738822f955e793227125a83db486753", "type": "electric_scooter", "is_disabled": 0, "lat": 38.873737, "rental_uris": {"ios": "https://dc.lft.to/lastmile_qr_scan", "android": "https://dc.lft.to/lastmile_qr_scan"}, "is_reserved": 0, "fusion_lon": 0.0, "fusion_lat": 0.0, "lon": -77.001286, "name": "f738822f955e793227125a83db486753"}, {"bike_id": "72913570cbaafce07d68f97ab42c0ce9", "type": "electric_scooter", "is_disabled": 0, "lat": 38.91562533333333, "rental_uris": {"ios": "https://dc.lft.to/lastmile_qr_scan", "android": "https://dc.lft.to/lastmile_qr_scan"}, "is_reserved": 0, "fusion_lon": 0.0, "fusion_lat": 0.0, "lon": -77.03869983333334, "name": "72913570cbaafce07d68f97ab42c0ce9"}, {"bike_id": "17b0a516611348cc79eb9252ba05737f", "type": "electric_scooter", "is_disabled": 0, "lat": 38.87080816666667, "rental_uris": {"ios": "https://dc.lft.to/lastmile_qr_scan", "android": "https://dc.lft.to/lastmile_qr_scan"}, "is_reserved": 0, "fusion_lon": 0.0, "fusion_lat": 0.0, "lon": -77.01188633333334, "name": "17b0a516611348cc79eb9252ba05737f"}, {"bike_id": "5e307f405c75815631e98a279651493d", "type": "electric_scooter", "is_disabled": 0, "lat": 38.91566, "rental_uris": {"ios": "https://dc.lft.to/lastmile_qr_scan", "android": "https://dc.lft.to/lastmile_qr_scan"}, "is_reserved": 0, "fusion_lon": 0.0, "fusion_lat": 0.0, "lon": -77.0316855, "name": "5e307f405c75815631e98a279651493d"}, {"bike_id": "3ccc751e635da5782a7d2dbf0fd6a4da", "type": "electric_scooter", "is_disabled": 0, "lat": 38.91784583333333, "rental_uris": {"ios": "https://dc.lft.to/lastmile_qr_scan", "android": "https://dc.lft.to/lastmile_qr_scan"}, "is_reserved": 0, "fusion_lon": 0.0, "fusion_lat": 0.0, "lon": -77.02349216666667, "name": "3ccc751e635da5782a7d2dbf0fd6a4da"}, {"bike_id": "94421fc047f9687cc51433b4209e46d7", "type": "electric_scooter", "is_disabled": 0, "lat": 38.945138666666665, "rental_uris": {"ios": "https://dc.lft.to/lastmile_qr_scan", "android": "https://dc.lft.to/lastmile_qr_scan"}, "is_reserved": 0, "fusion_lon": 0.0, "fusion_lat": 0.0, "lon": -77.03377416666666, "name": "94421fc047f9687cc51433b4209e46d7"}, {"bike_id": "8ef777bdc002e4c19fa70af42ac4fbec", "type": "electric_scooter", "is_disabled": 0, "lat": 38.9148145, "rental_uris": {"ios": "https://dc.lft.to/lastmile_qr_scan", "android": "https://dc.lft.to/lastmile_qr_scan"}, "is_reserved": 0, "fusion_lon": 0.0, "fusion_lat": 0.0, "lon": -77.02195833333333, "name": "8ef777bdc002e4c19fa70af42ac4fbec"}, {"bike_id": "5ae4a0c96c2bc427817788099f174539", "type": "electric_scooter", "is_disabled": 0, "lat": 38.8989855, "rental_uris": {"ios": "https://dc.lft.to/lastmile_qr_scan", "android": "https://dc.lft.to/lastmile_qr_scan"}, "is_reserved": 0, "fusion_lon": 0.0, "fusion_lat": 0.0, "lon": -77.01510466666667, "name": "5ae4a0c96c2bc427817788099f174539"}, {"bike_id": "663910f4b545b05d41167800f801716f", "type": "electric_scooter", "is_disabled": 0, "lat": 38.924823833333335, "rental_uris": {"ios": "https://dc.lft.to/lastmile_qr_scan", "android": "https://dc.lft.to/lastmile_qr_scan"}, "is_reserved": 0, "fusion_lon": 0.0, "fusion_lat": 0.0, "lon": -77.02715383333333, "name": "663910f4b545b05d41167800f801716f"}, {"bike_id": "0abdf49f806c1a51db7dd385ac4a1ede", "type": "electric_scooter", "is_disabled": 0, "lat": 38.925467166666664, "rental_uris": {"ios": "https://dc.lft.to/lastmile_qr_scan", "android": "https://dc.lft.to/lastmile_qr_scan"}, "is_reserved": 0, "fusion_lon": 0.0, "fusion_lat": 0.0, "lon": -77.02280016666667, "name": "0abdf49f806c1a51db7dd385ac4a1ede"}, {"bike_id": "21814291707e9c2c68e0456270de25b5", "type": "electric_scooter", "is_disabled": 0, "lat": 38.90040966666667, "rental_uris": {"ios": "https://dc.lft.to/lastmile_qr_scan", "android": "https://dc.lft.to/lastmile_qr_scan"}, "is_reserved": 0, "fusion_lon": 0.0, "fusion_lat": 0.0, "lon": -76.997288, "name": "21814291707e9c2c68e0456270de25b5"}, {"bike_id": "281a77b59f85296cac752e0e45336c8e", "type": "electric_scooter", "is_disabled": 0, "lat": 38.901119, "rental_uris": {"ios": "https://dc.lft.to/lastmile_qr_scan", "android": "https://dc.lft.to/lastmile_qr_scan"}, "is_reserved": 0, "fusion_lon": 0.0, "fusion_lat": 0.0, "lon": -77.02388233333333, "name": "281a77b59f85296cac752e0e45336c8e"}, {"bike_id": "f8f2684329f1292eb102d5fd5e3cda83", "type": "electric_scooter", "is_disabled": 0, "lat": 38.900362, "rental_uris": {"ios": "https://dc.lft.to/lastmile_qr_scan", "android": "https://dc.lft.to/lastmile_qr_scan"}, "is_reserved": 0, "fusion_lon": 0.0, "fusion_lat": 0.0, "lon": -76.91917916666667, "name": "f8f2684329f1292eb102d5fd5e3cda83"}, {"bike_id": "b702008defb55b66ce6b6db695f38d10", "type": "electric_bike", "is_disabled": 0, "lat": 38.86511616666667, "rental_uris": {"ios": "https://dc.lft.to/lastmile_qr_scan", "android": "https://dc.lft.to/lastmile_qr_scan"}, "is_reserved": 0, "fusion_lon": 0.0, "fusion_lat": 0.0, "lon": -76.97341466666667, "name": "b702008defb55b66ce6b6db695f38d10"}, {"bike_id": "159b67ffaa57ba3413719784956c3d34", "type": "electric_scooter", "is_disabled": 0, "lat": 38.8745145, "rental_uris": {"ios": "https://dc.lft.to/lastmile_qr_scan", "android": "https://dc.lft.to/lastmile_qr_scan"}, "is_reserved": 0, "fusion_lon": 0.0, "fusion_lat": 0.0, "lon": -77.00942016666667, "name": "159b67ffaa57ba3413719784956c3d34"}, {"bike_id": "9dc76f820019c556eaca60418d3a79a2", "type": "electric_scooter", "is_disabled": 0, "lat": 38.9149925, "rental_uris": {"ios": "https://dc.lft.to/lastmile_qr_scan", "android": "https://dc.lft.to/lastmile_qr_scan"}, "is_reserved": 0, "fusion_lon": 0.0, "fusion_lat": 0.0, "lon": -77.01999716666667, "name": "9dc76f820019c556eaca60418d3a79a2"}, {"bike_id": "bc174a9ff6a387fce22d4a4b56b054f7", "type": "electric_scooter", "is_disabled": 0, "lat": 38.91713416666666, "rental_uris": {"ios": "https://dc.lft.to/lastmile_qr_scan", "android": "https://dc.lft.to/lastmile_qr_scan"}, "is_reserved": 0, "fusion_lon": 0.0, "fusion_lat": 0.0, "lon": -77.04156816666666, "name": "bc174a9ff6a387fce22d4a4b56b054f7"}, {"bike_id": "6b2a84d21028b1b61535b964e834487a", "type": "electric_scooter", "is_disabled": 0, "lat": 38.9050335, "rental_uris": {"ios": "https://dc.lft.to/lastmile_qr_scan", "android": "https://dc.lft.to/lastmile_qr_scan"}, "is_reserved": 0, "fusion_lon": 0.0, "fusion_lat": 0.0, "lon": -77.06016583333333, "name": "6b2a84d21028b1b61535b964e834487a"}, {"bike_id": "8e401c8cd1bb51997cbb7210fb51a456", "type": "electric_scooter", "is_disabled": 0, "lat": 38.89497433333333, "rental_uris": {"ios": "https://dc.lft.to/lastmile_qr_scan", "android": "https://dc.lft.to/lastmile_qr_scan"}, "is_reserved": 0, "fusion_lon": 0.0, "fusion_lat": 0.0, "lon": -76.98839583333333, "name": "8e401c8cd1bb51997cbb7210fb51a456"}, {"bike_id": "758e6825f4dc2fe17645a7412e72f455", "type": "electric_scooter", "is_disabled": 0, "lat": 38.84316366666667, "rental_uris": {"ios": "https://dc.lft.to/lastmile_qr_scan", "android": "https://dc.lft.to/lastmile_qr_scan"}, "is_reserved": 0, "fusion_lon": 0.0, "fusion_lat": 0.0, "lon": -76.99926233333333, "name": "758e6825f4dc2fe17645a7412e72f455"}, {"bike_id": "41660464ce2b6cdd668179a334155542", "type": "electric_scooter", "is_disabled": 0, "lat": 38.925248, "rental_uris": {"ios": "https://dc.lft.to/lastmile_qr_scan", "android": "https://dc.lft.to/lastmile_qr_scan"}, "is_reserved": 0, "fusion_lon": 0.0, "fusion_lat": 0.0, "lon": -77.077201, "name": "41660464ce2b6cdd668179a334155542"}, {"bike_id": "2fd16a612de7b33ec48fcc265f808c50", "type": "electric_scooter", "is_disabled": 0, "lat": 38.9178385, "rental_uris": {"ios": "https://dc.lft.to/lastmile_qr_scan", "android": "https://dc.lft.to/lastmile_qr_scan"}, "is_reserved": 0, "fusion_lon": 0.0, "fusion_lat": 0.0, "lon": -77.02365633333334, "name": "2fd16a612de7b33ec48fcc265f808c50"}, {"bike_id": "6b414c1a113104694dfa5bd193f3335c", "type": "electric_scooter", "is_disabled": 0, "lat": 38.89607433333333, "rental_uris": {"ios": "https://dc.lft.to/lastmile_qr_scan", "android": "https://dc.lft.to/lastmile_qr_scan"}, "is_reserved": 0, "fusion_lon": 0.0, "fusion_lat": 0.0, "lon": -77.031279, "name": "6b414c1a113104694dfa5bd193f3335c"}, {"bike_id": "0da48b9995a064612c22db1d8a00b75f", "type": "electric_scooter", "is_disabled": 0, "lat": 38.87642066666667, "rental_uris": {"ios": "https://dc.lft.to/lastmile_qr_scan", "android": "https://dc.lft.to/lastmile_qr_scan"}, "is_reserved": 0, "fusion_lon": 0.0, "fusion_lat": 0.0, "lon": -77.004561, "name": "0da48b9995a064612c22db1d8a00b75f"}, {"bike_id": "ca88c1710eb0a7d2908d1edd29ad2f7a", "type": "electric_scooter", "is_disabled": 0, "lat": 38.832071666666664, "rental_uris": {"ios": "https://dc.lft.to/lastmile_qr_scan", "android": "https://dc.lft.to/lastmile_qr_scan"}, "is_reserved": 0, "fusion_lon": 0.0, "fusion_lat": 0.0, "lon": -77.0079325, "name": "ca88c1710eb0a7d2908d1edd29ad2f7a"}, {"bike_id": "6c3e226f73f92857c692650d1309cc04", "type": "electric_scooter", "is_disabled": 0, "lat": 38.923104333333335, "rental_uris": {"ios": "https://dc.lft.to/lastmile_qr_scan", "android": "https://dc.lft.to/lastmile_qr_scan"}, "is_reserved": 0, "fusion_lon": 0.0, "fusion_lat": 0.0, "lon": -77.0390735, "name": "6c3e226f73f92857c692650d1309cc04"}, {"bike_id": "77cabbf6da8e300965e56f180cfca11c", "type": "electric_scooter", "is_disabled": 0, "lat": 38.8862185, "rental_uris": {"ios": "https://dc.lft.to/lastmile_qr_scan", "android": "https://dc.lft.to/lastmile_qr_scan"}, "is_reserved": 0, "fusion_lon": 0.0, "fusion_lat": 0.0, "lon": -76.99609233333334, "name": "77cabbf6da8e300965e56f180cfca11c"}, {"bike_id": "9f560e48d25be37c69bbb7817dbbdd33", "type": "electric_scooter", "is_disabled": 0, "lat": 38.911077166666665, "rental_uris": {"ios": "https://dc.lft.to/lastmile_qr_scan", "android": "https://dc.lft.to/lastmile_qr_scan"}, "is_reserved": 0, "fusion_lon": 0.0, "fusion_lat": 0.0, "lon": -77.02138783333334, "name": "9f560e48d25be37c69bbb7817dbbdd33"}, {"bike_id": "d0a2e70611b5a3b32320e783075062ab", "type": "electric_scooter", "is_disabled": 0, "lat": 38.89758283333333, "rental_uris": {"ios": "https://dc.lft.to/lastmile_qr_scan", "android": "https://dc.lft.to/lastmile_qr_scan"}, "is_reserved": 0, "fusion_lon": 0.0, "fusion_lat": 0.0, "lon": -76.92577533333333, "name": "d0a2e70611b5a3b32320e783075062ab"}, {"bike_id": "534cbb54827878fcda47277cb7597e82", "type": "electric_scooter", "is_disabled": 0, "lat": 38.91412433333333, "rental_uris": {"ios": "https://dc.lft.to/lastmile_qr_scan", "android": "https://dc.lft.to/lastmile_qr_scan"}, "is_reserved": 0, "fusion_lon": 0.0, "fusion_lat": 0.0, "lon": -77.02424516666666, "name": "534cbb54827878fcda47277cb7597e82"}, {"bike_id": "cf9fcbb36cb34b62008685c8412bef34", "type": "electric_scooter", "is_disabled": 0, "lat": 38.905355666666665, "rental_uris": {"ios": "https://dc.lft.to/lastmile_qr_scan", "android": "https://dc.lft.to/lastmile_qr_scan"}, "is_reserved": 0, "fusion_lon": 0.0, "fusion_lat": 0.0, "lon": -76.98111666666667, "name": "cf9fcbb36cb34b62008685c8412bef34"}, {"bike_id": "09b1e9cab4d6e2023fb95262ecbb3ef7", "type": "electric_scooter", "is_disabled": 0, "lat": 38.88711033333333, "rental_uris": {"ios": "https://dc.lft.to/lastmile_qr_scan", "android": "https://dc.lft.to/lastmile_qr_scan"}, "is_reserved": 0, "fusion_lon": 0.0, "fusion_lat": 0.0, "lon": -77.022078, "name": "09b1e9cab4d6e2023fb95262ecbb3ef7"}, {"bike_id": "5b792c9910b3b49e948c41e2cb26b2a8", "type": "electric_scooter", "is_disabled": 0, "lat": 38.8925845, "rental_uris": {"ios": "https://dc.lft.to/lastmile_qr_scan", "android": "https://dc.lft.to/lastmile_qr_scan"}, "is_reserved": 0, "fusion_lon": 0.0, "fusion_lat": 0.0, "lon": -77.00347633333334, "name": "5b792c9910b3b49e948c41e2cb26b2a8"}, {"bike_id": "50884d7c202ca68f716f48df163fa4aa", "type": "electric_scooter", "is_disabled": 0, "lat": 38.90421383333333, "rental_uris": {"ios": "https://dc.lft.to/lastmile_qr_scan", "android": "https://dc.lft.to/lastmile_qr_scan"}, "is_reserved": 0, "fusion_lon": 0.0, "fusion_lat": 0.0, "lon": -77.03451483333333, "name": "50884d7c202ca68f716f48df163fa4aa"}, {"bike_id": "bf4ff2afb245e79da07835ba9315362a", "type": "electric_scooter", "is_disabled": 0, "lat": 38.901256333333336, "rental_uris": {"ios": "https://dc.lft.to/lastmile_qr_scan", "android": "https://dc.lft.to/lastmile_qr_scan"}, "is_reserved": 0, "fusion_lon": 0.0, "fusion_lat": 0.0, "lon": -77.01839666666666, "name": "bf4ff2afb245e79da07835ba9315362a"}, {"bike_id": "825bb4fd2a58d16b980fe8c81e39b163", "type": "electric_scooter", "is_disabled": 0, "lat": 38.862415666666664, "rental_uris": {"ios": "https://dc.lft.to/lastmile_qr_scan", "android": "https://dc.lft.to/lastmile_qr_scan"}, "is_reserved": 0, "fusion_lon": 0.0, "fusion_lat": 0.0, "lon": -76.99493116666666, "name": "825bb4fd2a58d16b980fe8c81e39b163"}, {"bike_id": "8e22b25b05ff107fd1fe8a87ac89e122", "type": "electric_scooter", "is_disabled": 0, "lat": 38.917174833333334, "rental_uris": {"ios": "https://dc.lft.to/lastmile_qr_scan", "android": "https://dc.lft.to/lastmile_qr_scan"}, "is_reserved": 0, "fusion_lon": 0.0, "fusion_lat": 0.0, "lon": -77.02961416666666, "name": "8e22b25b05ff107fd1fe8a87ac89e122"}, {"bike_id": "41b516619dfab4ce6f2fa79ef3eb4bbd", "type": "electric_scooter", "is_disabled": 0, "lat": 38.894631333333336, "rental_uris": {"ios": "https://dc.lft.to/lastmile_qr_scan", "android": "https://dc.lft.to/lastmile_qr_scan"}, "is_reserved": 0, "fusion_lon": 0.0, "fusion_lat": 0.0, "lon": -77.02807516666667, "name": "41b516619dfab4ce6f2fa79ef3eb4bbd"}, {"bike_id": "af20b85cc80b92d651096f700e0754a0", "type": "electric_scooter", "is_disabled": 0, "lat": 38.917337833333335, "rental_uris": {"ios": "https://dc.lft.to/lastmile_qr_scan", "android": "https://dc.lft.to/lastmile_qr_scan"}, "is_reserved": 0, "fusion_lon": 0.0, "fusion_lat": 0.0, "lon": -77.0364345, "name": "af20b85cc80b92d651096f700e0754a0"}, {"bike_id": "8c8408c8af35d59b9abcca3319dbecc0", "type": "electric_scooter", "is_disabled": 0, "lat": 38.918059666666664, "rental_uris": {"ios": "https://dc.lft.to/lastmile_qr_scan", "android": "https://dc.lft.to/lastmile_qr_scan"}, "is_reserved": 0, "fusion_lon": 0.0, "fusion_lat": 0.0, "lon": -77.0455505, "name": "8c8408c8af35d59b9abcca3319dbecc0"}, {"bike_id": "be36b195d70feb06aae40d16495d16e6", "type": "electric_scooter", "is_disabled": 0, "lat": 38.920882666666664, "rental_uris": {"ios": "https://dc.lft.to/lastmile_qr_scan", "android": "https://dc.lft.to/lastmile_qr_scan"}, "is_reserved": 0, "fusion_lon": 0.0, "fusion_lat": 0.0, "lon": -77.01681433333333, "name": "be36b195d70feb06aae40d16495d16e6"}, {"bike_id": "bd675fbacc96e961501b57fa9d0b335f", "type": "electric_scooter", "is_disabled": 0, "lat": 38.9155465, "rental_uris": {"ios": "https://dc.lft.to/lastmile_qr_scan", "android": "https://dc.lft.to/lastmile_qr_scan"}, "is_reserved": 0, "fusion_lon": 0.0, "fusion_lat": 0.0, "lon": -77.04186916666667, "name": "bd675fbacc96e961501b57fa9d0b335f"}, {"bike_id": "9b0fdbcf19b49dd8b25a6fcd27b573a9", "type": "electric_scooter", "is_disabled": 0, "lat": 38.898654, "rental_uris": {"ios": "https://dc.lft.to/lastmile_qr_scan", "android": "https://dc.lft.to/lastmile_qr_scan"}, "is_reserved": 0, "fusion_lon": 0.0, "fusion_lat": 0.0, "lon": -77.02019333333334, "name": "9b0fdbcf19b49dd8b25a6fcd27b573a9"}, {"bike_id": "27c4a47bab874a4ed5b2f24280606354", "type": "electric_scooter", "is_disabled": 0, "lat": 38.93315366666667, "rental_uris": {"ios": "https://dc.lft.to/lastmile_qr_scan", "android": "https://dc.lft.to/lastmile_qr_scan"}, "is_reserved": 0, "fusion_lon": 0.0, "fusion_lat": 0.0, "lon": -77.02746366666666, "name": "27c4a47bab874a4ed5b2f24280606354"}, {"bike_id": "69375bdea51c4550197f1d9ddd2f6753", "type": "electric_scooter", "is_disabled": 0, "lat": 38.933203, "rental_uris": {"ios": "https://dc.lft.to/lastmile_qr_scan", "android": "https://dc.lft.to/lastmile_qr_scan"}, "is_reserved": 0, "fusion_lon": 0.0, "fusion_lat": 0.0, "lon": -77.0326045, "name": "69375bdea51c4550197f1d9ddd2f6753"}, {"bike_id": "535b0b7aed51a713db400f9beb8923f0", "type": "electric_scooter", "is_disabled": 0, "lat": 38.899426166666665, "rental_uris": {"ios": "https://dc.lft.to/lastmile_qr_scan", "android": "https://dc.lft.to/lastmile_qr_scan"}, "is_reserved": 0, "fusion_lon": 0.0, "fusion_lat": 0.0, "lon": -77.01450483333333, "name": "535b0b7aed51a713db400f9beb8923f0"}, {"bike_id": "5076dbbbcf9f0edd1fd8cc29e2f10206", "type": "electric_scooter", "is_disabled": 0, "lat": 38.91440466666667, "rental_uris": {"ios": "https://dc.lft.to/lastmile_qr_scan", "android": "https://dc.lft.to/lastmile_qr_scan"}, "is_reserved": 0, "fusion_lon": 0.0, "fusion_lat": 0.0, "lon": -77.04504133333333, "name": "5076dbbbcf9f0edd1fd8cc29e2f10206"}, {"bike_id": "8d08458e845632e0cc3c71ffe3481eff", "type": "electric_bike", "is_disabled": 0, "lat": 38.93102366666667, "rental_uris": {"ios": "https://dc.lft.to/lastmile_qr_scan", "android": "https://dc.lft.to/lastmile_qr_scan"}, "is_reserved": 0, "fusion_lon": 0.0, "fusion_lat": 0.0, "lon": -77.01852916666667, "name": "8d08458e845632e0cc3c71ffe3481eff"}, {"bike_id": "233694a059111583b2ef2b0c176dbcd6", "type": "electric_scooter", "is_disabled": 0, "lat": 38.876587, "rental_uris": {"ios": "https://dc.lft.to/lastmile_qr_scan", "android": "https://dc.lft.to/lastmile_qr_scan"}, "is_reserved": 0, "fusion_lon": 0.0, "fusion_lat": 0.0, "lon": -76.99640883333333, "name": "233694a059111583b2ef2b0c176dbcd6"}, {"bike_id": "4972f653aebab3101c1b2e33a725630d", "type": "electric_scooter", "is_disabled": 0, "lat": 38.9096825, "rental_uris": {"ios": "https://dc.lft.to/lastmile_qr_scan", "android": "https://dc.lft.to/lastmile_qr_scan"}, "is_reserved": 0, "fusion_lon": 0.0, "fusion_lat": 0.0, "lon": -77.039976, "name": "4972f653aebab3101c1b2e33a725630d"}, {"bike_id": "be3fc09f018116000ca538f1191c1732", "type": "electric_scooter", "is_disabled": 0, "lat": 38.9046805, "rental_uris": {"ios": "https://dc.lft.to/lastmile_qr_scan", "android": "https://dc.lft.to/lastmile_qr_scan"}, "is_reserved": 0, "fusion_lon": 0.0, "fusion_lat": 0.0, "lon": -77.00731516666667, "name": "be3fc09f018116000ca538f1191c1732"}, {"bike_id": "878cacc6ab572f4214fc1ea92cb51782", "type": "electric_scooter", "is_disabled": 0, "lat": 38.942903666666666, "rental_uris": {"ios": "https://dc.lft.to/lastmile_qr_scan", "android": "https://dc.lft.to/lastmile_qr_scan"}, "is_reserved": 0, "fusion_lon": 0.0, "fusion_lat": 0.0, "lon": -77.02167833333333, "name": "878cacc6ab572f4214fc1ea92cb51782"}, {"bike_id": "809bf1a1e8cdae44032dc4084edbb26b", "type": "electric_bike", "is_disabled": 0, "lat": 38.90558166666667, "rental_uris": {"ios": "https://dc.lft.to/lastmile_qr_scan", "android": "https://dc.lft.to/lastmile_qr_scan"}, "is_reserved": 0, "fusion_lon": 0.0, "fusion_lat": 0.0, "lon": -77.02738316666667, "name": "809bf1a1e8cdae44032dc4084edbb26b"}, {"bike_id": "abe90f418da8ab8cdbb64d5fd3caafd4", "type": "electric_scooter", "is_disabled": 0, "lat": 38.913781, "rental_uris": {"ios": "https://dc.lft.to/lastmile_qr_scan", "android": "https://dc.lft.to/lastmile_qr_scan"}, "is_reserved": 0, "fusion_lon": 0.0, "fusion_lat": 0.0, "lon": -77.0413995, "name": "abe90f418da8ab8cdbb64d5fd3caafd4"}, {"bike_id": "347e829cc44d2bae918b41bcd07dbd40", "type": "electric_scooter", "is_disabled": 0, "lat": 38.900811, "rental_uris": {"ios": "https://dc.lft.to/lastmile_qr_scan", "android": "https://dc.lft.to/lastmile_qr_scan"}, "is_reserved": 0, "fusion_lon": 0.0, "fusion_lat": 0.0, "lon": -77.04765283333333, "name": "347e829cc44d2bae918b41bcd07dbd40"}, {"bike_id": "be3a266981e3d48af2c021a2da345463", "type": "electric_scooter", "is_disabled": 0, "lat": 38.900202666666665, "rental_uris": {"ios": "https://dc.lft.to/lastmile_qr_scan", "android": "https://dc.lft.to/lastmile_qr_scan"}, "is_reserved": 0, "fusion_lon": 0.0, "fusion_lat": 0.0, "lon": -76.9896285, "name": "be3a266981e3d48af2c021a2da345463"}, {"bike_id": "dd607cc9722b7349b8d6644450a42799", "type": "electric_scooter", "is_disabled": 0, "lat": 38.9289315, "rental_uris": {"ios": "https://dc.lft.to/lastmile_qr_scan", "android": "https://dc.lft.to/lastmile_qr_scan"}, "is_reserved": 0, "fusion_lon": 0.0, "fusion_lat": 0.0, "lon": -77.01650183333334, "name": "dd607cc9722b7349b8d6644450a42799"}, {"bike_id": "74b77d33dccafd90533ecc64a18f5d1f", "type": "electric_scooter", "is_disabled": 0, "lat": 38.93306966666667, "rental_uris": {"ios": "https://dc.lft.to/lastmile_qr_scan", "android": "https://dc.lft.to/lastmile_qr_scan"}, "is_reserved": 0, "fusion_lon": 0.0, "fusion_lat": 0.0, "lon": -77.021556, "name": "74b77d33dccafd90533ecc64a18f5d1f"}, {"bike_id": "18abb0f580c85af997f48f390e934d50", "type": "electric_bike", "is_disabled": 0, "lat": 38.931962166666665, "rental_uris": {"ios": "https://dc.lft.to/lastmile_qr_scan", "android": "https://dc.lft.to/lastmile_qr_scan"}, "is_reserved": 0, "fusion_lon": 0.0, "fusion_lat": 0.0, "lon": -77.02388, "name": "18abb0f580c85af997f48f390e934d50"}, {"bike_id": "a145994528a4591c1fb9b0089205ae54", "type": "electric_scooter", "is_disabled": 0, "lat": 38.92725166666666, "rental_uris": {"ios": "https://dc.lft.to/lastmile_qr_scan", "android": "https://dc.lft.to/lastmile_qr_scan"}, "is_reserved": 0, "fusion_lon": 0.0, "fusion_lat": 0.0, "lon": -77.03993633333333, "name": "a145994528a4591c1fb9b0089205ae54"}, {"bike_id": "4313492d18eea613ab52c9a6462aab55", "type": "electric_scooter", "is_disabled": 0, "lat": 38.9082315, "rental_uris": {"ios": "https://dc.lft.to/lastmile_qr_scan", "android": "https://dc.lft.to/lastmile_qr_scan"}, "is_reserved": 0, "fusion_lon": 0.0, "fusion_lat": 0.0, "lon": -76.94159483333334, "name": "4313492d18eea613ab52c9a6462aab55"}, {"bike_id": "94cd51eb45d524d422c0882b8a81b356", "type": "electric_scooter", "is_disabled": 0, "lat": 38.88559866666667, "rental_uris": {"ios": "https://dc.lft.to/lastmile_qr_scan", "android": "https://dc.lft.to/lastmile_qr_scan"}, "is_reserved": 0, "fusion_lon": 0.0, "fusion_lat": 0.0, "lon": -77.00212533333334, "name": "94cd51eb45d524d422c0882b8a81b356"}, {"bike_id": "3ec22e06ec41526565c4fb9f60fc4e53", "type": "electric_bike", "is_disabled": 0, "lat": 38.8727635, "rental_uris": {"ios": "https://dc.lft.to/lastmile_qr_scan", "android": "https://dc.lft.to/lastmile_qr_scan"}, "is_reserved": 0, "fusion_lon": 0.0, "fusion_lat": 0.0, "lon": -77.23326966666667, "name": "3ec22e06ec41526565c4fb9f60fc4e53"}, {"bike_id": "7c29fbcf73a9aaf7774f9629704ddf69", "type": "electric_bike", "is_disabled": 0, "lat": 38.964700666666666, "rental_uris": {"ios": "https://dc.lft.to/lastmile_qr_scan", "android": "https://dc.lft.to/lastmile_qr_scan"}, "is_reserved": 0, "fusion_lon": 0.0, "fusion_lat": 0.0, "lon": -77.03562466666666, "name": "7c29fbcf73a9aaf7774f9629704ddf69"}, {"bike_id": "cab0f9e09825e790bed406a20d81334f", "type": "electric_scooter", "is_disabled": 0, "lat": 38.93069283333333, "rental_uris": {"ios": "https://dc.lft.to/lastmile_qr_scan", "android": "https://dc.lft.to/lastmile_qr_scan"}, "is_reserved": 0, "fusion_lon": 0.0, "fusion_lat": 0.0, "lon": -77.03806583333333, "name": "cab0f9e09825e790bed406a20d81334f"}, {"bike_id": "53662de27bbaebefa0d2ecdc3094a829", "type": "electric_scooter", "is_disabled": 0, "lat": 38.917872333333335, "rental_uris": {"ios": "https://dc.lft.to/lastmile_qr_scan", "android": "https://dc.lft.to/lastmile_qr_scan"}, "is_reserved": 0, "fusion_lon": 0.0, "fusion_lat": 0.0, "lon": -77.02340966666667, "name": "53662de27bbaebefa0d2ecdc3094a829"}, {"bike_id": "7f95c5b1118ebe4907777fb47bee0bcd", "type": "electric_scooter", "is_disabled": 0, "lat": 38.899787333333336, "rental_uris": {"ios": "https://dc.lft.to/lastmile_qr_scan", "android": "https://dc.lft.to/lastmile_qr_scan"}, "is_reserved": 0, "fusion_lon": 0.0, "fusion_lat": 0.0, "lon": -77.01590633333333, "name": "7f95c5b1118ebe4907777fb47bee0bcd"}, {"bike_id": "53b02e24a15a5814fba1d4afeac2bfed", "type": "electric_scooter", "is_disabled": 0, "lat": 38.903427, "rental_uris": {"ios": "https://dc.lft.to/lastmile_qr_scan", "android": "https://dc.lft.to/lastmile_qr_scan"}, "is_reserved": 0, "fusion_lon": 0.0, "fusion_lat": 0.0, "lon": -76.993866, "name": "53b02e24a15a5814fba1d4afeac2bfed"}, {"bike_id": "85b7750142578f8af65ca420e8abc8aa", "type": "electric_scooter", "is_disabled": 0, "lat": 38.9169645, "rental_uris": {"ios": "https://dc.lft.to/lastmile_qr_scan", "android": "https://dc.lft.to/lastmile_qr_scan"}, "is_reserved": 0, "fusion_lon": 0.0, "fusion_lat": 0.0, "lon": -77.0105335, "name": "85b7750142578f8af65ca420e8abc8aa"}, {"bike_id": "a7857d77a7535874a876f6036d75e57f", "type": "electric_scooter", "is_disabled": 0, "lat": 38.92064883333333, "rental_uris": {"ios": "https://dc.lft.to/lastmile_qr_scan", "android": "https://dc.lft.to/lastmile_qr_scan"}, "is_reserved": 0, "fusion_lon": 0.0, "fusion_lat": 0.0, "lon": -77.02246533333333, "name": "a7857d77a7535874a876f6036d75e57f"}, {"bike_id": "534feb8540259fa599fd15158e9ea2bf", "type": "electric_scooter", "is_disabled": 0, "lat": 38.921199, "rental_uris": {"ios": "https://dc.lft.to/lastmile_qr_scan", "android": "https://dc.lft.to/lastmile_qr_scan"}, "is_reserved": 0, "fusion_lon": 0.0, "fusion_lat": 0.0, "lon": -77.012116, "name": "534feb8540259fa599fd15158e9ea2bf"}, {"bike_id": "d4d554af97b2cbd13f457803e223fc8c", "type": "electric_scooter", "is_disabled": 0, "lat": 38.940524833333335, "rental_uris": {"ios": "https://dc.lft.to/lastmile_qr_scan", "android": "https://dc.lft.to/lastmile_qr_scan"}, "is_reserved": 0, "fusion_lon": 0.0, "fusion_lat": 0.0, "lon": -77.029841, "name": "d4d554af97b2cbd13f457803e223fc8c"}, {"bike_id": "89bc5d74db4783bf308ec6f30a21b8cc", "type": "electric_scooter", "is_disabled": 0, "lat": 38.928614833333334, "rental_uris": {"ios": "https://dc.lft.to/lastmile_qr_scan", "android": "https://dc.lft.to/lastmile_qr_scan"}, "is_reserved": 0, "fusion_lon": 0.0, "fusion_lat": 0.0, "lon": -77.03715433333333, "name": "89bc5d74db4783bf308ec6f30a21b8cc"}, {"bike_id": "8c884b4b34c0256b98350678236b36af", "type": "electric_scooter", "is_disabled": 0, "lat": 38.905572, "rental_uris": {"ios": "https://dc.lft.to/lastmile_qr_scan", "android": "https://dc.lft.to/lastmile_qr_scan"}, "is_reserved": 0, "fusion_lon": 0.0, "fusion_lat": 0.0, "lon": -77.040622, "name": "8c884b4b34c0256b98350678236b36af"}, {"bike_id": "58d5aa3cbfe85ee867cdca1cae73d5c9", "type": "electric_scooter", "is_disabled": 0, "lat": 38.865171, "rental_uris": {"ios": "https://dc.lft.to/lastmile_qr_scan", "android": "https://dc.lft.to/lastmile_qr_scan"}, "is_reserved": 0, "fusion_lon": 0.0, "fusion_lat": 0.0, "lon": -76.99016366666666, "name": "58d5aa3cbfe85ee867cdca1cae73d5c9"}, {"bike_id": "9c145b3df7c75b23cf6aa082dddbb65c", "type": "electric_scooter", "is_disabled": 0, "lat": 38.907337, "rental_uris": {"ios": "https://dc.lft.to/lastmile_qr_scan", "android": "https://dc.lft.to/lastmile_qr_scan"}, "is_reserved": 0, "fusion_lon": 0.0, "fusion_lat": 0.0, "lon": -77.034507, "name": "9c145b3df7c75b23cf6aa082dddbb65c"}, {"bike_id": "5a8f226ef93d648bf9b2ea8a137bc6cf", "type": "electric_scooter", "is_disabled": 0, "lat": 38.936717, "rental_uris": {"ios": "https://dc.lft.to/lastmile_qr_scan", "android": "https://dc.lft.to/lastmile_qr_scan"}, "is_reserved": 0, "fusion_lon": 0.0, "fusion_lat": 0.0, "lon": -77.0356805, "name": "5a8f226ef93d648bf9b2ea8a137bc6cf"}, {"bike_id": "b6e19d753867fd6f11550a1958ee1200", "type": "electric_bike", "is_disabled": 0, "lat": 38.98363633333334, "rental_uris": {"ios": "https://dc.lft.to/lastmile_qr_scan", "android": "https://dc.lft.to/lastmile_qr_scan"}, "is_reserved": 0, "fusion_lon": 0.0, "fusion_lat": 0.0, "lon": -76.97214683333333, "name": "b6e19d753867fd6f11550a1958ee1200"}, {"bike_id": "f3870152a1d25c3948a5d7a39d4e8488", "type": "electric_scooter", "is_disabled": 0, "lat": 38.961396, "rental_uris": {"ios": "https://dc.lft.to/lastmile_qr_scan", "android": "https://dc.lft.to/lastmile_qr_scan"}, "is_reserved": 0, "fusion_lon": 0.0, "fusion_lat": 0.0, "lon": -77.02787666666667, "name": "f3870152a1d25c3948a5d7a39d4e8488"}, {"bike_id": "fe628097b46b612657a82b2958aa6ef3", "type": "electric_scooter", "is_disabled": 0, "lat": 38.917191333333335, "rental_uris": {"ios": "https://dc.lft.to/lastmile_qr_scan", "android": "https://dc.lft.to/lastmile_qr_scan"}, "is_reserved": 0, "fusion_lon": 0.0, "fusion_lat": 0.0, "lon": -77.02952033333334, "name": "fe628097b46b612657a82b2958aa6ef3"}, {"bike_id": "5fdbed301248dfa1386f098842e651e7", "type": "electric_bike", "is_disabled": 0, "lat": 38.929115833333334, "rental_uris": {"ios": "https://dc.lft.to/lastmile_qr_scan", "android": "https://dc.lft.to/lastmile_qr_scan"}, "is_reserved": 0, "fusion_lon": 0.0, "fusion_lat": 0.0, "lon": -77.03252933333333, "name": "5fdbed301248dfa1386f098842e651e7"}, {"bike_id": "4a16e9e7e7462919ac634a43eaf85c14", "type": "electric_bike", "is_disabled": 0, "lat": 38.89527966666667, "rental_uris": {"ios": "https://dc.lft.to/lastmile_qr_scan", "android": "https://dc.lft.to/lastmile_qr_scan"}, "is_reserved": 0, "fusion_lon": 0.0, "fusion_lat": 0.0, "lon": -77.0281315, "name": "4a16e9e7e7462919ac634a43eaf85c14"}, {"bike_id": "5847f9bb377f68d8a96d4a93680c716b", "type": "electric_scooter", "is_disabled": 0, "lat": 38.86250316666667, "rental_uris": {"ios": "https://dc.lft.to/lastmile_qr_scan", "android": "https://dc.lft.to/lastmile_qr_scan"}, "is_reserved": 0, "fusion_lon": 0.0, "fusion_lat": 0.0, "lon": -76.99504166666667, "name": "5847f9bb377f68d8a96d4a93680c716b"}, {"bike_id": "4fb22b237d4a4dcc1edea3e41d64a944", "type": "electric_scooter", "is_disabled": 0, "lat": 38.892999, "rental_uris": {"ios": "https://dc.lft.to/lastmile_qr_scan", "android": "https://dc.lft.to/lastmile_qr_scan"}, "is_reserved": 0, "fusion_lon": 0.0, "fusion_lat": 0.0, "lon": -77.0124015, "name": "4fb22b237d4a4dcc1edea3e41d64a944"}, {"bike_id": "d1768b15b4c7a0ac6c956179cfd61e53", "type": "electric_scooter", "is_disabled": 0, "lat": 38.90515083333333, "rental_uris": {"ios": "https://dc.lft.to/lastmile_qr_scan", "android": "https://dc.lft.to/lastmile_qr_scan"}, "is_reserved": 0, "fusion_lon": 0.0, "fusion_lat": 0.0, "lon": -77.04839783333334, "name": "d1768b15b4c7a0ac6c956179cfd61e53"}, {"bike_id": "760b9a99d78411c24e71dcebb1eeec98", "type": "electric_scooter", "is_disabled": 0, "lat": 38.83149316666667, "rental_uris": {"ios": "https://dc.lft.to/lastmile_qr_scan", "android": "https://dc.lft.to/lastmile_qr_scan"}, "is_reserved": 0, "fusion_lon": 0.0, "fusion_lat": 0.0, "lon": -77.05134816666667, "name": "760b9a99d78411c24e71dcebb1eeec98"}, {"bike_id": "d7528cb69c5b4e99cebc01da4c1d1623", "type": "electric_scooter", "is_disabled": 0, "lat": 38.86466733333334, "rental_uris": {"ios": "https://dc.lft.to/lastmile_qr_scan", "android": "https://dc.lft.to/lastmile_qr_scan"}, "is_reserved": 0, "fusion_lon": 0.0, "fusion_lat": 0.0, "lon": -76.98236416666667, "name": "d7528cb69c5b4e99cebc01da4c1d1623"}, {"bike_id": "831880cd60a59175b645269f5744c157", "type": "electric_scooter", "is_disabled": 0, "lat": 38.901019, "rental_uris": {"ios": "https://dc.lft.to/lastmile_qr_scan", "android": "https://dc.lft.to/lastmile_qr_scan"}, "is_reserved": 0, "fusion_lon": 0.0, "fusion_lat": 0.0, "lon": -77.0241805, "name": "831880cd60a59175b645269f5744c157"}, {"bike_id": "27e12c2581f17835eb77a0e180fffae3", "type": "electric_scooter", "is_disabled": 0, "lat": 38.910459833333334, "rental_uris": {"ios": "https://dc.lft.to/lastmile_qr_scan", "android": "https://dc.lft.to/lastmile_qr_scan"}, "is_reserved": 0, "fusion_lon": 0.0, "fusion_lat": 0.0, "lon": -77.009173, "name": "27e12c2581f17835eb77a0e180fffae3"}, {"bike_id": "b987c66e85c8768be59af810c261f358", "type": "electric_scooter", "is_disabled": 0, "lat": 38.915319833333335, "rental_uris": {"ios": "https://dc.lft.to/lastmile_qr_scan", "android": "https://dc.lft.to/lastmile_qr_scan"}, "is_reserved": 0, "fusion_lon": 0.0, "fusion_lat": 0.0, "lon": -76.97003683333334, "name": "b987c66e85c8768be59af810c261f358"}, {"bike_id": "12ec9f05ed99a84c702dd206b4ebef77", "type": "electric_scooter", "is_disabled": 0, "lat": 38.8847565, "rental_uris": {"ios": "https://dc.lft.to/lastmile_qr_scan", "android": "https://dc.lft.to/lastmile_qr_scan"}, "is_reserved": 0, "fusion_lon": 0.0, "fusion_lat": 0.0, "lon": -77.0236605, "name": "12ec9f05ed99a84c702dd206b4ebef77"}, {"bike_id": "3ccdc5e8b715b7210d04b8629908da93", "type": "electric_bike", "is_disabled": 0, "lat": 38.882404666666666, "rental_uris": {"ios": "https://dc.lft.to/lastmile_qr_scan", "android": "https://dc.lft.to/lastmile_qr_scan"}, "is_reserved": 0, "fusion_lon": 0.0, "fusion_lat": 0.0, "lon": -76.9625885, "name": "3ccdc5e8b715b7210d04b8629908da93"}, {"bike_id": "ce8a1f0eb429f9f85e7a176352d3f65f", "type": "electric_bike", "is_disabled": 0, "lat": 39.043151, "rental_uris": {"ios": "https://dc.lft.to/lastmile_qr_scan", "android": "https://dc.lft.to/lastmile_qr_scan"}, "is_reserved": 0, "fusion_lon": 0.0, "fusion_lat": 0.0, "lon": -77.051607, "name": "ce8a1f0eb429f9f85e7a176352d3f65f"}, {"bike_id": "f0c4a4ae1af74a32cfd2030969a7c1f3", "type": "electric_scooter", "is_disabled": 0, "lat": 38.92802416666667, "rental_uris": {"ios": "https://dc.lft.to/lastmile_qr_scan", "android": "https://dc.lft.to/lastmile_qr_scan"}, "is_reserved": 0, "fusion_lon": 0.0, "fusion_lat": 0.0, "lon": -77.03198133333333, "name": "f0c4a4ae1af74a32cfd2030969a7c1f3"}, {"bike_id": "d5f4f4ffc5a6b6007fc9c95ee8a9459d", "type": "electric_scooter", "is_disabled": 0, "lat": 38.87949016666666, "rental_uris": {"ios": "https://dc.lft.to/lastmile_qr_scan", "android": "https://dc.lft.to/lastmile_qr_scan"}, "is_reserved": 0, "fusion_lon": 0.0, "fusion_lat": 0.0, "lon": -77.02355516666667, "name": "d5f4f4ffc5a6b6007fc9c95ee8a9459d"}, {"bike_id": "5636a16aa325531d408e6f8b0a75755d", "type": "electric_scooter", "is_disabled": 0, "lat": 38.9237055, "rental_uris": {"ios": "https://dc.lft.to/lastmile_qr_scan", "android": "https://dc.lft.to/lastmile_qr_scan"}, "is_reserved": 0, "fusion_lon": 0.0, "fusion_lat": 0.0, "lon": -77.02949633333333, "name": "5636a16aa325531d408e6f8b0a75755d"}, {"bike_id": "112f9a9d9a1c7402657ee613a430a5cb", "type": "electric_scooter", "is_disabled": 0, "lat": 38.9064915, "rental_uris": {"ios": "https://dc.lft.to/lastmile_qr_scan", "android": "https://dc.lft.to/lastmile_qr_scan"}, "is_reserved": 0, "fusion_lon": 0.0, "fusion_lat": 0.0, "lon": -77.04161733333333, "name": "112f9a9d9a1c7402657ee613a430a5cb"}, {"bike_id": "71071a2a0b13b01f6844d14ca7faf79d", "type": "electric_bike", "is_disabled": 0, "lat": 38.8237555, "rental_uris": {"ios": "https://dc.lft.to/lastmile_qr_scan", "android": "https://dc.lft.to/lastmile_qr_scan"}, "is_reserved": 0, "fusion_lon": 0.0, "fusion_lat": 0.0, "lon": -77.00225933333333, "name": "71071a2a0b13b01f6844d14ca7faf79d"}, {"bike_id": "e0ab4dc76e9e61c4db8fff4b33d82d7d", "type": "electric_scooter", "is_disabled": 0, "lat": 38.91112533333333, "rental_uris": {"ios": "https://dc.lft.to/lastmile_qr_scan", "android": "https://dc.lft.to/lastmile_qr_scan"}, "is_reserved": 0, "fusion_lon": 0.0, "fusion_lat": 0.0, "lon": -77.03438966666667, "name": "e0ab4dc76e9e61c4db8fff4b33d82d7d"}, {"bike_id": "86491340d9693ab0c4e8ce65a4c07254", "type": "electric_scooter", "is_disabled": 0, "lat": 38.8619005, "rental_uris": {"ios": "https://dc.lft.to/lastmile_qr_scan", "android": "https://dc.lft.to/lastmile_qr_scan"}, "is_reserved": 0, "fusion_lon": 0.0, "fusion_lat": 0.0, "lon": -77.08818816666667, "name": "86491340d9693ab0c4e8ce65a4c07254"}, {"bike_id": "38d3eb530f89c129222d8050d4be08e1", "type": "electric_scooter", "is_disabled": 0, "lat": 38.938637166666666, "rental_uris": {"ios": "https://dc.lft.to/lastmile_qr_scan", "android": "https://dc.lft.to/lastmile_qr_scan"}, "is_reserved": 0, "fusion_lon": 0.0, "fusion_lat": 0.0, "lon": -77.0308025, "name": "38d3eb530f89c129222d8050d4be08e1"}, {"bike_id": "d589a940cdbcda27dc80f60d01a524e0", "type": "electric_scooter", "is_disabled": 0, "lat": 38.900064666666665, "rental_uris": {"ios": "https://dc.lft.to/lastmile_qr_scan", "android": "https://dc.lft.to/lastmile_qr_scan"}, "is_reserved": 0, "fusion_lon": 0.0, "fusion_lat": 0.0, "lon": -76.99628, "name": "d589a940cdbcda27dc80f60d01a524e0"}, {"bike_id": "62070ceeca39ca46c182f807d6937c45", "type": "electric_scooter", "is_disabled": 0, "lat": 38.91612583333333, "rental_uris": {"ios": "https://dc.lft.to/lastmile_qr_scan", "android": "https://dc.lft.to/lastmile_qr_scan"}, "is_reserved": 0, "fusion_lon": 0.0, "fusion_lat": 0.0, "lon": -77.02394916666667, "name": "62070ceeca39ca46c182f807d6937c45"}, {"bike_id": "23bd476f5711bc501e301aa2131ad6da", "type": "electric_scooter", "is_disabled": 0, "lat": 38.84436933333333, "rental_uris": {"ios": "https://dc.lft.to/lastmile_qr_scan", "android": "https://dc.lft.to/lastmile_qr_scan"}, "is_reserved": 0, "fusion_lon": 0.0, "fusion_lat": 0.0, "lon": -76.997763, "name": "23bd476f5711bc501e301aa2131ad6da"}, {"bike_id": "aca00a504526f1b09f36ce807076a538", "type": "electric_scooter", "is_disabled": 0, "lat": 38.906616666666665, "rental_uris": {"ios": "https://dc.lft.to/lastmile_qr_scan", "android": "https://dc.lft.to/lastmile_qr_scan"}, "is_reserved": 0, "fusion_lon": 0.0, "fusion_lat": 0.0, "lon": -77.07124366666666, "name": "aca00a504526f1b09f36ce807076a538"}, {"bike_id": "3562a98419eb22685f780ca5a257028b", "type": "electric_scooter", "is_disabled": 0, "lat": 38.917388333333335, "rental_uris": {"ios": "https://dc.lft.to/lastmile_qr_scan", "android": "https://dc.lft.to/lastmile_qr_scan"}, "is_reserved": 0, "fusion_lon": 0.0, "fusion_lat": 0.0, "lon": -77.04165183333333, "name": "3562a98419eb22685f780ca5a257028b"}, {"bike_id": "bbfd06b1c6ab22fa498dca6a6e9a1c7c", "type": "electric_scooter", "is_disabled": 0, "lat": 38.92190983333333, "rental_uris": {"ios": "https://dc.lft.to/lastmile_qr_scan", "android": "https://dc.lft.to/lastmile_qr_scan"}, "is_reserved": 0, "fusion_lon": 0.0, "fusion_lat": 0.0, "lon": -76.99362933333333, "name": "bbfd06b1c6ab22fa498dca6a6e9a1c7c"}, {"bike_id": "9f0b71b32d557d4627d1fcf22b864465", "type": "electric_scooter", "is_disabled": 0, "lat": 38.893591666666666, "rental_uris": {"ios": "https://dc.lft.to/lastmile_qr_scan", "android": "https://dc.lft.to/lastmile_qr_scan"}, "is_reserved": 0, "fusion_lon": 0.0, "fusion_lat": 0.0, "lon": -76.949318, "name": "9f0b71b32d557d4627d1fcf22b864465"}, {"bike_id": "073fd7ef58a3a04fb70ba83f7e88447d", "type": "electric_scooter", "is_disabled": 0, "lat": 38.8743425, "rental_uris": {"ios": "https://dc.lft.to/lastmile_qr_scan", "android": "https://dc.lft.to/lastmile_qr_scan"}, "is_reserved": 0, "fusion_lon": 0.0, "fusion_lat": 0.0, "lon": -77.0003145, "name": "073fd7ef58a3a04fb70ba83f7e88447d"}, {"bike_id": "32c5b67f8cec1dae9e946cd959bdee35", "type": "electric_bike", "is_disabled": 0, "lat": 39.05277783333333, "rental_uris": {"ios": "https://dc.lft.to/lastmile_qr_scan", "android": "https://dc.lft.to/lastmile_qr_scan"}, "is_reserved": 0, "fusion_lon": 0.0, "fusion_lat": 0.0, "lon": -77.08067533333333, "name": "32c5b67f8cec1dae9e946cd959bdee35"}, {"bike_id": "30a67296d618891466d6143a09825286", "type": "electric_scooter", "is_disabled": 0, "lat": 38.940852, "rental_uris": {"ios": "https://dc.lft.to/lastmile_qr_scan", "android": "https://dc.lft.to/lastmile_qr_scan"}, "is_reserved": 0, "fusion_lon": 0.0, "fusion_lat": 0.0, "lon": -77.02723816666666, "name": "30a67296d618891466d6143a09825286"}, {"bike_id": "659efcc1a554ec02c92e7865d76cab45", "type": "electric_scooter", "is_disabled": 0, "lat": 38.94789183333334, "rental_uris": {"ios": "https://dc.lft.to/lastmile_qr_scan", "android": "https://dc.lft.to/lastmile_qr_scan"}, "is_reserved": 0, "fusion_lon": 0.0, "fusion_lat": 0.0, "lon": -77.08015766666666, "name": "659efcc1a554ec02c92e7865d76cab45"}, {"bike_id": "cee5a46b46b0852e2d05b3d7a411f5a3", "type": "electric_scooter", "is_disabled": 0, "lat": 38.91824166666667, "rental_uris": {"ios": "https://dc.lft.to/lastmile_qr_scan", "android": "https://dc.lft.to/lastmile_qr_scan"}, "is_reserved": 0, "fusion_lon": 0.0, "fusion_lat": 0.0, "lon": -77.04941433333333, "name": "cee5a46b46b0852e2d05b3d7a411f5a3"}, {"bike_id": "504cb4dc5001b92df536a483d2088594", "type": "electric_scooter", "is_disabled": 0, "lat": 38.8669445, "rental_uris": {"ios": "https://dc.lft.to/lastmile_qr_scan", "android": "https://dc.lft.to/lastmile_qr_scan"}, "is_reserved": 0, "fusion_lon": 0.0, "fusion_lat": 0.0, "lon": -76.98714933333333, "name": "504cb4dc5001b92df536a483d2088594"}, {"bike_id": "9eb0239955bc50f12cf3be8569bf2ce7", "type": "electric_scooter", "is_disabled": 0, "lat": 38.91486583333333, "rental_uris": {"ios": "https://dc.lft.to/lastmile_qr_scan", "android": "https://dc.lft.to/lastmile_qr_scan"}, "is_reserved": 0, "fusion_lon": 0.0, "fusion_lat": 0.0, "lon": -76.98422683333334, "name": "9eb0239955bc50f12cf3be8569bf2ce7"}, {"bike_id": "04f4237e6039a9c6f31c99dad27db012", "type": "electric_scooter", "is_disabled": 0, "lat": 38.915379333333334, "rental_uris": {"ios": "https://dc.lft.to/lastmile_qr_scan", "android": "https://dc.lft.to/lastmile_qr_scan"}, "is_reserved": 0, "fusion_lon": 0.0, "fusion_lat": 0.0, "lon": -76.98351766666667, "name": "04f4237e6039a9c6f31c99dad27db012"}, {"bike_id": "e091cb551293309d7d4fe455a3976445", "type": "electric_scooter", "is_disabled": 0, "lat": 38.87090116666667, "rental_uris": {"ios": "https://dc.lft.to/lastmile_qr_scan", "android": "https://dc.lft.to/lastmile_qr_scan"}, "is_reserved": 0, "fusion_lon": 0.0, "fusion_lat": 0.0, "lon": -76.9658745, "name": "e091cb551293309d7d4fe455a3976445"}, {"bike_id": "aecaa05236409a178f8db786ba52676f", "type": "electric_scooter", "is_disabled": 0, "lat": 38.8782745, "rental_uris": {"ios": "https://dc.lft.to/lastmile_qr_scan", "android": "https://dc.lft.to/lastmile_qr_scan"}, "is_reserved": 0, "fusion_lon": 0.0, "fusion_lat": 0.0, "lon": -76.9631335, "name": "aecaa05236409a178f8db786ba52676f"}, {"bike_id": "d21b9d3e79025a39d27ddcb244c53981", "type": "electric_scooter", "is_disabled": 0, "lat": 38.917029666666664, "rental_uris": {"ios": "https://dc.lft.to/lastmile_qr_scan", "android": "https://dc.lft.to/lastmile_qr_scan"}, "is_reserved": 0, "fusion_lon": 0.0, "fusion_lat": 0.0, "lon": -77.00656983333333, "name": "d21b9d3e79025a39d27ddcb244c53981"}, {"bike_id": "ab495a2b4025eea6475d460aee0225f8", "type": "electric_scooter", "is_disabled": 0, "lat": 38.90940166666667, "rental_uris": {"ios": "https://dc.lft.to/lastmile_qr_scan", "android": "https://dc.lft.to/lastmile_qr_scan"}, "is_reserved": 0, "fusion_lon": 0.0, "fusion_lat": 0.0, "lon": -77.03204816666667, "name": "ab495a2b4025eea6475d460aee0225f8"}, {"bike_id": "898c843f37e837a3b1a3fbf2af7ea407", "type": "electric_scooter", "is_disabled": 0, "lat": 38.901391833333335, "rental_uris": {"ios": "https://dc.lft.to/lastmile_qr_scan", "android": "https://dc.lft.to/lastmile_qr_scan"}, "is_reserved": 0, "fusion_lon": 0.0, "fusion_lat": 0.0, "lon": -77.0413755, "name": "898c843f37e837a3b1a3fbf2af7ea407"}, {"bike_id": "68ea1fcc7b73c77be20c38e4ec6c2856", "type": "electric_scooter", "is_disabled": 0, "lat": 38.922359166666666, "rental_uris": {"ios": "https://dc.lft.to/lastmile_qr_scan", "android": "https://dc.lft.to/lastmile_qr_scan"}, "is_reserved": 0, "fusion_lon": 0.0, "fusion_lat": 0.0, "lon": -77.04245933333333, "name": "68ea1fcc7b73c77be20c38e4ec6c2856"}, {"bike_id": "9d1f064fb660463efb2072e9e7972f3f", "type": "electric_bike", "is_disabled": 0, "lat": 38.871362500000004, "rental_uris": {"ios": "https://dc.lft.to/lastmile_qr_scan", "android": "https://dc.lft.to/lastmile_qr_scan"}, "is_reserved": 0, "fusion_lon": 0.0, "fusion_lat": 0.0, "lon": -77.10030983333333, "name": "9d1f064fb660463efb2072e9e7972f3f"}, {"bike_id": "4972a400c22c2b1568654c548ae9de4b", "type": "electric_bike", "is_disabled": 0, "lat": 38.83609833333333, "rental_uris": {"ios": "https://dc.lft.to/lastmile_qr_scan", "android": "https://dc.lft.to/lastmile_qr_scan"}, "is_reserved": 0, "fusion_lon": 0.0, "fusion_lat": 0.0, "lon": -77.00382966666666, "name": "4972a400c22c2b1568654c548ae9de4b"}, {"bike_id": "40d142ef130c6d65a669fc8ac6d95912", "type": "electric_scooter", "is_disabled": 0, "lat": 38.91620966666667, "rental_uris": {"ios": "https://dc.lft.to/lastmile_qr_scan", "android": "https://dc.lft.to/lastmile_qr_scan"}, "is_reserved": 0, "fusion_lon": 0.0, "fusion_lat": 0.0, "lon": -77.04861933333333, "name": "40d142ef130c6d65a669fc8ac6d95912"}, {"bike_id": "8cd794b3d8b6be0964c5f174b1ecdfee", "type": "electric_scooter", "is_disabled": 0, "lat": 38.91413716666667, "rental_uris": {"ios": "https://dc.lft.to/lastmile_qr_scan", "android": "https://dc.lft.to/lastmile_qr_scan"}, "is_reserved": 0, "fusion_lon": 0.0, "fusion_lat": 0.0, "lon": -77.03997683333333, "name": "8cd794b3d8b6be0964c5f174b1ecdfee"}, {"bike_id": "fd926ae6588beffa4109ff8592f64bd3", "type": "electric_scooter", "is_disabled": 0, "lat": 38.915676500000004, "rental_uris": {"ios": "https://dc.lft.to/lastmile_qr_scan", "android": "https://dc.lft.to/lastmile_qr_scan"}, "is_reserved": 0, "fusion_lon": 0.0, "fusion_lat": 0.0, "lon": -77.02390166666666, "name": "fd926ae6588beffa4109ff8592f64bd3"}, {"bike_id": "3d1a28b7a89fdf1ae91801a5636b6204", "type": "electric_scooter", "is_disabled": 0, "lat": 38.9014235, "rental_uris": {"ios": "https://dc.lft.to/lastmile_qr_scan", "android": "https://dc.lft.to/lastmile_qr_scan"}, "is_reserved": 0, "fusion_lon": 0.0, "fusion_lat": 0.0, "lon": -77.02384533333333, "name": "3d1a28b7a89fdf1ae91801a5636b6204"}, {"bike_id": "b0baa980f90a860a24953760a9bce175", "type": "electric_scooter", "is_disabled": 0, "lat": 38.896222333333334, "rental_uris": {"ios": "https://dc.lft.to/lastmile_qr_scan", "android": "https://dc.lft.to/lastmile_qr_scan"}, "is_reserved": 0, "fusion_lon": 0.0, "fusion_lat": 0.0, "lon": -77.00025466666666, "name": "b0baa980f90a860a24953760a9bce175"}, {"bike_id": "bdc6cbc077eae6ceadd55296a45a24b2", "type": "electric_scooter", "is_disabled": 0, "lat": 38.90974966666667, "rental_uris": {"ios": "https://dc.lft.to/lastmile_qr_scan", "android": "https://dc.lft.to/lastmile_qr_scan"}, "is_reserved": 0, "fusion_lon": 0.0, "fusion_lat": 0.0, "lon": -77.0217945, "name": "bdc6cbc077eae6ceadd55296a45a24b2"}, {"bike_id": "e6ce8e7bad25dd68dda415b320178bba", "type": "electric_scooter", "is_disabled": 0, "lat": 38.90002416666667, "rental_uris": {"ios": "https://dc.lft.to/lastmile_qr_scan", "android": "https://dc.lft.to/lastmile_qr_scan"}, "is_reserved": 0, "fusion_lon": 0.0, "fusion_lat": 0.0, "lon": -77.05333816666666, "name": "e6ce8e7bad25dd68dda415b320178bba"}, {"bike_id": "51cbb6cd4ea1ced3b1b406f8c7550fb6", "type": "electric_scooter", "is_disabled": 0, "lat": 38.942145333333336, "rental_uris": {"ios": "https://dc.lft.to/lastmile_qr_scan", "android": "https://dc.lft.to/lastmile_qr_scan"}, "is_reserved": 0, "fusion_lon": 0.0, "fusion_lat": 0.0, "lon": -77.02587033333333, "name": "51cbb6cd4ea1ced3b1b406f8c7550fb6"}, {"bike_id": "cb0878de9f751248b0b5e63373cc8792", "type": "electric_scooter", "is_disabled": 0, "lat": 38.90215933333333, "rental_uris": {"ios": "https://dc.lft.to/lastmile_qr_scan", "android": "https://dc.lft.to/lastmile_qr_scan"}, "is_reserved": 0, "fusion_lon": 0.0, "fusion_lat": 0.0, "lon": -77.02214433333333, "name": "cb0878de9f751248b0b5e63373cc8792"}, {"bike_id": "d3acfaaa0350126ceb8c7b0d398ab8a9", "type": "electric_scooter", "is_disabled": 0, "lat": 38.905040666666665, "rental_uris": {"ios": "https://dc.lft.to/lastmile_qr_scan", "android": "https://dc.lft.to/lastmile_qr_scan"}, "is_reserved": 0, "fusion_lon": 0.0, "fusion_lat": 0.0, "lon": -77.03844866666667, "name": "d3acfaaa0350126ceb8c7b0d398ab8a9"}, {"bike_id": "855d7af86561ce7df38314087801ae04", "type": "electric_scooter", "is_disabled": 0, "lat": 38.9169885, "rental_uris": {"ios": "https://dc.lft.to/lastmile_qr_scan", "android": "https://dc.lft.to/lastmile_qr_scan"}, "is_reserved": 0, "fusion_lon": 0.0, "fusion_lat": 0.0, "lon": -77.0312205, "name": "855d7af86561ce7df38314087801ae04"}, {"bike_id": "9cb7fe8c8547daed79d59aec2ee55bb3", "type": "electric_scooter", "is_disabled": 0, "lat": 38.910605333333336, "rental_uris": {"ios": "https://dc.lft.to/lastmile_qr_scan", "android": "https://dc.lft.to/lastmile_qr_scan"}, "is_reserved": 0, "fusion_lon": 0.0, "fusion_lat": 0.0, "lon": -77.03727916666666, "name": "9cb7fe8c8547daed79d59aec2ee55bb3"}, {"bike_id": "20476d000f97c83dfcd29f4fc8a28ca8", "type": "electric_scooter", "is_disabled": 0, "lat": 38.93633366666667, "rental_uris": {"ios": "https://dc.lft.to/lastmile_qr_scan", "android": "https://dc.lft.to/lastmile_qr_scan"}, "is_reserved": 0, "fusion_lon": 0.0, "fusion_lat": 0.0, "lon": -77.058812, "name": "20476d000f97c83dfcd29f4fc8a28ca8"}, {"bike_id": "8a2ab08e3827ea14ecae31ae6f6c9cf3", "type": "electric_scooter", "is_disabled": 0, "lat": 38.914874, "rental_uris": {"ios": "https://dc.lft.to/lastmile_qr_scan", "android": "https://dc.lft.to/lastmile_qr_scan"}, "is_reserved": 0, "fusion_lon": 0.0, "fusion_lat": 0.0, "lon": -76.98384316666667, "name": "8a2ab08e3827ea14ecae31ae6f6c9cf3"}, {"bike_id": "138b7dc1ddf24451173de4465c56bc8b", "type": "electric_scooter", "is_disabled": 0, "lat": 38.90391316666667, "rental_uris": {"ios": "https://dc.lft.to/lastmile_qr_scan", "android": "https://dc.lft.to/lastmile_qr_scan"}, "is_reserved": 0, "fusion_lon": 0.0, "fusion_lat": 0.0, "lon": -76.98199033333333, "name": "138b7dc1ddf24451173de4465c56bc8b"}, {"bike_id": "fec0ae8a85ff4d528e59b8c3af1d9c29", "type": "electric_scooter", "is_disabled": 0, "lat": 38.909729666666664, "rental_uris": {"ios": "https://dc.lft.to/lastmile_qr_scan", "android": "https://dc.lft.to/lastmile_qr_scan"}, "is_reserved": 0, "fusion_lon": 0.0, "fusion_lat": 0.0, "lon": -77.03950416666666, "name": "fec0ae8a85ff4d528e59b8c3af1d9c29"}, {"bike_id": "8bd138cdbeb8915ea09796baba5f8268", "type": "electric_scooter", "is_disabled": 0, "lat": 38.919424166666666, "rental_uris": {"ios": "https://dc.lft.to/lastmile_qr_scan", "android": "https://dc.lft.to/lastmile_qr_scan"}, "is_reserved": 0, "fusion_lon": 0.0, "fusion_lat": 0.0, "lon": -77.0138585, "name": "8bd138cdbeb8915ea09796baba5f8268"}, {"bike_id": "7a9fd1a8a677def71b7ab536085e9d12", "type": "electric_scooter", "is_disabled": 0, "lat": 38.918051, "rental_uris": {"ios": "https://dc.lft.to/lastmile_qr_scan", "android": "https://dc.lft.to/lastmile_qr_scan"}, "is_reserved": 0, "fusion_lon": 0.0, "fusion_lat": 0.0, "lon": -77.03636966666667, "name": "7a9fd1a8a677def71b7ab536085e9d12"}, {"bike_id": "ee70c2b815df27479a3aff8373f2b66f", "type": "electric_bike", "is_disabled": 0, "lat": 38.8578665, "rental_uris": {"ios": "https://dc.lft.to/lastmile_qr_scan", "android": "https://dc.lft.to/lastmile_qr_scan"}, "is_reserved": 0, "fusion_lon": 0.0, "fusion_lat": 0.0, "lon": -77.09959183333333, "name": "ee70c2b815df27479a3aff8373f2b66f"}, {"bike_id": "6c5056804550330380445c26488537ad", "type": "electric_bike", "is_disabled": 0, "lat": 38.8730145, "rental_uris": {"ios": "https://dc.lft.to/lastmile_qr_scan", "android": "https://dc.lft.to/lastmile_qr_scan"}, "is_reserved": 0, "fusion_lon": 0.0, "fusion_lat": 0.0, "lon": -77.13926616666667, "name": "6c5056804550330380445c26488537ad"}, {"bike_id": "707e7b5e4391164bf365d909a03d1e8c", "type": "electric_scooter", "is_disabled": 0, "lat": 38.9326025, "rental_uris": {"ios": "https://dc.lft.to/lastmile_qr_scan", "android": "https://dc.lft.to/lastmile_qr_scan"}, "is_reserved": 0, "fusion_lon": 0.0, "fusion_lat": 0.0, "lon": -77.0326975, "name": "707e7b5e4391164bf365d909a03d1e8c"}, {"bike_id": "7a16add95f91c3ecc66571ebf8e942e4", "type": "electric_scooter", "is_disabled": 0, "lat": 38.91325466666667, "rental_uris": {"ios": "https://dc.lft.to/lastmile_qr_scan", "android": "https://dc.lft.to/lastmile_qr_scan"}, "is_reserved": 0, "fusion_lon": 0.0, "fusion_lat": 0.0, "lon": -77.019711, "name": "7a16add95f91c3ecc66571ebf8e942e4"}, {"bike_id": "4756834e97ef9472a86cb2a2681221d3", "type": "electric_scooter", "is_disabled": 0, "lat": 38.92003583333333, "rental_uris": {"ios": "https://dc.lft.to/lastmile_qr_scan", "android": "https://dc.lft.to/lastmile_qr_scan"}, "is_reserved": 0, "fusion_lon": 0.0, "fusion_lat": 0.0, "lon": -77.03232116666666, "name": "4756834e97ef9472a86cb2a2681221d3"}, {"bike_id": "14cc40c86c5dc22e07eaf65982d6894d", "type": "electric_scooter", "is_disabled": 0, "lat": 38.932733666666664, "rental_uris": {"ios": "https://dc.lft.to/lastmile_qr_scan", "android": "https://dc.lft.to/lastmile_qr_scan"}, "is_reserved": 0, "fusion_lon": 0.0, "fusion_lat": 0.0, "lon": -77.04534266666667, "name": "14cc40c86c5dc22e07eaf65982d6894d"}, {"bike_id": "28986abfac0a8856facc5f78a2a6bbae", "type": "electric_scooter", "is_disabled": 0, "lat": 38.877968, "rental_uris": {"ios": "https://dc.lft.to/lastmile_qr_scan", "android": "https://dc.lft.to/lastmile_qr_scan"}, "is_reserved": 0, "fusion_lon": 0.0, "fusion_lat": 0.0, "lon": -77.017325, "name": "28986abfac0a8856facc5f78a2a6bbae"}, {"bike_id": "fac739aec4d11ac6f4009e8826ee09f0", "type": "electric_scooter", "is_disabled": 0, "lat": 38.8973435, "rental_uris": {"ios": "https://dc.lft.to/lastmile_qr_scan", "android": "https://dc.lft.to/lastmile_qr_scan"}, "is_reserved": 0, "fusion_lon": 0.0, "fusion_lat": 0.0, "lon": -77.045417, "name": "fac739aec4d11ac6f4009e8826ee09f0"}, {"bike_id": "1837adf1ac42a06d099bebb84de71bb9", "type": "electric_scooter", "is_disabled": 0, "lat": 38.916337, "rental_uris": {"ios": "https://dc.lft.to/lastmile_qr_scan", "android": "https://dc.lft.to/lastmile_qr_scan"}, "is_reserved": 0, "fusion_lon": 0.0, "fusion_lat": 0.0, "lon": -77.0255, "name": "1837adf1ac42a06d099bebb84de71bb9"}, {"bike_id": "d2ffab2a5976297ba04f76bbe884f276", "type": "electric_scooter", "is_disabled": 0, "lat": 38.900923666666664, "rental_uris": {"ios": "https://dc.lft.to/lastmile_qr_scan", "android": "https://dc.lft.to/lastmile_qr_scan"}, "is_reserved": 0, "fusion_lon": 0.0, "fusion_lat": 0.0, "lon": -77.00908866666667, "name": "d2ffab2a5976297ba04f76bbe884f276"}, {"bike_id": "796503ede9a81474243401237465c20a", "type": "electric_scooter", "is_disabled": 0, "lat": 38.910191, "rental_uris": {"ios": "https://dc.lft.to/lastmile_qr_scan", "android": "https://dc.lft.to/lastmile_qr_scan"}, "is_reserved": 0, "fusion_lon": 0.0, "fusion_lat": 0.0, "lon": -77.03661816666667, "name": "796503ede9a81474243401237465c20a"}, {"bike_id": "3f05040d047b35c7fbe5894c7b5e40de", "type": "electric_scooter", "is_disabled": 0, "lat": 38.9155425, "rental_uris": {"ios": "https://dc.lft.to/lastmile_qr_scan", "android": "https://dc.lft.to/lastmile_qr_scan"}, "is_reserved": 0, "fusion_lon": 0.0, "fusion_lat": 0.0, "lon": -77.02277383333333, "name": "3f05040d047b35c7fbe5894c7b5e40de"}, {"bike_id": "fe72d2c6cd80d9b62901fd63abbb20f4", "type": "electric_scooter", "is_disabled": 0, "lat": 38.94511716666667, "rental_uris": {"ios": "https://dc.lft.to/lastmile_qr_scan", "android": "https://dc.lft.to/lastmile_qr_scan"}, "is_reserved": 0, "fusion_lon": 0.0, "fusion_lat": 0.0, "lon": -77.03378233333333, "name": "fe72d2c6cd80d9b62901fd63abbb20f4"}, {"bike_id": "2c2f38b6a5a80c8640b5c52549776a21", "type": "electric_scooter", "is_disabled": 0, "lat": 38.89836116666667, "rental_uris": {"ios": "https://dc.lft.to/lastmile_qr_scan", "android": "https://dc.lft.to/lastmile_qr_scan"}, "is_reserved": 0, "fusion_lon": 0.0, "fusion_lat": 0.0, "lon": -77.0392695, "name": "2c2f38b6a5a80c8640b5c52549776a21"}, {"bike_id": "4eb1f51c5fa51e9c7e431553f986ef8f", "type": "electric_scooter", "is_disabled": 0, "lat": 38.9233465, "rental_uris": {"ios": "https://dc.lft.to/lastmile_qr_scan", "android": "https://dc.lft.to/lastmile_qr_scan"}, "is_reserved": 0, "fusion_lon": 0.0, "fusion_lat": 0.0, "lon": -77.053714, "name": "4eb1f51c5fa51e9c7e431553f986ef8f"}, {"bike_id": "be74a832d7a0c41541f539059a9b0927", "type": "electric_scooter", "is_disabled": 0, "lat": 38.914606166666665, "rental_uris": {"ios": "https://dc.lft.to/lastmile_qr_scan", "android": "https://dc.lft.to/lastmile_qr_scan"}, "is_reserved": 0, "fusion_lon": 0.0, "fusion_lat": 0.0, "lon": -77.00215883333334, "name": "be74a832d7a0c41541f539059a9b0927"}, {"bike_id": "9bf89ddf9ea353b052463127d634ab5a", "type": "electric_scooter", "is_disabled": 0, "lat": 38.94560283333333, "rental_uris": {"ios": "https://dc.lft.to/lastmile_qr_scan", "android": "https://dc.lft.to/lastmile_qr_scan"}, "is_reserved": 0, "fusion_lon": 0.0, "fusion_lat": 0.0, "lon": -77.07125516666666, "name": "9bf89ddf9ea353b052463127d634ab5a"}, {"bike_id": "85265ccc5f47273e9061db3a8599559b", "type": "electric_scooter", "is_disabled": 0, "lat": 38.908514, "rental_uris": {"ios": "https://dc.lft.to/lastmile_qr_scan", "android": "https://dc.lft.to/lastmile_qr_scan"}, "is_reserved": 0, "fusion_lon": 0.0, "fusion_lat": 0.0, "lon": -77.04764666666667, "name": "85265ccc5f47273e9061db3a8599559b"}, {"bike_id": "3b3dfa17f9963dcf19bc12e8b9c7883c", "type": "electric_bike", "is_disabled": 0, "lat": 38.8589325, "rental_uris": {"ios": "https://dc.lft.to/lastmile_qr_scan", "android": "https://dc.lft.to/lastmile_qr_scan"}, "is_reserved": 0, "fusion_lon": 0.0, "fusion_lat": 0.0, "lon": -77.11865483333334, "name": "3b3dfa17f9963dcf19bc12e8b9c7883c"}, {"bike_id": "d9faddaa1332882fe2c63e0c6b5eb2ef", "type": "electric_scooter", "is_disabled": 0, "lat": 38.915771666666664, "rental_uris": {"ios": "https://dc.lft.to/lastmile_qr_scan", "android": "https://dc.lft.to/lastmile_qr_scan"}, "is_reserved": 0, "fusion_lon": 0.0, "fusion_lat": 0.0, "lon": -77.031962, "name": "d9faddaa1332882fe2c63e0c6b5eb2ef"}, {"bike_id": "6ac2bef73b6c9e0e5daa822b0bde1f93", "type": "electric_scooter", "is_disabled": 0, "lat": 38.90628433333333, "rental_uris": {"ios": "https://dc.lft.to/lastmile_qr_scan", "android": "https://dc.lft.to/lastmile_qr_scan"}, "is_reserved": 0, "fusion_lon": 0.0, "fusion_lat": 0.0, "lon": -77.02461183333334, "name": "6ac2bef73b6c9e0e5daa822b0bde1f93"}, {"bike_id": "6cae73e469a8af8f2fe40fe3971509b7", "type": "electric_scooter", "is_disabled": 0, "lat": 38.91059033333333, "rental_uris": {"ios": "https://dc.lft.to/lastmile_qr_scan", "android": "https://dc.lft.to/lastmile_qr_scan"}, "is_reserved": 0, "fusion_lon": 0.0, "fusion_lat": 0.0, "lon": -77.03084283333334, "name": "6cae73e469a8af8f2fe40fe3971509b7"}, {"bike_id": "bb15d1fa517df69be47150c9c22f4b6c", "type": "electric_scooter", "is_disabled": 0, "lat": 38.90862716666667, "rental_uris": {"ios": "https://dc.lft.to/lastmile_qr_scan", "android": "https://dc.lft.to/lastmile_qr_scan"}, "is_reserved": 0, "fusion_lon": 0.0, "fusion_lat": 0.0, "lon": -77.0240945, "name": "bb15d1fa517df69be47150c9c22f4b6c"}, {"bike_id": "432540e79104d84af72e8ef41f6d55c7", "type": "electric_scooter", "is_disabled": 0, "lat": 38.90605016666667, "rental_uris": {"ios": "https://dc.lft.to/lastmile_qr_scan", "android": "https://dc.lft.to/lastmile_qr_scan"}, "is_reserved": 0, "fusion_lon": 0.0, "fusion_lat": 0.0, "lon": -76.99278483333333, "name": "432540e79104d84af72e8ef41f6d55c7"}, {"bike_id": "1db360ef5177fb798e23966062aa52b8", "type": "electric_scooter", "is_disabled": 0, "lat": 38.8846, "rental_uris": {"ios": "https://dc.lft.to/lastmile_qr_scan", "android": "https://dc.lft.to/lastmile_qr_scan"}, "is_reserved": 0, "fusion_lon": 0.0, "fusion_lat": 0.0, "lon": -76.95749966666666, "name": "1db360ef5177fb798e23966062aa52b8"}, {"bike_id": "731bb7e82f4c8a735c8c4eca12b924dd", "type": "electric_scooter", "is_disabled": 0, "lat": 38.903142, "rental_uris": {"ios": "https://dc.lft.to/lastmile_qr_scan", "android": "https://dc.lft.to/lastmile_qr_scan"}, "is_reserved": 0, "fusion_lon": 0.0, "fusion_lat": 0.0, "lon": -76.978012, "name": "731bb7e82f4c8a735c8c4eca12b924dd"}, {"bike_id": "36bd88ce075d7b6d2cd3bf657ba590a3", "type": "electric_scooter", "is_disabled": 0, "lat": 38.921526666666665, "rental_uris": {"ios": "https://dc.lft.to/lastmile_qr_scan", "android": "https://dc.lft.to/lastmile_qr_scan"}, "is_reserved": 0, "fusion_lon": 0.0, "fusion_lat": 0.0, "lon": -77.03872066666666, "name": "36bd88ce075d7b6d2cd3bf657ba590a3"}, {"bike_id": "c9e7281731d9889fd7c630e2e53fccf7", "type": "electric_scooter", "is_disabled": 0, "lat": 38.90863183333333, "rental_uris": {"ios": "https://dc.lft.to/lastmile_qr_scan", "android": "https://dc.lft.to/lastmile_qr_scan"}, "is_reserved": 0, "fusion_lon": 0.0, "fusion_lat": 0.0, "lon": -76.99983783333333, "name": "c9e7281731d9889fd7c630e2e53fccf7"}, {"bike_id": "e3cf69dc44b0bb8001ea95b95a832b19", "type": "electric_scooter", "is_disabled": 0, "lat": 38.89220683333333, "rental_uris": {"ios": "https://dc.lft.to/lastmile_qr_scan", "android": "https://dc.lft.to/lastmile_qr_scan"}, "is_reserved": 0, "fusion_lon": 0.0, "fusion_lat": 0.0, "lon": -77.02582283333334, "name": "e3cf69dc44b0bb8001ea95b95a832b19"}, {"bike_id": "154eedb7c6c054c023be48322fc03489", "type": "electric_scooter", "is_disabled": 0, "lat": 38.91264683333333, "rental_uris": {"ios": "https://dc.lft.to/lastmile_qr_scan", "android": "https://dc.lft.to/lastmile_qr_scan"}, "is_reserved": 0, "fusion_lon": 0.0, "fusion_lat": 0.0, "lon": -77.0314, "name": "154eedb7c6c054c023be48322fc03489"}, {"bike_id": "39b663dd5b782fc84b82ff9f9e1c7270", "type": "electric_scooter", "is_disabled": 0, "lat": 38.8759995, "rental_uris": {"ios": "https://dc.lft.to/lastmile_qr_scan", "android": "https://dc.lft.to/lastmile_qr_scan"}, "is_reserved": 0, "fusion_lon": 0.0, "fusion_lat": 0.0, "lon": -77.016353, "name": "39b663dd5b782fc84b82ff9f9e1c7270"}, {"bike_id": "3d0f14eec7ff1d10bcb4a1e502c91de2", "type": "electric_scooter", "is_disabled": 0, "lat": 38.92658383333333, "rental_uris": {"ios": "https://dc.lft.to/lastmile_qr_scan", "android": "https://dc.lft.to/lastmile_qr_scan"}, "is_reserved": 0, "fusion_lon": 0.0, "fusion_lat": 0.0, "lon": -77.03733083333333, "name": "3d0f14eec7ff1d10bcb4a1e502c91de2"}, {"bike_id": "b7be13889de3e45306f0a49997bb2037", "type": "electric_scooter", "is_disabled": 0, "lat": 38.918198833333335, "rental_uris": {"ios": "https://dc.lft.to/lastmile_qr_scan", "android": "https://dc.lft.to/lastmile_qr_scan"}, "is_reserved": 0, "fusion_lon": 0.0, "fusion_lat": 0.0, "lon": -77.04945416666666, "name": "b7be13889de3e45306f0a49997bb2037"}, {"bike_id": "9cec6dcb67ae02e19e745eaa1211ef41", "type": "electric_scooter", "is_disabled": 0, "lat": 38.91701183333333, "rental_uris": {"ios": "https://dc.lft.to/lastmile_qr_scan", "android": "https://dc.lft.to/lastmile_qr_scan"}, "is_reserved": 0, "fusion_lon": 0.0, "fusion_lat": 0.0, "lon": -77.02453383333334, "name": "9cec6dcb67ae02e19e745eaa1211ef41"}, {"bike_id": "b285cd8308bf764b81d4bafba849b395", "type": "electric_scooter", "is_disabled": 0, "lat": 38.922143, "rental_uris": {"ios": "https://dc.lft.to/lastmile_qr_scan", "android": "https://dc.lft.to/lastmile_qr_scan"}, "is_reserved": 0, "fusion_lon": 0.0, "fusion_lat": 0.0, "lon": -77.032902, "name": "b285cd8308bf764b81d4bafba849b395"}, {"bike_id": "de59868db92497360fccdee4ba2b6390", "type": "electric_scooter", "is_disabled": 0, "lat": 38.927384833333335, "rental_uris": {"ios": "https://dc.lft.to/lastmile_qr_scan", "android": "https://dc.lft.to/lastmile_qr_scan"}, "is_reserved": 0, "fusion_lon": 0.0, "fusion_lat": 0.0, "lon": -77.02292033333333, "name": "de59868db92497360fccdee4ba2b6390"}, {"bike_id": "2aaf6f69344ff224158ac746e481da3f", "type": "electric_scooter", "is_disabled": 0, "lat": 38.86004533333333, "rental_uris": {"ios": "https://dc.lft.to/lastmile_qr_scan", "android": "https://dc.lft.to/lastmile_qr_scan"}, "is_reserved": 0, "fusion_lon": 0.0, "fusion_lat": 0.0, "lon": -76.9852225, "name": "2aaf6f69344ff224158ac746e481da3f"}, {"bike_id": "20c8962a14cdfabdb4266bf7ec500f04", "type": "electric_scooter", "is_disabled": 0, "lat": 38.91709816666667, "rental_uris": {"ios": "https://dc.lft.to/lastmile_qr_scan", "android": "https://dc.lft.to/lastmile_qr_scan"}, "is_reserved": 0, "fusion_lon": 0.0, "fusion_lat": 0.0, "lon": -77.02467133333333, "name": "20c8962a14cdfabdb4266bf7ec500f04"}, {"bike_id": "c03dbb618fc031641cbdc13a585e03dd", "type": "electric_scooter", "is_disabled": 0, "lat": 38.917044, "rental_uris": {"ios": "https://dc.lft.to/lastmile_qr_scan", "android": "https://dc.lft.to/lastmile_qr_scan"}, "is_reserved": 0, "fusion_lon": 0.0, "fusion_lat": 0.0, "lon": -77.0237755, "name": "c03dbb618fc031641cbdc13a585e03dd"}, {"bike_id": "ad671b9c1d0c2bdd9b31ec0d82028063", "type": "electric_scooter", "is_disabled": 0, "lat": 38.905923, "rental_uris": {"ios": "https://dc.lft.to/lastmile_qr_scan", "android": "https://dc.lft.to/lastmile_qr_scan"}, "is_reserved": 0, "fusion_lon": 0.0, "fusion_lat": 0.0, "lon": -77.07013333333333, "name": "ad671b9c1d0c2bdd9b31ec0d82028063"}, {"bike_id": "1acc5258303a65db56674168f1f8b38a", "type": "electric_scooter", "is_disabled": 0, "lat": 38.951151, "rental_uris": {"ios": "https://dc.lft.to/lastmile_qr_scan", "android": "https://dc.lft.to/lastmile_qr_scan"}, "is_reserved": 0, "fusion_lon": 0.0, "fusion_lat": 0.0, "lon": -77.0142925, "name": "1acc5258303a65db56674168f1f8b38a"}, {"bike_id": "7b66a1c43de4fd1d30ce14e831fb4f44", "type": "electric_scooter", "is_disabled": 0, "lat": 38.86678966666667, "rental_uris": {"ios": "https://dc.lft.to/lastmile_qr_scan", "android": "https://dc.lft.to/lastmile_qr_scan"}, "is_reserved": 0, "fusion_lon": 0.0, "fusion_lat": 0.0, "lon": -76.98580183333334, "name": "7b66a1c43de4fd1d30ce14e831fb4f44"}, {"bike_id": "ffdd713f95f4ec93e12d13acc2ba434f", "type": "electric_bike", "is_disabled": 0, "lat": 38.85869816666667, "rental_uris": {"ios": "https://dc.lft.to/lastmile_qr_scan", "android": "https://dc.lft.to/lastmile_qr_scan"}, "is_reserved": 0, "fusion_lon": 0.0, "fusion_lat": 0.0, "lon": -77.09562883333334, "name": "ffdd713f95f4ec93e12d13acc2ba434f"}, {"bike_id": "405e86493b626a66ebe24717095f90d7", "type": "electric_scooter", "is_disabled": 0, "lat": 38.92617466666667, "rental_uris": {"ios": "https://dc.lft.to/lastmile_qr_scan", "android": "https://dc.lft.to/lastmile_qr_scan"}, "is_reserved": 0, "fusion_lon": 0.0, "fusion_lat": 0.0, "lon": -77.04322333333333, "name": "405e86493b626a66ebe24717095f90d7"}, {"bike_id": "76a0b109d53b067afe81979c24941bc9", "type": "electric_scooter", "is_disabled": 0, "lat": 38.91255666666667, "rental_uris": {"ios": "https://dc.lft.to/lastmile_qr_scan", "android": "https://dc.lft.to/lastmile_qr_scan"}, "is_reserved": 0, "fusion_lon": 0.0, "fusion_lat": 0.0, "lon": -77.03860033333333, "name": "76a0b109d53b067afe81979c24941bc9"}, {"bike_id": "8b58986197470281c3bd220f4357846a", "type": "electric_bike", "is_disabled": 0, "lat": 38.934879, "rental_uris": {"ios": "https://dc.lft.to/lastmile_qr_scan", "android": "https://dc.lft.to/lastmile_qr_scan"}, "is_reserved": 0, "fusion_lon": 0.0, "fusion_lat": 0.0, "lon": -77.03020833333333, "name": "8b58986197470281c3bd220f4357846a"}, {"bike_id": "ee9b514c87351d8696e7e980830fc83c", "type": "electric_scooter", "is_disabled": 0, "lat": 38.90815033333333, "rental_uris": {"ios": "https://dc.lft.to/lastmile_qr_scan", "android": "https://dc.lft.to/lastmile_qr_scan"}, "is_reserved": 0, "fusion_lon": 0.0, "fusion_lat": 0.0, "lon": -77.04171783333334, "name": "ee9b514c87351d8696e7e980830fc83c"}, {"bike_id": "49b0003db546cb48429c966082d4be66", "type": "electric_scooter", "is_disabled": 0, "lat": 38.91155833333333, "rental_uris": {"ios": "https://dc.lft.to/lastmile_qr_scan", "android": "https://dc.lft.to/lastmile_qr_scan"}, "is_reserved": 0, "fusion_lon": 0.0, "fusion_lat": 0.0, "lon": -77.01206116666667, "name": "49b0003db546cb48429c966082d4be66"}, {"bike_id": "910fe0bc9a16b9c7d86e831d00f2fd97", "type": "electric_scooter", "is_disabled": 0, "lat": 38.90125183333333, "rental_uris": {"ios": "https://dc.lft.to/lastmile_qr_scan", "android": "https://dc.lft.to/lastmile_qr_scan"}, "is_reserved": 0, "fusion_lon": 0.0, "fusion_lat": 0.0, "lon": -77.01615983333333, "name": "910fe0bc9a16b9c7d86e831d00f2fd97"}, {"bike_id": "3e64a964cbed22a0d1c9bd25cce6c43f", "type": "electric_scooter", "is_disabled": 0, "lat": 38.895012666666666, "rental_uris": {"ios": "https://dc.lft.to/lastmile_qr_scan", "android": "https://dc.lft.to/lastmile_qr_scan"}, "is_reserved": 0, "fusion_lon": 0.0, "fusion_lat": 0.0, "lon": -76.9347935, "name": "3e64a964cbed22a0d1c9bd25cce6c43f"}, {"bike_id": "46d0ad6818b70c9ec6ec6a477d4d4006", "type": "electric_bike", "is_disabled": 0, "lat": 38.99528266666667, "rental_uris": {"ios": "https://dc.lft.to/lastmile_qr_scan", "android": "https://dc.lft.to/lastmile_qr_scan"}, "is_reserved": 0, "fusion_lon": 0.0, "fusion_lat": 0.0, "lon": -77.0694715, "name": "46d0ad6818b70c9ec6ec6a477d4d4006"}, {"bike_id": "abfa69e567ffcf34625383bb416abdcc", "type": "electric_bike", "is_disabled": 0, "lat": 38.92408366666667, "rental_uris": {"ios": "https://dc.lft.to/lastmile_qr_scan", "android": "https://dc.lft.to/lastmile_qr_scan"}, "is_reserved": 0, "fusion_lon": 0.0, "fusion_lat": 0.0, "lon": -77.03526916666667, "name": "abfa69e567ffcf34625383bb416abdcc"}, {"bike_id": "1a10a8f054909743d28b13373da6f711", "type": "electric_scooter", "is_disabled": 0, "lat": 38.91497866666667, "rental_uris": {"ios": "https://dc.lft.to/lastmile_qr_scan", "android": "https://dc.lft.to/lastmile_qr_scan"}, "is_reserved": 0, "fusion_lon": 0.0, "fusion_lat": 0.0, "lon": -77.03210666666666, "name": "1a10a8f054909743d28b13373da6f711"}, {"bike_id": "d24ebc55c76e94f87d5d49a01ca33691", "type": "electric_scooter", "is_disabled": 0, "lat": 38.91510683333333, "rental_uris": {"ios": "https://dc.lft.to/lastmile_qr_scan", "android": "https://dc.lft.to/lastmile_qr_scan"}, "is_reserved": 0, "fusion_lon": 0.0, "fusion_lat": 0.0, "lon": -77.02294383333333, "name": "d24ebc55c76e94f87d5d49a01ca33691"}, {"bike_id": "39fe8193e62aada2f8302794804174e7", "type": "electric_bike", "is_disabled": 0, "lat": 38.89207833333333, "rental_uris": {"ios": "https://dc.lft.to/lastmile_qr_scan", "android": "https://dc.lft.to/lastmile_qr_scan"}, "is_reserved": 0, "fusion_lon": 0.0, "fusion_lat": 0.0, "lon": -76.9768145, "name": "39fe8193e62aada2f8302794804174e7"}, {"bike_id": "55876415f811e869c6733493ae687b5b", "type": "electric_scooter", "is_disabled": 0, "lat": 38.89987816666667, "rental_uris": {"ios": "https://dc.lft.to/lastmile_qr_scan", "android": "https://dc.lft.to/lastmile_qr_scan"}, "is_reserved": 0, "fusion_lon": 0.0, "fusion_lat": 0.0, "lon": -77.0556895, "name": "55876415f811e869c6733493ae687b5b"}, {"bike_id": "f159fb828108d6445b43ccfab810bec4", "type": "electric_scooter", "is_disabled": 0, "lat": 38.93417016666667, "rental_uris": {"ios": "https://dc.lft.to/lastmile_qr_scan", "android": "https://dc.lft.to/lastmile_qr_scan"}, "is_reserved": 0, "fusion_lon": 0.0, "fusion_lat": 0.0, "lon": -77.0415105, "name": "f159fb828108d6445b43ccfab810bec4"}, {"bike_id": "1c4d8ae4c1ed1a61c105df565423c604", "type": "electric_scooter", "is_disabled": 0, "lat": 38.90684866666667, "rental_uris": {"ios": "https://dc.lft.to/lastmile_qr_scan", "android": "https://dc.lft.to/lastmile_qr_scan"}, "is_reserved": 0, "fusion_lon": 0.0, "fusion_lat": 0.0, "lon": -77.06258183333334, "name": "1c4d8ae4c1ed1a61c105df565423c604"}, {"bike_id": "a6bda52ef59c2777e345c92bf036ce13", "type": "electric_scooter", "is_disabled": 0, "lat": 38.922493833333334, "rental_uris": {"ios": "https://dc.lft.to/lastmile_qr_scan", "android": "https://dc.lft.to/lastmile_qr_scan"}, "is_reserved": 0, "fusion_lon": 0.0, "fusion_lat": 0.0, "lon": -77.04205533333334, "name": "a6bda52ef59c2777e345c92bf036ce13"}, {"bike_id": "7268c250972825c066546aa428495e99", "type": "electric_scooter", "is_disabled": 0, "lat": 38.90463333333334, "rental_uris": {"ios": "https://dc.lft.to/lastmile_qr_scan", "android": "https://dc.lft.to/lastmile_qr_scan"}, "is_reserved": 0, "fusion_lon": 0.0, "fusion_lat": 0.0, "lon": -76.97607516666666, "name": "7268c250972825c066546aa428495e99"}, {"bike_id": "e764fc1292cc24fe799ada70be36dc9d", "type": "electric_scooter", "is_disabled": 0, "lat": 38.92461766666667, "rental_uris": {"ios": "https://dc.lft.to/lastmile_qr_scan", "android": "https://dc.lft.to/lastmile_qr_scan"}, "is_reserved": 0, "fusion_lon": 0.0, "fusion_lat": 0.0, "lon": -77.0377925, "name": "e764fc1292cc24fe799ada70be36dc9d"}, {"bike_id": "158cc8e4b805bc21b61fb0a863bc3bcd", "type": "electric_scooter", "is_disabled": 0, "lat": 38.913638666666664, "rental_uris": {"ios": "https://dc.lft.to/lastmile_qr_scan", "android": "https://dc.lft.to/lastmile_qr_scan"}, "is_reserved": 0, "fusion_lon": 0.0, "fusion_lat": 0.0, "lon": -77.07036183333334, "name": "158cc8e4b805bc21b61fb0a863bc3bcd"}, {"bike_id": "1e568a7b0108b2ca636b2f3557857473", "type": "electric_scooter", "is_disabled": 0, "lat": 38.93187566666667, "rental_uris": {"ios": "https://dc.lft.to/lastmile_qr_scan", "android": "https://dc.lft.to/lastmile_qr_scan"}, "is_reserved": 0, "fusion_lon": 0.0, "fusion_lat": 0.0, "lon": -77.02390033333333, "name": "1e568a7b0108b2ca636b2f3557857473"}, {"bike_id": "b3f53da220dbb1c776488fd6110f21ae", "type": "electric_bike", "is_disabled": 0, "lat": 38.934462, "rental_uris": {"ios": "https://dc.lft.to/lastmile_qr_scan", "android": "https://dc.lft.to/lastmile_qr_scan"}, "is_reserved": 0, "fusion_lon": 0.0, "fusion_lat": 0.0, "lon": -77.041169, "name": "b3f53da220dbb1c776488fd6110f21ae"}, {"bike_id": "cbf118fbf156799d2269d259cfa03e48", "type": "electric_scooter", "is_disabled": 0, "lat": 38.935531166666664, "rental_uris": {"ios": "https://dc.lft.to/lastmile_qr_scan", "android": "https://dc.lft.to/lastmile_qr_scan"}, "is_reserved": 0, "fusion_lon": 0.0, "fusion_lat": 0.0, "lon": -77.036882, "name": "cbf118fbf156799d2269d259cfa03e48"}, {"bike_id": "253c661e5a7ebd5a1220785419d8bbcb", "type": "electric_scooter", "is_disabled": 0, "lat": 38.93225866666667, "rental_uris": {"ios": "https://dc.lft.to/lastmile_qr_scan", "android": "https://dc.lft.to/lastmile_qr_scan"}, "is_reserved": 0, "fusion_lon": 0.0, "fusion_lat": 0.0, "lon": -77.03362566666667, "name": "253c661e5a7ebd5a1220785419d8bbcb"}, {"bike_id": "78f1509688bdb7deacf3440d8d67cca9", "type": "electric_scooter", "is_disabled": 0, "lat": 38.91320966666667, "rental_uris": {"ios": "https://dc.lft.to/lastmile_qr_scan", "android": "https://dc.lft.to/lastmile_qr_scan"}, "is_reserved": 0, "fusion_lon": 0.0, "fusion_lat": 0.0, "lon": -77.0326285, "name": "78f1509688bdb7deacf3440d8d67cca9"}, {"bike_id": "344faae8398bdb86d292ca3781c8d3fd", "type": "electric_scooter", "is_disabled": 0, "lat": 38.900312666666665, "rental_uris": {"ios": "https://dc.lft.to/lastmile_qr_scan", "android": "https://dc.lft.to/lastmile_qr_scan"}, "is_reserved": 0, "fusion_lon": 0.0, "fusion_lat": 0.0, "lon": -76.998628, "name": "344faae8398bdb86d292ca3781c8d3fd"}, {"bike_id": "ad91bf0993fcae48cc90653915ab7772", "type": "electric_scooter", "is_disabled": 0, "lat": 38.936795333333336, "rental_uris": {"ios": "https://dc.lft.to/lastmile_qr_scan", "android": "https://dc.lft.to/lastmile_qr_scan"}, "is_reserved": 0, "fusion_lon": 0.0, "fusion_lat": 0.0, "lon": -77.03623466666667, "name": "ad91bf0993fcae48cc90653915ab7772"}, {"bike_id": "df3c45962625b1d3dfe278eb42b20f44", "type": "electric_bike", "is_disabled": 0, "lat": 38.932283166666664, "rental_uris": {"ios": "https://dc.lft.to/lastmile_qr_scan", "android": "https://dc.lft.to/lastmile_qr_scan"}, "is_reserved": 0, "fusion_lon": 0.0, "fusion_lat": 0.0, "lon": -77.18121183333334, "name": "df3c45962625b1d3dfe278eb42b20f44"}, {"bike_id": "88ad12ac2dd61c2bbedd65d85be70984", "type": "electric_scooter", "is_disabled": 0, "lat": 38.90655816666667, "rental_uris": {"ios": "https://dc.lft.to/lastmile_qr_scan", "android": "https://dc.lft.to/lastmile_qr_scan"}, "is_reserved": 0, "fusion_lon": 0.0, "fusion_lat": 0.0, "lon": -77.00905016666667, "name": "88ad12ac2dd61c2bbedd65d85be70984"}, {"bike_id": "3cafc5c9badc249e1c92a2135c963605", "type": "electric_bike", "is_disabled": 0, "lat": 39.037355166666664, "rental_uris": {"ios": "https://dc.lft.to/lastmile_qr_scan", "android": "https://dc.lft.to/lastmile_qr_scan"}, "is_reserved": 0, "fusion_lon": 0.0, "fusion_lat": 0.0, "lon": -77.05481366666666, "name": "3cafc5c9badc249e1c92a2135c963605"}, {"bike_id": "3d51f2ad78af8d993e340e734546b7ba", "type": "electric_scooter", "is_disabled": 0, "lat": 38.9412345, "rental_uris": {"ios": "https://dc.lft.to/lastmile_qr_scan", "android": "https://dc.lft.to/lastmile_qr_scan"}, "is_reserved": 0, "fusion_lon": 0.0, "fusion_lat": 0.0, "lon": -77.015412, "name": "3d51f2ad78af8d993e340e734546b7ba"}, {"bike_id": "f356da87d5761cda801d666fd140847a", "type": "electric_scooter", "is_disabled": 0, "lat": 38.9137935, "rental_uris": {"ios": "https://dc.lft.to/lastmile_qr_scan", "android": "https://dc.lft.to/lastmile_qr_scan"}, "is_reserved": 0, "fusion_lon": 0.0, "fusion_lat": 0.0, "lon": -77.0460685, "name": "f356da87d5761cda801d666fd140847a"}, {"bike_id": "bcc48bab453cae57a7726c3399eb2532", "type": "electric_scooter", "is_disabled": 0, "lat": 38.92875566666667, "rental_uris": {"ios": "https://dc.lft.to/lastmile_qr_scan", "android": "https://dc.lft.to/lastmile_qr_scan"}, "is_reserved": 0, "fusion_lon": 0.0, "fusion_lat": 0.0, "lon": -77.01366766666666, "name": "bcc48bab453cae57a7726c3399eb2532"}, {"bike_id": "aeef8297d2418dd3874ae3205bd05e87", "type": "electric_scooter", "is_disabled": 0, "lat": 38.9038985, "rental_uris": {"ios": "https://dc.lft.to/lastmile_qr_scan", "android": "https://dc.lft.to/lastmile_qr_scan"}, "is_reserved": 0, "fusion_lon": 0.0, "fusion_lat": 0.0, "lon": -77.00572266666667, "name": "aeef8297d2418dd3874ae3205bd05e87"}, {"bike_id": "06f9662125d2f8b1c31edd84c8eed6f3", "type": "electric_bike", "is_disabled": 0, "lat": 39.0549475, "rental_uris": {"ios": "https://dc.lft.to/lastmile_qr_scan", "android": "https://dc.lft.to/lastmile_qr_scan"}, "is_reserved": 0, "fusion_lon": 0.0, "fusion_lat": 0.0, "lon": -77.117893, "name": "06f9662125d2f8b1c31edd84c8eed6f3"}, {"bike_id": "f4ffd3f3b748624665ec44b9bd738749", "type": "electric_bike", "is_disabled": 0, "lat": 38.90824583333333, "rental_uris": {"ios": "https://dc.lft.to/lastmile_qr_scan", "android": "https://dc.lft.to/lastmile_qr_scan"}, "is_reserved": 0, "fusion_lon": 0.0, "fusion_lat": 0.0, "lon": -76.94157183333333, "name": "f4ffd3f3b748624665ec44b9bd738749"}, {"bike_id": "f32f374bcac13c86ab2a0eccefcc66e7", "type": "electric_scooter", "is_disabled": 0, "lat": 38.91987366666667, "rental_uris": {"ios": "https://dc.lft.to/lastmile_qr_scan", "android": "https://dc.lft.to/lastmile_qr_scan"}, "is_reserved": 0, "fusion_lon": 0.0, "fusion_lat": 0.0, "lon": -77.04171433333333, "name": "f32f374bcac13c86ab2a0eccefcc66e7"}, {"bike_id": "c1461624451669372b12fc29f06d0873", "type": "electric_scooter", "is_disabled": 0, "lat": 38.9052705, "rental_uris": {"ios": "https://dc.lft.to/lastmile_qr_scan", "android": "https://dc.lft.to/lastmile_qr_scan"}, "is_reserved": 0, "fusion_lon": 0.0, "fusion_lat": 0.0, "lon": -77.05937933333334, "name": "c1461624451669372b12fc29f06d0873"}, {"bike_id": "91e017f5a88af425ca2d6a1c211b4a0a", "type": "electric_scooter", "is_disabled": 0, "lat": 38.903392, "rental_uris": {"ios": "https://dc.lft.to/lastmile_qr_scan", "android": "https://dc.lft.to/lastmile_qr_scan"}, "is_reserved": 0, "fusion_lon": 0.0, "fusion_lat": 0.0, "lon": -77.03647133333334, "name": "91e017f5a88af425ca2d6a1c211b4a0a"}, {"bike_id": "dbab03df0d6fb1ab30b4dd1f18c8928a", "type": "electric_scooter", "is_disabled": 0, "lat": 38.914585, "rental_uris": {"ios": "https://dc.lft.to/lastmile_qr_scan", "android": "https://dc.lft.to/lastmile_qr_scan"}, "is_reserved": 0, "fusion_lon": 0.0, "fusion_lat": 0.0, "lon": -77.02193483333333, "name": "dbab03df0d6fb1ab30b4dd1f18c8928a"}, {"bike_id": "7f335569ae47b13cc3570212f912a29e", "type": "electric_scooter", "is_disabled": 0, "lat": 38.89703033333333, "rental_uris": {"ios": "https://dc.lft.to/lastmile_qr_scan", "android": "https://dc.lft.to/lastmile_qr_scan"}, "is_reserved": 0, "fusion_lon": 0.0, "fusion_lat": 0.0, "lon": -76.92998266666666, "name": "7f335569ae47b13cc3570212f912a29e"}, {"bike_id": "71baa83070a18b7d0bceefe6d7113cbe", "type": "electric_scooter", "is_disabled": 0, "lat": 38.9015595, "rental_uris": {"ios": "https://dc.lft.to/lastmile_qr_scan", "android": "https://dc.lft.to/lastmile_qr_scan"}, "is_reserved": 0, "fusion_lon": 0.0, "fusion_lat": 0.0, "lon": -76.99028883333334, "name": "71baa83070a18b7d0bceefe6d7113cbe"}, {"bike_id": "d548250d1dc8ac4b8bd70493fe7c96e0", "type": "electric_bike", "is_disabled": 0, "lat": 38.8799495, "rental_uris": {"ios": "https://dc.lft.to/lastmile_qr_scan", "android": "https://dc.lft.to/lastmile_qr_scan"}, "is_reserved": 0, "fusion_lon": 0.0, "fusion_lat": 0.0, "lon": -76.98518066666666, "name": "d548250d1dc8ac4b8bd70493fe7c96e0"}, {"bike_id": "533679958d34e09730a9362314c29123", "type": "electric_scooter", "is_disabled": 0, "lat": 38.9179755, "rental_uris": {"ios": "https://dc.lft.to/lastmile_qr_scan", "android": "https://dc.lft.to/lastmile_qr_scan"}, "is_reserved": 0, "fusion_lon": 0.0, "fusion_lat": 0.0, "lon": -77.022864, "name": "533679958d34e09730a9362314c29123"}, {"bike_id": "d1e4b8c6cdcd17cb8a752cc1d77db16b", "type": "electric_scooter", "is_disabled": 0, "lat": 38.90095766666666, "rental_uris": {"ios": "https://dc.lft.to/lastmile_qr_scan", "android": "https://dc.lft.to/lastmile_qr_scan"}, "is_reserved": 0, "fusion_lon": 0.0, "fusion_lat": 0.0, "lon": -77.01819483333334, "name": "d1e4b8c6cdcd17cb8a752cc1d77db16b"}, {"bike_id": "49e12c4f6e897cf68cbc2e2a29c8f664", "type": "electric_scooter", "is_disabled": 0, "lat": 38.901536666666665, "rental_uris": {"ios": "https://dc.lft.to/lastmile_qr_scan", "android": "https://dc.lft.to/lastmile_qr_scan"}, "is_reserved": 0, "fusion_lon": 0.0, "fusion_lat": 0.0, "lon": -77.023881, "name": "49e12c4f6e897cf68cbc2e2a29c8f664"}, {"bike_id": "85a9981992d5a03687e998e302ce0379", "type": "electric_scooter", "is_disabled": 0, "lat": 38.91062483333333, "rental_uris": {"ios": "https://dc.lft.to/lastmile_qr_scan", "android": "https://dc.lft.to/lastmile_qr_scan"}, "is_reserved": 0, "fusion_lon": 0.0, "fusion_lat": 0.0, "lon": -77.03713166666667, "name": "85a9981992d5a03687e998e302ce0379"}, {"bike_id": "834dad49a81274c5c6326ff55f471518", "type": "electric_scooter", "is_disabled": 0, "lat": 38.91804533333333, "rental_uris": {"ios": "https://dc.lft.to/lastmile_qr_scan", "android": "https://dc.lft.to/lastmile_qr_scan"}, "is_reserved": 0, "fusion_lon": 0.0, "fusion_lat": 0.0, "lon": -77.00777533333333, "name": "834dad49a81274c5c6326ff55f471518"}, {"bike_id": "7c996f8b55953027bba3d67b01c6ecad", "type": "electric_scooter", "is_disabled": 0, "lat": 38.90002366666667, "rental_uris": {"ios": "https://dc.lft.to/lastmile_qr_scan", "android": "https://dc.lft.to/lastmile_qr_scan"}, "is_reserved": 0, "fusion_lon": 0.0, "fusion_lat": 0.0, "lon": -77.044933, "name": "7c996f8b55953027bba3d67b01c6ecad"}, {"bike_id": "0e541d504c0b6211703c5b531739b0c0", "type": "electric_scooter", "is_disabled": 0, "lat": 38.9136205, "rental_uris": {"ios": "https://dc.lft.to/lastmile_qr_scan", "android": "https://dc.lft.to/lastmile_qr_scan"}, "is_reserved": 0, "fusion_lon": 0.0, "fusion_lat": 0.0, "lon": -77.04556816666667, "name": "0e541d504c0b6211703c5b531739b0c0"}, {"bike_id": "75ba5c38236298f62596d60c8d6544aa", "type": "electric_bike", "is_disabled": 0, "lat": 38.906944, "rental_uris": {"ios": "https://dc.lft.to/lastmile_qr_scan", "android": "https://dc.lft.to/lastmile_qr_scan"}, "is_reserved": 0, "fusion_lon": 0.0, "fusion_lat": 0.0, "lon": -77.0380245, "name": "75ba5c38236298f62596d60c8d6544aa"}, {"bike_id": "6f8dd7314c29311a26c79eb29898275c", "type": "electric_scooter", "is_disabled": 0, "lat": 38.90559233333333, "rental_uris": {"ios": "https://dc.lft.to/lastmile_qr_scan", "android": "https://dc.lft.to/lastmile_qr_scan"}, "is_reserved": 0, "fusion_lon": 0.0, "fusion_lat": 0.0, "lon": -77.03464366666667, "name": "6f8dd7314c29311a26c79eb29898275c"}, {"bike_id": "4b0fdde43e389795ffb6e4827e1dcf80", "type": "electric_scooter", "is_disabled": 0, "lat": 38.92458833333333, "rental_uris": {"ios": "https://dc.lft.to/lastmile_qr_scan", "android": "https://dc.lft.to/lastmile_qr_scan"}, "is_reserved": 0, "fusion_lon": 0.0, "fusion_lat": 0.0, "lon": -76.999142, "name": "4b0fdde43e389795ffb6e4827e1dcf80"}, {"bike_id": "a5ebe7047d0f719b30e62866a834b70f", "type": "electric_scooter", "is_disabled": 0, "lat": 38.904049666666666, "rental_uris": {"ios": "https://dc.lft.to/lastmile_qr_scan", "android": "https://dc.lft.to/lastmile_qr_scan"}, "is_reserved": 0, "fusion_lon": 0.0, "fusion_lat": 0.0, "lon": -76.97329816666667, "name": "a5ebe7047d0f719b30e62866a834b70f"}, {"bike_id": "798475f8f69374efd83bbf046726bcf8", "type": "electric_scooter", "is_disabled": 0, "lat": 38.87811466666667, "rental_uris": {"ios": "https://dc.lft.to/lastmile_qr_scan", "android": "https://dc.lft.to/lastmile_qr_scan"}, "is_reserved": 0, "fusion_lon": 0.0, "fusion_lat": 0.0, "lon": -76.93107083333334, "name": "798475f8f69374efd83bbf046726bcf8"}, {"bike_id": "7f29d9e947c83bdc64785179585e0656", "type": "electric_scooter", "is_disabled": 0, "lat": 38.94985833333333, "rental_uris": {"ios": "https://dc.lft.to/lastmile_qr_scan", "android": "https://dc.lft.to/lastmile_qr_scan"}, "is_reserved": 0, "fusion_lon": 0.0, "fusion_lat": 0.0, "lon": -77.02707183333334, "name": "7f29d9e947c83bdc64785179585e0656"}, {"bike_id": "77e5f68d15be3d28a3f1b8663ff30daf", "type": "electric_scooter", "is_disabled": 0, "lat": 38.897292166666666, "rental_uris": {"ios": "https://dc.lft.to/lastmile_qr_scan", "android": "https://dc.lft.to/lastmile_qr_scan"}, "is_reserved": 0, "fusion_lon": 0.0, "fusion_lat": 0.0, "lon": -77.04851516666666, "name": "77e5f68d15be3d28a3f1b8663ff30daf"}, {"bike_id": "ee8fb45d71c403adddd60e53010c6e03", "type": "electric_bike", "is_disabled": 0, "lat": 38.87295433333333, "rental_uris": {"ios": "https://dc.lft.to/lastmile_qr_scan", "android": "https://dc.lft.to/lastmile_qr_scan"}, "is_reserved": 0, "fusion_lon": 0.0, "fusion_lat": 0.0, "lon": -76.969798, "name": "ee8fb45d71c403adddd60e53010c6e03"}, {"bike_id": "81eec667633f4897e81cdb45b2182abc", "type": "electric_bike", "is_disabled": 0, "lat": 38.93644283333333, "rental_uris": {"ios": "https://dc.lft.to/lastmile_qr_scan", "android": "https://dc.lft.to/lastmile_qr_scan"}, "is_reserved": 0, "fusion_lon": 0.0, "fusion_lat": 0.0, "lon": -77.020876, "name": "81eec667633f4897e81cdb45b2182abc"}, {"bike_id": "287a7b5e600fb576258f7551d8ca1da2", "type": "electric_scooter", "is_disabled": 0, "lat": 38.90503183333333, "rental_uris": {"ios": "https://dc.lft.to/lastmile_qr_scan", "android": "https://dc.lft.to/lastmile_qr_scan"}, "is_reserved": 0, "fusion_lon": 0.0, "fusion_lat": 0.0, "lon": -77.02944333333333, "name": "287a7b5e600fb576258f7551d8ca1da2"}, {"bike_id": "eeff37bdc93ef4d7d1b11d37eef4d2d7", "type": "electric_scooter", "is_disabled": 0, "lat": 38.9057885, "rental_uris": {"ios": "https://dc.lft.to/lastmile_qr_scan", "android": "https://dc.lft.to/lastmile_qr_scan"}, "is_reserved": 0, "fusion_lon": 0.0, "fusion_lat": 0.0, "lon": -77.04171533333333, "name": "eeff37bdc93ef4d7d1b11d37eef4d2d7"}, {"bike_id": "e2609dea6d14c4de8a269d95d26f411e", "type": "electric_scooter", "is_disabled": 0, "lat": 38.889909333333335, "rental_uris": {"ios": "https://dc.lft.to/lastmile_qr_scan", "android": "https://dc.lft.to/lastmile_qr_scan"}, "is_reserved": 0, "fusion_lon": 0.0, "fusion_lat": 0.0, "lon": -77.00041816666666, "name": "e2609dea6d14c4de8a269d95d26f411e"}, {"bike_id": "76667512cfeac7c193367a28688abcb2", "type": "electric_scooter", "is_disabled": 0, "lat": 38.87414116666667, "rental_uris": {"ios": "https://dc.lft.to/lastmile_qr_scan", "android": "https://dc.lft.to/lastmile_qr_scan"}, "is_reserved": 0, "fusion_lon": 0.0, "fusion_lat": 0.0, "lon": -76.97115433333333, "name": "76667512cfeac7c193367a28688abcb2"}, {"bike_id": "a6cde9612330727063f2b233a0c5ade7", "type": "electric_scooter", "is_disabled": 0, "lat": 38.86503733333333, "rental_uris": {"ios": "https://dc.lft.to/lastmile_qr_scan", "android": "https://dc.lft.to/lastmile_qr_scan"}, "is_reserved": 0, "fusion_lon": 0.0, "fusion_lat": 0.0, "lon": -76.99004316666667, "name": "a6cde9612330727063f2b233a0c5ade7"}, {"bike_id": "8ea7cd1c741eb9d08a8147cc2728a83c", "type": "electric_scooter", "is_disabled": 0, "lat": 38.90825733333333, "rental_uris": {"ios": "https://dc.lft.to/lastmile_qr_scan", "android": "https://dc.lft.to/lastmile_qr_scan"}, "is_reserved": 0, "fusion_lon": 0.0, "fusion_lat": 0.0, "lon": -76.93450383333334, "name": "8ea7cd1c741eb9d08a8147cc2728a83c"}, {"bike_id": "cecd82dd20a82d6e92b347627dcf255a", "type": "electric_scooter", "is_disabled": 0, "lat": 38.92071883333333, "rental_uris": {"ios": "https://dc.lft.to/lastmile_qr_scan", "android": "https://dc.lft.to/lastmile_qr_scan"}, "is_reserved": 0, "fusion_lon": 0.0, "fusion_lat": 0.0, "lon": -77.04220366666667, "name": "cecd82dd20a82d6e92b347627dcf255a"}, {"bike_id": "dcaa9198a7b96eb8439c8bfcf2551bbe", "type": "electric_scooter", "is_disabled": 0, "lat": 38.919155, "rental_uris": {"ios": "https://dc.lft.to/lastmile_qr_scan", "android": "https://dc.lft.to/lastmile_qr_scan"}, "is_reserved": 0, "fusion_lon": 0.0, "fusion_lat": 0.0, "lon": -77.03418866666667, "name": "dcaa9198a7b96eb8439c8bfcf2551bbe"}, {"bike_id": "d48e82c754531e848cff3ecad7063d22", "type": "electric_scooter", "is_disabled": 0, "lat": 38.93194416666667, "rental_uris": {"ios": "https://dc.lft.to/lastmile_qr_scan", "android": "https://dc.lft.to/lastmile_qr_scan"}, "is_reserved": 0, "fusion_lon": 0.0, "fusion_lat": 0.0, "lon": -77.0235195, "name": "d48e82c754531e848cff3ecad7063d22"}, {"bike_id": "0fde90d444ac1ac4a28b790e5eee4419", "type": "electric_scooter", "is_disabled": 0, "lat": 38.91012633333333, "rental_uris": {"ios": "https://dc.lft.to/lastmile_qr_scan", "android": "https://dc.lft.to/lastmile_qr_scan"}, "is_reserved": 0, "fusion_lon": 0.0, "fusion_lat": 0.0, "lon": -77.01623216666667, "name": "0fde90d444ac1ac4a28b790e5eee4419"}, {"bike_id": "42ccc82c9dcc3103cff793ebbdefb8a4", "type": "electric_scooter", "is_disabled": 0, "lat": 38.917087, "rental_uris": {"ios": "https://dc.lft.to/lastmile_qr_scan", "android": "https://dc.lft.to/lastmile_qr_scan"}, "is_reserved": 0, "fusion_lon": 0.0, "fusion_lat": 0.0, "lon": -77.0386495, "name": "42ccc82c9dcc3103cff793ebbdefb8a4"}, {"bike_id": "c1ff3865aec4a7c03505e9ca9a60ddcd", "type": "electric_scooter", "is_disabled": 0, "lat": 38.935380333333335, "rental_uris": {"ios": "https://dc.lft.to/lastmile_qr_scan", "android": "https://dc.lft.to/lastmile_qr_scan"}, "is_reserved": 0, "fusion_lon": 0.0, "fusion_lat": 0.0, "lon": -77.03887566666667, "name": "c1ff3865aec4a7c03505e9ca9a60ddcd"}, {"bike_id": "5510d02cfbb199206a402753dd053cdb", "type": "electric_scooter", "is_disabled": 0, "lat": 38.877400333333334, "rental_uris": {"ios": "https://dc.lft.to/lastmile_qr_scan", "android": "https://dc.lft.to/lastmile_qr_scan"}, "is_reserved": 0, "fusion_lon": 0.0, "fusion_lat": 0.0, "lon": -77.00439933333334, "name": "5510d02cfbb199206a402753dd053cdb"}, {"bike_id": "1de37ae65ad7c27f03c08f56f4b26763", "type": "electric_scooter", "is_disabled": 0, "lat": 38.90798683333333, "rental_uris": {"ios": "https://dc.lft.to/lastmile_qr_scan", "android": "https://dc.lft.to/lastmile_qr_scan"}, "is_reserved": 0, "fusion_lon": 0.0, "fusion_lat": 0.0, "lon": -77.0313235, "name": "1de37ae65ad7c27f03c08f56f4b26763"}, {"bike_id": "45ddad96440540884d0abc6e64ff4b36", "type": "electric_scooter", "is_disabled": 0, "lat": 38.918161166666664, "rental_uris": {"ios": "https://dc.lft.to/lastmile_qr_scan", "android": "https://dc.lft.to/lastmile_qr_scan"}, "is_reserved": 0, "fusion_lon": 0.0, "fusion_lat": 0.0, "lon": -77.03255566666667, "name": "45ddad96440540884d0abc6e64ff4b36"}, {"bike_id": "3514c6ced789f569bbef9582668ede38", "type": "electric_bike", "is_disabled": 0, "lat": 38.946513833333334, "rental_uris": {"ios": "https://dc.lft.to/lastmile_qr_scan", "android": "https://dc.lft.to/lastmile_qr_scan"}, "is_reserved": 0, "fusion_lon": 0.0, "fusion_lat": 0.0, "lon": -76.994881, "name": "3514c6ced789f569bbef9582668ede38"}, {"bike_id": "5ccdcb268db560cbc5bc79d4ebbbbf27", "type": "electric_scooter", "is_disabled": 0, "lat": 38.911432166666664, "rental_uris": {"ios": "https://dc.lft.to/lastmile_qr_scan", "android": "https://dc.lft.to/lastmile_qr_scan"}, "is_reserved": 0, "fusion_lon": 0.0, "fusion_lat": 0.0, "lon": -77.02804383333333, "name": "5ccdcb268db560cbc5bc79d4ebbbbf27"}, {"bike_id": "a5fc0ccbcacadbe4ac6d0f7e4fdbc77b", "type": "electric_scooter", "is_disabled": 0, "lat": 38.914195166666666, "rental_uris": {"ios": "https://dc.lft.to/lastmile_qr_scan", "android": "https://dc.lft.to/lastmile_qr_scan"}, "is_reserved": 0, "fusion_lon": 0.0, "fusion_lat": 0.0, "lon": -77.02287616666666, "name": "a5fc0ccbcacadbe4ac6d0f7e4fdbc77b"}, {"bike_id": "379b48f4120a6c60db920601170a7210", "type": "electric_scooter", "is_disabled": 0, "lat": 38.9132865, "rental_uris": {"ios": "https://dc.lft.to/lastmile_qr_scan", "android": "https://dc.lft.to/lastmile_qr_scan"}, "is_reserved": 0, "fusion_lon": 0.0, "fusion_lat": 0.0, "lon": -77.019816, "name": "379b48f4120a6c60db920601170a7210"}, {"bike_id": "514a2eac2fb8806f38403c87a911ffa0", "type": "electric_scooter", "is_disabled": 0, "lat": 38.90079633333333, "rental_uris": {"ios": "https://dc.lft.to/lastmile_qr_scan", "android": "https://dc.lft.to/lastmile_qr_scan"}, "is_reserved": 0, "fusion_lon": 0.0, "fusion_lat": 0.0, "lon": -77.03080033333333, "name": "514a2eac2fb8806f38403c87a911ffa0"}, {"bike_id": "517e462ce5725f129d299d12bd52fc87", "type": "electric_scooter", "is_disabled": 0, "lat": 38.906536333333335, "rental_uris": {"ios": "https://dc.lft.to/lastmile_qr_scan", "android": "https://dc.lft.to/lastmile_qr_scan"}, "is_reserved": 0, "fusion_lon": 0.0, "fusion_lat": 0.0, "lon": -77.01727783333334, "name": "517e462ce5725f129d299d12bd52fc87"}, {"bike_id": "6909c667a1ee668f5051ea4e7496acb2", "type": "electric_scooter", "is_disabled": 0, "lat": 38.914070333333335, "rental_uris": {"ios": "https://dc.lft.to/lastmile_qr_scan", "android": "https://dc.lft.to/lastmile_qr_scan"}, "is_reserved": 0, "fusion_lon": 0.0, "fusion_lat": 0.0, "lon": -77.03157483333334, "name": "6909c667a1ee668f5051ea4e7496acb2"}, {"bike_id": "aca34087e1adb8913b64328c48205961", "type": "electric_scooter", "is_disabled": 0, "lat": 38.899942833333334, "rental_uris": {"ios": "https://dc.lft.to/lastmile_qr_scan", "android": "https://dc.lft.to/lastmile_qr_scan"}, "is_reserved": 0, "fusion_lon": 0.0, "fusion_lat": 0.0, "lon": -77.02690166666666, "name": "aca34087e1adb8913b64328c48205961"}, {"bike_id": "d5e67275e6ed8b22a5b3ea39a5c902c4", "type": "electric_bike", "is_disabled": 0, "lat": 38.837887, "rental_uris": {"ios": "https://dc.lft.to/lastmile_qr_scan", "android": "https://dc.lft.to/lastmile_qr_scan"}, "is_reserved": 0, "fusion_lon": 0.0, "fusion_lat": 0.0, "lon": -76.99750166666666, "name": "d5e67275e6ed8b22a5b3ea39a5c902c4"}, {"bike_id": "7313823a535a12bae2944c4156c1b7f7", "type": "electric_bike", "is_disabled": 0, "lat": 38.88154433333333, "rental_uris": {"ios": "https://dc.lft.to/lastmile_qr_scan", "android": "https://dc.lft.to/lastmile_qr_scan"}, "is_reserved": 0, "fusion_lon": 0.0, "fusion_lat": 0.0, "lon": -77.11456233333334, "name": "7313823a535a12bae2944c4156c1b7f7"}, {"bike_id": "9870d18ba8988455cdc419ebacf78c1e", "type": "electric_scooter", "is_disabled": 0, "lat": 38.92037233333333, "rental_uris": {"ios": "https://dc.lft.to/lastmile_qr_scan", "android": "https://dc.lft.to/lastmile_qr_scan"}, "is_reserved": 0, "fusion_lon": 0.0, "fusion_lat": 0.0, "lon": -77.04182783333333, "name": "9870d18ba8988455cdc419ebacf78c1e"},