{"data": {"bikes": [{"lon": -77.032703, "bike_id": "8c8a176a3b11600f0d7ee2c50c9cb85e", "lat": 38.93447233333333, "fusion_lon": 0.0, "fusion_lat": 0.0, "type": "electric_scooter", "name": "8c8a176a3b11600f0d7ee2c50c9cb85e", "is_disabled": 0, "rental_uris": {"ios": "https://dc.lft.to/lastmile_qr_scan", "android": "https://dc.lft.to/lastmile_qr_scan"}, "is_reserved": 0}, {"lon": -76.98340283333333, "bike_id": "506f70fd4c18ef2a98d81c86197eecfd", "lat": 38.86641516666667, "fusion_lon": 0.0, "fusion_lat": 0.0, "type": "electric_scooter", "name": "506f70fd4c18ef2a98d81c86197eecfd", "is_disabled": 0, "rental_uris": {"ios": "https://dc.lft.to/lastmile_qr_scan", "android": "https://dc.lft.to/lastmile_qr_scan"}, "is_reserved": 0}, {"lon": -77.01623083333334, "bike_id": "61fed7a1e65b8b181263e30364a2deb0", "lat": 38.90348866666667, "fusion_lon": 0.0, "fusion_lat": 0.0, "type": "electric_scooter", "name": "61fed7a1e65b8b181263e30364a2deb0", "is_disabled": 0, "rental_uris": {"ios": "https://dc.lft.to/lastmile_qr_scan", "android": "https://dc.lft.to/lastmile_qr_scan"}, "is_reserved": 0}, {"lon": -77.05267033333334, "bike_id": "62f097005ffdd8daf93ab45c46944100", "lat": 38.927764333333336, "fusion_lon": 0.0, "fusion_lat": 0.0, "type": "electric_scooter", "name": "62f097005ffdd8daf93ab45c46944100", "is_disabled": 0, "rental_uris": {"ios": "https://dc.lft.to/lastmile_qr_scan", "android": "https://dc.lft.to/lastmile_qr_scan"}, "is_reserved": 0}, {"lon": -76.996116, "bike_id": "3f6f6564534c8b7f7e24d94c75885844", "lat": 38.903914, "fusion_lon": 0.0, "fusion_lat": 0.0, "type": "electric_scooter", "name": "3f6f6564534c8b7f7e24d94c75885844", "is_disabled": 0, "rental_uris": {"ios": "https://dc.lft.to/lastmile_qr_scan", "android": "https://dc.lft.to/lastmile_qr_scan"}, "is_reserved": 0}, {"lon": -77.0639875, "bike_id": "f956d7a8d8593fbf24d1132991e6c875", "lat": 38.9432385, "fusion_lon": 0.0, "fusion_lat": 0.0, "type": "electric_scooter", "name": "f956d7a8d8593fbf24d1132991e6c875", "is_disabled": 0, "rental_uris": {"ios": "https://dc.lft.to/lastmile_qr_scan", "android": "https://dc.lft.to/lastmile_qr_scan"}, "is_reserved": 0}, {"lon": -76.99028916666667, "bike_id": "4fb885e7ac28af40ac1b1ca5acf86750", "lat": 38.90288433333333, "fusion_lon": 0.0, "fusion_lat": 0.0, "type": "electric_scooter", "name": "4fb885e7ac28af40ac1b1ca5acf86750", "is_disabled": 0, "rental_uris": {"ios": "https://dc.lft.to/lastmile_qr_scan", "android": "https://dc.lft.to/lastmile_qr_scan"}, "is_reserved": 0}, {"lon": -77.04342983333333, "bike_id": "1483a19fada7452e2859abd7a0640c42", "lat": 38.906497, "fusion_lon": 0.0, "fusion_lat": 0.0, "type": "electric_scooter", "name": "1483a19fada7452e2859abd7a0640c42", "is_disabled": 0, "rental_uris": {"ios": "https://dc.lft.to/lastmile_qr_scan", "android": "https://dc.lft.to/lastmile_qr_scan"}, "is_reserved": 0}, {"lon": -77.00081183333333, "bike_id": "aecbfd08e10c0e5ba884e229fe5ad058", "lat": 38.89474116666667, "fusion_lon": 0.0, "fusion_lat": 0.0, "type": "electric_scooter", "name": "aecbfd08e10c0e5ba884e229fe5ad058", "is_disabled": 0, "rental_uris": {"ios": "https://dc.lft.to/lastmile_qr_scan", "android": "https://dc.lft.to/lastmile_qr_scan"}, "is_reserved": 0}, {"lon": -77.01623466666666, "bike_id": "3c74b7532e7c414aa43f2d6c98587831", "lat": 38.90612183333333, "fusion_lon": 0.0, "fusion_lat": 0.0, "type": "electric_scooter", "name": "3c74b7532e7c414aa43f2d6c98587831", "is_disabled": 0, "rental_uris": {"ios": "https://dc.lft.to/lastmile_qr_scan", "android": "https://dc.lft.to/lastmile_qr_scan"}, "is_reserved": 0}, {"lon": -77.0417285, "bike_id": "65bf336d90dc8842c397abdb5825e262", "lat": 38.90816233333334, "fusion_lon": 0.0, "fusion_lat": 0.0, "type": "electric_scooter", "name": "65bf336d90dc8842c397abdb5825e262", "is_disabled": 0, "rental_uris": {"ios": "https://dc.lft.to/lastmile_qr_scan", "android": "https://dc.lft.to/lastmile_qr_scan"}, "is_reserved": 0}, {"lon": -77.02091616666667, "bike_id": "54cffba41f2f830027540400defbe79a", "lat": 38.921760666666664, "fusion_lon": 0.0, "fusion_lat": 0.0, "type": "electric_scooter", "name": "54cffba41f2f830027540400defbe79a", "is_disabled": 0, "rental_uris": {"ios": "https://dc.lft.to/lastmile_qr_scan", "android": "https://dc.lft.to/lastmile_qr_scan"}, "is_reserved": 0}, {"lon": -77.02234416666667, "bike_id": "7cdfabedc62c3ff080ae7cbfa8f8febc", "lat": 38.962027166666665, "fusion_lon": 0.0, "fusion_lat": 0.0, "type": "electric_scooter", "name": "7cdfabedc62c3ff080ae7cbfa8f8febc", "is_disabled": 0, "rental_uris": {"ios": "https://dc.lft.to/lastmile_qr_scan", "android": "https://dc.lft.to/lastmile_qr_scan"}, "is_reserved": 0}, {"lon": -77.02172516666667, "bike_id": "56c2fefac4528c391f20cb372c5020b3", "lat": 38.9041125, "fusion_lon": 0.0, "fusion_lat": 0.0, "type": "electric_scooter", "name": "56c2fefac4528c391f20cb372c5020b3", "is_disabled": 0, "rental_uris": {"ios": "https://dc.lft.to/lastmile_qr_scan", "android": "https://dc.lft.to/lastmile_qr_scan"}, "is_reserved": 0}, {"lon": -77.036382, "bike_id": "6412a8683db4102dcf3723c41103d3b6", "lat": 38.923290333333334, "fusion_lon": 0.0, "fusion_lat": 0.0, "type": "electric_scooter", "name": "6412a8683db4102dcf3723c41103d3b6", "is_disabled": 0, "rental_uris": {"ios": "https://dc.lft.to/lastmile_qr_scan", "android": "https://dc.lft.to/lastmile_qr_scan"}, "is_reserved": 0}, {"lon": -76.98235666666666, "bike_id": "dd7409b696a1dff9266d2ad817d1d50c", "lat": 38.91660516666666, "fusion_lon": 0.0, "fusion_lat": 0.0, "type": "electric_scooter", "name": "dd7409b696a1dff9266d2ad817d1d50c", "is_disabled": 0, "rental_uris": {"ios": "https://dc.lft.to/lastmile_qr_scan", "android": "https://dc.lft.to/lastmile_qr_scan"}, "is_reserved": 0}, {"lon": -77.03869616666667, "bike_id": "f207adf7d38e679a14706f9ec0553263", "lat": 38.906623833333335, "fusion_lon": 0.0, "fusion_lat": 0.0, "type": "electric_scooter", "name": "f207adf7d38e679a14706f9ec0553263", "is_disabled": 0, "rental_uris": {"ios": "https://dc.lft.to/lastmile_qr_scan", "android": "https://dc.lft.to/lastmile_qr_scan"}, "is_reserved": 0}, {"lon": -77.00108166666666, "bike_id": "b6d0bcd48c829f3d0fe1ab9a11632c04", "lat": 38.91973383333333, "fusion_lon": 0.0, "fusion_lat": 0.0, "type": "electric_scooter", "name": "b6d0bcd48c829f3d0fe1ab9a11632c04", "is_disabled": 0, "rental_uris": {"ios": "https://dc.lft.to/lastmile_qr_scan", "android": "https://dc.lft.to/lastmile_qr_scan"}, "is_reserved": 0}, {"lon": -77.01503616666666, "bike_id": "53a92bdc3906eada4ace432e6462f24d", "lat": 38.94535416666667, "fusion_lon": 0.0, "fusion_lat": 0.0, "type": "electric_scooter", "name": "53a92bdc3906eada4ace432e6462f24d", "is_disabled": 0, "rental_uris": {"ios": "https://dc.lft.to/lastmile_qr_scan", "android": "https://dc.lft.to/lastmile_qr_scan"}, "is_reserved": 0}, {"lon": -76.94962533333333, "bike_id": "ffe798a951753c51f7979953579c8fa4", "lat": 38.903659166666664, "fusion_lon": 0.0, "fusion_lat": 0.0, "type": "electric_scooter", "name": "ffe798a951753c51f7979953579c8fa4", "is_disabled": 0, "rental_uris": {"ios": "https://dc.lft.to/lastmile_qr_scan", "android": "https://dc.lft.to/lastmile_qr_scan"}, "is_reserved": 0}, {"lon": -77.03266683333334, "bike_id": "d808f2bdc8599935875526b6e9578a37", "lat": 38.932374333333335, "fusion_lon": 0.0, "fusion_lat": 0.0, "type": "electric_scooter", "name": "d808f2bdc8599935875526b6e9578a37", "is_disabled": 0, "rental_uris": {"ios": "https://dc.lft.to/lastmile_qr_scan", "android": "https://dc.lft.to/lastmile_qr_scan"}, "is_reserved": 0}, {"lon": -77.03220333333333, "bike_id": "8053a6654f962d4377a4f0f2af082460", "lat": 38.9148315, "fusion_lon": 0.0, "fusion_lat": 0.0, "type": "electric_scooter", "name": "8053a6654f962d4377a4f0f2af082460", "is_disabled": 0, "rental_uris": {"ios": "https://dc.lft.to/lastmile_qr_scan", "android": "https://dc.lft.to/lastmile_qr_scan"}, "is_reserved": 0}, {"lon": -77.00188366666667, "bike_id": "eb52dcc13053713022c540280512faab", "lat": 38.89473066666667, "fusion_lon": 0.0, "fusion_lat": 0.0, "type": "electric_scooter", "name": "eb52dcc13053713022c540280512faab", "is_disabled": 0, "rental_uris": {"ios": "https://dc.lft.to/lastmile_qr_scan", "android": "https://dc.lft.to/lastmile_qr_scan"}, "is_reserved": 0}, {"lon": -77.03156016666667, "bike_id": "829076a9b55671cec22a0a4c4d78edbf", "lat": 38.9171145, "fusion_lon": 0.0, "fusion_lat": 0.0, "type": "electric_scooter", "name": "829076a9b55671cec22a0a4c4d78edbf", "is_disabled": 0, "rental_uris": {"ios": "https://dc.lft.to/lastmile_qr_scan", "android": "https://dc.lft.to/lastmile_qr_scan"}, "is_reserved": 0}, {"lon": -77.058614, "bike_id": "f38dd09189529b80168656be6411f608", "lat": 38.93606066666667, "fusion_lon": 0.0, "fusion_lat": 0.0, "type": "electric_scooter", "name": "f38dd09189529b80168656be6411f608", "is_disabled": 0, "rental_uris": {"ios": "https://dc.lft.to/lastmile_qr_scan", "android": "https://dc.lft.to/lastmile_qr_scan"}, "is_reserved": 0}, {"lon": -76.9978485, "bike_id": "5b59cb889b77534918f40df8234e1a06", "lat": 38.89088183333333, "fusion_lon": 0.0, "fusion_lat": 0.0, "type": "electric_scooter", "name": "5b59cb889b77534918f40df8234e1a06", "is_disabled": 0, "rental_uris": {"ios": "https://dc.lft.to/lastmile_qr_scan", "android": "https://dc.lft.to/lastmile_qr_scan"}, "is_reserved": 0}, {"lon": -77.00592966666666, "bike_id": "39cde99207484f0e664f01dfb2d58216", "lat": 38.90034033333333, "fusion_lon": 0.0, "fusion_lat": 0.0, "type": "electric_scooter", "name": "39cde99207484f0e664f01dfb2d58216", "is_disabled": 0, "rental_uris": {"ios": "https://dc.lft.to/lastmile_qr_scan", "android": "https://dc.lft.to/lastmile_qr_scan"}, "is_reserved": 0}, {"lon": -77.03732766666667, "bike_id": "310641b773dcdb8e4b805f9d00030d5f", "lat": 38.92835133333333, "fusion_lon": 0.0, "fusion_lat": 0.0, "type": "electric_scooter", "name": "310641b773dcdb8e4b805f9d00030d5f", "is_disabled": 0, "rental_uris": {"ios": "https://dc.lft.to/lastmile_qr_scan", "android": "https://dc.lft.to/lastmile_qr_scan"}, "is_reserved": 0}, {"lon": -77.00239433333333, "bike_id": "9d611381ac2826025175e84ac83d7e10", "lat": 38.885102333333336, "fusion_lon": 0.0, "fusion_lat": 0.0, "type": "electric_scooter", "name": "9d611381ac2826025175e84ac83d7e10", "is_disabled": 0, "rental_uris": {"ios": "https://dc.lft.to/lastmile_qr_scan", "android": "https://dc.lft.to/lastmile_qr_scan"}, "is_reserved": 0}, {"lon": -76.98108283333333, "bike_id": "027c4ab92ee213bca33c87ddb7bcbc37", "lat": 38.877322, "fusion_lon": 0.0, "fusion_lat": 0.0, "type": "electric_bike", "name": "027c4ab92ee213bca33c87ddb7bcbc37", "is_disabled": 0, "rental_uris": {"ios": "https://dc.lft.to/lastmile_qr_scan", "android": "https://dc.lft.to/lastmile_qr_scan"}, "is_reserved": 0}, {"lon": -77.02821616666667, "bike_id": "762c5cdf461ac5ad2d4d1c0e9a60a497", "lat": 38.892456333333335, "fusion_lon": 0.0, "fusion_lat": 0.0, "type": "electric_scooter", "name": "762c5cdf461ac5ad2d4d1c0e9a60a497", "is_disabled": 0, "rental_uris": {"ios": "https://dc.lft.to/lastmile_qr_scan", "android": "https://dc.lft.to/lastmile_qr_scan"}, "is_reserved": 0}, {"lon": -76.98249633333333, "bike_id": "881105f7184d035d9704121b12d12081", "lat": 38.86459383333333, "fusion_lon": 0.0, "fusion_lat": 0.0, "type": "electric_scooter", "name": "881105f7184d035d9704121b12d12081", "is_disabled": 0, "rental_uris": {"ios": "https://dc.lft.to/lastmile_qr_scan", "android": "https://dc.lft.to/lastmile_qr_scan"}, "is_reserved": 0}, {"lon": -77.046977, "bike_id": "9bd8ff76dbb7a259174c375dfb4af705", "lat": 38.918983833333336, "fusion_lon": 0.0, "fusion_lat": 0.0, "type": "electric_scooter", "name": "9bd8ff76dbb7a259174c375dfb4af705", "is_disabled": 0, "rental_uris": {"ios": "https://dc.lft.to/lastmile_qr_scan", "android": "https://dc.lft.to/lastmile_qr_scan"}, "is_reserved": 0}, {"lon": -77.01756983333334, "bike_id": "da78e9dcae7899d79749ab41e96b0788", "lat": 38.90265516666667, "fusion_lon": 0.0, "fusion_lat": 0.0, "type": "electric_scooter", "name": "da78e9dcae7899d79749ab41e96b0788", "is_disabled": 0, "rental_uris": {"ios": "https://dc.lft.to/lastmile_qr_scan", "android": "https://dc.lft.to/lastmile_qr_scan"}, "is_reserved": 0}, {"lon": -76.99869583333333, "bike_id": "12e892e39e5cd5483c47acaac408de67", "lat": 38.900276166666664, "fusion_lon": 0.0, "fusion_lat": 0.0, "type": "electric_scooter", "name": "12e892e39e5cd5483c47acaac408de67", "is_disabled": 0, "rental_uris": {"ios": "https://dc.lft.to/lastmile_qr_scan", "android": "https://dc.lft.to/lastmile_qr_scan"}, "is_reserved": 0}, {"lon": -76.994167, "bike_id": "92b24029f4e6cfe858d0e6ca7fe3de90", "lat": 38.900233166666666, "fusion_lon": 0.0, "fusion_lat": 0.0, "type": "electric_scooter", "name": "92b24029f4e6cfe858d0e6ca7fe3de90", "is_disabled": 0, "rental_uris": {"ios": "https://dc.lft.to/lastmile_qr_scan", "android": "https://dc.lft.to/lastmile_qr_scan"}, "is_reserved": 0}, {"lon": -77.03675783333334, "bike_id": "f35b1cd524272201e494587ba261d62a", "lat": 38.90959, "fusion_lon": 0.0, "fusion_lat": 0.0, "type": "electric_scooter", "name": "f35b1cd524272201e494587ba261d62a", "is_disabled": 0, "rental_uris": {"ios": "https://dc.lft.to/lastmile_qr_scan", "android": "https://dc.lft.to/lastmile_qr_scan"}, "is_reserved": 0}, {"lon": -77.007708, "bike_id": "b4232cd9d2ec89f26b85dbb4af122521", "lat": 38.9075005, "fusion_lon": 0.0, "fusion_lat": 0.0, "type": "electric_scooter", "name": "b4232cd9d2ec89f26b85dbb4af122521", "is_disabled": 0, "rental_uris": {"ios": "https://dc.lft.to/lastmile_qr_scan", "android": "https://dc.lft.to/lastmile_qr_scan"}, "is_reserved": 0}, {"lon": -77.02901483333333, "bike_id": "22f586f935760059b691dc4aa5953f3e", "lat": 38.9281645, "fusion_lon": 0.0, "fusion_lat": 0.0, "type": "electric_scooter", "name": "22f586f935760059b691dc4aa5953f3e", "is_disabled": 0, "rental_uris": {"ios": "https://dc.lft.to/lastmile_qr_scan", "android": "https://dc.lft.to/lastmile_qr_scan"}, "is_reserved": 0}, {"lon": -77.031851, "bike_id": "8b2f65be8558d6a1909fc91a50c06a95", "lat": 38.9228085, "fusion_lon": 0.0, "fusion_lat": 0.0, "type": "electric_scooter", "name": "8b2f65be8558d6a1909fc91a50c06a95", "is_disabled": 0, "rental_uris": {"ios": "https://dc.lft.to/lastmile_qr_scan", "android": "https://dc.lft.to/lastmile_qr_scan"}, "is_reserved": 0}, {"lon": -77.03858483333333, "bike_id": "b4bb9e03c4c51bb2de2eb76daf2be069", "lat": 38.932335, "fusion_lon": 0.0, "fusion_lat": 0.0, "type": "electric_scooter", "name": "b4bb9e03c4c51bb2de2eb76daf2be069", "is_disabled": 0, "rental_uris": {"ios": "https://dc.lft.to/lastmile_qr_scan", "android": "https://dc.lft.to/lastmile_qr_scan"}, "is_reserved": 0}, {"lon": -76.99877366666666, "bike_id": "c6a145a022f03c06eac56aa1316116cc", "lat": 38.901273333333336, "fusion_lon": 0.0, "fusion_lat": 0.0, "type": "electric_scooter", "name": "c6a145a022f03c06eac56aa1316116cc", "is_disabled": 0, "rental_uris": {"ios": "https://dc.lft.to/lastmile_qr_scan", "android": "https://dc.lft.to/lastmile_qr_scan"}, "is_reserved": 0}, {"lon": -77.02376866666667, "bike_id": "dc02d14765e17959aa40c7956cebe9ea", "lat": 38.91157166666667, "fusion_lon": 0.0, "fusion_lat": 0.0, "type": "electric_scooter", "name": "dc02d14765e17959aa40c7956cebe9ea", "is_disabled": 0, "rental_uris": {"ios": "https://dc.lft.to/lastmile_qr_scan", "android": "https://dc.lft.to/lastmile_qr_scan"}, "is_reserved": 0}, {"lon": -77.02218233333333, "bike_id": "8d46c855a12854285ee9dc964fe7e93a", "lat": 38.920518666666666, "fusion_lon": 0.0, "fusion_lat": 0.0, "type": "electric_scooter", "name": "8d46c855a12854285ee9dc964fe7e93a", "is_disabled": 0, "rental_uris": {"ios": "https://dc.lft.to/lastmile_qr_scan", "android": "https://dc.lft.to/lastmile_qr_scan"}, "is_reserved": 0}, {"lon": -77.0550265, "bike_id": "110f2f65f06e5d5993d698c8e5079fbc", "lat": 38.92979733333333, "fusion_lon": 0.0, "fusion_lat": 0.0, "type": "electric_scooter", "name": "110f2f65f06e5d5993d698c8e5079fbc", "is_disabled": 0, "rental_uris": {"ios": "https://dc.lft.to/lastmile_qr_scan", "android": "https://dc.lft.to/lastmile_qr_scan"}, "is_reserved": 0}, {"lon": -77.00375816666667, "bike_id": "d4d543102e4a183457049c4060b86720", "lat": 38.8973185, "fusion_lon": 0.0, "fusion_lat": 0.0, "type": "electric_scooter", "name": "d4d543102e4a183457049c4060b86720", "is_disabled": 0, "rental_uris": {"ios": "https://dc.lft.to/lastmile_qr_scan", "android": "https://dc.lft.to/lastmile_qr_scan"}, "is_reserved": 0}, {"lon": -77.032273, "bike_id": "aec60563a62152eed4ebf3184de1efa9", "lat": 38.918180166666666, "fusion_lon": 0.0, "fusion_lat": 0.0, "type": "electric_scooter", "name": "aec60563a62152eed4ebf3184de1efa9", "is_disabled": 0, "rental_uris": {"ios": "https://dc.lft.to/lastmile_qr_scan", "android": "https://dc.lft.to/lastmile_qr_scan"}, "is_reserved": 0}, {"lon": -76.988472, "bike_id": "af42fe465fa32e9d9fa3321c66766bd9", "lat": 38.90131266666667, "fusion_lon": 0.0, "fusion_lat": 0.0, "type": "electric_scooter", "name": "af42fe465fa32e9d9fa3321c66766bd9", "is_disabled": 0, "rental_uris": {"ios": "https://dc.lft.to/lastmile_qr_scan", "android": "https://dc.lft.to/lastmile_qr_scan"}, "is_reserved": 0}, {"lon": -77.0216125, "bike_id": "a840ba0d76a930889b5aa4dc02853ade", "lat": 38.90286616666667, "fusion_lon": 0.0, "fusion_lat": 0.0, "type": "electric_scooter", "name": "a840ba0d76a930889b5aa4dc02853ade", "is_disabled": 0, "rental_uris": {"ios": "https://dc.lft.to/lastmile_qr_scan", "android": "https://dc.lft.to/lastmile_qr_scan"}, "is_reserved": 0}, {"lon": -77.05485666666667, "bike_id": "76e3e3419b5dd6d09f000e781d5a2936", "lat": 38.9086275, "fusion_lon": 0.0, "fusion_lat": 0.0, "type": "electric_bike", "name": "76e3e3419b5dd6d09f000e781d5a2936", "is_disabled": 0, "rental_uris": {"ios": "https://dc.lft.to/lastmile_qr_scan", "android": "https://dc.lft.to/lastmile_qr_scan"}, "is_reserved": 0}, {"lon": -77.008931, "bike_id": "201caa3c6f19169b6406adf9a2bb0a20", "lat": 38.924910833333335, "fusion_lon": 0.0, "fusion_lat": 0.0, "type": "electric_scooter", "name": "201caa3c6f19169b6406adf9a2bb0a20", "is_disabled": 0, "rental_uris": {"ios": "https://dc.lft.to/lastmile_qr_scan", "android": "https://dc.lft.to/lastmile_qr_scan"}, "is_reserved": 0}, {"lon": -77.0217565, "bike_id": "dcac4d77060c8db1ad1bc5646b654149", "lat": 38.902281, "fusion_lon": 0.0, "fusion_lat": 0.0, "type": "electric_scooter", "name": "dcac4d77060c8db1ad1bc5646b654149", "is_disabled": 0, "rental_uris": {"ios": "https://dc.lft.to/lastmile_qr_scan", "android": "https://dc.lft.to/lastmile_qr_scan"}, "is_reserved": 0}, {"lon": -77.04826916666667, "bike_id": "bc6ada7fa4f0e0dc5099dd8a534c6c36", "lat": 38.90389066666667, "fusion_lon": 0.0, "fusion_lat": 0.0, "type": "electric_scooter", "name": "bc6ada7fa4f0e0dc5099dd8a534c6c36", "is_disabled": 0, "rental_uris": {"ios": "https://dc.lft.to/lastmile_qr_scan", "android": "https://dc.lft.to/lastmile_qr_scan"}, "is_reserved": 0}, {"lon": -76.9936285, "bike_id": "8ce96875577537166b19f45fca1fb398", "lat": 38.924015, "fusion_lon": 0.0, "fusion_lat": 0.0, "type": "electric_scooter", "name": "8ce96875577537166b19f45fca1fb398", "is_disabled": 0, "rental_uris": {"ios": "https://dc.lft.to/lastmile_qr_scan", "android": "https://dc.lft.to/lastmile_qr_scan"}, "is_reserved": 0}, {"lon": -77.0231235, "bike_id": "1d42a1490556efadb7c148f34f4835f2", "lat": 38.91783866666667, "fusion_lon": 0.0, "fusion_lat": 0.0, "type": "electric_scooter", "name": "1d42a1490556efadb7c148f34f4835f2", "is_disabled": 0, "rental_uris": {"ios": "https://dc.lft.to/lastmile_qr_scan", "android": "https://dc.lft.to/lastmile_qr_scan"}, "is_reserved": 0}, {"lon": -77.04223783333333, "bike_id": "14fb8451814df1307a61ea7b96a9eb6c", "lat": 38.921319833333335, "fusion_lon": 0.0, "fusion_lat": 0.0, "type": "electric_scooter", "name": "14fb8451814df1307a61ea7b96a9eb6c", "is_disabled": 0, "rental_uris": {"ios": "https://dc.lft.to/lastmile_qr_scan", "android": "https://dc.lft.to/lastmile_qr_scan"}, "is_reserved": 0}, {"lon": -77.03125, "bike_id": "eb3ac7638369b4b2be41efc07a956f0e", "lat": 38.959216833333336, "fusion_lon": 0.0, "fusion_lat": 0.0, "type": "electric_bike", "name": "eb3ac7638369b4b2be41efc07a956f0e", "is_disabled": 0, "rental_uris": {"ios": "https://dc.lft.to/lastmile_qr_scan", "android": "https://dc.lft.to/lastmile_qr_scan"}, "is_reserved": 0}, {"lon": -77.022831, "bike_id": "4786def1f5b60edf07380390a51ebda3", "lat": 38.9164815, "fusion_lon": 0.0, "fusion_lat": 0.0, "type": "electric_scooter", "name": "4786def1f5b60edf07380390a51ebda3", "is_disabled": 0, "rental_uris": {"ios": "https://dc.lft.to/lastmile_qr_scan", "android": "https://dc.lft.to/lastmile_qr_scan"}, "is_reserved": 0}, {"lon": -76.9818225, "bike_id": "df02ad3b0129ef0db44d2f3825de406e", "lat": 38.895798, "fusion_lon": 0.0, "fusion_lat": 0.0, "type": "electric_scooter", "name": "df02ad3b0129ef0db44d2f3825de406e", "is_disabled": 0, "rental_uris": {"ios": "https://dc.lft.to/lastmile_qr_scan", "android": "https://dc.lft.to/lastmile_qr_scan"}, "is_reserved": 0}, {"lon": -77.038514, "bike_id": "e8278a2f4da7ee6dd76c0b0aa52c9b06", "lat": 38.91579766666667, "fusion_lon": 0.0, "fusion_lat": 0.0, "type": "electric_scooter", "name": "e8278a2f4da7ee6dd76c0b0aa52c9b06", "is_disabled": 0, "rental_uris": {"ios": "https://dc.lft.to/lastmile_qr_scan", "android": "https://dc.lft.to/lastmile_qr_scan"}, "is_reserved": 0}, {"lon": -76.9336745, "bike_id": "ba70378519da2f2a317047729dc454c8", "lat": 38.899139166666664, "fusion_lon": 0.0, "fusion_lat": 0.0, "type": "electric_scooter", "name": "ba70378519da2f2a317047729dc454c8", "is_disabled": 0, "rental_uris": {"ios": "https://dc.lft.to/lastmile_qr_scan", "android": "https://dc.lft.to/lastmile_qr_scan"}, "is_reserved": 0}, {"lon": -77.02289316666666, "bike_id": "211bb71e31634ded7159411511d381e9", "lat": 38.90979266666667, "fusion_lon": 0.0, "fusion_lat": 0.0, "type": "electric_scooter", "name": "211bb71e31634ded7159411511d381e9", "is_disabled": 0, "rental_uris": {"ios": "https://dc.lft.to/lastmile_qr_scan", "android": "https://dc.lft.to/lastmile_qr_scan"}, "is_reserved": 0}, {"lon": -77.03058916666667, "bike_id": "b41684d6b3f8d94c46b319efbaef8d37", "lat": 38.897309666666665, "fusion_lon": 0.0, "fusion_lat": 0.0, "type": "electric_scooter", "name": "b41684d6b3f8d94c46b319efbaef8d37", "is_disabled": 0, "rental_uris": {"ios": "https://dc.lft.to/lastmile_qr_scan", "android": "https://dc.lft.to/lastmile_qr_scan"}, "is_reserved": 0}, {"lon": -77.0434115, "bike_id": "2c27cfd72bd14bd9b150254614353128", "lat": 38.92967133333333, "fusion_lon": 0.0, "fusion_lat": 0.0, "type": "electric_scooter", "name": "2c27cfd72bd14bd9b150254614353128", "is_disabled": 0, "rental_uris": {"ios": "https://dc.lft.to/lastmile_qr_scan", "android": "https://dc.lft.to/lastmile_qr_scan"}, "is_reserved": 0}, {"lon": -77.031875, "bike_id": "f003240f61347668f55de1ae3e0b2b55", "lat": 38.91328766666667, "fusion_lon": 0.0, "fusion_lat": 0.0, "type": "electric_scooter", "name": "f003240f61347668f55de1ae3e0b2b55", "is_disabled": 0, "rental_uris": {"ios": "https://dc.lft.to/lastmile_qr_scan", "android": "https://dc.lft.to/lastmile_qr_scan"}, "is_reserved": 0}, {"lon": -77.04226816666667, "bike_id": "adf87548e4298a35a30a7dd95391854a", "lat": 38.9218515, "fusion_lon": 0.0, "fusion_lat": 0.0, "type": "electric_scooter", "name": "adf87548e4298a35a30a7dd95391854a", "is_disabled": 0, "rental_uris": {"ios": "https://dc.lft.to/lastmile_qr_scan", "android": "https://dc.lft.to/lastmile_qr_scan"}, "is_reserved": 0}, {"lon": -77.0275685, "bike_id": "2c31b6c812654f89c8995d793fbc8e95", "lat": 38.8922485, "fusion_lon": 0.0, "fusion_lat": 0.0, "type": "electric_scooter", "name": "2c31b6c812654f89c8995d793fbc8e95", "is_disabled": 0, "rental_uris": {"ios": "https://dc.lft.to/lastmile_qr_scan", "android": "https://dc.lft.to/lastmile_qr_scan"}, "is_reserved": 0}, {"lon": -77.07010283333334, "bike_id": "464c9f76dfa866e6edfe4445f4916e9a", "lat": 38.95855183333333, "fusion_lon": 0.0, "fusion_lat": 0.0, "type": "electric_scooter", "name": "464c9f76dfa866e6edfe4445f4916e9a", "is_disabled": 0, "rental_uris": {"ios": "https://dc.lft.to/lastmile_qr_scan", "android": "https://dc.lft.to/lastmile_qr_scan"}, "is_reserved": 0}, {"lon": -76.948757, "bike_id": "b042e7ed4a104cfe40c789950f4e7353", "lat": 38.8954795, "fusion_lon": 0.0, "fusion_lat": 0.0, "type": "electric_scooter", "name": "b042e7ed4a104cfe40c789950f4e7353", "is_disabled": 0, "rental_uris": {"ios": "https://dc.lft.to/lastmile_qr_scan", "android": "https://dc.lft.to/lastmile_qr_scan"}, "is_reserved": 0}, {"lon": -77.04150066666666, "bike_id": "8cc81ab4f20fdeddb940fe46a528d662", "lat": 38.91554683333333, "fusion_lon": 0.0, "fusion_lat": 0.0, "type": "electric_scooter", "name": "8cc81ab4f20fdeddb940fe46a528d662", "is_disabled": 0, "rental_uris": {"ios": "https://dc.lft.to/lastmile_qr_scan", "android": "https://dc.lft.to/lastmile_qr_scan"}, "is_reserved": 0}, {"lon": -76.99935216666667, "bike_id": "1cc2b2e1951ee66f501220c5d807f76b", "lat": 38.843051833333334, "fusion_lon": 0.0, "fusion_lat": 0.0, "type": "electric_scooter", "name": "1cc2b2e1951ee66f501220c5d807f76b", "is_disabled": 0, "rental_uris": {"ios": "https://dc.lft.to/lastmile_qr_scan", "android": "https://dc.lft.to/lastmile_qr_scan"}, "is_reserved": 0}, {"lon": -77.05249666666667, "bike_id": "a42608e2d98ab4d07fb07d2105ea5de5", "lat": 38.923818, "fusion_lon": 0.0, "fusion_lat": 0.0, "type": "electric_scooter", "name": "a42608e2d98ab4d07fb07d2105ea5de5", "is_disabled": 0, "rental_uris": {"ios": "https://dc.lft.to/lastmile_qr_scan", "android": "https://dc.lft.to/lastmile_qr_scan"}, "is_reserved": 0}, {"lon": -77.02091966666667, "bike_id": "c0d6692c73d07ed510415be69c9ce568", "lat": 38.94529633333333, "fusion_lon": 0.0, "fusion_lat": 0.0, "type": "electric_scooter", "name": "c0d6692c73d07ed510415be69c9ce568", "is_disabled": 0, "rental_uris": {"ios": "https://dc.lft.to/lastmile_qr_scan", "android": "https://dc.lft.to/lastmile_qr_scan"}, "is_reserved": 0}, {"lon": -77.0393915, "bike_id": "d757a577ddcefaa0b850ea3cb091d1b8", "lat": 38.90084683333333, "fusion_lon": 0.0, "fusion_lat": 0.0, "type": "electric_scooter", "name": "d757a577ddcefaa0b850ea3cb091d1b8", "is_disabled": 0, "rental_uris": {"ios": "https://dc.lft.to/lastmile_qr_scan", "android": "https://dc.lft.to/lastmile_qr_scan"}, "is_reserved": 0}, {"lon": -77.048032, "bike_id": "a0831c00db76f7ffbcba70008a0a7124", "lat": 38.909673833333336, "fusion_lon": 0.0, "fusion_lat": 0.0, "type": "electric_scooter", "name": "a0831c00db76f7ffbcba70008a0a7124", "is_disabled": 0, "rental_uris": {"ios": "https://dc.lft.to/lastmile_qr_scan", "android": "https://dc.lft.to/lastmile_qr_scan"}, "is_reserved": 0}, {"lon": -76.99377966666667, "bike_id": "f2feadc1f9e59d2b04fcaa5498d215ee", "lat": 38.971880166666665, "fusion_lon": 0.0, "fusion_lat": 0.0, "type": "electric_bike", "name": "f2feadc1f9e59d2b04fcaa5498d215ee", "is_disabled": 0, "rental_uris": {"ios": "https://dc.lft.to/lastmile_qr_scan", "android": "https://dc.lft.to/lastmile_qr_scan"}, "is_reserved": 0}, {"lon": -77.02439283333334, "bike_id": "daa55738763636f3dd62441996cd1fad", "lat": 38.91692283333333, "fusion_lon": 0.0, "fusion_lat": 0.0, "type": "electric_scooter", "name": "daa55738763636f3dd62441996cd1fad", "is_disabled": 0, "rental_uris": {"ios": "https://dc.lft.to/lastmile_qr_scan", "android": "https://dc.lft.to/lastmile_qr_scan"}, "is_reserved": 0}, {"lon": -77.08070583333334, "bike_id": "8512dcc6373fe7e1c8b801ad6ce2699a", "lat": 38.963142833333336, "fusion_lon": 0.0, "fusion_lat": 0.0, "type": "electric_bike", "name": "8512dcc6373fe7e1c8b801ad6ce2699a", "is_disabled": 0, "rental_uris": {"ios": "https://dc.lft.to/lastmile_qr_scan", "android": "https://dc.lft.to/lastmile_qr_scan"}, "is_reserved": 0}, {"lon": -77.0034295, "bike_id": "a68e2935ca2633d2041b7fdfcf64a155", "lat": 38.895350666666666, "fusion_lon": 0.0, "fusion_lat": 0.0, "type": "electric_scooter", "name": "a68e2935ca2633d2041b7fdfcf64a155", "is_disabled": 0, "rental_uris": {"ios": "https://dc.lft.to/lastmile_qr_scan", "android": "https://dc.lft.to/lastmile_qr_scan"}, "is_reserved": 0}, {"lon": -76.97858333333333, "bike_id": "1b7bde47a5bac4fa1f94edabcb51bca2", "lat": 38.92557083333333, "fusion_lon": 0.0, "fusion_lat": 0.0, "type": "electric_bike", "name": "1b7bde47a5bac4fa1f94edabcb51bca2", "is_disabled": 0, "rental_uris": {"ios": "https://dc.lft.to/lastmile_qr_scan", "android": "https://dc.lft.to/lastmile_qr_scan"}, "is_reserved": 0}, {"lon": -76.97858583333333, "bike_id": "fb45ef13e56009e33bb4d864a70759fe", "lat": 38.87068983333333, "fusion_lon": 0.0, "fusion_lat": 0.0, "type": "electric_scooter", "name": "fb45ef13e56009e33bb4d864a70759fe", "is_disabled": 0, "rental_uris": {"ios": "https://dc.lft.to/lastmile_qr_scan", "android": "https://dc.lft.to/lastmile_qr_scan"}, "is_reserved": 0}, {"lon": -77.06398983333334, "bike_id": "c087c5e5cae8d90dd1d6e4c4fc878a55", "lat": 38.840636833333335, "fusion_lon": 0.0, "fusion_lat": 0.0, "type": "electric_bike", "name": "c087c5e5cae8d90dd1d6e4c4fc878a55", "is_disabled": 0, "rental_uris": {"ios": "https://dc.lft.to/lastmile_qr_scan", "android": "https://dc.lft.to/lastmile_qr_scan"}, "is_reserved": 0}, {"lon": -77.04876366666667, "bike_id": "8173809f4850eec8666826cd9b208e68", "lat": 38.8929545, "fusion_lon": 0.0, "fusion_lat": 0.0, "type": "electric_scooter", "name": "8173809f4850eec8666826cd9b208e68", "is_disabled": 0, "rental_uris": {"ios": "https://dc.lft.to/lastmile_qr_scan", "android": "https://dc.lft.to/lastmile_qr_scan"}, "is_reserved": 0}, {"lon": -77.02952016666667, "bike_id": "070b2c14a4993769f8068b14cfe4b617", "lat": 38.921777166666665, "fusion_lon": 0.0, "fusion_lat": 0.0, "type": "electric_scooter", "name": "070b2c14a4993769f8068b14cfe4b617", "is_disabled": 0, "rental_uris": {"ios": "https://dc.lft.to/lastmile_qr_scan", "android": "https://dc.lft.to/lastmile_qr_scan"}, "is_reserved": 0}, {"lon": -77.02624216666666, "bike_id": "9a4967a7a0f984249d13dd4bebea8f0e", "lat": 38.887474, "fusion_lon": 0.0, "fusion_lat": 0.0, "type": "electric_scooter", "name": "9a4967a7a0f984249d13dd4bebea8f0e", "is_disabled": 0, "rental_uris": {"ios": "https://dc.lft.to/lastmile_qr_scan", "android": "https://dc.lft.to/lastmile_qr_scan"}, "is_reserved": 0}, {"lon": -77.02378333333333, "bike_id": "d6558dfb91e26630c7f729c61cf6a3b7", "lat": 38.90094783333333, "fusion_lon": 0.0, "fusion_lat": 0.0, "type": "electric_scooter", "name": "d6558dfb91e26630c7f729c61cf6a3b7", "is_disabled": 0, "rental_uris": {"ios": "https://dc.lft.to/lastmile_qr_scan", "android": "https://dc.lft.to/lastmile_qr_scan"}, "is_reserved": 0}, {"lon": -76.93508616666666, "bike_id": "c2a8cc5a085af9536bf060ba4472afdf", "lat": 38.8873195, "fusion_lon": 0.0, "fusion_lat": 0.0, "type": "electric_bike", "name": "c2a8cc5a085af9536bf060ba4472afdf", "is_disabled": 0, "rental_uris": {"ios": "https://dc.lft.to/lastmile_qr_scan", "android": "https://dc.lft.to/lastmile_qr_scan"}, "is_reserved": 0}, {"lon": -77.03212416666666, "bike_id": "d13f19c842c166f9b2b6fa64d0a97753", "lat": 38.92170333333333, "fusion_lon": 0.0, "fusion_lat": 0.0, "type": "electric_scooter", "name": "d13f19c842c166f9b2b6fa64d0a97753", "is_disabled": 0, "rental_uris": {"ios": "https://dc.lft.to/lastmile_qr_scan", "android": "https://dc.lft.to/lastmile_qr_scan"}, "is_reserved": 0}, {"lon": -77.00196483333333, "bike_id": "c56f27af525d882807377c760b8ad8ba", "lat": 38.914795833333336, "fusion_lon": 0.0, "fusion_lat": 0.0, "type": "electric_scooter", "name": "c56f27af525d882807377c760b8ad8ba", "is_disabled": 0, "rental_uris": {"ios": "https://dc.lft.to/lastmile_qr_scan", "android": "https://dc.lft.to/lastmile_qr_scan"}, "is_reserved": 0}, {"lon": -77.0244795, "bike_id": "7f53424110ef3365654bc7ef702e7abf", "lat": 38.89972216666666, "fusion_lon": 0.0, "fusion_lat": 0.0, "type": "electric_scooter", "name": "7f53424110ef3365654bc7ef702e7abf", "is_disabled": 0, "rental_uris": {"ios": "https://dc.lft.to/lastmile_qr_scan", "android": "https://dc.lft.to/lastmile_qr_scan"}, "is_reserved": 0}, {"lon": -77.0177805, "bike_id": "0c8f5e29797d5f472176c109ddc538db", "lat": 38.90137716666667, "fusion_lon": 0.0, "fusion_lat": 0.0, "type": "electric_scooter", "name": "0c8f5e29797d5f472176c109ddc538db", "is_disabled": 0, "rental_uris": {"ios": "https://dc.lft.to/lastmile_qr_scan", "android": "https://dc.lft.to/lastmile_qr_scan"}, "is_reserved": 0}, {"lon": -77.04362866666666, "bike_id": "63c430dab169455bd10f0fcbbff3b102", "lat": 38.920610333333336, "fusion_lon": 0.0, "fusion_lat": 0.0, "type": "electric_scooter", "name": "63c430dab169455bd10f0fcbbff3b102", "is_disabled": 0, "rental_uris": {"ios": "https://dc.lft.to/lastmile_qr_scan", "android": "https://dc.lft.to/lastmile_qr_scan"}, "is_reserved": 0}, {"lon": -77.03477966666667, "bike_id": "283e72726213f0e5c20afcf5864c97a2", "lat": 38.928733, "fusion_lon": 0.0, "fusion_lat": 0.0, "type": "electric_scooter", "name": "283e72726213f0e5c20afcf5864c97a2", "is_disabled": 0, "rental_uris": {"ios": "https://dc.lft.to/lastmile_qr_scan", "android": "https://dc.lft.to/lastmile_qr_scan"}, "is_reserved": 0}, {"lon": -77.03391133333334, "bike_id": "0d42b89d3b3e886a19d4faf9ad3620ed", "lat": 38.96035033333333, "fusion_lon": 0.0, "fusion_lat": 0.0, "type": "electric_bike", "name": "0d42b89d3b3e886a19d4faf9ad3620ed", "is_disabled": 0, "rental_uris": {"ios": "https://dc.lft.to/lastmile_qr_scan", "android": "https://dc.lft.to/lastmile_qr_scan"}, "is_reserved": 0}, {"lon": -76.9977575, "bike_id": "e22bcb99505737caa27908f718bc4b7f", "lat": 38.8443235, "fusion_lon": 0.0, "fusion_lat": 0.0, "type": "electric_scooter", "name": "e22bcb99505737caa27908f718bc4b7f", "is_disabled": 0, "rental_uris": {"ios": "https://dc.lft.to/lastmile_qr_scan", "android": "https://dc.lft.to/lastmile_qr_scan"}, "is_reserved": 0}, {"lon": -77.0155535, "bike_id": "ebab2db706557520fa1c07ee84cedd0a", "lat": 38.91597266666667, "fusion_lon": 0.0, "fusion_lat": 0.0, "type": "electric_scooter", "name": "ebab2db706557520fa1c07ee84cedd0a", "is_disabled": 0, "rental_uris": {"ios": "https://dc.lft.to/lastmile_qr_scan", "android": "https://dc.lft.to/lastmile_qr_scan"}, "is_reserved": 0}, {"lon": -77.04322616666667, "bike_id": "8abdfed7f5ee9e0708448bc66b704f75", "lat": 38.918791, "fusion_lon": 0.0, "fusion_lat": 0.0, "type": "electric_scooter", "name": "8abdfed7f5ee9e0708448bc66b704f75", "is_disabled": 0, "rental_uris": {"ios": "https://dc.lft.to/lastmile_qr_scan", "android": "https://dc.lft.to/lastmile_qr_scan"}, "is_reserved": 0}, {"lon": -77.02427466666667, "bike_id": "3f6072478edb4e2ed4ccd0d8d88fe43b", "lat": 38.927564333333336, "fusion_lon": 0.0, "fusion_lat": 0.0, "type": "electric_scooter", "name": "3f6072478edb4e2ed4ccd0d8d88fe43b", "is_disabled": 0, "rental_uris": {"ios": "https://dc.lft.to/lastmile_qr_scan", "android": "https://dc.lft.to/lastmile_qr_scan"}, "is_reserved": 0}, {"lon": -77.07032116666667, "bike_id": "f16a7dc50ea2d1d6fc4155c0817c9a3c", "lat": 38.90623316666667, "fusion_lon": 0.0, "fusion_lat": 0.0, "type": "electric_scooter", "name": "f16a7dc50ea2d1d6fc4155c0817c9a3c", "is_disabled": 0, "rental_uris": {"ios": "https://dc.lft.to/lastmile_qr_scan", "android": "https://dc.lft.to/lastmile_qr_scan"}, "is_reserved": 0}, {"lon": -76.983812, "bike_id": "223315f805ae282eba1b0d581a0ca06f", "lat": 38.89972, "fusion_lon": 0.0, "fusion_lat": 0.0, "type": "electric_scooter", "name": "223315f805ae282eba1b0d581a0ca06f", "is_disabled": 0, "rental_uris": {"ios": "https://dc.lft.to/lastmile_qr_scan", "android": "https://dc.lft.to/lastmile_qr_scan"}, "is_reserved": 0}, {"lon": -77.06528916666667, "bike_id": "ad9dbed390c99f94b4f28c54a272d1d5", "lat": 38.947465, "fusion_lon": 0.0, "fusion_lat": 0.0, "type": "electric_scooter", "name": "ad9dbed390c99f94b4f28c54a272d1d5", "is_disabled": 0, "rental_uris": {"ios": "https://dc.lft.to/lastmile_qr_scan", "android": "https://dc.lft.to/lastmile_qr_scan"}, "is_reserved": 0}, {"lon": -77.00289216666667, "bike_id": "d297d5ab7f61604a7aa8628b1b8d5726", "lat": 38.95699416666667, "fusion_lon": 0.0, "fusion_lat": 0.0, "type": "electric_bike", "name": "d297d5ab7f61604a7aa8628b1b8d5726", "is_disabled": 0, "rental_uris": {"ios": "https://dc.lft.to/lastmile_qr_scan", "android": "https://dc.lft.to/lastmile_qr_scan"}, "is_reserved": 0}, {"lon": -77.02963266666667, "bike_id": "5763bbfa552cb02e41bf89a5abb4f9eb", "lat": 38.9226915, "fusion_lon": 0.0, "fusion_lat": 0.0, "type": "electric_scooter", "name": "5763bbfa552cb02e41bf89a5abb4f9eb", "is_disabled": 0, "rental_uris": {"ios": "https://dc.lft.to/lastmile_qr_scan", "android": "https://dc.lft.to/lastmile_qr_scan"}, "is_reserved": 0}, {"lon": -77.1248625, "bike_id": "605a97e70f35816fe01ee18a4af011bc", "lat": 38.82786633333333, "fusion_lon": 0.0, "fusion_lat": 0.0, "type": "electric_bike", "name": "605a97e70f35816fe01ee18a4af011bc", "is_disabled": 0, "rental_uris": {"ios": "https://dc.lft.to/lastmile_qr_scan", "android": "https://dc.lft.to/lastmile_qr_scan"}, "is_reserved": 0}, {"lon": -77.0008765, "bike_id": "deebdc948c095e2333c7a8f856672f18", "lat": 38.89485633333334, "fusion_lon": 0.0, "fusion_lat": 0.0, "type": "electric_scooter", "name": "deebdc948c095e2333c7a8f856672f18", "is_disabled": 0, "rental_uris": {"ios": "https://dc.lft.to/lastmile_qr_scan", "android": "https://dc.lft.to/lastmile_qr_scan"}, "is_reserved": 0}, {"lon": -77.02246816666667, "bike_id": "8db1f9a68ac989d14c6a266596d9b184", "lat": 38.902306333333335, "fusion_lon": 0.0, "fusion_lat": 0.0, "type": "electric_scooter", "name": "8db1f9a68ac989d14c6a266596d9b184", "is_disabled": 0, "rental_uris": {"ios": "https://dc.lft.to/lastmile_qr_scan", "android": "https://dc.lft.to/lastmile_qr_scan"}, "is_reserved": 0}, {"lon": -77.03854233333334, "bike_id": "a782a9c036df10f071ea7d07b28c344c", "lat": 38.9081135, "fusion_lon": 0.0, "fusion_lat": 0.0, "type": "electric_scooter", "name": "a782a9c036df10f071ea7d07b28c344c", "is_disabled": 0, "rental_uris": {"ios": "https://dc.lft.to/lastmile_qr_scan", "android": "https://dc.lft.to/lastmile_qr_scan"}, "is_reserved": 0}, {"lon": -76.96581583333334, "bike_id": "7d5d1d9009959ac618d7c5f4ccca5ff2", "lat": 38.87150916666667, "fusion_lon": 0.0, "fusion_lat": 0.0, "type": "electric_scooter", "name": "7d5d1d9009959ac618d7c5f4ccca5ff2", "is_disabled": 0, "rental_uris": {"ios": "https://dc.lft.to/lastmile_qr_scan", "android": "https://dc.lft.to/lastmile_qr_scan"}, "is_reserved": 0}, {"lon": -77.030623, "bike_id": "070454997241a4bcce43edc4d55da123", "lat": 38.92480883333333, "fusion_lon": 0.0, "fusion_lat": 0.0, "type": "electric_scooter", "name": "070454997241a4bcce43edc4d55da123", "is_disabled": 0, "rental_uris": {"ios": "https://dc.lft.to/lastmile_qr_scan", "android": "https://dc.lft.to/lastmile_qr_scan"}, "is_reserved": 0}, {"lon": -77.020081, "bike_id": "15ea1f6378e598b51ac06f77cf6864d5", "lat": 38.90153166666666, "fusion_lon": 0.0, "fusion_lat": 0.0, "type": "electric_scooter", "name": "15ea1f6378e598b51ac06f77cf6864d5", "is_disabled": 0, "rental_uris": {"ios": "https://dc.lft.to/lastmile_qr_scan", "android": "https://dc.lft.to/lastmile_qr_scan"}, "is_reserved": 0}, {"lon": -77.03266983333333, "bike_id": "dd9b46e956230f205fb98e40af4e4c76", "lat": 38.920561166666666, "fusion_lon": 0.0, "fusion_lat": 0.0, "type": "electric_scooter", "name": "dd9b46e956230f205fb98e40af4e4c76", "is_disabled": 0, "rental_uris": {"ios": "https://dc.lft.to/lastmile_qr_scan", "android": "https://dc.lft.to/lastmile_qr_scan"}, "is_reserved": 0}, {"lon": -77.04942383333334, "bike_id": "1cf48c0ca9eec6c752ecd4a0a4fc32ee", "lat": 38.90849166666667, "fusion_lon": 0.0, "fusion_lat": 0.0, "type": "electric_scooter", "name": "1cf48c0ca9eec6c752ecd4a0a4fc32ee", "is_disabled": 0, "rental_uris": {"ios": "https://dc.lft.to/lastmile_qr_scan", "android": "https://dc.lft.to/lastmile_qr_scan"}, "is_reserved": 0}, {"lon": -76.94631566666666, "bike_id": "6137e85961fb635638c0a84a4cb55f91", "lat": 38.89834166666667, "fusion_lon": 0.0, "fusion_lat": 0.0, "type": "electric_scooter", "name": "6137e85961fb635638c0a84a4cb55f91", "is_disabled": 0, "rental_uris": {"ios": "https://dc.lft.to/lastmile_qr_scan", "android": "https://dc.lft.to/lastmile_qr_scan"}, "is_reserved": 0}, {"lon": -77.04495566666667, "bike_id": "e2df2f5df785e377e1b7bed3e51d5aa6", "lat": 38.9133215, "fusion_lon": 0.0, "fusion_lat": 0.0, "type": "electric_scooter", "name": "e2df2f5df785e377e1b7bed3e51d5aa6", "is_disabled": 0, "rental_uris": {"ios": "https://dc.lft.to/lastmile_qr_scan", "android": "https://dc.lft.to/lastmile_qr_scan"}, "is_reserved": 0}, {"lon": -77.02946066666667, "bike_id": "8840b5c3645039f9fbf712992f6a6b90", "lat": 38.898128166666666, "fusion_lon": 0.0, "fusion_lat": 0.0, "type": "electric_scooter", "name": "8840b5c3645039f9fbf712992f6a6b90", "is_disabled": 0, "rental_uris": {"ios": "https://dc.lft.to/lastmile_qr_scan", "android": "https://dc.lft.to/lastmile_qr_scan"}, "is_reserved": 0}, {"lon": -77.03550066666666, "bike_id": "8bd166d73a1eb9a6b5edd05f87d01c15", "lat": 38.9077525, "fusion_lon": 0.0, "fusion_lat": 0.0, "type": "electric_scooter", "name": "8bd166d73a1eb9a6b5edd05f87d01c15", "is_disabled": 0, "rental_uris": {"ios": "https://dc.lft.to/lastmile_qr_scan", "android": "https://dc.lft.to/lastmile_qr_scan"}, "is_reserved": 0}, {"lon": -77.05028116666666, "bike_id": "20c1bc0c80028959b5270ab4fc8ebbcd", "lat": 38.89814883333333, "fusion_lon": 0.0, "fusion_lat": 0.0, "type": "electric_scooter", "name": "20c1bc0c80028959b5270ab4fc8ebbcd", "is_disabled": 0, "rental_uris": {"ios": "https://dc.lft.to/lastmile_qr_scan", "android": "https://dc.lft.to/lastmile_qr_scan"}, "is_reserved": 0}, {"lon": -77.04365983333334, "bike_id": "0f9e51c74922bf4cd8eab1d9aa3c0786", "lat": 38.89853866666667, "fusion_lon": 0.0, "fusion_lat": 0.0, "type": "electric_scooter", "name": "0f9e51c74922bf4cd8eab1d9aa3c0786", "is_disabled": 0, "rental_uris": {"ios": "https://dc.lft.to/lastmile_qr_scan", "android": "https://dc.lft.to/lastmile_qr_scan"}, "is_reserved": 0}, {"lon": -76.941253, "bike_id": "ba2f92266b9177ddba0d38010e882844", "lat": 38.88611066666667, "fusion_lon": 0.0, "fusion_lat": 0.0, "type": "electric_scooter", "name": "ba2f92266b9177ddba0d38010e882844", "is_disabled": 0, "rental_uris": {"ios": "https://dc.lft.to/lastmile_qr_scan", "android": "https://dc.lft.to/lastmile_qr_scan"}, "is_reserved": 0}, {"lon": -77.05042233333333, "bike_id": "995ce0455a9257766485fb60b76936bb", "lat": 38.92363533333334, "fusion_lon": 0.0, "fusion_lat": 0.0, "type": "electric_scooter", "name": "995ce0455a9257766485fb60b76936bb", "is_disabled": 0, "rental_uris": {"ios": "https://dc.lft.to/lastmile_qr_scan", "android": "https://dc.lft.to/lastmile_qr_scan"}, "is_reserved": 0}, {"lon": -77.0224905, "bike_id": "139032cc7bef64fb2b696cd26c7ce596", "lat": 38.92268683333333, "fusion_lon": 0.0, "fusion_lat": 0.0, "type": "electric_scooter", "name": "139032cc7bef64fb2b696cd26c7ce596", "is_disabled": 0, "rental_uris": {"ios": "https://dc.lft.to/lastmile_qr_scan", "android": "https://dc.lft.to/lastmile_qr_scan"}, "is_reserved": 0}, {"lon": -77.0521515, "bike_id": "ba0e5d13165b18d2647ade0a8c9f6a30", "lat": 38.9155335, "fusion_lon": 0.0, "fusion_lat": 0.0, "type": "electric_scooter", "name": "ba0e5d13165b18d2647ade0a8c9f6a30", "is_disabled": 0, "rental_uris": {"ios": "https://dc.lft.to/lastmile_qr_scan", "android": "https://dc.lft.to/lastmile_qr_scan"}, "is_reserved": 0}, {"lon": -77.02718183333333, "bike_id": "db5a9d26c9321c26c6390faf955eb7ab", "lat": 38.91676566666667, "fusion_lon": 0.0, "fusion_lat": 0.0, "type": "electric_scooter", "name": "db5a9d26c9321c26c6390faf955eb7ab", "is_disabled": 0, "rental_uris": {"ios": "https://dc.lft.to/lastmile_qr_scan", "android": "https://dc.lft.to/lastmile_qr_scan"}, "is_reserved": 0}, {"lon": -76.9848915, "bike_id": "b5530dd59d2a73ff5f1e6a2ec42569dd", "lat": 38.878347166666664, "fusion_lon": 0.0, "fusion_lat": 0.0, "type": "electric_scooter", "name": "b5530dd59d2a73ff5f1e6a2ec42569dd", "is_disabled": 0, "rental_uris": {"ios": "https://dc.lft.to/lastmile_qr_scan", "android": "https://dc.lft.to/lastmile_qr_scan"}, "is_reserved": 0}, {"lon": -77.00431516666667, "bike_id": "e305f65ed1c1e7821c4beceea74c48d2", "lat": 38.913389333333335, "fusion_lon": 0.0, "fusion_lat": 0.0, "type": "electric_scooter", "name": "e305f65ed1c1e7821c4beceea74c48d2", "is_disabled": 0, "rental_uris": {"ios": "https://dc.lft.to/lastmile_qr_scan", "android": "https://dc.lft.to/lastmile_qr_scan"}, "is_reserved": 0}, {"lon": -77.0084405, "bike_id": "3dc55bac5ba3ab2ac5f56232207e7ec7", "lat": 38.8971125, "fusion_lon": 0.0, "fusion_lat": 0.0, "type": "electric_scooter", "name": "3dc55bac5ba3ab2ac5f56232207e7ec7", "is_disabled": 0, "rental_uris": {"ios": "https://dc.lft.to/lastmile_qr_scan", "android": "https://dc.lft.to/lastmile_qr_scan"}, "is_reserved": 0}, {"lon": -77.03208583333333, "bike_id": "349b359c1a5428d39378eece23c42393", "lat": 38.921666333333334, "fusion_lon": 0.0, "fusion_lat": 0.0, "type": "electric_scooter", "name": "349b359c1a5428d39378eece23c42393", "is_disabled": 0, "rental_uris": {"ios": "https://dc.lft.to/lastmile_qr_scan", "android": "https://dc.lft.to/lastmile_qr_scan"}, "is_reserved": 0}, {"lon": -77.03437033333333, "bike_id": "b89358075539192415f3b335d95d6bc8", "lat": 38.91017133333333, "fusion_lon": 0.0, "fusion_lat": 0.0, "type": "electric_scooter", "name": "b89358075539192415f3b335d95d6bc8", "is_disabled": 0, "rental_uris": {"ios": "https://dc.lft.to/lastmile_qr_scan", "android": "https://dc.lft.to/lastmile_qr_scan"}, "is_reserved": 0}, {"lon": -77.034543, "bike_id": "7acfd33e8702f39503966f13c17defd9", "lat": 38.9344025, "fusion_lon": 0.0, "fusion_lat": 0.0, "type": "electric_scooter", "name": "7acfd33e8702f39503966f13c17defd9", "is_disabled": 0, "rental_uris": {"ios": "https://dc.lft.to/lastmile_qr_scan", "android": "https://dc.lft.to/lastmile_qr_scan"}, "is_reserved": 0}, {"lon": -77.02291516666666, "bike_id": "b0ddb6819443bbb82423881c6825d498", "lat": 38.92231316666667, "fusion_lon": 0.0, "fusion_lat": 0.0, "type": "electric_scooter", "name": "b0ddb6819443bbb82423881c6825d498", "is_disabled": 0, "rental_uris": {"ios": "https://dc.lft.to/lastmile_qr_scan", "android": "https://dc.lft.to/lastmile_qr_scan"}, "is_reserved": 0}, {"lon": -77.02694566666666, "bike_id": "097f06f099e7b187fecbb52e0021ec7a", "lat": 38.912301166666666, "fusion_lon": 0.0, "fusion_lat": 0.0, "type": "electric_scooter", "name": "097f06f099e7b187fecbb52e0021ec7a", "is_disabled": 0, "rental_uris": {"ios": "https://dc.lft.to/lastmile_qr_scan", "android": "https://dc.lft.to/lastmile_qr_scan"}, "is_reserved": 0}, {"lon": -77.0269675, "bike_id": "e9b4aa99aa19fdda46775e1ff948ab38", "lat": 38.8976525, "fusion_lon": 0.0, "fusion_lat": 0.0, "type": "electric_scooter", "name": "e9b4aa99aa19fdda46775e1ff948ab38", "is_disabled": 0, "rental_uris": {"ios": "https://dc.lft.to/lastmile_qr_scan", "android": "https://dc.lft.to/lastmile_qr_scan"}, "is_reserved": 0}, {"lon": -77.02766516666667, "bike_id": "ad300bd4ef165686d7d7b2dca6912414", "lat": 38.95429383333333, "fusion_lon": 0.0, "fusion_lat": 0.0, "type": "electric_scooter", "name": "ad300bd4ef165686d7d7b2dca6912414", "is_disabled": 0, "rental_uris": {"ios": "https://dc.lft.to/lastmile_qr_scan", "android": "https://dc.lft.to/lastmile_qr_scan"}, "is_reserved": 0}, {"lon": -77.04193, "bike_id": "bbd63ee8d353a93fc2c8e85c10897d8f", "lat": 38.9206835, "fusion_lon": 0.0, "fusion_lat": 0.0, "type": "electric_scooter", "name": "bbd63ee8d353a93fc2c8e85c10897d8f", "is_disabled": 0, "rental_uris": {"ios": "https://dc.lft.to/lastmile_qr_scan", "android": "https://dc.lft.to/lastmile_qr_scan"}, "is_reserved": 0}, {"lon": -77.0235975, "bike_id": "088d3b76f73f4ca7fa7eaf7664a1e499", "lat": 38.879156, "fusion_lon": 0.0, "fusion_lat": 0.0, "type": "electric_scooter", "name": "088d3b76f73f4ca7fa7eaf7664a1e499", "is_disabled": 0, "rental_uris": {"ios": "https://dc.lft.to/lastmile_qr_scan", "android": "https://dc.lft.to/lastmile_qr_scan"}, "is_reserved": 0}, {"lon": -76.96601766666667, "bike_id": "291a3b75ddbb8f47392b08c2ccffe337", "lat": 38.871131166666665, "fusion_lon": 0.0, "fusion_lat": 0.0, "type": "electric_scooter", "name": "291a3b75ddbb8f47392b08c2ccffe337", "is_disabled": 0, "rental_uris": {"ios": "https://dc.lft.to/lastmile_qr_scan", "android": "https://dc.lft.to/lastmile_qr_scan"}, "is_reserved": 0}, {"lon": -77.02038316666666, "bike_id": "4793e3fe6a7025880d1c98c7417bc805", "lat": 38.90555666666667, "fusion_lon": 0.0, "fusion_lat": 0.0, "type": "electric_scooter", "name": "4793e3fe6a7025880d1c98c7417bc805", "is_disabled": 0, "rental_uris": {"ios": "https://dc.lft.to/lastmile_qr_scan", "android": "https://dc.lft.to/lastmile_qr_scan"}, "is_reserved": 0}, {"lon": -77.03978566666666, "bike_id": "425be76935e5f314131b790120d22793", "lat": 38.913414, "fusion_lon": 0.0, "fusion_lat": 0.0, "type": "electric_scooter", "name": "425be76935e5f314131b790120d22793", "is_disabled": 0, "rental_uris": {"ios": "https://dc.lft.to/lastmile_qr_scan", "android": "https://dc.lft.to/lastmile_qr_scan"}, "is_reserved": 0}, {"lon": -77.03218783333334, "bike_id": "2b5fdb18ecf23dadf6fcd2a00cc4e1a9", "lat": 38.923471, "fusion_lon": 0.0, "fusion_lat": 0.0, "type": "electric_scooter", "name": "2b5fdb18ecf23dadf6fcd2a00cc4e1a9", "is_disabled": 0, "rental_uris": {"ios": "https://dc.lft.to/lastmile_qr_scan", "android": "https://dc.lft.to/lastmile_qr_scan"}, "is_reserved": 0}, {"lon": -77.02967683333334, "bike_id": "4ad104c4ae3869f3156d534d78884960", "lat": 38.90661166666667, "fusion_lon": 0.0, "fusion_lat": 0.0, "type": "electric_scooter", "name": "4ad104c4ae3869f3156d534d78884960", "is_disabled": 0, "rental_uris": {"ios": "https://dc.lft.to/lastmile_qr_scan", "android": "https://dc.lft.to/lastmile_qr_scan"}, "is_reserved": 0}, {"lon": -76.99850016666667, "bike_id": "9cfbc023af9d95826f8524acf8d6a801", "lat": 38.9010095, "fusion_lon": 0.0, "fusion_lat": 0.0, "type": "electric_scooter", "name": "9cfbc023af9d95826f8524acf8d6a801", "is_disabled": 0, "rental_uris": {"ios": "https://dc.lft.to/lastmile_qr_scan", "android": "https://dc.lft.to/lastmile_qr_scan"}, "is_reserved": 0}, {"lon": -76.93773683333333, "bike_id": "d1090eaa678f04c7015adcbcae5e5ac7", "lat": 38.899663333333336, "fusion_lon": 0.0, "fusion_lat": 0.0, "type": "electric_scooter", "name": "d1090eaa678f04c7015adcbcae5e5ac7", "is_disabled": 0, "rental_uris": {"ios": "https://dc.lft.to/lastmile_qr_scan", "android": "https://dc.lft.to/lastmile_qr_scan"}, "is_reserved": 0}, {"lon": -76.94506816666667, "bike_id": "c1e101c767898a675ea84521c63d40bb", "lat": 38.86487016666667, "fusion_lon": 0.0, "fusion_lat": 0.0, "type": "electric_bike", "name": "c1e101c767898a675ea84521c63d40bb", "is_disabled": 0, "rental_uris": {"ios": "https://dc.lft.to/lastmile_qr_scan", "android": "https://dc.lft.to/lastmile_qr_scan"}, "is_reserved": 0}, {"lon": -76.998584, "bike_id": "e61ee5c22a874ad0d94c6074eb4b654e", "lat": 38.89417266666667, "fusion_lon": 0.0, "fusion_lat": 0.0, "type": "electric_scooter", "name": "e61ee5c22a874ad0d94c6074eb4b654e", "is_disabled": 0, "rental_uris": {"ios": "https://dc.lft.to/lastmile_qr_scan", "android": "https://dc.lft.to/lastmile_qr_scan"}, "is_reserved": 0}, {"lon": -77.05144483333333, "bike_id": "4eeb12a36c18039a361b3aadf251c3b6", "lat": 38.898651, "fusion_lon": 0.0, "fusion_lat": 0.0, "type": "electric_scooter", "name": "4eeb12a36c18039a361b3aadf251c3b6", "is_disabled": 0, "rental_uris": {"ios": "https://dc.lft.to/lastmile_qr_scan", "android": "https://dc.lft.to/lastmile_qr_scan"}, "is_reserved": 0}, {"lon": -76.99011583333333, "bike_id": "4080a829a6befdcd976362d33b72c055", "lat": 38.94601016666667, "fusion_lon": 0.0, "fusion_lat": 0.0, "type": "electric_scooter", "name": "4080a829a6befdcd976362d33b72c055", "is_disabled": 0, "rental_uris": {"ios": "https://dc.lft.to/lastmile_qr_scan", "android": "https://dc.lft.to/lastmile_qr_scan"}, "is_reserved": 0}, {"lon": -77.03864733333333, "bike_id": "d9a25da224ec50ead7d73ac41a0d84b9", "lat": 38.92013816666667, "fusion_lon": 0.0, "fusion_lat": 0.0, "type": "electric_scooter", "name": "d9a25da224ec50ead7d73ac41a0d84b9", "is_disabled": 0, "rental_uris": {"ios": "https://dc.lft.to/lastmile_qr_scan", "android": "https://dc.lft.to/lastmile_qr_scan"}, "is_reserved": 0}, {"lon": -77.03208716666667, "bike_id": "25802cf5a6456d48b6f188d5c6244e92", "lat": 38.921698166666665, "fusion_lon": 0.0, "fusion_lat": 0.0, "type": "electric_scooter", "name": "25802cf5a6456d48b6f188d5c6244e92", "is_disabled": 0, "rental_uris": {"ios": "https://dc.lft.to/lastmile_qr_scan", "android": "https://dc.lft.to/lastmile_qr_scan"}, "is_reserved": 0}, {"lon": -76.99098916666667, "bike_id": "67576112181374a7fce88a72e6f18187", "lat": 38.85735483333333, "fusion_lon": 0.0, "fusion_lat": 0.0, "type": "electric_scooter", "name": "67576112181374a7fce88a72e6f18187", "is_disabled": 0, "rental_uris": {"ios": "https://dc.lft.to/lastmile_qr_scan", "android": "https://dc.lft.to/lastmile_qr_scan"}, "is_reserved": 0}, {"lon": -77.049826, "bike_id": "fa23c206f29329acb199c3ba13ea6ca1", "lat": 39.0629745, "fusion_lon": 0.0, "fusion_lat": 0.0, "type": "electric_bike", "name": "fa23c206f29329acb199c3ba13ea6ca1", "is_disabled": 0, "rental_uris": {"ios": "https://dc.lft.to/lastmile_qr_scan", "android": "https://dc.lft.to/lastmile_qr_scan"}, "is_reserved": 0}, {"lon": -76.99367866666667, "bike_id": "fdda485bbe58057ca1034b20671e699a", "lat": 38.940266, "fusion_lon": 0.0, "fusion_lat": 0.0, "type": "electric_scooter", "name": "fdda485bbe58057ca1034b20671e699a", "is_disabled": 0, "rental_uris": {"ios": "https://dc.lft.to/lastmile_qr_scan", "android": "https://dc.lft.to/lastmile_qr_scan"}, "is_reserved": 0}, {"lon": -77.03290533333333, "bike_id": "f9d363f9ec2bbbd58d284dbd4728d940", "lat": 38.9565085, "fusion_lon": 0.0, "fusion_lat": 0.0, "type": "electric_scooter", "name": "f9d363f9ec2bbbd58d284dbd4728d940", "is_disabled": 0, "rental_uris": {"ios": "https://dc.lft.to/lastmile_qr_scan", "android": "https://dc.lft.to/lastmile_qr_scan"}, "is_reserved": 0}, {"lon": -77.03320083333334, "bike_id": "e73a45fef1d06f53556ead9c891f155b", "lat": 38.91401066666667, "fusion_lon": 0.0, "fusion_lat": 0.0, "type": "electric_scooter", "name": "e73a45fef1d06f53556ead9c891f155b", "is_disabled": 0, "rental_uris": {"ios": "https://dc.lft.to/lastmile_qr_scan", "android": "https://dc.lft.to/lastmile_qr_scan"}, "is_reserved": 0}, {"lon": -77.03047383333333, "bike_id": "49da1daaf7fccc5a4db7938abf142715", "lat": 38.8840415, "fusion_lon": 0.0, "fusion_lat": 0.0, "type": "electric_scooter", "name": "49da1daaf7fccc5a4db7938abf142715", "is_disabled": 0, "rental_uris": {"ios": "https://dc.lft.to/lastmile_qr_scan", "android": "https://dc.lft.to/lastmile_qr_scan"}, "is_reserved": 0}, {"lon": -77.034167, "bike_id": "62bf04bb113366cf041bc2607c0d2e6e", "lat": 38.9324505, "fusion_lon": 0.0, "fusion_lat": 0.0, "type": "electric_scooter", "name": "62bf04bb113366cf041bc2607c0d2e6e", "is_disabled": 0, "rental_uris": {"ios": "https://dc.lft.to/lastmile_qr_scan", "android": "https://dc.lft.to/lastmile_qr_scan"}, "is_reserved": 0}, {"lon": -77.03224233333333, "bike_id": "8377e041b4c22e7b8066529017ef87f1", "lat": 38.931592333333334, "fusion_lon": 0.0, "fusion_lat": 0.0, "type": "electric_scooter", "name": "8377e041b4c22e7b8066529017ef87f1", "is_disabled": 0, "rental_uris": {"ios": "https://dc.lft.to/lastmile_qr_scan", "android": "https://dc.lft.to/lastmile_qr_scan"}, "is_reserved": 0}, {"lon": -76.97649366666667, "bike_id": "7e2b30518a1bf02fb3d8c5a38a8855a8", "lat": 38.887767, "fusion_lon": 0.0, "fusion_lat": 0.0, "type": "electric_scooter", "name": "7e2b30518a1bf02fb3d8c5a38a8855a8", "is_disabled": 0, "rental_uris": {"ios": "https://dc.lft.to/lastmile_qr_scan", "android": "https://dc.lft.to/lastmile_qr_scan"}, "is_reserved": 0}, {"lon": -77.03231233333334, "bike_id": "e190a9716e692f46fd11a2919c329a49", "lat": 38.89669633333333, "fusion_lon": 0.0, "fusion_lat": 0.0, "type": "electric_scooter", "name": "e190a9716e692f46fd11a2919c329a49", "is_disabled": 0, "rental_uris": {"ios": "https://dc.lft.to/lastmile_qr_scan", "android": "https://dc.lft.to/lastmile_qr_scan"}, "is_reserved": 0}, {"lon": -77.0383975, "bike_id": "1908b62e70e62e7bc922cb4bfe4ce444", "lat": 38.91092483333333, "fusion_lon": 0.0, "fusion_lat": 0.0, "type": "electric_scooter", "name": "1908b62e70e62e7bc922cb4bfe4ce444", "is_disabled": 0, "rental_uris": {"ios": "https://dc.lft.to/lastmile_qr_scan", "android": "https://dc.lft.to/lastmile_qr_scan"}, "is_reserved": 0}, {"lon": -77.06138166666666, "bike_id": "d294673046de5ae7d48afc25c1b0152e", "lat": 38.90526416666667, "fusion_lon": 0.0, "fusion_lat": 0.0, "type": "electric_scooter", "name": "d294673046de5ae7d48afc25c1b0152e", "is_disabled": 0, "rental_uris": {"ios": "https://dc.lft.to/lastmile_qr_scan", "android": "https://dc.lft.to/lastmile_qr_scan"}, "is_reserved": 0}, {"lon": -76.99286716666667, "bike_id": "8f753bafac209c68797aed902e7e8ec3", "lat": 38.884866833333334, "fusion_lon": 0.0, "fusion_lat": 0.0, "type": "electric_scooter", "name": "8f753bafac209c68797aed902e7e8ec3", "is_disabled": 0, "rental_uris": {"ios": "https://dc.lft.to/lastmile_qr_scan", "android": "https://dc.lft.to/lastmile_qr_scan"}, "is_reserved": 0}, {"lon": -76.99194783333333, "bike_id": "80505be213d37a1ffd75ddbfcd2272cc", "lat": 38.88268466666667, "fusion_lon": 0.0, "fusion_lat": 0.0, "type": "electric_scooter", "name": "80505be213d37a1ffd75ddbfcd2272cc", "is_disabled": 0, "rental_uris": {"ios": "https://dc.lft.to/lastmile_qr_scan", "android": "https://dc.lft.to/lastmile_qr_scan"}, "is_reserved": 0}, {"lon": -77.04244466666667, "bike_id": "7e1570d17ca9e7b2360b4d02708a5d51", "lat": 38.92226683333333, "fusion_lon": 0.0, "fusion_lat": 0.0, "type": "electric_scooter", "name": "7e1570d17ca9e7b2360b4d02708a5d51", "is_disabled": 0, "rental_uris": {"ios": "https://dc.lft.to/lastmile_qr_scan", "android": "https://dc.lft.to/lastmile_qr_scan"}, "is_reserved": 0}, {"lon": -77.00209416666667, "bike_id": "368610ca223b6d23ca945cfd322af72f", "lat": 38.900237833333335, "fusion_lon": 0.0, "fusion_lat": 0.0, "type": "electric_scooter", "name": "368610ca223b6d23ca945cfd322af72f", "is_disabled": 0, "rental_uris": {"ios": "https://dc.lft.to/lastmile_qr_scan", "android": "https://dc.lft.to/lastmile_qr_scan"}, "is_reserved": 0}, {"lon": -77.0445365, "bike_id": "a4105e3b1a9b4e3fb61b4a703db8e561", "lat": 38.908342833333336, "fusion_lon": 0.0, "fusion_lat": 0.0, "type": "electric_scooter", "name": "a4105e3b1a9b4e3fb61b4a703db8e561", "is_disabled": 0, "rental_uris": {"ios": "https://dc.lft.to/lastmile_qr_scan", "android": "https://dc.lft.to/lastmile_qr_scan"}, "is_reserved": 0}, {"lon": -77.03217183333334, "bike_id": "d98b98e0baa48560941d1e062dbcb1a8", "lat": 38.91402033333333, "fusion_lon": 0.0, "fusion_lat": 0.0, "type": "electric_scooter", "name": "d98b98e0baa48560941d1e062dbcb1a8", "is_disabled": 0, "rental_uris": {"ios": "https://dc.lft.to/lastmile_qr_scan", "android": "https://dc.lft.to/lastmile_qr_scan"}, "is_reserved": 0}, {"lon": -77.0035125, "bike_id": "0042c37fa3ded55d214fc36d51159c76", "lat": 38.89932816666666, "fusion_lon": 0.0, "fusion_lat": 0.0, "type": "electric_scooter", "name": "0042c37fa3ded55d214fc36d51159c76", "is_disabled": 0, "rental_uris": {"ios": "https://dc.lft.to/lastmile_qr_scan", "android": "https://dc.lft.to/lastmile_qr_scan"}, "is_reserved": 0}, {"lon": -77.058263, "bike_id": "d4a4b2e2010eb64542ef3c844e98560d", "lat": 38.935478333333336, "fusion_lon": 0.0, "fusion_lat": 0.0, "type": "electric_scooter", "name": "d4a4b2e2010eb64542ef3c844e98560d", "is_disabled": 0, "rental_uris": {"ios": "https://dc.lft.to/lastmile_qr_scan", "android": "https://dc.lft.to/lastmile_qr_scan"}, "is_reserved": 0}, {"lon": -77.02528816666667, "bike_id": "b6beb250a0ddb4a00ecea783c4b3f0e7", "lat": 38.93286766666667, "fusion_lon": 0.0, "fusion_lat": 0.0, "type": "electric_scooter", "name": "b6beb250a0ddb4a00ecea783c4b3f0e7", "is_disabled": 0, "rental_uris": {"ios": "https://dc.lft.to/lastmile_qr_scan", "android": "https://dc.lft.to/lastmile_qr_scan"}, "is_reserved": 0}, {"lon": -76.9971005, "bike_id": "2eec1460a0729b3b48e69da47dc0898c", "lat": 38.908187833333336, "fusion_lon": 0.0, "fusion_lat": 0.0, "type": "electric_scooter", "name": "2eec1460a0729b3b48e69da47dc0898c", "is_disabled": 0, "rental_uris": {"ios": "https://dc.lft.to/lastmile_qr_scan", "android": "https://dc.lft.to/lastmile_qr_scan"}, "is_reserved": 0}, {"lon": -77.03681416666667, "bike_id": "e425ac6d79cd65a6d0728c664e6b7e17", "lat": 38.939321, "fusion_lon": 0.0, "fusion_lat": 0.0, "type": "electric_scooter", "name": "e425ac6d79cd65a6d0728c664e6b7e17", "is_disabled": 0, "rental_uris": {"ios": "https://dc.lft.to/lastmile_qr_scan", "android": "https://dc.lft.to/lastmile_qr_scan"}, "is_reserved": 0}, {"lon": -77.02167616666667, "bike_id": "565c6aefc387e52ff11c8c1a14875778", "lat": 38.919908, "fusion_lon": 0.0, "fusion_lat": 0.0, "type": "electric_scooter", "name": "565c6aefc387e52ff11c8c1a14875778", "is_disabled": 0, "rental_uris": {"ios": "https://dc.lft.to/lastmile_qr_scan", "android": "https://dc.lft.to/lastmile_qr_scan"}, "is_reserved": 0}, {"lon": -76.98146066666666, "bike_id": "885a5b1ef1a13c9a52ce446d6572d76a", "lat": 38.9056575, "fusion_lon": 0.0, "fusion_lat": 0.0, "type": "electric_scooter", "name": "885a5b1ef1a13c9a52ce446d6572d76a", "is_disabled": 0, "rental_uris": {"ios": "https://dc.lft.to/lastmile_qr_scan", "android": "https://dc.lft.to/lastmile_qr_scan"}, "is_reserved": 0}, {"lon": -77.03396066666667, "bike_id": "220150d49489f1720bf6c83fba33ffb1", "lat": 38.90977616666667, "fusion_lon": 0.0, "fusion_lat": 0.0, "type": "electric_scooter", "name": "220150d49489f1720bf6c83fba33ffb1", "is_disabled": 0, "rental_uris": {"ios": "https://dc.lft.to/lastmile_qr_scan", "android": "https://dc.lft.to/lastmile_qr_scan"}, "is_reserved": 0}, {"lon": -77.03297533333334, "bike_id": "b966063ded909930c5e2a6e114042529", "lat": 38.9112255, "fusion_lon": 0.0, "fusion_lat": 0.0, "type": "electric_scooter", "name": "b966063ded909930c5e2a6e114042529", "is_disabled": 0, "rental_uris": {"ios": "https://dc.lft.to/lastmile_qr_scan", "android": "https://dc.lft.to/lastmile_qr_scan"}, "is_reserved": 0}, {"lon": -77.02208983333334, "bike_id": "9ab4c1a44c5861f9bc7cc3db562d8978", "lat": 38.899797, "fusion_lon": 0.0, "fusion_lat": 0.0, "type": "electric_scooter", "name": "9ab4c1a44c5861f9bc7cc3db562d8978", "is_disabled": 0, "rental_uris": {"ios": "https://dc.lft.to/lastmile_qr_scan", "android": "https://dc.lft.to/lastmile_qr_scan"}, "is_reserved": 0}, {"lon": -77.01279833333334, "bike_id": "5eea5f4cd29790d049ce826586b41066", "lat": 38.91562966666667, "fusion_lon": 0.0, "fusion_lat": 0.0, "type": "electric_scooter", "name": "5eea5f4cd29790d049ce826586b41066", "is_disabled": 0, "rental_uris": {"ios": "https://dc.lft.to/lastmile_qr_scan", "android": "https://dc.lft.to/lastmile_qr_scan"}, "is_reserved": 0}, {"lon": -77.03334133333334, "bike_id": "0ac2d8576a80cd314b9d778db0c85d1b", "lat": 38.892268666666666, "fusion_lon": 0.0, "fusion_lat": 0.0, "type": "electric_scooter", "name": "0ac2d8576a80cd314b9d778db0c85d1b", "is_disabled": 0, "rental_uris": {"ios": "https://dc.lft.to/lastmile_qr_scan", "android": "https://dc.lft.to/lastmile_qr_scan"}, "is_reserved": 0}, {"lon": -76.99775083333333, "bike_id": "4c8a3869674ad816e3af107b97122c10", "lat": 38.844309, "fusion_lon": 0.0, "fusion_lat": 0.0, "type": "electric_scooter", "name": "4c8a3869674ad816e3af107b97122c10", "is_disabled": 0, "rental_uris": {"ios": "https://dc.lft.to/lastmile_qr_scan", "android": "https://dc.lft.to/lastmile_qr_scan"}, "is_reserved": 0}, {"lon": -77.00761766666666, "bike_id": "6ef4124110c43c50f84f89eb553b093c", "lat": 38.98388533333333, "fusion_lon": 0.0, "fusion_lat": 0.0, "type": "electric_bike", "name": "6ef4124110c43c50f84f89eb553b093c", "is_disabled": 0, "rental_uris": {"ios": "https://dc.lft.to/lastmile_qr_scan", "android": "https://dc.lft.to/lastmile_qr_scan"}, "is_reserved": 0}, {"lon": -77.06279033333334, "bike_id": "6d449dc89f99091762e3e5c01ab1376a", "lat": 38.904438999999996, "fusion_lon": 0.0, "fusion_lat": 0.0, "type": "electric_scooter", "name": "6d449dc89f99091762e3e5c01ab1376a", "is_disabled": 0, "rental_uris": {"ios": "https://dc.lft.to/lastmile_qr_scan", "android": "https://dc.lft.to/lastmile_qr_scan"}, "is_reserved": 0}, {"lon": -77.023806, "bike_id": "e0137bd2fdc847106ad290785bcbea69", "lat": 38.909678666666665, "fusion_lon": 0.0, "fusion_lat": 0.0, "type": "electric_scooter", "name": "e0137bd2fdc847106ad290785bcbea69", "is_disabled": 0, "rental_uris": {"ios": "https://dc.lft.to/lastmile_qr_scan", "android": "https://dc.lft.to/lastmile_qr_scan"}, "is_reserved": 0}, {"lon": -77.041756, "bike_id": "c651bae7b33b4b431ba3659a184ee9c5", "lat": 38.917067333333335, "fusion_lon": 0.0, "fusion_lat": 0.0, "type": "electric_scooter", "name": "c651bae7b33b4b431ba3659a184ee9c5", "is_disabled": 0, "rental_uris": {"ios": "https://dc.lft.to/lastmile_qr_scan", "android": "https://dc.lft.to/lastmile_qr_scan"}, "is_reserved": 0}, {"lon": -77.03664716666667, "bike_id": "d0765fb6527e9aeeddd0807c7ada8ba1", "lat": 38.9129155, "fusion_lon": 0.0, "fusion_lat": 0.0, "type": "electric_scooter", "name": "d0765fb6527e9aeeddd0807c7ada8ba1", "is_disabled": 0, "rental_uris": {"ios": "https://dc.lft.to/lastmile_qr_scan", "android": "https://dc.lft.to/lastmile_qr_scan"}, "is_reserved": 0}, {"lon": -77.03026883333334, "bike_id": "5e643fb078367ba284182df13e01a91a", "lat": 38.931136333333335, "fusion_lon": 0.0, "fusion_lat": 0.0, "type": "electric_scooter", "name": "5e643fb078367ba284182df13e01a91a", "is_disabled": 0, "rental_uris": {"ios": "https://dc.lft.to/lastmile_qr_scan", "android": "https://dc.lft.to/lastmile_qr_scan"}, "is_reserved": 0}, {"lon": -77.04363083333334, "bike_id": "f17f656314fd1c94ce76f70b2dee6197", "lat": 38.9024125, "fusion_lon": 0.0, "fusion_lat": 0.0, "type": "electric_scooter", "name": "f17f656314fd1c94ce76f70b2dee6197", "is_disabled": 0, "rental_uris": {"ios": "https://dc.lft.to/lastmile_qr_scan", "android": "https://dc.lft.to/lastmile_qr_scan"}, "is_reserved": 0}, {"lon": -77.0504955, "bike_id": "8c925271e1e675572a3f6e22f7379ee0", "lat": 38.907259333333336, "fusion_lon": 0.0, "fusion_lat": 0.0, "type": "electric_scooter", "name": "8c925271e1e675572a3f6e22f7379ee0", "is_disabled": 0, "rental_uris": {"ios": "https://dc.lft.to/lastmile_qr_scan", "android": "https://dc.lft.to/lastmile_qr_scan"}, "is_reserved": 0}, {"lon": -77.02369083333333, "bike_id": "bf9288a9d0b36ae758afe0f4c2a69804", "lat": 38.8922005, "fusion_lon": 0.0, "fusion_lat": 0.0, "type": "electric_scooter", "name": "bf9288a9d0b36ae758afe0f4c2a69804", "is_disabled": 0, "rental_uris": {"ios": "https://dc.lft.to/lastmile_qr_scan", "android": "https://dc.lft.to/lastmile_qr_scan"}, "is_reserved": 0}, {"lon": -77.02876366666666, "bike_id": "d6a0541505f81e5b4a762472338faecf", "lat": 38.9281855, "fusion_lon": 0.0, "fusion_lat": 0.0, "type": "electric_scooter", "name": "d6a0541505f81e5b4a762472338faecf", "is_disabled": 0, "rental_uris": {"ios": "https://dc.lft.to/lastmile_qr_scan", "android": "https://dc.lft.to/lastmile_qr_scan"}, "is_reserved": 0}, {"lon": -77.03649216666666, "bike_id": "d56a589ecb7ff584c608833a55f13e62", "lat": 38.94092716666667, "fusion_lon": 0.0, "fusion_lat": 0.0, "type": "electric_scooter", "name": "d56a589ecb7ff584c608833a55f13e62", "is_disabled": 0, "rental_uris": {"ios": "https://dc.lft.to/lastmile_qr_scan", "android": "https://dc.lft.to/lastmile_qr_scan"}, "is_reserved": 0}, {"lon": -77.04338666666666, "bike_id": "f8a4c0217c133ee5ed48f29005da49fb", "lat": 38.91781316666667, "fusion_lon": 0.0, "fusion_lat": 0.0, "type": "electric_scooter", "name": "f8a4c0217c133ee5ed48f29005da49fb", "is_disabled": 0, "rental_uris": {"ios": "https://dc.lft.to/lastmile_qr_scan", "android": "https://dc.lft.to/lastmile_qr_scan"}, "is_reserved": 0}, {"lon": -76.99683766666666, "bike_id": "adc5b9fd4175a7c944df1e603dcd68b1", "lat": 38.860303333333334, "fusion_lon": 0.0, "fusion_lat": 0.0, "type": "electric_scooter", "name": "adc5b9fd4175a7c944df1e603dcd68b1", "is_disabled": 0, "rental_uris": {"ios": "https://dc.lft.to/lastmile_qr_scan", "android": "https://dc.lft.to/lastmile_qr_scan"}, "is_reserved": 0}, {"lon": -77.02121583333333, "bike_id": "25722ba542facd5edd2adb36a943c4fd", "lat": 38.89751283333333, "fusion_lon": 0.0, "fusion_lat": 0.0, "type": "electric_scooter", "name": "25722ba542facd5edd2adb36a943c4fd", "is_disabled": 0, "rental_uris": {"ios": "https://dc.lft.to/lastmile_qr_scan", "android": "https://dc.lft.to/lastmile_qr_scan"}, "is_reserved": 0}, {"lon": -77.03174966666667, "bike_id": "406f0761e5122de01634eb5b8306e9d0", "lat": 38.936053333333334, "fusion_lon": 0.0, "fusion_lat": 0.0, "type": "electric_scooter", "name": "406f0761e5122de01634eb5b8306e9d0", "is_disabled": 0, "rental_uris": {"ios": "https://dc.lft.to/lastmile_qr_scan", "android": "https://dc.lft.to/lastmile_qr_scan"}, "is_reserved": 0}, {"lon": -77.041806, "bike_id": "7ce1041ac20e66f994ce954a15ddf672", "lat": 38.9187055, "fusion_lon": 0.0, "fusion_lat": 0.0, "type": "electric_scooter", "name": "7ce1041ac20e66f994ce954a15ddf672", "is_disabled": 0, "rental_uris": {"ios": "https://dc.lft.to/lastmile_qr_scan", "android": "https://dc.lft.to/lastmile_qr_scan"}, "is_reserved": 0}, {"lon": -77.031556, "bike_id": "101347ba352faf4bd7012fbd73d959e0", "lat": 38.921004333333336, "fusion_lon": 0.0, "fusion_lat": 0.0, "type": "electric_bike", "name": "101347ba352faf4bd7012fbd73d959e0", "is_disabled": 0, "rental_uris": {"ios": "https://dc.lft.to/lastmile_qr_scan", "android": "https://dc.lft.to/lastmile_qr_scan"}, "is_reserved": 0}, {"lon": -76.98771583333334, "bike_id": "ac2a57195657fa31f3df10c3fd18a061", "lat": 38.86616766666667, "fusion_lon": 0.0, "fusion_lat": 0.0, "type": "electric_bike", "name": "ac2a57195657fa31f3df10c3fd18a061", "is_disabled": 0, "rental_uris": {"ios": "https://dc.lft.to/lastmile_qr_scan", "android": "https://dc.lft.to/lastmile_qr_scan"}, "is_reserved": 0}, {"lon": -77.03472366666666, "bike_id": "8fff4d5bef168345dabc8000cb9515f4", "lat": 38.9055555, "fusion_lon": 0.0, "fusion_lat": 0.0, "type": "electric_scooter", "name": "8fff4d5bef168345dabc8000cb9515f4", "is_disabled": 0, "rental_uris": {"ios": "https://dc.lft.to/lastmile_qr_scan", "android": "https://dc.lft.to/lastmile_qr_scan"}, "is_reserved": 0}, {"lon": -77.00447466666667, "bike_id": "126fc0d556ec3627f946b3b9a311ad72", "lat": 38.87764633333333, "fusion_lon": 0.0, "fusion_lat": 0.0, "type": "electric_scooter", "name": "126fc0d556ec3627f946b3b9a311ad72", "is_disabled": 0, "rental_uris": {"ios": "https://dc.lft.to/lastmile_qr_scan", "android": "https://dc.lft.to/lastmile_qr_scan"}, "is_reserved": 0}, {"lon": -76.99768766666666, "bike_id": "c2ae175a3ce9b1e1701d86c043d84968", "lat": 38.901290333333336, "fusion_lon": 0.0, "fusion_lat": 0.0, "type": "electric_scooter", "name": "c2ae175a3ce9b1e1701d86c043d84968", "is_disabled": 0, "rental_uris": {"ios": "https://dc.lft.to/lastmile_qr_scan", "android": "https://dc.lft.to/lastmile_qr_scan"}, "is_reserved": 0}, {"lon": -77.18562166666666, "bike_id": "c0229239e7a8319c0d9e6a2d2420bb84", "lat": 39.09975466666667, "fusion_lon": 0.0, "fusion_lat": 0.0, "type": "electric_bike", "name": "c0229239e7a8319c0d9e6a2d2420bb84", "is_disabled": 0, "rental_uris": {"ios": "https://dc.lft.to/lastmile_qr_scan", "android": "https://dc.lft.to/lastmile_qr_scan"}, "is_reserved": 0}, {"lon": -77.01567016666667, "bike_id": "95b5f77b743580e0765cb654c74bfa8f", "lat": 38.9022125, "fusion_lon": 0.0, "fusion_lat": 0.0, "type": "electric_scooter", "name": "95b5f77b743580e0765cb654c74bfa8f", "is_disabled": 0, "rental_uris": {"ios": "https://dc.lft.to/lastmile_qr_scan", "android": "https://dc.lft.to/lastmile_qr_scan"}, "is_reserved": 0}, {"lon": -77.07601533333333, "bike_id": "f65a77a6960c785048c521aa104e24dc", "lat": 38.912233, "fusion_lon": 0.0, "fusion_lat": 0.0, "type": "electric_scooter", "name": "f65a77a6960c785048c521aa104e24dc", "is_disabled": 0, "rental_uris": {"ios": "https://dc.lft.to/lastmile_qr_scan", "android": "https://dc.lft.to/lastmile_qr_scan"}, "is_reserved": 0}, {"lon": -76.97751716666667, "bike_id": "84eb470e3dc7800539885de408931964", "lat": 38.8649135, "fusion_lon": 0.0, "fusion_lat": 0.0, "type": "electric_bike", "name": "84eb470e3dc7800539885de408931964", "is_disabled": 0, "rental_uris": {"ios": "https://dc.lft.to/lastmile_qr_scan", "android": "https://dc.lft.to/lastmile_qr_scan"}, "is_reserved": 0}, {"lon": -77.037647, "bike_id": "0f38e7b4ea0c69b35b301b2a1352f57d", "lat": 38.916965833333336, "fusion_lon": 0.0, "fusion_lat": 0.0, "type": "electric_scooter", "name": "0f38e7b4ea0c69b35b301b2a1352f57d", "is_disabled": 0, "rental_uris": {"ios": "https://dc.lft.to/lastmile_qr_scan", "android": "https://dc.lft.to/lastmile_qr_scan"}, "is_reserved": 0}, {"lon": -77.031274, "bike_id": "f7275b2ae25122b0f9a309dd24f24daf", "lat": 38.945039, "fusion_lon": 0.0, "fusion_lat": 0.0, "type": "electric_scooter", "name": "f7275b2ae25122b0f9a309dd24f24daf", "is_disabled": 0, "rental_uris": {"ios": "https://dc.lft.to/lastmile_qr_scan", "android": "https://dc.lft.to/lastmile_qr_scan"}, "is_reserved": 0}, {"lon": -77.037246, "bike_id": "619041ce5aa927f37148c397e3c64e55", "lat": 38.9264055, "fusion_lon": 0.0, "fusion_lat": 0.0, "type": "electric_scooter", "name": "619041ce5aa927f37148c397e3c64e55", "is_disabled": 0, "rental_uris": {"ios": "https://dc.lft.to/lastmile_qr_scan", "android": "https://dc.lft.to/lastmile_qr_scan"}, "is_reserved": 0}, {"lon": -76.9954205, "bike_id": "e272220fb2eace82d3e28c74cfe890ac", "lat": 38.86261533333333, "fusion_lon": 0.0, "fusion_lat": 0.0, "type": "electric_scooter", "name": "e272220fb2eace82d3e28c74cfe890ac", "is_disabled": 0, "rental_uris": {"ios": "https://dc.lft.to/lastmile_qr_scan", "android": "https://dc.lft.to/lastmile_qr_scan"}, "is_reserved": 0}, {"lon": -77.01632516666666, "bike_id": "2e0f84100127fb23079bb804948c54de", "lat": 38.900666666666666, "fusion_lon": 0.0, "fusion_lat": 0.0, "type": "electric_scooter", "name": "2e0f84100127fb23079bb804948c54de", "is_disabled": 0, "rental_uris": {"ios": "https://dc.lft.to/lastmile_qr_scan", "android": "https://dc.lft.to/lastmile_qr_scan"}, "is_reserved": 0}, {"lon": -77.021705, "bike_id": "fedddea3f2fbbe8f3cdbfe2e26e25599", "lat": 38.904190666666665, "fusion_lon": 0.0, "fusion_lat": 0.0, "type": "electric_scooter", "name": "fedddea3f2fbbe8f3cdbfe2e26e25599", "is_disabled": 0, "rental_uris": {"ios": "https://dc.lft.to/lastmile_qr_scan", "android": "https://dc.lft.to/lastmile_qr_scan"}, "is_reserved": 0}, {"lon": -76.963906, "bike_id": "b30dce26aaecaa43a9ea400c03699aee", "lat": 38.95188683333333, "fusion_lon": 0.0, "fusion_lat": 0.0, "type": "electric_bike", "name": "b30dce26aaecaa43a9ea400c03699aee", "is_disabled": 0, "rental_uris": {"ios": "https://dc.lft.to/lastmile_qr_scan", "android": "https://dc.lft.to/lastmile_qr_scan"}, "is_reserved": 0}, {"lon": -77.033305, "bike_id": "d32b32e904ffa5caa81cf607c8c63dfc", "lat": 38.960477, "fusion_lon": 0.0, "fusion_lat": 0.0, "type": "electric_scooter", "name": "d32b32e904ffa5caa81cf607c8c63dfc", "is_disabled": 0, "rental_uris": {"ios": "https://dc.lft.to/lastmile_qr_scan", "android": "https://dc.lft.to/lastmile_qr_scan"}, "is_reserved": 0}, {"lon": -77.00551, "bike_id": "f5c9b7f6545aa522522e2e88754a2b20", "lat": 38.91183616666667, "fusion_lon": 0.0, "fusion_lat": 0.0, "type": "electric_scooter", "name": "f5c9b7f6545aa522522e2e88754a2b20", "is_disabled": 0, "rental_uris": {"ios": "https://dc.lft.to/lastmile_qr_scan", "android": "https://dc.lft.to/lastmile_qr_scan"}, "is_reserved": 0}, {"lon": -77.0343865, "bike_id": "1ef710cfa8dbb51cf7c1ed9ccbef25c8", "lat": 38.902897, "fusion_lon": 0.0, "fusion_lat": 0.0, "type": "electric_scooter", "name": "1ef710cfa8dbb51cf7c1ed9ccbef25c8", "is_disabled": 0, "rental_uris": {"ios": "https://dc.lft.to/lastmile_qr_scan", "android": "https://dc.lft.to/lastmile_qr_scan"}, "is_reserved": 0}, {"lon": -77.0480875, "bike_id": "5c332e9795bce484257a87b470d5de87", "lat": 38.91637816666667, "fusion_lon": 0.0, "fusion_lat": 0.0, "type": "electric_scooter", "name": "5c332e9795bce484257a87b470d5de87", "is_disabled": 0, "rental_uris": {"ios": "https://dc.lft.to/lastmile_qr_scan", "android": "https://dc.lft.to/lastmile_qr_scan"}, "is_reserved": 0}, {"lon": -77.02799683333333, "bike_id": "fbedfbc15a77aa20d4ad2f3016aca3b0", "lat": 38.954157, "fusion_lon": 0.0, "fusion_lat": 0.0, "type": "electric_scooter", "name": "fbedfbc15a77aa20d4ad2f3016aca3b0", "is_disabled": 0, "rental_uris": {"ios": "https://dc.lft.to/lastmile_qr_scan", "android": "https://dc.lft.to/lastmile_qr_scan"}, "is_reserved": 0}, {"lon": -77.03866983333333, "bike_id": "849a515e883e125907ee829cbe15a5ce", "lat": 38.91420133333333, "fusion_lon": 0.0, "fusion_lat": 0.0, "type": "electric_scooter", "name": "849a515e883e125907ee829cbe15a5ce", "is_disabled": 0, "rental_uris": {"ios": "https://dc.lft.to/lastmile_qr_scan", "android": "https://dc.lft.to/lastmile_qr_scan"}, "is_reserved": 0}, {"lon": -76.99126533333333, "bike_id": "54e222f1ac29eefc568ed2aea2ab8e27", "lat": 38.92272616666666, "fusion_lon": 0.0, "fusion_lat": 0.0, "type": "electric_scooter", "name": "54e222f1ac29eefc568ed2aea2ab8e27", "is_disabled": 0, "rental_uris": {"ios": "https://dc.lft.to/lastmile_qr_scan", "android": "https://dc.lft.to/lastmile_qr_scan"}, "is_reserved": 0}, {"lon": -77.01999816666667, "bike_id": "599e9b1643d329a1be5786009b16f843", "lat": 38.90451866666667, "fusion_lon": 0.0, "fusion_lat": 0.0, "type": "electric_scooter", "name": "599e9b1643d329a1be5786009b16f843", "is_disabled": 0, "rental_uris": {"ios": "https://dc.lft.to/lastmile_qr_scan", "android": "https://dc.lft.to/lastmile_qr_scan"}, "is_reserved": 0}, {"lon": -77.0267715, "bike_id": "98f4d9433c445ea335a0686ab8bd56da", "lat": 38.9845825, "fusion_lon": 0.0, "fusion_lat": 0.0, "type": "electric_scooter", "name": "98f4d9433c445ea335a0686ab8bd56da", "is_disabled": 0, "rental_uris": {"ios": "https://dc.lft.to/lastmile_qr_scan", "android": "https://dc.lft.to/lastmile_qr_scan"}, "is_reserved": 0}, {"lon": -77.02811, "bike_id": "4ceb064205be4166942ee8b2812ab400", "lat": 38.881789166666664, "fusion_lon": 0.0, "fusion_lat": 0.0, "type": "electric_scooter", "name": "4ceb064205be4166942ee8b2812ab400", "is_disabled": 0, "rental_uris": {"ios": "https://dc.lft.to/lastmile_qr_scan", "android": "https://dc.lft.to/lastmile_qr_scan"}, "is_reserved": 0}, {"lon": -77.02442733333334, "bike_id": "1a78961fe41ae8ef6c3801c01c735ea9", "lat": 38.924954666666665, "fusion_lon": 0.0, "fusion_lat": 0.0, "type": "electric_scooter", "name": "1a78961fe41ae8ef6c3801c01c735ea9", "is_disabled": 0, "rental_uris": {"ios": "https://dc.lft.to/lastmile_qr_scan", "android": "https://dc.lft.to/lastmile_qr_scan"}, "is_reserved": 0}, {"lon": -77.0209605, "bike_id": "62317b3b21639caed3ccb3ffacec5f51", "lat": 38.909783833333336, "fusion_lon": 0.0, "fusion_lat": 0.0, "type": "electric_scooter", "name": "62317b3b21639caed3ccb3ffacec5f51", "is_disabled": 0, "rental_uris": {"ios": "https://dc.lft.to/lastmile_qr_scan", "android": "https://dc.lft.to/lastmile_qr_scan"}, "is_reserved": 0}, {"lon": -76.9923465, "bike_id": "79fb2ecf6f2e2688b930f11008d284f9", "lat": 38.9079275, "fusion_lon": 0.0, "fusion_lat": 0.0, "type": "electric_scooter", "name": "79fb2ecf6f2e2688b930f11008d284f9", "is_disabled": 0, "rental_uris": {"ios": "https://dc.lft.to/lastmile_qr_scan", "android": "https://dc.lft.to/lastmile_qr_scan"}, "is_reserved": 0}, {"lon": -77.04156866666666, "bike_id": "529a81aa60cac762b00bd514129c7814", "lat": 38.9230435, "fusion_lon": 0.0, "fusion_lat": 0.0, "type": "electric_scooter", "name": "529a81aa60cac762b00bd514129c7814", "is_disabled": 0, "rental_uris": {"ios": "https://dc.lft.to/lastmile_qr_scan", "android": "https://dc.lft.to/lastmile_qr_scan"}, "is_reserved": 0}, {"lon": -77.02300016666666, "bike_id": "85fc71962a04e74c5c762cab7daf355f", "lat": 38.9267385, "fusion_lon": 0.0, "fusion_lat": 0.0, "type": "electric_scooter", "name": "85fc71962a04e74c5c762cab7daf355f", "is_disabled": 0, "rental_uris": {"ios": "https://dc.lft.to/lastmile_qr_scan", "android": "https://dc.lft.to/lastmile_qr_scan"}, "is_reserved": 0}, {"lon": -77.02169966666666, "bike_id": "609ac3d1040709bc529e17496618867c", "lat": 38.942956333333335, "fusion_lon": 0.0, "fusion_lat": 0.0, "type": "electric_scooter", "name": "609ac3d1040709bc529e17496618867c", "is_disabled": 0, "rental_uris": {"ios": "https://dc.lft.to/lastmile_qr_scan", "android": "https://dc.lft.to/lastmile_qr_scan"}, "is_reserved": 0}, {"lon": -77.02472333333333, "bike_id": "c25a22462f93a5cb1bb367843422558d", "lat": 38.920006, "fusion_lon": 0.0, "fusion_lat": 0.0, "type": "electric_scooter", "name": "c25a22462f93a5cb1bb367843422558d", "is_disabled": 0, "rental_uris": {"ios": "https://dc.lft.to/lastmile_qr_scan", "android": "https://dc.lft.to/lastmile_qr_scan"}, "is_reserved": 0}, {"lon": -77.0464155, "bike_id": "70e9e8fc3221ba27da224865205c7d8f", "lat": 38.91478466666667, "fusion_lon": 0.0, "fusion_lat": 0.0, "type": "electric_scooter", "name": "70e9e8fc3221ba27da224865205c7d8f", "is_disabled": 0, "rental_uris": {"ios": "https://dc.lft.to/lastmile_qr_scan", "android": "https://dc.lft.to/lastmile_qr_scan"}, "is_reserved": 0}, {"lon": -76.9463335, "bike_id": "43ba46be20a2973acce8cfdb40a4b271", "lat": 38.89832783333333, "fusion_lon": 0.0, "fusion_lat": 0.0, "type": "electric_scooter", "name": "43ba46be20a2973acce8cfdb40a4b271", "is_disabled": 0, "rental_uris": {"ios": "https://dc.lft.to/lastmile_qr_scan", "android": "https://dc.lft.to/lastmile_qr_scan"}, "is_reserved": 0}, {"lon": -77.0562135, "bike_id": "b286bc2d91fe7ab291611900cc3eb312", "lat": 38.92343666666667, "fusion_lon": 0.0, "fusion_lat": 0.0, "type": "electric_scooter", "name": "b286bc2d91fe7ab291611900cc3eb312", "is_disabled": 0, "rental_uris": {"ios": "https://dc.lft.to/lastmile_qr_scan", "android": "https://dc.lft.to/lastmile_qr_scan"}, "is_reserved": 0}, {"lon": -77.00931083333333, "bike_id": "4d6c80e1e169d22d3d6168b8128f73ad", "lat": 38.896472, "fusion_lon": 0.0, "fusion_lat": 0.0, "type": "electric_scooter", "name": "4d6c80e1e169d22d3d6168b8128f73ad", "is_disabled": 0, "rental_uris": {"ios": "https://dc.lft.to/lastmile_qr_scan", "android": "https://dc.lft.to/lastmile_qr_scan"}, "is_reserved": 0}, {"lon": -77.045572, "bike_id": "bb18e1d1bc477ab4112abfeb7e267f93", "lat": 38.91931483333333, "fusion_lon": 0.0, "fusion_lat": 0.0, "type": "electric_scooter", "name": "bb18e1d1bc477ab4112abfeb7e267f93", "is_disabled": 0, "rental_uris": {"ios": "https://dc.lft.to/lastmile_qr_scan", "android": "https://dc.lft.to/lastmile_qr_scan"}, "is_reserved": 0}, {"lon": -76.96516466666667, "bike_id": "4bd7f1798fb32c90dd784d5e867892b5", "lat": 38.874768333333336, "fusion_lon": 0.0, "fusion_lat": 0.0, "type": "electric_scooter", "name": "4bd7f1798fb32c90dd784d5e867892b5", "is_disabled": 0, "rental_uris": {"ios": "https://dc.lft.to/lastmile_qr_scan", "android": "https://dc.lft.to/lastmile_qr_scan"}, "is_reserved": 0}, {"lon": -77.0217425, "bike_id": "2db29c3a1e19561302de7df27394ff64", "lat": 38.91994583333334, "fusion_lon": 0.0, "fusion_lat": 0.0, "type": "electric_scooter", "name": "2db29c3a1e19561302de7df27394ff64", "is_disabled": 0, "rental_uris": {"ios": "https://dc.lft.to/lastmile_qr_scan", "android": "https://dc.lft.to/lastmile_qr_scan"}, "is_reserved": 0}, {"lon": -77.076727, "bike_id": "68452753c3f95541fb87dabe6a05e126", "lat": 38.94326816666667, "fusion_lon": 0.0, "fusion_lat": 0.0, "type": "electric_scooter", "name": "68452753c3f95541fb87dabe6a05e126", "is_disabled": 0, "rental_uris": {"ios": "https://dc.lft.to/lastmile_qr_scan", "android": "https://dc.lft.to/lastmile_qr_scan"}, "is_reserved": 0}, {"lon": -77.0320785, "bike_id": "87a3a13e6f8da7d88732d83d921290f1", "lat": 38.90001433333333, "fusion_lon": 0.0, "fusion_lat": 0.0, "type": "electric_scooter", "name": "87a3a13e6f8da7d88732d83d921290f1", "is_disabled": 0, "rental_uris": {"ios": "https://dc.lft.to/lastmile_qr_scan", "android": "https://dc.lft.to/lastmile_qr_scan"}, "is_reserved": 0}, {"lon": -77.0335335, "bike_id": "6ecefaaff3c64b5aa70a2be2b61d5fa6", "lat": 38.9016285, "fusion_lon": 0.0, "fusion_lat": 0.0, "type": "electric_scooter", "name": "6ecefaaff3c64b5aa70a2be2b61d5fa6", "is_disabled": 0, "rental_uris": {"ios": "https://dc.lft.to/lastmile_qr_scan", "android": "https://dc.lft.to/lastmile_qr_scan"}, "is_reserved": 0}, {"lon": -77.0327745, "bike_id": "fa7713550ec16557490929e1eabfcadc", "lat": 38.92749516666667, "fusion_lon": 0.0, "fusion_lat": 0.0, "type": "electric_scooter", "name": "fa7713550ec16557490929e1eabfcadc", "is_disabled": 0, "rental_uris": {"ios": "https://dc.lft.to/lastmile_qr_scan", "android": "https://dc.lft.to/lastmile_qr_scan"}, "is_reserved": 0}, {"lon": -76.99201483333333, "bike_id": "bc8759172d05871c6ac0c58ad58e8f79", "lat": 38.8983145, "fusion_lon": 0.0, "fusion_lat": 0.0, "type": "electric_scooter", "name": "bc8759172d05871c6ac0c58ad58e8f79", "is_disabled": 0, "rental_uris": {"ios": "https://dc.lft.to/lastmile_qr_scan", "android": "https://dc.lft.to/lastmile_qr_scan"}, "is_reserved": 0}, {"lon": -77.01226066666666, "bike_id": "06c683fd22a70227be181edce37f4ed6", "lat": 38.900615333333334, "fusion_lon": 0.0, "fusion_lat": 0.0, "type": "electric_scooter", "name": "06c683fd22a70227be181edce37f4ed6", "is_disabled": 0, "rental_uris": {"ios": "https://dc.lft.to/lastmile_qr_scan", "android": "https://dc.lft.to/lastmile_qr_scan"}, "is_reserved": 0}, {"lon": -77.03987483333333, "bike_id": "88ce9d2ea3955105a39cbc35a955263c", "lat": 38.91342433333333, "fusion_lon": 0.0, "fusion_lat": 0.0, "type": "electric_scooter", "name": "88ce9d2ea3955105a39cbc35a955263c", "is_disabled": 0, "rental_uris": {"ios": "https://dc.lft.to/lastmile_qr_scan", "android": "https://dc.lft.to/lastmile_qr_scan"}, "is_reserved": 0}, {"lon": -77.0223775, "bike_id": "ba23702b2c0c1be33de96590be0ba616", "lat": 38.922465, "fusion_lon": 0.0, "fusion_lat": 0.0, "type": "electric_scooter", "name": "ba23702b2c0c1be33de96590be0ba616", "is_disabled": 0, "rental_uris": {"ios": "https://dc.lft.to/lastmile_qr_scan", "android": "https://dc.lft.to/lastmile_qr_scan"}, "is_reserved": 0}, {"lon": -77.05229916666667, "bike_id": "f8187b5fc7d4085b8520354e6184a5de", "lat": 38.92464966666667, "fusion_lon": 0.0, "fusion_lat": 0.0, "type": "electric_scooter", "name": "f8187b5fc7d4085b8520354e6184a5de", "is_disabled": 0, "rental_uris": {"ios": "https://dc.lft.to/lastmile_qr_scan", "android": "https://dc.lft.to/lastmile_qr_scan"}, "is_reserved": 0}, {"lon": -77.01535516666667, "bike_id": "235ed60d5b27582507e616b1f90b589e", "lat": 38.8873985, "fusion_lon": 0.0, "fusion_lat": 0.0, "type": "electric_scooter", "name": "235ed60d5b27582507e616b1f90b589e", "is_disabled": 0, "rental_uris": {"ios": "https://dc.lft.to/lastmile_qr_scan", "android": "https://dc.lft.to/lastmile_qr_scan"}, "is_reserved": 0}, {"lon": -77.033227, "bike_id": "16ccc9a021441e271b587808744630bf", "lat": 38.93900466666667, "fusion_lon": 0.0, "fusion_lat": 0.0, "type": "electric_scooter", "name": "16ccc9a021441e271b587808744630bf", "is_disabled": 0, "rental_uris": {"ios": "https://dc.lft.to/lastmile_qr_scan", "android": "https://dc.lft.to/lastmile_qr_scan"}, "is_reserved": 0}, {"lon": -77.02080583333333, "bike_id": "e0f53174dd4fcb108b173e1aeb7209d0", "lat": 38.902521666666665, "fusion_lon": 0.0, "fusion_lat": 0.0, "type": "electric_scooter", "name": "e0f53174dd4fcb108b173e1aeb7209d0", "is_disabled": 0, "rental_uris": {"ios": "https://dc.lft.to/lastmile_qr_scan", "android": "https://dc.lft.to/lastmile_qr_scan"}, "is_reserved": 0}, {"lon": -77.0268065, "bike_id": "d5424fc140aad4f649de4a26d9d144ce", "lat": 38.912566, "fusion_lon": 0.0, "fusion_lat": 0.0, "type": "electric_scooter", "name": "d5424fc140aad4f649de4a26d9d144ce", "is_disabled": 0, "rental_uris": {"ios": "https://dc.lft.to/lastmile_qr_scan", "android": "https://dc.lft.to/lastmile_qr_scan"}, "is_reserved": 0}, {"lon": -77.03356816666667, "bike_id": "c21adf10d23dda0a970d2bdc134fa9ef", "lat": 38.935287, "fusion_lon": 0.0, "fusion_lat": 0.0, "type": "electric_scooter", "name": "c21adf10d23dda0a970d2bdc134fa9ef", "is_disabled": 0, "rental_uris": {"ios": "https://dc.lft.to/lastmile_qr_scan", "android": "https://dc.lft.to/lastmile_qr_scan"}, "is_reserved": 0}, {"lon": -76.96216333333334, "bike_id": "a9c7704716c6459b5905514926805d9b", "lat": 38.877803666666665, "fusion_lon": 0.0, "fusion_lat": 0.0, "type": "electric_scooter", "name": "a9c7704716c6459b5905514926805d9b", "is_disabled": 0, "rental_uris": {"ios": "https://dc.lft.to/lastmile_qr_scan", "android": "https://dc.lft.to/lastmile_qr_scan"}, "is_reserved": 0}, {"lon": -77.02277633333334, "bike_id": "c202bda9ccdda105531c0ae9101818b2", "lat": 38.92688833333333, "fusion_lon": 0.0, "fusion_lat": 0.0, "type": "electric_scooter", "name": "c202bda9ccdda105531c0ae9101818b2", "is_disabled": 0, "rental_uris": {"ios": "https://dc.lft.to/lastmile_qr_scan", "android": "https://dc.lft.to/lastmile_qr_scan"}, "is_reserved": 0}, {"lon": -77.02393983333333, "bike_id": "9d79d1817ec7fb4b7531d9585edbec14", "lat": 38.9207765, "fusion_lon": 0.0, "fusion_lat": 0.0, "type": "electric_scooter", "name": "9d79d1817ec7fb4b7531d9585edbec14", "is_disabled": 0, "rental_uris": {"ios": "https://dc.lft.to/lastmile_qr_scan", "android": "https://dc.lft.to/lastmile_qr_scan"}, "is_reserved": 0}, {"lon": -77.0449685, "bike_id": "bdc74f373e02bda771ba1fac5399ff2c", "lat": 38.90099883333333, "fusion_lon": 0.0, "fusion_lat": 0.0, "type": "electric_scooter", "name": "bdc74f373e02bda771ba1fac5399ff2c", "is_disabled": 0, "rental_uris": {"ios": "https://dc.lft.to/lastmile_qr_scan", "android": "https://dc.lft.to/lastmile_qr_scan"}, "is_reserved": 0}, {"lon": -77.02154483333334, "bike_id": "b8901a94fccfb1b72d5b6a855ee33bea", "lat": 38.89755066666667, "fusion_lon": 0.0, "fusion_lat": 0.0, "type": "electric_scooter", "name": "b8901a94fccfb1b72d5b6a855ee33bea", "is_disabled": 0, "rental_uris": {"ios": "https://dc.lft.to/lastmile_qr_scan", "android": "https://dc.lft.to/lastmile_qr_scan"}, "is_reserved": 0}, {"lon": -77.051281, "bike_id": "9f77a7b13956fa3398c287198f665f09", "lat": 38.92364516666667, "fusion_lon": 0.0, "fusion_lat": 0.0, "type": "electric_scooter", "name": "9f77a7b13956fa3398c287198f665f09", "is_disabled": 0, "rental_uris": {"ios": "https://dc.lft.to/lastmile_qr_scan", "android": "https://dc.lft.to/lastmile_qr_scan"}, "is_reserved": 0}, {"lon": -77.00950633333333, "bike_id": "2750d46f00e0ec80c8d47c340efdd506", "lat": 38.87631016666667, "fusion_lon": 0.0, "fusion_lat": 0.0, "type": "electric_scooter", "name": "2750d46f00e0ec80c8d47c340efdd506", "is_disabled": 0, "rental_uris": {"ios": "https://dc.lft.to/lastmile_qr_scan", "android": "https://dc.lft.to/lastmile_qr_scan"}, "is_reserved": 0}, {"lon": -76.98008183333333, "bike_id": "6eb0a5c4e7735b6f4291685ec0c27a0f", "lat": 38.90432966666667, "fusion_lon": 0.0, "fusion_lat": 0.0, "type": "electric_scooter", "name": "6eb0a5c4e7735b6f4291685ec0c27a0f", "is_disabled": 0, "rental_uris": {"ios": "https://dc.lft.to/lastmile_qr_scan", "android": "https://dc.lft.to/lastmile_qr_scan"}, "is_reserved": 0}, {"lon": -76.98109683333334, "bike_id": "a6c7f18f0dc5ab5c75dc03257a16bf49", "lat": 38.904068, "fusion_lon": 0.0, "fusion_lat": 0.0, "type": "electric_scooter", "name": "a6c7f18f0dc5ab5c75dc03257a16bf49", "is_disabled": 0, "rental_uris": {"ios": "https://dc.lft.to/lastmile_qr_scan", "android": "https://dc.lft.to/lastmile_qr_scan"}, "is_reserved": 0}, {"lon": -77.05508766666667, "bike_id": "599c8dee6efb3b5f91e376100478f04b", "lat": 38.904425833333335, "fusion_lon": 0.0, "fusion_lat": 0.0, "type": "electric_scooter", "name": "599c8dee6efb3b5f91e376100478f04b", "is_disabled": 0, "rental_uris": {"ios": "https://dc.lft.to/lastmile_qr_scan", "android": "https://dc.lft.to/lastmile_qr_scan"}, "is_reserved": 0}, {"lon": -77.04340166666667, "bike_id": "ad4aa8e1c87734d5fb00c755e8f9a06d", "lat": 38.922001333333334, "fusion_lon": 0.0, "fusion_lat": 0.0, "type": "electric_scooter", "name": "ad4aa8e1c87734d5fb00c755e8f9a06d", "is_disabled": 0, "rental_uris": {"ios": "https://dc.lft.to/lastmile_qr_scan", "android": "https://dc.lft.to/lastmile_qr_scan"}, "is_reserved": 0}, {"lon": -77.00369216666667, "bike_id": "b8922e13f85ab415c4d76664eb168e15", "lat": 38.89935083333334, "fusion_lon": 0.0, "fusion_lat": 0.0, "type": "electric_scooter", "name": "b8922e13f85ab415c4d76664eb168e15", "is_disabled": 0, "rental_uris": {"ios": "https://dc.lft.to/lastmile_qr_scan", "android": "https://dc.lft.to/lastmile_qr_scan"}, "is_reserved": 0}, {"lon": -77.02951283333333, "bike_id": "bdf7b07d220af8a3edb1a180cc12f4cd", "lat": 38.92174933333333, "fusion_lon": 0.0, "fusion_lat": 0.0, "type": "electric_scooter", "name": "bdf7b07d220af8a3edb1a180cc12f4cd", "is_disabled": 0, "rental_uris": {"ios": "https://dc.lft.to/lastmile_qr_scan", "android": "https://dc.lft.to/lastmile_qr_scan"}, "is_reserved": 0}, {"lon": -77.0284065, "bike_id": "daa423101957a40d32fabd131088739c", "lat": 38.89760316666667, "fusion_lon": 0.0, "fusion_lat": 0.0, "type": "electric_bike", "name": "daa423101957a40d32fabd131088739c", "is_disabled": 0, "rental_uris": {"ios": "https://dc.lft.to/lastmile_qr_scan", "android": "https://dc.lft.to/lastmile_qr_scan"}, "is_reserved": 0}, {"lon": -76.99865933333334, "bike_id": "15db436674434e7b10002af3524f805b", "lat": 38.90246833333333, "fusion_lon": 0.0, "fusion_lat": 0.0, "type": "electric_scooter", "name": "15db436674434e7b10002af3524f805b", "is_disabled": 0, "rental_uris": {"ios": "https://dc.lft.to/lastmile_qr_scan", "android": "https://dc.lft.to/lastmile_qr_scan"}, "is_reserved": 0}, {"lon": -76.9884695, "bike_id": "0be814cec4cf49801d6840ba7b5f54a9", "lat": 38.90131683333333, "fusion_lon": 0.0, "fusion_lat": 0.0, "type": "electric_scooter", "name": "0be814cec4cf49801d6840ba7b5f54a9", "is_disabled": 0, "rental_uris": {"ios": "https://dc.lft.to/lastmile_qr_scan", "android": "https://dc.lft.to/lastmile_qr_scan"}, "is_reserved": 0}, {"lon": -77.06626033333333, "bike_id": "5a72363188e418529340b9cb9f2f7541", "lat": 38.9059825, "fusion_lon": 0.0, "fusion_lat": 0.0, "type": "electric_scooter", "name": "5a72363188e418529340b9cb9f2f7541", "is_disabled": 0, "rental_uris": {"ios": "https://dc.lft.to/lastmile_qr_scan", "android": "https://dc.lft.to/lastmile_qr_scan"}, "is_reserved": 0}, {"lon": -77.0324685, "bike_id": "fdeaedd13377a92f9d306b9a0fc01423", "lat": 38.927695, "fusion_lon": 0.0, "fusion_lat": 0.0, "type": "electric_scooter", "name": "fdeaedd13377a92f9d306b9a0fc01423", "is_disabled": 0, "rental_uris": {"ios": "https://dc.lft.to/lastmile_qr_scan", "android": "https://dc.lft.to/lastmile_qr_scan"}, "is_reserved": 0}, {"lon": -77.024049, "bike_id": "0520b1d59e2b3396423580deb254c113", "lat": 38.92080516666667, "fusion_lon": 0.0, "fusion_lat": 0.0, "type": "electric_scooter", "name": "0520b1d59e2b3396423580deb254c113", "is_disabled": 0, "rental_uris": {"ios": "https://dc.lft.to/lastmile_qr_scan", "android": "https://dc.lft.to/lastmile_qr_scan"}, "is_reserved": 0}, {"lon": -76.997015, "bike_id": "8c5ea3aa42f993d2293a76187b3bb009", "lat": 38.84433533333333, "fusion_lon": 0.0, "fusion_lat": 0.0, "type": "electric_scooter", "name": "8c5ea3aa42f993d2293a76187b3bb009", "is_disabled": 0, "rental_uris": {"ios": "https://dc.lft.to/lastmile_qr_scan", "android": "https://dc.lft.to/lastmile_qr_scan"}, "is_reserved": 0}, {"lon": -77.02622933333333, "bike_id": "7bf141f281add32460b1fd4ae8da5758", "lat": 38.900849666666666, "fusion_lon": 0.0, "fusion_lat": 0.0, "type": "electric_scooter", "name": "7bf141f281add32460b1fd4ae8da5758", "is_disabled": 0, "rental_uris": {"ios": "https://dc.lft.to/lastmile_qr_scan", "android": "https://dc.lft.to/lastmile_qr_scan"}, "is_reserved": 0}, {"lon": -77.02516916666667, "bike_id": "a6bf31a77c1cb91516ff1576e1998eb7", "lat": 38.94206466666667, "fusion_lon": 0.0, "fusion_lat": 0.0, "type": "electric_scooter", "name": "a6bf31a77c1cb91516ff1576e1998eb7", "is_disabled": 0, "rental_uris": {"ios": "https://dc.lft.to/lastmile_qr_scan", "android": "https://dc.lft.to/lastmile_qr_scan"}, "is_reserved": 0}, {"lon": -77.01748133333334, "bike_id": "5d744078db7d4c1eab8f548339a02f30", "lat": 38.8820505, "fusion_lon": 0.0, "fusion_lat": 0.0, "type": "electric_scooter", "name": "5d744078db7d4c1eab8f548339a02f30", "is_disabled": 0, "rental_uris": {"ios": "https://dc.lft.to/lastmile_qr_scan", "android": "https://dc.lft.to/lastmile_qr_scan"}, "is_reserved": 0}, {"lon": -77.00537983333334, "bike_id": "3a2945eb180d9aaaa7fba2dcb7fd42b3", "lat": 38.875462666666664, "fusion_lon": 0.0, "fusion_lat": 0.0, "type": "electric_scooter", "name": "3a2945eb180d9aaaa7fba2dcb7fd42b3", "is_disabled": 0, "rental_uris": {"ios": "https://dc.lft.to/lastmile_qr_scan", "android": "https://dc.lft.to/lastmile_qr_scan"}, "is_reserved": 0}, {"lon": -77.02170133333334, "bike_id": "6e1edeec73a9bef24988ef88b01b14b6", "lat": 38.919896666666666, "fusion_lon": 0.0, "fusion_lat": 0.0, "type": "electric_scooter", "name": "6e1edeec73a9bef24988ef88b01b14b6", "is_disabled": 0, "rental_uris": {"ios": "https://dc.lft.to/lastmile_qr_scan", "android": "https://dc.lft.to/lastmile_qr_scan"}, "is_reserved": 0}, {"lon": -77.03834433333333, "bike_id": "89ec57a623bcb58646017310798d677f", "lat": 38.9112155, "fusion_lon": 0.0, "fusion_lat": 0.0, "type": "electric_scooter", "name": "89ec57a623bcb58646017310798d677f", "is_disabled": 0, "rental_uris": {"ios": "https://dc.lft.to/lastmile_qr_scan", "android": "https://dc.lft.to/lastmile_qr_scan"}, "is_reserved": 0}, {"lon": -77.0320375, "bike_id": "24f1d1634d6be0302fecc7551b5ee35f", "lat": 38.9098895, "fusion_lon": 0.0, "fusion_lat": 0.0, "type": "electric_scooter", "name": "24f1d1634d6be0302fecc7551b5ee35f", "is_disabled": 0, "rental_uris": {"ios": "https://dc.lft.to/lastmile_qr_scan", "android": "https://dc.lft.to/lastmile_qr_scan"}, "is_reserved": 0}, {"lon": -76.97888033333334, "bike_id": "fa6abb33133314ec5c31b1d581cc6631", "lat": 38.88542266666666, "fusion_lon": 0.0, "fusion_lat": 0.0, "type": "electric_scooter", "name": "fa6abb33133314ec5c31b1d581cc6631", "is_disabled": 0, "rental_uris": {"ios": "https://dc.lft.to/lastmile_qr_scan", "android": "https://dc.lft.to/lastmile_qr_scan"}, "is_reserved": 0}, {"lon": -76.98559283333333, "bike_id": "f116cf97049ac77c5022b2a35aca2931", "lat": 38.907165666666664, "fusion_lon": 0.0, "fusion_lat": 0.0, "type": "electric_scooter", "name": "f116cf97049ac77c5022b2a35aca2931", "is_disabled": 0, "rental_uris": {"ios": "https://dc.lft.to/lastmile_qr_scan", "android": "https://dc.lft.to/lastmile_qr_scan"}, "is_reserved": 0}, {"lon": -76.983371, "bike_id": "8c25f37bccb15e4442f1ec50a79a493c", "lat": 38.895461166666664, "fusion_lon": 0.0, "fusion_lat": 0.0, "type": "electric_scooter", "name": "8c25f37bccb15e4442f1ec50a79a493c", "is_disabled": 0, "rental_uris": {"ios": "https://dc.lft.to/lastmile_qr_scan", "android": "https://dc.lft.to/lastmile_qr_scan"}, "is_reserved": 0}, {"lon": -77.03157733333333, "bike_id": "7a5f9dfcc7fd1602cb6c8c1a4d22cb43", "lat": 38.89226083333333, "fusion_lon": 0.0, "fusion_lat": 0.0, "type": "electric_scooter", "name": "7a5f9dfcc7fd1602cb6c8c1a4d22cb43", "is_disabled": 0, "rental_uris": {"ios": "https://dc.lft.to/lastmile_qr_scan", "android": "https://dc.lft.to/lastmile_qr_scan"}, "is_reserved": 0}, {"lon": -77.02967366666667, "bike_id": "e33b4834742b41bf127de61775d04cb8", "lat": 38.91273866666667, "fusion_lon": 0.0, "fusion_lat": 0.0, "type": "electric_scooter", "name": "e33b4834742b41bf127de61775d04cb8", "is_disabled": 0, "rental_uris": {"ios": "https://dc.lft.to/lastmile_qr_scan", "android": "https://dc.lft.to/lastmile_qr_scan"}, "is_reserved": 0}, {"lon": -76.97972666666666, "bike_id": "c0162d8a8d463c4a6e1e065f289637d6", "lat": 38.8995235, "fusion_lon": 0.0, "fusion_lat": 0.0, "type": "electric_scooter", "name": "c0162d8a8d463c4a6e1e065f289637d6", "is_disabled": 0, "rental_uris": {"ios": "https://dc.lft.to/lastmile_qr_scan", "android": "https://dc.lft.to/lastmile_qr_scan"}, "is_reserved": 0},