{"data": {"bikes": [{"fusion_lat": 0.0, "fusion_lon": 0.0, "lat": 38.915904, "type": "electric_scooter", "rental_uris": {"android": "https://dc.lft.to/lastmile_qr_scan", "ios": "https://dc.lft.to/lastmile_qr_scan"}, "is_reserved": 0, "lon": -77.02299816666667, "name": "b248909e7518655e0529cacf39dea7f5", "bike_id": "b248909e7518655e0529cacf39dea7f5", "is_disabled": 0}, {"fusion_lat": 0.0, "fusion_lon": 0.0, "lat": 38.9196195, "type": "electric_scooter", "rental_uris": {"android": "https://dc.lft.to/lastmile_qr_scan", "ios": "https://dc.lft.to/lastmile_qr_scan"}, "is_reserved": 0, "lon": -77.027125, "name": "e9eee4efe8d70bb4ec1283c6a6136445", "bike_id": "e9eee4efe8d70bb4ec1283c6a6136445", "is_disabled": 0}, {"fusion_lat": 0.0, "fusion_lon": 0.0, "lat": 38.9655675, "type": "electric_scooter", "rental_uris": {"android": "https://dc.lft.to/lastmile_qr_scan", "ios": "https://dc.lft.to/lastmile_qr_scan"}, "is_reserved": 0, "lon": -77.00202116666667, "name": "f0acd7502a6bb8cae4d75dcf757f19f6", "bike_id": "f0acd7502a6bb8cae4d75dcf757f19f6", "is_disabled": 0}, {"fusion_lat": 0.0, "fusion_lon": 0.0, "lat": 38.946309666666664, "type": "electric_scooter", "rental_uris": {"android": "https://dc.lft.to/lastmile_qr_scan", "ios": "https://dc.lft.to/lastmile_qr_scan"}, "is_reserved": 0, "lon": -77.01841516666667, "name": "59fde38a7c9801062200865072a10d46", "bike_id": "59fde38a7c9801062200865072a10d46", "is_disabled": 0}, {"fusion_lat": 0.0, "fusion_lon": 0.0, "lat": 38.907099333333335, "type": "electric_scooter", "rental_uris": {"android": "https://dc.lft.to/lastmile_qr_scan", "ios": "https://dc.lft.to/lastmile_qr_scan"}, "is_reserved": 0, "lon": -77.04589783333333, "name": "7dfc249bccfd1cffdd8dca4a4a5d846c", "bike_id": "7dfc249bccfd1cffdd8dca4a4a5d846c", "is_disabled": 0}, {"fusion_lat": 0.0, "fusion_lon": 0.0, "lat": 38.894409333333336, "type": "electric_scooter", "rental_uris": {"android": "https://dc.lft.to/lastmile_qr_scan", "ios": "https://dc.lft.to/lastmile_qr_scan"}, "is_reserved": 0, "lon": -77.02689866666667, "name": "bfd99f6e77476643b55a30d900ab462a", "bike_id": "bfd99f6e77476643b55a30d900ab462a", "is_disabled": 0}, {"fusion_lat": 0.0, "fusion_lon": 0.0, "lat": 38.90012466666667, "type": "electric_scooter", "rental_uris": {"android": "https://dc.lft.to/lastmile_qr_scan", "ios": "https://dc.lft.to/lastmile_qr_scan"}, "is_reserved": 0, "lon": -77.044739, "name": "67674eda3e79ece2ede4e6896cd3c29e", "bike_id": "67674eda3e79ece2ede4e6896cd3c29e", "is_disabled": 0}, {"fusion_lat": 0.0, "fusion_lon": 0.0, "lat": 38.93361516666667, "type": "electric_scooter", "rental_uris": {"android": "https://dc.lft.to/lastmile_qr_scan", "ios": "https://dc.lft.to/lastmile_qr_scan"}, "is_reserved": 0, "lon": -77.02736816666666, "name": "62582c3e9f3f3a9d4dc5c7127e658f37", "bike_id": "62582c3e9f3f3a9d4dc5c7127e658f37", "is_disabled": 0}, {"fusion_lat": 0.0, "fusion_lon": 0.0, "lat": 38.933719333333336, "type": "electric_scooter", "rental_uris": {"android": "https://dc.lft.to/lastmile_qr_scan", "ios": "https://dc.lft.to/lastmile_qr_scan"}, "is_reserved": 0, "lon": -77.07247716666667, "name": "1e2b96fc9245e7536bc68af1c97dd18f", "bike_id": "1e2b96fc9245e7536bc68af1c97dd18f", "is_disabled": 0}, {"fusion_lat": 0.0, "fusion_lon": 0.0, "lat": 38.93373316666667, "type": "electric_scooter", "rental_uris": {"android": "https://dc.lft.to/lastmile_qr_scan", "ios": "https://dc.lft.to/lastmile_qr_scan"}, "is_reserved": 0, "lon": -77.05722716666666, "name": "3bd6f7aeb54ef105975856cc31493d7e", "bike_id": "3bd6f7aeb54ef105975856cc31493d7e", "is_disabled": 0}, {"fusion_lat": 0.0, "fusion_lon": 0.0, "lat": 38.9014745, "type": "electric_scooter", "rental_uris": {"android": "https://dc.lft.to/lastmile_qr_scan", "ios": "https://dc.lft.to/lastmile_qr_scan"}, "is_reserved": 0, "lon": -77.02930983333333, "name": "81082c1dbb44b7bc5075625f8d31031c", "bike_id": "81082c1dbb44b7bc5075625f8d31031c", "is_disabled": 0}, {"fusion_lat": 0.0, "fusion_lon": 0.0, "lat": 38.916222833333336, "type": "electric_scooter", "rental_uris": {"android": "https://dc.lft.to/lastmile_qr_scan", "ios": "https://dc.lft.to/lastmile_qr_scan"}, "is_reserved": 0, "lon": -77.02201516666666, "name": "1986f41dbd0e0d7b1166c3c494f3358f", "bike_id": "1986f41dbd0e0d7b1166c3c494f3358f", "is_disabled": 0}, {"fusion_lat": 0.0, "fusion_lon": 0.0, "lat": 38.8859905, "type": "electric_scooter", "rental_uris": {"android": "https://dc.lft.to/lastmile_qr_scan", "ios": "https://dc.lft.to/lastmile_qr_scan"}, "is_reserved": 0, "lon": -76.99791633333334, "name": "2a2b09aa95af2583aedd55ebbbfe39ac", "bike_id": "2a2b09aa95af2583aedd55ebbbfe39ac", "is_disabled": 0}, {"fusion_lat": 0.0, "fusion_lon": 0.0, "lat": 38.903858, "type": "electric_scooter", "rental_uris": {"android": "https://dc.lft.to/lastmile_qr_scan", "ios": "https://dc.lft.to/lastmile_qr_scan"}, "is_reserved": 0, "lon": -77.042167, "name": "54112f122cd2686503bdded63d606a44", "bike_id": "54112f122cd2686503bdded63d606a44", "is_disabled": 0}, {"fusion_lat": 0.0, "fusion_lon": 0.0, "lat": 38.91191833333333, "type": "electric_scooter", "rental_uris": {"android": "https://dc.lft.to/lastmile_qr_scan", "ios": "https://dc.lft.to/lastmile_qr_scan"}, "is_reserved": 0, "lon": -77.03831916666667, "name": "255ac6ae8259c95e8e9a5ab2e65d5257", "bike_id": "255ac6ae8259c95e8e9a5ab2e65d5257", "is_disabled": 0}, {"fusion_lat": 0.0, "fusion_lon": 0.0, "lat": 38.934606, "type": "electric_scooter", "rental_uris": {"android": "https://dc.lft.to/lastmile_qr_scan", "ios": "https://dc.lft.to/lastmile_qr_scan"}, "is_reserved": 0, "lon": -77.04539883333334, "name": "c57ea8f9e6a6cf855496ce071d8a547f", "bike_id": "c57ea8f9e6a6cf855496ce071d8a547f", "is_disabled": 0}, {"fusion_lat": 0.0, "fusion_lon": 0.0, "lat": 38.92257983333333, "type": "electric_scooter", "rental_uris": {"android": "https://dc.lft.to/lastmile_qr_scan", "ios": "https://dc.lft.to/lastmile_qr_scan"}, "is_reserved": 0, "lon": -77.042164, "name": "59e94195085aa858c9a7bb6ef5555bef", "bike_id": "59e94195085aa858c9a7bb6ef5555bef", "is_disabled": 0}, {"fusion_lat": 0.0, "fusion_lon": 0.0, "lat": 38.907000333333336, "type": "electric_scooter", "rental_uris": {"android": "https://dc.lft.to/lastmile_qr_scan", "ios": "https://dc.lft.to/lastmile_qr_scan"}, "is_reserved": 0, "lon": -77.02394983333333, "name": "0771283983cf65ac52cab8f392c3aafc", "bike_id": "0771283983cf65ac52cab8f392c3aafc", "is_disabled": 0}, {"fusion_lat": 0.0, "fusion_lon": 0.0, "lat": 38.90038766666667, "type": "electric_bike", "rental_uris": {"android": "https://dc.lft.to/lastmile_qr_scan", "ios": "https://dc.lft.to/lastmile_qr_scan"}, "is_reserved": 0, "lon": -76.97221533333334, "name": "6e03311fddec50de034d6c36cd0aca8e", "bike_id": "6e03311fddec50de034d6c36cd0aca8e", "is_disabled": 0}, {"fusion_lat": 0.0, "fusion_lon": 0.0, "lat": 38.93837116666667, "type": "electric_scooter", "rental_uris": {"android": "https://dc.lft.to/lastmile_qr_scan", "ios": "https://dc.lft.to/lastmile_qr_scan"}, "is_reserved": 0, "lon": -77.0339095, "name": "03a1d3688cd8bda018a28e33cdbf097e", "bike_id": "03a1d3688cd8bda018a28e33cdbf097e", "is_disabled": 0}, {"fusion_lat": 0.0, "fusion_lon": 0.0, "lat": 38.91821816666667, "type": "electric_scooter", "rental_uris": {"android": "https://dc.lft.to/lastmile_qr_scan", "ios": "https://dc.lft.to/lastmile_qr_scan"}, "is_reserved": 0, "lon": -77.031618, "name": "87121f3505690fca1189463ac9042265", "bike_id": "87121f3505690fca1189463ac9042265", "is_disabled": 0}, {"fusion_lat": 0.0, "fusion_lon": 0.0, "lat": 38.89623066666667, "type": "electric_scooter", "rental_uris": {"android": "https://dc.lft.to/lastmile_qr_scan", "ios": "https://dc.lft.to/lastmile_qr_scan"}, "is_reserved": 0, "lon": -76.94762116666666, "name": "089bb4e57f8369168617fe54629650d5", "bike_id": "089bb4e57f8369168617fe54629650d5", "is_disabled": 0}, {"fusion_lat": 0.0, "fusion_lon": 0.0, "lat": 38.953301, "type": "electric_bike", "rental_uris": {"android": "https://dc.lft.to/lastmile_qr_scan", "ios": "https://dc.lft.to/lastmile_qr_scan"}, "is_reserved": 0, "lon": -76.982476, "name": "7e0f022a35e2f70ae9be9b1e4f6d9000", "bike_id": "7e0f022a35e2f70ae9be9b1e4f6d9000", "is_disabled": 0}, {"fusion_lat": 0.0, "fusion_lon": 0.0, "lat": 38.9107075, "type": "electric_scooter", "rental_uris": {"android": "https://dc.lft.to/lastmile_qr_scan", "ios": "https://dc.lft.to/lastmile_qr_scan"}, "is_reserved": 0, "lon": -77.03854183333333, "name": "10ddf28920b8adc2974cd1cf23b593cc", "bike_id": "10ddf28920b8adc2974cd1cf23b593cc", "is_disabled": 0}, {"fusion_lat": 0.0, "fusion_lon": 0.0, "lat": 38.89605183333333, "type": "electric_scooter", "rental_uris": {"android": "https://dc.lft.to/lastmile_qr_scan", "ios": "https://dc.lft.to/lastmile_qr_scan"}, "is_reserved": 0, "lon": -77.02775616666666, "name": "3fa473c66b08bb57dc3dd7c2a47bb1e2", "bike_id": "3fa473c66b08bb57dc3dd7c2a47bb1e2", "is_disabled": 0}, {"fusion_lat": 0.0, "fusion_lon": 0.0, "lat": 38.88661666666667, "type": "electric_scooter", "rental_uris": {"android": "https://dc.lft.to/lastmile_qr_scan", "ios": "https://dc.lft.to/lastmile_qr_scan"}, "is_reserved": 0, "lon": -77.00110233333334, "name": "6f072213fe18b2cc3bd5fb2b635a08ed", "bike_id": "6f072213fe18b2cc3bd5fb2b635a08ed", "is_disabled": 0}, {"fusion_lat": 0.0, "fusion_lon": 0.0, "lat": 38.896045, "type": "electric_scooter", "rental_uris": {"android": "https://dc.lft.to/lastmile_qr_scan", "ios": "https://dc.lft.to/lastmile_qr_scan"}, "is_reserved": 0, "lon": -77.05437716666667, "name": "1f839ad3b355c8952bffed9c1dd3b7cf", "bike_id": "1f839ad3b355c8952bffed9c1dd3b7cf", "is_disabled": 0}, {"fusion_lat": 0.0, "fusion_lon": 0.0, "lat": 38.913275, "type": "electric_scooter", "rental_uris": {"android": "https://dc.lft.to/lastmile_qr_scan", "ios": "https://dc.lft.to/lastmile_qr_scan"}, "is_reserved": 0, "lon": -77.03182433333333, "name": "40a027e6fe4bec730f9f2ccfad353845", "bike_id": "40a027e6fe4bec730f9f2ccfad353845", "is_disabled": 0}, {"fusion_lat": 0.0, "fusion_lon": 0.0, "lat": 38.874773833333336, "type": "electric_bike", "rental_uris": {"android": "https://dc.lft.to/lastmile_qr_scan", "ios": "https://dc.lft.to/lastmile_qr_scan"}, "is_reserved": 0, "lon": -76.96528483333333, "name": "bc07e9c30c4ee89481b3b843ab101855", "bike_id": "bc07e9c30c4ee89481b3b843ab101855", "is_disabled": 0}, {"fusion_lat": 0.0, "fusion_lon": 0.0, "lat": 38.914848666666664, "type": "electric_scooter", "rental_uris": {"android": "https://dc.lft.to/lastmile_qr_scan", "ios": "https://dc.lft.to/lastmile_qr_scan"}, "is_reserved": 0, "lon": -77.02187016666667, "name": "670edc9baa95112e2e0e5cc8153a1e30", "bike_id": "670edc9baa95112e2e0e5cc8153a1e30", "is_disabled": 0}, {"fusion_lat": 0.0, "fusion_lon": 0.0, "lat": 38.956387666666664, "type": "electric_scooter", "rental_uris": {"android": "https://dc.lft.to/lastmile_qr_scan", "ios": "https://dc.lft.to/lastmile_qr_scan"}, "is_reserved": 0, "lon": -77.01159183333333, "name": "3eaed83d29727ccc5ebf1d4336df1161", "bike_id": "3eaed83d29727ccc5ebf1d4336df1161", "is_disabled": 0}, {"fusion_lat": 0.0, "fusion_lon": 0.0, "lat": 38.90219233333333, "type": "electric_scooter", "rental_uris": {"android": "https://dc.lft.to/lastmile_qr_scan", "ios": "https://dc.lft.to/lastmile_qr_scan"}, "is_reserved": 0, "lon": -77.0210155, "name": "02b51022e831a9b2f8df464a00c86051", "bike_id": "02b51022e831a9b2f8df464a00c86051", "is_disabled": 0}, {"fusion_lat": 0.0, "fusion_lon": 0.0, "lat": 38.909159833333334, "type": "electric_scooter", "rental_uris": {"android": "https://dc.lft.to/lastmile_qr_scan", "ios": "https://dc.lft.to/lastmile_qr_scan"}, "is_reserved": 0, "lon": -77.0229305, "name": "effea0470b8febbb81f05cc13e11e970", "bike_id": "effea0470b8febbb81f05cc13e11e970", "is_disabled": 0}, {"fusion_lat": 0.0, "fusion_lon": 0.0, "lat": 38.9192855, "type": "electric_scooter", "rental_uris": {"android": "https://dc.lft.to/lastmile_qr_scan", "ios": "https://dc.lft.to/lastmile_qr_scan"}, "is_reserved": 0, "lon": -77.0097915, "name": "a5595cf10697df8e0f4ad5ed8878d62c", "bike_id": "a5595cf10697df8e0f4ad5ed8878d62c", "is_disabled": 0}, {"fusion_lat": 0.0, "fusion_lon": 0.0, "lat": 38.893620166666665, "type": "electric_scooter", "rental_uris": {"android": "https://dc.lft.to/lastmile_qr_scan", "ios": "https://dc.lft.to/lastmile_qr_scan"}, "is_reserved": 0, "lon": -77.00336683333333, "name": "41bc81959cf9366d43bbd3555385da48", "bike_id": "41bc81959cf9366d43bbd3555385da48", "is_disabled": 0}, {"fusion_lat": 0.0, "fusion_lon": 0.0, "lat": 38.9316695, "type": "electric_scooter", "rental_uris": {"android": "https://dc.lft.to/lastmile_qr_scan", "ios": "https://dc.lft.to/lastmile_qr_scan"}, "is_reserved": 0, "lon": -77.078318, "name": "1ce80376910e9f880e42371b51d40566", "bike_id": "1ce80376910e9f880e42371b51d40566", "is_disabled": 0}, {"fusion_lat": 0.0, "fusion_lon": 0.0, "lat": 38.89505666666667, "type": "electric_scooter", "rental_uris": {"android": "https://dc.lft.to/lastmile_qr_scan", "ios": "https://dc.lft.to/lastmile_qr_scan"}, "is_reserved": 0, "lon": -77.02291483333333, "name": "c3d315587d77f7d38695662a15fd9121", "bike_id": "c3d315587d77f7d38695662a15fd9121", "is_disabled": 0}, {"fusion_lat": 0.0, "fusion_lon": 0.0, "lat": 38.798579333333336, "type": "electric_bike", "rental_uris": {"android": "https://dc.lft.to/lastmile_qr_scan", "ios": "https://dc.lft.to/lastmile_qr_scan"}, "is_reserved": 0, "lon": -77.06302366666667, "name": "0b993c425c2e22319dea822c5952dd66", "bike_id": "0b993c425c2e22319dea822c5952dd66", "is_disabled": 0}, {"fusion_lat": 0.0, "fusion_lon": 0.0, "lat": 38.936521166666665, "type": "electric_scooter", "rental_uris": {"android": "https://dc.lft.to/lastmile_qr_scan", "ios": "https://dc.lft.to/lastmile_qr_scan"}, "is_reserved": 0, "lon": -77.02637816666666, "name": "96da5fa29312f3e9e224cfc26c13adce", "bike_id": "96da5fa29312f3e9e224cfc26c13adce", "is_disabled": 0}, {"fusion_lat": 0.0, "fusion_lon": 0.0, "lat": 38.9165325, "type": "electric_scooter", "rental_uris": {"android": "https://dc.lft.to/lastmile_qr_scan", "ios": "https://dc.lft.to/lastmile_qr_scan"}, "is_reserved": 0, "lon": -77.02272283333333, "name": "e5008fed6617ec39d9be79c5634eac18", "bike_id": "e5008fed6617ec39d9be79c5634eac18", "is_disabled": 0}, {"fusion_lat": 0.0, "fusion_lon": 0.0, "lat": 38.8001725, "type": "electric_bike", "rental_uris": {"android": "https://dc.lft.to/lastmile_qr_scan", "ios": "https://dc.lft.to/lastmile_qr_scan"}, "is_reserved": 0, "lon": -77.05478666666667, "name": "bf466a5261a571e6a225edcd86da4b45", "bike_id": "bf466a5261a571e6a225edcd86da4b45", "is_disabled": 0}, {"fusion_lat": 0.0, "fusion_lon": 0.0, "lat": 38.89508983333333, "type": "electric_scooter", "rental_uris": {"android": "https://dc.lft.to/lastmile_qr_scan", "ios": "https://dc.lft.to/lastmile_qr_scan"}, "is_reserved": 0, "lon": -77.003405, "name": "4883cd9882e5513b5523b6d69414f98d", "bike_id": "4883cd9882e5513b5523b6d69414f98d", "is_disabled": 0}, {"fusion_lat": 0.0, "fusion_lon": 0.0, "lat": 38.89608883333333, "type": "electric_scooter", "rental_uris": {"android": "https://dc.lft.to/lastmile_qr_scan", "ios": "https://dc.lft.to/lastmile_qr_scan"}, "is_reserved": 0, "lon": -77.02661083333334, "name": "42006101a32e19d6bff888b0f321eaec", "bike_id": "42006101a32e19d6bff888b0f321eaec", "is_disabled": 0}, {"fusion_lat": 0.0, "fusion_lon": 0.0, "lat": 38.921244333333334, "type": "electric_scooter", "rental_uris": {"android": "https://dc.lft.to/lastmile_qr_scan", "ios": "https://dc.lft.to/lastmile_qr_scan"}, "is_reserved": 0, "lon": -77.044248, "name": "8be2f01497df3d14a9593a999bff5ebe", "bike_id": "8be2f01497df3d14a9593a999bff5ebe", "is_disabled": 0}, {"fusion_lat": 0.0, "fusion_lon": 0.0, "lat": 38.95088833333333, "type": "electric_bike", "rental_uris": {"android": "https://dc.lft.to/lastmile_qr_scan", "ios": "https://dc.lft.to/lastmile_qr_scan"}, "is_reserved": 0, "lon": -76.99791933333333, "name": "0317bfcbec4c6e639c1e0e214c8805cb", "bike_id": "0317bfcbec4c6e639c1e0e214c8805cb", "is_disabled": 0}, {"fusion_lat": 0.0, "fusion_lon": 0.0, "lat": 38.927003, "type": "electric_scooter", "rental_uris": {"android": "https://dc.lft.to/lastmile_qr_scan", "ios": "https://dc.lft.to/lastmile_qr_scan"}, "is_reserved": 0, "lon": -77.02276466666666, "name": "375ff859dc59da95bd59f6fae1b4380d", "bike_id": "375ff859dc59da95bd59f6fae1b4380d", "is_disabled": 0}, {"fusion_lat": 0.0, "fusion_lon": 0.0, "lat": 38.884312666666666, "type": "electric_scooter", "rental_uris": {"android": "https://dc.lft.to/lastmile_qr_scan", "ios": "https://dc.lft.to/lastmile_qr_scan"}, "is_reserved": 0, "lon": -76.95754133333334, "name": "91c1c689c6201d78166a9025e99b3868", "bike_id": "91c1c689c6201d78166a9025e99b3868", "is_disabled": 0}, {"fusion_lat": 0.0, "fusion_lon": 0.0, "lat": 38.924167, "type": "electric_scooter", "rental_uris": {"android": "https://dc.lft.to/lastmile_qr_scan", "ios": "https://dc.lft.to/lastmile_qr_scan"}, "is_reserved": 0, "lon": -77.0258005, "name": "692f413c1223bb4ab05b327baf161459", "bike_id": "692f413c1223bb4ab05b327baf161459", "is_disabled": 0}, {"fusion_lat": 0.0, "fusion_lon": 0.0, "lat": 38.935901333333334, "type": "electric_scooter", "rental_uris": {"android": "https://dc.lft.to/lastmile_qr_scan", "ios": "https://dc.lft.to/lastmile_qr_scan"}, "is_reserved": 0, "lon": -77.02441983333334, "name": "a8cbcf80a4db60d44c4aeb4c290dfd90", "bike_id": "a8cbcf80a4db60d44c4aeb4c290dfd90", "is_disabled": 0}, {"fusion_lat": 0.0, "fusion_lon": 0.0, "lat": 38.804468166666666, "type": "electric_bike", "rental_uris": {"android": "https://dc.lft.to/lastmile_qr_scan", "ios": "https://dc.lft.to/lastmile_qr_scan"}, "is_reserved": 0, "lon": -77.05392933333333, "name": "b8a579411d0caa4f00755f404ed9a4f0", "bike_id": "b8a579411d0caa4f00755f404ed9a4f0", "is_disabled": 0}, {"fusion_lat": 0.0, "fusion_lon": 0.0, "lat": 38.904523, "type": "electric_scooter", "rental_uris": {"android": "https://dc.lft.to/lastmile_qr_scan", "ios": "https://dc.lft.to/lastmile_qr_scan"}, "is_reserved": 0, "lon": -77.04653033333334, "name": "7cbb234cbe4b281402539307aea0aa86", "bike_id": "7cbb234cbe4b281402539307aea0aa86", "is_disabled": 0}, {"fusion_lat": 0.0, "fusion_lon": 0.0, "lat": 38.89993716666667, "type": "electric_scooter", "rental_uris": {"android": "https://dc.lft.to/lastmile_qr_scan", "ios": "https://dc.lft.to/lastmile_qr_scan"}, "is_reserved": 0, "lon": -76.98097266666667, "name": "e0829fce044211b2d74cc3a189b219c2", "bike_id": "e0829fce044211b2d74cc3a189b219c2", "is_disabled": 0}, {"fusion_lat": 0.0, "fusion_lon": 0.0, "lat": 38.898697166666665, "type": "electric_scooter", "rental_uris": {"android": "https://dc.lft.to/lastmile_qr_scan", "ios": "https://dc.lft.to/lastmile_qr_scan"}, "is_reserved": 0, "lon": -76.97518583333333, "name": "54215ae31a4c2ed7c72f762f62b1a06a", "bike_id": "54215ae31a4c2ed7c72f762f62b1a06a", "is_disabled": 0}, {"fusion_lat": 0.0, "fusion_lon": 0.0, "lat": 38.91096133333333, "type": "electric_scooter", "rental_uris": {"android": "https://dc.lft.to/lastmile_qr_scan", "ios": "https://dc.lft.to/lastmile_qr_scan"}, "is_reserved": 0, "lon": -77.0408345, "name": "412b7f88b8a85452e3278b53791b161a", "bike_id": "412b7f88b8a85452e3278b53791b161a", "is_disabled": 0}, {"fusion_lat": 0.0, "fusion_lon": 0.0, "lat": 38.91421533333333, "type": "electric_scooter", "rental_uris": {"android": "https://dc.lft.to/lastmile_qr_scan", "ios": "https://dc.lft.to/lastmile_qr_scan"}, "is_reserved": 0, "lon": -77.0240775, "name": "4064328ee518a2f065a5c08eff62f871", "bike_id": "4064328ee518a2f065a5c08eff62f871", "is_disabled": 0}, {"fusion_lat": 0.0, "fusion_lon": 0.0, "lat": 38.89862766666667, "type": "electric_scooter", "rental_uris": {"android": "https://dc.lft.to/lastmile_qr_scan", "ios": "https://dc.lft.to/lastmile_qr_scan"}, "is_reserved": 0, "lon": -77.04355233333334, "name": "44a77e454b167b978ee7c44252c3f128", "bike_id": "44a77e454b167b978ee7c44252c3f128", "is_disabled": 0}, {"fusion_lat": 0.0, "fusion_lon": 0.0, "lat": 38.89608333333334, "type": "electric_scooter", "rental_uris": {"android": "https://dc.lft.to/lastmile_qr_scan", "ios": "https://dc.lft.to/lastmile_qr_scan"}, "is_reserved": 0, "lon": -77.04608116666667, "name": "c6a02fdfb6f94c16035ae6eeb31a6472", "bike_id": "c6a02fdfb6f94c16035ae6eeb31a6472", "is_disabled": 0}, {"fusion_lat": 0.0, "fusion_lon": 0.0, "lat": 38.897518166666664, "type": "electric_scooter", "rental_uris": {"android": "https://dc.lft.to/lastmile_qr_scan", "ios": "https://dc.lft.to/lastmile_qr_scan"}, "is_reserved": 0, "lon": -77.02960933333334, "name": "033e961064eed7e196ff27b2a7a62db7", "bike_id": "033e961064eed7e196ff27b2a7a62db7", "is_disabled": 0}, {"fusion_lat": 0.0, "fusion_lon": 0.0, "lat": 38.926958, "type": "electric_scooter", "rental_uris": {"android": "https://dc.lft.to/lastmile_qr_scan", "ios": "https://dc.lft.to/lastmile_qr_scan"}, "is_reserved": 0, "lon": -77.03565816666666, "name": "50699abee19dbb12b724c8e494c0e33d", "bike_id": "50699abee19dbb12b724c8e494c0e33d", "is_disabled": 0}, {"fusion_lat": 0.0, "fusion_lon": 0.0, "lat": 38.8738095, "type": "electric_scooter", "rental_uris": {"android": "https://dc.lft.to/lastmile_qr_scan", "ios": "https://dc.lft.to/lastmile_qr_scan"}, "is_reserved": 0, "lon": -77.00107466666667, "name": "4a723623919c2b0e6c98458305da45e9", "bike_id": "4a723623919c2b0e6c98458305da45e9", "is_disabled": 0}, {"fusion_lat": 0.0, "fusion_lon": 0.0, "lat": 38.867464166666664, "type": "electric_scooter", "rental_uris": {"android": "https://dc.lft.to/lastmile_qr_scan", "ios": "https://dc.lft.to/lastmile_qr_scan"}, "is_reserved": 0, "lon": -76.97859083333333, "name": "a5b1ff7470984c1d5b58a85813431977", "bike_id": "a5b1ff7470984c1d5b58a85813431977", "is_disabled": 0}, {"fusion_lat": 0.0, "fusion_lon": 0.0, "lat": 38.9286945, "type": "electric_scooter", "rental_uris": {"android": "https://dc.lft.to/lastmile_qr_scan", "ios": "https://dc.lft.to/lastmile_qr_scan"}, "is_reserved": 0, "lon": -76.97751533333333, "name": "9755cf488c023c263554c04713429a54", "bike_id": "9755cf488c023c263554c04713429a54", "is_disabled": 0}, {"fusion_lat": 0.0, "fusion_lon": 0.0, "lat": 38.924025, "type": "electric_scooter", "rental_uris": {"android": "https://dc.lft.to/lastmile_qr_scan", "ios": "https://dc.lft.to/lastmile_qr_scan"}, "is_reserved": 0, "lon": -77.01222283333334, "name": "55e657579e761dbef0f12934438148c5", "bike_id": "55e657579e761dbef0f12934438148c5", "is_disabled": 0}, {"fusion_lat": 0.0, "fusion_lon": 0.0, "lat": 38.8968805, "type": "electric_scooter", "rental_uris": {"android": "https://dc.lft.to/lastmile_qr_scan", "ios": "https://dc.lft.to/lastmile_qr_scan"}, "is_reserved": 0, "lon": -77.04330416666667, "name": "95d687ec7151cd63e700615f50943b36", "bike_id": "95d687ec7151cd63e700615f50943b36", "is_disabled": 0}, {"fusion_lat": 0.0, "fusion_lon": 0.0, "lat": 38.91764766666667, "type": "electric_bike", "rental_uris": {"android": "https://dc.lft.to/lastmile_qr_scan", "ios": "https://dc.lft.to/lastmile_qr_scan"}, "is_reserved": 0, "lon": -77.04767833333334, "name": "d188e07b3f41f7eb4d631d0e4a055b7c", "bike_id": "d188e07b3f41f7eb4d631d0e4a055b7c", "is_disabled": 0}, {"fusion_lat": 0.0, "fusion_lon": 0.0, "lat": 38.84252683333333, "type": "electric_bike", "rental_uris": {"android": "https://dc.lft.to/lastmile_qr_scan", "ios": "https://dc.lft.to/lastmile_qr_scan"}, "is_reserved": 0, "lon": -77.07880333333334, "name": "46fb12b1a26c5c8ad760ff121c19bdcb", "bike_id": "46fb12b1a26c5c8ad760ff121c19bdcb", "is_disabled": 0}, {"fusion_lat": 0.0, "fusion_lon": 0.0, "lat": 38.905305166666665, "type": "electric_scooter", "rental_uris": {"android": "https://dc.lft.to/lastmile_qr_scan", "ios": "https://dc.lft.to/lastmile_qr_scan"}, "is_reserved": 0, "lon": -77.05773233333333, "name": "eaf02e0925f483a23d9a87a63fc26454", "bike_id": "eaf02e0925f483a23d9a87a63fc26454", "is_disabled": 0}, {"fusion_lat": 0.0, "fusion_lon": 0.0, "lat": 38.908248666666665, "type": "electric_scooter", "rental_uris": {"android": "https://dc.lft.to/lastmile_qr_scan", "ios": "https://dc.lft.to/lastmile_qr_scan"}, "is_reserved": 0, "lon": -77.04874266666667, "name": "9461eb953a596415a5a645d511022098", "bike_id": "9461eb953a596415a5a645d511022098", "is_disabled": 0}, {"fusion_lat": 0.0, "fusion_lon": 0.0, "lat": 38.922236833333336, "type": "electric_scooter", "rental_uris": {"android": "https://dc.lft.to/lastmile_qr_scan", "ios": "https://dc.lft.to/lastmile_qr_scan"}, "is_reserved": 0, "lon": -77.03515066666667, "name": "bde42741b26f0351e6e449ab7a9be55c", "bike_id": "bde42741b26f0351e6e449ab7a9be55c", "is_disabled": 0}, {"fusion_lat": 0.0, "fusion_lon": 0.0, "lat": 38.920435, "type": "electric_scooter", "rental_uris": {"android": "https://dc.lft.to/lastmile_qr_scan", "ios": "https://dc.lft.to/lastmile_qr_scan"}, "is_reserved": 0, "lon": -77.01676866666666, "name": "d5ec5294b889e42d405705982f77c54b", "bike_id": "d5ec5294b889e42d405705982f77c54b", "is_disabled": 0}, {"fusion_lat": 0.0, "fusion_lon": 0.0, "lat": 38.997019, "type": "electric_bike", "rental_uris": {"android": "https://dc.lft.to/lastmile_qr_scan", "ios": "https://dc.lft.to/lastmile_qr_scan"}, "is_reserved": 0, "lon": -77.02548616666667, "name": "3d5b957dfe60d1b07b7bd61c506bfd19", "bike_id": "3d5b957dfe60d1b07b7bd61c506bfd19", "is_disabled": 0}, {"fusion_lat": 0.0, "fusion_lon": 0.0, "lat": 38.928064166666665, "type": "electric_scooter", "rental_uris": {"android": "https://dc.lft.to/lastmile_qr_scan", "ios": "https://dc.lft.to/lastmile_qr_scan"}, "is_reserved": 0, "lon": -77.03266533333333, "name": "c48c242a87e052b6b5fb417af97c1d57", "bike_id": "c48c242a87e052b6b5fb417af97c1d57", "is_disabled": 0}, {"fusion_lat": 0.0, "fusion_lon": 0.0, "lat": 38.8662645, "type": "electric_scooter", "rental_uris": {"android": "https://dc.lft.to/lastmile_qr_scan", "ios": "https://dc.lft.to/lastmile_qr_scan"}, "is_reserved": 0, "lon": -76.98714966666667, "name": "d111bf95c9fe1970e26d94efe35f8236", "bike_id": "d111bf95c9fe1970e26d94efe35f8236", "is_disabled": 0}, {"fusion_lat": 0.0, "fusion_lon": 0.0, "lat": 38.89673966666667, "type": "electric_bike", "rental_uris": {"android": "https://dc.lft.to/lastmile_qr_scan", "ios": "https://dc.lft.to/lastmile_qr_scan"}, "is_reserved": 0, "lon": -77.10431916666667, "name": "4babdb84959726343f2271c5d95ba50e", "bike_id": "4babdb84959726343f2271c5d95ba50e", "is_disabled": 0}, {"fusion_lat": 0.0, "fusion_lon": 0.0, "lat": 38.9065355, "type": "electric_scooter", "rental_uris": {"android": "https://dc.lft.to/lastmile_qr_scan", "ios": "https://dc.lft.to/lastmile_qr_scan"}, "is_reserved": 0, "lon": -77.04165233333333, "name": "138b41b1dbdb7d37b5bd6a2c15c1191c", "bike_id": "138b41b1dbdb7d37b5bd6a2c15c1191c", "is_disabled": 0}, {"fusion_lat": 0.0, "fusion_lon": 0.0, "lat": 38.905152333333334, "type": "electric_bike", "rental_uris": {"android": "https://dc.lft.to/lastmile_qr_scan", "ios": "https://dc.lft.to/lastmile_qr_scan"}, "is_reserved": 0, "lon": -77.06958066666667, "name": "7de5bb19046efd8e350dbcc75c8d608d", "bike_id": "7de5bb19046efd8e350dbcc75c8d608d", "is_disabled": 0}, {"fusion_lat": 0.0, "fusion_lon": 0.0, "lat": 38.89694933333333, "type": "electric_scooter", "rental_uris": {"android": "https://dc.lft.to/lastmile_qr_scan", "ios": "https://dc.lft.to/lastmile_qr_scan"}, "is_reserved": 0, "lon": -77.022923, "name": "381f1130f92fed129124c4531566677c", "bike_id": "381f1130f92fed129124c4531566677c", "is_disabled": 0}, {"fusion_lat": 0.0, "fusion_lon": 0.0, "lat": 38.91419833333333, "type": "electric_scooter", "rental_uris": {"android": "https://dc.lft.to/lastmile_qr_scan", "ios": "https://dc.lft.to/lastmile_qr_scan"}, "is_reserved": 0, "lon": -77.02125766666667, "name": "67ad3a149f13a42aec15a82eadfb4de1", "bike_id": "67ad3a149f13a42aec15a82eadfb4de1", "is_disabled": 0}, {"fusion_lat": 0.0, "fusion_lon": 0.0, "lat": 38.892325166666666, "type": "electric_scooter", "rental_uris": {"android": "https://dc.lft.to/lastmile_qr_scan", "ios": "https://dc.lft.to/lastmile_qr_scan"}, "is_reserved": 0, "lon": -77.025876, "name": "9f2feba0b72e937137b56c65945a16a9", "bike_id": "9f2feba0b72e937137b56c65945a16a9", "is_disabled": 0}, {"fusion_lat": 0.0, "fusion_lon": 0.0, "lat": 38.90475966666666, "type": "electric_scooter", "rental_uris": {"android": "https://dc.lft.to/lastmile_qr_scan", "ios": "https://dc.lft.to/lastmile_qr_scan"}, "is_reserved": 0, "lon": -77.04062166666667, "name": "1738051196b95a3f79c55a43594769b6", "bike_id": "1738051196b95a3f79c55a43594769b6", "is_disabled": 0}, {"fusion_lat": 0.0, "fusion_lon": 0.0, "lat": 38.91562483333333, "type": "electric_scooter", "rental_uris": {"android": "https://dc.lft.to/lastmile_qr_scan", "ios": "https://dc.lft.to/lastmile_qr_scan"}, "is_reserved": 0, "lon": -76.97366983333333, "name": "ef1390275a5b0c0a9f459ae3537c898c", "bike_id": "ef1390275a5b0c0a9f459ae3537c898c", "is_disabled": 0}, {"fusion_lat": 0.0, "fusion_lon": 0.0, "lat": 38.886401, "type": "electric_scooter", "rental_uris": {"android": "https://dc.lft.to/lastmile_qr_scan", "ios": "https://dc.lft.to/lastmile_qr_scan"}, "is_reserved": 0, "lon": -77.01370716666666, "name": "ad1623add3286e793bfa5f1ef41ad219", "bike_id": "ad1623add3286e793bfa5f1ef41ad219", "is_disabled": 0}, {"fusion_lat": 0.0, "fusion_lon": 0.0, "lat": 38.90020616666666, "type": "electric_scooter", "rental_uris": {"android": "https://dc.lft.to/lastmile_qr_scan", "ios": "https://dc.lft.to/lastmile_qr_scan"}, "is_reserved": 0, "lon": -77.03216883333333, "name": "7e7faa71c2a2c692ee573df856c84a3c", "bike_id": "7e7faa71c2a2c692ee573df856c84a3c", "is_disabled": 0}, {"fusion_lat": 0.0, "fusion_lon": 0.0, "lat": 38.908674166666664, "type": "electric_scooter", "rental_uris": {"android": "https://dc.lft.to/lastmile_qr_scan", "ios": "https://dc.lft.to/lastmile_qr_scan"}, "is_reserved": 0, "lon": -77.04261783333334, "name": "3ab8a3d60e09453efff9d751a37536bd", "bike_id": "3ab8a3d60e09453efff9d751a37536bd", "is_disabled": 0}, {"fusion_lat": 0.0, "fusion_lon": 0.0, "lat": 38.86681183333334, "type": "electric_scooter", "rental_uris": {"android": "https://dc.lft.to/lastmile_qr_scan", "ios": "https://dc.lft.to/lastmile_qr_scan"}, "is_reserved": 0, "lon": -76.98570266666667, "name": "78ac8886482f8e0c3a1417c3e98d936a", "bike_id": "78ac8886482f8e0c3a1417c3e98d936a", "is_disabled": 0}, {"fusion_lat": 0.0, "fusion_lon": 0.0, "lat": 38.89740583333333, "type": "electric_bike", "rental_uris": {"android": "https://dc.lft.to/lastmile_qr_scan", "ios": "https://dc.lft.to/lastmile_qr_scan"}, "is_reserved": 0, "lon": -76.9424745, "name": "05f40ae33e4faf338e4eb6436a7129e8", "bike_id": "05f40ae33e4faf338e4eb6436a7129e8", "is_disabled": 0}, {"fusion_lat": 0.0, "fusion_lon": 0.0, "lat": 38.9140315, "type": "electric_scooter", "rental_uris": {"android": "https://dc.lft.to/lastmile_qr_scan", "ios": "https://dc.lft.to/lastmile_qr_scan"}, "is_reserved": 0, "lon": -77.02010333333334, "name": "518f671c5033cf385f0a00cc9dbf2174", "bike_id": "518f671c5033cf385f0a00cc9dbf2174", "is_disabled": 0}, {"fusion_lat": 0.0, "fusion_lon": 0.0, "lat": 38.88515666666667, "type": "electric_scooter", "rental_uris": {"android": "https://dc.lft.to/lastmile_qr_scan", "ios": "https://dc.lft.to/lastmile_qr_scan"}, "is_reserved": 0, "lon": -76.99602583333333, "name": "70054a6c6058a922d80e5292650c3740", "bike_id": "70054a6c6058a922d80e5292650c3740", "is_disabled": 0}, {"fusion_lat": 0.0, "fusion_lon": 0.0, "lat": 38.902727166666665, "type": "electric_scooter", "rental_uris": {"android": "https://dc.lft.to/lastmile_qr_scan", "ios": "https://dc.lft.to/lastmile_qr_scan"}, "is_reserved": 0, "lon": -77.04001166666667, "name": "15003fe946d9456b908cddbe4677d7dd", "bike_id": "15003fe946d9456b908cddbe4677d7dd", "is_disabled": 0}, {"fusion_lat": 0.0, "fusion_lon": 0.0, "lat": 38.9217105, "type": "electric_scooter", "rental_uris": {"android": "https://dc.lft.to/lastmile_qr_scan", "ios": "https://dc.lft.to/lastmile_qr_scan"}, "is_reserved": 0, "lon": -77.03513516666666, "name": "fac7f9e33316dbfffc0235c2a2ebf4ba", "bike_id": "fac7f9e33316dbfffc0235c2a2ebf4ba", "is_disabled": 0}, {"fusion_lat": 0.0, "fusion_lon": 0.0, "lat": 38.900658166666666, "type": "electric_scooter", "rental_uris": {"android": "https://dc.lft.to/lastmile_qr_scan", "ios": "https://dc.lft.to/lastmile_qr_scan"}, "is_reserved": 0, "lon": -77.04537433333333, "name": "61a52e7e3516976ea8a485ffe4db84b0", "bike_id": "61a52e7e3516976ea8a485ffe4db84b0", "is_disabled": 0}, {"fusion_lat": 0.0, "fusion_lon": 0.0, "lat": 38.8414655, "type": "electric_bike", "rental_uris": {"android": "https://dc.lft.to/lastmile_qr_scan", "ios": "https://dc.lft.to/lastmile_qr_scan"}, "is_reserved": 0, "lon": -77.11463833333333, "name": "b5f25090a4ddde04ba6d66f962274b52", "bike_id": "b5f25090a4ddde04ba6d66f962274b52", "is_disabled": 0}, {"fusion_lat": 0.0, "fusion_lon": 0.0, "lat": 38.907979166666664, "type": "electric_scooter", "rental_uris": {"android": "https://dc.lft.to/lastmile_qr_scan", "ios": "https://dc.lft.to/lastmile_qr_scan"}, "is_reserved": 0, "lon": -77.03663216666666, "name": "5973b3206120c5a1304fb274361eb995", "bike_id": "5973b3206120c5a1304fb274361eb995", "is_disabled": 0}, {"fusion_lat": 0.0, "fusion_lon": 0.0, "lat": 38.92113166666667, "type": "electric_scooter", "rental_uris": {"android": "https://dc.lft.to/lastmile_qr_scan", "ios": "https://dc.lft.to/lastmile_qr_scan"}, "is_reserved": 0, "lon": -77.02210316666667, "name": "3c954d6cc96e23aedca8a5c81dac0271", "bike_id": "3c954d6cc96e23aedca8a5c81dac0271", "is_disabled": 0}, {"fusion_lat": 0.0, "fusion_lon": 0.0, "lat": 38.898407, "type": "electric_scooter", "rental_uris": {"android": "https://dc.lft.to/lastmile_qr_scan", "ios": "https://dc.lft.to/lastmile_qr_scan"}, "is_reserved": 0, "lon": -77.03325033333333, "name": "da0ebd6bca24c7cd8611c3055f5a3bbd", "bike_id": "da0ebd6bca24c7cd8611c3055f5a3bbd", "is_disabled": 0}, {"fusion_lat": 0.0, "fusion_lon": 0.0, "lat": 38.99217683333333, "type": "electric_bike", "rental_uris": {"android": "https://dc.lft.to/lastmile_qr_scan", "ios": "https://dc.lft.to/lastmile_qr_scan"}, "is_reserved": 0, "lon": -76.94437683333334, "name": "384a5434e959695090c4f213847b8112", "bike_id": "384a5434e959695090c4f213847b8112", "is_disabled": 0}, {"fusion_lat": 0.0, "fusion_lon": 0.0, "lat": 38.857859833333336, "type": "electric_bike", "rental_uris": {"android": "https://dc.lft.to/lastmile_qr_scan", "ios": "https://dc.lft.to/lastmile_qr_scan"}, "is_reserved": 0, "lon": -77.12016133333333, "name": "cf8483a208a265132026bfe56e0b95d7", "bike_id": "cf8483a208a265132026bfe56e0b95d7", "is_disabled": 0}, {"fusion_lat": 0.0, "fusion_lon": 0.0, "lat": 38.85530416666667, "type": "electric_bike", "rental_uris": {"android": "https://dc.lft.to/lastmile_qr_scan", "ios": "https://dc.lft.to/lastmile_qr_scan"}, "is_reserved": 0, "lon": -77.11408183333333, "name": "d45e52176cac9ddb9c5138b91d8e1d9e", "bike_id": "d45e52176cac9ddb9c5138b91d8e1d9e", "is_disabled": 0}, {"fusion_lat": 0.0, "fusion_lon": 0.0, "lat": 38.90560766666667, "type": "electric_scooter", "rental_uris": {"android": "https://dc.lft.to/lastmile_qr_scan", "ios": "https://dc.lft.to/lastmile_qr_scan"}, "is_reserved": 0, "lon": -77.046566, "name": "3af4c806a91291782d9444f673136372", "bike_id": "3af4c806a91291782d9444f673136372", "is_disabled": 0}, {"fusion_lat": 0.0, "fusion_lon": 0.0, "lat": 38.89977366666667, "type": "electric_scooter", "rental_uris": {"android": "https://dc.lft.to/lastmile_qr_scan", "ios": "https://dc.lft.to/lastmile_qr_scan"}, "is_reserved": 0, "lon": -77.02233916666667, "name": "cb0b2f448637d573c43e4a98d18fb6ba", "bike_id": "cb0b2f448637d573c43e4a98d18fb6ba", "is_disabled": 0}, {"fusion_lat": 0.0, "fusion_lon": 0.0, "lat": 38.924499833333336, "type": "electric_scooter", "rental_uris": {"android": "https://dc.lft.to/lastmile_qr_scan", "ios": "https://dc.lft.to/lastmile_qr_scan"}, "is_reserved": 0, "lon": -77.03401033333333, "name": "98c7f43606f1dea213d0c2d72571f74e", "bike_id": "98c7f43606f1dea213d0c2d72571f74e", "is_disabled": 0}, {"fusion_lat": 0.0, "fusion_lon": 0.0, "lat": 38.921811166666664, "type": "electric_scooter", "rental_uris": {"android": "https://dc.lft.to/lastmile_qr_scan", "ios": "https://dc.lft.to/lastmile_qr_scan"}, "is_reserved": 0, "lon": -77.0210605, "name": "4a811a32a2fbcf54307babd1e0222c24", "bike_id": "4a811a32a2fbcf54307babd1e0222c24", "is_disabled": 0}, {"fusion_lat": 0.0, "fusion_lon": 0.0, "lat": 38.90122, "type": "electric_scooter", "rental_uris": {"android": "https://dc.lft.to/lastmile_qr_scan", "ios": "https://dc.lft.to/lastmile_qr_scan"}, "is_reserved": 0, "lon": -77.031852, "name": "5b81096e6c96d28d9477d6ceae76bdfc", "bike_id": "5b81096e6c96d28d9477d6ceae76bdfc", "is_disabled": 0}, {"fusion_lat": 0.0, "fusion_lon": 0.0, "lat": 38.902419333333334, "type": "electric_scooter", "rental_uris": {"android": "https://dc.lft.to/lastmile_qr_scan", "ios": "https://dc.lft.to/lastmile_qr_scan"}, "is_reserved": 0, "lon": -77.03714466666666, "name": "3f8e40747f2892771b36d9c7df47f688", "bike_id": "3f8e40747f2892771b36d9c7df47f688", "is_disabled": 0}, {"fusion_lat": 0.0, "fusion_lon": 0.0, "lat": 38.85937716666667, "type": "electric_bike", "rental_uris": {"android": "https://dc.lft.to/lastmile_qr_scan", "ios": "https://dc.lft.to/lastmile_qr_scan"}, "is_reserved": 0, "lon": -77.118267, "name": "ea2d94664e7b5eb9c38118d21e9f59ce", "bike_id": "ea2d94664e7b5eb9c38118d21e9f59ce", "is_disabled": 0}, {"fusion_lat": 0.0, "fusion_lon": 0.0, "lat": 38.923722166666664, "type": "electric_scooter", "rental_uris": {"android": "https://dc.lft.to/lastmile_qr_scan", "ios": "https://dc.lft.to/lastmile_qr_scan"}, "is_reserved": 0, "lon": -77.01924633333333, "name": "85fd6bf0d41e2f7c045c2cce4d4ed799", "bike_id": "85fd6bf0d41e2f7c045c2cce4d4ed799", "is_disabled": 0}, {"fusion_lat": 0.0, "fusion_lon": 0.0, "lat": 38.9244175, "type": "electric_scooter", "rental_uris": {"android": "https://dc.lft.to/lastmile_qr_scan", "ios": "https://dc.lft.to/lastmile_qr_scan"}, "is_reserved": 0, "lon": -77.03357433333333, "name": "6993dd106d656a422f7053743a0cc96e", "bike_id": "6993dd106d656a422f7053743a0cc96e", "is_disabled": 0}, {"fusion_lat": 0.0, "fusion_lon": 0.0, "lat": 38.87480466666667, "type": "electric_scooter", "rental_uris": {"android": "https://dc.lft.to/lastmile_qr_scan", "ios": "https://dc.lft.to/lastmile_qr_scan"}, "is_reserved": 0, "lon": -76.999784, "name": "2cf520723b38afb2bc76d84a1614b06b", "bike_id": "2cf520723b38afb2bc76d84a1614b06b", "is_disabled": 0}, {"fusion_lat": 0.0, "fusion_lon": 0.0, "lat": 38.8788005, "type": "electric_bike", "rental_uris": {"android": "https://dc.lft.to/lastmile_qr_scan", "ios": "https://dc.lft.to/lastmile_qr_scan"}, "is_reserved": 0, "lon": -77.10107616666667, "name": "a686b5a5fa8fc29b0bd0a3c97424321e", "bike_id": "a686b5a5fa8fc29b0bd0a3c97424321e", "is_disabled": 0}, {"fusion_lat": 0.0, "fusion_lon": 0.0, "lat": 38.911667333333334, "type": "electric_scooter", "rental_uris": {"android": "https://dc.lft.to/lastmile_qr_scan", "ios": "https://dc.lft.to/lastmile_qr_scan"}, "is_reserved": 0, "lon": -77.07268233333333, "name": "94a2a872e80b7ebc6d84aad03c8964fd", "bike_id": "94a2a872e80b7ebc6d84aad03c8964fd", "is_disabled": 0}, {"fusion_lat": 0.0, "fusion_lon": 0.0, "lat": 38.9116235, "type": "electric_scooter", "rental_uris": {"android": "https://dc.lft.to/lastmile_qr_scan", "ios": "https://dc.lft.to/lastmile_qr_scan"}, "is_reserved": 0, "lon": -77.00191, "name": "d7e758dee8e2f2866b2a8a721268a114", "bike_id": "d7e758dee8e2f2866b2a8a721268a114", "is_disabled": 0}, {"fusion_lat": 0.0, "fusion_lon": 0.0, "lat": 38.92051216666667, "type": "electric_scooter", "rental_uris": {"android": "https://dc.lft.to/lastmile_qr_scan", "ios": "https://dc.lft.to/lastmile_qr_scan"}, "is_reserved": 0, "lon": -77.04186633333333, "name": "4f7fcc2c5ce0b39d9e6b555bcd93a2f6", "bike_id": "4f7fcc2c5ce0b39d9e6b555bcd93a2f6", "is_disabled": 0}, {"fusion_lat": 0.0, "fusion_lon": 0.0, "lat": 38.8236615, "type": "electric_bike", "rental_uris": {"android": "https://dc.lft.to/lastmile_qr_scan", "ios": "https://dc.lft.to/lastmile_qr_scan"}, "is_reserved": 0, "lon": -77.00212566666667, "name": "320781fecbfd3b1094d664cab68c734d", "bike_id": "320781fecbfd3b1094d664cab68c734d", "is_disabled": 0}, {"fusion_lat": 0.0, "fusion_lon": 0.0, "lat": 38.8464785, "type": "electric_scooter", "rental_uris": {"android": "https://dc.lft.to/lastmile_qr_scan", "ios": "https://dc.lft.to/lastmile_qr_scan"}, "is_reserved": 0, "lon": -77.00531133333334, "name": "6afde2fccb212c176374eab97bf619fe", "bike_id": "6afde2fccb212c176374eab97bf619fe", "is_disabled": 0}, {"fusion_lat": 0.0, "fusion_lon": 0.0, "lat": 38.91758216666667, "type": "electric_scooter", "rental_uris": {"android": "https://dc.lft.to/lastmile_qr_scan", "ios": "https://dc.lft.to/lastmile_qr_scan"}, "is_reserved": 0, "lon": -77.04766316666667, "name": "184b9fcf480db32a6ba753828de22db1", "bike_id": "184b9fcf480db32a6ba753828de22db1", "is_disabled": 0}, {"fusion_lat": 0.0, "fusion_lon": 0.0, "lat": 38.905827, "type": "electric_scooter", "rental_uris": {"android": "https://dc.lft.to/lastmile_qr_scan", "ios": "https://dc.lft.to/lastmile_qr_scan"}, "is_reserved": 0, "lon": -77.04035266666666, "name": "1f37e75cacf4a8471749fd4e3e67222c", "bike_id": "1f37e75cacf4a8471749fd4e3e67222c", "is_disabled": 0}, {"fusion_lat": 0.0, "fusion_lon": 0.0, "lat": 38.915717, "type": "electric_scooter", "rental_uris": {"android": "https://dc.lft.to/lastmile_qr_scan", "ios": "https://dc.lft.to/lastmile_qr_scan"}, "is_reserved": 0, "lon": -77.03183283333334, "name": "c2ccff297d3bdceca3c1233999dc4c91", "bike_id": "c2ccff297d3bdceca3c1233999dc4c91", "is_disabled": 0}, {"fusion_lat": 0.0, "fusion_lon": 0.0, "lat": 38.928433, "type": "electric_scooter", "rental_uris": {"android": "https://dc.lft.to/lastmile_qr_scan", "ios": "https://dc.lft.to/lastmile_qr_scan"}, "is_reserved": 0, "lon": -77.01419966666667, "name": "539511a4bf2f11eefbced1b28c22388e", "bike_id": "539511a4bf2f11eefbced1b28c22388e", "is_disabled": 0}, {"fusion_lat": 0.0, "fusion_lon": 0.0, "lat": 38.86033283333333, "type": "electric_scooter", "rental_uris": {"android": "https://dc.lft.to/lastmile_qr_scan", "ios": "https://dc.lft.to/lastmile_qr_scan"}, "is_reserved": 0, "lon": -76.96710716666666, "name": "5c3d4b0e78dcbd786ba19161af913598", "bike_id": "5c3d4b0e78dcbd786ba19161af913598", "is_disabled": 0}, {"fusion_lat": 0.0, "fusion_lon": 0.0, "lat": 38.918789, "type": "electric_scooter", "rental_uris": {"android": "https://dc.lft.to/lastmile_qr_scan", "ios": "https://dc.lft.to/lastmile_qr_scan"}, "is_reserved": 0, "lon": -77.04175983333333, "name": "a31caee1316311d9cabd402c11f140b9", "bike_id": "a31caee1316311d9cabd402c11f140b9", "is_disabled": 0}, {"fusion_lat": 0.0, "fusion_lon": 0.0, "lat": 38.901384166666666, "type": "electric_scooter", "rental_uris": {"android": "https://dc.lft.to/lastmile_qr_scan", "ios": "https://dc.lft.to/lastmile_qr_scan"}, "is_reserved": 0, "lon": -77.0335865, "name": "1fe0324cb1c5cece1f43bde398efe2a1", "bike_id": "1fe0324cb1c5cece1f43bde398efe2a1", "is_disabled": 0}, {"fusion_lat": 0.0, "fusion_lon": 0.0, "lat": 38.90263, "type": "electric_scooter", "rental_uris": {"android": "https://dc.lft.to/lastmile_qr_scan", "ios": "https://dc.lft.to/lastmile_qr_scan"}, "is_reserved": 0, "lon": -77.0385075, "name": "0e08a4b9937b529bba08ff2d50fee7d1", "bike_id": "0e08a4b9937b529bba08ff2d50fee7d1", "is_disabled": 0}, {"fusion_lat": 0.0, "fusion_lon": 0.0, "lat": 38.87305833333333, "type": "electric_bike", "rental_uris": {"android": "https://dc.lft.to/lastmile_qr_scan", "ios": "https://dc.lft.to/lastmile_qr_scan"}, "is_reserved": 0, "lon": -77.010959, "name": "d00bbc0476660dff071668716069cba6", "bike_id": "d00bbc0476660dff071668716069cba6", "is_disabled": 0}, {"fusion_lat": 0.0, "fusion_lon": 0.0, "lat": 38.876828333333336, "type": "electric_scooter", "rental_uris": {"android": "https://dc.lft.to/lastmile_qr_scan", "ios": "https://dc.lft.to/lastmile_qr_scan"}, "is_reserved": 0, "lon": -77.01966766666666, "name": "1278ee90241ae5a30904694e9c25bbd3", "bike_id": "1278ee90241ae5a30904694e9c25bbd3", "is_disabled": 0}, {"fusion_lat": 0.0, "fusion_lon": 0.0, "lat": 38.91746333333333, "type": "electric_scooter", "rental_uris": {"android": "https://dc.lft.to/lastmile_qr_scan", "ios": "https://dc.lft.to/lastmile_qr_scan"}, "is_reserved": 0, "lon": -77.03637316666666, "name": "8dc69f4a577387333e4841b64d163486", "bike_id": "8dc69f4a577387333e4841b64d163486", "is_disabled": 0}, {"fusion_lat": 0.0, "fusion_lon": 0.0, "lat": 38.894926166666664, "type": "electric_scooter", "rental_uris": {"android": "https://dc.lft.to/lastmile_qr_scan", "ios": "https://dc.lft.to/lastmile_qr_scan"}, "is_reserved": 0, "lon": -77.00253416666666, "name": "88a5e88cd1a95a8974b06054fb0b062a", "bike_id": "88a5e88cd1a95a8974b06054fb0b062a", "is_disabled": 0}, {"fusion_lat": 0.0, "fusion_lon": 0.0, "lat": 38.965038666666665, "type": "electric_scooter", "rental_uris": {"android": "https://dc.lft.to/lastmile_qr_scan", "ios": "https://dc.lft.to/lastmile_qr_scan"}, "is_reserved": 0, "lon": -77.00198833333333, "name": "817154b33b1966249e96887a9e8853e8", "bike_id": "817154b33b1966249e96887a9e8853e8", "is_disabled": 0}, {"fusion_lat": 0.0, "fusion_lon": 0.0, "lat": 38.90630916666667, "type": "electric_scooter", "rental_uris": {"android": "https://dc.lft.to/lastmile_qr_scan", "ios": "https://dc.lft.to/lastmile_qr_scan"}, "is_reserved": 0, "lon": -77.0392305, "name": "3059ad64ca9482055f834930d6f4deb0", "bike_id": "3059ad64ca9482055f834930d6f4deb0", "is_disabled": 0}, {"fusion_lat": 0.0, "fusion_lon": 0.0, "lat": 38.8995175, "type": "electric_scooter", "rental_uris": {"android": "https://dc.lft.to/lastmile_qr_scan", "ios": "https://dc.lft.to/lastmile_qr_scan"}, "is_reserved": 0, "lon": -77.026802, "name": "f5e24a9e110dfd6850c9694d4c13ea44", "bike_id": "f5e24a9e110dfd6850c9694d4c13ea44", "is_disabled": 0}, {"fusion_lat": 0.0, "fusion_lon": 0.0, "lat": 38.92382466666667, "type": "electric_scooter", "rental_uris": {"android": "https://dc.lft.to/lastmile_qr_scan", "ios": "https://dc.lft.to/lastmile_qr_scan"}, "is_reserved": 0, "lon": -77.03232283333334, "name": "d939b742d5c33a2bd6c403c57f962c14", "bike_id": "d939b742d5c33a2bd6c403c57f962c14", "is_disabled": 0}, {"fusion_lat": 0.0, "fusion_lon": 0.0, "lat": 38.93392216666667, "type": "electric_scooter", "rental_uris": {"android": "https://dc.lft.to/lastmile_qr_scan", "ios": "https://dc.lft.to/lastmile_qr_scan"}, "is_reserved": 0, "lon": -77.05739533333333, "name": "07cf3e599a91c3c0537384f442ea883b", "bike_id": "07cf3e599a91c3c0537384f442ea883b", "is_disabled": 0}, {"fusion_lat": 0.0, "fusion_lon": 0.0, "lat": 38.89902766666667, "type": "electric_scooter", "rental_uris": {"android": "https://dc.lft.to/lastmile_qr_scan", "ios": "https://dc.lft.to/lastmile_qr_scan"}, "is_reserved": 0, "lon": -77.0397925, "name": "f4e9ddab570a4438d1d65fc55df08d46", "bike_id": "f4e9ddab570a4438d1d65fc55df08d46", "is_disabled": 0}, {"fusion_lat": 0.0, "fusion_lon": 0.0, "lat": 38.8765255, "type": "electric_scooter", "rental_uris": {"android": "https://dc.lft.to/lastmile_qr_scan", "ios": "https://dc.lft.to/lastmile_qr_scan"}, "is_reserved": 0, "lon": -77.00448016666667, "name": "ccf37bac5dc19d433abe58e1f8058539", "bike_id": "ccf37bac5dc19d433abe58e1f8058539", "is_disabled": 0}, {"fusion_lat": 0.0, "fusion_lon": 0.0, "lat": 38.897441, "type": "electric_scooter", "rental_uris": {"android": "https://dc.lft.to/lastmile_qr_scan", "ios": "https://dc.lft.to/lastmile_qr_scan"}, "is_reserved": 0, "lon": -77.02469716666667, "name": "4486d09a8e213f86324474b8ab4987db", "bike_id": "4486d09a8e213f86324474b8ab4987db", "is_disabled": 0}, {"fusion_lat": 0.0, "fusion_lon": 0.0, "lat": 38.92335933333333, "type": "electric_scooter", "rental_uris": {"android": "https://dc.lft.to/lastmile_qr_scan", "ios": "https://dc.lft.to/lastmile_qr_scan"}, "is_reserved": 0, "lon": -77.0430255, "name": "703819e8ab1bb0701f4b1d3a1ad7f8dc", "bike_id": "703819e8ab1bb0701f4b1d3a1ad7f8dc", "is_disabled": 0}, {"fusion_lat": 0.0, "fusion_lon": 0.0, "lat": 38.92458883333333, "type": "electric_scooter", "rental_uris": {"android": "https://dc.lft.to/lastmile_qr_scan", "ios": "https://dc.lft.to/lastmile_qr_scan"}, "is_reserved": 0, "lon": -77.021456, "name": "772a3434315ca8e8095bd25536a9c9af", "bike_id": "772a3434315ca8e8095bd25536a9c9af", "is_disabled": 0}, {"fusion_lat": 0.0, "fusion_lon": 0.0, "lat": 38.93148166666667, "type": "electric_scooter", "rental_uris": {"android": "https://dc.lft.to/lastmile_qr_scan", "ios": "https://dc.lft.to/lastmile_qr_scan"}, "is_reserved": 0, "lon": -77.03835316666667, "name": "02d651eae26c45d244f8ab4091eb05b9", "bike_id": "02d651eae26c45d244f8ab4091eb05b9", "is_disabled": 0}, {"fusion_lat": 0.0, "fusion_lon": 0.0, "lat": 38.91994533333333, "type": "electric_scooter", "rental_uris": {"android": "https://dc.lft.to/lastmile_qr_scan", "ios": "https://dc.lft.to/lastmile_qr_scan"}, "is_reserved": 0, "lon": -77.037947, "name": "839557565f444c29a3068d48ac59787a", "bike_id": "839557565f444c29a3068d48ac59787a", "is_disabled": 0}, {"fusion_lat": 0.0, "fusion_lon": 0.0, "lat": 38.9148505, "type": "electric_scooter", "rental_uris": {"android": "https://dc.lft.to/lastmile_qr_scan", "ios": "https://dc.lft.to/lastmile_qr_scan"}, "is_reserved": 0, "lon": -77.02586083333334, "name": "b7363c5458d020844676263f5a2732fd", "bike_id": "b7363c5458d020844676263f5a2732fd", "is_disabled": 0}, {"fusion_lat": 0.0, "fusion_lon": 0.0, "lat": 38.916934833333336, "type": "electric_scooter", "rental_uris": {"android": "https://dc.lft.to/lastmile_qr_scan", "ios": "https://dc.lft.to/lastmile_qr_scan"}, "is_reserved": 0, "lon": -77.03495, "name": "b5dad92ecbb740bf07bf68a2df3a217e", "bike_id": "b5dad92ecbb740bf07bf68a2df3a217e", "is_disabled": 0}, {"fusion_lat": 0.0, "fusion_lon": 0.0, "lat": 38.916222166666664, "type": "electric_scooter", "rental_uris": {"android": "https://dc.lft.to/lastmile_qr_scan", "ios": "https://dc.lft.to/lastmile_qr_scan"}, "is_reserved": 0, "lon": -77.0416545, "name": "1998ac789bc3386ff83789c35218fd69", "bike_id": "1998ac789bc3386ff83789c35218fd69", "is_disabled": 0}, {"fusion_lat": 0.0, "fusion_lon": 0.0, "lat": 38.91417166666667, "type": "electric_scooter", "rental_uris": {"android": "https://dc.lft.to/lastmile_qr_scan", "ios": "https://dc.lft.to/lastmile_qr_scan"}, "is_reserved": 0, "lon": -77.0281545, "name": "f19093adf6df93d1f322a0d89e13bc05", "bike_id": "f19093adf6df93d1f322a0d89e13bc05", "is_disabled": 0}, {"fusion_lat": 0.0, "fusion_lon": 0.0, "lat": 38.896011666666666, "type": "electric_scooter", "rental_uris": {"android": "https://dc.lft.to/lastmile_qr_scan", "ios": "https://dc.lft.to/lastmile_qr_scan"}, "is_reserved": 0, "lon": -77.04442516666667, "name": "467850a39dd5926286d0a14a3ba5fe87", "bike_id": "467850a39dd5926286d0a14a3ba5fe87", "is_disabled": 0}, {"fusion_lat": 0.0, "fusion_lon": 0.0, "lat": 39.024361166666665, "type": "electric_bike", "rental_uris": {"android": "https://dc.lft.to/lastmile_qr_scan", "ios": "https://dc.lft.to/lastmile_qr_scan"}, "is_reserved": 0, "lon": -77.13097983333333, "name": "f7e446e0b6d9efdaacc69ea649cf9768", "bike_id": "f7e446e0b6d9efdaacc69ea649cf9768", "is_disabled": 0}, {"fusion_lat": 0.0, "fusion_lon": 0.0, "lat": 38.89999266666667, "type": "electric_scooter", "rental_uris": {"android": "https://dc.lft.to/lastmile_qr_scan", "ios": "https://dc.lft.to/lastmile_qr_scan"}, "is_reserved": 0, "lon": -77.0457475, "name": "12468d39667ca074d1824c549e5c223b", "bike_id": "12468d39667ca074d1824c549e5c223b", "is_disabled": 0}, {"fusion_lat": 0.0, "fusion_lon": 0.0, "lat": 38.892020333333335, "type": "electric_scooter", "rental_uris": {"android": "https://dc.lft.to/lastmile_qr_scan", "ios": "https://dc.lft.to/lastmile_qr_scan"}, "is_reserved": 0, "lon": -77.02372516666667, "name": "bdddd2bc8afeb50f6a2aed9b6992192c", "bike_id": "bdddd2bc8afeb50f6a2aed9b6992192c", "is_disabled": 0}, {"fusion_lat": 0.0, "fusion_lon": 0.0, "lat": 38.896325166666664, "type": "electric_scooter", "rental_uris": {"android": "https://dc.lft.to/lastmile_qr_scan", "ios": "https://dc.lft.to/lastmile_qr_scan"}, "is_reserved": 0, "lon": -77.025897, "name": "dce791e53a9bba55d30b1f5b5e964b36", "bike_id": "dce791e53a9bba55d30b1f5b5e964b36", "is_disabled": 0}, {"fusion_lat": 0.0, "fusion_lon": 0.0, "lat": 38.92871383333333, "type": "electric_scooter", "rental_uris": {"android": "https://dc.lft.to/lastmile_qr_scan", "ios": "https://dc.lft.to/lastmile_qr_scan"}, "is_reserved": 0, "lon": -77.03243816666667, "name": "849380a7b66bd016754f96762567bb3f", "bike_id": "849380a7b66bd016754f96762567bb3f", "is_disabled": 0}, {"fusion_lat": 0.0, "fusion_lon": 0.0, "lat": 38.897480333333334, "type": "electric_scooter", "rental_uris": {"android": "https://dc.lft.to/lastmile_qr_scan", "ios": "https://dc.lft.to/lastmile_qr_scan"}, "is_reserved": 0, "lon": -77.02996133333333, "name": "fae97ed5866d343f98e9d1a23ac53725", "bike_id": "fae97ed5866d343f98e9d1a23ac53725", "is_disabled": 0}, {"fusion_lat": 0.0, "fusion_lon": 0.0, "lat": 38.924196333333335, "type": "electric_scooter", "rental_uris": {"android": "https://dc.lft.to/lastmile_qr_scan", "ios": "https://dc.lft.to/lastmile_qr_scan"}, "is_reserved": 0, "lon": -77.01948883333333, "name": "f4389966f97bb904ad6aafd7e8f61cde", "bike_id": "f4389966f97bb904ad6aafd7e8f61cde", "is_disabled": 0}, {"fusion_lat": 0.0, "fusion_lon": 0.0, "lat": 38.92253683333333, "type": "electric_scooter", "rental_uris": {"android": "https://dc.lft.to/lastmile_qr_scan", "ios": "https://dc.lft.to/lastmile_qr_scan"}, "is_reserved": 0, "lon": -77.042484, "name": "187b37399292c5da8f7d0cb39d632513", "bike_id": "187b37399292c5da8f7d0cb39d632513", "is_disabled": 0}, {"fusion_lat": 0.0, "fusion_lon": 0.0, "lat": 38.929012, "type": "electric_scooter", "rental_uris": {"android": "https://dc.lft.to/lastmile_qr_scan", "ios": "https://dc.lft.to/lastmile_qr_scan"}, "is_reserved": 0, "lon": -77.01613816666666, "name": "21194fb18be0c6b0dc2bb25e98070ba1", "bike_id": "21194fb18be0c6b0dc2bb25e98070ba1", "is_disabled": 0}, {"fusion_lat": 0.0, "fusion_lon": 0.0, "lat": 38.93164616666667, "type": "electric_scooter", "rental_uris": {"android": "https://dc.lft.to/lastmile_qr_scan", "ios": "https://dc.lft.to/lastmile_qr_scan"}, "is_reserved": 0, "lon": -77.03618516666667, "name": "dcb0495608957aed7e60f68c4e5c545a", "bike_id": "dcb0495608957aed7e60f68c4e5c545a", "is_disabled": 0}, {"fusion_lat": 0.0, "fusion_lon": 0.0, "lat": 38.88413033333333, "type": "electric_scooter", "rental_uris": {"android": "https://dc.lft.to/lastmile_qr_scan", "ios": "https://dc.lft.to/lastmile_qr_scan"}, "is_reserved": 0, "lon": -76.94821733333333, "name": "d9d3a0084e8c29082aed24af0e075dff", "bike_id": "d9d3a0084e8c29082aed24af0e075dff", "is_disabled": 0}, {"fusion_lat": 0.0, "fusion_lon": 0.0, "lat": 38.898849, "type": "electric_scooter", "rental_uris": {"android": "https://dc.lft.to/lastmile_qr_scan", "ios": "https://dc.lft.to/lastmile_qr_scan"}, "is_reserved": 0, "lon": -76.93172166666666, "name": "92cbc0a44a50aa22e2c2fbcffcec0310", "bike_id": "92cbc0a44a50aa22e2c2fbcffcec0310", "is_disabled": 0}, {"fusion_lat": 0.0, "fusion_lon": 0.0, "lat": 38.90438483333333, "type": "electric_bike", "rental_uris": {"android": "https://dc.lft.to/lastmile_qr_scan", "ios": "https://dc.lft.to/lastmile_qr_scan"}, "is_reserved": 0, "lon": -77.06287716666667, "name": "deaed2b35c66d43a030bc0a55c963d84", "bike_id": "deaed2b35c66d43a030bc0a55c963d84", "is_disabled": 0}, {"fusion_lat": 0.0, "fusion_lon": 0.0, "lat": 38.83099433333334, "type": "electric_bike", "rental_uris": {"android": "https://dc.lft.to/lastmile_qr_scan", "ios": "https://dc.lft.to/lastmile_qr_scan"}, "is_reserved": 0, "lon": -77.0428905, "name": "98697e3a54bab86533cf07faca25f28b", "bike_id": "98697e3a54bab86533cf07faca25f28b", "is_disabled": 0}, {"fusion_lat": 0.0, "fusion_lon": 0.0, "lat": 38.93023216666667, "type": "electric_scooter", "rental_uris": {"android": "https://dc.lft.to/lastmile_qr_scan", "ios": "https://dc.lft.to/lastmile_qr_scan"}, "is_reserved": 0, "lon": -77.01986466666666, "name": "ed78b4a7334defea0dd4c0cbc9300893", "bike_id": "ed78b4a7334defea0dd4c0cbc9300893", "is_disabled": 0}, {"fusion_lat": 0.0, "fusion_lon": 0.0, "lat": 38.93357916666667, "type": "electric_scooter", "rental_uris": {"android": "https://dc.lft.to/lastmile_qr_scan", "ios": "https://dc.lft.to/lastmile_qr_scan"}, "is_reserved": 0, "lon": -77.04115816666666, "name": "8be8d6ae219f3e74d88fe2635df81620", "bike_id": "8be8d6ae219f3e74d88fe2635df81620", "is_disabled": 0}, {"fusion_lat": 0.0, "fusion_lon": 0.0, "lat": 38.9223365, "type": "electric_scooter", "rental_uris": {"android": "https://dc.lft.to/lastmile_qr_scan", "ios": "https://dc.lft.to/lastmile_qr_scan"}, "is_reserved": 0, "lon": -77.01822366666667, "name": "2a99a075392f94bd8c93fd24e659b8cf", "bike_id": "2a99a075392f94bd8c93fd24e659b8cf", "is_disabled": 0}, {"fusion_lat": 0.0, "fusion_lon": 0.0, "lat": 38.908080166666664, "type": "electric_scooter", "rental_uris": {"android": "https://dc.lft.to/lastmile_qr_scan", "ios": "https://dc.lft.to/lastmile_qr_scan"}, "is_reserved": 0, "lon": -77.038641, "name": "39ff7f0d8b71027f82a5b65971d6468d", "bike_id": "39ff7f0d8b71027f82a5b65971d6468d", "is_disabled": 0}, {"fusion_lat": 0.0, "fusion_lon": 0.0, "lat": 38.862240666666665, "type": "electric_scooter", "rental_uris": {"android": "https://dc.lft.to/lastmile_qr_scan", "ios": "https://dc.lft.to/lastmile_qr_scan"}, "is_reserved": 0, "lon": -76.9945825, "name": "b9f3bfbbbf38b3157340244165049419", "bike_id": "b9f3bfbbbf38b3157340244165049419", "is_disabled": 0}, {"fusion_lat": 0.0, "fusion_lon": 0.0, "lat": 38.916621, "type": "electric_scooter", "rental_uris": {"android": "https://dc.lft.to/lastmile_qr_scan", "ios": "https://dc.lft.to/lastmile_qr_scan"}, "is_reserved": 0, "lon": -77.02376983333333, "name": "e3cbe3f21671d497b9bcdec32923c5a5", "bike_id": "e3cbe3f21671d497b9bcdec32923c5a5", "is_disabled": 0}, {"fusion_lat": 0.0, "fusion_lon": 0.0, "lat": 38.902568333333335, "type": "electric_scooter", "rental_uris": {"android": "https://dc.lft.to/lastmile_qr_scan", "ios": "https://dc.lft.to/lastmile_qr_scan"}, "is_reserved": 0, "lon": -77.0173515, "name": "1d26060b2843e6709ce533136d3f6b23", "bike_id": "1d26060b2843e6709ce533136d3f6b23", "is_disabled": 0}, {"fusion_lat": 0.0, "fusion_lon": 0.0, "lat": 38.92623783333333, "type": "electric_scooter", "rental_uris": {"android": "https://dc.lft.to/lastmile_qr_scan", "ios": "https://dc.lft.to/lastmile_qr_scan"}, "is_reserved": 0, "lon": -77.03784583333334, "name": "edb9bb92c3a01974ca7025c8756092fc", "bike_id": "edb9bb92c3a01974ca7025c8756092fc", "is_disabled": 0}, {"fusion_lat": 0.0, "fusion_lon": 0.0, "lat": 38.916649166666666, "type": "electric_scooter", "rental_uris": {"android": "https://dc.lft.to/lastmile_qr_scan", "ios": "https://dc.lft.to/lastmile_qr_scan"}, "is_reserved": 0, "lon": -76.98174616666667, "name": "c27f73224a315137a4e55a2a8a25fc0a", "bike_id": "c27f73224a315137a4e55a2a8a25fc0a", "is_disabled": 0}, {"fusion_lat": 0.0, "fusion_lon": 0.0, "lat": 38.880411, "type": "electric_scooter", "rental_uris": {"android": "https://dc.lft.to/lastmile_qr_scan", "ios": "https://dc.lft.to/lastmile_qr_scan"}, "is_reserved": 0, "lon": -77.00521716666667, "name": "940bb601b1baa91b1a9869007301edcc", "bike_id": "940bb601b1baa91b1a9869007301edcc", "is_disabled": 0}, {"fusion_lat": 0.0, "fusion_lon": 0.0, "lat": 38.898095, "type": "electric_scooter", "rental_uris": {"android": "https://dc.lft.to/lastmile_qr_scan", "ios": "https://dc.lft.to/lastmile_qr_scan"}, "is_reserved": 0, "lon": -77.03313983333334, "name": "b24d51d02f97bb256f95669298e09a87", "bike_id": "b24d51d02f97bb256f95669298e09a87", "is_disabled": 0}, {"fusion_lat": 0.0, "fusion_lon": 0.0, "lat": 38.9194415, "type": "electric_scooter", "rental_uris": {"android": "https://dc.lft.to/lastmile_qr_scan", "ios": "https://dc.lft.to/lastmile_qr_scan"}, "is_reserved": 0, "lon": -77.02495316666666, "name": "5af8ffc60f9bc3ee1c34ebbfbebd0a6b", "bike_id": "5af8ffc60f9bc3ee1c34ebbfbebd0a6b", "is_disabled": 0}, {"fusion_lat": 0.0, "fusion_lon": 0.0, "lat": 38.90985233333333, "type": "electric_scooter", "rental_uris": {"android": "https://dc.lft.to/lastmile_qr_scan", "ios": "https://dc.lft.to/lastmile_qr_scan"}, "is_reserved": 0, "lon": -77.042558, "name": "e27d175fb0d4810d34a4d3dd0ef3cbc5", "bike_id": "e27d175fb0d4810d34a4d3dd0ef3cbc5", "is_disabled": 0}, {"fusion_lat": 0.0, "fusion_lon": 0.0, "lat": 38.901092, "type": "electric_scooter", "rental_uris": {"android": "https://dc.lft.to/lastmile_qr_scan", "ios": "https://dc.lft.to/lastmile_qr_scan"}, "is_reserved": 0, "lon": -77.031924, "name": "78ac4c8df7cc195949932e961d1f9ce7", "bike_id": "78ac4c8df7cc195949932e961d1f9ce7", "is_disabled": 0}, {"fusion_lat": 0.0, "fusion_lon": 0.0, "lat": 38.89310366666667, "type": "electric_scooter", "rental_uris": {"android": "https://dc.lft.to/lastmile_qr_scan", "ios": "https://dc.lft.to/lastmile_qr_scan"}, "is_reserved": 0, "lon": -77.04501983333333, "name": "470f058c23e037168ba42c974b8346d8", "bike_id": "470f058c23e037168ba42c974b8346d8", "is_disabled": 0}, {"fusion_lat": 0.0, "fusion_lon": 0.0, "lat": 38.906408166666665, "type": "electric_scooter", "rental_uris": {"android": "https://dc.lft.to/lastmile_qr_scan", "ios": "https://dc.lft.to/lastmile_qr_scan"}, "is_reserved": 0, "lon": -77.070321, "name": "74fddc13d825163269cd1c870e866ad5", "bike_id": "74fddc13d825163269cd1c870e866ad5", "is_disabled": 0}, {"fusion_lat": 0.0, "fusion_lon": 0.0, "lat": 38.87819266666666, "type": "electric_scooter", "rental_uris": {"android": "https://dc.lft.to/lastmile_qr_scan", "ios": "https://dc.lft.to/lastmile_qr_scan"}, "is_reserved": 0, "lon": -76.9716585, "name": "d084992e29d374fdc7bd390a1f894502", "bike_id": "d084992e29d374fdc7bd390a1f894502", "is_disabled": 0}, {"fusion_lat": 0.0, "fusion_lon": 0.0, "lat": 38.991022, "type": "electric_bike", "rental_uris": {"android": "https://dc.lft.to/lastmile_qr_scan", "ios": "https://dc.lft.to/lastmile_qr_scan"}, "is_reserved": 0, "lon": -76.99364166666666, "name": "e0dc16bceec6d2218d040f03d3cc5688", "bike_id": "e0dc16bceec6d2218d040f03d3cc5688", "is_disabled": 0}, {"fusion_lat": 0.0, "fusion_lon": 0.0, "lat": 38.928560166666664, "type": "electric_scooter", "rental_uris": {"android": "https://dc.lft.to/lastmile_qr_scan", "ios": "https://dc.lft.to/lastmile_qr_scan"}, "is_reserved": 0, "lon": -77.03278833333333, "name": "cf03c55a5742b161276c43824e2db211", "bike_id": "cf03c55a5742b161276c43824e2db211", "is_disabled": 0}, {"fusion_lat": 0.0, "fusion_lon": 0.0, "lat": 38.90282966666667, "type": "electric_scooter", "rental_uris": {"android": "https://dc.lft.to/lastmile_qr_scan", "ios": "https://dc.lft.to/lastmile_qr_scan"}, "is_reserved": 0, "lon": -77.03352333333333, "name": "e6551bf688d0bc0e57ceb2d81206a7c0", "bike_id": "e6551bf688d0bc0e57ceb2d81206a7c0", "is_disabled": 0}, {"fusion_lat": 0.0, "fusion_lon": 0.0, "lat": 38.91772516666666, "type": "electric_scooter", "rental_uris": {"android": "https://dc.lft.to/lastmile_qr_scan", "ios": "https://dc.lft.to/lastmile_qr_scan"}, "is_reserved": 0, "lon": -77.01497316666666, "name": "3919d3449dcf2017efbdc444dba7ac40", "bike_id": "3919d3449dcf2017efbdc444dba7ac40", "is_disabled": 0}, {"fusion_lat": 0.0, "fusion_lon": 0.0, "lat": 38.89920883333333, "type": "electric_scooter", "rental_uris": {"android": "https://dc.lft.to/lastmile_qr_scan", "ios": "https://dc.lft.to/lastmile_qr_scan"}, "is_reserved": 0, "lon": -77.04460783333333, "name": "a2bdd980ef51a5ac18bbcbaff6a0e0ac", "bike_id": "a2bdd980ef51a5ac18bbcbaff6a0e0ac", "is_disabled": 0}, {"fusion_lat": 0.0, "fusion_lon": 0.0, "lat": 38.936756, "type": "electric_bike", "rental_uris": {"android": "https://dc.lft.to/lastmile_qr_scan", "ios": "https://dc.lft.to/lastmile_qr_scan"}, "is_reserved": 0, "lon": -76.99064916666667, "name": "af7a8d2891198848d6864147da4e3988", "bike_id": "af7a8d2891198848d6864147da4e3988", "is_disabled": 0}, {"fusion_lat": 0.0, "fusion_lon": 0.0, "lat": 38.90803966666667, "type": "electric_scooter", "rental_uris": {"android": "https://dc.lft.to/lastmile_qr_scan", "ios": "https://dc.lft.to/lastmile_qr_scan"}, "is_reserved": 0, "lon": -77.04158683333333, "name": "b6941a7f66cd5ebeef59ef46031eba79", "bike_id": "b6941a7f66cd5ebeef59ef46031eba79", "is_disabled": 0}, {"fusion_lat": 0.0, "fusion_lon": 0.0, "lat": 38.9265975, "type": "electric_scooter", "rental_uris": {"android": "https://dc.lft.to/lastmile_qr_scan", "ios": "https://dc.lft.to/lastmile_qr_scan"}, "is_reserved": 0, "lon": -77.03730266666666, "name": "712974341d52de9dd6cf26e68bb9e8c1", "bike_id": "712974341d52de9dd6cf26e68bb9e8c1", "is_disabled": 0}, {"fusion_lat": 0.0, "fusion_lon": 0.0, "lat": 38.90290866666667, "type": "electric_scooter", "rental_uris": {"android": "https://dc.lft.to/lastmile_qr_scan", "ios": "https://dc.lft.to/lastmile_qr_scan"}, "is_reserved": 0, "lon": -77.046921, "name": "cab6c326d9e0b788f6a612c62774d9c8", "bike_id": "cab6c326d9e0b788f6a612c62774d9c8", "is_disabled": 0}, {"fusion_lat": 0.0, "fusion_lon": 0.0, "lat": 38.93439683333333, "type": "electric_scooter", "rental_uris": {"android": "https://dc.lft.to/lastmile_qr_scan", "ios": "https://dc.lft.to/lastmile_qr_scan"}, "is_reserved": 0, "lon": -77.0329725, "name": "a0ce08967b72ced054cfc4506f580f1d", "bike_id": "a0ce08967b72ced054cfc4506f580f1d", "is_disabled": 0}, {"fusion_lat": 0.0, "fusion_lon": 0.0, "lat": 38.901439333333336, "type": "electric_scooter", "rental_uris": {"android": "https://dc.lft.to/lastmile_qr_scan", "ios": "https://dc.lft.to/lastmile_qr_scan"}, "is_reserved": 0, "lon": -77.04572966666667, "name": "a8dfa4ac113bc645377e07199eeede0f", "bike_id": "a8dfa4ac113bc645377e07199eeede0f", "is_disabled": 0}, {"fusion_lat": 0.0, "fusion_lon": 0.0, "lat": 38.91690666666667, "type": "electric_scooter", "rental_uris": {"android": "https://dc.lft.to/lastmile_qr_scan", "ios": "https://dc.lft.to/lastmile_qr_scan"}, "is_reserved": 0, "lon": -77.03586316666667, "name": "7daa932f97c9a2f19d4b040edd84511e", "bike_id": "7daa932f97c9a2f19d4b040edd84511e", "is_disabled": 0}, {"fusion_lat": 0.0, "fusion_lon": 0.0, "lat": 38.881148333333336, "type": "electric_scooter", "rental_uris": {"android": "https://dc.lft.to/lastmile_qr_scan", "ios": "https://dc.lft.to/lastmile_qr_scan"}, "is_reserved": 0, "lon": -77.01644683333333, "name": "8ccd80f3e9d88e0b131220df5589ed00", "bike_id": "8ccd80f3e9d88e0b131220df5589ed00", "is_disabled": 0}, {"fusion_lat": 0.0, "fusion_lon": 0.0, "lat": 38.92566933333333, "type": "electric_scooter", "rental_uris": {"android": "https://dc.lft.to/lastmile_qr_scan", "ios": "https://dc.lft.to/lastmile_qr_scan"}, "is_reserved": 0, "lon": -77.037724, "name": "dd6e9647b01e8549a4eca40e62fed30a", "bike_id": "dd6e9647b01e8549a4eca40e62fed30a", "is_disabled": 0}, {"fusion_lat": 0.0, "fusion_lon": 0.0, "lat": 38.9056205, "type": "electric_scooter", "rental_uris": {"android": "https://dc.lft.to/lastmile_qr_scan", "ios": "https://dc.lft.to/lastmile_qr_scan"}, "is_reserved": 0, "lon": -77.02223933333333, "name": "17d71dbef89f4641bb75160355ee202a", "bike_id": "17d71dbef89f4641bb75160355ee202a", "is_disabled": 0}, {"fusion_lat": 0.0, "fusion_lon": 0.0, "lat": 38.929914333333336, "type": "electric_scooter", "rental_uris": {"android": "https://dc.lft.to/lastmile_qr_scan", "ios": "https://dc.lft.to/lastmile_qr_scan"}, "is_reserved": 0, "lon": -77.01314433333333, "name": "9f13683c0ce8eb7c410ac77fed94b1a2", "bike_id": "9f13683c0ce8eb7c410ac77fed94b1a2", "is_disabled": 0}, {"fusion_lat": 0.0, "fusion_lon": 0.0, "lat": 38.906823, "type": "electric_scooter", "rental_uris": {"android": "https://dc.lft.to/lastmile_qr_scan", "ios": "https://dc.lft.to/lastmile_qr_scan"}, "is_reserved": 0, "lon": -77.063331, "name": "c1e3c5a36fc027f748eb7965f2cd756f", "bike_id": "c1e3c5a36fc027f748eb7965f2cd756f", "is_disabled": 0}, {"fusion_lat": 0.0, "fusion_lon": 0.0, "lat": 38.90107016666666, "type": "electric_scooter", "rental_uris": {"android": "https://dc.lft.to/lastmile_qr_scan", "ios": "https://dc.lft.to/lastmile_qr_scan"}, "is_reserved": 0, "lon": -77.05972583333333, "name": "82d593a7694dde5320feef27b87e2d9c", "bike_id": "82d593a7694dde5320feef27b87e2d9c", "is_disabled": 0}, {"fusion_lat": 0.0, "fusion_lon": 0.0, "lat": 38.914001, "type": "electric_scooter", "rental_uris": {"android": "https://dc.lft.to/lastmile_qr_scan", "ios": "https://dc.lft.to/lastmile_qr_scan"}, "is_reserved": 0, "lon": -77.024056, "name": "58a5a435d532c2b2c4b883879ab34634", "bike_id": "58a5a435d532c2b2c4b883879ab34634", "is_disabled": 0}, {"fusion_lat": 0.0, "fusion_lon": 0.0, "lat": 38.90097333333333, "type": "electric_scooter", "rental_uris": {"android": "https://dc.lft.to/lastmile_qr_scan", "ios": "https://dc.lft.to/lastmile_qr_scan"}, "is_reserved": 0, "lon": -77.013364, "name": "1eef195436116f9fc1aaef1983b12805", "bike_id": "1eef195436116f9fc1aaef1983b12805", "is_disabled": 0}, {"fusion_lat": 0.0, "fusion_lon": 0.0, "lat": 38.909248833333336, "type": "electric_scooter", "rental_uris": {"android": "https://dc.lft.to/lastmile_qr_scan", "ios": "https://dc.lft.to/lastmile_qr_scan"}, "is_reserved": 0, "lon": -77.01896966666666, "name": "2fffefe5b237693235a13d04766944f9", "bike_id": "2fffefe5b237693235a13d04766944f9", "is_disabled": 0}, {"fusion_lat": 0.0, "fusion_lon": 0.0, "lat": 38.902912, "type": "electric_scooter", "rental_uris": {"android": "https://dc.lft.to/lastmile_qr_scan", "ios": "https://dc.lft.to/lastmile_qr_scan"}, "is_reserved": 0, "lon": -77.0019275, "name": "91a1064bb1445ed071670f1eba93d355", "bike_id": "91a1064bb1445ed071670f1eba93d355", "is_disabled": 0}, {"fusion_lat": 0.0, "fusion_lon": 0.0, "lat": 38.90067666666667, "type": "electric_scooter", "rental_uris": {"android": "https://dc.lft.to/lastmile_qr_scan", "ios": "https://dc.lft.to/lastmile_qr_scan"}, "is_reserved": 0, "lon": -77.04825116666666, "name": "6a249622e21a3da6dac8fe8c18201d65", "bike_id": "6a249622e21a3da6dac8fe8c18201d65", "is_disabled": 0}, {"fusion_lat": 0.0, "fusion_lon": 0.0, "lat": 38.9157165, "type": "electric_scooter", "rental_uris": {"android": "https://dc.lft.to/lastmile_qr_scan", "ios": "https://dc.lft.to/lastmile_qr_scan"}, "is_reserved": 0, "lon": -77.02287583333333, "name": "7d8dc288d5c1a704b95543b522868517", "bike_id": "7d8dc288d5c1a704b95543b522868517", "is_disabled": 0}, {"fusion_lat": 0.0, "fusion_lon": 0.0, "lat": 38.922540166666664, "type": "electric_scooter", "rental_uris": {"android": "https://dc.lft.to/lastmile_qr_scan", "ios": "https://dc.lft.to/lastmile_qr_scan"}, "is_reserved": 0, "lon": -77.03898066666666, "name": "6a095ef191f1756e9bc1e172692a3fed", "bike_id": "6a095ef191f1756e9bc1e172692a3fed", "is_disabled": 0}, {"fusion_lat": 0.0, "fusion_lon": 0.0, "lat": 38.957124666666665, "type": "electric_bike", "rental_uris": {"android": "https://dc.lft.to/lastmile_qr_scan", "ios": "https://dc.lft.to/lastmile_qr_scan"}, "is_reserved": 0, "lon": -77.00278316666666, "name": "d9364fcff44ef0096bf0b9c82d598ddb", "bike_id": "d9364fcff44ef0096bf0b9c82d598ddb", "is_disabled": 0}, {"fusion_lat": 0.0, "fusion_lon": 0.0, "lat": 38.90280166666667, "type": "electric_scooter", "rental_uris": {"android": "https://dc.lft.to/lastmile_qr_scan", "ios": "https://dc.lft.to/lastmile_qr_scan"}, "is_reserved": 0, "lon": -77.033366, "name": "03b038c6da7074b128cb5833b6978d34", "bike_id": "03b038c6da7074b128cb5833b6978d34", "is_disabled": 0}, {"fusion_lat": 0.0, "fusion_lon": 0.0, "lat": 38.886576166666664, "type": "electric_bike", "rental_uris": {"android": "https://dc.lft.to/lastmile_qr_scan", "ios": "https://dc.lft.to/lastmile_qr_scan"}, "is_reserved": 0, "lon": -77.16237416666667, "name": "e8b4499e31e82fc3e4e94cdb481ce224", "bike_id": "e8b4499e31e82fc3e4e94cdb481ce224", "is_disabled": 0}, {"fusion_lat": 0.0, "fusion_lon": 0.0, "lat": 38.908953, "type": "electric_scooter", "rental_uris": {"android": "https://dc.lft.to/lastmile_qr_scan", "ios": "https://dc.lft.to/lastmile_qr_scan"}, "is_reserved": 0, "lon": -77.04317083333333, "name": "2a812a8a94529d722e71047d6acae562", "bike_id": "2a812a8a94529d722e71047d6acae562", "is_disabled": 0}, {"fusion_lat": 0.0, "fusion_lon": 0.0, "lat": 38.915921, "type": "electric_scooter", "rental_uris": {"android": "https://dc.lft.to/lastmile_qr_scan", "ios": "https://dc.lft.to/lastmile_qr_scan"}, "is_reserved": 0, "lon": -77.02298516666667, "name": "7ab318efcb987ff5c3c8a4ce84d56253", "bike_id": "7ab318efcb987ff5c3c8a4ce84d56253", "is_disabled": 0}, {"fusion_lat": 0.0, "fusion_lon": 0.0, "lat": 38.90010083333333, "type": "electric_scooter", "rental_uris": {"android": "https://dc.lft.to/lastmile_qr_scan", "ios": "https://dc.lft.to/lastmile_qr_scan"}, "is_reserved": 0, "lon": -77.04150033333333, "name": "eec7099574d07e69f7fd865a54c2063d", "bike_id": "eec7099574d07e69f7fd865a54c2063d", "is_disabled": 0}, {"fusion_lat": 0.0, "fusion_lon": 0.0, "lat": 38.88749516666667, "type": "electric_scooter", "rental_uris": {"android": "https://dc.lft.to/lastmile_qr_scan", "ios": "https://dc.lft.to/lastmile_qr_scan"}, "is_reserved": 0, "lon": -77.0256785, "name": "03075d2f982578e19dd07ea2c019c5e4", "bike_id": "03075d2f982578e19dd07ea2c019c5e4", "is_disabled": 0}, {"fusion_lat": 0.0, "fusion_lon": 0.0, "lat": 38.909560666666664, "type": "electric_scooter", "rental_uris": {"android": "https://dc.lft.to/lastmile_qr_scan", "ios": "https://dc.lft.to/lastmile_qr_scan"}, "is_reserved": 0, "lon": -77.0327075, "name": "e389f30b2d2fcb59ecdad78fa26b96b0", "bike_id": "e389f30b2d2fcb59ecdad78fa26b96b0", "is_disabled": 0}, {"fusion_lat": 0.0, "fusion_lon": 0.0, "lat": 38.91120516666667, "type": "electric_scooter", "rental_uris": {"android": "https://dc.lft.to/lastmile_qr_scan", "ios": "https://dc.lft.to/lastmile_qr_scan"}, "is_reserved": 0, "lon": -77.03570483333333, "name": "c66d5369249110127b3704a70eda51cd", "bike_id": "c66d5369249110127b3704a70eda51cd", "is_disabled": 0}, {"fusion_lat": 0.0, "fusion_lon": 0.0, "lat": 38.892385833333336, "type": "electric_scooter", "rental_uris": {"android": "https://dc.lft.to/lastmile_qr_scan", "ios": "https://dc.lft.to/lastmile_qr_scan"}, "is_reserved": 0, "lon": -77.0258645, "name": "4e35c5e30ed6e2ca3e67b81f65aaa0d8", "bike_id": "4e35c5e30ed6e2ca3e67b81f65aaa0d8", "is_disabled": 0}, {"fusion_lat": 0.0, "fusion_lon": 0.0, "lat": 38.923652, "type": "electric_scooter", "rental_uris": {"android": "https://dc.lft.to/lastmile_qr_scan", "ios": "https://dc.lft.to/lastmile_qr_scan"}, "is_reserved": 0, "lon": -77.02119766666667, "name": "adf9a28469b0c1aeae133f426f54f52f", "bike_id": "adf9a28469b0c1aeae133f426f54f52f", "is_disabled": 0}, {"fusion_lat": 0.0, "fusion_lon": 0.0, "lat": 38.89867266666667, "type": "electric_scooter", "rental_uris": {"android": "https://dc.lft.to/lastmile_qr_scan", "ios": "https://dc.lft.to/lastmile_qr_scan"}, "is_reserved": 0, "lon": -76.946387, "name": "2deba42045fd1cb29fcb5db73f6320ba", "bike_id": "2deba42045fd1cb29fcb5db73f6320ba", "is_disabled": 0}, {"fusion_lat": 0.0, "fusion_lon": 0.0, "lat": 38.957759, "type": "electric_scooter", "rental_uris": {"android": "https://dc.lft.to/lastmile_qr_scan", "ios": "https://dc.lft.to/lastmile_qr_scan"}, "is_reserved": 0, "lon": -77.02480016666667, "name": "c8835d7f478799b664de8539a709c425", "bike_id": "c8835d7f478799b664de8539a709c425", "is_disabled": 0}, {"fusion_lat": 0.0, "fusion_lon": 0.0, "lat": 38.92658316666667, "type": "electric_scooter", "rental_uris": {"android": "https://dc.lft.to/lastmile_qr_scan", "ios": "https://dc.lft.to/lastmile_qr_scan"}, "is_reserved": 0, "lon": -77.0373055, "name": "a20550097b24b942e4d7a745ffac1649", "bike_id": "a20550097b24b942e4d7a745ffac1649", "is_disabled": 0}, {"fusion_lat": 0.0, "fusion_lon": 0.0, "lat": 38.914707166666666, "type": "electric_scooter", "rental_uris": {"android": "https://dc.lft.to/lastmile_qr_scan", "ios": "https://dc.lft.to/lastmile_qr_scan"}, "is_reserved": 0, "lon": -77.0455415, "name": "b6852b59754af0b69a161bf506c0fcec", "bike_id": "b6852b59754af0b69a161bf506c0fcec", "is_disabled": 0}, {"fusion_lat": 0.0, "fusion_lon": 0.0, "lat": 38.881216, "type": "electric_bike", "rental_uris": {"android": "https://dc.lft.to/lastmile_qr_scan", "ios": "https://dc.lft.to/lastmile_qr_scan"}, "is_reserved": 0, "lon": -77.0165085, "name": "f377a9d3bf6dfe28807ff08cbfc1a266", "bike_id": "f377a9d3bf6dfe28807ff08cbfc1a266", "is_disabled": 0}, {"fusion_lat": 0.0, "fusion_lon": 0.0, "lat": 38.87381366666666, "type": "electric_scooter", "rental_uris": {"android": "https://dc.lft.to/lastmile_qr_scan", "ios": "https://dc.lft.to/lastmile_qr_scan"}, "is_reserved": 0, "lon": -77.00150566666667, "name": "060083a60b786f39a483ed0a49f73d95", "bike_id": "060083a60b786f39a483ed0a49f73d95", "is_disabled": 0}, {"fusion_lat": 0.0, "fusion_lon": 0.0, "lat": 38.909635333333334, "type": "electric_scooter", "rental_uris": {"android": "https://dc.lft.to/lastmile_qr_scan", "ios": "https://dc.lft.to/lastmile_qr_scan"}, "is_reserved": 0, "lon": -77.04457766666667, "name": "36cfae991a4225264f1ad29e9d585135", "bike_id": "36cfae991a4225264f1ad29e9d585135", "is_disabled": 0}, {"fusion_lat": 0.0, "fusion_lon": 0.0, "lat": 38.8958495, "type": "electric_scooter", "rental_uris": {"android": "https://dc.lft.to/lastmile_qr_scan", "ios": "https://dc.lft.to/lastmile_qr_scan"}, "is_reserved": 0, "lon": -76.98181766666667, "name": "6953e5537bfae66df2b8b0b3c3083b6b", "bike_id": "6953e5537bfae66df2b8b0b3c3083b6b", "is_disabled": 0}, {"fusion_lat": 0.0, "fusion_lon": 0.0, "lat": 38.9291475, "type": "electric_bike", "rental_uris": {"android": "https://dc.lft.to/lastmile_qr_scan", "ios": "https://dc.lft.to/lastmile_qr_scan"}, "is_reserved": 0, "lon": -77.03260933333334, "name": "22d20183ad0497503dc11d505413da99", "bike_id": "22d20183ad0497503dc11d505413da99", "is_disabled": 0}, {"fusion_lat": 0.0, "fusion_lon": 0.0, "lat": 38.898608, "type": "electric_scooter", "rental_uris": {"android": "https://dc.lft.to/lastmile_qr_scan", "ios": "https://dc.lft.to/lastmile_qr_scan"}, "is_reserved": 0, "lon": -76.94637066666667, "name": "41664522eb0bb9be1535ebb5a79c4b93", "bike_id": "41664522eb0bb9be1535ebb5a79c4b93", "is_disabled": 0}, {"fusion_lat": 0.0, "fusion_lon": 0.0, "lat": 38.924727, "type": "electric_scooter", "rental_uris": {"android": "https://dc.lft.to/lastmile_qr_scan", "ios": "https://dc.lft.to/lastmile_qr_scan"}, "is_reserved": 0, "lon": -77.02225016666667, "name": "b4bd9d810488291940bb32149c2512f0", "bike_id": "b4bd9d810488291940bb32149c2512f0", "is_disabled": 0}, {"fusion_lat": 0.0, "fusion_lon": 0.0, "lat": 38.901515, "type": "electric_scooter", "rental_uris": {"android": "https://dc.lft.to/lastmile_qr_scan", "ios": "https://dc.lft.to/lastmile_qr_scan"}, "is_reserved": 0, "lon": -77.0401215, "name": "5bb41c75d3f44842d172ed537b7d0dfc", "bike_id": "5bb41c75d3f44842d172ed537b7d0dfc", "is_disabled": 0}, {"fusion_lat": 0.0, "fusion_lon": 0.0, "lat": 38.866873, "type": "electric_scooter", "rental_uris": {"android": "https://dc.lft.to/lastmile_qr_scan", "ios": "https://dc.lft.to/lastmile_qr_scan"}, "is_reserved": 0, "lon": -76.98542233333333, "name": "0626461efcc5dff5807db23dfce8633d", "bike_id": "0626461efcc5dff5807db23dfce8633d", "is_disabled": 0}, {"fusion_lat": 0.0, "fusion_lon": 0.0, "lat": 38.914533, "type": "electric_scooter", "rental_uris": {"android": "https://dc.lft.to/lastmile_qr_scan", "ios": "https://dc.lft.to/lastmile_qr_scan"}, "is_reserved": 0, "lon": -77.02198716666666, "name": "5e603f9ec73305942c7ad84b7d889906", "bike_id": "5e603f9ec73305942c7ad84b7d889906", "is_disabled": 0}, {"fusion_lat": 0.0, "fusion_lon": 0.0, "lat": 38.81508866666667, "type": "electric_bike", "rental_uris": {"android": "https://dc.lft.to/lastmile_qr_scan", "ios": "https://dc.lft.to/lastmile_qr_scan"}, "is_reserved": 0, "lon": -77.126517, "name": "d9eb48f4f61754ce97f5d5088a32f67a", "bike_id": "d9eb48f4f61754ce97f5d5088a32f67a", "is_disabled": 0}, {"fusion_lat": 0.0, "fusion_lon": 0.0, "lat": 38.902653, "type": "electric_scooter", "rental_uris": {"android": "https://dc.lft.to/lastmile_qr_scan", "ios": "https://dc.lft.to/lastmile_qr_scan"}, "is_reserved": 0, "lon": -77.02934, "name": "8b1f4efd74c4bd8dffb39588f21064cf", "bike_id": "8b1f4efd74c4bd8dffb39588f21064cf", "is_disabled": 0}, {"fusion_lat": 0.0, "fusion_lon": 0.0, "lat": 38.7947065, "type": "electric_bike", "rental_uris": {"android": "https://dc.lft.to/lastmile_qr_scan", "ios": "https://dc.lft.to/lastmile_qr_scan"}, "is_reserved": 0, "lon": -76.99240683333333, "name": "62a9210d5fa0d2e2f06700887de5b78c", "bike_id": "62a9210d5fa0d2e2f06700887de5b78c", "is_disabled": 0}, {"fusion_lat": 0.0, "fusion_lon": 0.0, "lat": 38.894879, "type": "electric_scooter", "rental_uris": {"android": "https://dc.lft.to/lastmile_qr_scan", "ios": "https://dc.lft.to/lastmile_qr_scan"}, "is_reserved": 0, "lon": -77.022895, "name": "20466fb25eb3ff358cddf1a6c685b06e", "bike_id": "20466fb25eb3ff358cddf1a6c685b06e", "is_disabled": 0}, {"fusion_lat": 0.0, "fusion_lon": 0.0, "lat": 38.90045583333333, "type": "electric_scooter", "rental_uris": {"android": "https://dc.lft.to/lastmile_qr_scan", "ios": "https://dc.lft.to/lastmile_qr_scan"}, "is_reserved": 0, "lon": -77.043724, "name": "d5dd650d5cb58e45997443f77b69c8f6", "bike_id": "d5dd650d5cb58e45997443f77b69c8f6", "is_disabled": 0}, {"fusion_lat": 0.0, "fusion_lon": 0.0, "lat": 38.920429166666665, "type": "electric_scooter", "rental_uris": {"android": "https://dc.lft.to/lastmile_qr_scan", "ios": "https://dc.lft.to/lastmile_qr_scan"}, "is_reserved": 0, "lon": -77.04190283333334, "name": "f112d81863e11dff52ae975137cc52c8", "bike_id": "f112d81863e11dff52ae975137cc52c8", "is_disabled": 0}, {"fusion_lat": 0.0, "fusion_lon": 0.0, "lat": 38.98468066666667, "type": "electric_scooter", "rental_uris": {"android": "https://dc.lft.to/lastmile_qr_scan", "ios": "https://dc.lft.to/lastmile_qr_scan"}, "is_reserved": 0, "lon": -77.02635783333334, "name": "6d887054ad6eff8b544e5f220be2f24e", "bike_id": "6d887054ad6eff8b544e5f220be2f24e", "is_disabled": 0}, {"fusion_lat": 0.0, "fusion_lon": 0.0, "lat": 38.908093, "type": "electric_scooter", "rental_uris": {"android": "https://dc.lft.to/lastmile_qr_scan", "ios": "https://dc.lft.to/lastmile_qr_scan"}, "is_reserved": 0, "lon": -77.04347633333333, "name": "8b38544bd900d6ea8c6e2c061db6c9e5", "bike_id": "8b38544bd900d6ea8c6e2c061db6c9e5", "is_disabled": 0}, {"fusion_lat": 0.0, "fusion_lon": 0.0, "lat": 38.91215916666667, "type": "electric_scooter", "rental_uris": {"android": "https://dc.lft.to/lastmile_qr_scan", "ios": "https://dc.lft.to/lastmile_qr_scan"}, "is_reserved": 0, "lon": -77.02956483333334, "name": "0bf00bc7875cb7fae53e56b1588e1cbc", "bike_id": "0bf00bc7875cb7fae53e56b1588e1cbc", "is_disabled": 0}, {"fusion_lat": 0.0, "fusion_lon": 0.0, "lat": 38.9250135, "type": "electric_scooter", "rental_uris": {"android": "https://dc.lft.to/lastmile_qr_scan", "ios": "https://dc.lft.to/lastmile_qr_scan"}, "is_reserved": 0, "lon": -77.04137966666667, "name": "6a59af262d1788f39c6db894160dc754", "bike_id": "6a59af262d1788f39c6db894160dc754", "is_disabled": 0}, {"fusion_lat": 0.0, "fusion_lon": 0.0, "lat": 38.899921, "type": "electric_scooter", "rental_uris": {"android": "https://dc.lft.to/lastmile_qr_scan", "ios": "https://dc.lft.to/lastmile_qr_scan"}, "is_reserved": 0, "lon": -77.05570066666667, "name": "6ea8f41da939493a98a636cfe4959952", "bike_id": "6ea8f41da939493a98a636cfe4959952", "is_disabled": 0}, {"fusion_lat": 0.0, "fusion_lon": 0.0, "lat": 38.916658, "type": "electric_scooter", "rental_uris": {"android": "https://dc.lft.to/lastmile_qr_scan", "ios": "https://dc.lft.to/lastmile_qr_scan"}, "is_reserved": 0, "lon": -77.023789, "name": "a70aaa0f913574fd3db509733bb6174c", "bike_id": "a70aaa0f913574fd3db509733bb6174c", "is_disabled": 0}, {"fusion_lat": 0.0, "fusion_lon": 0.0, "lat": 38.9094985, "type": "electric_scooter", "rental_uris": {"android": "https://dc.lft.to/lastmile_qr_scan", "ios": "https://dc.lft.to/lastmile_qr_scan"}, "is_reserved": 0, "lon": -77.03451383333334, "name": "7698701de809eeb1f797af24b1ebd15d", "bike_id": "7698701de809eeb1f797af24b1ebd15d", "is_disabled": 0}, {"fusion_lat": 0.0, "fusion_lon": 0.0, "lat": 38.939667166666666, "type": "electric_scooter", "rental_uris": {"android": "https://dc.lft.to/lastmile_qr_scan", "ios": "https://dc.lft.to/lastmile_qr_scan"}, "is_reserved": 0, "lon": -77.02451366666666, "name": "04656c88197c3779d7d1dfca494360d9", "bike_id": "04656c88197c3779d7d1dfca494360d9", "is_disabled": 0}, {"fusion_lat": 0.0, "fusion_lon": 0.0, "lat": 38.9098675, "type": "electric_scooter", "rental_uris": {"android": "https://dc.lft.to/lastmile_qr_scan", "ios": "https://dc.lft.to/lastmile_qr_scan"}, "is_reserved": 0, "lon": -77.03460633333333, "name": "d14495215aaf6a989fec562c873b137b", "bike_id": "d14495215aaf6a989fec562c873b137b", "is_disabled": 0}, {"fusion_lat": 0.0, "fusion_lon": 0.0, "lat": 38.8575745, "type": "electric_scooter", "rental_uris": {"android": "https://dc.lft.to/lastmile_qr_scan", "ios": "https://dc.lft.to/lastmile_qr_scan"}, "is_reserved": 0, "lon": -76.99300766666667, "name": "2fadca9f3e2b7b831bba82f438fed891", "bike_id": "2fadca9f3e2b7b831bba82f438fed891", "is_disabled": 0}, {"fusion_lat": 0.0, "fusion_lon": 0.0, "lat": 38.90557183333333, "type": "electric_scooter", "rental_uris": {"android": "https://dc.lft.to/lastmile_qr_scan", "ios": "https://dc.lft.to/lastmile_qr_scan"}, "is_reserved": 0, "lon": -77.043069, "name": "6cde2c96999fed6074a7104ebbc96164", "bike_id": "6cde2c96999fed6074a7104ebbc96164", "is_disabled": 0}, {"fusion_lat": 0.0, "fusion_lon": 0.0, "lat": 38.919157, "type": "electric_scooter", "rental_uris": {"android": "https://dc.lft.to/lastmile_qr_scan", "ios": "https://dc.lft.to/lastmile_qr_scan"}, "is_reserved": 0, "lon": -77.03373133333334, "name": "7f3565026ed3fea4e815e963ba5ca362", "bike_id": "7f3565026ed3fea4e815e963ba5ca362", "is_disabled": 0}, {"fusion_lat": 0.0, "fusion_lon": 0.0, "lat": 38.899901166666666, "type": "electric_scooter", "rental_uris": {"android": "https://dc.lft.to/lastmile_qr_scan", "ios": "https://dc.lft.to/lastmile_qr_scan"}, "is_reserved": 0, "lon": -77.0066405, "name": "d908dbaeebb7c0e6affe9b9af5127a07", "bike_id": "d908dbaeebb7c0e6affe9b9af5127a07", "is_disabled": 0}, {"fusion_lat": 0.0, "fusion_lon": 0.0, "lat": 38.899208333333334, "type": "electric_scooter", "rental_uris": {"android": "https://dc.lft.to/lastmile_qr_scan", "ios": "https://dc.lft.to/lastmile_qr_scan"}, "is_reserved": 0, "lon": -77.01264133333333, "name": "7d1c11ae722a595977cde287b676e044", "bike_id": "7d1c11ae722a595977cde287b676e044", "is_disabled": 0}, {"fusion_lat": 0.0, "fusion_lon": 0.0, "lat": 38.909139833333334, "type": "electric_scooter", "rental_uris": {"android": "https://dc.lft.to/lastmile_qr_scan", "ios": "https://dc.lft.to/lastmile_qr_scan"}, "is_reserved": 0, "lon": -77.07182683333333, "name": "5a065624a14a614928c7a11a73b2886c", "bike_id": "5a065624a14a614928c7a11a73b2886c", "is_disabled": 0}, {"fusion_lat": 0.0, "fusion_lon": 0.0, "lat": 38.8936135, "type": "electric_scooter", "rental_uris": {"android": "https://dc.lft.to/lastmile_qr_scan", "ios": "https://dc.lft.to/lastmile_qr_scan"}, "is_reserved": 0, "lon": -76.94938816666667, "name": "8992a0cf6fd6098c248955af4b1afef5", "bike_id": "8992a0cf6fd6098c248955af4b1afef5", "is_disabled": 0}, {"fusion_lat": 0.0, "fusion_lon": 0.0, "lat": 38.898460666666665, "type": "electric_scooter", "rental_uris": {"android": "https://dc.lft.to/lastmile_qr_scan", "ios": "https://dc.lft.to/lastmile_qr_scan"}, "is_reserved": 0, "lon": -77.02677233333333, "name": "84dee47434bb5fd41f6ee93f848dec1e", "bike_id": "84dee47434bb5fd41f6ee93f848dec1e", "is_disabled": 0}, {"fusion_lat": 0.0, "fusion_lon": 0.0, "lat": 38.8961685, "type": "electric_scooter", "rental_uris": {"android": "https://dc.lft.to/lastmile_qr_scan", "ios": "https://dc.lft.to/lastmile_qr_scan"}, "is_reserved": 0, "lon": -77.04460033333334, "name": "c65f7f1ce2f6a559bede9f7c79c264cd", "bike_id": "c65f7f1ce2f6a559bede9f7c79c264cd", "is_disabled": 0}, {"fusion_lat": 0.0, "fusion_lon": 0.0, "lat": 38.874612, "type": "electric_scooter", "rental_uris": {"android": "https://dc.lft.to/lastmile_qr_scan", "ios": "https://dc.lft.to/lastmile_qr_scan"}, "is_reserved": 0, "lon": -77.0048835, "name": "ea35e31de99ae97add379bc0161500e8", "bike_id": "ea35e31de99ae97add379bc0161500e8", "is_disabled": 0}, {"fusion_lat": 0.0, "fusion_lon": 0.0, "lat": 38.907909833333335, "type": "electric_scooter", "rental_uris": {"android": "https://dc.lft.to/lastmile_qr_scan", "ios": "https://dc.lft.to/lastmile_qr_scan"}, "is_reserved": 0, "lon": -77.04491483333334, "name": "d7ab39e4d036e06e4419c6e7771759c3", "bike_id": "d7ab39e4d036e06e4419c6e7771759c3", "is_disabled": 0}, {"fusion_lat": 0.0, "fusion_lon": 0.0, "lat": 38.903536833333334, "type": "electric_scooter", "rental_uris": {"android": "https://dc.lft.to/lastmile_qr_scan", "ios": "https://dc.lft.to/lastmile_qr_scan"}, "is_reserved": 0, "lon": -77.03756316666667, "name": "af7746dbd1b3c0c519a495fcefe614ad", "bike_id": "af7746dbd1b3c0c519a495fcefe614ad", "is_disabled": 0}, {"fusion_lat": 0.0, "fusion_lon": 0.0, "lat": 38.903417, "type": "electric_scooter", "rental_uris": {"android": "https://dc.lft.to/lastmile_qr_scan", "ios": "https://dc.lft.to/lastmile_qr_scan"}, "is_reserved": 0, "lon": -77.045271, "name": "8ddd1b07c7566c59c112bdfc21221d00", "bike_id": "8ddd1b07c7566c59c112bdfc21221d00", "is_disabled": 0}, {"fusion_lat": 0.0, "fusion_lon": 0.0, "lat": 38.8960055, "type": "electric_scooter", "rental_uris": {"android": "https://dc.lft.to/lastmile_qr_scan", "ios": "https://dc.lft.to/lastmile_qr_scan"}, "is_reserved": 0, "lon": -77.02251233333334, "name": "0fd79b6c6fc541b872185413b8a88bbe", "bike_id": "0fd79b6c6fc541b872185413b8a88bbe", "is_disabled": 0}, {"fusion_lat": 0.0, "fusion_lon": 0.0, "lat": 38.8729285, "type": "electric_scooter", "rental_uris": {"android": "https://dc.lft.to/lastmile_qr_scan", "ios": "https://dc.lft.to/lastmile_qr_scan"}, "is_reserved": 0, "lon": -77.0098245, "name": "ee09dc8d703b0d3e4f2e3b72c8fd7502", "bike_id": "ee09dc8d703b0d3e4f2e3b72c8fd7502", "is_disabled": 0}, {"fusion_lat": 0.0, "fusion_lon": 0.0, "lat": 38.872187, "type": "electric_scooter", "rental_uris": {"android": "https://dc.lft.to/lastmile_qr_scan", "ios": "https://dc.lft.to/lastmile_qr_scan"}, "is_reserved": 0, "lon": -77.01756433333334, "name": "e1b12cfeb3a011f0c3e7427a7af2798a", "bike_id": "e1b12cfeb3a011f0c3e7427a7af2798a", "is_disabled": 0}, {"fusion_lat": 0.0, "fusion_lon": 0.0, "lat": 38.907418166666666, "type": "electric_scooter", "rental_uris": {"android": "https://dc.lft.to/lastmile_qr_scan", "ios": "https://dc.lft.to/lastmile_qr_scan"}, "is_reserved": 0, "lon": -77.04537483333333, "name": "d8ec8eee360ae5f65d6ffbb70f61826f", "bike_id": "d8ec8eee360ae5f65d6ffbb70f61826f", "is_disabled": 0}, {"fusion_lat": 0.0, "fusion_lon": 0.0, "lat": 38.878812833333335, "type": "electric_bike", "rental_uris": {"android": "https://dc.lft.to/lastmile_qr_scan", "ios": "https://dc.lft.to/lastmile_qr_scan"}, "is_reserved": 0, "lon": -77.09610266666667, "name": "aafbd0c1e270d46f1eef38b994dea142", "bike_id": "aafbd0c1e270d46f1eef38b994dea142", "is_disabled": 0}, {"fusion_lat": 0.0, "fusion_lon": 0.0, "lat": 38.919114666666665, "type": "electric_scooter", "rental_uris": {"android": "https://dc.lft.to/lastmile_qr_scan", "ios": "https://dc.lft.to/lastmile_qr_scan"}, "is_reserved": 0, "lon": -77.02085033333333, "name": "118c6482ffd642f1768c00d14812b356", "bike_id": "118c6482ffd642f1768c00d14812b356", "is_disabled": 0}, {"fusion_lat": 0.0, "fusion_lon": 0.0, "lat": 38.90341883333333, "type": "electric_scooter", "rental_uris": {"android": "https://dc.lft.to/lastmile_qr_scan", "ios": "https://dc.lft.to/lastmile_qr_scan"}, "is_reserved": 0, "lon": -77.02193433333333, "name": "532dfb11b6211685778d98d9fbc71f0d", "bike_id": "532dfb11b6211685778d98d9fbc71f0d", "is_disabled": 0}, {"fusion_lat": 0.0, "fusion_lon": 0.0, "lat": 38.9095185, "type": "electric_scooter", "rental_uris": {"android": "https://dc.lft.to/lastmile_qr_scan", "ios": "https://dc.lft.to/lastmile_qr_scan"}, "is_reserved": 0, "lon": -77.03449616666667, "name": "bb4e048eaad2a26a8b4dfb92fc8aaa63", "bike_id": "bb4e048eaad2a26a8b4dfb92fc8aaa63", "is_disabled": 0}, {"fusion_lat": 0.0, "fusion_lon": 0.0, "lat": 38.89997116666667, "type": "electric_scooter", "rental_uris": {"android": "https://dc.lft.to/lastmile_qr_scan", "ios": "https://dc.lft.to/lastmile_qr_scan"}, "is_reserved": 0, "lon": -77.02936583333333, "name": "8bb24a17fb006dd803bd06bd4dbbfd6d", "bike_id": "8bb24a17fb006dd803bd06bd4dbbfd6d", "is_disabled": 0}, {"fusion_lat": 0.0, "fusion_lon": 0.0, "lat": 38.90464866666667, "type": "electric_scooter", "rental_uris": {"android": "https://dc.lft.to/lastmile_qr_scan", "ios": "https://dc.lft.to/lastmile_qr_scan"}, "is_reserved": 0, "lon": -77.03898783333334, "name": "46806ac486ebd52155cf41aaac8ead29", "bike_id": "46806ac486ebd52155cf41aaac8ead29", "is_disabled": 0}, {"fusion_lat": 0.0, "fusion_lon": 0.0, "lat": 38.89639183333333, "type": "electric_scooter", "rental_uris": {"android": "https://dc.lft.to/lastmile_qr_scan", "ios": "https://dc.lft.to/lastmile_qr_scan"}, "is_reserved": 0, "lon": -77.04013566666667, "name": "c1c3923977d4caef630fe21dcf241f78", "bike_id": "c1c3923977d4caef630fe21dcf241f78", "is_disabled": 0}, {"fusion_lat": 0.0, "fusion_lon": 0.0, "lat": 38.916956666666664, "type": "electric_scooter", "rental_uris": {"android": "https://dc.lft.to/lastmile_qr_scan", "ios": "https://dc.lft.to/lastmile_qr_scan"}, "is_reserved": 0, "lon": -77.02485583333333, "name": "04b65e48bb8300929515549581ac0e84", "bike_id": "04b65e48bb8300929515549581ac0e84", "is_disabled": 0}, {"fusion_lat": 0.0, "fusion_lon": 0.0, "lat": 38.94092283333333, "type": "electric_scooter", "rental_uris": {"android": "https://dc.lft.to/lastmile_qr_scan", "ios": "https://dc.lft.to/lastmile_qr_scan"}, "is_reserved": 0, "lon": -77.02494566666667, "name": "ad62ea8ec8906817111af3793134fba6", "bike_id": "ad62ea8ec8906817111af3793134fba6", "is_disabled": 0}, {"fusion_lat": 0.0, "fusion_lon": 0.0, "lat": 38.9560235, "type": "electric_scooter", "rental_uris": {"android": "https://dc.lft.to/lastmile_qr_scan", "ios": "https://dc.lft.to/lastmile_qr_scan"}, "is_reserved": 0, "lon": -77.02732, "name": "5884a407ff7b439f6a645434526c7bec", "bike_id": "5884a407ff7b439f6a645434526c7bec", "is_disabled": 0}, {"fusion_lat": 0.0, "fusion_lon": 0.0, "lat": 38.91818216666667, "type": "electric_scooter", "rental_uris": {"android": "https://dc.lft.to/lastmile_qr_scan", "ios": "https://dc.lft.to/lastmile_qr_scan"}, "is_reserved": 0, "lon": -77.00954383333334, "name": "95c5696614957e5cd72d3a2ad42ca993", "bike_id": "95c5696614957e5cd72d3a2ad42ca993", "is_disabled": 0}, {"fusion_lat": 0.0, "fusion_lon": 0.0, "lat": 38.930433666666666, "type": "electric_scooter", "rental_uris": {"android": "https://dc.lft.to/lastmile_qr_scan", "ios": "https://dc.lft.to/lastmile_qr_scan"}, "is_reserved": 0, "lon": -77.03203033333334, "name": "17c7782d4fd380afc6db560952490479", "bike_id": "17c7782d4fd380afc6db560952490479", "is_disabled": 0}, {"fusion_lat": 0.0, "fusion_lon": 0.0, "lat": 38.928026833333334, "type": "electric_scooter", "rental_uris": {"android": "https://dc.lft.to/lastmile_qr_scan", "ios": "https://dc.lft.to/lastmile_qr_scan"}, "is_reserved": 0, "lon": -77.0359085, "name": "956a74c36568f3ed0fca1a48b7bc2b4d", "bike_id": "956a74c36568f3ed0fca1a48b7bc2b4d", "is_disabled": 0}, {"fusion_lat": 0.0, "fusion_lon": 0.0, "lat": 38.8974195, "type": "electric_scooter", "rental_uris": {"android": "https://dc.lft.to/lastmile_qr_scan", "ios": "https://dc.lft.to/lastmile_qr_scan"}, "is_reserved": 0, "lon": -77.00142883333334, "name": "a691f428725a10096755c7dc73f18140", "bike_id": "a691f428725a10096755c7dc73f18140", "is_disabled": 0}, {"fusion_lat": 0.0, "fusion_lon": 0.0, "lat": 38.9112455, "type": "electric_scooter", "rental_uris": {"android": "https://dc.lft.to/lastmile_qr_scan", "ios": "https://dc.lft.to/lastmile_qr_scan"}, "is_reserved": 0, "lon": -77.03186616666666, "name": "37243e6120069306910a49c6d9676401", "bike_id": "37243e6120069306910a49c6d9676401", "is_disabled": 0}, {"fusion_lat": 0.0, "fusion_lon": 0.0, "lat": 38.89222083333333, "type": "electric_scooter", "rental_uris": {"android": "https://dc.lft.to/lastmile_qr_scan", "ios": "https://dc.lft.to/lastmile_qr_scan"}, "is_reserved": 0, "lon": -77.046864, "name": "da2435f05093711242f5ac1e3d4b981a", "bike_id": "da2435f05093711242f5ac1e3d4b981a", "is_disabled": 0}, {"fusion_lat": 0.0, "fusion_lon": 0.0, "lat": 38.91873233333333, "type": "electric_scooter", "rental_uris": {"android": "https://dc.lft.to/lastmile_qr_scan", "ios": "https://dc.lft.to/lastmile_qr_scan"}, "is_reserved": 0, "lon": -77.01474566666667, "name": "a5298d22d9457fe26be98ad3a1593696", "bike_id": "a5298d22d9457fe26be98ad3a1593696", "is_disabled": 0}, {"fusion_lat": 0.0, "fusion_lon": 0.0, "lat": 38.88623116666667, "type": "electric_scooter", "rental_uris": {"android": "https://dc.lft.to/lastmile_qr_scan", "ios": "https://dc.lft.to/lastmile_qr_scan"}, "is_reserved": 0, "lon": -77.02829833333334, "name": "fe23316c4f2f1540ab890a020f2e230d", "bike_id": "fe23316c4f2f1540ab890a020f2e230d", "is_disabled": 0}, {"fusion_lat": 0.0, "fusion_lon": 0.0, "lat": 38.9252505, "type": "electric_scooter", "rental_uris": {"android": "https://dc.lft.to/lastmile_qr_scan", "ios": "https://dc.lft.to/lastmile_qr_scan"}, "is_reserved": 0, "lon": -77.04090883333333, "name": "caa90d26bc79365c153da32d7c38c2af", "bike_id": "caa90d26bc79365c153da32d7c38c2af", "is_disabled": 0}, {"fusion_lat": 0.0, "fusion_lon": 0.0, "lat": 38.92240266666667, "type": "electric_scooter", "rental_uris": {"android": "https://dc.lft.to/lastmile_qr_scan", "ios": "https://dc.lft.to/lastmile_qr_scan"}, "is_reserved": 0, "lon": -77.03060166666667, "name": "cd54f56c8736f2cf9a77b52efba0c4b2", "bike_id": "cd54f56c8736f2cf9a77b52efba0c4b2", "is_disabled": 0}, {"fusion_lat": 0.0, "fusion_lon": 0.0, "lat": 38.92172883333333, "type": "electric_scooter", "rental_uris": {"android": "https://dc.lft.to/lastmile_qr_scan", "ios": "https://dc.lft.to/lastmile_qr_scan"}, "is_reserved": 0, "lon": -77.03510733333333, "name": "2cadbfd9acb72b315db0d06428fb656f", "bike_id": "2cadbfd9acb72b315db0d06428fb656f", "is_disabled": 0}, {"fusion_lat": 0.0, "fusion_lon": 0.0, "lat": 38.8874645, "type": "electric_scooter", "rental_uris": {"android": "https://dc.lft.to/lastmile_qr_scan", "ios": "https://dc.lft.to/lastmile_qr_scan"}, "is_reserved": 0, "lon": -77.01724883333333, "name": "ea352af5ec8621d8a07da3794e991fe9", "bike_id": "ea352af5ec8621d8a07da3794e991fe9", "is_disabled": 0}, {"fusion_lat": 0.0, "fusion_lon": 0.0, "lat": 38.905835333333336, "type": "electric_scooter", "rental_uris": {"android": "https://dc.lft.to/lastmile_qr_scan", "ios": "https://dc.lft.to/lastmile_qr_scan"}, "is_reserved": 0, "lon": -77.04149483333333, "name": "1a912cb08baedb5d7af1886abf2b2640", "bike_id": "1a912cb08baedb5d7af1886abf2b2640", "is_disabled": 0}, {"fusion_lat": 0.0, "fusion_lon": 0.0, "lat": 38.9023355, "type": "electric_scooter", "rental_uris": {"android": "https://dc.lft.to/lastmile_qr_scan", "ios": "https://dc.lft.to/lastmile_qr_scan"}, "is_reserved": 0, "lon": -77.04551266666667, "name": "5bf62b1e79e90b8cbde6a667dbe85d66", "bike_id": "5bf62b1e79e90b8cbde6a667dbe85d66", "is_disabled": 0}, {"fusion_lat": 0.0, "fusion_lon": 0.0, "lat": 38.8973745, "type": "electric_bike", "rental_uris": {"android": "https://dc.lft.to/lastmile_qr_scan", "ios": "https://dc.lft.to/lastmile_qr_scan"}, "is_reserved": 0, "lon": -76.92047233333334, "name": "e3bfe794f1cec394201d51ac2b04b0e6", "bike_id": "e3bfe794f1cec394201d51ac2b04b0e6", "is_disabled": 0}, {"fusion_lat": 0.0, "fusion_lon": 0.0, "lat": 38.914943, "type": "electric_scooter", "rental_uris": {"android": "https://dc.lft.to/lastmile_qr_scan", "ios": "https://dc.lft.to/lastmile_qr_scan"}, "is_reserved": 0, "lon": -77.0185705, "name": "a9158da3811f7e01dcadeea9643bc83d", "bike_id": "a9158da3811f7e01dcadeea9643bc83d", "is_disabled": 0},