{"data": {"bikes": [{"lon": -76.99106316666666, "bike_id": "8d63a152bb10586998805223d4d9a87e", "lat": 38.903222166666666, "fusion_lon": 0.0, "fusion_lat": 0.0, "type": "electric_scooter", "name": "8d63a152bb10586998805223d4d9a87e", "is_disabled": 0, "rental_uris": {"ios": "https://dc.lft.to/lastmile_qr_scan", "android": "https://dc.lft.to/lastmile_qr_scan"}, "is_reserved": 0}, {"lon": -77.02719016666667, "bike_id": "fa693af981c00ff403c289a46cfe7178", "lat": 38.91675, "fusion_lon": 0.0, "fusion_lat": 0.0, "type": "electric_scooter", "name": "fa693af981c00ff403c289a46cfe7178", "is_disabled": 0, "rental_uris": {"ios": "https://dc.lft.to/lastmile_qr_scan", "android": "https://dc.lft.to/lastmile_qr_scan"}, "is_reserved": 0}, {"lon": -77.07105916666667, "bike_id": "cc9d421af0f0c1b89ebee728a7917e03", "lat": 38.912187833333334, "fusion_lon": 0.0, "fusion_lat": 0.0, "type": "electric_scooter", "name": "cc9d421af0f0c1b89ebee728a7917e03", "is_disabled": 0, "rental_uris": {"ios": "https://dc.lft.to/lastmile_qr_scan", "android": "https://dc.lft.to/lastmile_qr_scan"}, "is_reserved": 0}, {"lon": -76.93378383333334, "bike_id": "92759256b969bdba877b2ac24c3982a2", "lat": 38.910308, "fusion_lon": 0.0, "fusion_lat": 0.0, "type": "electric_scooter", "name": "92759256b969bdba877b2ac24c3982a2", "is_disabled": 0, "rental_uris": {"ios": "https://dc.lft.to/lastmile_qr_scan", "android": "https://dc.lft.to/lastmile_qr_scan"}, "is_reserved": 0}, {"lon": -77.0268205, "bike_id": "3d312e94cc5c6311bbd4822a1b42e5e0", "lat": 38.943272, "fusion_lon": 0.0, "fusion_lat": 0.0, "type": "electric_scooter", "name": "3d312e94cc5c6311bbd4822a1b42e5e0", "is_disabled": 0, "rental_uris": {"ios": "https://dc.lft.to/lastmile_qr_scan", "android": "https://dc.lft.to/lastmile_qr_scan"}, "is_reserved": 0}, {"lon": -77.03794616666667, "bike_id": "9290d8b2e19e2a6a0351779d160790a7", "lat": 38.91543016666667, "fusion_lon": 0.0, "fusion_lat": 0.0, "type": "electric_scooter", "name": "9290d8b2e19e2a6a0351779d160790a7", "is_disabled": 0, "rental_uris": {"ios": "https://dc.lft.to/lastmile_qr_scan", "android": "https://dc.lft.to/lastmile_qr_scan"}, "is_reserved": 0}, {"lon": -77.126668, "bike_id": "dd3911cb12dc2836fc03ae856ec2a5ac", "lat": 38.81519133333333, "fusion_lon": 0.0, "fusion_lat": 0.0, "type": "electric_bike", "name": "dd3911cb12dc2836fc03ae856ec2a5ac", "is_disabled": 0, "rental_uris": {"ios": "https://dc.lft.to/lastmile_qr_scan", "android": "https://dc.lft.to/lastmile_qr_scan"}, "is_reserved": 0}, {"lon": -76.9819375, "bike_id": "5bc48c7fb64d4e77dbe7e0049727b117", "lat": 38.92607483333333, "fusion_lon": 0.0, "fusion_lat": 0.0, "type": "electric_scooter", "name": "5bc48c7fb64d4e77dbe7e0049727b117", "is_disabled": 0, "rental_uris": {"ios": "https://dc.lft.to/lastmile_qr_scan", "android": "https://dc.lft.to/lastmile_qr_scan"}, "is_reserved": 0}, {"lon": -77.04168966666667, "bike_id": "a021d89187b17e27b4964ab92faa81c8", "lat": 38.905453666666666, "fusion_lon": 0.0, "fusion_lat": 0.0, "type": "electric_scooter", "name": "a021d89187b17e27b4964ab92faa81c8", "is_disabled": 0, "rental_uris": {"ios": "https://dc.lft.to/lastmile_qr_scan", "android": "https://dc.lft.to/lastmile_qr_scan"}, "is_reserved": 0}, {"lon": -76.98560916666666, "bike_id": "6f4f29c24486c951e8996cc1706ba1d8", "lat": 38.89953216666667, "fusion_lon": 0.0, "fusion_lat": 0.0, "type": "electric_scooter", "name": "6f4f29c24486c951e8996cc1706ba1d8", "is_disabled": 0, "rental_uris": {"ios": "https://dc.lft.to/lastmile_qr_scan", "android": "https://dc.lft.to/lastmile_qr_scan"}, "is_reserved": 0}, {"lon": -76.9334905, "bike_id": "a8bf1156deaddd104002fa00867e2ae3", "lat": 38.899008333333335, "fusion_lon": 0.0, "fusion_lat": 0.0, "type": "electric_scooter", "name": "a8bf1156deaddd104002fa00867e2ae3", "is_disabled": 0, "rental_uris": {"ios": "https://dc.lft.to/lastmile_qr_scan", "android": "https://dc.lft.to/lastmile_qr_scan"}, "is_reserved": 0}, {"lon": -77.0344525, "bike_id": "68c4a1f82f2b99b3b1a91ee0a7c56c68", "lat": 38.909503, "fusion_lon": 0.0, "fusion_lat": 0.0, "type": "electric_scooter", "name": "68c4a1f82f2b99b3b1a91ee0a7c56c68", "is_disabled": 0, "rental_uris": {"ios": "https://dc.lft.to/lastmile_qr_scan", "android": "https://dc.lft.to/lastmile_qr_scan"}, "is_reserved": 0}, {"lon": -77.02390733333333, "bike_id": "b7b526c2bbf7f1ec8cb18727d30f9786", "lat": 38.93772033333333, "fusion_lon": 0.0, "fusion_lat": 0.0, "type": "electric_bike", "name": "b7b526c2bbf7f1ec8cb18727d30f9786", "is_disabled": 0, "rental_uris": {"ios": "https://dc.lft.to/lastmile_qr_scan", "android": "https://dc.lft.to/lastmile_qr_scan"}, "is_reserved": 0}, {"lon": -76.99380883333333, "bike_id": "4ba2ffee465fdcb92c3184729ad13deb", "lat": 38.97186083333333, "fusion_lon": 0.0, "fusion_lat": 0.0, "type": "electric_bike", "name": "4ba2ffee465fdcb92c3184729ad13deb", "is_disabled": 0, "rental_uris": {"ios": "https://dc.lft.to/lastmile_qr_scan", "android": "https://dc.lft.to/lastmile_qr_scan"}, "is_reserved": 0}, {"lon": -77.0723485, "bike_id": "ff2312c3b7b70238033a63b6893d43a2", "lat": 38.9681125, "fusion_lon": 0.0, "fusion_lat": 0.0, "type": "electric_bike", "name": "ff2312c3b7b70238033a63b6893d43a2", "is_disabled": 0, "rental_uris": {"ios": "https://dc.lft.to/lastmile_qr_scan", "android": "https://dc.lft.to/lastmile_qr_scan"}, "is_reserved": 0}, {"lon": -77.01306066666666, "bike_id": "c8d0739b34b533b8315644e81db73a16", "lat": 38.94323, "fusion_lon": 0.0, "fusion_lat": 0.0, "type": "electric_scooter", "name": "c8d0739b34b533b8315644e81db73a16", "is_disabled": 0, "rental_uris": {"ios": "https://dc.lft.to/lastmile_qr_scan", "android": "https://dc.lft.to/lastmile_qr_scan"}, "is_reserved": 0}, {"lon": -77.04872066666667, "bike_id": "9f9ae97327cbdf6d35643b511cb6a708", "lat": 38.892291666666665, "fusion_lon": 0.0, "fusion_lat": 0.0, "type": "electric_scooter", "name": "9f9ae97327cbdf6d35643b511cb6a708", "is_disabled": 0, "rental_uris": {"ios": "https://dc.lft.to/lastmile_qr_scan", "android": "https://dc.lft.to/lastmile_qr_scan"}, "is_reserved": 0}, {"lon": -77.02024483333334, "bike_id": "ac54cd6a27fda37f46d7ce274c8d08f5", "lat": 38.915516, "fusion_lon": 0.0, "fusion_lat": 0.0, "type": "electric_scooter", "name": "ac54cd6a27fda37f46d7ce274c8d08f5", "is_disabled": 0, "rental_uris": {"ios": "https://dc.lft.to/lastmile_qr_scan", "android": "https://dc.lft.to/lastmile_qr_scan"}, "is_reserved": 0}, {"lon": -77.03611416666666, "bike_id": "9425c2cdd85952595cf52156f3bbdfc5", "lat": 38.936856666666664, "fusion_lon": 0.0, "fusion_lat": 0.0, "type": "electric_scooter", "name": "9425c2cdd85952595cf52156f3bbdfc5", "is_disabled": 0, "rental_uris": {"ios": "https://dc.lft.to/lastmile_qr_scan", "android": "https://dc.lft.to/lastmile_qr_scan"}, "is_reserved": 0}, {"lon": -77.0458465, "bike_id": "39c219c7aca99d60e8c294dcbc55c658", "lat": 38.92121616666667, "fusion_lon": 0.0, "fusion_lat": 0.0, "type": "electric_scooter", "name": "39c219c7aca99d60e8c294dcbc55c658", "is_disabled": 0, "rental_uris": {"ios": "https://dc.lft.to/lastmile_qr_scan", "android": "https://dc.lft.to/lastmile_qr_scan"}, "is_reserved": 0}, {"lon": -77.041861, "bike_id": "4d2c1352428011feb3060b69409d7ec9", "lat": 38.91144033333333, "fusion_lon": 0.0, "fusion_lat": 0.0, "type": "electric_scooter", "name": "4d2c1352428011feb3060b69409d7ec9", "is_disabled": 0, "rental_uris": {"ios": "https://dc.lft.to/lastmile_qr_scan", "android": "https://dc.lft.to/lastmile_qr_scan"}, "is_reserved": 0}, {"lon": -76.96090733333334, "bike_id": "f6b0157c3c6037e11257a1c3d5c1ed03", "lat": 38.918695666666665, "fusion_lon": 0.0, "fusion_lat": 0.0, "type": "electric_bike", "name": "f6b0157c3c6037e11257a1c3d5c1ed03", "is_disabled": 0, "rental_uris": {"ios": "https://dc.lft.to/lastmile_qr_scan", "android": "https://dc.lft.to/lastmile_qr_scan"}, "is_reserved": 0}, {"lon": -77.0176715, "bike_id": "7f2b8b28d184ab231d6369b38bfc34dd", "lat": 38.887296166666665, "fusion_lon": 0.0, "fusion_lat": 0.0, "type": "electric_scooter", "name": "7f2b8b28d184ab231d6369b38bfc34dd", "is_disabled": 0, "rental_uris": {"ios": "https://dc.lft.to/lastmile_qr_scan", "android": "https://dc.lft.to/lastmile_qr_scan"}, "is_reserved": 0}, {"lon": -77.00585016666666, "bike_id": "7c61eaa763df3781ccc3c3cedcf4efc4", "lat": 38.8358985, "fusion_lon": 0.0, "fusion_lat": 0.0, "type": "electric_scooter", "name": "7c61eaa763df3781ccc3c3cedcf4efc4", "is_disabled": 0, "rental_uris": {"ios": "https://dc.lft.to/lastmile_qr_scan", "android": "https://dc.lft.to/lastmile_qr_scan"}, "is_reserved": 0}, {"lon": -77.01820066666667, "bike_id": "8712ed620462e196a9fab37d162c64d7", "lat": 38.9221855, "fusion_lon": 0.0, "fusion_lat": 0.0, "type": "electric_scooter", "name": "8712ed620462e196a9fab37d162c64d7", "is_disabled": 0, "rental_uris": {"ios": "https://dc.lft.to/lastmile_qr_scan", "android": "https://dc.lft.to/lastmile_qr_scan"}, "is_reserved": 0}, {"lon": -77.03382833333333, "bike_id": "d76e9666c598b411047d0f325c65caac", "lat": 38.92159516666667, "fusion_lon": 0.0, "fusion_lat": 0.0, "type": "electric_scooter", "name": "d76e9666c598b411047d0f325c65caac", "is_disabled": 0, "rental_uris": {"ios": "https://dc.lft.to/lastmile_qr_scan", "android": "https://dc.lft.to/lastmile_qr_scan"}, "is_reserved": 0}, {"lon": -77.00899233333334, "bike_id": "e0c1adeccae878d917ffc394002a35cb", "lat": 38.897925666666666, "fusion_lon": 0.0, "fusion_lat": 0.0, "type": "electric_scooter", "name": "e0c1adeccae878d917ffc394002a35cb", "is_disabled": 0, "rental_uris": {"ios": "https://dc.lft.to/lastmile_qr_scan", "android": "https://dc.lft.to/lastmile_qr_scan"}, "is_reserved": 0}, {"lon": -77.06340066666667, "bike_id": "219848f577a2381d421dfb6dc103db41", "lat": 38.906836, "fusion_lon": 0.0, "fusion_lat": 0.0, "type": "electric_scooter", "name": "219848f577a2381d421dfb6dc103db41", "is_disabled": 0, "rental_uris": {"ios": "https://dc.lft.to/lastmile_qr_scan", "android": "https://dc.lft.to/lastmile_qr_scan"}, "is_reserved": 0}, {"lon": -76.94635566666666, "bike_id": "87f2b496be4d0e074648fb3f2ac9d013", "lat": 38.89832616666666, "fusion_lon": 0.0, "fusion_lat": 0.0, "type": "electric_scooter", "name": "87f2b496be4d0e074648fb3f2ac9d013", "is_disabled": 0, "rental_uris": {"ios": "https://dc.lft.to/lastmile_qr_scan", "android": "https://dc.lft.to/lastmile_qr_scan"}, "is_reserved": 0}, {"lon": -77.02159916666666, "bike_id": "c0f488c4853406dc0e6fb705d428825d", "lat": 38.8973155, "fusion_lon": 0.0, "fusion_lat": 0.0, "type": "electric_scooter", "name": "c0f488c4853406dc0e6fb705d428825d", "is_disabled": 0, "rental_uris": {"ios": "https://dc.lft.to/lastmile_qr_scan", "android": "https://dc.lft.to/lastmile_qr_scan"}, "is_reserved": 0}, {"lon": -77.027138, "bike_id": "36939b247f953c0d33dea846d3d389b5", "lat": 38.89717866666667, "fusion_lon": 0.0, "fusion_lat": 0.0, "type": "electric_scooter", "name": "36939b247f953c0d33dea846d3d389b5", "is_disabled": 0, "rental_uris": {"ios": "https://dc.lft.to/lastmile_qr_scan", "android": "https://dc.lft.to/lastmile_qr_scan"}, "is_reserved": 0}, {"lon": -77.02826966666667, "bike_id": "9ab1aa0f8a1ddc107175fd160c148216", "lat": 38.887351, "fusion_lon": 0.0, "fusion_lat": 0.0, "type": "electric_scooter", "name": "9ab1aa0f8a1ddc107175fd160c148216", "is_disabled": 0, "rental_uris": {"ios": "https://dc.lft.to/lastmile_qr_scan", "android": "https://dc.lft.to/lastmile_qr_scan"}, "is_reserved": 0}, {"lon": -77.08456366666667, "bike_id": "4b3887d69c05790736e6298865e2fb22", "lat": 38.848194666666664, "fusion_lon": 0.0, "fusion_lat": 0.0, "type": "electric_bike", "name": "4b3887d69c05790736e6298865e2fb22", "is_disabled": 0, "rental_uris": {"ios": "https://dc.lft.to/lastmile_qr_scan", "android": "https://dc.lft.to/lastmile_qr_scan"}, "is_reserved": 0}, {"lon": -76.97549333333333, "bike_id": "04546d7d5253901a418b3f309ebdd4de", "lat": 38.9032265, "fusion_lon": 0.0, "fusion_lat": 0.0, "type": "electric_scooter", "name": "04546d7d5253901a418b3f309ebdd4de", "is_disabled": 0, "rental_uris": {"ios": "https://dc.lft.to/lastmile_qr_scan", "android": "https://dc.lft.to/lastmile_qr_scan"}, "is_reserved": 0}, {"lon": -77.035034, "bike_id": "44d6489b1bc3a52dd664f412e824f5cc", "lat": 38.912571, "fusion_lon": 0.0, "fusion_lat": 0.0, "type": "electric_scooter", "name": "44d6489b1bc3a52dd664f412e824f5cc", "is_disabled": 0, "rental_uris": {"ios": "https://dc.lft.to/lastmile_qr_scan", "android": "https://dc.lft.to/lastmile_qr_scan"}, "is_reserved": 0}, {"lon": -77.03502716666667, "bike_id": "e5e6a7dc0af358f308cb3fb2f4780d2a", "lat": 38.9188605, "fusion_lon": 0.0, "fusion_lat": 0.0, "type": "electric_bike", "name": "e5e6a7dc0af358f308cb3fb2f4780d2a", "is_disabled": 0, "rental_uris": {"ios": "https://dc.lft.to/lastmile_qr_scan", "android": "https://dc.lft.to/lastmile_qr_scan"}, "is_reserved": 0}, {"lon": -77.03498516666667, "bike_id": "a41d6bdeab3950093212557dad4157e0", "lat": 38.93752766666667, "fusion_lon": 0.0, "fusion_lat": 0.0, "type": "electric_scooter", "name": "a41d6bdeab3950093212557dad4157e0", "is_disabled": 0, "rental_uris": {"ios": "https://dc.lft.to/lastmile_qr_scan", "android": "https://dc.lft.to/lastmile_qr_scan"}, "is_reserved": 0}, {"lon": -76.97391033333334, "bike_id": "5666ce80ae66656abd71fe57fb97e315", "lat": 38.905567, "fusion_lon": 0.0, "fusion_lat": 0.0, "type": "electric_scooter", "name": "5666ce80ae66656abd71fe57fb97e315", "is_disabled": 0, "rental_uris": {"ios": "https://dc.lft.to/lastmile_qr_scan", "android": "https://dc.lft.to/lastmile_qr_scan"}, "is_reserved": 0}, {"lon": -76.98351633333333, "bike_id": "5b2e79d94d12d4f23dd6459b79be5fc7", "lat": 38.887671833333336, "fusion_lon": 0.0, "fusion_lat": 0.0, "type": "electric_scooter", "name": "5b2e79d94d12d4f23dd6459b79be5fc7", "is_disabled": 0, "rental_uris": {"ios": "https://dc.lft.to/lastmile_qr_scan", "android": "https://dc.lft.to/lastmile_qr_scan"}, "is_reserved": 0}, {"lon": -77.03416983333334, "bike_id": "a080644b45f7acb7a16f7f1524789c2d", "lat": 38.92239133333333, "fusion_lon": 0.0, "fusion_lat": 0.0, "type": "electric_scooter", "name": "a080644b45f7acb7a16f7f1524789c2d", "is_disabled": 0, "rental_uris": {"ios": "https://dc.lft.to/lastmile_qr_scan", "android": "https://dc.lft.to/lastmile_qr_scan"}, "is_reserved": 0}, {"lon": -77.03851333333333, "bike_id": "bce616181b9b6a9a76019c141d7066ab", "lat": 38.916616833333336, "fusion_lon": 0.0, "fusion_lat": 0.0, "type": "electric_scooter", "name": "bce616181b9b6a9a76019c141d7066ab", "is_disabled": 0, "rental_uris": {"ios": "https://dc.lft.to/lastmile_qr_scan", "android": "https://dc.lft.to/lastmile_qr_scan"}, "is_reserved": 0}, {"lon": -77.02307, "bike_id": "b059741ec45576d1726afc38d093385d", "lat": 38.940856, "fusion_lon": 0.0, "fusion_lat": 0.0, "type": "electric_scooter", "name": "b059741ec45576d1726afc38d093385d", "is_disabled": 0, "rental_uris": {"ios": "https://dc.lft.to/lastmile_qr_scan", "android": "https://dc.lft.to/lastmile_qr_scan"}, "is_reserved": 0}, {"lon": -77.0239015, "bike_id": "939c5c3b90d863252e7546231e083da6", "lat": 38.92756266666667, "fusion_lon": 0.0, "fusion_lat": 0.0, "type": "electric_scooter", "name": "939c5c3b90d863252e7546231e083da6", "is_disabled": 0, "rental_uris": {"ios": "https://dc.lft.to/lastmile_qr_scan", "android": "https://dc.lft.to/lastmile_qr_scan"}, "is_reserved": 0}, {"lon": -76.99152466666666, "bike_id": "207d6fafd5ab2a3daebaa12dec272615", "lat": 38.9003645, "fusion_lon": 0.0, "fusion_lat": 0.0, "type": "electric_scooter", "name": "207d6fafd5ab2a3daebaa12dec272615", "is_disabled": 0, "rental_uris": {"ios": "https://dc.lft.to/lastmile_qr_scan", "android": "https://dc.lft.to/lastmile_qr_scan"}, "is_reserved": 0}, {"lon": -76.9785925, "bike_id": "3da7d2ea3003ab8cbd43217a94507290", "lat": 38.90724683333333, "fusion_lon": 0.0, "fusion_lat": 0.0, "type": "electric_scooter", "name": "3da7d2ea3003ab8cbd43217a94507290", "is_disabled": 0, "rental_uris": {"ios": "https://dc.lft.to/lastmile_qr_scan", "android": "https://dc.lft.to/lastmile_qr_scan"}, "is_reserved": 0}, {"lon": -77.03264366666667, "bike_id": "dd1fed32f1ff3487829692a971b53cc0", "lat": 38.937756, "fusion_lon": 0.0, "fusion_lat": 0.0, "type": "electric_scooter", "name": "dd1fed32f1ff3487829692a971b53cc0", "is_disabled": 0, "rental_uris": {"ios": "https://dc.lft.to/lastmile_qr_scan", "android": "https://dc.lft.to/lastmile_qr_scan"}, "is_reserved": 0}, {"lon": -77.04463716666666, "bike_id": "98003d4c463e83dd821bcc133cca4365", "lat": 38.9052435, "fusion_lon": 0.0, "fusion_lat": 0.0, "type": "electric_scooter", "name": "98003d4c463e83dd821bcc133cca4365", "is_disabled": 0, "rental_uris": {"ios": "https://dc.lft.to/lastmile_qr_scan", "android": "https://dc.lft.to/lastmile_qr_scan"}, "is_reserved": 0}, {"lon": -77.01573333333333, "bike_id": "cceca2ebb8e100015f8ecae49703c156", "lat": 38.883190666666664, "fusion_lon": 0.0, "fusion_lat": 0.0, "type": "electric_scooter", "name": "cceca2ebb8e100015f8ecae49703c156", "is_disabled": 0, "rental_uris": {"ios": "https://dc.lft.to/lastmile_qr_scan", "android": "https://dc.lft.to/lastmile_qr_scan"}, "is_reserved": 0}, {"lon": -77.03847483333334, "bike_id": "e511b1bfea768f579d16b4f3c410efe4", "lat": 38.9324225, "fusion_lon": 0.0, "fusion_lat": 0.0, "type": "electric_scooter", "name": "e511b1bfea768f579d16b4f3c410efe4", "is_disabled": 0, "rental_uris": {"ios": "https://dc.lft.to/lastmile_qr_scan", "android": "https://dc.lft.to/lastmile_qr_scan"}, "is_reserved": 0}, {"lon": -77.05047183333333, "bike_id": "0eda97bf95225fba6259b4c57bf7d7b6", "lat": 38.92365183333333, "fusion_lon": 0.0, "fusion_lat": 0.0, "type": "electric_scooter", "name": "0eda97bf95225fba6259b4c57bf7d7b6", "is_disabled": 0, "rental_uris": {"ios": "https://dc.lft.to/lastmile_qr_scan", "android": "https://dc.lft.to/lastmile_qr_scan"}, "is_reserved": 0}, {"lon": -77.03292233333333, "bike_id": "4de69564009e6c2780ea55b0b8e830ec", "lat": 38.91057883333333, "fusion_lon": 0.0, "fusion_lat": 0.0, "type": "electric_scooter", "name": "4de69564009e6c2780ea55b0b8e830ec", "is_disabled": 0, "rental_uris": {"ios": "https://dc.lft.to/lastmile_qr_scan", "android": "https://dc.lft.to/lastmile_qr_scan"}, "is_reserved": 0}, {"lon": -76.99603133333333, "bike_id": "ca91d5f548ce566ef1a50d81661e9f4f", "lat": 38.9507145, "fusion_lon": 0.0, "fusion_lat": 0.0, "type": "electric_bike", "name": "ca91d5f548ce566ef1a50d81661e9f4f", "is_disabled": 0, "rental_uris": {"ios": "https://dc.lft.to/lastmile_qr_scan", "android": "https://dc.lft.to/lastmile_qr_scan"}, "is_reserved": 0}, {"lon": -76.97562616666667, "bike_id": "82aefd6bd7657167e7e0d6bd31815558", "lat": 38.92454216666667, "fusion_lon": 0.0, "fusion_lat": 0.0, "type": "electric_bike", "name": "82aefd6bd7657167e7e0d6bd31815558", "is_disabled": 0, "rental_uris": {"ios": "https://dc.lft.to/lastmile_qr_scan", "android": "https://dc.lft.to/lastmile_qr_scan"}, "is_reserved": 0}, {"lon": -77.03557866666667, "bike_id": "81e69ef586452992050a5ed58738c65c", "lat": 38.933827, "fusion_lon": 0.0, "fusion_lat": 0.0, "type": "electric_scooter", "name": "81e69ef586452992050a5ed58738c65c", "is_disabled": 0, "rental_uris": {"ios": "https://dc.lft.to/lastmile_qr_scan", "android": "https://dc.lft.to/lastmile_qr_scan"}, "is_reserved": 0}, {"lon": -76.94998, "bike_id": "4711d3b8b54ff85d1471bc4eb65e5c52", "lat": 38.893826833333335, "fusion_lon": 0.0, "fusion_lat": 0.0, "type": "electric_scooter", "name": "4711d3b8b54ff85d1471bc4eb65e5c52", "is_disabled": 0, "rental_uris": {"ios": "https://dc.lft.to/lastmile_qr_scan", "android": "https://dc.lft.to/lastmile_qr_scan"}, "is_reserved": 0}, {"lon": -77.020863, "bike_id": "baf17fe354b3570d790343db2f8939c4", "lat": 38.929095333333336, "fusion_lon": 0.0, "fusion_lat": 0.0, "type": "electric_scooter", "name": "baf17fe354b3570d790343db2f8939c4", "is_disabled": 0, "rental_uris": {"ios": "https://dc.lft.to/lastmile_qr_scan", "android": "https://dc.lft.to/lastmile_qr_scan"}, "is_reserved": 0}, {"lon": -77.050066, "bike_id": "7406cf01661fe530010671a56aed9466", "lat": 38.891926, "fusion_lon": 0.0, "fusion_lat": 0.0, "type": "electric_scooter", "name": "7406cf01661fe530010671a56aed9466", "is_disabled": 0, "rental_uris": {"ios": "https://dc.lft.to/lastmile_qr_scan", "android": "https://dc.lft.to/lastmile_qr_scan"}, "is_reserved": 0}, {"lon": -77.03263866666667, "bike_id": "a2f1de809ee3e1c58094473dbd4fda91", "lat": 38.92988, "fusion_lon": 0.0, "fusion_lat": 0.0, "type": "electric_scooter", "name": "a2f1de809ee3e1c58094473dbd4fda91", "is_disabled": 0, "rental_uris": {"ios": "https://dc.lft.to/lastmile_qr_scan", "android": "https://dc.lft.to/lastmile_qr_scan"}, "is_reserved": 0}, {"lon": -77.04674383333334, "bike_id": "6f922c2762e5c75bee1336ddeed28729", "lat": 38.892323, "fusion_lon": 0.0, "fusion_lat": 0.0, "type": "electric_scooter", "name": "6f922c2762e5c75bee1336ddeed28729", "is_disabled": 0, "rental_uris": {"ios": "https://dc.lft.to/lastmile_qr_scan", "android": "https://dc.lft.to/lastmile_qr_scan"}, "is_reserved": 0}, {"lon": -77.02748933333334, "bike_id": "4c3a3b2be542451d2ca156024d71e4e9", "lat": 38.96569016666667, "fusion_lon": 0.0, "fusion_lat": 0.0, "type": "electric_bike", "name": "4c3a3b2be542451d2ca156024d71e4e9", "is_disabled": 0, "rental_uris": {"ios": "https://dc.lft.to/lastmile_qr_scan", "android": "https://dc.lft.to/lastmile_qr_scan"}, "is_reserved": 0}, {"lon": -77.052557, "bike_id": "1ec639bf4600b20bd7ef5f8ccccd84ba", "lat": 38.927327166666664, "fusion_lon": 0.0, "fusion_lat": 0.0, "type": "electric_scooter", "name": "1ec639bf4600b20bd7ef5f8ccccd84ba", "is_disabled": 0, "rental_uris": {"ios": "https://dc.lft.to/lastmile_qr_scan", "android": "https://dc.lft.to/lastmile_qr_scan"}, "is_reserved": 0}, {"lon": -77.04652233333333, "bike_id": "90576826a61b4268385ab7c96981fc93", "lat": 39.0549905, "fusion_lon": 0.0, "fusion_lat": 0.0, "type": "electric_bike", "name": "90576826a61b4268385ab7c96981fc93", "is_disabled": 0, "rental_uris": {"ios": "https://dc.lft.to/lastmile_qr_scan", "android": "https://dc.lft.to/lastmile_qr_scan"}, "is_reserved": 0}, {"lon": -77.04330533333334, "bike_id": "2c4a8975966868f9fee7e92741d2f0a6", "lat": 38.902369666666665, "fusion_lon": 0.0, "fusion_lat": 0.0, "type": "electric_scooter", "name": "2c4a8975966868f9fee7e92741d2f0a6", "is_disabled": 0, "rental_uris": {"ios": "https://dc.lft.to/lastmile_qr_scan", "android": "https://dc.lft.to/lastmile_qr_scan"}, "is_reserved": 0}, {"lon": -77.03745583333334, "bike_id": "199a1c94f836c08c10fa2b6efd115666", "lat": 38.9271415, "fusion_lon": 0.0, "fusion_lat": 0.0, "type": "electric_scooter", "name": "199a1c94f836c08c10fa2b6efd115666", "is_disabled": 0, "rental_uris": {"ios": "https://dc.lft.to/lastmile_qr_scan", "android": "https://dc.lft.to/lastmile_qr_scan"}, "is_reserved": 0}, {"lon": -77.06034033333333, "bike_id": "f0c56c915c63cd8cf83f2877f15c7de7", "lat": 38.933629333333336, "fusion_lon": 0.0, "fusion_lat": 0.0, "type": "electric_scooter", "name": "f0c56c915c63cd8cf83f2877f15c7de7", "is_disabled": 0, "rental_uris": {"ios": "https://dc.lft.to/lastmile_qr_scan", "android": "https://dc.lft.to/lastmile_qr_scan"}, "is_reserved": 0}, {"lon": -77.12734116666667, "bike_id": "039d1e63c7ab19097d2ff60536435fb2", "lat": 38.895622833333334, "fusion_lon": 0.0, "fusion_lat": 0.0, "type": "electric_bike", "name": "039d1e63c7ab19097d2ff60536435fb2", "is_disabled": 0, "rental_uris": {"ios": "https://dc.lft.to/lastmile_qr_scan", "android": "https://dc.lft.to/lastmile_qr_scan"}, "is_reserved": 0}, {"lon": -76.99848016666667, "bike_id": "89ba30aba4d091011eddd7c89f78354a", "lat": 38.96248633333333, "fusion_lon": 0.0, "fusion_lat": 0.0, "type": "electric_bike", "name": "89ba30aba4d091011eddd7c89f78354a", "is_disabled": 0, "rental_uris": {"ios": "https://dc.lft.to/lastmile_qr_scan", "android": "https://dc.lft.to/lastmile_qr_scan"}, "is_reserved": 0}, {"lon": -76.88399316666667, "bike_id": "487ffc243bdcc53144cf568b7da35449", "lat": 38.931675, "fusion_lon": 0.0, "fusion_lat": 0.0, "type": "electric_bike", "name": "487ffc243bdcc53144cf568b7da35449", "is_disabled": 0, "rental_uris": {"ios": "https://dc.lft.to/lastmile_qr_scan", "android": "https://dc.lft.to/lastmile_qr_scan"}, "is_reserved": 0}, {"lon": -77.03674916666667, "bike_id": "6374cb85d6330545b9d90852304d4232", "lat": 38.90371833333333, "fusion_lon": 0.0, "fusion_lat": 0.0, "type": "electric_scooter", "name": "6374cb85d6330545b9d90852304d4232", "is_disabled": 0, "rental_uris": {"ios": "https://dc.lft.to/lastmile_qr_scan", "android": "https://dc.lft.to/lastmile_qr_scan"}, "is_reserved": 0}, {"lon": -77.02956266666666, "bike_id": "8e51a8e064707eb1e0c687cb589fff5d", "lat": 38.885036, "fusion_lon": 0.0, "fusion_lat": 0.0, "type": "electric_scooter", "name": "8e51a8e064707eb1e0c687cb589fff5d", "is_disabled": 0, "rental_uris": {"ios": "https://dc.lft.to/lastmile_qr_scan", "android": "https://dc.lft.to/lastmile_qr_scan"}, "is_reserved": 0}, {"lon": -77.03882933333334, "bike_id": "67a5f2466fcdf003af5f6af47215f502", "lat": 38.94868366666667, "fusion_lon": 0.0, "fusion_lat": 0.0, "type": "electric_scooter", "name": "67a5f2466fcdf003af5f6af47215f502", "is_disabled": 0, "rental_uris": {"ios": "https://dc.lft.to/lastmile_qr_scan", "android": "https://dc.lft.to/lastmile_qr_scan"}, "is_reserved": 0}, {"lon": -76.95653283333333, "bike_id": "1ee71a834a3e3d2ef93638146ea9bea2", "lat": 38.8962145, "fusion_lon": 0.0, "fusion_lat": 0.0, "type": "electric_scooter", "name": "1ee71a834a3e3d2ef93638146ea9bea2", "is_disabled": 0, "rental_uris": {"ios": "https://dc.lft.to/lastmile_qr_scan", "android": "https://dc.lft.to/lastmile_qr_scan"}, "is_reserved": 0}, {"lon": -77.019727, "bike_id": "b42133bb002a9034b1ad9e9af4a27b2c", "lat": 38.90238766666667, "fusion_lon": 0.0, "fusion_lat": 0.0, "type": "electric_scooter", "name": "b42133bb002a9034b1ad9e9af4a27b2c", "is_disabled": 0, "rental_uris": {"ios": "https://dc.lft.to/lastmile_qr_scan", "android": "https://dc.lft.to/lastmile_qr_scan"}, "is_reserved": 0}, {"lon": -77.04172516666667, "bike_id": "5398b29ec2559233205a3781c62ee999", "lat": 38.9179315, "fusion_lon": 0.0, "fusion_lat": 0.0, "type": "electric_scooter", "name": "5398b29ec2559233205a3781c62ee999", "is_disabled": 0, "rental_uris": {"ios": "https://dc.lft.to/lastmile_qr_scan", "android": "https://dc.lft.to/lastmile_qr_scan"}, "is_reserved": 0}, {"lon": -77.02487983333333, "bike_id": "84dd34bbf42355116670e34e0dbf9bce", "lat": 38.917052, "fusion_lon": 0.0, "fusion_lat": 0.0, "type": "electric_scooter", "name": "84dd34bbf42355116670e34e0dbf9bce", "is_disabled": 0, "rental_uris": {"ios": "https://dc.lft.to/lastmile_qr_scan", "android": "https://dc.lft.to/lastmile_qr_scan"}, "is_reserved": 0}, {"lon": -77.02170766666667, "bike_id": "d9e6bfdfcc66d716af533d54a37716dd", "lat": 38.903722, "fusion_lon": 0.0, "fusion_lat": 0.0, "type": "electric_scooter", "name": "d9e6bfdfcc66d716af533d54a37716dd", "is_disabled": 0, "rental_uris": {"ios": "https://dc.lft.to/lastmile_qr_scan", "android": "https://dc.lft.to/lastmile_qr_scan"}, "is_reserved": 0}, {"lon": -77.04334616666667, "bike_id": "e5f4c8dabfa63d81d36987363c46e1bc", "lat": 38.92221633333333, "fusion_lon": 0.0, "fusion_lat": 0.0, "type": "electric_scooter", "name": "e5f4c8dabfa63d81d36987363c46e1bc", "is_disabled": 0, "rental_uris": {"ios": "https://dc.lft.to/lastmile_qr_scan", "android": "https://dc.lft.to/lastmile_qr_scan"}, "is_reserved": 0}, {"lon": -77.04001733333334, "bike_id": "feff6efb5c389e2e0c14b793adebc463", "lat": 38.91405316666667, "fusion_lon": 0.0, "fusion_lat": 0.0, "type": "electric_scooter", "name": "feff6efb5c389e2e0c14b793adebc463", "is_disabled": 0, "rental_uris": {"ios": "https://dc.lft.to/lastmile_qr_scan", "android": "https://dc.lft.to/lastmile_qr_scan"}, "is_reserved": 0}, {"lon": -77.04272633333333, "bike_id": "3aa47b954764b575ea7616090d54c1c3", "lat": 38.90725416666667, "fusion_lon": 0.0, "fusion_lat": 0.0, "type": "electric_scooter", "name": "3aa47b954764b575ea7616090d54c1c3", "is_disabled": 0, "rental_uris": {"ios": "https://dc.lft.to/lastmile_qr_scan", "android": "https://dc.lft.to/lastmile_qr_scan"}, "is_reserved": 0}, {"lon": -77.02470833333334, "bike_id": "e1b331a599e64b5156ab553b76dd2de6", "lat": 38.91820366666666, "fusion_lon": 0.0, "fusion_lat": 0.0, "type": "electric_scooter", "name": "e1b331a599e64b5156ab553b76dd2de6", "is_disabled": 0, "rental_uris": {"ios": "https://dc.lft.to/lastmile_qr_scan", "android": "https://dc.lft.to/lastmile_qr_scan"}, "is_reserved": 0}, {"lon": -77.0120865, "bike_id": "fd4d0aeaa8152c0f66d236aaf7119003", "lat": 38.921196333333334, "fusion_lon": 0.0, "fusion_lat": 0.0, "type": "electric_scooter", "name": "fd4d0aeaa8152c0f66d236aaf7119003", "is_disabled": 0, "rental_uris": {"ios": "https://dc.lft.to/lastmile_qr_scan", "android": "https://dc.lft.to/lastmile_qr_scan"}, "is_reserved": 0}, {"lon": -77.02296566666666, "bike_id": "14d0b58c36aee18f0764dc700caaf7c1", "lat": 38.9170625, "fusion_lon": 0.0, "fusion_lat": 0.0, "type": "electric_scooter", "name": "14d0b58c36aee18f0764dc700caaf7c1", "is_disabled": 0, "rental_uris": {"ios": "https://dc.lft.to/lastmile_qr_scan", "android": "https://dc.lft.to/lastmile_qr_scan"}, "is_reserved": 0}, {"lon": -77.04180683333334, "bike_id": "13da44203fc6135aba03be14102dec33", "lat": 38.89225483333333, "fusion_lon": 0.0, "fusion_lat": 0.0, "type": "electric_scooter", "name": "13da44203fc6135aba03be14102dec33", "is_disabled": 0, "rental_uris": {"ios": "https://dc.lft.to/lastmile_qr_scan", "android": "https://dc.lft.to/lastmile_qr_scan"}, "is_reserved": 0}, {"lon": -76.9822, "bike_id": "5f6ebc0ca1a3a9d7ca1ac7943f10b7d2", "lat": 38.86653916666667, "fusion_lon": 0.0, "fusion_lat": 0.0, "type": "electric_scooter", "name": "5f6ebc0ca1a3a9d7ca1ac7943f10b7d2", "is_disabled": 0, "rental_uris": {"ios": "https://dc.lft.to/lastmile_qr_scan", "android": "https://dc.lft.to/lastmile_qr_scan"}, "is_reserved": 0}, {"lon": -77.04341733333334, "bike_id": "ac96d8ebbbb02de908bfbcf0958ebabe", "lat": 38.90144383333333, "fusion_lon": 0.0, "fusion_lat": 0.0, "type": "electric_scooter", "name": "ac96d8ebbbb02de908bfbcf0958ebabe", "is_disabled": 0, "rental_uris": {"ios": "https://dc.lft.to/lastmile_qr_scan", "android": "https://dc.lft.to/lastmile_qr_scan"}, "is_reserved": 0}, {"lon": -77.05158733333333, "bike_id": "9e574aa3f69b242f0a88d6e507b91ad7", "lat": 39.043054166666664, "fusion_lon": 0.0, "fusion_lat": 0.0, "type": "electric_bike", "name": "9e574aa3f69b242f0a88d6e507b91ad7", "is_disabled": 0, "rental_uris": {"ios": "https://dc.lft.to/lastmile_qr_scan", "android": "https://dc.lft.to/lastmile_qr_scan"}, "is_reserved": 0}, {"lon": -77.03829916666666, "bike_id": "8f7b5f22e1b55b3bf8d31633007567a5", "lat": 38.91117366666667, "fusion_lon": 0.0, "fusion_lat": 0.0, "type": "electric_scooter", "name": "8f7b5f22e1b55b3bf8d31633007567a5", "is_disabled": 0, "rental_uris": {"ios": "https://dc.lft.to/lastmile_qr_scan", "android": "https://dc.lft.to/lastmile_qr_scan"}, "is_reserved": 0}, {"lon": -76.93009983333333, "bike_id": "cf572ed90a6c4b7e68f45670e677d99d", "lat": 38.891990666666665, "fusion_lon": 0.0, "fusion_lat": 0.0, "type": "electric_scooter", "name": "cf572ed90a6c4b7e68f45670e677d99d", "is_disabled": 0, "rental_uris": {"ios": "https://dc.lft.to/lastmile_qr_scan", "android": "https://dc.lft.to/lastmile_qr_scan"}, "is_reserved": 0}, {"lon": -77.000645, "bike_id": "e3dd645ef82a823bcdf3acfef4eedec0", "lat": 38.894941, "fusion_lon": 0.0, "fusion_lat": 0.0, "type": "electric_scooter", "name": "e3dd645ef82a823bcdf3acfef4eedec0", "is_disabled": 0, "rental_uris": {"ios": "https://dc.lft.to/lastmile_qr_scan", "android": "https://dc.lft.to/lastmile_qr_scan"}, "is_reserved": 0}, {"lon": -77.05729766666667, "bike_id": "0893428f2dd6aca851f88941166b1a6f", "lat": 38.9336285, "fusion_lon": 0.0, "fusion_lat": 0.0, "type": "electric_scooter", "name": "0893428f2dd6aca851f88941166b1a6f", "is_disabled": 0, "rental_uris": {"ios": "https://dc.lft.to/lastmile_qr_scan", "android": "https://dc.lft.to/lastmile_qr_scan"}, "is_reserved": 0}, {"lon": -77.04160016666667, "bike_id": "4b3d796256ed4639a288757b5f13015e", "lat": 38.91423016666667, "fusion_lon": 0.0, "fusion_lat": 0.0, "type": "electric_scooter", "name": "4b3d796256ed4639a288757b5f13015e", "is_disabled": 0, "rental_uris": {"ios": "https://dc.lft.to/lastmile_qr_scan", "android": "https://dc.lft.to/lastmile_qr_scan"}, "is_reserved": 0}, {"lon": -77.05700583333333, "bike_id": "26122709fb72931491daa1bac33413cf", "lat": 38.93715783333333, "fusion_lon": 0.0, "fusion_lat": 0.0, "type": "electric_scooter", "name": "26122709fb72931491daa1bac33413cf", "is_disabled": 0, "rental_uris": {"ios": "https://dc.lft.to/lastmile_qr_scan", "android": "https://dc.lft.to/lastmile_qr_scan"}, "is_reserved": 0}, {"lon": -77.027728, "bike_id": "0bfe0bd8d4b1d18fca16ef5f954cf8ff", "lat": 38.89222983333333, "fusion_lon": 0.0, "fusion_lat": 0.0, "type": "electric_scooter", "name": "0bfe0bd8d4b1d18fca16ef5f954cf8ff", "is_disabled": 0, "rental_uris": {"ios": "https://dc.lft.to/lastmile_qr_scan", "android": "https://dc.lft.to/lastmile_qr_scan"}, "is_reserved": 0}, {"lon": -77.02775816666667, "bike_id": "a2151b2adc784cd9c17eaad6e19f1e2d", "lat": 38.8921655, "fusion_lon": 0.0, "fusion_lat": 0.0, "type": "electric_scooter", "name": "a2151b2adc784cd9c17eaad6e19f1e2d", "is_disabled": 0, "rental_uris": {"ios": "https://dc.lft.to/lastmile_qr_scan", "android": "https://dc.lft.to/lastmile_qr_scan"}, "is_reserved": 0}, {"lon": -77.11155366666667, "bike_id": "79c4129ddf1dd4b303369f5610b5498c", "lat": 38.85501133333333, "fusion_lon": 0.0, "fusion_lat": 0.0, "type": "electric_bike", "name": "79c4129ddf1dd4b303369f5610b5498c", "is_disabled": 0, "rental_uris": {"ios": "https://dc.lft.to/lastmile_qr_scan", "android": "https://dc.lft.to/lastmile_qr_scan"}, "is_reserved": 0}, {"lon": -77.1049445, "bike_id": "9f19092c776258489e82933f11fb943d", "lat": 38.855936, "fusion_lon": 0.0, "fusion_lat": 0.0, "type": "electric_bike", "name": "9f19092c776258489e82933f11fb943d", "is_disabled": 0, "rental_uris": {"ios": "https://dc.lft.to/lastmile_qr_scan", "android": "https://dc.lft.to/lastmile_qr_scan"}, "is_reserved": 0}, {"lon": -76.98233216666667, "bike_id": "6a15b48875eb1adcc7cfe9ec87e8ede2", "lat": 38.88644083333333, "fusion_lon": 0.0, "fusion_lat": 0.0, "type": "electric_scooter", "name": "6a15b48875eb1adcc7cfe9ec87e8ede2", "is_disabled": 0, "rental_uris": {"ios": "https://dc.lft.to/lastmile_qr_scan", "android": "https://dc.lft.to/lastmile_qr_scan"}, "is_reserved": 0}, {"lon": -77.048792, "bike_id": "5f0c65fd262bd2b5f1e5f427abfa71b1", "lat": 38.8923035, "fusion_lon": 0.0, "fusion_lat": 0.0, "type": "electric_scooter", "name": "5f0c65fd262bd2b5f1e5f427abfa71b1", "is_disabled": 0, "rental_uris": {"ios": "https://dc.lft.to/lastmile_qr_scan", "android": "https://dc.lft.to/lastmile_qr_scan"}, "is_reserved": 0}, {"lon": -76.94876833333333, "bike_id": "e473e4915d802b5a264dc90c9d9f5933", "lat": 38.8950305, "fusion_lon": 0.0, "fusion_lat": 0.0, "type": "electric_scooter", "name": "e473e4915d802b5a264dc90c9d9f5933", "is_disabled": 0, "rental_uris": {"ios": "https://dc.lft.to/lastmile_qr_scan", "android": "https://dc.lft.to/lastmile_qr_scan"}, "is_reserved": 0}, {"lon": -77.03448066666667, "bike_id": "92d4479cfd6cea52a1226c4fc89c8bab", "lat": 38.91755933333334, "fusion_lon": 0.0, "fusion_lat": 0.0, "type": "electric_scooter", "name": "92d4479cfd6cea52a1226c4fc89c8bab", "is_disabled": 0, "rental_uris": {"ios": "https://dc.lft.to/lastmile_qr_scan", "android": "https://dc.lft.to/lastmile_qr_scan"}, "is_reserved": 0}, {"lon": -77.04359266666667, "bike_id": "d5274683154641eff69dbd191adbb1f5", "lat": 39.015413833333334, "fusion_lon": 0.0, "fusion_lat": 0.0, "type": "electric_bike", "name": "d5274683154641eff69dbd191adbb1f5", "is_disabled": 0, "rental_uris": {"ios": "https://dc.lft.to/lastmile_qr_scan", "android": "https://dc.lft.to/lastmile_qr_scan"}, "is_reserved": 0}, {"lon": -77.03136766666667, "bike_id": "04f75718be828ae1006ef0bec2b41c43", "lat": 38.9154665, "fusion_lon": 0.0, "fusion_lat": 0.0, "type": "electric_scooter", "name": "04f75718be828ae1006ef0bec2b41c43", "is_disabled": 0, "rental_uris": {"ios": "https://dc.lft.to/lastmile_qr_scan", "android": "https://dc.lft.to/lastmile_qr_scan"}, "is_reserved": 0}, {"lon": -77.03205983333334, "bike_id": "9517b024b70c903a1d65c43398ee929d", "lat": 38.9099655, "fusion_lon": 0.0, "fusion_lat": 0.0, "type": "electric_scooter", "name": "9517b024b70c903a1d65c43398ee929d", "is_disabled": 0, "rental_uris": {"ios": "https://dc.lft.to/lastmile_qr_scan", "android": "https://dc.lft.to/lastmile_qr_scan"}, "is_reserved": 0}, {"lon": -77.03875116666667, "bike_id": "979e9b000b5e6b67d326d32f819f1d66", "lat": 38.912644666666665, "fusion_lon": 0.0, "fusion_lat": 0.0, "type": "electric_scooter", "name": "979e9b000b5e6b67d326d32f819f1d66", "is_disabled": 0, "rental_uris": {"ios": "https://dc.lft.to/lastmile_qr_scan", "android": "https://dc.lft.to/lastmile_qr_scan"}, "is_reserved": 0}, {"lon": -77.04234966666667, "bike_id": "af4e0b05e293c8c5cb598d6e1bae1507", "lat": 38.921832333333334, "fusion_lon": 0.0, "fusion_lat": 0.0, "type": "electric_scooter", "name": "af4e0b05e293c8c5cb598d6e1bae1507", "is_disabled": 0, "rental_uris": {"ios": "https://dc.lft.to/lastmile_qr_scan", "android": "https://dc.lft.to/lastmile_qr_scan"}, "is_reserved": 0}, {"lon": -77.00120483333333, "bike_id": "2d00d2527e415acdf3b4c5ea26797a19", "lat": 38.91238933333333, "fusion_lon": 0.0, "fusion_lat": 0.0, "type": "electric_scooter", "name": "2d00d2527e415acdf3b4c5ea26797a19", "is_disabled": 0, "rental_uris": {"ios": "https://dc.lft.to/lastmile_qr_scan", "android": "https://dc.lft.to/lastmile_qr_scan"}, "is_reserved": 0}, {"lon": -77.11159033333334, "bike_id": "e86ddf76340c64e5b30d805658b035af", "lat": 38.855039833333336, "fusion_lon": 0.0, "fusion_lat": 0.0, "type": "electric_bike", "name": "e86ddf76340c64e5b30d805658b035af", "is_disabled": 0, "rental_uris": {"ios": "https://dc.lft.to/lastmile_qr_scan", "android": "https://dc.lft.to/lastmile_qr_scan"}, "is_reserved": 0}, {"lon": -76.97840583333333, "bike_id": "79998486949368233368620ac6cc0969", "lat": 38.86566416666667, "fusion_lon": 0.0, "fusion_lat": 0.0, "type": "electric_scooter", "name": "79998486949368233368620ac6cc0969", "is_disabled": 0, "rental_uris": {"ios": "https://dc.lft.to/lastmile_qr_scan", "android": "https://dc.lft.to/lastmile_qr_scan"}, "is_reserved": 0}, {"lon": -77.03845866666667, "bike_id": "ef59a1aa97aa4a0b64bd6250a77f25ce", "lat": 38.91215483333333, "fusion_lon": 0.0, "fusion_lat": 0.0, "type": "electric_scooter", "name": "ef59a1aa97aa4a0b64bd6250a77f25ce", "is_disabled": 0, "rental_uris": {"ios": "https://dc.lft.to/lastmile_qr_scan", "android": "https://dc.lft.to/lastmile_qr_scan"}, "is_reserved": 0}, {"lon": -77.026061, "bike_id": "abff0c911601fc5fd088065da6d98161", "lat": 38.918373833333334, "fusion_lon": 0.0, "fusion_lat": 0.0, "type": "electric_scooter", "name": "abff0c911601fc5fd088065da6d98161", "is_disabled": 0, "rental_uris": {"ios": "https://dc.lft.to/lastmile_qr_scan", "android": "https://dc.lft.to/lastmile_qr_scan"}, "is_reserved": 0}, {"lon": -77.03261716666667, "bike_id": "d0719cadd7f6da2249fff3a612f90dab", "lat": 38.928849, "fusion_lon": 0.0, "fusion_lat": 0.0, "type": "electric_scooter", "name": "d0719cadd7f6da2249fff3a612f90dab", "is_disabled": 0, "rental_uris": {"ios": "https://dc.lft.to/lastmile_qr_scan", "android": "https://dc.lft.to/lastmile_qr_scan"}, "is_reserved": 0}, {"lon": -77.036436, "bike_id": "328bd68ecd2f6ccbc5c0b1b3f35bf155", "lat": 38.9175855, "fusion_lon": 0.0, "fusion_lat": 0.0, "type": "electric_scooter", "name": "328bd68ecd2f6ccbc5c0b1b3f35bf155", "is_disabled": 0, "rental_uris": {"ios": "https://dc.lft.to/lastmile_qr_scan", "android": "https://dc.lft.to/lastmile_qr_scan"}, "is_reserved": 0}, {"lon": -77.02225383333334, "bike_id": "89a4a26bc91d3c027cb23af892f26663", "lat": 38.91252683333333, "fusion_lon": 0.0, "fusion_lat": 0.0, "type": "electric_scooter", "name": "89a4a26bc91d3c027cb23af892f26663", "is_disabled": 0, "rental_uris": {"ios": "https://dc.lft.to/lastmile_qr_scan", "android": "https://dc.lft.to/lastmile_qr_scan"}, "is_reserved": 0}, {"lon": -77.0034875, "bike_id": "3bea0867f00312e552f0b32982e66729", "lat": 38.9162545, "fusion_lon": 0.0, "fusion_lat": 0.0, "type": "electric_scooter", "name": "3bea0867f00312e552f0b32982e66729", "is_disabled": 0, "rental_uris": {"ios": "https://dc.lft.to/lastmile_qr_scan", "android": "https://dc.lft.to/lastmile_qr_scan"}, "is_reserved": 0}, {"lon": -77.0317525, "bike_id": "46490718a1f64caf311017be7856d602", "lat": 38.914238166666664, "fusion_lon": 0.0, "fusion_lat": 0.0, "type": "electric_scooter", "name": "46490718a1f64caf311017be7856d602", "is_disabled": 0, "rental_uris": {"ios": "https://dc.lft.to/lastmile_qr_scan", "android": "https://dc.lft.to/lastmile_qr_scan"}, "is_reserved": 0}, {"lon": -77.0417835, "bike_id": "9fbf53be4868ba6730aed7ba86b1df03", "lat": 38.9114235, "fusion_lon": 0.0, "fusion_lat": 0.0, "type": "electric_scooter", "name": "9fbf53be4868ba6730aed7ba86b1df03", "is_disabled": 0, "rental_uris": {"ios": "https://dc.lft.to/lastmile_qr_scan", "android": "https://dc.lft.to/lastmile_qr_scan"}, "is_reserved": 0}, {"lon": -77.02721316666667, "bike_id": "2622cfd4e92c8c58df6cc188e6852fe8", "lat": 38.909332666666664, "fusion_lon": 0.0, "fusion_lat": 0.0, "type": "electric_scooter", "name": "2622cfd4e92c8c58df6cc188e6852fe8", "is_disabled": 0, "rental_uris": {"ios": "https://dc.lft.to/lastmile_qr_scan", "android": "https://dc.lft.to/lastmile_qr_scan"}, "is_reserved": 0}, {"lon": -76.98459383333334, "bike_id": "c32de4a50d6775fa46e8272727a4a21e", "lat": 38.905544666666664, "fusion_lon": 0.0, "fusion_lat": 0.0, "type": "electric_scooter", "name": "c32de4a50d6775fa46e8272727a4a21e", "is_disabled": 0, "rental_uris": {"ios": "https://dc.lft.to/lastmile_qr_scan", "android": "https://dc.lft.to/lastmile_qr_scan"}, "is_reserved": 0}, {"lon": -77.0335445, "bike_id": "3e68912453c12dc58b121b1610f91277", "lat": 38.89242016666667, "fusion_lon": 0.0, "fusion_lat": 0.0, "type": "electric_scooter", "name": "3e68912453c12dc58b121b1610f91277", "is_disabled": 0, "rental_uris": {"ios": "https://dc.lft.to/lastmile_qr_scan", "android": "https://dc.lft.to/lastmile_qr_scan"}, "is_reserved": 0}, {"lon": -77.02169816666667, "bike_id": "48f4b388a078f7743d274fca0abe7427", "lat": 38.908531833333335, "fusion_lon": 0.0, "fusion_lat": 0.0, "type": "electric_scooter", "name": "48f4b388a078f7743d274fca0abe7427", "is_disabled": 0, "rental_uris": {"ios": "https://dc.lft.to/lastmile_qr_scan", "android": "https://dc.lft.to/lastmile_qr_scan"}, "is_reserved": 0}, {"lon": -77.022829, "bike_id": "eb20b0f04f2a8317ac55ff56fc20ff50", "lat": 38.9170435, "fusion_lon": 0.0, "fusion_lat": 0.0, "type": "electric_scooter", "name": "eb20b0f04f2a8317ac55ff56fc20ff50", "is_disabled": 0, "rental_uris": {"ios": "https://dc.lft.to/lastmile_qr_scan", "android": "https://dc.lft.to/lastmile_qr_scan"}, "is_reserved": 0}, {"lon": -77.04163016666666, "bike_id": "e767ef58b690782eb69327314fb57dde", "lat": 38.912486666666666, "fusion_lon": 0.0, "fusion_lat": 0.0, "type": "electric_scooter", "name": "e767ef58b690782eb69327314fb57dde", "is_disabled": 0, "rental_uris": {"ios": "https://dc.lft.to/lastmile_qr_scan", "android": "https://dc.lft.to/lastmile_qr_scan"}, "is_reserved": 0}, {"lon": -77.01637, "bike_id": "cfa89ae5e523a72ab0b07a6e7c030515", "lat": 38.92898816666667, "fusion_lon": 0.0, "fusion_lat": 0.0, "type": "electric_scooter", "name": "cfa89ae5e523a72ab0b07a6e7c030515", "is_disabled": 0, "rental_uris": {"ios": "https://dc.lft.to/lastmile_qr_scan", "android": "https://dc.lft.to/lastmile_qr_scan"}, "is_reserved": 0}, {"lon": -77.04378466666667, "bike_id": "726f3f572888d947bb2074295937053b", "lat": 38.92068283333333, "fusion_lon": 0.0, "fusion_lat": 0.0, "type": "electric_scooter", "name": "726f3f572888d947bb2074295937053b", "is_disabled": 0, "rental_uris": {"ios": "https://dc.lft.to/lastmile_qr_scan", "android": "https://dc.lft.to/lastmile_qr_scan"}, "is_reserved": 0}, {"lon": -77.0581295, "bike_id": "4e39f6b973197574c14bb40d1ea64b1b", "lat": 38.93510116666667, "fusion_lon": 0.0, "fusion_lat": 0.0, "type": "electric_scooter", "name": "4e39f6b973197574c14bb40d1ea64b1b", "is_disabled": 0, "rental_uris": {"ios": "https://dc.lft.to/lastmile_qr_scan", "android": "https://dc.lft.to/lastmile_qr_scan"}, "is_reserved": 0}, {"lon": -77.02361266666666, "bike_id": "5a6b2dde149f97adb7b5bd29e8d5ba26", "lat": 38.89222216666667, "fusion_lon": 0.0, "fusion_lat": 0.0, "type": "electric_scooter", "name": "5a6b2dde149f97adb7b5bd29e8d5ba26", "is_disabled": 0, "rental_uris": {"ios": "https://dc.lft.to/lastmile_qr_scan", "android": "https://dc.lft.to/lastmile_qr_scan"}, "is_reserved": 0}, {"lon": -77.03191516666666, "bike_id": "34e3e5e116e28f0f1d4b56197953f7ae", "lat": 38.912257333333336, "fusion_lon": 0.0, "fusion_lat": 0.0, "type": "electric_scooter", "name": "34e3e5e116e28f0f1d4b56197953f7ae", "is_disabled": 0, "rental_uris": {"ios": "https://dc.lft.to/lastmile_qr_scan", "android": "https://dc.lft.to/lastmile_qr_scan"}, "is_reserved": 0}, {"lon": -76.93134516666667, "bike_id": "b535df38ce22db0fcff25be312e5fa43", "lat": 38.878502833333336, "fusion_lon": 0.0, "fusion_lat": 0.0, "type": "electric_scooter", "name": "b535df38ce22db0fcff25be312e5fa43", "is_disabled": 0, "rental_uris": {"ios": "https://dc.lft.to/lastmile_qr_scan", "android": "https://dc.lft.to/lastmile_qr_scan"}, "is_reserved": 0}, {"lon": -77.0364155, "bike_id": "e9f33095683e177b69beb51a75089a01", "lat": 38.9230465, "fusion_lon": 0.0, "fusion_lat": 0.0, "type": "electric_scooter", "name": "e9f33095683e177b69beb51a75089a01", "is_disabled": 0, "rental_uris": {"ios": "https://dc.lft.to/lastmile_qr_scan", "android": "https://dc.lft.to/lastmile_qr_scan"}, "is_reserved": 0}, {"lon": -77.025882, "bike_id": "16f64ead5afe9b205a762120b6e7af26", "lat": 38.9430285, "fusion_lon": 0.0, "fusion_lat": 0.0, "type": "electric_scooter", "name": "16f64ead5afe9b205a762120b6e7af26", "is_disabled": 0, "rental_uris": {"ios": "https://dc.lft.to/lastmile_qr_scan", "android": "https://dc.lft.to/lastmile_qr_scan"}, "is_reserved": 0}, {"lon": -77.02486833333333, "bike_id": "be3be6b6742909b0e1cab4c0e1ba4c19", "lat": 38.9194655, "fusion_lon": 0.0, "fusion_lat": 0.0, "type": "electric_scooter", "name": "be3be6b6742909b0e1cab4c0e1ba4c19", "is_disabled": 0, "rental_uris": {"ios": "https://dc.lft.to/lastmile_qr_scan", "android": "https://dc.lft.to/lastmile_qr_scan"}, "is_reserved": 0}, {"lon": -77.07757283333333, "bike_id": "5df745b8700866b643c56b49e6eede21", "lat": 38.925565166666665, "fusion_lon": 0.0, "fusion_lat": 0.0, "type": "electric_scooter", "name": "5df745b8700866b643c56b49e6eede21", "is_disabled": 0, "rental_uris": {"ios": "https://dc.lft.to/lastmile_qr_scan", "android": "https://dc.lft.to/lastmile_qr_scan"}, "is_reserved": 0}, {"lon": -77.04429866666666, "bike_id": "69f45541ad57228720ba38bf36e396ce", "lat": 38.921237, "fusion_lon": 0.0, "fusion_lat": 0.0, "type": "electric_scooter", "name": "69f45541ad57228720ba38bf36e396ce", "is_disabled": 0, "rental_uris": {"ios": "https://dc.lft.to/lastmile_qr_scan", "android": "https://dc.lft.to/lastmile_qr_scan"}, "is_reserved": 0}, {"lon": -77.0729585, "bike_id": "862507a399b7fd391c5e4fdef9e0bd24", "lat": 38.9310415, "fusion_lon": 0.0, "fusion_lat": 0.0, "type": "electric_scooter", "name": "862507a399b7fd391c5e4fdef9e0bd24", "is_disabled": 0, "rental_uris": {"ios": "https://dc.lft.to/lastmile_qr_scan", "android": "https://dc.lft.to/lastmile_qr_scan"}, "is_reserved": 0}, {"lon": -77.00138533333333, "bike_id": "969cf0d66d397a42fedf44b39af05825", "lat": 38.894714666666665, "fusion_lon": 0.0, "fusion_lat": 0.0, "type": "electric_scooter", "name": "969cf0d66d397a42fedf44b39af05825", "is_disabled": 0, "rental_uris": {"ios": "https://dc.lft.to/lastmile_qr_scan", "android": "https://dc.lft.to/lastmile_qr_scan"}, "is_reserved": 0}, {"lon": -76.92667733333333, "bike_id": "f8d8b30fe4ff67e3616635a61302e4e0", "lat": 38.880382833333336, "fusion_lon": 0.0, "fusion_lat": 0.0, "type": "electric_scooter", "name": "f8d8b30fe4ff67e3616635a61302e4e0", "is_disabled": 0, "rental_uris": {"ios": "https://dc.lft.to/lastmile_qr_scan", "android": "https://dc.lft.to/lastmile_qr_scan"}, "is_reserved": 0}, {"lon": -77.0298355, "bike_id": "17618998a16351fd5368b87ca30c7f22", "lat": 38.92447766666667, "fusion_lon": 0.0, "fusion_lat": 0.0, "type": "electric_scooter", "name": "17618998a16351fd5368b87ca30c7f22", "is_disabled": 0, "rental_uris": {"ios": "https://dc.lft.to/lastmile_qr_scan", "android": "https://dc.lft.to/lastmile_qr_scan"}, "is_reserved": 0}, {"lon": -77.03201883333334, "bike_id": "9252dec1e832a854a6328ae4cea3e36f", "lat": 38.90998366666667, "fusion_lon": 0.0, "fusion_lat": 0.0, "type": "electric_scooter", "name": "9252dec1e832a854a6328ae4cea3e36f", "is_disabled": 0, "rental_uris": {"ios": "https://dc.lft.to/lastmile_qr_scan", "android": "https://dc.lft.to/lastmile_qr_scan"}, "is_reserved": 0}, {"lon": -76.99923783333334, "bike_id": "31f140ca2c126a8dac839b4f659537b3", "lat": 38.909169166666665, "fusion_lon": 0.0, "fusion_lat": 0.0, "type": "electric_scooter", "name": "31f140ca2c126a8dac839b4f659537b3", "is_disabled": 0, "rental_uris": {"ios": "https://dc.lft.to/lastmile_qr_scan", "android": "https://dc.lft.to/lastmile_qr_scan"}, "is_reserved": 0}, {"lon": -77.03447466666667, "bike_id": "5bdf0a80ee60f9454f1b96f7ca2ad4de", "lat": 38.908123833333335, "fusion_lon": 0.0, "fusion_lat": 0.0, "type": "electric_scooter", "name": "5bdf0a80ee60f9454f1b96f7ca2ad4de", "is_disabled": 0, "rental_uris": {"ios": "https://dc.lft.to/lastmile_qr_scan", "android": "https://dc.lft.to/lastmile_qr_scan"}, "is_reserved": 0}, {"lon": -76.93741183333333, "bike_id": "e86333e27a3bff00ec1c7a18885f6843", "lat": 38.890179833333335, "fusion_lon": 0.0, "fusion_lat": 0.0, "type": "electric_scooter", "name": "e86333e27a3bff00ec1c7a18885f6843", "is_disabled": 0, "rental_uris": {"ios": "https://dc.lft.to/lastmile_qr_scan", "android": "https://dc.lft.to/lastmile_qr_scan"}, "is_reserved": 0}, {"lon": -77.038534, "bike_id": "80a308eb7e64f2a45c4cdff4bc5222e8", "lat": 38.91548016666667, "fusion_lon": 0.0, "fusion_lat": 0.0, "type": "electric_scooter", "name": "80a308eb7e64f2a45c4cdff4bc5222e8", "is_disabled": 0, "rental_uris": {"ios": "https://dc.lft.to/lastmile_qr_scan", "android": "https://dc.lft.to/lastmile_qr_scan"}, "is_reserved": 0}, {"lon": -77.03474516666667, "bike_id": "baedb7c54a3ca1c8dd49a91f08b9ce09", "lat": 38.917050333333336, "fusion_lon": 0.0, "fusion_lat": 0.0, "type": "electric_scooter", "name": "baedb7c54a3ca1c8dd49a91f08b9ce09", "is_disabled": 0, "rental_uris": {"ios": "https://dc.lft.to/lastmile_qr_scan", "android": "https://dc.lft.to/lastmile_qr_scan"}, "is_reserved": 0}, {"lon": -77.04513083333333, "bike_id": "b2fa6d7bb1b504a52894c6cbad3130eb", "lat": 38.9037905, "fusion_lon": 0.0, "fusion_lat": 0.0, "type": "electric_scooter", "name": "b2fa6d7bb1b504a52894c6cbad3130eb", "is_disabled": 0, "rental_uris": {"ios": "https://dc.lft.to/lastmile_qr_scan", "android": "https://dc.lft.to/lastmile_qr_scan"}, "is_reserved": 0}, {"lon": -77.0449375, "bike_id": "fca1478b0cc65368ecaf52dadd5ffe86", "lat": 38.91359766666667, "fusion_lon": 0.0, "fusion_lat": 0.0, "type": "electric_scooter", "name": "fca1478b0cc65368ecaf52dadd5ffe86", "is_disabled": 0, "rental_uris": {"ios": "https://dc.lft.to/lastmile_qr_scan", "android": "https://dc.lft.to/lastmile_qr_scan"}, "is_reserved": 0}, {"lon": -77.01898866666667, "bike_id": "985da5d367e80589c7ae0dc942abf8b9", "lat": 38.908942, "fusion_lon": 0.0, "fusion_lat": 0.0, "type": "electric_scooter", "name": "985da5d367e80589c7ae0dc942abf8b9", "is_disabled": 0, "rental_uris": {"ios": "https://dc.lft.to/lastmile_qr_scan", "android": "https://dc.lft.to/lastmile_qr_scan"}, "is_reserved": 0}, {"lon": -77.0252035, "bike_id": "db7bde7130a73b2ca2707471b4e5efd5", "lat": 38.91268383333333, "fusion_lon": 0.0, "fusion_lat": 0.0, "type": "electric_scooter", "name": "db7bde7130a73b2ca2707471b4e5efd5", "is_disabled": 0, "rental_uris": {"ios": "https://dc.lft.to/lastmile_qr_scan", "android": "https://dc.lft.to/lastmile_qr_scan"}, "is_reserved": 0}, {"lon": -76.9652635, "bike_id": "995c1e9e102385d0a289b29edbd1c5ff", "lat": 38.876299333333336, "fusion_lon": 0.0, "fusion_lat": 0.0, "type": "electric_scooter", "name": "995c1e9e102385d0a289b29edbd1c5ff", "is_disabled": 0, "rental_uris": {"ios": "https://dc.lft.to/lastmile_qr_scan", "android": "https://dc.lft.to/lastmile_qr_scan"}, "is_reserved": 0}, {"lon": -77.04167583333333, "bike_id": "658d4878f301f2ba7f08cec9831b937c", "lat": 38.91971183333333, "fusion_lon": 0.0, "fusion_lat": 0.0, "type": "electric_scooter", "name": "658d4878f301f2ba7f08cec9831b937c", "is_disabled": 0, "rental_uris": {"ios": "https://dc.lft.to/lastmile_qr_scan", "android": "https://dc.lft.to/lastmile_qr_scan"}, "is_reserved": 0}, {"lon": -77.00600483333334, "bike_id": "3090eaf0f76bc41dbd021e9a41a08e48", "lat": 38.871877833333336, "fusion_lon": 0.0, "fusion_lat": 0.0, "type": "electric_scooter", "name": "3090eaf0f76bc41dbd021e9a41a08e48", "is_disabled": 0, "rental_uris": {"ios": "https://dc.lft.to/lastmile_qr_scan", "android": "https://dc.lft.to/lastmile_qr_scan"}, "is_reserved": 0}, {"lon": -76.98493133333334, "bike_id": "f66510fdda77222319434a42405c56ed", "lat": 38.878338, "fusion_lon": 0.0, "fusion_lat": 0.0, "type": "electric_scooter", "name": "f66510fdda77222319434a42405c56ed", "is_disabled": 0, "rental_uris": {"ios": "https://dc.lft.to/lastmile_qr_scan", "android": "https://dc.lft.to/lastmile_qr_scan"}, "is_reserved": 0}, {"lon": -77.02173883333333, "bike_id": "ac95f869f06999f1a003e889c3423fcd", "lat": 38.88719366666667, "fusion_lon": 0.0, "fusion_lat": 0.0, "type": "electric_scooter", "name": "ac95f869f06999f1a003e889c3423fcd", "is_disabled": 0, "rental_uris": {"ios": "https://dc.lft.to/lastmile_qr_scan", "android": "https://dc.lft.to/lastmile_qr_scan"}, "is_reserved": 0}, {"lon": -77.0236245, "bike_id": "b7c872b1785dcea37ffb352dd91217b8", "lat": 38.89221166666667, "fusion_lon": 0.0, "fusion_lat": 0.0, "type": "electric_scooter", "name": "b7c872b1785dcea37ffb352dd91217b8", "is_disabled": 0, "rental_uris": {"ios": "https://dc.lft.to/lastmile_qr_scan", "android": "https://dc.lft.to/lastmile_qr_scan"}, "is_reserved": 0}, {"lon": -77.0600925, "bike_id": "53cc0a8be3cf0e18b8c9d2a83761bd0d", "lat": 38.90114066666667, "fusion_lon": 0.0, "fusion_lat": 0.0, "type": "electric_scooter", "name": "53cc0a8be3cf0e18b8c9d2a83761bd0d", "is_disabled": 0, "rental_uris": {"ios": "https://dc.lft.to/lastmile_qr_scan", "android": "https://dc.lft.to/lastmile_qr_scan"}, "is_reserved": 0}, {"lon": -77.0504675, "bike_id": "9d5eab3e3c4e4f6374ff75e77454d228", "lat": 38.923602, "fusion_lon": 0.0, "fusion_lat": 0.0, "type": "electric_scooter", "name": "9d5eab3e3c4e4f6374ff75e77454d228", "is_disabled": 0, "rental_uris": {"ios": "https://dc.lft.to/lastmile_qr_scan", "android": "https://dc.lft.to/lastmile_qr_scan"}, "is_reserved": 0}, {"lon": -77.00784616666667, "bike_id": "1f2f534a14f89c82d677871e4c62b53c", "lat": 38.9057435, "fusion_lon": 0.0, "fusion_lat": 0.0, "type": "electric_scooter", "name": "1f2f534a14f89c82d677871e4c62b53c", "is_disabled": 0, "rental_uris": {"ios": "https://dc.lft.to/lastmile_qr_scan", "android": "https://dc.lft.to/lastmile_qr_scan"}, "is_reserved": 0}, {"lon": -77.03160516666667, "bike_id": "b990e84344eb543970ef6978346e8641", "lat": 38.9161675, "fusion_lon": 0.0, "fusion_lat": 0.0, "type": "electric_scooter", "name": "b990e84344eb543970ef6978346e8641", "is_disabled": 0, "rental_uris": {"ios": "https://dc.lft.to/lastmile_qr_scan", "android": "https://dc.lft.to/lastmile_qr_scan"}, "is_reserved": 0}, {"lon": -77.032644, "bike_id": "695bfafefa5878f5e087d52546ca7b1e", "lat": 38.937761333333334, "fusion_lon": 0.0, "fusion_lat": 0.0, "type": "electric_scooter", "name": "695bfafefa5878f5e087d52546ca7b1e", "is_disabled": 0, "rental_uris": {"ios": "https://dc.lft.to/lastmile_qr_scan", "android": "https://dc.lft.to/lastmile_qr_scan"}, "is_reserved": 0}, {"lon": -77.02192833333334, "bike_id": "7d022161bf750695deb5cb813ff5fb18", "lat": 38.92915466666667, "fusion_lon": 0.0, "fusion_lat": 0.0, "type": "electric_scooter", "name": "7d022161bf750695deb5cb813ff5fb18", "is_disabled": 0, "rental_uris": {"ios": "https://dc.lft.to/lastmile_qr_scan", "android": "https://dc.lft.to/lastmile_qr_scan"}, "is_reserved": 0}, {"lon": -76.98903, "bike_id": "a20cbcdc754eec26621f7c2e1cc04eba", "lat": 38.86666183333333, "fusion_lon": 0.0, "fusion_lat": 0.0, "type": "electric_scooter", "name": "a20cbcdc754eec26621f7c2e1cc04eba", "is_disabled": 0, "rental_uris": {"ios": "https://dc.lft.to/lastmile_qr_scan", "android": "https://dc.lft.to/lastmile_qr_scan"}, "is_reserved": 0}, {"lon": -77.05912816666667, "bike_id": "bc3f88a7d625ba6625a8d74bf9abddf4", "lat": 38.90373966666667, "fusion_lon": 0.0, "fusion_lat": 0.0, "type": "electric_bike", "name": "bc3f88a7d625ba6625a8d74bf9abddf4", "is_disabled": 0, "rental_uris": {"ios": "https://dc.lft.to/lastmile_qr_scan", "android": "https://dc.lft.to/lastmile_qr_scan"}, "is_reserved": 0}, {"lon": -77.03454666666667, "bike_id": "4a42290758b35cae4531191da0ebc2b3", "lat": 38.9087465, "fusion_lon": 0.0, "fusion_lat": 0.0, "type": "electric_scooter", "name": "4a42290758b35cae4531191da0ebc2b3", "is_disabled": 0, "rental_uris": {"ios": "https://dc.lft.to/lastmile_qr_scan", "android": "https://dc.lft.to/lastmile_qr_scan"}, "is_reserved": 0}, {"lon": -77.02365216666666, "bike_id": "147666dda4f88b32801e4723078399eb", "lat": 38.8847435, "fusion_lon": 0.0, "fusion_lat": 0.0, "type": "electric_scooter", "name": "147666dda4f88b32801e4723078399eb", "is_disabled": 0, "rental_uris": {"ios": "https://dc.lft.to/lastmile_qr_scan", "android": "https://dc.lft.to/lastmile_qr_scan"}, "is_reserved": 0}, {"lon": -77.056082, "bike_id": "d6dab9bb1941bf4781db535859be07b5", "lat": 38.931595, "fusion_lon": 0.0, "fusion_lat": 0.0, "type": "electric_scooter", "name": "d6dab9bb1941bf4781db535859be07b5", "is_disabled": 0, "rental_uris": {"ios": "https://dc.lft.to/lastmile_qr_scan", "android": "https://dc.lft.to/lastmile_qr_scan"}, "is_reserved": 0}, {"lon": -77.06098383333334, "bike_id": "2af5bb978d99994e9204e9f5d30f4066", "lat": 38.943684833333336, "fusion_lon": 0.0, "fusion_lat": 0.0, "type": "electric_scooter", "name": "2af5bb978d99994e9204e9f5d30f4066", "is_disabled": 0, "rental_uris": {"ios": "https://dc.lft.to/lastmile_qr_scan", "android": "https://dc.lft.to/lastmile_qr_scan"}, "is_reserved": 0}, {"lon": -76.98374183333334, "bike_id": "05ef557d3c1dae0cd764814051143c4b", "lat": 38.88960933333333, "fusion_lon": 0.0, "fusion_lat": 0.0, "type": "electric_scooter", "name": "05ef557d3c1dae0cd764814051143c4b", "is_disabled": 0, "rental_uris": {"ios": "https://dc.lft.to/lastmile_qr_scan", "android": "https://dc.lft.to/lastmile_qr_scan"}, "is_reserved": 0}, {"lon": -77.044989, "bike_id": "6c3b7e8d42b6dcf178ca759dea2e5f74", "lat": 38.907302333333334, "fusion_lon": 0.0, "fusion_lat": 0.0, "type": "electric_scooter", "name": "6c3b7e8d42b6dcf178ca759dea2e5f74", "is_disabled": 0, "rental_uris": {"ios": "https://dc.lft.to/lastmile_qr_scan", "android": "https://dc.lft.to/lastmile_qr_scan"}, "is_reserved": 0}, {"lon": -77.0333985, "bike_id": "c993ba6081444b85918b6d82d4b1af55", "lat": 38.919144333333335, "fusion_lon": 0.0, "fusion_lat": 0.0, "type": "electric_scooter", "name": "c993ba6081444b85918b6d82d4b1af55", "is_disabled": 0, "rental_uris": {"ios": "https://dc.lft.to/lastmile_qr_scan", "android": "https://dc.lft.to/lastmile_qr_scan"}, "is_reserved": 0}, {"lon": -77.02335083333334, "bike_id": "f440efdbe765f6ec4499ffefdb3c4a65", "lat": 38.92101533333334, "fusion_lon": 0.0, "fusion_lat": 0.0, "type": "electric_scooter", "name": "f440efdbe765f6ec4499ffefdb3c4a65", "is_disabled": 0, "rental_uris": {"ios": "https://dc.lft.to/lastmile_qr_scan", "android": "https://dc.lft.to/lastmile_qr_scan"}, "is_reserved": 0}, {"lon": -77.01446833333334, "bike_id": "c34064888ec74b06eca10973afa15250", "lat": 38.92077483333333, "fusion_lon": 0.0, "fusion_lat": 0.0, "type": "electric_scooter", "name": "c34064888ec74b06eca10973afa15250", "is_disabled": 0, "rental_uris": {"ios": "https://dc.lft.to/lastmile_qr_scan", "android": "https://dc.lft.to/lastmile_qr_scan"}, "is_reserved": 0}, {"lon": -76.98839383333333, "bike_id": "8418cfbc19d9aedea232c70ca508addb", "lat": 38.90071566666667, "fusion_lon": 0.0, "fusion_lat": 0.0, "type": "electric_scooter", "name": "8418cfbc19d9aedea232c70ca508addb", "is_disabled": 0, "rental_uris": {"ios": "https://dc.lft.to/lastmile_qr_scan", "android": "https://dc.lft.to/lastmile_qr_scan"}, "is_reserved": 0}, {"lon": -77.05043283333333, "bike_id": "9defe0e1568f91b60ce7f052a8e78f15", "lat": 38.923625666666666, "fusion_lon": 0.0, "fusion_lat": 0.0, "type": "electric_scooter", "name": "9defe0e1568f91b60ce7f052a8e78f15", "is_disabled": 0, "rental_uris": {"ios": "https://dc.lft.to/lastmile_qr_scan", "android": "https://dc.lft.to/lastmile_qr_scan"}, "is_reserved": 0}, {"lon": -76.99476583333333, "bike_id": "ac1da323ee4a8dee6a8dc6a220495294", "lat": 38.862192666666665, "fusion_lon": 0.0, "fusion_lat": 0.0, "type": "electric_scooter", "name": "ac1da323ee4a8dee6a8dc6a220495294", "is_disabled": 0, "rental_uris": {"ios": "https://dc.lft.to/lastmile_qr_scan", "android": "https://dc.lft.to/lastmile_qr_scan"}, "is_reserved": 0}, {"lon": -77.0337615, "bike_id": "ca293dbde54edf8dcb654314829233c3", "lat": 38.92156716666667, "fusion_lon": 0.0, "fusion_lat": 0.0, "type": "electric_scooter", "name": "ca293dbde54edf8dcb654314829233c3", "is_disabled": 0, "rental_uris": {"ios": "https://dc.lft.to/lastmile_qr_scan", "android": "https://dc.lft.to/lastmile_qr_scan"}, "is_reserved": 0}, {"lon": -77.04235916666667, "bike_id": "980b0aae7fd983ce7da9482e1c4b3b15", "lat": 38.9163475, "fusion_lon": 0.0, "fusion_lat": 0.0, "type": "electric_scooter", "name": "980b0aae7fd983ce7da9482e1c4b3b15", "is_disabled": 0, "rental_uris": {"ios": "https://dc.lft.to/lastmile_qr_scan", "android": "https://dc.lft.to/lastmile_qr_scan"}, "is_reserved": 0}, {"lon": -77.02501433333333, "bike_id": "5d37b1401bdbe27284ae9d356eff359f", "lat": 38.9208005, "fusion_lon": 0.0, "fusion_lat": 0.0, "type": "electric_scooter", "name": "5d37b1401bdbe27284ae9d356eff359f", "is_disabled": 0, "rental_uris": {"ios": "https://dc.lft.to/lastmile_qr_scan", "android": "https://dc.lft.to/lastmile_qr_scan"}, "is_reserved": 0}, {"lon": -77.05540733333333, "bike_id": "7be071d1e7cfc7941c06963b916a3f36", "lat": 38.9302555, "fusion_lon": 0.0, "fusion_lat": 0.0, "type": "electric_scooter", "name": "7be071d1e7cfc7941c06963b916a3f36", "is_disabled": 0, "rental_uris": {"ios": "https://dc.lft.to/lastmile_qr_scan", "android": "https://dc.lft.to/lastmile_qr_scan"}, "is_reserved": 0}, {"lon": -77.03261216666667, "bike_id": "7741b17966d1d70482c4292968f6f361", "lat": 38.932020666666666, "fusion_lon": 0.0, "fusion_lat": 0.0, "type": "electric_scooter", "name": "7741b17966d1d70482c4292968f6f361", "is_disabled": 0, "rental_uris": {"ios": "https://dc.lft.to/lastmile_qr_scan", "android": "https://dc.lft.to/lastmile_qr_scan"}, "is_reserved": 0}, {"lon": -77.00381616666667, "bike_id": "5c5e9357b2b4a8836d6fca78ee11e19e", "lat": 38.83601133333333, "fusion_lon": 0.0, "fusion_lat": 0.0, "type": "electric_bike", "name": "5c5e9357b2b4a8836d6fca78ee11e19e", "is_disabled": 0, "rental_uris": {"ios": "https://dc.lft.to/lastmile_qr_scan", "android": "https://dc.lft.to/lastmile_qr_scan"}, "is_reserved": 0}, {"lon": -77.02753566666667, "bike_id": "e9e82d18efcd44406d9f5ed7fb618b7c", "lat": 38.91694733333333, "fusion_lon": 0.0, "fusion_lat": 0.0, "type": "electric_scooter", "name": "e9e82d18efcd44406d9f5ed7fb618b7c", "is_disabled": 0, "rental_uris": {"ios": "https://dc.lft.to/lastmile_qr_scan", "android": "https://dc.lft.to/lastmile_qr_scan"}, "is_reserved": 0}, {"lon": -77.04694633333334, "bike_id": "5d79b27fca239a333dfeee09d8311aa0", "lat": 38.92176716666667, "fusion_lon": 0.0, "fusion_lat": 0.0, "type": "electric_scooter", "name": "5d79b27fca239a333dfeee09d8311aa0", "is_disabled": 0, "rental_uris": {"ios": "https://dc.lft.to/lastmile_qr_scan", "android": "https://dc.lft.to/lastmile_qr_scan"}, "is_reserved": 0}, {"lon": -76.99289633333333, "bike_id": "cd61abc767b423772e7dcf3602788d3a", "lat": 38.89889466666666, "fusion_lon": 0.0, "fusion_lat": 0.0, "type": "electric_scooter", "name": "cd61abc767b423772e7dcf3602788d3a", "is_disabled": 0, "rental_uris": {"ios": "https://dc.lft.to/lastmile_qr_scan", "android": "https://dc.lft.to/lastmile_qr_scan"}, "is_reserved": 0}, {"lon": -77.046491, "bike_id": "610749083fdc535b5cd7d997c554818d", "lat": 38.914204166666664, "fusion_lon": 0.0, "fusion_lat": 0.0, "type": "electric_scooter", "name": "610749083fdc535b5cd7d997c554818d", "is_disabled": 0, "rental_uris": {"ios": "https://dc.lft.to/lastmile_qr_scan", "android": "https://dc.lft.to/lastmile_qr_scan"}, "is_reserved": 0}, {"lon": -77.04516916666667, "bike_id": "e43564dcf0b7d2ff0b1361cc35fc01ca", "lat": 38.92322216666667, "fusion_lon": 0.0, "fusion_lat": 0.0, "type": "electric_scooter", "name": "e43564dcf0b7d2ff0b1361cc35fc01ca", "is_disabled": 0, "rental_uris": {"ios": "https://dc.lft.to/lastmile_qr_scan", "android": "https://dc.lft.to/lastmile_qr_scan"}, "is_reserved": 0}, {"lon": -77.02660033333333, "bike_id": "5a740597c3b5f8e8f63228f1220996aa", "lat": 38.916976166666664, "fusion_lon": 0.0, "fusion_lat": 0.0, "type": "electric_scooter", "name": "5a740597c3b5f8e8f63228f1220996aa", "is_disabled": 0, "rental_uris": {"ios": "https://dc.lft.to/lastmile_qr_scan", "android": "https://dc.lft.to/lastmile_qr_scan"}, "is_reserved": 0}, {"lon": -77.0554655, "bike_id": "817107022a7e0331936584762ca62115", "lat": 38.930069833333334, "fusion_lon": 0.0, "fusion_lat": 0.0, "type": "electric_scooter", "name": "817107022a7e0331936584762ca62115", "is_disabled": 0, "rental_uris": {"ios": "https://dc.lft.to/lastmile_qr_scan", "android": "https://dc.lft.to/lastmile_qr_scan"}, "is_reserved": 0}, {"lon": -77.03559683333333, "bike_id": "71ced2cbf2903f7aa058d69e7afb9903", "lat": 38.92479133333333, "fusion_lon": 0.0, "fusion_lat": 0.0, "type": "electric_scooter", "name": "71ced2cbf2903f7aa058d69e7afb9903", "is_disabled": 0, "rental_uris": {"ios": "https://dc.lft.to/lastmile_qr_scan", "android": "https://dc.lft.to/lastmile_qr_scan"}, "is_reserved": 0}, {"lon": -77.03750383333333, "bike_id": "5d9cae2c91686b8b43ea3a4f0800c954", "lat": 38.92917516666667, "fusion_lon": 0.0, "fusion_lat": 0.0, "type": "electric_scooter", "name": "5d9cae2c91686b8b43ea3a4f0800c954", "is_disabled": 0, "rental_uris": {"ios": "https://dc.lft.to/lastmile_qr_scan", "android": "https://dc.lft.to/lastmile_qr_scan"}, "is_reserved": 0}, {"lon": -77.04222516666667, "bike_id": "0deb35e89f5fcd099a16971e187794ea", "lat": 38.913525, "fusion_lon": 0.0, "fusion_lat": 0.0, "type": "electric_scooter", "name": "0deb35e89f5fcd099a16971e187794ea", "is_disabled": 0, "rental_uris": {"ios": "https://dc.lft.to/lastmile_qr_scan", "android": "https://dc.lft.to/lastmile_qr_scan"}, "is_reserved": 0}, {"lon": -77.04699683333334, "bike_id": "6bc9a0f32d0d652b2cca618294f3fdf1", "lat": 38.92138283333333, "fusion_lon": 0.0, "fusion_lat": 0.0, "type": "electric_scooter", "name": "6bc9a0f32d0d652b2cca618294f3fdf1", "is_disabled": 0, "rental_uris": {"ios": "https://dc.lft.to/lastmile_qr_scan", "android": "https://dc.lft.to/lastmile_qr_scan"}, "is_reserved": 0}, {"lon": -77.05041566666667, "bike_id": "62b7567ed7bec4260e752a9b458a5522", "lat": 38.923630333333335, "fusion_lon": 0.0, "fusion_lat": 0.0, "type": "electric_scooter", "name": "62b7567ed7bec4260e752a9b458a5522", "is_disabled": 0, "rental_uris": {"ios": "https://dc.lft.to/lastmile_qr_scan", "android": "https://dc.lft.to/lastmile_qr_scan"}, "is_reserved": 0}, {"lon": -77.03472183333334, "bike_id": "62c08c52654a05b090a17d262cd4424b", "lat": 38.93453933333333, "fusion_lon": 0.0, "fusion_lat": 0.0, "type": "electric_scooter", "name": "62c08c52654a05b090a17d262cd4424b", "is_disabled": 0, "rental_uris": {"ios": "https://dc.lft.to/lastmile_qr_scan", "android": "https://dc.lft.to/lastmile_qr_scan"}, "is_reserved": 0}, {"lon": -77.021709, "bike_id": "05a48de3fef93df85605510c4618cdd5", "lat": 38.92999233333333, "fusion_lon": 0.0, "fusion_lat": 0.0, "type": "electric_scooter", "name": "05a48de3fef93df85605510c4618cdd5", "is_disabled": 0, "rental_uris": {"ios": "https://dc.lft.to/lastmile_qr_scan", "android": "https://dc.lft.to/lastmile_qr_scan"}, "is_reserved": 0}, {"lon": -76.990168, "bike_id": "aade0defb54d133c8344fdf148513ad2", "lat": 38.882724333333336, "fusion_lon": 0.0, "fusion_lat": 0.0, "type": "electric_scooter", "name": "aade0defb54d133c8344fdf148513ad2", "is_disabled": 0, "rental_uris": {"ios": "https://dc.lft.to/lastmile_qr_scan", "android": "https://dc.lft.to/lastmile_qr_scan"}, "is_reserved": 0}, {"lon": -76.93189, "bike_id": "c952f865208cb2a0bbcca7128eff67ae", "lat": 38.898744666666666, "fusion_lon": 0.0, "fusion_lat": 0.0, "type": "electric_scooter", "name": "c952f865208cb2a0bbcca7128eff67ae", "is_disabled": 0, "rental_uris": {"ios": "https://dc.lft.to/lastmile_qr_scan", "android": "https://dc.lft.to/lastmile_qr_scan"}, "is_reserved": 0}, {"lon": -77.003701, "bike_id": "0388cec8a0fbd064800fea57ac46eedc", "lat": 38.89736633333333, "fusion_lon": 0.0, "fusion_lat": 0.0, "type": "electric_scooter", "name": "0388cec8a0fbd064800fea57ac46eedc", "is_disabled": 0, "rental_uris": {"ios": "https://dc.lft.to/lastmile_qr_scan", "android": "https://dc.lft.to/lastmile_qr_scan"}, "is_reserved": 0}, {"lon": -76.98035533333334, "bike_id": "4f8829fcc7d22ae728117afafe2fc2bf", "lat": 38.88964416666666, "fusion_lon": 0.0, "fusion_lat": 0.0, "type": "electric_scooter", "name": "4f8829fcc7d22ae728117afafe2fc2bf", "is_disabled": 0, "rental_uris": {"ios": "https://dc.lft.to/lastmile_qr_scan", "android": "https://dc.lft.to/lastmile_qr_scan"}, "is_reserved": 0}, {"lon": -77.02379533333334, "bike_id": "24898e175de402a8873ecd5c115aa733", "lat": 38.91434183333333, "fusion_lon": 0.0, "fusion_lat": 0.0, "type": "electric_scooter", "name": "24898e175de402a8873ecd5c115aa733", "is_disabled": 0, "rental_uris": {"ios": "https://dc.lft.to/lastmile_qr_scan", "android": "https://dc.lft.to/lastmile_qr_scan"}, "is_reserved": 0}, {"lon": -77.0328095, "bike_id": "ef940d82556f320975a0be9fb60450e5", "lat": 38.907092666666664, "fusion_lon": 0.0, "fusion_lat": 0.0, "type": "electric_scooter", "name": "ef940d82556f320975a0be9fb60450e5", "is_disabled": 0, "rental_uris": {"ios": "https://dc.lft.to/lastmile_qr_scan", "android": "https://dc.lft.to/lastmile_qr_scan"}, "is_reserved": 0}, {"lon": -76.92175733333333, "bike_id": "2925e054bf269bc6b4da6b2c3bfda5cc", "lat": 38.895095166666664, "fusion_lon": 0.0, "fusion_lat": 0.0, "type": "electric_bike", "name": "2925e054bf269bc6b4da6b2c3bfda5cc", "is_disabled": 0, "rental_uris": {"ios": "https://dc.lft.to/lastmile_qr_scan", "android": "https://dc.lft.to/lastmile_qr_scan"}, "is_reserved": 0}, {"lon": -76.9839195, "bike_id": "34874f798b7b1159e9d7221281bde270", "lat": 38.866338166666665, "fusion_lon": 0.0, "fusion_lat": 0.0, "type": "electric_scooter", "name": "34874f798b7b1159e9d7221281bde270", "is_disabled": 0, "rental_uris": {"ios": "https://dc.lft.to/lastmile_qr_scan", "android": "https://dc.lft.to/lastmile_qr_scan"}, "is_reserved": 0}, {"lon": -77.03604533333333, "bike_id": "92c77b1b593fdd33958effb5d38d43b3", "lat": 38.934816, "fusion_lon": 0.0, "fusion_lat": 0.0, "type": "electric_scooter", "name": "92c77b1b593fdd33958effb5d38d43b3", "is_disabled": 0, "rental_uris": {"ios": "https://dc.lft.to/lastmile_qr_scan", "android": "https://dc.lft.to/lastmile_qr_scan"}, "is_reserved": 0}, {"lon": -77.01493833333333, "bike_id": "354278fb81bb4bde1f971137129f562f", "lat": 38.91760083333333, "fusion_lon": 0.0, "fusion_lat": 0.0, "type": "electric_scooter", "name": "354278fb81bb4bde1f971137129f562f", "is_disabled": 0, "rental_uris": {"ios": "https://dc.lft.to/lastmile_qr_scan", "android": "https://dc.lft.to/lastmile_qr_scan"}, "is_reserved": 0}, {"lon": -77.08001033333333, "bike_id": "0980034d25e3e5890af6ee19693c0682", "lat": 38.964877666666666, "fusion_lon": 0.0, "fusion_lat": 0.0, "type": "electric_scooter", "name": "0980034d25e3e5890af6ee19693c0682", "is_disabled": 0, "rental_uris": {"ios": "https://dc.lft.to/lastmile_qr_scan", "android": "https://dc.lft.to/lastmile_qr_scan"}, "is_reserved": 0}, {"lon": -77.07906466666667, "bike_id": "a4140094abd3e2d6cd241546a03d88a8", "lat": 38.83932816666667, "fusion_lon": 0.0, "fusion_lat": 0.0, "type": "electric_bike", "name": "a4140094abd3e2d6cd241546a03d88a8", "is_disabled": 0, "rental_uris": {"ios": "https://dc.lft.to/lastmile_qr_scan", "android": "https://dc.lft.to/lastmile_qr_scan"}, "is_reserved": 0}, {"lon": -77.01224733333333, "bike_id": "fdf71be4d6112fd8f132d45f6d6ab879", "lat": 38.915438, "fusion_lon": 0.0, "fusion_lat": 0.0, "type": "electric_scooter", "name": "fdf71be4d6112fd8f132d45f6d6ab879", "is_disabled": 0, "rental_uris": {"ios": "https://dc.lft.to/lastmile_qr_scan", "android": "https://dc.lft.to/lastmile_qr_scan"}, "is_reserved": 0}, {"lon": -77.02568633333334, "bike_id": "7247a717f993f2d7cf64dd9177325a8c", "lat": 38.91339683333333, "fusion_lon": 0.0, "fusion_lat": 0.0, "type": "electric_scooter", "name": "7247a717f993f2d7cf64dd9177325a8c", "is_disabled": 0, "rental_uris": {"ios": "https://dc.lft.to/lastmile_qr_scan", "android": "https://dc.lft.to/lastmile_qr_scan"}, "is_reserved": 0}, {"lon": -77.0431615, "bike_id": "16494b51b24072460b23673901b904fa", "lat": 38.922479, "fusion_lon": 0.0, "fusion_lat": 0.0, "type": "electric_scooter", "name": "16494b51b24072460b23673901b904fa", "is_disabled": 0, "rental_uris": {"ios": "https://dc.lft.to/lastmile_qr_scan", "android": "https://dc.lft.to/lastmile_qr_scan"}, "is_reserved": 0}, {"lon": -77.02533033333333, "bike_id": "17cbfe5c8b2217442ba26a5b7962b64f", "lat": 38.940948666666664, "fusion_lon": 0.0, "fusion_lat": 0.0, "type": "electric_scooter", "name": "17cbfe5c8b2217442ba26a5b7962b64f", "is_disabled": 0, "rental_uris": {"ios": "https://dc.lft.to/lastmile_qr_scan", "android": "https://dc.lft.to/lastmile_qr_scan"}, "is_reserved": 0}, {"lon": -77.039522, "bike_id": "2f19f56d0610e8e2396501b7c59ea928", "lat": 38.8989785, "fusion_lon": 0.0, "fusion_lat": 0.0, "type": "electric_scooter", "name": "2f19f56d0610e8e2396501b7c59ea928", "is_disabled": 0, "rental_uris": {"ios": "https://dc.lft.to/lastmile_qr_scan", "android": "https://dc.lft.to/lastmile_qr_scan"}, "is_reserved": 0}, {"lon": -76.98775883333333, "bike_id": "cc5700cc511dbee68f3e2747acdcdabc", "lat": 38.866069, "fusion_lon": 0.0, "fusion_lat": 0.0, "type": "electric_bike", "name": "cc5700cc511dbee68f3e2747acdcdabc", "is_disabled": 0, "rental_uris": {"ios": "https://dc.lft.to/lastmile_qr_scan", "android": "https://dc.lft.to/lastmile_qr_scan"}, "is_reserved": 0}, {"lon": -77.0247245, "bike_id": "e93ad4b7b57e376ed5015dd37869b146", "lat": 38.918209166666664, "fusion_lon": 0.0, "fusion_lat": 0.0, "type": "electric_scooter", "name": "e93ad4b7b57e376ed5015dd37869b146", "is_disabled": 0, "rental_uris": {"ios": "https://dc.lft.to/lastmile_qr_scan", "android": "https://dc.lft.to/lastmile_qr_scan"}, "is_reserved": 0}, {"lon": -76.99032, "bike_id": "8183bcccc0f798f9c48e00c3b4ca8012", "lat": 38.89877166666667, "fusion_lon": 0.0, "fusion_lat": 0.0, "type": "electric_scooter", "name": "8183bcccc0f798f9c48e00c3b4ca8012", "is_disabled": 0, "rental_uris": {"ios": "https://dc.lft.to/lastmile_qr_scan", "android": "https://dc.lft.to/lastmile_qr_scan"}, "is_reserved": 0}, {"lon": -76.984045, "bike_id": "20847adba7f66af95e44d05ae462d162", "lat": 38.906294833333334, "fusion_lon": 0.0, "fusion_lat": 0.0, "type": "electric_scooter", "name": "20847adba7f66af95e44d05ae462d162", "is_disabled": 0, "rental_uris": {"ios": "https://dc.lft.to/lastmile_qr_scan", "android": "https://dc.lft.to/lastmile_qr_scan"}, "is_reserved": 0}, {"lon": -77.0396685, "bike_id": "9920a213dc4551b9eb79a2338f1f8c1b", "lat": 38.91632416666667, "fusion_lon": 0.0, "fusion_lat": 0.0, "type": "electric_scooter", "name": "9920a213dc4551b9eb79a2338f1f8c1b", "is_disabled": 0, "rental_uris": {"ios": "https://dc.lft.to/lastmile_qr_scan", "android": "https://dc.lft.to/lastmile_qr_scan"}, "is_reserved": 0}, {"lon": -77.01854016666667, "bike_id": "ec07c482e3bc11d08dc8b2fd92cca4c1", "lat": 38.973680333333334, "fusion_lon": 0.0, "fusion_lat": 0.0, "type": "electric_scooter", "name": "ec07c482e3bc11d08dc8b2fd92cca4c1", "is_disabled": 0, "rental_uris": {"ios": "https://dc.lft.to/lastmile_qr_scan", "android": "https://dc.lft.to/lastmile_qr_scan"}, "is_reserved": 0}, {"lon": -77.04214033333334, "bike_id": "3e5d90991638a4f52ee6cde1d214ed4e", "lat": 38.921244, "fusion_lon": 0.0, "fusion_lat": 0.0, "type": "electric_scooter", "name": "3e5d90991638a4f52ee6cde1d214ed4e", "is_disabled": 0, "rental_uris": {"ios": "https://dc.lft.to/lastmile_qr_scan", "android": "https://dc.lft.to/lastmile_qr_scan"}, "is_reserved": 0}, {"lon": -77.039919, "bike_id": "092d8681078b1e9dfc3b3f98869929ac", "lat": 38.932739, "fusion_lon": 0.0, "fusion_lat": 0.0, "type": "electric_scooter", "name": "092d8681078b1e9dfc3b3f98869929ac", "is_disabled": 0, "rental_uris": {"ios": "https://dc.lft.to/lastmile_qr_scan", "android": "https://dc.lft.to/lastmile_qr_scan"}, "is_reserved": 0}, {"lon": -77.16625533333334, "bike_id": "d806b3ad0b77f677db15ca7edf02fbcc", "lat": 38.88834166666667, "fusion_lon": 0.0, "fusion_lat": 0.0, "type": "electric_bike", "name": "d806b3ad0b77f677db15ca7edf02fbcc", "is_disabled": 0, "rental_uris": {"ios": "https://dc.lft.to/lastmile_qr_scan", "android": "https://dc.lft.to/lastmile_qr_scan"}, "is_reserved": 0}, {"lon": -77.03012183333334, "bike_id": "06acb1e3686ecdb81df32ab57f5dec16", "lat": 38.92570466666667, "fusion_lon": 0.0, "fusion_lat": 0.0, "type": "electric_scooter", "name": "06acb1e3686ecdb81df32ab57f5dec16", "is_disabled": 0, "rental_uris": {"ios": "https://dc.lft.to/lastmile_qr_scan", "android": "https://dc.lft.to/lastmile_qr_scan"}, "is_reserved": 0}, {"lon": -77.03264366666667, "bike_id": "9238a38297b1356331795a9f87150729", "lat": 38.93893033333333, "fusion_lon": 0.0, "fusion_lat": 0.0, "type": "electric_scooter", "name": "9238a38297b1356331795a9f87150729", "is_disabled": 0, "rental_uris": {"ios": "https://dc.lft.to/lastmile_qr_scan", "android": "https://dc.lft.to/lastmile_qr_scan"}, "is_reserved": 0}, {"lon": -76.9953055, "bike_id": "764f3e95122eb0f243c536caf6a63929", "lat": 38.89179516666667, "fusion_lon": 0.0, "fusion_lat": 0.0, "type": "electric_scooter", "name": "764f3e95122eb0f243c536caf6a63929", "is_disabled": 0, "rental_uris": {"ios": "https://dc.lft.to/lastmile_qr_scan", "android": "https://dc.lft.to/lastmile_qr_scan"}, "is_reserved": 0}, {"lon": -77.046596, "bike_id": "7b3bf7c5f19164f63ce7f9ce47c06ed3", "lat": 38.90787733333333, "fusion_lon": 0.0, "fusion_lat": 0.0, "type": "electric_scooter", "name": "7b3bf7c5f19164f63ce7f9ce47c06ed3", "is_disabled": 0, "rental_uris": {"ios": "https://dc.lft.to/lastmile_qr_scan", "android": "https://dc.lft.to/lastmile_qr_scan"}, "is_reserved": 0}, {"lon": -77.02725366666667, "bike_id": "18a4679f65effe7e6e8915c7d34c4c59", "lat": 38.894596166666666, "fusion_lon": 0.0, "fusion_lat": 0.0, "type": "electric_scooter", "name": "18a4679f65effe7e6e8915c7d34c4c59", "is_disabled": 0, "rental_uris": {"ios": "https://dc.lft.to/lastmile_qr_scan", "android": "https://dc.lft.to/lastmile_qr_scan"}, "is_reserved": 0}, {"lon": -77.02465633333334, "bike_id": "3d639cf0486a3c43cc443519a5fa632b", "lat": 38.938638833333336, "fusion_lon": 0.0, "fusion_lat": 0.0, "type": "electric_scooter", "name": "3d639cf0486a3c43cc443519a5fa632b", "is_disabled": 0, "rental_uris": {"ios": "https://dc.lft.to/lastmile_qr_scan", "android": "https://dc.lft.to/lastmile_qr_scan"}, "is_reserved": 0}, {"lon": -76.98668116666667, "bike_id": "0e18407cde78efa5306b6d0e1529171d", "lat": 38.867310333333336, "fusion_lon": 0.0, "fusion_lat": 0.0, "type": "electric_scooter", "name": "0e18407cde78efa5306b6d0e1529171d", "is_disabled": 0, "rental_uris": {"ios": "https://dc.lft.to/lastmile_qr_scan", "android": "https://dc.lft.to/lastmile_qr_scan"}, "is_reserved": 0}, {"lon": -77.02748216666667, "bike_id": "71501f3c61ccd3674edda8f6f723d34e", "lat": 38.88143383333333, "fusion_lon": 0.0, "fusion_lat": 0.0, "type": "electric_scooter", "name": "71501f3c61ccd3674edda8f6f723d34e", "is_disabled": 0, "rental_uris": {"ios": "https://dc.lft.to/lastmile_qr_scan", "android": "https://dc.lft.to/lastmile_qr_scan"}, "is_reserved": 0}, {"lon": -77.027143, "bike_id": "cb38db7c81e83c9f03c2234d0d353b93", "lat": 38.95084933333333, "fusion_lon": 0.0, "fusion_lat": 0.0, "type": "electric_scooter", "name": "cb38db7c81e83c9f03c2234d0d353b93", "is_disabled": 0, "rental_uris": {"ios": "https://dc.lft.to/lastmile_qr_scan", "android": "https://dc.lft.to/lastmile_qr_scan"}, "is_reserved": 0}, {"lon": -77.0436295, "bike_id": "2b1b677a301ee9615314773a73d16828", "lat": 38.92103216666667, "fusion_lon": 0.0, "fusion_lat": 0.0, "type": "electric_scooter", "name": "2b1b677a301ee9615314773a73d16828", "is_disabled": 0, "rental_uris": {"ios": "https://dc.lft.to/lastmile_qr_scan", "android": "https://dc.lft.to/lastmile_qr_scan"}, "is_reserved": 0}, {"lon": -76.99368983333333, "bike_id": "7a04bc26a7720896f0bd949d030c3748", "lat": 38.900274833333334, "fusion_lon": 0.0, "fusion_lat": 0.0, "type": "electric_bike", "name": "7a04bc26a7720896f0bd949d030c3748", "is_disabled": 0, "rental_uris": {"ios": "https://dc.lft.to/lastmile_qr_scan", "android": "https://dc.lft.to/lastmile_qr_scan"}, "is_reserved": 0}, {"lon": -77.031018, "bike_id": "70b9d997f47c5d606e1861dd3c8e1d47", "lat": 38.91806616666667, "fusion_lon": 0.0, "fusion_lat": 0.0, "type": "electric_scooter", "name": "70b9d997f47c5d606e1861dd3c8e1d47", "is_disabled": 0, "rental_uris": {"ios": "https://dc.lft.to/lastmile_qr_scan", "android": "https://dc.lft.to/lastmile_qr_scan"}, "is_reserved": 0}, {"lon": -77.042651, "bike_id": "654992fca341e54904faf2793cb9b32b", "lat": 38.90411983333333, "fusion_lon": 0.0, "fusion_lat": 0.0, "type": "electric_scooter", "name": "654992fca341e54904faf2793cb9b32b", "is_disabled": 0, "rental_uris": {"ios": "https://dc.lft.to/lastmile_qr_scan", "android": "https://dc.lft.to/lastmile_qr_scan"}, "is_reserved": 0}, {"lon": -77.01225066666667, "bike_id": "3e8b30a6368364cf9131d9fc3e5ad97a", "lat": 38.9154305, "fusion_lon": 0.0, "fusion_lat": 0.0, "type": "electric_scooter", "name": "3e8b30a6368364cf9131d9fc3e5ad97a", "is_disabled": 0, "rental_uris": {"ios": "https://dc.lft.to/lastmile_qr_scan", "android": "https://dc.lft.to/lastmile_qr_scan"}, "is_reserved": 0}, {"lon": -77.02489466666667, "bike_id": "64b878e56a6ef301fbb9e3b21e72fd67", "lat": 38.91694433333333, "fusion_lon": 0.0, "fusion_lat": 0.0, "type": "electric_scooter", "name": "64b878e56a6ef301fbb9e3b21e72fd67", "is_disabled": 0, "rental_uris": {"ios": "https://dc.lft.to/lastmile_qr_scan", "android": "https://dc.lft.to/lastmile_qr_scan"}, "is_reserved": 0}, {"lon": -77.04674416666667, "bike_id": "7fc357e3cbd1d890b0f802858642ae67", "lat": 38.892307833333334, "fusion_lon": 0.0, "fusion_lat": 0.0, "type": "electric_scooter", "name": "7fc357e3cbd1d890b0f802858642ae67", "is_disabled": 0, "rental_uris": {"ios": "https://dc.lft.to/lastmile_qr_scan", "android": "https://dc.lft.to/lastmile_qr_scan"}, "is_reserved": 0}, {"lon": -77.01380266666666, "bike_id": "1db6214296e4240b8623166db7029652", "lat": 38.91220283333333, "fusion_lon": 0.0, "fusion_lat": 0.0, "type": "electric_scooter", "name": "1db6214296e4240b8623166db7029652", "is_disabled": 0, "rental_uris": {"ios": "https://dc.lft.to/lastmile_qr_scan", "android": "https://dc.lft.to/lastmile_qr_scan"}, "is_reserved": 0}, {"lon": -77.0343645, "bike_id": "94d218b57dac9815fa7fa3fdc9cca702", "lat": 38.9097555, "fusion_lon": 0.0, "fusion_lat": 0.0, "type": "electric_scooter", "name": "94d218b57dac9815fa7fa3fdc9cca702", "is_disabled": 0, "rental_uris": {"ios": "https://dc.lft.to/lastmile_qr_scan", "android": "https://dc.lft.to/lastmile_qr_scan"}, "is_reserved": 0}, {"lon": -77.12529516666666, "bike_id": "b22c31d20168a61aed5e1ab695fcc96a", "lat": 39.056338833333335, "fusion_lon": 0.0, "fusion_lat": 0.0, "type": "electric_bike", "name": "b22c31d20168a61aed5e1ab695fcc96a", "is_disabled": 0, "rental_uris": {"ios": "https://dc.lft.to/lastmile_qr_scan", "android": "https://dc.lft.to/lastmile_qr_scan"}, "is_reserved": 0}, {"lon": -77.01304183333333, "bike_id": "e60820cddd21a636cf978db2deee8450", "lat": 38.914209166666666, "fusion_lon": 0.0, "fusion_lat": 0.0, "type": "electric_scooter", "name": "e60820cddd21a636cf978db2deee8450", "is_disabled": 0, "rental_uris": {"ios": "https://dc.lft.to/lastmile_qr_scan", "android": "https://dc.lft.to/lastmile_qr_scan"}, "is_reserved": 0}, {"lon": -77.04370483333334, "bike_id": "2efc0fb3eec0b557c5b222977bca6a2c", "lat": 38.8921925, "fusion_lon": 0.0, "fusion_lat": 0.0, "type": "electric_scooter", "name": "2efc0fb3eec0b557c5b222977bca6a2c", "is_disabled": 0, "rental_uris": {"ios": "https://dc.lft.to/lastmile_qr_scan", "android": "https://dc.lft.to/lastmile_qr_scan"}, "is_reserved": 0}, {"lon": -76.9993175, "bike_id": "699f413a29bb2a1911700821d778ae3b", "lat": 38.843159666666665, "fusion_lon": 0.0, "fusion_lat": 0.0, "type": "electric_scooter", "name": "699f413a29bb2a1911700821d778ae3b", "is_disabled": 0, "rental_uris": {"ios": "https://dc.lft.to/lastmile_qr_scan", "android": "https://dc.lft.to/lastmile_qr_scan"}, "is_reserved": 0}, {"lon": -77.03433983333333, "bike_id": "496fc2546a3a496854edccc04e6a680e", "lat": 38.90554483333333, "fusion_lon": 0.0, "fusion_lat": 0.0, "type": "electric_scooter", "name": "496fc2546a3a496854edccc04e6a680e", "is_disabled": 0, "rental_uris": {"ios": "https://dc.lft.to/lastmile_qr_scan", "android": "https://dc.lft.to/lastmile_qr_scan"}, "is_reserved": 0}, {"lon": -77.02847916666667, "bike_id": "a5d41b15141ec613b23f66aa4410c48e", "lat": 38.93414583333333, "fusion_lon": 0.0, "fusion_lat": 0.0, "type": "electric_scooter", "name": "a5d41b15141ec613b23f66aa4410c48e", "is_disabled": 0, "rental_uris": {"ios": "https://dc.lft.to/lastmile_qr_scan", "android": "https://dc.lft.to/lastmile_qr_scan"}, "is_reserved": 0}, {"lon": -77.0433685, "bike_id": "93eb7f2eb86f7e16812814f4398aca4e", "lat": 38.8922335, "fusion_lon": 0.0, "fusion_lat": 0.0, "type": "electric_scooter", "name": "93eb7f2eb86f7e16812814f4398aca4e", "is_disabled": 0, "rental_uris": {"ios": "https://dc.lft.to/lastmile_qr_scan", "android": "https://dc.lft.to/lastmile_qr_scan"}, "is_reserved": 0}, {"lon": -77.07454216666666, "bike_id": "c004443270b937c5d00c5a63e2e65d7a", "lat": 38.9450655, "fusion_lon": 0.0, "fusion_lat": 0.0, "type": "electric_scooter", "name": "c004443270b937c5d00c5a63e2e65d7a", "is_disabled": 0, "rental_uris": {"ios": "https://dc.lft.to/lastmile_qr_scan", "android": "https://dc.lft.to/lastmile_qr_scan"}, "is_reserved": 0}, {"lon": -76.9373165, "bike_id": "22e7f4659fc23a6102c0d45e465271bc", "lat": 38.89015766666667, "fusion_lon": 0.0, "fusion_lat": 0.0, "type": "electric_scooter", "name": "22e7f4659fc23a6102c0d45e465271bc", "is_disabled": 0, "rental_uris": {"ios": "https://dc.lft.to/lastmile_qr_scan", "android": "https://dc.lft.to/lastmile_qr_scan"}, "is_reserved": 0}, {"lon": -77.0160315, "bike_id": "7e3ec08f6c99413cc297ed1fabcb7d2f", "lat": 38.899744166666665, "fusion_lon": 0.0, "fusion_lat": 0.0, "type": "electric_scooter", "name": "7e3ec08f6c99413cc297ed1fabcb7d2f", "is_disabled": 0, "rental_uris": {"ios": "https://dc.lft.to/lastmile_qr_scan", "android": "https://dc.lft.to/lastmile_qr_scan"}, "is_reserved": 0}, {"lon": -77.03469033333333, "bike_id": "ea293960b9669cc14d6eb586d04e675b", "lat": 38.90289, "fusion_lon": 0.0, "fusion_lat": 0.0, "type": "electric_scooter", "name": "ea293960b9669cc14d6eb586d04e675b", "is_disabled": 0, "rental_uris": {"ios": "https://dc.lft.to/lastmile_qr_scan", "android": "https://dc.lft.to/lastmile_qr_scan"}, "is_reserved": 0}, {"lon": -77.03175533333334, "bike_id": "d7f056f18f6a344ebd66e009de8df461", "lat": 38.91416, "fusion_lon": 0.0, "fusion_lat": 0.0, "type": "electric_scooter", "name": "d7f056f18f6a344ebd66e009de8df461", "is_disabled": 0, "rental_uris": {"ios": "https://dc.lft.to/lastmile_qr_scan", "android": "https://dc.lft.to/lastmile_qr_scan"}, "is_reserved": 0}, {"lon": -77.03264333333334, "bike_id": "5b82d242cc59f1e7b7cc08a2d569df3e", "lat": 38.93214966666667, "fusion_lon": 0.0, "fusion_lat": 0.0, "type": "electric_scooter", "name": "5b82d242cc59f1e7b7cc08a2d569df3e", "is_disabled": 0, "rental_uris": {"ios": "https://dc.lft.to/lastmile_qr_scan", "android": "https://dc.lft.to/lastmile_qr_scan"}, "is_reserved": 0}, {"lon": -77.04250933333333, "bike_id": "15c959b79a871d7405c08f6c97bdc4bd", "lat": 38.92434333333333, "fusion_lon": 0.0, "fusion_lat": 0.0, "type": "electric_scooter", "name": "15c959b79a871d7405c08f6c97bdc4bd", "is_disabled": 0, "rental_uris": {"ios": "https://dc.lft.to/lastmile_qr_scan", "android": "https://dc.lft.to/lastmile_qr_scan"}, "is_reserved": 0}, {"lon": -77.00607283333333, "bike_id": "cc58448a4b93d02fdccd29cdd8250161", "lat": 38.9058205, "fusion_lon": 0.0, "fusion_lat": 0.0, "type": "electric_scooter", "name": "cc58448a4b93d02fdccd29cdd8250161", "is_disabled": 0, "rental_uris": {"ios": "https://dc.lft.to/lastmile_qr_scan", "android": "https://dc.lft.to/lastmile_qr_scan"}, "is_reserved": 0}, {"lon": -77.018391, "bike_id": "4816fcaf5a3fecc3295340a956e0f945", "lat": 38.90957983333333, "fusion_lon": 0.0, "fusion_lat": 0.0, "type": "electric_scooter", "name": "4816fcaf5a3fecc3295340a956e0f945", "is_disabled": 0, "rental_uris": {"ios": "https://dc.lft.to/lastmile_qr_scan", "android": "https://dc.lft.to/lastmile_qr_scan"}, "is_reserved": 0}, {"lon": -77.03638016666666, "bike_id": "c9c3202f2147d228bf72bf9fb2c1042d", "lat": 38.913052, "fusion_lon": 0.0, "fusion_lat": 0.0, "type": "electric_scooter", "name": "c9c3202f2147d228bf72bf9fb2c1042d", "is_disabled": 0, "rental_uris": {"ios": "https://dc.lft.to/lastmile_qr_scan", "android": "https://dc.lft.to/lastmile_qr_scan"}, "is_reserved": 0}, {"lon": -76.9907205, "bike_id": "798cf053261e1f35da4ff556820fe696", "lat": 38.89823783333333, "fusion_lon": 0.0, "fusion_lat": 0.0, "type": "electric_bike", "name": "798cf053261e1f35da4ff556820fe696", "is_disabled": 0, "rental_uris": {"ios": "https://dc.lft.to/lastmile_qr_scan", "android": "https://dc.lft.to/lastmile_qr_scan"}, "is_reserved": 0}, {"lon": -77.03412666666667, "bike_id": "59061f4ba7da2134a37d1af66fb74fb8", "lat": 38.92732, "fusion_lon": 0.0, "fusion_lat": 0.0, "type": "electric_scooter", "name": "59061f4ba7da2134a37d1af66fb74fb8", "is_disabled": 0, "rental_uris": {"ios": "https://dc.lft.to/lastmile_qr_scan", "android": "https://dc.lft.to/lastmile_qr_scan"}, "is_reserved": 0}, {"lon": -77.016876, "bike_id": "3924c2c7806d3ac75cedff11a9c47552", "lat": 38.90449733333333, "fusion_lon": 0.0, "fusion_lat": 0.0, "type": "electric_scooter", "name": "3924c2c7806d3ac75cedff11a9c47552", "is_disabled": 0, "rental_uris": {"ios": "https://dc.lft.to/lastmile_qr_scan", "android": "https://dc.lft.to/lastmile_qr_scan"}, "is_reserved": 0}, {"lon": -77.01832516666667, "bike_id": "fc70280ea85c483df9042c0efd91ac41", "lat": 38.90933033333334, "fusion_lon": 0.0, "fusion_lat": 0.0, "type": "electric_scooter", "name": "fc70280ea85c483df9042c0efd91ac41", "is_disabled": 0, "rental_uris": {"ios": "https://dc.lft.to/lastmile_qr_scan", "android": "https://dc.lft.to/lastmile_qr_scan"}, "is_reserved": 0}, {"lon": -77.0383835, "bike_id": "79fec9a573b6f68b9cadac72c715dded", "lat": 38.9171735, "fusion_lon": 0.0, "fusion_lat": 0.0, "type": "electric_scooter", "name": "79fec9a573b6f68b9cadac72c715dded", "is_disabled": 0, "rental_uris": {"ios": "https://dc.lft.to/lastmile_qr_scan", "android": "https://dc.lft.to/lastmile_qr_scan"}, "is_reserved": 0}, {"lon": -77.0326285, "bike_id": "5835a32b5ded2a4c69bafa2982ae300f", "lat": 38.9310515, "fusion_lon": 0.0, "fusion_lat": 0.0, "type": "electric_scooter", "name": "5835a32b5ded2a4c69bafa2982ae300f", "is_disabled": 0, "rental_uris": {"ios": "https://dc.lft.to/lastmile_qr_scan", "android": "https://dc.lft.to/lastmile_qr_scan"}, "is_reserved": 0}, {"lon": -77.04368466666666, "bike_id": "1e9a38683dcb96fc23439891f6e01f08", "lat": 38.921542333333335, "fusion_lon": 0.0, "fusion_lat": 0.0, "type": "electric_scooter", "name": "1e9a38683dcb96fc23439891f6e01f08", "is_disabled": 0, "rental_uris": {"ios": "https://dc.lft.to/lastmile_qr_scan", "android": "https://dc.lft.to/lastmile_qr_scan"}, "is_reserved": 0}, {"lon": -77.01996, "bike_id": "81676b86ed457f1432e3b221e49147e7", "lat": 38.90145416666667, "fusion_lon": 0.0, "fusion_lat": 0.0, "type": "electric_scooter", "name": "81676b86ed457f1432e3b221e49147e7", "is_disabled": 0, "rental_uris": {"ios": "https://dc.lft.to/lastmile_qr_scan", "android": "https://dc.lft.to/lastmile_qr_scan"}, "is_reserved": 0}, {"lon": -76.998543, "bike_id": "e874966eae70506ee6280abe8ef4409f", "lat": 38.84163983333333, "fusion_lon": 0.0, "fusion_lat": 0.0, "type": "electric_scooter", "name": "e874966eae70506ee6280abe8ef4409f", "is_disabled": 0, "rental_uris": {"ios": "https://dc.lft.to/lastmile_qr_scan", "android": "https://dc.lft.to/lastmile_qr_scan"}, "is_reserved": 0}, {"lon": -76.98560366666666, "bike_id": "da2b3320dddcf0aa70f105491f4b7be1", "lat": 38.89952783333333, "fusion_lon": 0.0, "fusion_lat": 0.0, "type": "electric_scooter", "name": "da2b3320dddcf0aa70f105491f4b7be1", "is_disabled": 0, "rental_uris": {"ios": "https://dc.lft.to/lastmile_qr_scan", "android": "https://dc.lft.to/lastmile_qr_scan"}, "is_reserved": 0}, {"lon": -77.03406216666667, "bike_id": "2ff2b6159df8e853bb621eb22402bd35", "lat": 38.960276666666665, "fusion_lon": 0.0, "fusion_lat": 0.0, "type": "electric_bike", "name": "2ff2b6159df8e853bb621eb22402bd35", "is_disabled": 0, "rental_uris": {"ios": "https://dc.lft.to/lastmile_qr_scan", "android": "https://dc.lft.to/lastmile_qr_scan"}, "is_reserved": 0}, {"lon": -77.02711283333333, "bike_id": "c49d9142899cc0245d759ec97c7a43ab", "lat": 38.93474783333333, "fusion_lon": 0.0, "fusion_lat": 0.0, "type": "electric_scooter", "name": "c49d9142899cc0245d759ec97c7a43ab", "is_disabled": 0, "rental_uris": {"ios": "https://dc.lft.to/lastmile_qr_scan", "android": "https://dc.lft.to/lastmile_qr_scan"}, "is_reserved": 0}, {"lon": -77.04825133333334, "bike_id": "8b300eedf9def6d770989cb76586f17d", "lat": 38.9096555, "fusion_lon": 0.0, "fusion_lat": 0.0, "type": "electric_scooter", "name": "8b300eedf9def6d770989cb76586f17d", "is_disabled": 0, "rental_uris": {"ios": "https://dc.lft.to/lastmile_qr_scan", "android": "https://dc.lft.to/lastmile_qr_scan"}, "is_reserved": 0}, {"lon": -77.08124133333334, "bike_id": "8b90280a30912b71128ff140de3bbd79", "lat": 38.910777333333336, "fusion_lon": 0.0, "fusion_lat": 0.0, "type": "electric_scooter", "name": "8b90280a30912b71128ff140de3bbd79", "is_disabled": 0, "rental_uris": {"ios": "https://dc.lft.to/lastmile_qr_scan", "android": "https://dc.lft.to/lastmile_qr_scan"}, "is_reserved": 0}, {"lon": -77.0298035, "bike_id": "f36b723d656fd4d7a56aa6b9b9e9e6fa", "lat": 38.9306655, "fusion_lon": 0.0, "fusion_lat": 0.0, "type": "electric_scooter", "name": "f36b723d656fd4d7a56aa6b9b9e9e6fa", "is_disabled": 0, "rental_uris": {"ios": "https://dc.lft.to/lastmile_qr_scan", "android": "https://dc.lft.to/lastmile_qr_scan"}, "is_reserved": 0}, {"lon": -77.12493833333333, "bike_id": "1fe26c3307d6f055ceaf49988d0377c3", "lat": 38.82787833333333, "fusion_lon": 0.0, "fusion_lat": 0.0, "type": "electric_bike", "name": "1fe26c3307d6f055ceaf49988d0377c3", "is_disabled": 0, "rental_uris": {"ios": "https://dc.lft.to/lastmile_qr_scan", "android": "https://dc.lft.to/lastmile_qr_scan"}, "is_reserved": 0}, {"lon": -77.002805, "bike_id": "4c8ea7fffc7f0b4ea4b5778a6c0f7c78", "lat": 38.9570865, "fusion_lon": 0.0, "fusion_lat": 0.0, "type": "electric_bike", "name": "4c8ea7fffc7f0b4ea4b5778a6c0f7c78", "is_disabled": 0, "rental_uris": {"ios": "https://dc.lft.to/lastmile_qr_scan", "android": "https://dc.lft.to/lastmile_qr_scan"}, "is_reserved": 0}, {"lon": -77.03909616666667, "bike_id": "9032263c0f5bee174340f669f86a6edf", "lat": 38.914203666666666, "fusion_lon": 0.0, "fusion_lat": 0.0, "type": "electric_scooter", "name": "9032263c0f5bee174340f669f86a6edf", "is_disabled": 0, "rental_uris": {"ios": "https://dc.lft.to/lastmile_qr_scan", "android": "https://dc.lft.to/lastmile_qr_scan"}, "is_reserved": 0}, {"lon": -77.03181766666667, "bike_id": "575245b53a108b1be17eaabc4fe013c3", "lat": 38.91744516666667, "fusion_lon": 0.0, "fusion_lat": 0.0, "type": "electric_scooter", "name": "575245b53a108b1be17eaabc4fe013c3", "is_disabled": 0, "rental_uris": {"ios": "https://dc.lft.to/lastmile_qr_scan", "android": "https://dc.lft.to/lastmile_qr_scan"}, "is_reserved": 0}, {"lon": -76.99520766666667, "bike_id": "af5aa4e131b72bab11bd5c2fa9659bb2", "lat": 38.86262683333333, "fusion_lon": 0.0, "fusion_lat": 0.0, "type": "electric_scooter", "name": "af5aa4e131b72bab11bd5c2fa9659bb2", "is_disabled": 0, "rental_uris": {"ios": "https://dc.lft.to/lastmile_qr_scan", "android": "https://dc.lft.to/lastmile_qr_scan"}, "is_reserved": 0}, {"lon": -76.94884083333334, "bike_id": "7f61b58a94c321cf9f01093e5c253885", "lat": 38.895102666666666, "fusion_lon": 0.0, "fusion_lat": 0.0, "type": "electric_scooter", "name": "7f61b58a94c321cf9f01093e5c253885", "is_disabled": 0, "rental_uris": {"ios": "https://dc.lft.to/lastmile_qr_scan", "android": "https://dc.lft.to/lastmile_qr_scan"}, "is_reserved": 0}, {"lon": -77.04142266666666, "bike_id": "c06864981601feafeb8ea788aa8fe84f", "lat": 38.9196945, "fusion_lon": 0.0, "fusion_lat": 0.0, "type": "electric_scooter", "name": "c06864981601feafeb8ea788aa8fe84f", "is_disabled": 0, "rental_uris": {"ios": "https://dc.lft.to/lastmile_qr_scan", "android": "https://dc.lft.to/lastmile_qr_scan"}, "is_reserved": 0}, {"lon": -77.03208516666666, "bike_id": "fe7df91754eafa6aabfdb68f0e34c932", "lat": 38.89748433333333, "fusion_lon": 0.0, "fusion_lat": 0.0, "type": "electric_scooter", "name": "fe7df91754eafa6aabfdb68f0e34c932", "is_disabled": 0, "rental_uris": {"ios": "https://dc.lft.to/lastmile_qr_scan", "android": "https://dc.lft.to/lastmile_qr_scan"}, "is_reserved": 0}, {"lon": -76.99827533333334, "bike_id": "43a8a16c153b390b32660d3d23f715e4", "lat": 38.900018333333335, "fusion_lon": 0.0, "fusion_lat": 0.0, "type": "electric_bike", "name": "43a8a16c153b390b32660d3d23f715e4", "is_disabled": 0, "rental_uris": {"ios": "https://dc.lft.to/lastmile_qr_scan", "android": "https://dc.lft.to/lastmile_qr_scan"}, "is_reserved": 0}, {"lon": -77.02012616666667, "bike_id": "8180115d5e25d0a2a6ed63c1fb8842f5", "lat": 38.924170833333335, "fusion_lon": 0.0, "fusion_lat": 0.0, "type": "electric_scooter", "name": "8180115d5e25d0a2a6ed63c1fb8842f5", "is_disabled": 0, "rental_uris": {"ios": "https://dc.lft.to/lastmile_qr_scan", "android": "https://dc.lft.to/lastmile_qr_scan"}, "is_reserved": 0}, {"lon": -76.98990683333334, "bike_id": "51e52482fe0b0f5cf55f39ea1da9e4e1", "lat": 38.933654833333335, "fusion_lon": 0.0, "fusion_lat": 0.0, "type": "electric_scooter", "name": "51e52482fe0b0f5cf55f39ea1da9e4e1", "is_disabled": 0, "rental_uris": {"ios": "https://dc.lft.to/lastmile_qr_scan", "android": "https://dc.lft.to/lastmile_qr_scan"}, "is_reserved": 0}, {"lon": -77.05747533333333, "bike_id": "d9b35631c4fb486b779f279252637613", "lat": 38.93340666666667, "fusion_lon": 0.0, "fusion_lat": 0.0, "type": "electric_scooter", "name": "d9b35631c4fb486b779f279252637613", "is_disabled": 0, "rental_uris": {"ios": "https://dc.lft.to/lastmile_qr_scan", "android": "https://dc.lft.to/lastmile_qr_scan"}, "is_reserved": 0}, {"lon": -77.03271966666667, "bike_id": "b13fca58545a73eb3ae046bc93790a89", "lat": 38.901531, "fusion_lon": 0.0, "fusion_lat": 0.0, "type": "electric_scooter", "name": "b13fca58545a73eb3ae046bc93790a89", "is_disabled": 0, "rental_uris": {"ios": "https://dc.lft.to/lastmile_qr_scan", "android": "https://dc.lft.to/lastmile_qr_scan"}, "is_reserved": 0},