{"data": {"bikes": [{"is_reserved": 0, "type": "electric_scooter", "bike_id": "677bb990c611f911f0186fd9659f2cbf", "lat": 38.940370333333334, "lon": -77.02501083333334, "rental_uris": {"android": "https://dc.lft.to/lastmile_qr_scan", "ios": "https://dc.lft.to/lastmile_qr_scan"}, "is_disabled": 0, "fusion_lat": 0.0, "name": "677bb990c611f911f0186fd9659f2cbf", "fusion_lon": 0.0}, {"is_reserved": 0, "type": "electric_scooter", "bike_id": "f317aae5e993336f05cd0c77e8dd6c8c", "lat": 38.935412166666666, "lon": -77.07281683333333, "rental_uris": {"android": "https://dc.lft.to/lastmile_qr_scan", "ios": "https://dc.lft.to/lastmile_qr_scan"}, "is_disabled": 0, "fusion_lat": 0.0, "name": "f317aae5e993336f05cd0c77e8dd6c8c", "fusion_lon": 0.0}, {"is_reserved": 0, "type": "electric_scooter", "bike_id": "5808d10bb068960101e35e444775e2c0", "lat": 38.93863483333333, "lon": -77.075874, "rental_uris": {"android": "https://dc.lft.to/lastmile_qr_scan", "ios": "https://dc.lft.to/lastmile_qr_scan"}, "is_disabled": 0, "fusion_lat": 0.0, "name": "5808d10bb068960101e35e444775e2c0", "fusion_lon": 0.0}, {"is_reserved": 0, "type": "electric_scooter", "bike_id": "ce5688c1cb9798a50af9ee3283a6e601", "lat": 38.91704416666666, "lon": -77.026769, "rental_uris": {"android": "https://dc.lft.to/lastmile_qr_scan", "ios": "https://dc.lft.to/lastmile_qr_scan"}, "is_disabled": 0, "fusion_lat": 0.0, "name": "ce5688c1cb9798a50af9ee3283a6e601", "fusion_lon": 0.0}, {"is_reserved": 0, "type": "electric_scooter", "bike_id": "1b02230740d4e0386b78d5e48d386042", "lat": 38.90252616666667, "lon": -77.03968083333334, "rental_uris": {"android": "https://dc.lft.to/lastmile_qr_scan", "ios": "https://dc.lft.to/lastmile_qr_scan"}, "is_disabled": 0, "fusion_lat": 0.0, "name": "1b02230740d4e0386b78d5e48d386042", "fusion_lon": 0.0}, {"is_reserved": 0, "type": "electric_scooter", "bike_id": "b95d955b3754aa9e5356234351121591", "lat": 38.92050583333334, "lon": -77.04190333333334, "rental_uris": {"android": "https://dc.lft.to/lastmile_qr_scan", "ios": "https://dc.lft.to/lastmile_qr_scan"}, "is_disabled": 0, "fusion_lat": 0.0, "name": "b95d955b3754aa9e5356234351121591", "fusion_lon": 0.0}, {"is_reserved": 0, "type": "electric_scooter", "bike_id": "a405205028280563037d7d215fcd42db", "lat": 38.895478, "lon": -76.98340666666667, "rental_uris": {"android": "https://dc.lft.to/lastmile_qr_scan", "ios": "https://dc.lft.to/lastmile_qr_scan"}, "is_disabled": 0, "fusion_lat": 0.0, "name": "a405205028280563037d7d215fcd42db", "fusion_lon": 0.0}, {"is_reserved": 0, "type": "electric_scooter", "bike_id": "9e504cf1797b925b7f36cbec10edd8cc", "lat": 38.89880633333333, "lon": -76.9884025, "rental_uris": {"android": "https://dc.lft.to/lastmile_qr_scan", "ios": "https://dc.lft.to/lastmile_qr_scan"}, "is_disabled": 0, "fusion_lat": 0.0, "name": "9e504cf1797b925b7f36cbec10edd8cc", "fusion_lon": 0.0}, {"is_reserved": 0, "type": "electric_scooter", "bike_id": "43563bc5e559e58157c7aba1bc854baf", "lat": 38.914961166666664, "lon": -77.01227566666667, "rental_uris": {"android": "https://dc.lft.to/lastmile_qr_scan", "ios": "https://dc.lft.to/lastmile_qr_scan"}, "is_disabled": 0, "fusion_lat": 0.0, "name": "43563bc5e559e58157c7aba1bc854baf", "fusion_lon": 0.0}, {"is_reserved": 0, "type": "electric_scooter", "bike_id": "8a271e1e65a3b4714f5777b0ef9db09e", "lat": 38.916385166666664, "lon": -77.02814233333334, "rental_uris": {"android": "https://dc.lft.to/lastmile_qr_scan", "ios": "https://dc.lft.to/lastmile_qr_scan"}, "is_disabled": 0, "fusion_lat": 0.0, "name": "8a271e1e65a3b4714f5777b0ef9db09e", "fusion_lon": 0.0}, {"is_reserved": 0, "type": "electric_scooter", "bike_id": "d1da4d916371d5c44efcd28673c02fc7", "lat": 38.921411166666665, "lon": -77.018009, "rental_uris": {"android": "https://dc.lft.to/lastmile_qr_scan", "ios": "https://dc.lft.to/lastmile_qr_scan"}, "is_disabled": 0, "fusion_lat": 0.0, "name": "d1da4d916371d5c44efcd28673c02fc7", "fusion_lon": 0.0}, {"is_reserved": 0, "type": "electric_scooter", "bike_id": "6cf3a0852e6b03f3fe12c7809244b4ed", "lat": 38.905029166666665, "lon": -77.02949216666667, "rental_uris": {"android": "https://dc.lft.to/lastmile_qr_scan", "ios": "https://dc.lft.to/lastmile_qr_scan"}, "is_disabled": 0, "fusion_lat": 0.0, "name": "6cf3a0852e6b03f3fe12c7809244b4ed", "fusion_lon": 0.0}, {"is_reserved": 0, "type": "electric_scooter", "bike_id": "6ded1514c575694b6c40027b7601bdba", "lat": 38.883579166666664, "lon": -77.0202365, "rental_uris": {"android": "https://dc.lft.to/lastmile_qr_scan", "ios": "https://dc.lft.to/lastmile_qr_scan"}, "is_disabled": 0, "fusion_lat": 0.0, "name": "6ded1514c575694b6c40027b7601bdba", "fusion_lon": 0.0}, {"is_reserved": 0, "type": "electric_scooter", "bike_id": "f4ae5964a6f022a8909db70806d1d595", "lat": 38.952524, "lon": -77.02394883333334, "rental_uris": {"android": "https://dc.lft.to/lastmile_qr_scan", "ios": "https://dc.lft.to/lastmile_qr_scan"}, "is_disabled": 0, "fusion_lat": 0.0, "name": "f4ae5964a6f022a8909db70806d1d595", "fusion_lon": 0.0}, {"is_reserved": 0, "type": "electric_scooter", "bike_id": "7aefcb6b7f3c04ea8bd6da0b3d5ea83a", "lat": 38.917170666666664, "lon": -77.032167, "rental_uris": {"android": "https://dc.lft.to/lastmile_qr_scan", "ios": "https://dc.lft.to/lastmile_qr_scan"}, "is_disabled": 0, "fusion_lat": 0.0, "name": "7aefcb6b7f3c04ea8bd6da0b3d5ea83a", "fusion_lon": 0.0}, {"is_reserved": 0, "type": "electric_scooter", "bike_id": "a136a5654c27194b4285bebd5a422918", "lat": 38.9059255, "lon": -77.036417, "rental_uris": {"android": "https://dc.lft.to/lastmile_qr_scan", "ios": "https://dc.lft.to/lastmile_qr_scan"}, "is_disabled": 0, "fusion_lat": 0.0, "name": "a136a5654c27194b4285bebd5a422918", "fusion_lon": 0.0}, {"is_reserved": 0, "type": "electric_scooter", "bike_id": "e3dad392b0b13d9e8cb4031dba99d5ee", "lat": 38.918646, "lon": -77.01351433333333, "rental_uris": {"android": "https://dc.lft.to/lastmile_qr_scan", "ios": "https://dc.lft.to/lastmile_qr_scan"}, "is_disabled": 0, "fusion_lat": 0.0, "name": "e3dad392b0b13d9e8cb4031dba99d5ee", "fusion_lon": 0.0}, {"is_reserved": 0, "type": "electric_scooter", "bike_id": "e47de1c22a0e332d404e50436ce8d693", "lat": 38.93868666666667, "lon": -77.02558116666667, "rental_uris": {"android": "https://dc.lft.to/lastmile_qr_scan", "ios": "https://dc.lft.to/lastmile_qr_scan"}, "is_disabled": 0, "fusion_lat": 0.0, "name": "e47de1c22a0e332d404e50436ce8d693", "fusion_lon": 0.0}, {"is_reserved": 0, "type": "electric_scooter", "bike_id": "87ffbd44f1e417997bb99900ab417829", "lat": 38.966461833333334, "lon": -77.00892766666666, "rental_uris": {"android": "https://dc.lft.to/lastmile_qr_scan", "ios": "https://dc.lft.to/lastmile_qr_scan"}, "is_disabled": 0, "fusion_lat": 0.0, "name": "87ffbd44f1e417997bb99900ab417829", "fusion_lon": 0.0}, {"is_reserved": 0, "type": "electric_scooter", "bike_id": "1188e8daa7273a082ba5e8426024eb7c", "lat": 38.905889, "lon": -77.00597616666667, "rental_uris": {"android": "https://dc.lft.to/lastmile_qr_scan", "ios": "https://dc.lft.to/lastmile_qr_scan"}, "is_disabled": 0, "fusion_lat": 0.0, "name": "1188e8daa7273a082ba5e8426024eb7c", "fusion_lon": 0.0}, {"is_reserved": 0, "type": "electric_scooter", "bike_id": "800d8850018f9006f37f4d59eb78db3a", "lat": 38.92615083333333, "lon": -77.021614, "rental_uris": {"android": "https://dc.lft.to/lastmile_qr_scan", "ios": "https://dc.lft.to/lastmile_qr_scan"}, "is_disabled": 0, "fusion_lat": 0.0, "name": "800d8850018f9006f37f4d59eb78db3a", "fusion_lon": 0.0}, {"is_reserved": 0, "type": "electric_scooter", "bike_id": "84eafb07df365148237d41c9d52978e9", "lat": 38.900181333333336, "lon": -77.04460883333333, "rental_uris": {"android": "https://dc.lft.to/lastmile_qr_scan", "ios": "https://dc.lft.to/lastmile_qr_scan"}, "is_disabled": 0, "fusion_lat": 0.0, "name": "84eafb07df365148237d41c9d52978e9", "fusion_lon": 0.0}, {"is_reserved": 0, "type": "electric_bike", "bike_id": "dc2f28bb778022667c93b12caed0cae0", "lat": 38.99526433333333, "lon": -77.07466533333333, "rental_uris": {"android": "https://dc.lft.to/lastmile_qr_scan", "ios": "https://dc.lft.to/lastmile_qr_scan"}, "is_disabled": 0, "fusion_lat": 0.0, "name": "dc2f28bb778022667c93b12caed0cae0", "fusion_lon": 0.0}, {"is_reserved": 0, "type": "electric_scooter", "bike_id": "f6ada11b31e24e024a60f4290c8e2b5b", "lat": 38.9335885, "lon": -77.05724683333334, "rental_uris": {"android": "https://dc.lft.to/lastmile_qr_scan", "ios": "https://dc.lft.to/lastmile_qr_scan"}, "is_disabled": 0, "fusion_lat": 0.0, "name": "f6ada11b31e24e024a60f4290c8e2b5b", "fusion_lon": 0.0}, {"is_reserved": 0, "type": "electric_scooter", "bike_id": "5984baa837d1291ea5ac460d9696994d", "lat": 38.918285166666664, "lon": -77.012173, "rental_uris": {"android": "https://dc.lft.to/lastmile_qr_scan", "ios": "https://dc.lft.to/lastmile_qr_scan"}, "is_disabled": 0, "fusion_lat": 0.0, "name": "5984baa837d1291ea5ac460d9696994d", "fusion_lon": 0.0}, {"is_reserved": 0, "type": "electric_scooter", "bike_id": "15c477ad37e14641465ef982316fac08", "lat": 38.898465, "lon": -77.00721816666666, "rental_uris": {"android": "https://dc.lft.to/lastmile_qr_scan", "ios": "https://dc.lft.to/lastmile_qr_scan"}, "is_disabled": 0, "fusion_lat": 0.0, "name": "15c477ad37e14641465ef982316fac08", "fusion_lon": 0.0}, {"is_reserved": 0, "type": "electric_scooter", "bike_id": "0f6526ab50a94dd803047fdd1280311a", "lat": 38.906003166666665, "lon": -77.02974133333333, "rental_uris": {"android": "https://dc.lft.to/lastmile_qr_scan", "ios": "https://dc.lft.to/lastmile_qr_scan"}, "is_disabled": 0, "fusion_lat": 0.0, "name": "0f6526ab50a94dd803047fdd1280311a", "fusion_lon": 0.0}, {"is_reserved": 0, "type": "electric_scooter", "bike_id": "6ebb42208673b5cd840adf60c97688de", "lat": 38.926381, "lon": -77.042537, "rental_uris": {"android": "https://dc.lft.to/lastmile_qr_scan", "ios": "https://dc.lft.to/lastmile_qr_scan"}, "is_disabled": 0, "fusion_lat": 0.0, "name": "6ebb42208673b5cd840adf60c97688de", "fusion_lon": 0.0}, {"is_reserved": 0, "type": "electric_scooter", "bike_id": "a4d05475e76dd90bd1c50fe0bd7aa4d7", "lat": 38.92341783333333, "lon": -77.05236233333333, "rental_uris": {"android": "https://dc.lft.to/lastmile_qr_scan", "ios": "https://dc.lft.to/lastmile_qr_scan"}, "is_disabled": 0, "fusion_lat": 0.0, "name": "a4d05475e76dd90bd1c50fe0bd7aa4d7", "fusion_lon": 0.0}, {"is_reserved": 0, "type": "electric_scooter", "bike_id": "edfe839f86558ff5b12bed675b23003c", "lat": 38.93263683333333, "lon": -77.020685, "rental_uris": {"android": "https://dc.lft.to/lastmile_qr_scan", "ios": "https://dc.lft.to/lastmile_qr_scan"}, "is_disabled": 0, "fusion_lat": 0.0, "name": "edfe839f86558ff5b12bed675b23003c", "fusion_lon": 0.0}, {"is_reserved": 0, "type": "electric_scooter", "bike_id": "6b9cc049115fa1e34c557cc52b5b8d96", "lat": 38.9240725, "lon": -77.04269433333333, "rental_uris": {"android": "https://dc.lft.to/lastmile_qr_scan", "ios": "https://dc.lft.to/lastmile_qr_scan"}, "is_disabled": 0, "fusion_lat": 0.0, "name": "6b9cc049115fa1e34c557cc52b5b8d96", "fusion_lon": 0.0}, {"is_reserved": 0, "type": "electric_scooter", "bike_id": "edf5af18164daddb9cc20e1a458f0636", "lat": 38.894428833333336, "lon": -77.02639916666666, "rental_uris": {"android": "https://dc.lft.to/lastmile_qr_scan", "ios": "https://dc.lft.to/lastmile_qr_scan"}, "is_disabled": 0, "fusion_lat": 0.0, "name": "edf5af18164daddb9cc20e1a458f0636", "fusion_lon": 0.0}, {"is_reserved": 0, "type": "electric_scooter", "bike_id": "32a763bdd4bc567ef0dab18d57d3fed3", "lat": 38.943303, "lon": -77.01258666666666, "rental_uris": {"android": "https://dc.lft.to/lastmile_qr_scan", "ios": "https://dc.lft.to/lastmile_qr_scan"}, "is_disabled": 0, "fusion_lat": 0.0, "name": "32a763bdd4bc567ef0dab18d57d3fed3", "fusion_lon": 0.0}, {"is_reserved": 0, "type": "electric_scooter", "bike_id": "4efc0245a13bc8cd5fe148ac0f1a80f9", "lat": 38.943251333333336, "lon": -77.06527083333333, "rental_uris": {"android": "https://dc.lft.to/lastmile_qr_scan", "ios": "https://dc.lft.to/lastmile_qr_scan"}, "is_disabled": 0, "fusion_lat": 0.0, "name": "4efc0245a13bc8cd5fe148ac0f1a80f9", "fusion_lon": 0.0}, {"is_reserved": 0, "type": "electric_scooter", "bike_id": "8335be0a6894e2569c4584b919dba9d8", "lat": 38.975247833333334, "lon": -77.01741816666667, "rental_uris": {"android": "https://dc.lft.to/lastmile_qr_scan", "ios": "https://dc.lft.to/lastmile_qr_scan"}, "is_disabled": 0, "fusion_lat": 0.0, "name": "8335be0a6894e2569c4584b919dba9d8", "fusion_lon": 0.0}, {"is_reserved": 0, "type": "electric_scooter", "bike_id": "3c6b2e47dadcb2719e03a2ab597a4364", "lat": 38.89225833333333, "lon": -77.04491416666667, "rental_uris": {"android": "https://dc.lft.to/lastmile_qr_scan", "ios": "https://dc.lft.to/lastmile_qr_scan"}, "is_disabled": 0, "fusion_lat": 0.0, "name": "3c6b2e47dadcb2719e03a2ab597a4364", "fusion_lon": 0.0}, {"is_reserved": 0, "type": "electric_scooter", "bike_id": "0590d23fdee94a85a0054a4a66898c5e", "lat": 38.88383233333333, "lon": -77.04610433333333, "rental_uris": {"android": "https://dc.lft.to/lastmile_qr_scan", "ios": "https://dc.lft.to/lastmile_qr_scan"}, "is_disabled": 0, "fusion_lat": 0.0, "name": "0590d23fdee94a85a0054a4a66898c5e", "fusion_lon": 0.0}, {"is_reserved": 0, "type": "electric_scooter", "bike_id": "7aeffea5df83f1c85eb06039053bc930", "lat": 38.909018, "lon": -76.996208, "rental_uris": {"android": "https://dc.lft.to/lastmile_qr_scan", "ios": "https://dc.lft.to/lastmile_qr_scan"}, "is_disabled": 0, "fusion_lat": 0.0, "name": "7aeffea5df83f1c85eb06039053bc930", "fusion_lon": 0.0}, {"is_reserved": 0, "type": "electric_scooter", "bike_id": "528eb90ff9b58e950d9a6ed1b4411e5b", "lat": 38.91384866666667, "lon": -77.01702033333333, "rental_uris": {"android": "https://dc.lft.to/lastmile_qr_scan", "ios": "https://dc.lft.to/lastmile_qr_scan"}, "is_disabled": 0, "fusion_lat": 0.0, "name": "528eb90ff9b58e950d9a6ed1b4411e5b", "fusion_lon": 0.0}, {"is_reserved": 0, "type": "electric_scooter", "bike_id": "b54929f544cb32cbd12a39387f4e1e4b", "lat": 38.864924333333335, "lon": -76.9774795, "rental_uris": {"android": "https://dc.lft.to/lastmile_qr_scan", "ios": "https://dc.lft.to/lastmile_qr_scan"}, "is_disabled": 0, "fusion_lat": 0.0, "name": "b54929f544cb32cbd12a39387f4e1e4b", "fusion_lon": 0.0}, {"is_reserved": 0, "type": "electric_scooter", "bike_id": "92a2f122b73e8f046ac25ca1246219ac", "lat": 38.9171805, "lon": -77.03864683333333, "rental_uris": {"android": "https://dc.lft.to/lastmile_qr_scan", "ios": "https://dc.lft.to/lastmile_qr_scan"}, "is_disabled": 0, "fusion_lat": 0.0, "name": "92a2f122b73e8f046ac25ca1246219ac", "fusion_lon": 0.0}, {"is_reserved": 0, "type": "electric_bike", "bike_id": "e14354e1ef4391282d321ecb9ce35103", "lat": 38.8893375, "lon": -76.9132535, "rental_uris": {"android": "https://dc.lft.to/lastmile_qr_scan", "ios": "https://dc.lft.to/lastmile_qr_scan"}, "is_disabled": 0, "fusion_lat": 0.0, "name": "e14354e1ef4391282d321ecb9ce35103", "fusion_lon": 0.0}, {"is_reserved": 0, "type": "electric_scooter", "bike_id": "021c4e71afae5224504a0624c21ba584", "lat": 38.924864666666664, "lon": -77.02274466666667, "rental_uris": {"android": "https://dc.lft.to/lastmile_qr_scan", "ios": "https://dc.lft.to/lastmile_qr_scan"}, "is_disabled": 0, "fusion_lat": 0.0, "name": "021c4e71afae5224504a0624c21ba584", "fusion_lon": 0.0}, {"is_reserved": 0, "type": "electric_scooter", "bike_id": "9ace3f159acc17bca1f2fcb7205ff6b0", "lat": 38.897153, "lon": -77.022746, "rental_uris": {"android": "https://dc.lft.to/lastmile_qr_scan", "ios": "https://dc.lft.to/lastmile_qr_scan"}, "is_disabled": 0, "fusion_lat": 0.0, "name": "9ace3f159acc17bca1f2fcb7205ff6b0", "fusion_lon": 0.0}, {"is_reserved": 0, "type": "electric_scooter", "bike_id": "6511ab4b72060431448a5ea1dc601d4e", "lat": 38.91699466666667, "lon": -77.03166233333333, "rental_uris": {"android": "https://dc.lft.to/lastmile_qr_scan", "ios": "https://dc.lft.to/lastmile_qr_scan"}, "is_disabled": 0, "fusion_lat": 0.0, "name": "6511ab4b72060431448a5ea1dc601d4e", "fusion_lon": 0.0}, {"is_reserved": 0, "type": "electric_scooter", "bike_id": "ff668f5e99aabce7671da352cc9b4a18", "lat": 38.899441333333336, "lon": -77.03148066666667, "rental_uris": {"android": "https://dc.lft.to/lastmile_qr_scan", "ios": "https://dc.lft.to/lastmile_qr_scan"}, "is_disabled": 0, "fusion_lat": 0.0, "name": "ff668f5e99aabce7671da352cc9b4a18", "fusion_lon": 0.0}, {"is_reserved": 0, "type": "electric_scooter", "bike_id": "a98effd338f102cbeac06d36a2366c72", "lat": 38.92459916666667, "lon": -77.00891683333333, "rental_uris": {"android": "https://dc.lft.to/lastmile_qr_scan", "ios": "https://dc.lft.to/lastmile_qr_scan"}, "is_disabled": 0, "fusion_lat": 0.0, "name": "a98effd338f102cbeac06d36a2366c72", "fusion_lon": 0.0}, {"is_reserved": 0, "type": "electric_scooter", "bike_id": "53f6c8e26c10ba3cc25288c00e00ff1a", "lat": 38.90669466666667, "lon": -77.07512733333333, "rental_uris": {"android": "https://dc.lft.to/lastmile_qr_scan", "ios": "https://dc.lft.to/lastmile_qr_scan"}, "is_disabled": 0, "fusion_lat": 0.0, "name": "53f6c8e26c10ba3cc25288c00e00ff1a", "fusion_lon": 0.0}, {"is_reserved": 0, "type": "electric_scooter", "bike_id": "b7a84e2c7d17d424d822aee4a848205b", "lat": 38.916446666666666, "lon": -77.02254766666667, "rental_uris": {"android": "https://dc.lft.to/lastmile_qr_scan", "ios": "https://dc.lft.to/lastmile_qr_scan"}, "is_disabled": 0, "fusion_lat": 0.0, "name": "b7a84e2c7d17d424d822aee4a848205b", "fusion_lon": 0.0}, {"is_reserved": 0, "type": "electric_scooter", "bike_id": "5121948aada3ab5ec5e95ffba37ce168", "lat": 38.89347933333333, "lon": -77.01171933333333, "rental_uris": {"android": "https://dc.lft.to/lastmile_qr_scan", "ios": "https://dc.lft.to/lastmile_qr_scan"}, "is_disabled": 0, "fusion_lat": 0.0, "name": "5121948aada3ab5ec5e95ffba37ce168", "fusion_lon": 0.0}, {"is_reserved": 0, "type": "electric_scooter", "bike_id": "0aaf73cb057b99e1585c20d1116acd61", "lat": 38.89226633333333, "lon": -77.04163533333333, "rental_uris": {"android": "https://dc.lft.to/lastmile_qr_scan", "ios": "https://dc.lft.to/lastmile_qr_scan"}, "is_disabled": 0, "fusion_lat": 0.0, "name": "0aaf73cb057b99e1585c20d1116acd61", "fusion_lon": 0.0}, {"is_reserved": 0, "type": "electric_scooter", "bike_id": "55f7a50683f0f6565fb5911851bdcb38", "lat": 38.941902, "lon": -77.02348616666667, "rental_uris": {"android": "https://dc.lft.to/lastmile_qr_scan", "ios": "https://dc.lft.to/lastmile_qr_scan"}, "is_disabled": 0, "fusion_lat": 0.0, "name": "55f7a50683f0f6565fb5911851bdcb38", "fusion_lon": 0.0}, {"is_reserved": 0, "type": "electric_scooter", "bike_id": "64b70348f44d04ef968643473e93a382", "lat": 38.932392, "lon": -76.99706816666666, "rental_uris": {"android": "https://dc.lft.to/lastmile_qr_scan", "ios": "https://dc.lft.to/lastmile_qr_scan"}, "is_disabled": 0, "fusion_lat": 0.0, "name": "64b70348f44d04ef968643473e93a382", "fusion_lon": 0.0}, {"is_reserved": 0, "type": "electric_scooter", "bike_id": "189ac8c4cde11cded2d097320f7b8998", "lat": 38.902576833333335, "lon": -77.053291, "rental_uris": {"android": "https://dc.lft.to/lastmile_qr_scan", "ios": "https://dc.lft.to/lastmile_qr_scan"}, "is_disabled": 0, "fusion_lat": 0.0, "name": "189ac8c4cde11cded2d097320f7b8998", "fusion_lon": 0.0}, {"is_reserved": 0, "type": "electric_scooter", "bike_id": "29aac3bebd7cb6d42b50342ce3f00d6b", "lat": 38.8716765, "lon": -76.9658705, "rental_uris": {"android": "https://dc.lft.to/lastmile_qr_scan", "ios": "https://dc.lft.to/lastmile_qr_scan"}, "is_disabled": 0, "fusion_lat": 0.0, "name": "29aac3bebd7cb6d42b50342ce3f00d6b", "fusion_lon": 0.0}, {"is_reserved": 0, "type": "electric_bike", "bike_id": "8ab2981368f3a7fc35eeafab034b46dd", "lat": 38.96678983333334, "lon": -77.0230405, "rental_uris": {"android": "https://dc.lft.to/lastmile_qr_scan", "ios": "https://dc.lft.to/lastmile_qr_scan"}, "is_disabled": 0, "fusion_lat": 0.0, "name": "8ab2981368f3a7fc35eeafab034b46dd", "fusion_lon": 0.0}, {"is_reserved": 0, "type": "electric_bike", "bike_id": "18770e983efea8691d315376dbc85e15", "lat": 38.91564783333333, "lon": -77.02017333333333, "rental_uris": {"android": "https://dc.lft.to/lastmile_qr_scan", "ios": "https://dc.lft.to/lastmile_qr_scan"}, "is_disabled": 0, "fusion_lat": 0.0, "name": "18770e983efea8691d315376dbc85e15", "fusion_lon": 0.0}, {"is_reserved": 0, "type": "electric_scooter", "bike_id": "a429594cce271009efeb9e33dec38c20", "lat": 38.92287783333333, "lon": -77.03399533333334, "rental_uris": {"android": "https://dc.lft.to/lastmile_qr_scan", "ios": "https://dc.lft.to/lastmile_qr_scan"}, "is_disabled": 0, "fusion_lat": 0.0, "name": "a429594cce271009efeb9e33dec38c20", "fusion_lon": 0.0}, {"is_reserved": 0, "type": "electric_scooter", "bike_id": "5b2ec7746c244d5b1a66caf49c14ea16", "lat": 38.923830833333334, "lon": -77.030625, "rental_uris": {"android": "https://dc.lft.to/lastmile_qr_scan", "ios": "https://dc.lft.to/lastmile_qr_scan"}, "is_disabled": 0, "fusion_lat": 0.0, "name": "5b2ec7746c244d5b1a66caf49c14ea16", "fusion_lon": 0.0}, {"is_reserved": 0, "type": "electric_bike", "bike_id": "cd53312149829ec4508f984fc4dbadfc", "lat": 38.867532833333335, "lon": -76.94537283333334, "rental_uris": {"android": "https://dc.lft.to/lastmile_qr_scan", "ios": "https://dc.lft.to/lastmile_qr_scan"}, "is_disabled": 0, "fusion_lat": 0.0, "name": "cd53312149829ec4508f984fc4dbadfc", "fusion_lon": 0.0}, {"is_reserved": 0, "type": "electric_scooter", "bike_id": "830df05870b4a5b6508f721e57d1ec3d", "lat": 38.8877405, "lon": -76.93265066666666, "rental_uris": {"android": "https://dc.lft.to/lastmile_qr_scan", "ios": "https://dc.lft.to/lastmile_qr_scan"}, "is_disabled": 0, "fusion_lat": 0.0, "name": "830df05870b4a5b6508f721e57d1ec3d", "fusion_lon": 0.0}, {"is_reserved": 0, "type": "electric_scooter", "bike_id": "decaa84128d589b82ee423b751c21440", "lat": 38.9203325, "lon": -76.9854605, "rental_uris": {"android": "https://dc.lft.to/lastmile_qr_scan", "ios": "https://dc.lft.to/lastmile_qr_scan"}, "is_disabled": 0, "fusion_lat": 0.0, "name": "decaa84128d589b82ee423b751c21440", "fusion_lon": 0.0}, {"is_reserved": 0, "type": "electric_scooter", "bike_id": "90ee415a9733a49a5d73c19d9514e2ff", "lat": 38.91646516666667, "lon": -77.0105605, "rental_uris": {"android": "https://dc.lft.to/lastmile_qr_scan", "ios": "https://dc.lft.to/lastmile_qr_scan"}, "is_disabled": 0, "fusion_lat": 0.0, "name": "90ee415a9733a49a5d73c19d9514e2ff", "fusion_lon": 0.0}, {"is_reserved": 0, "type": "electric_scooter", "bike_id": "4dfbaadfb1f04621f5ec07b8f855c8d4", "lat": 38.899897, "lon": -77.0220825, "rental_uris": {"android": "https://dc.lft.to/lastmile_qr_scan", "ios": "https://dc.lft.to/lastmile_qr_scan"}, "is_disabled": 0, "fusion_lat": 0.0, "name": "4dfbaadfb1f04621f5ec07b8f855c8d4", "fusion_lon": 0.0}, {"is_reserved": 0, "type": "electric_scooter", "bike_id": "9906b2aada1628f414236ee1befcc207", "lat": 38.9006745, "lon": -77.05305116666666, "rental_uris": {"android": "https://dc.lft.to/lastmile_qr_scan", "ios": "https://dc.lft.to/lastmile_qr_scan"}, "is_disabled": 0, "fusion_lat": 0.0, "name": "9906b2aada1628f414236ee1befcc207", "fusion_lon": 0.0}, {"is_reserved": 0, "type": "electric_scooter", "bike_id": "5181bb1f7f291c24d733a0c2e483e948", "lat": 38.892291666666665, "lon": -77.03115483333333, "rental_uris": {"android": "https://dc.lft.to/lastmile_qr_scan", "ios": "https://dc.lft.to/lastmile_qr_scan"}, "is_disabled": 0, "fusion_lat": 0.0, "name": "5181bb1f7f291c24d733a0c2e483e948", "fusion_lon": 0.0}, {"is_reserved": 0, "type": "electric_scooter", "bike_id": "8de9d7616b067deeac8fd60ffe2a4859", "lat": 38.90501016666666, "lon": -77.02948366666666, "rental_uris": {"android": "https://dc.lft.to/lastmile_qr_scan", "ios": "https://dc.lft.to/lastmile_qr_scan"}, "is_disabled": 0, "fusion_lat": 0.0, "name": "8de9d7616b067deeac8fd60ffe2a4859", "fusion_lon": 0.0}, {"is_reserved": 0, "type": "electric_scooter", "bike_id": "e596452ef966a20ff1a97ccf350a8155", "lat": 38.922102333333335, "lon": -77.02037583333333, "rental_uris": {"android": "https://dc.lft.to/lastmile_qr_scan", "ios": "https://dc.lft.to/lastmile_qr_scan"}, "is_disabled": 0, "fusion_lat": 0.0, "name": "e596452ef966a20ff1a97ccf350a8155", "fusion_lon": 0.0}, {"is_reserved": 0, "type": "electric_scooter", "bike_id": "bf31a99af1ecfdfce6c62531ba0ea8ec", "lat": 38.910217333333335, "lon": -76.993709, "rental_uris": {"android": "https://dc.lft.to/lastmile_qr_scan", "ios": "https://dc.lft.to/lastmile_qr_scan"}, "is_disabled": 0, "fusion_lat": 0.0, "name": "bf31a99af1ecfdfce6c62531ba0ea8ec", "fusion_lon": 0.0}, {"is_reserved": 0, "type": "electric_scooter", "bike_id": "3110d726e1cb43bc9b8980c3393b55f1", "lat": 38.89721266666667, "lon": -77.00800516666666, "rental_uris": {"android": "https://dc.lft.to/lastmile_qr_scan", "ios": "https://dc.lft.to/lastmile_qr_scan"}, "is_disabled": 0, "fusion_lat": 0.0, "name": "3110d726e1cb43bc9b8980c3393b55f1", "fusion_lon": 0.0}, {"is_reserved": 0, "type": "electric_scooter", "bike_id": "1378388f694237f6062566fca2da4f01", "lat": 38.90612466666666, "lon": -77.00901533333334, "rental_uris": {"android": "https://dc.lft.to/lastmile_qr_scan", "ios": "https://dc.lft.to/lastmile_qr_scan"}, "is_disabled": 0, "fusion_lat": 0.0, "name": "1378388f694237f6062566fca2da4f01", "fusion_lon": 0.0}, {"is_reserved": 0, "type": "electric_scooter", "bike_id": "528b23bed6a817b4b0e56e326cce8ef0", "lat": 38.905186666666665, "lon": -77.00709633333334, "rental_uris": {"android": "https://dc.lft.to/lastmile_qr_scan", "ios": "https://dc.lft.to/lastmile_qr_scan"}, "is_disabled": 0, "fusion_lat": 0.0, "name": "528b23bed6a817b4b0e56e326cce8ef0", "fusion_lon": 0.0}, {"is_reserved": 0, "type": "electric_scooter", "bike_id": "8f6b56c77227fd304e5351a9f1b4d645", "lat": 38.926391, "lon": -77.03471466666667, "rental_uris": {"android": "https://dc.lft.to/lastmile_qr_scan", "ios": "https://dc.lft.to/lastmile_qr_scan"}, "is_disabled": 0, "fusion_lat": 0.0, "name": "8f6b56c77227fd304e5351a9f1b4d645", "fusion_lon": 0.0}, {"is_reserved": 0, "type": "electric_scooter", "bike_id": "cca454e0c23170ab1654fe7318e07cb0", "lat": 38.891457333333335, "lon": -76.99944516666666, "rental_uris": {"android": "https://dc.lft.to/lastmile_qr_scan", "ios": "https://dc.lft.to/lastmile_qr_scan"}, "is_disabled": 0, "fusion_lat": 0.0, "name": "cca454e0c23170ab1654fe7318e07cb0", "fusion_lon": 0.0}, {"is_reserved": 0, "type": "electric_scooter", "bike_id": "6efc20490adff5a6a998cca59d1238ce", "lat": 38.90554616666667, "lon": -77.02728516666667, "rental_uris": {"android": "https://dc.lft.to/lastmile_qr_scan", "ios": "https://dc.lft.to/lastmile_qr_scan"}, "is_disabled": 0, "fusion_lat": 0.0, "name": "6efc20490adff5a6a998cca59d1238ce", "fusion_lon": 0.0}, {"is_reserved": 0, "type": "electric_scooter", "bike_id": "6e21ca9da5d504b95ca464f28cd08013", "lat": 38.92795866666667, "lon": -77.0253755, "rental_uris": {"android": "https://dc.lft.to/lastmile_qr_scan", "ios": "https://dc.lft.to/lastmile_qr_scan"}, "is_disabled": 0, "fusion_lat": 0.0, "name": "6e21ca9da5d504b95ca464f28cd08013", "fusion_lon": 0.0}, {"is_reserved": 0, "type": "electric_scooter", "bike_id": "2d8033b1184c291ee6dbff0a3161dd49", "lat": 38.8729585, "lon": -77.002296, "rental_uris": {"android": "https://dc.lft.to/lastmile_qr_scan", "ios": "https://dc.lft.to/lastmile_qr_scan"}, "is_disabled": 0, "fusion_lat": 0.0, "name": "2d8033b1184c291ee6dbff0a3161dd49", "fusion_lon": 0.0}, {"is_reserved": 0, "type": "electric_scooter", "bike_id": "746cd997df1c5c709f35a1d6ce2860a2", "lat": 38.905429833333336, "lon": -77.00204183333334, "rental_uris": {"android": "https://dc.lft.to/lastmile_qr_scan", "ios": "https://dc.lft.to/lastmile_qr_scan"}, "is_disabled": 0, "fusion_lat": 0.0, "name": "746cd997df1c5c709f35a1d6ce2860a2", "fusion_lon": 0.0}, {"is_reserved": 0, "type": "electric_scooter", "bike_id": "2ec4dfa13dc55e85b508a37881df6937", "lat": 38.89887866666667, "lon": -76.9318085, "rental_uris": {"android": "https://dc.lft.to/lastmile_qr_scan", "ios": "https://dc.lft.to/lastmile_qr_scan"}, "is_disabled": 0, "fusion_lat": 0.0, "name": "2ec4dfa13dc55e85b508a37881df6937", "fusion_lon": 0.0}, {"is_reserved": 0, "type": "electric_scooter", "bike_id": "d40826ce72b6bdd6eed666b1d253a4f7", "lat": 38.896150666666664, "lon": -77.04415066666667, "rental_uris": {"android": "https://dc.lft.to/lastmile_qr_scan", "ios": "https://dc.lft.to/lastmile_qr_scan"}, "is_disabled": 0, "fusion_lat": 0.0, "name": "d40826ce72b6bdd6eed666b1d253a4f7", "fusion_lon": 0.0}, {"is_reserved": 0, "type": "electric_scooter", "bike_id": "3201acb6fed9c7f1f077d1674b7db472", "lat": 38.90635316666667, "lon": -77.04661083333333, "rental_uris": {"android": "https://dc.lft.to/lastmile_qr_scan", "ios": "https://dc.lft.to/lastmile_qr_scan"}, "is_disabled": 0, "fusion_lat": 0.0, "name": "3201acb6fed9c7f1f077d1674b7db472", "fusion_lon": 0.0}, {"is_reserved": 0, "type": "electric_scooter", "bike_id": "d224967d259fe5ec06fee26049cdbc4b", "lat": 38.93099183333333, "lon": -77.024097, "rental_uris": {"android": "https://dc.lft.to/lastmile_qr_scan", "ios": "https://dc.lft.to/lastmile_qr_scan"}, "is_disabled": 0, "fusion_lat": 0.0, "name": "d224967d259fe5ec06fee26049cdbc4b", "fusion_lon": 0.0}, {"is_reserved": 0, "type": "electric_scooter", "bike_id": "cafd7ab8f61668c6c33ea0fb0123c1fe", "lat": 38.92955283333333, "lon": -77.004117, "rental_uris": {"android": "https://dc.lft.to/lastmile_qr_scan", "ios": "https://dc.lft.to/lastmile_qr_scan"}, "is_disabled": 0, "fusion_lat": 0.0, "name": "cafd7ab8f61668c6c33ea0fb0123c1fe", "fusion_lon": 0.0}, {"is_reserved": 0, "type": "electric_scooter", "bike_id": "6f56ebebe752b74566b01290efa4ca77", "lat": 38.918129, "lon": -77.03025866666667, "rental_uris": {"android": "https://dc.lft.to/lastmile_qr_scan", "ios": "https://dc.lft.to/lastmile_qr_scan"}, "is_disabled": 0, "fusion_lat": 0.0, "name": "6f56ebebe752b74566b01290efa4ca77", "fusion_lon": 0.0}, {"is_reserved": 0, "type": "electric_scooter", "bike_id": "85116a0a9934aea0ef176cd3c6a9652f", "lat": 38.90069183333333, "lon": -76.92745583333334, "rental_uris": {"android": "https://dc.lft.to/lastmile_qr_scan", "ios": "https://dc.lft.to/lastmile_qr_scan"}, "is_disabled": 0, "fusion_lat": 0.0, "name": "85116a0a9934aea0ef176cd3c6a9652f", "fusion_lon": 0.0}, {"is_reserved": 0, "type": "electric_scooter", "bike_id": "0a58226378b92a6019c095f35264a89e", "lat": 38.91493466666667, "lon": -77.00223133333333, "rental_uris": {"android": "https://dc.lft.to/lastmile_qr_scan", "ios": "https://dc.lft.to/lastmile_qr_scan"}, "is_disabled": 0, "fusion_lat": 0.0, "name": "0a58226378b92a6019c095f35264a89e", "fusion_lon": 0.0}, {"is_reserved": 0, "type": "electric_scooter", "bike_id": "438e3107575956b653127622470b0451", "lat": 38.887279166666666, "lon": -76.9836235, "rental_uris": {"android": "https://dc.lft.to/lastmile_qr_scan", "ios": "https://dc.lft.to/lastmile_qr_scan"}, "is_disabled": 0, "fusion_lat": 0.0, "name": "438e3107575956b653127622470b0451", "fusion_lon": 0.0}, {"is_reserved": 0, "type": "electric_scooter", "bike_id": "96a114743e985e0def04e8c850f335ed", "lat": 38.94244333333333, "lon": -77.03585683333333, "rental_uris": {"android": "https://dc.lft.to/lastmile_qr_scan", "ios": "https://dc.lft.to/lastmile_qr_scan"}, "is_disabled": 0, "fusion_lat": 0.0, "name": "96a114743e985e0def04e8c850f335ed", "fusion_lon": 0.0}, {"is_reserved": 0, "type": "electric_scooter", "bike_id": "55527c018f2611e1924dfde3a5a2e9c5", "lat": 38.933328833333334, "lon": -77.02376516666666, "rental_uris": {"android": "https://dc.lft.to/lastmile_qr_scan", "ios": "https://dc.lft.to/lastmile_qr_scan"}, "is_disabled": 0, "fusion_lat": 0.0, "name": "55527c018f2611e1924dfde3a5a2e9c5", "fusion_lon": 0.0}, {"is_reserved": 0, "type": "electric_scooter", "bike_id": "0acef4f7d94973093a0a45c3d78ae101", "lat": 38.9388215, "lon": -77.03283966666666, "rental_uris": {"android": "https://dc.lft.to/lastmile_qr_scan", "ios": "https://dc.lft.to/lastmile_qr_scan"}, "is_disabled": 0, "fusion_lat": 0.0, "name": "0acef4f7d94973093a0a45c3d78ae101", "fusion_lon": 0.0}, {"is_reserved": 0, "type": "electric_scooter", "bike_id": "87b7a4d07210b340991bc35b15e45c90", "lat": 38.918138, "lon": -77.00984083333333, "rental_uris": {"android": "https://dc.lft.to/lastmile_qr_scan", "ios": "https://dc.lft.to/lastmile_qr_scan"}, "is_disabled": 0, "fusion_lat": 0.0, "name": "87b7a4d07210b340991bc35b15e45c90", "fusion_lon": 0.0}, {"is_reserved": 0, "type": "electric_scooter", "bike_id": "7b88a092a06e20b1e5fee75daff546ec", "lat": 38.91003533333333, "lon": -77.0401, "rental_uris": {"android": "https://dc.lft.to/lastmile_qr_scan", "ios": "https://dc.lft.to/lastmile_qr_scan"}, "is_disabled": 0, "fusion_lat": 0.0, "name": "7b88a092a06e20b1e5fee75daff546ec", "fusion_lon": 0.0}, {"is_reserved": 0, "type": "electric_scooter", "bike_id": "5b8b313e9c4136ed06d8c6bcbb06d606", "lat": 38.878152166666666, "lon": -76.99485366666667, "rental_uris": {"android": "https://dc.lft.to/lastmile_qr_scan", "ios": "https://dc.lft.to/lastmile_qr_scan"}, "is_disabled": 0, "fusion_lat": 0.0, "name": "5b8b313e9c4136ed06d8c6bcbb06d606", "fusion_lon": 0.0}, {"is_reserved": 0, "type": "electric_bike", "bike_id": "2b3717de58c7aa0ffcc65fc1d9edf8a9", "lat": 38.863764, "lon": -76.9701225, "rental_uris": {"android": "https://dc.lft.to/lastmile_qr_scan", "ios": "https://dc.lft.to/lastmile_qr_scan"}, "is_disabled": 0, "fusion_lat": 0.0, "name": "2b3717de58c7aa0ffcc65fc1d9edf8a9", "fusion_lon": 0.0}, {"is_reserved": 0, "type": "electric_scooter", "bike_id": "41481ba46ee4fe4e5e48d406b66013f8", "lat": 38.90804383333333, "lon": -77.0364125, "rental_uris": {"android": "https://dc.lft.to/lastmile_qr_scan", "ios": "https://dc.lft.to/lastmile_qr_scan"}, "is_disabled": 0, "fusion_lat": 0.0, "name": "41481ba46ee4fe4e5e48d406b66013f8", "fusion_lon": 0.0}, {"is_reserved": 0, "type": "electric_scooter", "bike_id": "bc519f433085aa11c244a7062da8663c", "lat": 38.914085, "lon": -77.02837266666667, "rental_uris": {"android": "https://dc.lft.to/lastmile_qr_scan", "ios": "https://dc.lft.to/lastmile_qr_scan"}, "is_disabled": 0, "fusion_lat": 0.0, "name": "bc519f433085aa11c244a7062da8663c", "fusion_lon": 0.0}, {"is_reserved": 0, "type": "electric_scooter", "bike_id": "08a5afba3e88c1d032544a047d21a61b", "lat": 38.9083125, "lon": -76.98719216666667, "rental_uris": {"android": "https://dc.lft.to/lastmile_qr_scan", "ios": "https://dc.lft.to/lastmile_qr_scan"}, "is_disabled": 0, "fusion_lat": 0.0, "name": "08a5afba3e88c1d032544a047d21a61b", "fusion_lon": 0.0}, {"is_reserved": 0, "type": "electric_scooter", "bike_id": "4a0d81a47c307c866d957121509c3d7f", "lat": 38.912991833333336, "lon": -76.98480416666666, "rental_uris": {"android": "https://dc.lft.to/lastmile_qr_scan", "ios": "https://dc.lft.to/lastmile_qr_scan"}, "is_disabled": 0, "fusion_lat": 0.0, "name": "4a0d81a47c307c866d957121509c3d7f", "fusion_lon": 0.0}, {"is_reserved": 0, "type": "electric_scooter", "bike_id": "2ed764a3e967bd2549632343917de0f2", "lat": 38.9010965, "lon": -77.022221, "rental_uris": {"android": "https://dc.lft.to/lastmile_qr_scan", "ios": "https://dc.lft.to/lastmile_qr_scan"}, "is_disabled": 0, "fusion_lat": 0.0, "name": "2ed764a3e967bd2549632343917de0f2", "fusion_lon": 0.0}, {"is_reserved": 0, "type": "electric_scooter", "bike_id": "b13518790921929f6f049cda41a72f10", "lat": 38.92692666666667, "lon": -77.0297925, "rental_uris": {"android": "https://dc.lft.to/lastmile_qr_scan", "ios": "https://dc.lft.to/lastmile_qr_scan"}, "is_disabled": 0, "fusion_lat": 0.0, "name": "b13518790921929f6f049cda41a72f10", "fusion_lon": 0.0}, {"is_reserved": 0, "type": "electric_scooter", "bike_id": "9539930f501ee9ad07500a260032bc31", "lat": 38.92695666666667, "lon": -77.02415166666667, "rental_uris": {"android": "https://dc.lft.to/lastmile_qr_scan", "ios": "https://dc.lft.to/lastmile_qr_scan"}, "is_disabled": 0, "fusion_lat": 0.0, "name": "9539930f501ee9ad07500a260032bc31", "fusion_lon": 0.0}, {"is_reserved": 0, "type": "electric_scooter", "bike_id": "4a88102ecaff74162bb73b224c83c535", "lat": 38.915639166666665, "lon": -77.03670433333333, "rental_uris": {"android": "https://dc.lft.to/lastmile_qr_scan", "ios": "https://dc.lft.to/lastmile_qr_scan"}, "is_disabled": 0, "fusion_lat": 0.0, "name": "4a88102ecaff74162bb73b224c83c535", "fusion_lon": 0.0}, {"is_reserved": 0, "type": "electric_scooter", "bike_id": "29e0b64f3eeb3f11b5d80d3d336f24cd", "lat": 38.88626883333333, "lon": -77.00407716666666, "rental_uris": {"android": "https://dc.lft.to/lastmile_qr_scan", "ios": "https://dc.lft.to/lastmile_qr_scan"}, "is_disabled": 0, "fusion_lat": 0.0, "name": "29e0b64f3eeb3f11b5d80d3d336f24cd", "fusion_lon": 0.0}, {"is_reserved": 0, "type": "electric_bike", "bike_id": "22001dea3b5b01208c3f94a5e4d62856", "lat": 38.88281116666667, "lon": -76.932363, "rental_uris": {"android": "https://dc.lft.to/lastmile_qr_scan", "ios": "https://dc.lft.to/lastmile_qr_scan"}, "is_disabled": 0, "fusion_lat": 0.0, "name": "22001dea3b5b01208c3f94a5e4d62856", "fusion_lon": 0.0}, {"is_reserved": 0, "type": "electric_scooter", "bike_id": "bd5ee3c51b68c2f500b35eb122c5f34c", "lat": 38.918611166666665, "lon": -76.96541316666666, "rental_uris": {"android": "https://dc.lft.to/lastmile_qr_scan", "ios": "https://dc.lft.to/lastmile_qr_scan"}, "is_disabled": 0, "fusion_lat": 0.0, "name": "bd5ee3c51b68c2f500b35eb122c5f34c", "fusion_lon": 0.0}, {"is_reserved": 0, "type": "electric_scooter", "bike_id": "cc43f5346c03f4281eda39db390e5b6b", "lat": 38.949810666666664, "lon": -77.02454983333334, "rental_uris": {"android": "https://dc.lft.to/lastmile_qr_scan", "ios": "https://dc.lft.to/lastmile_qr_scan"}, "is_disabled": 0, "fusion_lat": 0.0, "name": "cc43f5346c03f4281eda39db390e5b6b", "fusion_lon": 0.0}, {"is_reserved": 0, "type": "electric_scooter", "bike_id": "9ae041951ab2713707ed4d5c3b5941d0", "lat": 38.946102333333336, "lon": -77.03059783333333, "rental_uris": {"android": "https://dc.lft.to/lastmile_qr_scan", "ios": "https://dc.lft.to/lastmile_qr_scan"}, "is_disabled": 0, "fusion_lat": 0.0, "name": "9ae041951ab2713707ed4d5c3b5941d0", "fusion_lon": 0.0}, {"is_reserved": 0, "type": "electric_scooter", "bike_id": "b111447cde75cea6c561db449f1d1c19", "lat": 38.9195775, "lon": -77.0179685, "rental_uris": {"android": "https://dc.lft.to/lastmile_qr_scan", "ios": "https://dc.lft.to/lastmile_qr_scan"}, "is_disabled": 0, "fusion_lat": 0.0, "name": "b111447cde75cea6c561db449f1d1c19", "fusion_lon": 0.0}, {"is_reserved": 0, "type": "electric_bike", "bike_id": "7f998384d520ce27bff5a3f9a6b94b4b", "lat": 39.01078833333333, "lon": -76.91066016666667, "rental_uris": {"android": "https://dc.lft.to/lastmile_qr_scan", "ios": "https://dc.lft.to/lastmile_qr_scan"}, "is_disabled": 0, "fusion_lat": 0.0, "name": "7f998384d520ce27bff5a3f9a6b94b4b", "fusion_lon": 0.0}, {"is_reserved": 0, "type": "electric_bike", "bike_id": "46525a0eb993d5b43a07e86963ca2ac7", "lat": 38.93602416666667, "lon": -77.03146166666667, "rental_uris": {"android": "https://dc.lft.to/lastmile_qr_scan", "ios": "https://dc.lft.to/lastmile_qr_scan"}, "is_disabled": 0, "fusion_lat": 0.0, "name": "46525a0eb993d5b43a07e86963ca2ac7", "fusion_lon": 0.0}, {"is_reserved": 0, "type": "electric_scooter", "bike_id": "ad20a08bbc0431b7de1c3ccec4d9c1b2", "lat": 38.894048833333336, "lon": -77.02322633333333, "rental_uris": {"android": "https://dc.lft.to/lastmile_qr_scan", "ios": "https://dc.lft.to/lastmile_qr_scan"}, "is_disabled": 0, "fusion_lat": 0.0, "name": "ad20a08bbc0431b7de1c3ccec4d9c1b2", "fusion_lon": 0.0}, {"is_reserved": 0, "type": "electric_bike", "bike_id": "e082faed328acad435e2dbd9ec940e26", "lat": 38.823432, "lon": -77.05827683333334, "rental_uris": {"android": "https://dc.lft.to/lastmile_qr_scan", "ios": "https://dc.lft.to/lastmile_qr_scan"}, "is_disabled": 0, "fusion_lat": 0.0, "name": "e082faed328acad435e2dbd9ec940e26", "fusion_lon": 0.0}, {"is_reserved": 0, "type": "electric_scooter", "bike_id": "fd15e114a7efdcabcbb7f314a997a6f2", "lat": 38.9051985, "lon": -77.02606066666667, "rental_uris": {"android": "https://dc.lft.to/lastmile_qr_scan", "ios": "https://dc.lft.to/lastmile_qr_scan"}, "is_disabled": 0, "fusion_lat": 0.0, "name": "fd15e114a7efdcabcbb7f314a997a6f2", "fusion_lon": 0.0}, {"is_reserved": 0, "type": "electric_scooter", "bike_id": "33945d8d19cd25900d2baff5abd4ce0e", "lat": 38.89872016666666, "lon": -77.03942166666667, "rental_uris": {"android": "https://dc.lft.to/lastmile_qr_scan", "ios": "https://dc.lft.to/lastmile_qr_scan"}, "is_disabled": 0, "fusion_lat": 0.0, "name": "33945d8d19cd25900d2baff5abd4ce0e", "fusion_lon": 0.0}, {"is_reserved": 0, "type": "electric_bike", "bike_id": "6797256498673212078c16501279f640", "lat": 38.88393833333333, "lon": -76.95449966666666, "rental_uris": {"android": "https://dc.lft.to/lastmile_qr_scan", "ios": "https://dc.lft.to/lastmile_qr_scan"}, "is_disabled": 0, "fusion_lat": 0.0, "name": "6797256498673212078c16501279f640", "fusion_lon": 0.0}, {"is_reserved": 0, "type": "electric_scooter", "bike_id": "3fd846784629b36cbd0ac0c2bee8a52c", "lat": 38.9449525, "lon": -77.00740066666667, "rental_uris": {"android": "https://dc.lft.to/lastmile_qr_scan", "ios": "https://dc.lft.to/lastmile_qr_scan"}, "is_disabled": 0, "fusion_lat": 0.0, "name": "3fd846784629b36cbd0ac0c2bee8a52c", "fusion_lon": 0.0}, {"is_reserved": 0, "type": "electric_bike", "bike_id": "1157b36575e108717ed9ba37ab83cc1c", "lat": 38.832376833333335, "lon": -76.94623183333333, "rental_uris": {"android": "https://dc.lft.to/lastmile_qr_scan", "ios": "https://dc.lft.to/lastmile_qr_scan"}, "is_disabled": 0, "fusion_lat": 0.0, "name": "1157b36575e108717ed9ba37ab83cc1c", "fusion_lon": 0.0}, {"is_reserved": 0, "type": "electric_scooter", "bike_id": "2cdf412398b706c49265c2e29d8c6ee8", "lat": 38.90498683333333, "lon": -77.04200016666667, "rental_uris": {"android": "https://dc.lft.to/lastmile_qr_scan", "ios": "https://dc.lft.to/lastmile_qr_scan"}, "is_disabled": 0, "fusion_lat": 0.0, "name": "2cdf412398b706c49265c2e29d8c6ee8", "fusion_lon": 0.0}, {"is_reserved": 0, "type": "electric_scooter", "bike_id": "0d25d329b5fe69745588eeb8bf85fc50", "lat": 38.93355916666667, "lon": -77.0241985, "rental_uris": {"android": "https://dc.lft.to/lastmile_qr_scan", "ios": "https://dc.lft.to/lastmile_qr_scan"}, "is_disabled": 0, "fusion_lat": 0.0, "name": "0d25d329b5fe69745588eeb8bf85fc50", "fusion_lon": 0.0}, {"is_reserved": 0, "type": "electric_scooter", "bike_id": "c72808671ae58f51b3fb95bfdbb41423", "lat": 38.92697883333334, "lon": -77.02098733333334, "rental_uris": {"android": "https://dc.lft.to/lastmile_qr_scan", "ios": "https://dc.lft.to/lastmile_qr_scan"}, "is_disabled": 0, "fusion_lat": 0.0, "name": "c72808671ae58f51b3fb95bfdbb41423", "fusion_lon": 0.0}, {"is_reserved": 0, "type": "electric_bike", "bike_id": "297e9e627cc7b390013eaf7627dd5567", "lat": 38.944996333333336, "lon": -77.00685166666666, "rental_uris": {"android": "https://dc.lft.to/lastmile_qr_scan", "ios": "https://dc.lft.to/lastmile_qr_scan"}, "is_disabled": 0, "fusion_lat": 0.0, "name": "297e9e627cc7b390013eaf7627dd5567", "fusion_lon": 0.0}, {"is_reserved": 0, "type": "electric_scooter", "bike_id": "0cc68e3239d5c5b9e9322847c8055ced", "lat": 38.911304666666666, "lon": -77.022063, "rental_uris": {"android": "https://dc.lft.to/lastmile_qr_scan", "ios": "https://dc.lft.to/lastmile_qr_scan"}, "is_disabled": 0, "fusion_lat": 0.0, "name": "0cc68e3239d5c5b9e9322847c8055ced", "fusion_lon": 0.0}, {"is_reserved": 0, "type": "electric_scooter", "bike_id": "45e6ec26c13d95d9e4cc2015f70ccefd", "lat": 38.92059066666667, "lon": -77.025083, "rental_uris": {"android": "https://dc.lft.to/lastmile_qr_scan", "ios": "https://dc.lft.to/lastmile_qr_scan"}, "is_disabled": 0, "fusion_lat": 0.0, "name": "45e6ec26c13d95d9e4cc2015f70ccefd", "fusion_lon": 0.0}, {"is_reserved": 0, "type": "electric_scooter", "bike_id": "b5e901ce59d6a8d70d74bda98d6ec116", "lat": 38.923243, "lon": -77.02975433333333, "rental_uris": {"android": "https://dc.lft.to/lastmile_qr_scan", "ios": "https://dc.lft.to/lastmile_qr_scan"}, "is_disabled": 0, "fusion_lat": 0.0, "name": "b5e901ce59d6a8d70d74bda98d6ec116", "fusion_lon": 0.0}, {"is_reserved": 0, "type": "electric_scooter", "bike_id": "885cc437f289a98398d2cdbc98e32039", "lat": 38.89974633333333, "lon": -77.020243, "rental_uris": {"android": "https://dc.lft.to/lastmile_qr_scan", "ios": "https://dc.lft.to/lastmile_qr_scan"}, "is_disabled": 0, "fusion_lat": 0.0, "name": "885cc437f289a98398d2cdbc98e32039", "fusion_lon": 0.0}, {"is_reserved": 0, "type": "electric_scooter", "bike_id": "8b13059f2d3b3cf86f69d1490ad596fc", "lat": 38.906370333333335, "lon": -77.0703565, "rental_uris": {"android": "https://dc.lft.to/lastmile_qr_scan", "ios": "https://dc.lft.to/lastmile_qr_scan"}, "is_disabled": 0, "fusion_lat": 0.0, "name": "8b13059f2d3b3cf86f69d1490ad596fc", "fusion_lon": 0.0}, {"is_reserved": 0, "type": "electric_scooter", "bike_id": "a54361b39e5b10c6e7f72f886712c76e", "lat": 38.917440666666664, "lon": -77.009278, "rental_uris": {"android": "https://dc.lft.to/lastmile_qr_scan", "ios": "https://dc.lft.to/lastmile_qr_scan"}, "is_disabled": 0, "fusion_lat": 0.0, "name": "a54361b39e5b10c6e7f72f886712c76e", "fusion_lon": 0.0}, {"is_reserved": 0, "type": "electric_scooter", "bike_id": "b9cf5149b9441da60443b7d0e1d37c73", "lat": 38.892707, "lon": -76.92997716666666, "rental_uris": {"android": "https://dc.lft.to/lastmile_qr_scan", "ios": "https://dc.lft.to/lastmile_qr_scan"}, "is_disabled": 0, "fusion_lat": 0.0, "name": "b9cf5149b9441da60443b7d0e1d37c73", "fusion_lon": 0.0}, {"is_reserved": 0, "type": "electric_scooter", "bike_id": "709f3eafe3d9a4b8bee695181654d2f4", "lat": 38.916944, "lon": -77.026007, "rental_uris": {"android": "https://dc.lft.to/lastmile_qr_scan", "ios": "https://dc.lft.to/lastmile_qr_scan"}, "is_disabled": 0, "fusion_lat": 0.0, "name": "709f3eafe3d9a4b8bee695181654d2f4", "fusion_lon": 0.0}, {"is_reserved": 0, "type": "electric_scooter", "bike_id": "72e0a7533ca882641c706db358165fe6", "lat": 38.93008066666667, "lon": -77.01824766666667, "rental_uris": {"android": "https://dc.lft.to/lastmile_qr_scan", "ios": "https://dc.lft.to/lastmile_qr_scan"}, "is_disabled": 0, "fusion_lat": 0.0, "name": "72e0a7533ca882641c706db358165fe6", "fusion_lon": 0.0}, {"is_reserved": 0, "type": "electric_scooter", "bike_id": "fa15004775ae13b0cf44b0fabfc8f9c6", "lat": 38.90792366666667, "lon": -77.002128, "rental_uris": {"android": "https://dc.lft.to/lastmile_qr_scan", "ios": "https://dc.lft.to/lastmile_qr_scan"}, "is_disabled": 0, "fusion_lat": 0.0, "name": "fa15004775ae13b0cf44b0fabfc8f9c6", "fusion_lon": 0.0}, {"is_reserved": 0, "type": "electric_scooter", "bike_id": "f28af1dc788f23c4875dda91d9950188", "lat": 38.908473666666666, "lon": -77.0259645, "rental_uris": {"android": "https://dc.lft.to/lastmile_qr_scan", "ios": "https://dc.lft.to/lastmile_qr_scan"}, "is_disabled": 0, "fusion_lat": 0.0, "name": "f28af1dc788f23c4875dda91d9950188", "fusion_lon": 0.0}, {"is_reserved": 0, "type": "electric_scooter", "bike_id": "92ff5a3409f0c7b7fa7a98cc8a9175f5", "lat": 38.89618566666667, "lon": -76.97684683333334, "rental_uris": {"android": "https://dc.lft.to/lastmile_qr_scan", "ios": "https://dc.lft.to/lastmile_qr_scan"}, "is_disabled": 0, "fusion_lat": 0.0, "name": "92ff5a3409f0c7b7fa7a98cc8a9175f5", "fusion_lon": 0.0}, {"is_reserved": 0, "type": "electric_scooter", "bike_id": "e274784c5fda4c0dee0f7d1391f31f7a", "lat": 38.9353615, "lon": -77.02354783333334, "rental_uris": {"android": "https://dc.lft.to/lastmile_qr_scan", "ios": "https://dc.lft.to/lastmile_qr_scan"}, "is_disabled": 0, "fusion_lat": 0.0, "name": "e274784c5fda4c0dee0f7d1391f31f7a", "fusion_lon": 0.0}, {"is_reserved": 0, "type": "electric_scooter", "bike_id": "28c0112866160df0ec260ae802733ac5", "lat": 38.8964505, "lon": -76.99034216666666, "rental_uris": {"android": "https://dc.lft.to/lastmile_qr_scan", "ios": "https://dc.lft.to/lastmile_qr_scan"}, "is_disabled": 0, "fusion_lat": 0.0, "name": "28c0112866160df0ec260ae802733ac5", "fusion_lon": 0.0}, {"is_reserved": 0, "type": "electric_scooter", "bike_id": "cebb94d26ca48c31d0681a7cd2d17009", "lat": 38.8840435, "lon": -76.93044183333333, "rental_uris": {"android": "https://dc.lft.to/lastmile_qr_scan", "ios": "https://dc.lft.to/lastmile_qr_scan"}, "is_disabled": 0, "fusion_lat": 0.0, "name": "cebb94d26ca48c31d0681a7cd2d17009", "fusion_lon": 0.0}, {"is_reserved": 0, "type": "electric_scooter", "bike_id": "f02647749ee64dd609a82a10d2a66207", "lat": 38.92235566666667, "lon": -77.03353633333333, "rental_uris": {"android": "https://dc.lft.to/lastmile_qr_scan", "ios": "https://dc.lft.to/lastmile_qr_scan"}, "is_disabled": 0, "fusion_lat": 0.0, "name": "f02647749ee64dd609a82a10d2a66207", "fusion_lon": 0.0}, {"is_reserved": 0, "type": "electric_scooter", "bike_id": "36fc6f95c54f7d3ff3df016b2b597e26", "lat": 38.9112435, "lon": -77.02201916666667, "rental_uris": {"android": "https://dc.lft.to/lastmile_qr_scan", "ios": "https://dc.lft.to/lastmile_qr_scan"}, "is_disabled": 0, "fusion_lat": 0.0, "name": "36fc6f95c54f7d3ff3df016b2b597e26", "fusion_lon": 0.0}, {"is_reserved": 0, "type": "electric_scooter", "bike_id": "fc3e78f21814741770afbfbeaddeea9a", "lat": 38.917192, "lon": -77.03865416666666, "rental_uris": {"android": "https://dc.lft.to/lastmile_qr_scan", "ios": "https://dc.lft.to/lastmile_qr_scan"}, "is_disabled": 0, "fusion_lat": 0.0, "name": "fc3e78f21814741770afbfbeaddeea9a", "fusion_lon": 0.0}, {"is_reserved": 0, "type": "electric_scooter", "bike_id": "a6b8d3bb0bc95a2cc630880a36cb90ea", "lat": 38.90525866666667, "lon": -77.06534233333333, "rental_uris": {"android": "https://dc.lft.to/lastmile_qr_scan", "ios": "https://dc.lft.to/lastmile_qr_scan"}, "is_disabled": 0, "fusion_lat": 0.0, "name": "a6b8d3bb0bc95a2cc630880a36cb90ea", "fusion_lon": 0.0}, {"is_reserved": 0, "type": "electric_scooter", "bike_id": "5033c4a453e410ae7cdb3a6f8f9eac72", "lat": 38.906167833333335, "lon": -76.95021866666667, "rental_uris": {"android": "https://dc.lft.to/lastmile_qr_scan", "ios": "https://dc.lft.to/lastmile_qr_scan"}, "is_disabled": 0, "fusion_lat": 0.0, "name": "5033c4a453e410ae7cdb3a6f8f9eac72", "fusion_lon": 0.0}, {"is_reserved": 0, "type": "electric_scooter", "bike_id": "c3c402e1d8a4c5fbdee534b54db5e1b0", "lat": 38.901262, "lon": -77.03823583333333, "rental_uris": {"android": "https://dc.lft.to/lastmile_qr_scan", "ios": "https://dc.lft.to/lastmile_qr_scan"}, "is_disabled": 0, "fusion_lat": 0.0, "name": "c3c402e1d8a4c5fbdee534b54db5e1b0", "fusion_lon": 0.0}, {"is_reserved": 0, "type": "electric_scooter", "bike_id": "fd5bb36df9af4ed9b855fe5536c4156e", "lat": 38.885131, "lon": -77.01119266666667, "rental_uris": {"android": "https://dc.lft.to/lastmile_qr_scan", "ios": "https://dc.lft.to/lastmile_qr_scan"}, "is_disabled": 0, "fusion_lat": 0.0, "name": "fd5bb36df9af4ed9b855fe5536c4156e", "fusion_lon": 0.0}, {"is_reserved": 0, "type": "electric_scooter", "bike_id": "2fcf6b7a31ac5d06854f77ce19256f58", "lat": 38.946938333333335, "lon": -77.02247866666667, "rental_uris": {"android": "https://dc.lft.to/lastmile_qr_scan", "ios": "https://dc.lft.to/lastmile_qr_scan"}, "is_disabled": 0, "fusion_lat": 0.0, "name": "2fcf6b7a31ac5d06854f77ce19256f58", "fusion_lon": 0.0}, {"is_reserved": 0, "type": "electric_scooter", "bike_id": "10eda063fc989dd7d337c573de99ff64", "lat": 38.9002575, "lon": -76.9986755, "rental_uris": {"android": "https://dc.lft.to/lastmile_qr_scan", "ios": "https://dc.lft.to/lastmile_qr_scan"}, "is_disabled": 0, "fusion_lat": 0.0, "name": "10eda063fc989dd7d337c573de99ff64", "fusion_lon": 0.0}, {"is_reserved": 0, "type": "electric_scooter", "bike_id": "0188f4e63558aeb8d6326928ac8ecf61", "lat": 38.89225733333333, "lon": -77.02419833333333, "rental_uris": {"android": "https://dc.lft.to/lastmile_qr_scan", "ios": "https://dc.lft.to/lastmile_qr_scan"}, "is_disabled": 0, "fusion_lat": 0.0, "name": "0188f4e63558aeb8d6326928ac8ecf61", "fusion_lon": 0.0}, {"is_reserved": 0, "type": "electric_bike", "bike_id": "ecbb99ffa602fa71d62cf216bcd898b0", "lat": 38.831421666666664, "lon": -77.11350333333333, "rental_uris": {"android": "https://dc.lft.to/lastmile_qr_scan", "ios": "https://dc.lft.to/lastmile_qr_scan"}, "is_disabled": 0, "fusion_lat": 0.0, "name": "ecbb99ffa602fa71d62cf216bcd898b0", "fusion_lon": 0.0}, {"is_reserved": 0, "type": "electric_scooter", "bike_id": "e68954e86cbbf0d3e403dc0ba47b153c", "lat": 38.91419066666667, "lon": -77.0287475, "rental_uris": {"android": "https://dc.lft.to/lastmile_qr_scan", "ios": "https://dc.lft.to/lastmile_qr_scan"}, "is_disabled": 0, "fusion_lat": 0.0, "name": "e68954e86cbbf0d3e403dc0ba47b153c", "fusion_lon": 0.0}, {"is_reserved": 0, "type": "electric_scooter", "bike_id": "b798c85df4d43d9b80173663e8f6f9e9", "lat": 38.899460166666664, "lon": -77.0271525, "rental_uris": {"android": "https://dc.lft.to/lastmile_qr_scan", "ios": "https://dc.lft.to/lastmile_qr_scan"}, "is_disabled": 0, "fusion_lat": 0.0, "name": "b798c85df4d43d9b80173663e8f6f9e9", "fusion_lon": 0.0}, {"is_reserved": 0, "type": "electric_scooter", "bike_id": "3b392200541c4663d72332f7a7dd7741", "lat": 38.933618833333334, "lon": -77.0572655, "rental_uris": {"android": "https://dc.lft.to/lastmile_qr_scan", "ios": "https://dc.lft.to/lastmile_qr_scan"}, "is_disabled": 0, "fusion_lat": 0.0, "name": "3b392200541c4663d72332f7a7dd7741", "fusion_lon": 0.0}, {"is_reserved": 0, "type": "electric_scooter", "bike_id": "411a7275d3b9b6d40882184b79743c96", "lat": 38.900169166666664, "lon": -77.01021166666666, "rental_uris": {"android": "https://dc.lft.to/lastmile_qr_scan", "ios": "https://dc.lft.to/lastmile_qr_scan"}, "is_disabled": 0, "fusion_lat": 0.0, "name": "411a7275d3b9b6d40882184b79743c96", "fusion_lon": 0.0}, {"is_reserved": 0, "type": "electric_scooter", "bike_id": "74156d70c2826da5f740821fbcd870e2", "lat": 38.903450166666666, "lon": -77.03327733333333, "rental_uris": {"android": "https://dc.lft.to/lastmile_qr_scan", "ios": "https://dc.lft.to/lastmile_qr_scan"}, "is_disabled": 0, "fusion_lat": 0.0, "name": "74156d70c2826da5f740821fbcd870e2", "fusion_lon": 0.0}, {"is_reserved": 0, "type": "electric_scooter", "bike_id": "85feee49ccd2451af0cd409e8e48cb4a", "lat": 38.911917833333334, "lon": -77.0072255, "rental_uris": {"android": "https://dc.lft.to/lastmile_qr_scan", "ios": "https://dc.lft.to/lastmile_qr_scan"}, "is_disabled": 0, "fusion_lat": 0.0, "name": "85feee49ccd2451af0cd409e8e48cb4a", "fusion_lon": 0.0}, {"is_reserved": 0, "type": "electric_scooter", "bike_id": "bc598c8077ab2b813430658603ac35b8", "lat": 38.923611333333334, "lon": -77.0191935, "rental_uris": {"android": "https://dc.lft.to/lastmile_qr_scan", "ios": "https://dc.lft.to/lastmile_qr_scan"}, "is_disabled": 0, "fusion_lat": 0.0, "name": "bc598c8077ab2b813430658603ac35b8", "fusion_lon": 0.0}, {"is_reserved": 0, "type": "electric_scooter", "bike_id": "baed18c487c22f619eae90f669672416", "lat": 38.93644716666667, "lon": -77.036825, "rental_uris": {"android": "https://dc.lft.to/lastmile_qr_scan", "ios": "https://dc.lft.to/lastmile_qr_scan"}, "is_disabled": 0, "fusion_lat": 0.0, "name": "baed18c487c22f619eae90f669672416", "fusion_lon": 0.0}, {"is_reserved": 0, "type": "electric_scooter", "bike_id": "c86ad6ae733693aa4ae7d61a85dc0aca", "lat": 38.920801, "lon": -77.04014816666667, "rental_uris": {"android": "https://dc.lft.to/lastmile_qr_scan", "ios": "https://dc.lft.to/lastmile_qr_scan"}, "is_disabled": 0, "fusion_lat": 0.0, "name": "c86ad6ae733693aa4ae7d61a85dc0aca", "fusion_lon": 0.0}, {"is_reserved": 0, "type": "electric_scooter", "bike_id": "82ad85b56f56d225f1d14e4f4498ef99", "lat": 38.938662666666666, "lon": -77.0270545, "rental_uris": {"android": "https://dc.lft.to/lastmile_qr_scan", "ios": "https://dc.lft.to/lastmile_qr_scan"}, "is_disabled": 0, "fusion_lat": 0.0, "name": "82ad85b56f56d225f1d14e4f4498ef99", "fusion_lon": 0.0}, {"is_reserved": 0, "type": "electric_scooter", "bike_id": "c6ebc991b2d0efb8610d52cf87e8fe0e", "lat": 38.90527216666667, "lon": -76.98410316666667, "rental_uris": {"android": "https://dc.lft.to/lastmile_qr_scan", "ios": "https://dc.lft.to/lastmile_qr_scan"}, "is_disabled": 0, "fusion_lat": 0.0, "name": "c6ebc991b2d0efb8610d52cf87e8fe0e", "fusion_lon": 0.0}, {"is_reserved": 0, "type": "electric_scooter", "bike_id": "0774bcbe7c3a0f71c18a5755dd4c35a4", "lat": 38.898270833333335, "lon": -77.0489455, "rental_uris": {"android": "https://dc.lft.to/lastmile_qr_scan", "ios": "https://dc.lft.to/lastmile_qr_scan"}, "is_disabled": 0, "fusion_lat": 0.0, "name": "0774bcbe7c3a0f71c18a5755dd4c35a4", "fusion_lon": 0.0}, {"is_reserved": 0, "type": "electric_scooter", "bike_id": "934d188fbc84d4e48dbaee3789eab736", "lat": 38.91564233333333, "lon": -77.03134366666667, "rental_uris": {"android": "https://dc.lft.to/lastmile_qr_scan", "ios": "https://dc.lft.to/lastmile_qr_scan"}, "is_disabled": 0, "fusion_lat": 0.0, "name": "934d188fbc84d4e48dbaee3789eab736", "fusion_lon": 0.0}, {"is_reserved": 0, "type": "electric_scooter", "bike_id": "f49ed137c06a8a6c29bd26fbd7fa066c", "lat": 38.91225433333334, "lon": -76.9870695, "rental_uris": {"android": "https://dc.lft.to/lastmile_qr_scan", "ios": "https://dc.lft.to/lastmile_qr_scan"}, "is_disabled": 0, "fusion_lat": 0.0, "name": "f49ed137c06a8a6c29bd26fbd7fa066c", "fusion_lon": 0.0}, {"is_reserved": 0, "type": "electric_scooter", "bike_id": "db03f55957d0f5425dbfbb20892faa04", "lat": 38.90846833333333, "lon": -77.03550833333334, "rental_uris": {"android": "https://dc.lft.to/lastmile_qr_scan", "ios": "https://dc.lft.to/lastmile_qr_scan"}, "is_disabled": 0, "fusion_lat": 0.0, "name": "db03f55957d0f5425dbfbb20892faa04", "fusion_lon": 0.0}, {"is_reserved": 0, "type": "electric_scooter", "bike_id": "3c4cfdda91f839c3248a5a7cffe9505b", "lat": 38.91803633333333, "lon": -77.03193666666667, "rental_uris": {"android": "https://dc.lft.to/lastmile_qr_scan", "ios": "https://dc.lft.to/lastmile_qr_scan"}, "is_disabled": 0, "fusion_lat": 0.0, "name": "3c4cfdda91f839c3248a5a7cffe9505b", "fusion_lon": 0.0}, {"is_reserved": 0, "type": "electric_scooter", "bike_id": "8c94fe40c68d7a6508b7e6cb34e4267d", "lat": 38.90265866666667, "lon": -77.00328233333333, "rental_uris": {"android": "https://dc.lft.to/lastmile_qr_scan", "ios": "https://dc.lft.to/lastmile_qr_scan"}, "is_disabled": 0, "fusion_lat": 0.0, "name": "8c94fe40c68d7a6508b7e6cb34e4267d", "fusion_lon": 0.0}, {"is_reserved": 0, "type": "electric_scooter", "bike_id": "af4ae7009ce2cd933a92bfa33478de6d", "lat": 38.92758416666667, "lon": -77.03277366666667, "rental_uris": {"android": "https://dc.lft.to/lastmile_qr_scan", "ios": "https://dc.lft.to/lastmile_qr_scan"}, "is_disabled": 0, "fusion_lat": 0.0, "name": "af4ae7009ce2cd933a92bfa33478de6d", "fusion_lon": 0.0}, {"is_reserved": 0, "type": "electric_scooter", "bike_id": "ae70b463e207c181efa773831322034c", "lat": 38.89923683333333, "lon": -76.94578416666667, "rental_uris": {"android": "https://dc.lft.to/lastmile_qr_scan", "ios": "https://dc.lft.to/lastmile_qr_scan"}, "is_disabled": 0, "fusion_lat": 0.0, "name": "ae70b463e207c181efa773831322034c", "fusion_lon": 0.0}, {"is_reserved": 0, "type": "electric_scooter", "bike_id": "8a8de4071e55e4cf7a2077eed7d3ce5b", "lat": 38.90445483333333, "lon": -77.0586, "rental_uris": {"android": "https://dc.lft.to/lastmile_qr_scan", "ios": "https://dc.lft.to/lastmile_qr_scan"}, "is_disabled": 0, "fusion_lat": 0.0, "name": "8a8de4071e55e4cf7a2077eed7d3ce5b", "fusion_lon": 0.0}, {"is_reserved": 0, "type": "electric_scooter", "bike_id": "868535fc7484e0e506263756c39b9f66", "lat": 38.923124, "lon": -77.02918433333333, "rental_uris": {"android": "https://dc.lft.to/lastmile_qr_scan", "ios": "https://dc.lft.to/lastmile_qr_scan"}, "is_disabled": 0, "fusion_lat": 0.0, "name": "868535fc7484e0e506263756c39b9f66", "fusion_lon": 0.0}, {"is_reserved": 0, "type": "electric_scooter", "bike_id": "43978c179668c362b74c9bccbddd498e", "lat": 38.94016466666667, "lon": -77.0274545, "rental_uris": {"android": "https://dc.lft.to/lastmile_qr_scan", "ios": "https://dc.lft.to/lastmile_qr_scan"}, "is_disabled": 0, "fusion_lat": 0.0, "name": "43978c179668c362b74c9bccbddd498e", "fusion_lon": 0.0}, {"is_reserved": 0, "type": "electric_scooter", "bike_id": "1bee55d73345ef98fa0ee1cfa6706003", "lat": 38.920589, "lon": -76.99882933333333, "rental_uris": {"android": "https://dc.lft.to/lastmile_qr_scan", "ios": "https://dc.lft.to/lastmile_qr_scan"}, "is_disabled": 0, "fusion_lat": 0.0, "name": "1bee55d73345ef98fa0ee1cfa6706003", "fusion_lon": 0.0}, {"is_reserved": 0, "type": "electric_scooter", "bike_id": "d522ca83973967534b97188d336de82c", "lat": 38.916500666666664, "lon": -77.02183183333334, "rental_uris": {"android": "https://dc.lft.to/lastmile_qr_scan", "ios": "https://dc.lft.to/lastmile_qr_scan"}, "is_disabled": 0, "fusion_lat": 0.0, "name": "d522ca83973967534b97188d336de82c", "fusion_lon": 0.0}, {"is_reserved": 0, "type": "electric_bike", "bike_id": "3e6cb1775968141dceecd549b598cdc4", "lat": 38.926037, "lon": -77.024278, "rental_uris": {"android": "https://dc.lft.to/lastmile_qr_scan", "ios": "https://dc.lft.to/lastmile_qr_scan"}, "is_disabled": 0, "fusion_lat": 0.0, "name": "3e6cb1775968141dceecd549b598cdc4", "fusion_lon": 0.0}, {"is_reserved": 0, "type": "electric_scooter", "bike_id": "be96d15c18b8b5476c1355dc0bf11f23", "lat": 38.900777, "lon": -77.04885433333334, "rental_uris": {"android": "https://dc.lft.to/lastmile_qr_scan", "ios": "https://dc.lft.to/lastmile_qr_scan"}, "is_disabled": 0, "fusion_lat": 0.0, "name": "be96d15c18b8b5476c1355dc0bf11f23", "fusion_lon": 0.0}, {"is_reserved": 0, "type": "electric_bike", "bike_id": "9aee053e251b0431f31e5dc7fa8ca9ee", "lat": 38.921360666666665, "lon": -77.00405466666666, "rental_uris": {"android": "https://dc.lft.to/lastmile_qr_scan", "ios": "https://dc.lft.to/lastmile_qr_scan"}, "is_disabled": 0, "fusion_lat": 0.0, "name": "9aee053e251b0431f31e5dc7fa8ca9ee", "fusion_lon": 0.0}, {"is_reserved": 0, "type": "electric_scooter", "bike_id": "2f60d2f9188e3374b33e82782cbaabf6", "lat": 38.89864466666667, "lon": -77.03945183333333, "rental_uris": {"android": "https://dc.lft.to/lastmile_qr_scan", "ios": "https://dc.lft.to/lastmile_qr_scan"}, "is_disabled": 0, "fusion_lat": 0.0, "name": "2f60d2f9188e3374b33e82782cbaabf6", "fusion_lon": 0.0}, {"is_reserved": 0, "type": "electric_scooter", "bike_id": "c372560966cb63cfe3c8c63234f6ce1d", "lat": 38.9111865, "lon": -77.03831083333333, "rental_uris": {"android": "https://dc.lft.to/lastmile_qr_scan", "ios": "https://dc.lft.to/lastmile_qr_scan"}, "is_disabled": 0, "fusion_lat": 0.0, "name": "c372560966cb63cfe3c8c63234f6ce1d", "fusion_lon": 0.0}, {"is_reserved": 0, "type": "electric_scooter", "bike_id": "ef2516e5fd19752bfbaf1de32414e6f4", "lat": 38.949784333333334, "lon": -77.02448533333333, "rental_uris": {"android": "https://dc.lft.to/lastmile_qr_scan", "ios": "https://dc.lft.to/lastmile_qr_scan"}, "is_disabled": 0, "fusion_lat": 0.0, "name": "ef2516e5fd19752bfbaf1de32414e6f4", "fusion_lon": 0.0}, {"is_reserved": 0, "type": "electric_scooter", "bike_id": "e7717e4dae203ef768d2fcc4c9f43b8d", "lat": 38.89995033333334, "lon": -77.03095266666666, "rental_uris": {"android": "https://dc.lft.to/lastmile_qr_scan", "ios": "https://dc.lft.to/lastmile_qr_scan"}, "is_disabled": 0, "fusion_lat": 0.0, "name": "e7717e4dae203ef768d2fcc4c9f43b8d", "fusion_lon": 0.0}, {"is_reserved": 0, "type": "electric_scooter", "bike_id": "3f492a9f1a6553610f41a326d474e3a5", "lat": 38.93720916666667, "lon": -77.03264833333333, "rental_uris": {"android": "https://dc.lft.to/lastmile_qr_scan", "ios": "https://dc.lft.to/lastmile_qr_scan"}, "is_disabled": 0, "fusion_lat": 0.0, "name": "3f492a9f1a6553610f41a326d474e3a5", "fusion_lon": 0.0}, {"is_reserved": 0, "type": "electric_scooter", "bike_id": "55610d41e7648b8ca16a3684b0ac6c7c", "lat": 38.954661333333334, "lon": -77.07764866666666, "rental_uris": {"android": "https://dc.lft.to/lastmile_qr_scan", "ios": "https://dc.lft.to/lastmile_qr_scan"}, "is_disabled": 0, "fusion_lat": 0.0, "name": "55610d41e7648b8ca16a3684b0ac6c7c", "fusion_lon": 0.0}, {"is_reserved": 0, "type": "electric_scooter", "bike_id": "e419d556de2800c76fc6f4ae37a4f53d", "lat": 38.91724583333333, "lon": -77.02984383333333, "rental_uris": {"android": "https://dc.lft.to/lastmile_qr_scan", "ios": "https://dc.lft.to/lastmile_qr_scan"}, "is_disabled": 0, "fusion_lat": 0.0, "name": "e419d556de2800c76fc6f4ae37a4f53d", "fusion_lon": 0.0}, {"is_reserved": 0, "type": "electric_scooter", "bike_id": "1ed612a02d380871e9843978f0b4331e", "lat": 38.9147145, "lon": -77.02613766666667, "rental_uris": {"android": "https://dc.lft.to/lastmile_qr_scan", "ios": "https://dc.lft.to/lastmile_qr_scan"}, "is_disabled": 0, "fusion_lat": 0.0, "name": "1ed612a02d380871e9843978f0b4331e", "fusion_lon": 0.0}, {"is_reserved": 0, "type": "electric_bike", "bike_id": "dc1452aef92485ee9f68e82935418cd4", "lat": 38.98831883333333, "lon": -77.02658133333334, "rental_uris": {"android": "https://dc.lft.to/lastmile_qr_scan", "ios": "https://dc.lft.to/lastmile_qr_scan"}, "is_disabled": 0, "fusion_lat": 0.0, "name": "dc1452aef92485ee9f68e82935418cd4", "fusion_lon": 0.0}, {"is_reserved": 0, "type": "electric_scooter", "bike_id": "1ccdd2ba816d1b33c40236eacd13f0fc", "lat": 38.90790466666667, "lon": -77.00976333333334, "rental_uris": {"android": "https://dc.lft.to/lastmile_qr_scan", "ios": "https://dc.lft.to/lastmile_qr_scan"}, "is_disabled": 0, "fusion_lat": 0.0, "name": "1ccdd2ba816d1b33c40236eacd13f0fc", "fusion_lon": 0.0}, {"is_reserved": 0, "type": "electric_scooter", "bike_id": "7800e54ff160866aa5367ad4139eb94e", "lat": 38.919219, "lon": -77.03185866666666, "rental_uris": {"android": "https://dc.lft.to/lastmile_qr_scan", "ios": "https://dc.lft.to/lastmile_qr_scan"}, "is_disabled": 0, "fusion_lat": 0.0, "name": "7800e54ff160866aa5367ad4139eb94e", "fusion_lon": 0.0}, {"is_reserved": 0, "type": "electric_scooter", "bike_id": "03a06cbf9689845510b21ac4be4c42fa", "lat": 38.899814666666664, "lon": -77.0220545, "rental_uris": {"android": "https://dc.lft.to/lastmile_qr_scan", "ios": "https://dc.lft.to/lastmile_qr_scan"}, "is_disabled": 0, "fusion_lat": 0.0, "name": "03a06cbf9689845510b21ac4be4c42fa", "fusion_lon": 0.0}, {"is_reserved": 0, "type": "electric_scooter", "bike_id": "6091cf35cba79d39cc040fe7c7a8ef19", "lat": 38.989933, "lon": -77.03365183333334, "rental_uris": {"android": "https://dc.lft.to/lastmile_qr_scan", "ios": "https://dc.lft.to/lastmile_qr_scan"}, "is_disabled": 0, "fusion_lat": 0.0, "name": "6091cf35cba79d39cc040fe7c7a8ef19", "fusion_lon": 0.0}, {"is_reserved": 0, "type": "electric_scooter", "bike_id": "fb8c8c5bf62e3acc999ad8659f9077b6", "lat": 38.9063495, "lon": -77.0250695, "rental_uris": {"android": "https://dc.lft.to/lastmile_qr_scan", "ios": "https://dc.lft.to/lastmile_qr_scan"}, "is_disabled": 0, "fusion_lat": 0.0, "name": "fb8c8c5bf62e3acc999ad8659f9077b6", "fusion_lon": 0.0}, {"is_reserved": 0, "type": "electric_scooter", "bike_id": "e31f8ea98c65d97a16218a607c7c1bd9", "lat": 38.89867733333333, "lon": -76.94646016666667, "rental_uris": {"android": "https://dc.lft.to/lastmile_qr_scan", "ios": "https://dc.lft.to/lastmile_qr_scan"}, "is_disabled": 0, "fusion_lat": 0.0, "name": "e31f8ea98c65d97a16218a607c7c1bd9", "fusion_lon": 0.0}, {"is_reserved": 0, "type": "electric_bike", "bike_id": "46dcef81041a81876fcd4752d5d58555", "lat": 38.981395166666665, "lon": -77.007677, "rental_uris": {"android": "https://dc.lft.to/lastmile_qr_scan", "ios": "https://dc.lft.to/lastmile_qr_scan"}, "is_disabled": 0, "fusion_lat": 0.0, "name": "46dcef81041a81876fcd4752d5d58555", "fusion_lon": 0.0}, {"is_reserved": 0, "type": "electric_scooter", "bike_id": "9ee5006b2c3c988f8a6ff98af59dbc04", "lat": 38.88614183333333, "lon": -77.003422, "rental_uris": {"android": "https://dc.lft.to/lastmile_qr_scan", "ios": "https://dc.lft.to/lastmile_qr_scan"}, "is_disabled": 0, "fusion_lat": 0.0, "name": "9ee5006b2c3c988f8a6ff98af59dbc04", "fusion_lon": 0.0}, {"is_reserved": 0, "type": "electric_scooter", "bike_id": "477ec6012ad4bc0677cfabdfd86066e8", "lat": 38.9182065, "lon": -77.04003383333334, "rental_uris": {"android": "https://dc.lft.to/lastmile_qr_scan", "ios": "https://dc.lft.to/lastmile_qr_scan"}, "is_disabled": 0, "fusion_lat": 0.0, "name": "477ec6012ad4bc0677cfabdfd86066e8", "fusion_lon": 0.0}, {"is_reserved": 0, "type": "electric_scooter", "bike_id": "40b78aa9e21fd9540e697c149c45e0f2", "lat": 38.8991215, "lon": -76.933629, "rental_uris": {"android": "https://dc.lft.to/lastmile_qr_scan", "ios": "https://dc.lft.to/lastmile_qr_scan"}, "is_disabled": 0, "fusion_lat": 0.0, "name": "40b78aa9e21fd9540e697c149c45e0f2", "fusion_lon": 0.0}, {"is_reserved": 0, "type": "electric_scooter", "bike_id": "ffb3e42f361c2e0c287b9655e041308a", "lat": 38.92109516666667, "lon": -77.0421755, "rental_uris": {"android": "https://dc.lft.to/lastmile_qr_scan", "ios": "https://dc.lft.to/lastmile_qr_scan"}, "is_disabled": 0, "fusion_lat": 0.0, "name": "ffb3e42f361c2e0c287b9655e041308a", "fusion_lon": 0.0}, {"is_reserved": 0, "type": "electric_scooter", "bike_id": "cca2fbc654ec83397037c5ecb23e18bd", "lat": 38.918182, "lon": -77.02476133333333, "rental_uris": {"android": "https://dc.lft.to/lastmile_qr_scan", "ios": "https://dc.lft.to/lastmile_qr_scan"}, "is_disabled": 0, "fusion_lat": 0.0, "name": "cca2fbc654ec83397037c5ecb23e18bd", "fusion_lon": 0.0}, {"is_reserved": 0, "type": "electric_scooter", "bike_id": "5fd066c6dfcc46d41dd45658da7bae97", "lat": 38.898795, "lon": -76.9883845, "rental_uris": {"android": "https://dc.lft.to/lastmile_qr_scan", "ios": "https://dc.lft.to/lastmile_qr_scan"}, "is_disabled": 0, "fusion_lat": 0.0, "name": "5fd066c6dfcc46d41dd45658da7bae97", "fusion_lon": 0.0}, {"is_reserved": 0, "type": "electric_scooter", "bike_id": "89ff8ba4f8e7f16807b3544de006b7cd", "lat": 38.913858, "lon": -77.0460295, "rental_uris": {"android": "https://dc.lft.to/lastmile_qr_scan", "ios": "https://dc.lft.to/lastmile_qr_scan"}, "is_disabled": 0, "fusion_lat": 0.0, "name": "89ff8ba4f8e7f16807b3544de006b7cd", "fusion_lon": 0.0}, {"is_reserved": 0, "type": "electric_scooter", "bike_id": "787fe0659002a7d44c7b0c11577781cb", "lat": 38.9349365, "lon": -77.04454866666667, "rental_uris": {"android": "https://dc.lft.to/lastmile_qr_scan", "ios": "https://dc.lft.to/lastmile_qr_scan"}, "is_disabled": 0, "fusion_lat": 0.0, "name": "787fe0659002a7d44c7b0c11577781cb", "fusion_lon": 0.0}, {"is_reserved": 0, "type": "electric_scooter", "bike_id": "c46c8b7e4669972f8ba8924e0a9a962e", "lat": 38.92646666666667, "lon": -77.02510983333333, "rental_uris": {"android": "https://dc.lft.to/lastmile_qr_scan", "ios": "https://dc.lft.to/lastmile_qr_scan"}, "is_disabled": 0, "fusion_lat": 0.0, "name": "c46c8b7e4669972f8ba8924e0a9a962e", "fusion_lon": 0.0}, {"is_reserved": 0, "type": "electric_scooter", "bike_id": "56a5caeb89ad55c6ce9ce583cfebc4d3", "lat": 38.897816166666665, "lon": -76.992725, "rental_uris": {"android": "https://dc.lft.to/lastmile_qr_scan", "ios": "https://dc.lft.to/lastmile_qr_scan"}, "is_disabled": 0, "fusion_lat": 0.0, "name": "56a5caeb89ad55c6ce9ce583cfebc4d3", "fusion_lon": 0.0}, {"is_reserved": 0, "type": "electric_scooter", "bike_id": "343309a8037d5bb76c2c7adff78e3cc6", "lat": 38.862660166666664, "lon": -76.98193983333333, "rental_uris": {"android": "https://dc.lft.to/lastmile_qr_scan", "ios": "https://dc.lft.to/lastmile_qr_scan"}, "is_disabled": 0, "fusion_lat": 0.0, "name": "343309a8037d5bb76c2c7adff78e3cc6", "fusion_lon": 0.0}, {"is_reserved": 0, "type": "electric_scooter", "bike_id": "93c88c92f4fe1b7235812a76a2179b42", "lat": 38.927414666666664, "lon": -77.02250716666667, "rental_uris": {"android": "https://dc.lft.to/lastmile_qr_scan", "ios": "https://dc.lft.to/lastmile_qr_scan"}, "is_disabled": 0, "fusion_lat": 0.0, "name": "93c88c92f4fe1b7235812a76a2179b42", "fusion_lon": 0.0}, {"is_reserved": 0, "type": "electric_scooter", "bike_id": "eabc6df017807d6cce36289602ca3565", "lat": 38.925573166666666, "lon": -77.05321516666666, "rental_uris": {"android": "https://dc.lft.to/lastmile_qr_scan", "ios": "https://dc.lft.to/lastmile_qr_scan"}, "is_disabled": 0, "fusion_lat": 0.0, "name": "eabc6df017807d6cce36289602ca3565", "fusion_lon": 0.0}, {"is_reserved": 0, "type": "electric_scooter", "bike_id": "7d801ea5ae271ee731ef15950029f097", "lat": 38.910615, "lon": -77.004601, "rental_uris": {"android": "https://dc.lft.to/lastmile_qr_scan", "ios": "https://dc.lft.to/lastmile_qr_scan"}, "is_disabled": 0, "fusion_lat": 0.0, "name": "7d801ea5ae271ee731ef15950029f097", "fusion_lon": 0.0}, {"is_reserved": 0, "type": "electric_scooter", "bike_id": "648a2f4ce2eacc21b2f411c97b39e9e3", "lat": 38.9182065, "lon": -77.01215083333334, "rental_uris": {"android": "https://dc.lft.to/lastmile_qr_scan", "ios": "https://dc.lft.to/lastmile_qr_scan"}, "is_disabled": 0, "fusion_lat": 0.0, "name": "648a2f4ce2eacc21b2f411c97b39e9e3", "fusion_lon": 0.0}, {"is_reserved": 0, "type": "electric_bike", "bike_id": "57e37f26d4c90a9cededbd0a55528ed3", "lat": 38.921135166666666, "lon": -76.98881383333334, "rental_uris": {"android": "https://dc.lft.to/lastmile_qr_scan", "ios": "https://dc.lft.to/lastmile_qr_scan"}, "is_disabled": 0, "fusion_lat": 0.0, "name": "57e37f26d4c90a9cededbd0a55528ed3", "fusion_lon": 0.0}, {"is_reserved": 0, "type": "electric_bike", "bike_id": "5a9f87c5718ee47b4ace0721a2ebb7bd", "lat": 39.01092883333333, "lon": -77.04954633333334, "rental_uris": {"android": "https://dc.lft.to/lastmile_qr_scan", "ios": "https://dc.lft.to/lastmile_qr_scan"}, "is_disabled": 0, "fusion_lat": 0.0, "name": "5a9f87c5718ee47b4ace0721a2ebb7bd", "fusion_lon": 0.0}, {"is_reserved": 0, "type": "electric_scooter", "bike_id": "063a767efb246c56a700ee0b9a185f84", "lat": 38.92539133333333, "lon": -77.038322, "rental_uris": {"android": "https://dc.lft.to/lastmile_qr_scan", "ios": "https://dc.lft.to/lastmile_qr_scan"}, "is_disabled": 0, "fusion_lat": 0.0, "name": "063a767efb246c56a700ee0b9a185f84", "fusion_lon": 0.0}, {"is_reserved": 0, "type": "electric_bike", "bike_id": "dd07167215b40fc8dd59e5837df95038", "lat": 39.0000595, "lon": -76.9180445, "rental_uris": {"android": "https://dc.lft.to/lastmile_qr_scan", "ios": "https://dc.lft.to/lastmile_qr_scan"}, "is_disabled": 0, "fusion_lat": 0.0, "name": "dd07167215b40fc8dd59e5837df95038", "fusion_lon": 0.0}, {"is_reserved": 0, "type": "electric_scooter", "bike_id": "a9855118b2e8cb169f8094c25d9c3cd4", "lat": 38.90789216666667, "lon": -77.00198716666667, "rental_uris": {"android": "https://dc.lft.to/lastmile_qr_scan", "ios": "https://dc.lft.to/lastmile_qr_scan"}, "is_disabled": 0, "fusion_lat": 0.0, "name": "a9855118b2e8cb169f8094c25d9c3cd4", "fusion_lon": 0.0}, {"is_reserved": 0, "type": "electric_scooter", "bike_id": "00a923480bd3e72b7808a4d916c4d617", "lat": 38.9244705, "lon": -76.99670116666667, "rental_uris": {"android": "https://dc.lft.to/lastmile_qr_scan", "ios": "https://dc.lft.to/lastmile_qr_scan"}, "is_disabled": 0, "fusion_lat": 0.0, "name": "00a923480bd3e72b7808a4d916c4d617", "fusion_lon": 0.0}, {"is_reserved": 0, "type": "electric_scooter", "bike_id": "16df7a0e9610615eed72d40a02c4075d", "lat": 38.92886816666667, "lon": -77.02559333333333, "rental_uris": {"android": "https://dc.lft.to/lastmile_qr_scan", "ios": "https://dc.lft.to/lastmile_qr_scan"}, "is_disabled": 0, "fusion_lat": 0.0, "name": "16df7a0e9610615eed72d40a02c4075d", "fusion_lon": 0.0}, {"is_reserved": 0, "type": "electric_scooter", "bike_id": "ed717b6f15e6db7aae25161e27421b3f", "lat": 38.935824833333335, "lon": -77.058687, "rental_uris": {"android": "https://dc.lft.to/lastmile_qr_scan", "ios": "https://dc.lft.to/lastmile_qr_scan"}, "is_disabled": 0, "fusion_lat": 0.0, "name": "ed717b6f15e6db7aae25161e27421b3f", "fusion_lon": 0.0}, {"is_reserved": 0, "type": "electric_bike", "bike_id": "1f512a08e05771882553a11a0ae9d203", "lat": 38.888395333333335, "lon": -76.95742983333334, "rental_uris": {"android": "https://dc.lft.to/lastmile_qr_scan", "ios": "https://dc.lft.to/lastmile_qr_scan"}, "is_disabled": 0, "fusion_lat": 0.0, "name": "1f512a08e05771882553a11a0ae9d203", "fusion_lon": 0.0}, {"is_reserved": 0, "type": "electric_scooter", "bike_id": "c5083431e42d2ad1a4850a1fd6d77b99", "lat": 38.90167566666667, "lon": -76.9302395, "rental_uris": {"android": "https://dc.lft.to/lastmile_qr_scan", "ios": "https://dc.lft.to/lastmile_qr_scan"}, "is_disabled": 0, "fusion_lat": 0.0, "name": "c5083431e42d2ad1a4850a1fd6d77b99", "fusion_lon": 0.0}, {"is_reserved": 0, "type": "electric_scooter", "bike_id": "7e7cd067a526f7a96e3fc0b02f4aa25a", "lat": 38.91306216666667, "lon": -77.0269725, "rental_uris": {"android": "https://dc.lft.to/lastmile_qr_scan", "ios": "https://dc.lft.to/lastmile_qr_scan"}, "is_disabled": 0, "fusion_lat": 0.0, "name": "7e7cd067a526f7a96e3fc0b02f4aa25a", "fusion_lon": 0.0}, {"is_reserved": 0, "type": "electric_scooter", "bike_id": "5b4d457c9c373cd59f7bdc6baa9a186d", "lat": 38.91262233333333, "lon": -77.03145983333333, "rental_uris": {"android": "https://dc.lft.to/lastmile_qr_scan", "ios": "https://dc.lft.to/lastmile_qr_scan"}, "is_disabled": 0, "fusion_lat": 0.0, "name": "5b4d457c9c373cd59f7bdc6baa9a186d", "fusion_lon": 0.0}, {"is_reserved": 0, "type": "electric_scooter", "bike_id": "6bddf884130c01632d51b66ae4a67d2f", "lat": 38.91888016666667, "lon": -77.02713516666667, "rental_uris": {"android": "https://dc.lft.to/lastmile_qr_scan", "ios": "https://dc.lft.to/lastmile_qr_scan"}, "is_disabled": 0, "fusion_lat": 0.0, "name": "6bddf884130c01632d51b66ae4a67d2f", "fusion_lon": 0.0}, {"is_reserved": 0, "type": "electric_scooter", "bike_id": "cbc3e00a51f9b649f3f2548f22480a83", "lat": 38.907948833333336, "lon": -77.00198016666667, "rental_uris": {"android": "https://dc.lft.to/lastmile_qr_scan", "ios": "https://dc.lft.to/lastmile_qr_scan"}, "is_disabled": 0, "fusion_lat": 0.0, "name": "cbc3e00a51f9b649f3f2548f22480a83", "fusion_lon": 0.0}, {"is_reserved": 0, "type": "electric_bike", "bike_id": "5742286c95d23c48dfdb32762953ceb7", "lat": 38.80735983333334, "lon": -76.9925445, "rental_uris": {"android": "https://dc.lft.to/lastmile_qr_scan", "ios": "https://dc.lft.to/lastmile_qr_scan"}, "is_disabled": 0, "fusion_lat": 0.0, "name": "5742286c95d23c48dfdb32762953ceb7", "fusion_lon": 0.0}, {"is_reserved": 0, "type": "electric_scooter", "bike_id": "b95528f11138d4b31e84a372b3d42ec3", "lat": 38.87293016666667, "lon": -77.01562533333333, "rental_uris": {"android": "https://dc.lft.to/lastmile_qr_scan", "ios": "https://dc.lft.to/lastmile_qr_scan"}, "is_disabled": 0, "fusion_lat": 0.0, "name": "b95528f11138d4b31e84a372b3d42ec3", "fusion_lon": 0.0}, {"is_reserved": 0, "type": "electric_bike", "bike_id": "7eb7cfd0cf369d6eb4083617949f8bcc", "lat": 38.882081166666666, "lon": -77.11163283333333, "rental_uris": {"android": "https://dc.lft.to/lastmile_qr_scan", "ios": "https://dc.lft.to/lastmile_qr_scan"}, "is_disabled": 0, "fusion_lat": 0.0, "name": "7eb7cfd0cf369d6eb4083617949f8bcc", "fusion_lon": 0.0}, {"is_reserved": 0, "type": "electric_scooter", "bike_id": "c730fdd0917bf57f699f89f809ac4e79", "lat": 38.93667516666667, "lon": -77.03719683333334, "rental_uris": {"android": "https://dc.lft.to/lastmile_qr_scan", "ios": "https://dc.lft.to/lastmile_qr_scan"}, "is_disabled": 0, "fusion_lat": 0.0, "name": "c730fdd0917bf57f699f89f809ac4e79", "fusion_lon": 0.0}, {"is_reserved": 0, "type": "electric_scooter", "bike_id": "7bb6b5188b3c8547aa0597e7c83cda06", "lat": 38.88787266666667, "lon": -76.97716683333333, "rental_uris": {"android": "https://dc.lft.to/lastmile_qr_scan", "ios": "https://dc.lft.to/lastmile_qr_scan"}, "is_disabled": 0, "fusion_lat": 0.0, "name": "7bb6b5188b3c8547aa0597e7c83cda06", "fusion_lon": 0.0}, {"is_reserved": 0, "type": "electric_scooter", "bike_id": "8d9ddc52e5bf66c5fd0fead7b7939885", "lat": 38.921526, "lon": -77.03874366666666, "rental_uris": {"android": "https://dc.lft.to/lastmile_qr_scan", "ios": "https://dc.lft.to/lastmile_qr_scan"}, "is_disabled": 0, "fusion_lat": 0.0, "name": "8d9ddc52e5bf66c5fd0fead7b7939885", "fusion_lon": 0.0}, {"is_reserved": 0, "type": "electric_scooter", "bike_id": "044c102f89254e6411f9c6d803837c44", "lat": 38.918597166666665, "lon": -77.04588316666667, "rental_uris": {"android": "https://dc.lft.to/lastmile_qr_scan", "ios": "https://dc.lft.to/lastmile_qr_scan"}, "is_disabled": 0, "fusion_lat": 0.0, "name": "044c102f89254e6411f9c6d803837c44", "fusion_lon": 0.0}, {"is_reserved": 0, "type": "electric_scooter", "bike_id": "742666f5ad01497a959fda4c8ef540fe", "lat": 38.887327166666665, "lon": -77.0220875, "rental_uris": {"android": "https://dc.lft.to/lastmile_qr_scan", "ios": "https://dc.lft.to/lastmile_qr_scan"}, "is_disabled": 0, "fusion_lat": 0.0, "name": "742666f5ad01497a959fda4c8ef540fe", "fusion_lon": 0.0}, {"is_reserved": 0, "type": "electric_scooter", "bike_id": "5fef85ac14a15e1a962ecb5c31d43d59", "lat": 38.9242225, "lon": -77.05762183333333, "rental_uris": {"android": "https://dc.lft.to/lastmile_qr_scan", "ios": "https://dc.lft.to/lastmile_qr_scan"}, "is_disabled": 0, "fusion_lat": 0.0, "name": "5fef85ac14a15e1a962ecb5c31d43d59", "fusion_lon": 0.0}, {"is_reserved": 0, "type": "electric_scooter", "bike_id": "4d79c647f0c419d1307d3a589e9d68df", "lat": 38.909637333333336, "lon": -77.02132116666667, "rental_uris": {"android": "https://dc.lft.to/lastmile_qr_scan", "ios": "https://dc.lft.to/lastmile_qr_scan"}, "is_disabled": 0, "fusion_lat": 0.0, "name": "4d79c647f0c419d1307d3a589e9d68df", "fusion_lon": 0.0}, {"is_reserved": 0, "type": "electric_scooter", "bike_id": "770dafb8e2ca2c03349a9b73f0d58b34", "lat": 38.9058315, "lon": -77.01614666666667, "rental_uris": {"android": "https://dc.lft.to/lastmile_qr_scan", "ios": "https://dc.lft.to/lastmile_qr_scan"}, "is_disabled": 0, "fusion_lat": 0.0, "name": "770dafb8e2ca2c03349a9b73f0d58b34", "fusion_lon": 0.0}, {"is_reserved": 0, "type": "electric_scooter", "bike_id": "43b12d95712cef6f2144976ef831e4db", "lat": 38.8998605, "lon": -77.02713333333334, "rental_uris": {"android": "https://dc.lft.to/lastmile_qr_scan", "ios": "https://dc.lft.to/lastmile_qr_scan"}, "is_disabled": 0, "fusion_lat": 0.0, "name": "43b12d95712cef6f2144976ef831e4db", "fusion_lon": 0.0}, {"is_reserved": 0, "type": "electric_scooter", "bike_id": "dd6226ebe7b8f6533f76ccff7a03ff81", "lat": 38.90307983333334, "lon": -77.0242735, "rental_uris": {"android": "https://dc.lft.to/lastmile_qr_scan", "ios": "https://dc.lft.to/lastmile_qr_scan"}, "is_disabled": 0, "fusion_lat": 0.0, "name": "dd6226ebe7b8f6533f76ccff7a03ff81", "fusion_lon": 0.0}, {"is_reserved": 0, "type": "electric_scooter", "bike_id": "3f2243ee9b7d9d433089247c79d3a9bc", "lat": 38.860226, "lon": -76.97003383333333, "rental_uris": {"android": "https://dc.lft.to/lastmile_qr_scan", "ios": "https://dc.lft.to/lastmile_qr_scan"}, "is_disabled": 0, "fusion_lat": 0.0, "name": "3f2243ee9b7d9d433089247c79d3a9bc", "fusion_lon": 0.0}, {"is_reserved": 0, "type": "electric_scooter", "bike_id": "b55efc8d7896af641f61a6458e9b10f9", "lat": 38.90562216666667, "lon": -77.00602433333333, "rental_uris": {"android": "https://dc.lft.to/lastmile_qr_scan", "ios": "https://dc.lft.to/lastmile_qr_scan"}, "is_disabled": 0, "fusion_lat": 0.0, "name": "b55efc8d7896af641f61a6458e9b10f9", "fusion_lon": 0.0}, {"is_reserved": 0, "type": "electric_scooter", "bike_id": "e4ca9a4c40d29a26b52d618a44d3882b", "lat": 38.93076966666667, "lon": -77.0281815, "rental_uris": {"android": "https://dc.lft.to/lastmile_qr_scan", "ios": "https://dc.lft.to/lastmile_qr_scan"}, "is_disabled": 0, "fusion_lat": 0.0, "name": "e4ca9a4c40d29a26b52d618a44d3882b", "fusion_lon": 0.0}, {"is_reserved": 0, "type": "electric_scooter", "bike_id": "25360696ef76837972431873e63fc688", "lat": 38.904982333333336, "lon": -77.06008316666667, "rental_uris": {"android": "https://dc.lft.to/lastmile_qr_scan", "ios": "https://dc.lft.to/lastmile_qr_scan"}, "is_disabled": 0, "fusion_lat": 0.0, "name": "25360696ef76837972431873e63fc688", "fusion_lon": 0.0}, {"is_reserved": 0, "type": "electric_scooter", "bike_id": "b3f77aa7f83611010f0fd93313027a6f", "lat": 38.935961166666665, "lon": -77.05717366666667, "rental_uris": {"android": "https://dc.lft.to/lastmile_qr_scan", "ios": "https://dc.lft.to/lastmile_qr_scan"}, "is_disabled": 0, "fusion_lat": 0.0, "name": "b3f77aa7f83611010f0fd93313027a6f", "fusion_lon": 0.0}, {"is_reserved": 0, "type": "electric_scooter", "bike_id": "e5dee3af876c6199d5ab0d17a8bde55a", "lat": 38.932655, "lon": -77.03273516666667, "rental_uris": {"android": "https://dc.lft.to/lastmile_qr_scan", "ios": "https://dc.lft.to/lastmile_qr_scan"}, "is_disabled": 0, "fusion_lat": 0.0, "name": "e5dee3af876c6199d5ab0d17a8bde55a", "fusion_lon": 0.0}, {"is_reserved": 0, "type": "electric_scooter", "bike_id": "669210a7cbe31a822f6bf93fcc172a03", "lat": 38.9061545, "lon": -77.02595133333334, "rental_uris": {"android": "https://dc.lft.to/lastmile_qr_scan", "ios": "https://dc.lft.to/lastmile_qr_scan"}, "is_disabled": 0, "fusion_lat": 0.0, "name": "669210a7cbe31a822f6bf93fcc172a03", "fusion_lon": 0.0}, {"is_reserved": 0, "type": "electric_scooter", "bike_id": "5e0c978c4ed833bdd62710ceb9118f7e", "lat": 38.94827883333333, "lon": -77.02585366666666, "rental_uris": {"android": "https://dc.lft.to/lastmile_qr_scan", "ios": "https://dc.lft.to/lastmile_qr_scan"}, "is_disabled": 0, "fusion_lat": 0.0, "name": "5e0c978c4ed833bdd62710ceb9118f7e", "fusion_lon": 0.0}, {"is_reserved": 0, "type": "electric_scooter", "bike_id": "72ab2635aaef9528321bd7e0517bfac8", "lat": 38.920361, "lon": -76.995634, "rental_uris": {"android": "https://dc.lft.to/lastmile_qr_scan", "ios": "https://dc.lft.to/lastmile_qr_scan"}, "is_disabled": 0, "fusion_lat": 0.0, "name": "72ab2635aaef9528321bd7e0517bfac8", "fusion_lon": 0.0}, {"is_reserved": 0, "type": "electric_scooter", "bike_id": "564bbc01243599099a2e2e2c06685afb", "lat": 38.89550916666666, "lon": -76.98340183333333, "rental_uris": {"android": "https://dc.lft.to/lastmile_qr_scan", "ios": "https://dc.lft.to/lastmile_qr_scan"}, "is_disabled": 0, "fusion_lat": 0.0, "name": "564bbc01243599099a2e2e2c06685afb", "fusion_lon": 0.0}, {"is_reserved": 0, "type": "electric_scooter", "bike_id": "831c264fde9af3f2f67f5c923e10ac25", "lat": 38.9518135, "lon": -77.01265133333334, "rental_uris": {"android": "https://dc.lft.to/lastmile_qr_scan", "ios": "https://dc.lft.to/lastmile_qr_scan"}, "is_disabled": 0, "fusion_lat": 0.0, "name": "831c264fde9af3f2f67f5c923e10ac25", "fusion_lon": 0.0}, {"is_reserved": 0, "type": "electric_scooter", "bike_id": "c9f0154e2a423e49df698bd819a2e8ee", "lat": 38.9097125, "lon": -77.01112683333334, "rental_uris": {"android": "https://dc.lft.to/lastmile_qr_scan", "ios": "https://dc.lft.to/lastmile_qr_scan"}, "is_disabled": 0, "fusion_lat": 0.0, "name": "c9f0154e2a423e49df698bd819a2e8ee", "fusion_lon": 0.0}, {"is_reserved": 0, "type": "electric_scooter", "bike_id": "cb843aa41e62fa0bb95877c0b0d236a2", "lat": 38.924179333333335, "lon": -77.02015583333333, "rental_uris": {"android": "https://dc.lft.to/lastmile_qr_scan", "ios": "https://dc.lft.to/lastmile_qr_scan"}, "is_disabled": 0, "fusion_lat": 0.0, "name": "cb843aa41e62fa0bb95877c0b0d236a2", "fusion_lon": 0.0}, {"is_reserved": 0, "type": "electric_bike", "bike_id": "8b5c0860cd91e943b4fc3fc680fb8620", "lat": 38.8588225, "lon": -77.09563683333333, "rental_uris": {"android": "https://dc.lft.to/lastmile_qr_scan", "ios": "https://dc.lft.to/lastmile_qr_scan"}, "is_disabled": 0, "fusion_lat": 0.0, "name": "8b5c0860cd91e943b4fc3fc680fb8620", "fusion_lon": 0.0}, {"is_reserved": 0, "type": "electric_scooter", "bike_id": "5f54c0a9aae0985565f11bb164b3f921", "lat": 38.89694466666667, "lon": -77.00498816666666, "rental_uris": {"android": "https://dc.lft.to/lastmile_qr_scan", "ios": "https://dc.lft.to/lastmile_qr_scan"}, "is_disabled": 0, "fusion_lat": 0.0, "name": "5f54c0a9aae0985565f11bb164b3f921", "fusion_lon": 0.0}, {"is_reserved": 0, "type": "electric_scooter", "bike_id": "c5adbee6253a76f19584dc493a972039", "lat": 38.922803, "lon": -77.021289, "rental_uris": {"android": "https://dc.lft.to/lastmile_qr_scan", "ios": "https://dc.lft.to/lastmile_qr_scan"}, "is_disabled": 0, "fusion_lat": 0.0, "name": "c5adbee6253a76f19584dc493a972039", "fusion_lon": 0.0}, {"is_reserved": 0, "type": "electric_scooter", "bike_id": "ec63e2acd33d1be264fa859b3274b454", "lat": 38.91536266666667, "lon": -77.0461575, "rental_uris": {"android": "https://dc.lft.to/lastmile_qr_scan", "ios": "https://dc.lft.to/lastmile_qr_scan"}, "is_disabled": 0, "fusion_lat": 0.0, "name": "ec63e2acd33d1be264fa859b3274b454", "fusion_lon": 0.0}, {"is_reserved": 0, "type": "electric_scooter", "bike_id": "3b5f583aa4882077dd7be4b8482660d0", "lat": 38.90195216666667, "lon": -76.93004316666666, "rental_uris": {"android": "https://dc.lft.to/lastmile_qr_scan", "ios": "https://dc.lft.to/lastmile_qr_scan"}, "is_disabled": 0, "fusion_lat": 0.0, "name": "3b5f583aa4882077dd7be4b8482660d0", "fusion_lon": 0.0}, {"is_reserved": 0, "type": "electric_scooter", "bike_id": "1a0134404a98dedd735785d320c6f546", "lat": 38.92378316666667, "lon": -77.0575475, "rental_uris": {"android": "https://dc.lft.to/lastmile_qr_scan", "ios": "https://dc.lft.to/lastmile_qr_scan"}, "is_disabled": 0, "fusion_lat": 0.0, "name": "1a0134404a98dedd735785d320c6f546", "fusion_lon": 0.0}, {"is_reserved": 0, "type": "electric_scooter", "bike_id": "de41c76e4dc7e0c652db600c80588c4d", "lat": 38.933592166666664, "lon": -77.02478716666667, "rental_uris": {"android": "https://dc.lft.to/lastmile_qr_scan", "ios": "https://dc.lft.to/lastmile_qr_scan"}, "is_disabled": 0, "fusion_lat": 0.0, "name": "de41c76e4dc7e0c652db600c80588c4d", "fusion_lon": 0.0}, {"is_reserved": 0, "type": "electric_scooter", "bike_id": "a1a90fabc7d1fbefb207418d78ac614f", "lat": 38.95330233333333, "lon": -77.06937916666666, "rental_uris": {"android": "https://dc.lft.to/lastmile_qr_scan", "ios": "https://dc.lft.to/lastmile_qr_scan"}, "is_disabled": 0, "fusion_lat": 0.0, "name": "a1a90fabc7d1fbefb207418d78ac614f", "fusion_lon": 0.0}, {"is_reserved": 0, "type": "electric_scooter", "bike_id": "46fae85f5cb06271b01224090e38000b", "lat": 38.92553866666667, "lon": -77.02269083333333, "rental_uris": {"android": "https://dc.lft.to/lastmile_qr_scan", "ios": "https://dc.lft.to/lastmile_qr_scan"}, "is_disabled": 0, "fusion_lat": 0.0, "name": "46fae85f5cb06271b01224090e38000b", "fusion_lon": 0.0}, {"is_reserved": 0, "type": "electric_scooter", "bike_id": "5377a76b1d29dad919c967ccb7e5e7df", "lat": 38.900635333333334, "lon": -77.04937716666667, "rental_uris": {"android": "https://dc.lft.to/lastmile_qr_scan", "ios": "https://dc.lft.to/lastmile_qr_scan"}, "is_disabled": 0, "fusion_lat": 0.0, "name": "5377a76b1d29dad919c967ccb7e5e7df", "fusion_lon": 0.0}, {"is_reserved": 0, "type": "electric_scooter", "bike_id": "ed44e8c8ef285f6fe5c46155197aac0d", "lat": 38.924203, "lon": -77.02011333333333, "rental_uris": {"android": "https://dc.lft.to/lastmile_qr_scan", "ios": "https://dc.lft.to/lastmile_qr_scan"}, "is_disabled": 0, "fusion_lat": 0.0, "name": "ed44e8c8ef285f6fe5c46155197aac0d", "fusion_lon": 0.0}, {"is_reserved": 0, "type": "electric_scooter", "bike_id": "136571c8ce854fbd5f96f06e4966930c", "lat": 38.97297866666667, "lon": -77.0362945, "rental_uris": {"android": "https://dc.lft.to/lastmile_qr_scan", "ios": "https://dc.lft.to/lastmile_qr_scan"}, "is_disabled": 0, "fusion_lat": 0.0, "name": "136571c8ce854fbd5f96f06e4966930c", "fusion_lon": 0.0}, {"is_reserved": 0, "type": "electric_scooter", "bike_id": "045fa535b938b2996500454a9bd49c71", "lat": 38.9149345, "lon": -77.0199655, "rental_uris": {"android": "https://dc.lft.to/lastmile_qr_scan", "ios": "https://dc.lft.to/lastmile_qr_scan"}, "is_disabled": 0, "fusion_lat": 0.0, "name": "045fa535b938b2996500454a9bd49c71", "fusion_lon": 0.0}, {"is_reserved": 0, "type": "electric_scooter", "bike_id": "2c1398c32d018dd518c6a720ccd2ec93", "lat": 38.897135666666664, "lon": -76.99120116666667, "rental_uris": {"android": "https://dc.lft.to/lastmile_qr_scan", "ios": "https://dc.lft.to/lastmile_qr_scan"}, "is_disabled": 0, "fusion_lat": 0.0, "name": "2c1398c32d018dd518c6a720ccd2ec93", "fusion_lon": 0.0}, {"is_reserved": 0, "type": "electric_scooter", "bike_id": "cea222459a2ba89183f877977e87eaf1", "lat": 38.936446833333335, "lon": -77.06010333333333, "rental_uris": {"android": "https://dc.lft.to/lastmile_qr_scan", "ios": "https://dc.lft.to/lastmile_qr_scan"}, "is_disabled": 0, "fusion_lat": 0.0, "name": "cea222459a2ba89183f877977e87eaf1", "fusion_lon": 0.0}, {"is_reserved": 0, "type": "electric_scooter", "bike_id": "6aa3b9337bee995f8d73107ec5f695ca", "lat": 38.923746666666666, "lon": -77.080542, "rental_uris": {"android": "https://dc.lft.to/lastmile_qr_scan", "ios": "https://dc.lft.to/lastmile_qr_scan"}, "is_disabled": 0, "fusion_lat": 0.0, "name": "6aa3b9337bee995f8d73107ec5f695ca", "fusion_lon": 0.0}, {"is_reserved": 0, "type": "electric_scooter", "bike_id": "e61c4e292629edd1d17b42754940bded", "lat": 38.917116666666665, "lon": -77.01077416666666, "rental_uris": {"android": "https://dc.lft.to/lastmile_qr_scan", "ios": "https://dc.lft.to/lastmile_qr_scan"}, "is_disabled": 0, "fusion_lat": 0.0, "name": "e61c4e292629edd1d17b42754940bded", "fusion_lon": 0.0}, {"is_reserved": 0, "type": "electric_scooter", "bike_id": "58d0c35ca10f08b32c752f5589ebd043", "lat": 38.92486366666667, "lon": -77.02815233333334, "rental_uris": {"android": "https://dc.lft.to/lastmile_qr_scan", "ios": "https://dc.lft.to/lastmile_qr_scan"}, "is_disabled": 0, "fusion_lat": 0.0, "name": "58d0c35ca10f08b32c752f5589ebd043", "fusion_lon": 0.0}, {"is_reserved": 0, "type": "electric_scooter", "bike_id": "eff6ff16e7fe0fe6e4d0e936d5bc93be", "lat": 38.91683733333333, "lon": -77.03198966666666, "rental_uris": {"android": "https://dc.lft.to/lastmile_qr_scan", "ios": "https://dc.lft.to/lastmile_qr_scan"}, "is_disabled": 0, "fusion_lat": 0.0, "name": "eff6ff16e7fe0fe6e4d0e936d5bc93be", "fusion_lon": 0.0}, {"is_reserved": 0, "type": "electric_scooter", "bike_id": "395bd1cea4c509dfd74ff8277d89bb63", "lat": 38.91720983333333, "lon": -77.03862316666667, "rental_uris": {"android": "https://dc.lft.to/lastmile_qr_scan", "ios": "https://dc.lft.to/lastmile_qr_scan"}, "is_disabled": 0, "fusion_lat": 0.0, "name": "395bd1cea4c509dfd74ff8277d89bb63", "fusion_lon": 0.0}, {"is_reserved": 0, "type": "electric_scooter", "bike_id": "5439f9c20ea04b6625593b5bbfe77d31", "lat": 38.864489666666664, "lon": -76.99113716666666, "rental_uris": {"android": "https://dc.lft.to/lastmile_qr_scan", "ios": "https://dc.lft.to/lastmile_qr_scan"}, "is_disabled": 0, "fusion_lat": 0.0, "name": "5439f9c20ea04b6625593b5bbfe77d31", "fusion_lon": 0.0}, {"is_reserved": 0, "type": "electric_scooter", "bike_id": "709006f957279d938062619d59ebb0e2", "lat": 38.92476966666667, "lon": -77.02998216666667, "rental_uris": {"android": "https://dc.lft.to/lastmile_qr_scan", "ios": "https://dc.lft.to/lastmile_qr_scan"}, "is_disabled": 0, "fusion_lat": 0.0, "name": "709006f957279d938062619d59ebb0e2", "fusion_lon": 0.0}, {"is_reserved": 0, "type": "electric_scooter", "bike_id": "2eb4eda75dcb7defdd9eb4119bfe8b7d", "lat": 38.91424883333333, "lon": -77.01802516666666, "rental_uris": {"android": "https://dc.lft.to/lastmile_qr_scan", "ios": "https://dc.lft.to/lastmile_qr_scan"}, "is_disabled": 0, "fusion_lat": 0.0, "name": "2eb4eda75dcb7defdd9eb4119bfe8b7d", "fusion_lon": 0.0}, {"is_reserved": 0, "type": "electric_scooter", "bike_id": "52d6c9dcb5dd936e506ae79f77795fda", "lat": 38.930258, "lon": -77.037921, "rental_uris": {"android": "https://dc.lft.to/lastmile_qr_scan", "ios": "https://dc.lft.to/lastmile_qr_scan"}, "is_disabled": 0, "fusion_lat": 0.0, "name": "52d6c9dcb5dd936e506ae79f77795fda", "fusion_lon": 0.0}, {"is_reserved": 0, "type": "electric_bike", "bike_id": "ac572918148764ee003505b4754ebe91", "lat": 39.094506, "lon": -77.13460416666666, "rental_uris": {"android": "https://dc.lft.to/lastmile_qr_scan", "ios": "https://dc.lft.to/lastmile_qr_scan"}, "is_disabled": 0, "fusion_lat": 0.0, "name": "ac572918148764ee003505b4754ebe91", "fusion_lon": 0.0}, {"is_reserved": 0, "type": "electric_scooter", "bike_id": "4cc89dab16c0fbbeb3186f60925cff05", "lat": 38.9193345, "lon": -77.03424533333333, "rental_uris": {"android": "https://dc.lft.to/lastmile_qr_scan", "ios": "https://dc.lft.to/lastmile_qr_scan"}, "is_disabled": 0, "fusion_lat": 0.0, "name": "4cc89dab16c0fbbeb3186f60925cff05", "fusion_lon": 0.0}, {"is_reserved": 0, "type": "electric_scooter", "bike_id": "b9858a995c00cc1d66a994343e2e32f8", "lat": 38.8764765, "lon": -77.007511, "rental_uris": {"android": "https://dc.lft.to/lastmile_qr_scan", "ios": "https://dc.lft.to/lastmile_qr_scan"}, "is_disabled": 0, "fusion_lat": 0.0, "name": "b9858a995c00cc1d66a994343e2e32f8", "fusion_lon": 0.0}, {"is_reserved": 0, "type": "electric_scooter", "bike_id": "93123abd3acdfc4e31b1e6d21900118f", "lat": 38.899131833333335, "lon": -76.93363016666666, "rental_uris": {"android": "https://dc.lft.to/lastmile_qr_scan", "ios": "https://dc.lft.to/lastmile_qr_scan"}, "is_disabled": 0, "fusion_lat": 0.0, "name": "93123abd3acdfc4e31b1e6d21900118f", "fusion_lon": 0.0}, {"is_reserved": 0, "type": "electric_scooter", "bike_id": "519a19f396e023070c0a17450a4866a0", "lat": 38.927252333333335, "lon": -77.03690416666667, "rental_uris": {"android": "https://dc.lft.to/lastmile_qr_scan", "ios": "https://dc.lft.to/lastmile_qr_scan"}, "is_disabled": 0, "fusion_lat": 0.0, "name": "519a19f396e023070c0a17450a4866a0", "fusion_lon": 0.0}, {"is_reserved": 0, "type": "electric_scooter", "bike_id": "168de843aa77c1980c9b6fe2546bccee", "lat": 38.852251833333334, "lon": -76.9942805, "rental_uris": {"android": "https://dc.lft.to/lastmile_qr_scan", "ios": "https://dc.lft.to/lastmile_qr_scan"}, "is_disabled": 0, "fusion_lat": 0.0, "name": "168de843aa77c1980c9b6fe2546bccee", "fusion_lon": 0.0}, {"is_reserved": 0, "type": "electric_scooter", "bike_id": "a4ff0af18444f9513af1e396f7cf78f3", "lat": 38.9214735, "lon": -77.044849, "rental_uris": {"android": "https://dc.lft.to/lastmile_qr_scan", "ios": "https://dc.lft.to/lastmile_qr_scan"}, "is_disabled": 0, "fusion_lat": 0.0, "name": "a4ff0af18444f9513af1e396f7cf78f3", "fusion_lon": 0.0}, {"is_reserved": 0, "type": "electric_scooter", "bike_id": "a817075efbecf1f400274e3525613266", "lat": 38.90612316666667, "lon": -77.0089785, "rental_uris": {"android": "https://dc.lft.to/lastmile_qr_scan", "ios": "https://dc.lft.to/lastmile_qr_scan"}, "is_disabled": 0, "fusion_lat": 0.0, "name": "a817075efbecf1f400274e3525613266", "fusion_lon": 0.0}, {"is_reserved": 0, "type": "electric_scooter", "bike_id": "ba8dae300a862649d25d75b9c8a05010", "lat": 38.904968833333335, "lon": -77.02949583333333, "rental_uris": {"android": "https://dc.lft.to/lastmile_qr_scan", "ios": "https://dc.lft.to/lastmile_qr_scan"}, "is_disabled": 0, "fusion_lat": 0.0, "name": "ba8dae300a862649d25d75b9c8a05010", "fusion_lon": 0.0}, {"is_reserved": 0, "type": "electric_scooter", "bike_id": "73b21f60dbbfe0cb36ce5bdb3d861331", "lat": 38.93893533333333, "lon": -77.03268366666667, "rental_uris": {"android": "https://dc.lft.to/lastmile_qr_scan", "ios": "https://dc.lft.to/lastmile_qr_scan"}, "is_disabled": 0, "fusion_lat": 0.0, "name": "73b21f60dbbfe0cb36ce5bdb3d861331", "fusion_lon": 0.0}, {"is_reserved": 0, "type": "electric_scooter", "bike_id": "2ab46438224e804e0787dcf006474387", "lat": 38.93617866666666, "lon": -77.03223166666666, "rental_uris": {"android": "https://dc.lft.to/lastmile_qr_scan", "ios": "https://dc.lft.to/lastmile_qr_scan"}, "is_disabled": 0, "fusion_lat": 0.0, "name": "2ab46438224e804e0787dcf006474387", "fusion_lon": 0.0}, {"is_reserved": 0, "type": "electric_scooter", "bike_id": "954f0f494521b68170a6ef3fdd3fe73b", "lat": 38.9140845, "lon": -77.032252, "rental_uris": {"android": "https://dc.lft.to/lastmile_qr_scan", "ios": "https://dc.lft.to/lastmile_qr_scan"}, "is_disabled": 0, "fusion_lat": 0.0, "name": "954f0f494521b68170a6ef3fdd3fe73b", "fusion_lon": 0.0}, {"is_reserved": 0, "type": "electric_scooter", "bike_id": "bf031f4a7ea2da2eaf01d9bc47789692", "lat": 38.873448, "lon": -76.99170966666667, "rental_uris": {"android": "https://dc.lft.to/lastmile_qr_scan", "ios": "https://dc.lft.to/lastmile_qr_scan"}, "is_disabled": 0, "fusion_lat": 0.0, "name": "bf031f4a7ea2da2eaf01d9bc47789692", "fusion_lon": 0.0},