{"data": {"bikes": [{"fusion_lat": 0.0, "lon": -77.01759733333333, "is_reserved": 0, "bike_id": "f165e66c1b38c1270ce43558e8289270", "fusion_lon": 0.0, "rental_uris": {"android": "https://dc.lft.to/lastmile_qr_scan", "ios": "https://dc.lft.to/lastmile_qr_scan"}, "name": "f165e66c1b38c1270ce43558e8289270", "type": "electric_scooter", "lat": 38.90381633333333, "is_disabled": 0}, {"fusion_lat": 0.0, "lon": -77.001166, "is_reserved": 0, "bike_id": "1544c69686e34d2888c157ac640f9823", "fusion_lon": 0.0, "rental_uris": {"android": "https://dc.lft.to/lastmile_qr_scan", "ios": "https://dc.lft.to/lastmile_qr_scan"}, "name": "1544c69686e34d2888c157ac640f9823", "type": "electric_scooter", "lat": 38.9050155, "is_disabled": 0}, {"fusion_lat": 0.0, "lon": -77.02108983333333, "is_reserved": 0, "bike_id": "8c2e07287ed6b489a2cd3e1dd7699b1f", "fusion_lon": 0.0, "rental_uris": {"android": "https://dc.lft.to/lastmile_qr_scan", "ios": "https://dc.lft.to/lastmile_qr_scan"}, "name": "8c2e07287ed6b489a2cd3e1dd7699b1f", "type": "electric_scooter", "lat": 38.89465166666667, "is_disabled": 0}, {"fusion_lat": 0.0, "lon": -77.043085, "is_reserved": 0, "bike_id": "32c200e282a1c29110bbabaabacacd40", "fusion_lon": 0.0, "rental_uris": {"android": "https://dc.lft.to/lastmile_qr_scan", "ios": "https://dc.lft.to/lastmile_qr_scan"}, "name": "32c200e282a1c29110bbabaabacacd40", "type": "electric_scooter", "lat": 38.923162, "is_disabled": 0}, {"fusion_lat": 0.0, "lon": -76.94614116666666, "is_reserved": 0, "bike_id": "c305f7e326a4e0ea6f99850b764b6c32", "fusion_lon": 0.0, "rental_uris": {"android": "https://dc.lft.to/lastmile_qr_scan", "ios": "https://dc.lft.to/lastmile_qr_scan"}, "name": "c305f7e326a4e0ea6f99850b764b6c32", "type": "electric_bike", "lat": 38.83236983333333, "is_disabled": 0}, {"fusion_lat": 0.0, "lon": -77.0326025, "is_reserved": 0, "bike_id": "b880313af7ed6048200889f6aa31e786", "fusion_lon": 0.0, "rental_uris": {"android": "https://dc.lft.to/lastmile_qr_scan", "ios": "https://dc.lft.to/lastmile_qr_scan"}, "name": "b880313af7ed6048200889f6aa31e786", "type": "electric_scooter", "lat": 38.927399666666666, "is_disabled": 0}, {"fusion_lat": 0.0, "lon": -76.99857433333334, "is_reserved": 0, "bike_id": "d6b405298c99fef2dab93188d03fa047", "fusion_lon": 0.0, "rental_uris": {"android": "https://dc.lft.to/lastmile_qr_scan", "ios": "https://dc.lft.to/lastmile_qr_scan"}, "name": "d6b405298c99fef2dab93188d03fa047", "type": "electric_scooter", "lat": 38.89414716666667, "is_disabled": 0}, {"fusion_lat": 0.0, "lon": -77.02454016666667, "is_reserved": 0, "bike_id": "3891b06908865ff2b29af9ff1622e62c", "fusion_lon": 0.0, "rental_uris": {"android": "https://dc.lft.to/lastmile_qr_scan", "ios": "https://dc.lft.to/lastmile_qr_scan"}, "name": "3891b06908865ff2b29af9ff1622e62c", "type": "electric_scooter", "lat": 38.89725983333334, "is_disabled": 0}, {"fusion_lat": 0.0, "lon": -77.0498015, "is_reserved": 0, "bike_id": "4c43bab00ff8865a50db2c48a5185530", "fusion_lon": 0.0, "rental_uris": {"android": "https://dc.lft.to/lastmile_qr_scan", "ios": "https://dc.lft.to/lastmile_qr_scan"}, "name": "4c43bab00ff8865a50db2c48a5185530", "type": "electric_bike", "lat": 39.062952833333334, "is_disabled": 0}, {"fusion_lat": 0.0, "lon": -77.043228, "is_reserved": 0, "bike_id": "eeb50242489472bde046cb506745c24e", "fusion_lon": 0.0, "rental_uris": {"android": "https://dc.lft.to/lastmile_qr_scan", "ios": "https://dc.lft.to/lastmile_qr_scan"}, "name": "eeb50242489472bde046cb506745c24e", "type": "electric_scooter", "lat": 38.89223666666667, "is_disabled": 0}, {"fusion_lat": 0.0, "lon": -77.03043033333333, "is_reserved": 0, "bike_id": "080fa23d837d2e6b6729473f07231650", "fusion_lon": 0.0, "rental_uris": {"android": "https://dc.lft.to/lastmile_qr_scan", "ios": "https://dc.lft.to/lastmile_qr_scan"}, "name": "080fa23d837d2e6b6729473f07231650", "type": "electric_scooter", "lat": 38.89824683333333, "is_disabled": 0}, {"fusion_lat": 0.0, "lon": -77.03282733333333, "is_reserved": 0, "bike_id": "9ba9f244bd75250bf40eaad4c8b3e9ab", "fusion_lon": 0.0, "rental_uris": {"android": "https://dc.lft.to/lastmile_qr_scan", "ios": "https://dc.lft.to/lastmile_qr_scan"}, "name": "9ba9f244bd75250bf40eaad4c8b3e9ab", "type": "electric_scooter", "lat": 38.956379, "is_disabled": 0}, {"fusion_lat": 0.0, "lon": -76.94248966666666, "is_reserved": 0, "bike_id": "e04c56434555e88808883954f1813c8d", "fusion_lon": 0.0, "rental_uris": {"android": "https://dc.lft.to/lastmile_qr_scan", "ios": "https://dc.lft.to/lastmile_qr_scan"}, "name": "e04c56434555e88808883954f1813c8d", "type": "electric_scooter", "lat": 38.89672816666667, "is_disabled": 0}, {"fusion_lat": 0.0, "lon": -77.013063, "is_reserved": 0, "bike_id": "0e2a5261fdbdb53722ddbfcd53b5e093", "fusion_lon": 0.0, "rental_uris": {"android": "https://dc.lft.to/lastmile_qr_scan", "ios": "https://dc.lft.to/lastmile_qr_scan"}, "name": "0e2a5261fdbdb53722ddbfcd53b5e093", "type": "electric_scooter", "lat": 38.91030933333333, "is_disabled": 0}, {"fusion_lat": 0.0, "lon": -77.07100083333333, "is_reserved": 0, "bike_id": "b671654cc60dca6e966ed09805739cda", "fusion_lon": 0.0, "rental_uris": {"android": "https://dc.lft.to/lastmile_qr_scan", "ios": "https://dc.lft.to/lastmile_qr_scan"}, "name": "b671654cc60dca6e966ed09805739cda", "type": "electric_scooter", "lat": 38.90778, "is_disabled": 0}, {"fusion_lat": 0.0, "lon": -77.0122095, "is_reserved": 0, "bike_id": "9f802418feec0274c244fa97487ac4a2", "fusion_lon": 0.0, "rental_uris": {"android": "https://dc.lft.to/lastmile_qr_scan", "ios": "https://dc.lft.to/lastmile_qr_scan"}, "name": "9f802418feec0274c244fa97487ac4a2", "type": "electric_scooter", "lat": 38.914335666666666, "is_disabled": 0}, {"fusion_lat": 0.0, "lon": -77.04684716666667, "is_reserved": 0, "bike_id": "2e313833d4dd67937b681d10fd1bad1c", "fusion_lon": 0.0, "rental_uris": {"android": "https://dc.lft.to/lastmile_qr_scan", "ios": "https://dc.lft.to/lastmile_qr_scan"}, "name": "2e313833d4dd67937b681d10fd1bad1c", "type": "electric_scooter", "lat": 38.921327, "is_disabled": 0}, {"fusion_lat": 0.0, "lon": -77.01760866666666, "is_reserved": 0, "bike_id": "cc5c5e608256fcf45dd4c5da36e21a1d", "fusion_lon": 0.0, "rental_uris": {"android": "https://dc.lft.to/lastmile_qr_scan", "ios": "https://dc.lft.to/lastmile_qr_scan"}, "name": "cc5c5e608256fcf45dd4c5da36e21a1d", "type": "electric_scooter", "lat": 38.8768925, "is_disabled": 0}, {"fusion_lat": 0.0, "lon": -77.017115, "is_reserved": 0, "bike_id": "4ac62ef425a7b99e0bd230e1ff1962a8", "fusion_lon": 0.0, "rental_uris": {"android": "https://dc.lft.to/lastmile_qr_scan", "ios": "https://dc.lft.to/lastmile_qr_scan"}, "name": "4ac62ef425a7b99e0bd230e1ff1962a8", "type": "electric_scooter", "lat": 38.9749515, "is_disabled": 0}, {"fusion_lat": 0.0, "lon": -77.038614, "is_reserved": 0, "bike_id": "5aed80f6c60bbba795e0e55b10b112ad", "fusion_lon": 0.0, "rental_uris": {"android": "https://dc.lft.to/lastmile_qr_scan", "ios": "https://dc.lft.to/lastmile_qr_scan"}, "name": "5aed80f6c60bbba795e0e55b10b112ad", "type": "electric_scooter", "lat": 38.93241166666667, "is_disabled": 0}, {"fusion_lat": 0.0, "lon": -77.0593315, "is_reserved": 0, "bike_id": "25c7c7a460f1cb1ab8205bf660458096", "fusion_lon": 0.0, "rental_uris": {"android": "https://dc.lft.to/lastmile_qr_scan", "ios": "https://dc.lft.to/lastmile_qr_scan"}, "name": "25c7c7a460f1cb1ab8205bf660458096", "type": "electric_bike", "lat": 38.905345, "is_disabled": 0}, {"fusion_lat": 0.0, "lon": -77.04373766666667, "is_reserved": 0, "bike_id": "2f75674aa4fc0c17e4a1485640dea157", "fusion_lon": 0.0, "rental_uris": {"android": "https://dc.lft.to/lastmile_qr_scan", "ios": "https://dc.lft.to/lastmile_qr_scan"}, "name": "2f75674aa4fc0c17e4a1485640dea157", "type": "electric_scooter", "lat": 38.892227166666665, "is_disabled": 0}, {"fusion_lat": 0.0, "lon": -77.03702883333334, "is_reserved": 0, "bike_id": "c0787cdf78724dc64f771418929c3956", "fusion_lon": 0.0, "rental_uris": {"android": "https://dc.lft.to/lastmile_qr_scan", "ios": "https://dc.lft.to/lastmile_qr_scan"}, "name": "c0787cdf78724dc64f771418929c3956", "type": "electric_scooter", "lat": 38.9263475, "is_disabled": 0}, {"fusion_lat": 0.0, "lon": -76.98395483333333, "is_reserved": 0, "bike_id": "5cec62d643317714991ece7bd3a9b339", "fusion_lon": 0.0, "rental_uris": {"android": "https://dc.lft.to/lastmile_qr_scan", "ios": "https://dc.lft.to/lastmile_qr_scan"}, "name": "5cec62d643317714991ece7bd3a9b339", "type": "electric_scooter", "lat": 38.86708633333333, "is_disabled": 0}, {"fusion_lat": 0.0, "lon": -77.05879816666666, "is_reserved": 0, "bike_id": "18517a70cfbe7cd5885a4d7429202543", "fusion_lon": 0.0, "rental_uris": {"android": "https://dc.lft.to/lastmile_qr_scan", "ios": "https://dc.lft.to/lastmile_qr_scan"}, "name": "18517a70cfbe7cd5885a4d7429202543", "type": "electric_scooter", "lat": 38.918216, "is_disabled": 0}, {"fusion_lat": 0.0, "lon": -77.00959066666667, "is_reserved": 0, "bike_id": "d405e39ea536a4ca24cd96903cc730d0", "fusion_lon": 0.0, "rental_uris": {"android": "https://dc.lft.to/lastmile_qr_scan", "ios": "https://dc.lft.to/lastmile_qr_scan"}, "name": "d405e39ea536a4ca24cd96903cc730d0", "type": "electric_scooter", "lat": 38.91708916666666, "is_disabled": 0}, {"fusion_lat": 0.0, "lon": -76.981134, "is_reserved": 0, "bike_id": "38c3cd14523f8d4244c380bbf7b50b34", "fusion_lon": 0.0, "rental_uris": {"android": "https://dc.lft.to/lastmile_qr_scan", "ios": "https://dc.lft.to/lastmile_qr_scan"}, "name": "38c3cd14523f8d4244c380bbf7b50b34", "type": "electric_scooter", "lat": 38.904195666666666, "is_disabled": 0}, {"fusion_lat": 0.0, "lon": -77.049983, "is_reserved": 0, "bike_id": "ec47e876d317508d759491630aa08649", "fusion_lon": 0.0, "rental_uris": {"android": "https://dc.lft.to/lastmile_qr_scan", "ios": "https://dc.lft.to/lastmile_qr_scan"}, "name": "ec47e876d317508d759491630aa08649", "type": "electric_scooter", "lat": 38.89228383333333, "is_disabled": 0}, {"fusion_lat": 0.0, "lon": -77.05012033333334, "is_reserved": 0, "bike_id": "8dad6e028066d08639d3db2182b7ec9d", "fusion_lon": 0.0, "rental_uris": {"android": "https://dc.lft.to/lastmile_qr_scan", "ios": "https://dc.lft.to/lastmile_qr_scan"}, "name": "8dad6e028066d08639d3db2182b7ec9d", "type": "electric_scooter", "lat": 38.902878, "is_disabled": 0}, {"fusion_lat": 0.0, "lon": -77.00734516666667, "is_reserved": 0, "bike_id": "3eaab40377daaa5b0c8b4e606dc3179a", "fusion_lon": 0.0, "rental_uris": {"android": "https://dc.lft.to/lastmile_qr_scan", "ios": "https://dc.lft.to/lastmile_qr_scan"}, "name": "3eaab40377daaa5b0c8b4e606dc3179a", "type": "electric_scooter", "lat": 38.925418, "is_disabled": 0}, {"fusion_lat": 0.0, "lon": -77.03635766666666, "is_reserved": 0, "bike_id": "3e9503bf48d4815b538b26e5c025f067", "fusion_lon": 0.0, "rental_uris": {"android": "https://dc.lft.to/lastmile_qr_scan", "ios": "https://dc.lft.to/lastmile_qr_scan"}, "name": "3e9503bf48d4815b538b26e5c025f067", "type": "electric_scooter", "lat": 38.922671333333334, "is_disabled": 0}, {"fusion_lat": 0.0, "lon": -77.02164133333333, "is_reserved": 0, "bike_id": "fb5b558e2b8163885180d5ffba2b2de6", "fusion_lon": 0.0, "rental_uris": {"android": "https://dc.lft.to/lastmile_qr_scan", "ios": "https://dc.lft.to/lastmile_qr_scan"}, "name": "fb5b558e2b8163885180d5ffba2b2de6", "type": "electric_scooter", "lat": 38.9161075, "is_disabled": 0}, {"fusion_lat": 0.0, "lon": -76.9495005, "is_reserved": 0, "bike_id": "5b5aa5c2f2356acb7544da0b0a4bd114", "fusion_lon": 0.0, "rental_uris": {"android": "https://dc.lft.to/lastmile_qr_scan", "ios": "https://dc.lft.to/lastmile_qr_scan"}, "name": "5b5aa5c2f2356acb7544da0b0a4bd114", "type": "electric_scooter", "lat": 38.90495216666667, "is_disabled": 0}, {"fusion_lat": 0.0, "lon": -76.987972, "is_reserved": 0, "bike_id": "efaf7ceff0405f33bab55e14c91fbe0b", "fusion_lon": 0.0, "rental_uris": {"android": "https://dc.lft.to/lastmile_qr_scan", "ios": "https://dc.lft.to/lastmile_qr_scan"}, "name": "efaf7ceff0405f33bab55e14c91fbe0b", "type": "electric_bike", "lat": 38.90609466666667, "is_disabled": 0}, {"fusion_lat": 0.0, "lon": -77.0018695, "is_reserved": 0, "bike_id": "38cf3ff863f9ab2871da99770a6d955c", "fusion_lon": 0.0, "rental_uris": {"android": "https://dc.lft.to/lastmile_qr_scan", "ios": "https://dc.lft.to/lastmile_qr_scan"}, "name": "38cf3ff863f9ab2871da99770a6d955c", "type": "electric_scooter", "lat": 38.90379083333333, "is_disabled": 0}, {"fusion_lat": 0.0, "lon": -77.03130366666667, "is_reserved": 0, "bike_id": "d908b17a3ce9f48af7a3811ce70233f2", "fusion_lon": 0.0, "rental_uris": {"android": "https://dc.lft.to/lastmile_qr_scan", "ios": "https://dc.lft.to/lastmile_qr_scan"}, "name": "d908b17a3ce9f48af7a3811ce70233f2", "type": "electric_scooter", "lat": 38.914961, "is_disabled": 0}, {"fusion_lat": 0.0, "lon": -76.9575555, "is_reserved": 0, "bike_id": "141703161dccbe22bef40c9fe0a268a8", "fusion_lon": 0.0, "rental_uris": {"android": "https://dc.lft.to/lastmile_qr_scan", "ios": "https://dc.lft.to/lastmile_qr_scan"}, "name": "141703161dccbe22bef40c9fe0a268a8", "type": "electric_scooter", "lat": 38.8843005, "is_disabled": 0}, {"fusion_lat": 0.0, "lon": -77.04708583333333, "is_reserved": 0, "bike_id": "589f7aa75a8ded049e9a86471da8db09", "fusion_lon": 0.0, "rental_uris": {"android": "https://dc.lft.to/lastmile_qr_scan", "ios": "https://dc.lft.to/lastmile_qr_scan"}, "name": "589f7aa75a8ded049e9a86471da8db09", "type": "electric_scooter", "lat": 38.92231733333333, "is_disabled": 0}, {"fusion_lat": 0.0, "lon": -76.95128233333334, "is_reserved": 0, "bike_id": "c8f93e5c67948ccc0e5ca7cfbe31352d", "fusion_lon": 0.0, "rental_uris": {"android": "https://dc.lft.to/lastmile_qr_scan", "ios": "https://dc.lft.to/lastmile_qr_scan"}, "name": "c8f93e5c67948ccc0e5ca7cfbe31352d", "type": "electric_scooter", "lat": 38.89029033333333, "is_disabled": 0}, {"fusion_lat": 0.0, "lon": -77.00202183333333, "is_reserved": 0, "bike_id": "8f23b80ab643bce8caeef058288c7948", "fusion_lon": 0.0, "rental_uris": {"android": "https://dc.lft.to/lastmile_qr_scan", "ios": "https://dc.lft.to/lastmile_qr_scan"}, "name": "8f23b80ab643bce8caeef058288c7948", "type": "electric_scooter", "lat": 38.89539333333333, "is_disabled": 0}, {"fusion_lat": 0.0, "lon": -77.02940766666667, "is_reserved": 0, "bike_id": "dc78a8ed3d1ff67a7625d35386bc6a88", "fusion_lon": 0.0, "rental_uris": {"android": "https://dc.lft.to/lastmile_qr_scan", "ios": "https://dc.lft.to/lastmile_qr_scan"}, "name": "dc78a8ed3d1ff67a7625d35386bc6a88", "type": "electric_scooter", "lat": 38.91404433333334, "is_disabled": 0}, {"fusion_lat": 0.0, "lon": -77.0629245, "is_reserved": 0, "bike_id": "3cf5a7238963aa5bc3793bd97f21ca97", "fusion_lon": 0.0, "rental_uris": {"android": "https://dc.lft.to/lastmile_qr_scan", "ios": "https://dc.lft.to/lastmile_qr_scan"}, "name": "3cf5a7238963aa5bc3793bd97f21ca97", "type": "electric_scooter", "lat": 38.9434785, "is_disabled": 0}, {"fusion_lat": 0.0, "lon": -77.003747, "is_reserved": 0, "bike_id": "ca9bb360242485cdc4c788b8ce925f5e", "fusion_lon": 0.0, "rental_uris": {"android": "https://dc.lft.to/lastmile_qr_scan", "ios": "https://dc.lft.to/lastmile_qr_scan"}, "name": "ca9bb360242485cdc4c788b8ce925f5e", "type": "electric_scooter", "lat": 38.89729, "is_disabled": 0}, {"fusion_lat": 0.0, "lon": -77.02695966666667, "is_reserved": 0, "bike_id": "8e48a17eb0d43a3c5b4b948e64e4e719", "fusion_lon": 0.0, "rental_uris": {"android": "https://dc.lft.to/lastmile_qr_scan", "ios": "https://dc.lft.to/lastmile_qr_scan"}, "name": "8e48a17eb0d43a3c5b4b948e64e4e719", "type": "electric_scooter", "lat": 38.9233355, "is_disabled": 0}, {"fusion_lat": 0.0, "lon": -77.03334633333333, "is_reserved": 0, "bike_id": "d70ec68ca59a8abe4b85438b3264fc6d", "fusion_lon": 0.0, "rental_uris": {"android": "https://dc.lft.to/lastmile_qr_scan", "ios": "https://dc.lft.to/lastmile_qr_scan"}, "name": "d70ec68ca59a8abe4b85438b3264fc6d", "type": "electric_scooter", "lat": 38.9171865, "is_disabled": 0}, {"fusion_lat": 0.0, "lon": -76.986856, "is_reserved": 0, "bike_id": "f34cfc4f1d496298aaf778f64d3fd5b8", "fusion_lon": 0.0, "rental_uris": {"android": "https://dc.lft.to/lastmile_qr_scan", "ios": "https://dc.lft.to/lastmile_qr_scan"}, "name": "f34cfc4f1d496298aaf778f64d3fd5b8", "type": "electric_scooter", "lat": 38.86253216666667, "is_disabled": 0}, {"fusion_lat": 0.0, "lon": -77.04324933333334, "is_reserved": 0, "bike_id": "4f94d5fd5b76061209e71469869129ea", "fusion_lon": 0.0, "rental_uris": {"android": "https://dc.lft.to/lastmile_qr_scan", "ios": "https://dc.lft.to/lastmile_qr_scan"}, "name": "4f94d5fd5b76061209e71469869129ea", "type": "electric_scooter", "lat": 38.89225916666667, "is_disabled": 0}, {"fusion_lat": 0.0, "lon": -77.03273483333334, "is_reserved": 0, "bike_id": "dc7b346dbab657b5a8e5d436130d4bcf", "fusion_lon": 0.0, "rental_uris": {"android": "https://dc.lft.to/lastmile_qr_scan", "ios": "https://dc.lft.to/lastmile_qr_scan"}, "name": "dc7b346dbab657b5a8e5d436130d4bcf", "type": "electric_scooter", "lat": 38.90274333333333, "is_disabled": 0}, {"fusion_lat": 0.0, "lon": -77.00293366666666, "is_reserved": 0, "bike_id": "603c80f93592772398a57591b0e5215d", "fusion_lon": 0.0, "rental_uris": {"android": "https://dc.lft.to/lastmile_qr_scan", "ios": "https://dc.lft.to/lastmile_qr_scan"}, "name": "603c80f93592772398a57591b0e5215d", "type": "electric_scooter", "lat": 38.89488883333333, "is_disabled": 0}, {"fusion_lat": 0.0, "lon": -76.97332416666667, "is_reserved": 0, "bike_id": "4807270a1554b56c0b27fc91d558697b", "fusion_lon": 0.0, "rental_uris": {"android": "https://dc.lft.to/lastmile_qr_scan", "ios": "https://dc.lft.to/lastmile_qr_scan"}, "name": "4807270a1554b56c0b27fc91d558697b", "type": "electric_scooter", "lat": 38.90409066666667, "is_disabled": 0}, {"fusion_lat": 0.0, "lon": -77.031755, "is_reserved": 0, "bike_id": "16dbf4a2a11d6dd6e5e52366b4304cad", "fusion_lon": 0.0, "rental_uris": {"android": "https://dc.lft.to/lastmile_qr_scan", "ios": "https://dc.lft.to/lastmile_qr_scan"}, "name": "16dbf4a2a11d6dd6e5e52366b4304cad", "type": "electric_scooter", "lat": 38.911798, "is_disabled": 0}, {"fusion_lat": 0.0, "lon": -77.00041116666667, "is_reserved": 0, "bike_id": "0585088b9fbb8738014160ae9d398f4d", "fusion_lon": 0.0, "rental_uris": {"android": "https://dc.lft.to/lastmile_qr_scan", "ios": "https://dc.lft.to/lastmile_qr_scan"}, "name": "0585088b9fbb8738014160ae9d398f4d", "type": "electric_scooter", "lat": 38.90019066666667, "is_disabled": 0}, {"fusion_lat": 0.0, "lon": -76.9936125, "is_reserved": 0, "bike_id": "8e9bd066d4ebc4d11acbab2db7bdcb74", "fusion_lon": 0.0, "rental_uris": {"android": "https://dc.lft.to/lastmile_qr_scan", "ios": "https://dc.lft.to/lastmile_qr_scan"}, "name": "8e9bd066d4ebc4d11acbab2db7bdcb74", "type": "electric_scooter", "lat": 38.9283825, "is_disabled": 0}, {"fusion_lat": 0.0, "lon": -77.030604, "is_reserved": 0, "bike_id": "fb3ec725ed6d53cdae623711045ac18e", "fusion_lon": 0.0, "rental_uris": {"android": "https://dc.lft.to/lastmile_qr_scan", "ios": "https://dc.lft.to/lastmile_qr_scan"}, "name": "fb3ec725ed6d53cdae623711045ac18e", "type": "electric_scooter", "lat": 38.922429666666666, "is_disabled": 0}, {"fusion_lat": 0.0, "lon": -77.03547, "is_reserved": 0, "bike_id": "f4cde48265bb7147489203f9a6c93d3b", "fusion_lon": 0.0, "rental_uris": {"android": "https://dc.lft.to/lastmile_qr_scan", "ios": "https://dc.lft.to/lastmile_qr_scan"}, "name": "f4cde48265bb7147489203f9a6c93d3b", "type": "electric_scooter", "lat": 38.91715333333333, "is_disabled": 0}, {"fusion_lat": 0.0, "lon": -77.03860766666666, "is_reserved": 0, "bike_id": "78eceab779043ccd8d5ab0d96295a894", "fusion_lon": 0.0, "rental_uris": {"android": "https://dc.lft.to/lastmile_qr_scan", "ios": "https://dc.lft.to/lastmile_qr_scan"}, "name": "78eceab779043ccd8d5ab0d96295a894", "type": "electric_scooter", "lat": 38.90788116666667, "is_disabled": 0}, {"fusion_lat": 0.0, "lon": -77.0304905, "is_reserved": 0, "bike_id": "db1e323d6f63f8dd3ef2e74aae21e841", "fusion_lon": 0.0, "rental_uris": {"android": "https://dc.lft.to/lastmile_qr_scan", "ios": "https://dc.lft.to/lastmile_qr_scan"}, "name": "db1e323d6f63f8dd3ef2e74aae21e841", "type": "electric_scooter", "lat": 38.884104666666666, "is_disabled": 0}, {"fusion_lat": 0.0, "lon": -77.03079133333334, "is_reserved": 0, "bike_id": "6d4b3e8e96608e33a5fdc3baa5798f2b", "fusion_lon": 0.0, "rental_uris": {"android": "https://dc.lft.to/lastmile_qr_scan", "ios": "https://dc.lft.to/lastmile_qr_scan"}, "name": "6d4b3e8e96608e33a5fdc3baa5798f2b", "type": "electric_scooter", "lat": 38.923835, "is_disabled": 0}, {"fusion_lat": 0.0, "lon": -77.046928, "is_reserved": 0, "bike_id": "afe352676e01127baba293d32469bd7b", "fusion_lon": 0.0, "rental_uris": {"android": "https://dc.lft.to/lastmile_qr_scan", "ios": "https://dc.lft.to/lastmile_qr_scan"}, "name": "afe352676e01127baba293d32469bd7b", "type": "electric_scooter", "lat": 38.921657833333335, "is_disabled": 0}, {"fusion_lat": 0.0, "lon": -76.995498, "is_reserved": 0, "bike_id": "3cbf7a041113b6daeac3d474b31d45e9", "fusion_lon": 0.0, "rental_uris": {"android": "https://dc.lft.to/lastmile_qr_scan", "ios": "https://dc.lft.to/lastmile_qr_scan"}, "name": "3cbf7a041113b6daeac3d474b31d45e9", "type": "electric_scooter", "lat": 38.8625975, "is_disabled": 0}, {"fusion_lat": 0.0, "lon": -77.00040166666666, "is_reserved": 0, "bike_id": "cae9d4ae59d3a7b656a2df51927ae761", "fusion_lon": 0.0, "rental_uris": {"android": "https://dc.lft.to/lastmile_qr_scan", "ios": "https://dc.lft.to/lastmile_qr_scan"}, "name": "cae9d4ae59d3a7b656a2df51927ae761", "type": "electric_scooter", "lat": 38.89641016666667, "is_disabled": 0}, {"fusion_lat": 0.0, "lon": -77.02457233333334, "is_reserved": 0, "bike_id": "d75fb795465a453ad87df7dbcbea92a1", "fusion_lon": 0.0, "rental_uris": {"android": "https://dc.lft.to/lastmile_qr_scan", "ios": "https://dc.lft.to/lastmile_qr_scan"}, "name": "d75fb795465a453ad87df7dbcbea92a1", "type": "electric_scooter", "lat": 38.900028666666664, "is_disabled": 0}, {"fusion_lat": 0.0, "lon": -77.00853333333333, "is_reserved": 0, "bike_id": "1adb319fa85cc3abd058c25e9017bc23", "fusion_lon": 0.0, "rental_uris": {"android": "https://dc.lft.to/lastmile_qr_scan", "ios": "https://dc.lft.to/lastmile_qr_scan"}, "name": "1adb319fa85cc3abd058c25e9017bc23", "type": "electric_scooter", "lat": 38.912164833333335, "is_disabled": 0}, {"fusion_lat": 0.0, "lon": -77.0086425, "is_reserved": 0, "bike_id": "91c7c38e786baefc96d44efe383cffaf", "fusion_lon": 0.0, "rental_uris": {"android": "https://dc.lft.to/lastmile_qr_scan", "ios": "https://dc.lft.to/lastmile_qr_scan"}, "name": "91c7c38e786baefc96d44efe383cffaf", "type": "electric_scooter", "lat": 38.906658666666665, "is_disabled": 0}, {"fusion_lat": 0.0, "lon": -76.99453283333334, "is_reserved": 0, "bike_id": "7e01f331e015f87e05ee8a68789220fd", "fusion_lon": 0.0, "rental_uris": {"android": "https://dc.lft.to/lastmile_qr_scan", "ios": "https://dc.lft.to/lastmile_qr_scan"}, "name": "7e01f331e015f87e05ee8a68789220fd", "type": "electric_bike", "lat": 38.96620566666667, "is_disabled": 0}, {"fusion_lat": 0.0, "lon": -77.0865415, "is_reserved": 0, "bike_id": "e7ef8c61c72b182c463cc54e27add040", "fusion_lon": 0.0, "rental_uris": {"android": "https://dc.lft.to/lastmile_qr_scan", "ios": "https://dc.lft.to/lastmile_qr_scan"}, "name": "e7ef8c61c72b182c463cc54e27add040", "type": "electric_bike", "lat": 38.862446, "is_disabled": 0}, {"fusion_lat": 0.0, "lon": -77.013153, "is_reserved": 0, "bike_id": "70f68c1d21ee088e4ca555d7caadd4f4", "fusion_lon": 0.0, "rental_uris": {"android": "https://dc.lft.to/lastmile_qr_scan", "ios": "https://dc.lft.to/lastmile_qr_scan"}, "name": "70f68c1d21ee088e4ca555d7caadd4f4", "type": "electric_scooter", "lat": 38.871561, "is_disabled": 0}, {"fusion_lat": 0.0, "lon": -77.0279705, "is_reserved": 0, "bike_id": "aaafa3a4fd7e085fc8a1790bf1c3842b", "fusion_lon": 0.0, "rental_uris": {"android": "https://dc.lft.to/lastmile_qr_scan", "ios": "https://dc.lft.to/lastmile_qr_scan"}, "name": "aaafa3a4fd7e085fc8a1790bf1c3842b", "type": "electric_scooter", "lat": 38.89229683333333, "is_disabled": 0}, {"fusion_lat": 0.0, "lon": -77.017642, "is_reserved": 0, "bike_id": "e72b736db584611a433da644cf812ca7", "fusion_lon": 0.0, "rental_uris": {"android": "https://dc.lft.to/lastmile_qr_scan", "ios": "https://dc.lft.to/lastmile_qr_scan"}, "name": "e72b736db584611a433da644cf812ca7", "type": "electric_scooter", "lat": 38.88323716666667, "is_disabled": 0}, {"fusion_lat": 0.0, "lon": -77.04302283333334, "is_reserved": 0, "bike_id": "4e132662c23b6ee6ad6012628a0a58e5", "fusion_lon": 0.0, "rental_uris": {"android": "https://dc.lft.to/lastmile_qr_scan", "ios": "https://dc.lft.to/lastmile_qr_scan"}, "name": "4e132662c23b6ee6ad6012628a0a58e5", "type": "electric_scooter", "lat": 38.92328533333333, "is_disabled": 0}, {"fusion_lat": 0.0, "lon": -77.03484883333333, "is_reserved": 0, "bike_id": "a21399fe9498f4da3019d33195ce2aec", "fusion_lon": 0.0, "rental_uris": {"android": "https://dc.lft.to/lastmile_qr_scan", "ios": "https://dc.lft.to/lastmile_qr_scan"}, "name": "a21399fe9498f4da3019d33195ce2aec", "type": "electric_scooter", "lat": 38.925285333333335, "is_disabled": 0}, {"fusion_lat": 0.0, "lon": -77.0386145, "is_reserved": 0, "bike_id": "b863d232ecbf62913a028e7aa1e88e1c", "fusion_lon": 0.0, "rental_uris": {"android": "https://dc.lft.to/lastmile_qr_scan", "ios": "https://dc.lft.to/lastmile_qr_scan"}, "name": "b863d232ecbf62913a028e7aa1e88e1c", "type": "electric_scooter", "lat": 38.90792283333333, "is_disabled": 0}, {"fusion_lat": 0.0, "lon": -77.00374816666667, "is_reserved": 0, "bike_id": "d8ecfc6badae513ff56442f50de25789", "fusion_lon": 0.0, "rental_uris": {"android": "https://dc.lft.to/lastmile_qr_scan", "ios": "https://dc.lft.to/lastmile_qr_scan"}, "name": "d8ecfc6badae513ff56442f50de25789", "type": "electric_scooter", "lat": 38.897319333333336, "is_disabled": 0}, {"fusion_lat": 0.0, "lon": -77.02851683333333, "is_reserved": 0, "bike_id": "02c0ff085fc6b8bdace1d9b6579cbf8e", "fusion_lon": 0.0, "rental_uris": {"android": "https://dc.lft.to/lastmile_qr_scan", "ios": "https://dc.lft.to/lastmile_qr_scan"}, "name": "02c0ff085fc6b8bdace1d9b6579cbf8e", "type": "electric_scooter", "lat": 38.9116765, "is_disabled": 0}, {"fusion_lat": 0.0, "lon": -77.0019885, "is_reserved": 0, "bike_id": "51a71607995c55d3d6ba679bea246d5e", "fusion_lon": 0.0, "rental_uris": {"android": "https://dc.lft.to/lastmile_qr_scan", "ios": "https://dc.lft.to/lastmile_qr_scan"}, "name": "51a71607995c55d3d6ba679bea246d5e", "type": "electric_scooter", "lat": 38.9024055, "is_disabled": 0}, {"fusion_lat": 0.0, "lon": -77.01009633333334, "is_reserved": 0, "bike_id": "c0735ddd0a416b9e483fae76491a5c9b", "fusion_lon": 0.0, "rental_uris": {"android": "https://dc.lft.to/lastmile_qr_scan", "ios": "https://dc.lft.to/lastmile_qr_scan"}, "name": "c0735ddd0a416b9e483fae76491a5c9b", "type": "electric_bike", "lat": 38.87962683333333, "is_disabled": 0}, {"fusion_lat": 0.0, "lon": -77.05422066666667, "is_reserved": 0, "bike_id": "1de645e8925fa1b3885d0f7723d727ea", "fusion_lon": 0.0, "rental_uris": {"android": "https://dc.lft.to/lastmile_qr_scan", "ios": "https://dc.lft.to/lastmile_qr_scan"}, "name": "1de645e8925fa1b3885d0f7723d727ea", "type": "electric_scooter", "lat": 38.9234925, "is_disabled": 0}, {"fusion_lat": 0.0, "lon": -77.04246883333333, "is_reserved": 0, "bike_id": "615b2a13372997261290db3bb6307436", "fusion_lon": 0.0, "rental_uris": {"android": "https://dc.lft.to/lastmile_qr_scan", "ios": "https://dc.lft.to/lastmile_qr_scan"}, "name": "615b2a13372997261290db3bb6307436", "type": "electric_scooter", "lat": 38.9064085, "is_disabled": 0}, {"fusion_lat": 0.0, "lon": -77.02103483333333, "is_reserved": 0, "bike_id": "8322e57df0bb92073c266933e31ac3e9", "fusion_lon": 0.0, "rental_uris": {"android": "https://dc.lft.to/lastmile_qr_scan", "ios": "https://dc.lft.to/lastmile_qr_scan"}, "name": "8322e57df0bb92073c266933e31ac3e9", "type": "electric_scooter", "lat": 38.91428583333333, "is_disabled": 0}, {"fusion_lat": 0.0, "lon": -77.0288585, "is_reserved": 0, "bike_id": "564605ae33dfe4e557711eadade14579", "fusion_lon": 0.0, "rental_uris": {"android": "https://dc.lft.to/lastmile_qr_scan", "ios": "https://dc.lft.to/lastmile_qr_scan"}, "name": "564605ae33dfe4e557711eadade14579", "type": "electric_scooter", "lat": 38.90321383333333, "is_disabled": 0}, {"fusion_lat": 0.0, "lon": -77.04662, "is_reserved": 0, "bike_id": "39576b5f9531c4392c2311dcaefe0663", "fusion_lon": 0.0, "rental_uris": {"android": "https://dc.lft.to/lastmile_qr_scan", "ios": "https://dc.lft.to/lastmile_qr_scan"}, "name": "39576b5f9531c4392c2311dcaefe0663", "type": "electric_scooter", "lat": 38.913379666666664, "is_disabled": 0}, {"fusion_lat": 0.0, "lon": -77.01983983333334, "is_reserved": 0, "bike_id": "18e9b3979527189b19b093c827f9a86a", "fusion_lon": 0.0, "rental_uris": {"android": "https://dc.lft.to/lastmile_qr_scan", "ios": "https://dc.lft.to/lastmile_qr_scan"}, "name": "18e9b3979527189b19b093c827f9a86a", "type": "electric_scooter", "lat": 38.914349666666666, "is_disabled": 0}, {"fusion_lat": 0.0, "lon": -77.024938, "is_reserved": 0, "bike_id": "970a345ac543ecd0a865ea3b1687c94e", "fusion_lon": 0.0, "rental_uris": {"android": "https://dc.lft.to/lastmile_qr_scan", "ios": "https://dc.lft.to/lastmile_qr_scan"}, "name": "970a345ac543ecd0a865ea3b1687c94e", "type": "electric_scooter", "lat": 38.938726, "is_disabled": 0}, {"fusion_lat": 0.0, "lon": -77.04071916666666, "is_reserved": 0, "bike_id": "56628384ec8c932c4c608e671d98d212", "fusion_lon": 0.0, "rental_uris": {"android": "https://dc.lft.to/lastmile_qr_scan", "ios": "https://dc.lft.to/lastmile_qr_scan"}, "name": "56628384ec8c932c4c608e671d98d212", "type": "electric_scooter", "lat": 38.91706833333333, "is_disabled": 0}, {"fusion_lat": 0.0, "lon": -77.02735316666667, "is_reserved": 0, "bike_id": "f4e7444f961311131fac984778373df5", "fusion_lon": 0.0, "rental_uris": {"android": "https://dc.lft.to/lastmile_qr_scan", "ios": "https://dc.lft.to/lastmile_qr_scan"}, "name": "f4e7444f961311131fac984778373df5", "type": "electric_scooter", "lat": 38.9240535, "is_disabled": 0}, {"fusion_lat": 0.0, "lon": -77.02689583333333, "is_reserved": 0, "bike_id": "d15c92f0e3d552d519f311d253d81088", "fusion_lon": 0.0, "rental_uris": {"android": "https://dc.lft.to/lastmile_qr_scan", "ios": "https://dc.lft.to/lastmile_qr_scan"}, "name": "d15c92f0e3d552d519f311d253d81088", "type": "electric_scooter", "lat": 38.912508833333334, "is_disabled": 0}, {"fusion_lat": 0.0, "lon": -77.03480333333333, "is_reserved": 0, "bike_id": "c1331aa23053ce77d02b57506e0f192f", "fusion_lon": 0.0, "rental_uris": {"android": "https://dc.lft.to/lastmile_qr_scan", "ios": "https://dc.lft.to/lastmile_qr_scan"}, "name": "c1331aa23053ce77d02b57506e0f192f", "type": "electric_scooter", "lat": 38.93277066666667, "is_disabled": 0}, {"fusion_lat": 0.0, "lon": -77.03049433333334, "is_reserved": 0, "bike_id": "53ef1481c7ae377e98db15e3fd596eeb", "fusion_lon": 0.0, "rental_uris": {"android": "https://dc.lft.to/lastmile_qr_scan", "ios": "https://dc.lft.to/lastmile_qr_scan"}, "name": "53ef1481c7ae377e98db15e3fd596eeb", "type": "electric_scooter", "lat": 38.923725, "is_disabled": 0}, {"fusion_lat": 0.0, "lon": -77.0074675, "is_reserved": 0, "bike_id": "871e68d0b6824f75d814684106d439b0", "fusion_lon": 0.0, "rental_uris": {"android": "https://dc.lft.to/lastmile_qr_scan", "ios": "https://dc.lft.to/lastmile_qr_scan"}, "name": "871e68d0b6824f75d814684106d439b0", "type": "electric_scooter", "lat": 38.90374533333333, "is_disabled": 0}, {"fusion_lat": 0.0, "lon": -77.01899883333333, "is_reserved": 0, "bike_id": "40f53e5e230216b416befc80fd6a3358", "fusion_lon": 0.0, "rental_uris": {"android": "https://dc.lft.to/lastmile_qr_scan", "ios": "https://dc.lft.to/lastmile_qr_scan"}, "name": "40f53e5e230216b416befc80fd6a3358", "type": "electric_scooter", "lat": 38.94122216666667, "is_disabled": 0}, {"fusion_lat": 0.0, "lon": -77.043236, "is_reserved": 0, "bike_id": "efba3420419c38ceb55ba71c2528c82f", "fusion_lon": 0.0, "rental_uris": {"android": "https://dc.lft.to/lastmile_qr_scan", "ios": "https://dc.lft.to/lastmile_qr_scan"}, "name": "efba3420419c38ceb55ba71c2528c82f", "type": "electric_scooter", "lat": 38.902235, "is_disabled": 0}, {"fusion_lat": 0.0, "lon": -77.054145, "is_reserved": 0, "bike_id": "2f9bd7909d1e9ab3dc56dd57f94bde23", "fusion_lon": 0.0, "rental_uris": {"android": "https://dc.lft.to/lastmile_qr_scan", "ios": "https://dc.lft.to/lastmile_qr_scan"}, "name": "2f9bd7909d1e9ab3dc56dd57f94bde23", "type": "electric_scooter", "lat": 38.9024305, "is_disabled": 0}, {"fusion_lat": 0.0, "lon": -76.93366916666666, "is_reserved": 0, "bike_id": "b43047a655c84ce16a6e105fb0667ad7", "fusion_lon": 0.0, "rental_uris": {"android": "https://dc.lft.to/lastmile_qr_scan", "ios": "https://dc.lft.to/lastmile_qr_scan"}, "name": "b43047a655c84ce16a6e105fb0667ad7", "type": "electric_scooter", "lat": 38.89913683333333, "is_disabled": 0}, {"fusion_lat": 0.0, "lon": -76.9883205, "is_reserved": 0, "bike_id": "4b916b35e444145cc8c3408e26820866", "fusion_lon": 0.0, "rental_uris": {"android": "https://dc.lft.to/lastmile_qr_scan", "ios": "https://dc.lft.to/lastmile_qr_scan"}, "name": "4b916b35e444145cc8c3408e26820866", "type": "electric_scooter", "lat": 38.892458833333336, "is_disabled": 0}, {"fusion_lat": 0.0, "lon": -76.994783, "is_reserved": 0, "bike_id": "10ccf339513fbaa63766143b316b4bb3", "fusion_lon": 0.0, "rental_uris": {"android": "https://dc.lft.to/lastmile_qr_scan", "ios": "https://dc.lft.to/lastmile_qr_scan"}, "name": "10ccf339513fbaa63766143b316b4bb3", "type": "electric_scooter", "lat": 38.862149, "is_disabled": 0}, {"fusion_lat": 0.0, "lon": -77.02184, "is_reserved": 0, "bike_id": "d8a156894e4083bba76ad7d2a5d93ba8", "fusion_lon": 0.0, "rental_uris": {"android": "https://dc.lft.to/lastmile_qr_scan", "ios": "https://dc.lft.to/lastmile_qr_scan"}, "name": "d8a156894e4083bba76ad7d2a5d93ba8", "type": "electric_scooter", "lat": 38.92270116666667, "is_disabled": 0}, {"fusion_lat": 0.0, "lon": -77.04189316666667, "is_reserved": 0, "bike_id": "492207e833e73d69ac7f58bc6e6234a9", "fusion_lon": 0.0, "rental_uris": {"android": "https://dc.lft.to/lastmile_qr_scan", "ios": "https://dc.lft.to/lastmile_qr_scan"}, "name": "492207e833e73d69ac7f58bc6e6234a9", "type": "electric_scooter", "lat": 38.926201666666664, "is_disabled": 0}, {"fusion_lat": 0.0, "lon": -77.01764016666667, "is_reserved": 0, "bike_id": "5223d9628d62d224fab0f81f31bc1dab", "fusion_lon": 0.0, "rental_uris": {"android": "https://dc.lft.to/lastmile_qr_scan", "ios": "https://dc.lft.to/lastmile_qr_scan"}, "name": "5223d9628d62d224fab0f81f31bc1dab", "type": "electric_scooter", "lat": 38.877045, "is_disabled": 0}, {"fusion_lat": 0.0, "lon": -77.03560866666666, "is_reserved": 0, "bike_id": "a6477741a02a215b005d0162f911eccf", "fusion_lon": 0.0, "rental_uris": {"android": "https://dc.lft.to/lastmile_qr_scan", "ios": "https://dc.lft.to/lastmile_qr_scan"}, "name": "a6477741a02a215b005d0162f911eccf", "type": "electric_scooter", "lat": 38.91711433333333, "is_disabled": 0}, {"fusion_lat": 0.0, "lon": -76.91161033333333, "is_reserved": 0, "bike_id": "03882e15c50a7e4cea0ae6b062a89be6", "fusion_lon": 0.0, "rental_uris": {"android": "https://dc.lft.to/lastmile_qr_scan", "ios": "https://dc.lft.to/lastmile_qr_scan"}, "name": "03882e15c50a7e4cea0ae6b062a89be6", "type": "electric_scooter", "lat": 38.894076, "is_disabled": 0}, {"fusion_lat": 0.0, "lon": -77.02284383333334, "is_reserved": 0, "bike_id": "979f81bb2b59b6a5ba6972dcaf0ace85", "fusion_lon": 0.0, "rental_uris": {"android": "https://dc.lft.to/lastmile_qr_scan", "ios": "https://dc.lft.to/lastmile_qr_scan"}, "name": "979f81bb2b59b6a5ba6972dcaf0ace85", "type": "electric_scooter", "lat": 38.91791416666667, "is_disabled": 0}, {"fusion_lat": 0.0, "lon": -77.01995083333334, "is_reserved": 0, "bike_id": "a949b92c1162c39a0dc8e4d82bf1487f", "fusion_lon": 0.0, "rental_uris": {"android": "https://dc.lft.to/lastmile_qr_scan", "ios": "https://dc.lft.to/lastmile_qr_scan"}, "name": "a949b92c1162c39a0dc8e4d82bf1487f", "type": "electric_scooter", "lat": 38.913635666666664, "is_disabled": 0}, {"fusion_lat": 0.0, "lon": -77.0237825, "is_reserved": 0, "bike_id": "ce2b088c8ea571e8753183843e5654ab", "fusion_lon": 0.0, "rental_uris": {"android": "https://dc.lft.to/lastmile_qr_scan", "ios": "https://dc.lft.to/lastmile_qr_scan"}, "name": "ce2b088c8ea571e8753183843e5654ab", "type": "electric_scooter", "lat": 38.90950083333333, "is_disabled": 0}, {"fusion_lat": 0.0, "lon": -77.06352083333333, "is_reserved": 0, "bike_id": "07e69ddaa444afc67144ce99049b910b", "fusion_lon": 0.0, "rental_uris": {"android": "https://dc.lft.to/lastmile_qr_scan", "ios": "https://dc.lft.to/lastmile_qr_scan"}, "name": "07e69ddaa444afc67144ce99049b910b", "type": "electric_scooter", "lat": 38.90684783333333, "is_disabled": 0}, {"fusion_lat": 0.0, "lon": -77.04246366666666, "is_reserved": 0, "bike_id": "0595bba79275009aabc3b71b6798bb3c", "fusion_lon": 0.0, "rental_uris": {"android": "https://dc.lft.to/lastmile_qr_scan", "ios": "https://dc.lft.to/lastmile_qr_scan"}, "name": "0595bba79275009aabc3b71b6798bb3c", "type": "electric_scooter", "lat": 38.92247166666667, "is_disabled": 0}, {"fusion_lat": 0.0, "lon": -76.998484, "is_reserved": 0, "bike_id": "f608ff7a5d87e30c40e18e3ce448f462", "fusion_lon": 0.0, "rental_uris": {"android": "https://dc.lft.to/lastmile_qr_scan", "ios": "https://dc.lft.to/lastmile_qr_scan"}, "name": "f608ff7a5d87e30c40e18e3ce448f462", "type": "electric_scooter", "lat": 38.887406666666664, "is_disabled": 0}, {"fusion_lat": 0.0, "lon": -77.036316, "is_reserved": 0, "bike_id": "9843a32adb54f83488c4457b4029e09a", "fusion_lon": 0.0, "rental_uris": {"android": "https://dc.lft.to/lastmile_qr_scan", "ios": "https://dc.lft.to/lastmile_qr_scan"}, "name": "9843a32adb54f83488c4457b4029e09a", "type": "electric_scooter", "lat": 38.90677566666667, "is_disabled": 0}, {"fusion_lat": 0.0, "lon": -77.02374383333333, "is_reserved": 0, "bike_id": "68ac6768dd92728c0deea88a76fdf8af", "fusion_lon": 0.0, "rental_uris": {"android": "https://dc.lft.to/lastmile_qr_scan", "ios": "https://dc.lft.to/lastmile_qr_scan"}, "name": "68ac6768dd92728c0deea88a76fdf8af", "type": "electric_scooter", "lat": 38.9183285, "is_disabled": 0}, {"fusion_lat": 0.0, "lon": -76.9519895, "is_reserved": 0, "bike_id": "39e653573886c4c9f376e9f4ae418c9f", "fusion_lon": 0.0, "rental_uris": {"android": "https://dc.lft.to/lastmile_qr_scan", "ios": "https://dc.lft.to/lastmile_qr_scan"}, "name": "39e653573886c4c9f376e9f4ae418c9f", "type": "electric_scooter", "lat": 38.900058666666666, "is_disabled": 0}, {"fusion_lat": 0.0, "lon": -76.99368383333334, "is_reserved": 0, "bike_id": "a2dcc3db49922772d84ff279d4c6ccd4", "fusion_lon": 0.0, "rental_uris": {"android": "https://dc.lft.to/lastmile_qr_scan", "ios": "https://dc.lft.to/lastmile_qr_scan"}, "name": "a2dcc3db49922772d84ff279d4c6ccd4", "type": "electric_scooter", "lat": 38.8834115, "is_disabled": 0}, {"fusion_lat": 0.0, "lon": -76.9809005, "is_reserved": 0, "bike_id": "7631663f814c03ba8a62881a3febe862", "fusion_lon": 0.0, "rental_uris": {"android": "https://dc.lft.to/lastmile_qr_scan", "ios": "https://dc.lft.to/lastmile_qr_scan"}, "name": "7631663f814c03ba8a62881a3febe862", "type": "electric_bike", "lat": 38.88133533333333, "is_disabled": 0}, {"fusion_lat": 0.0, "lon": -76.916044, "is_reserved": 0, "bike_id": "171247bc008373ee9ffd4cde98534feb", "fusion_lon": 0.0, "rental_uris": {"android": "https://dc.lft.to/lastmile_qr_scan", "ios": "https://dc.lft.to/lastmile_qr_scan"}, "name": "171247bc008373ee9ffd4cde98534feb", "type": "electric_bike", "lat": 38.87966016666667, "is_disabled": 0}, {"fusion_lat": 0.0, "lon": -76.967713, "is_reserved": 0, "bike_id": "032a40db135035d6af4b1e18d1fc542e", "fusion_lon": 0.0, "rental_uris": {"android": "https://dc.lft.to/lastmile_qr_scan", "ios": "https://dc.lft.to/lastmile_qr_scan"}, "name": "032a40db135035d6af4b1e18d1fc542e", "type": "electric_scooter", "lat": 38.85923566666666, "is_disabled": 0}, {"fusion_lat": 0.0, "lon": -77.0232155, "is_reserved": 0, "bike_id": "3a4d5ded0bbfbb9ea5107d64f73114f9", "fusion_lon": 0.0, "rental_uris": {"android": "https://dc.lft.to/lastmile_qr_scan", "ios": "https://dc.lft.to/lastmile_qr_scan"}, "name": "3a4d5ded0bbfbb9ea5107d64f73114f9", "type": "electric_scooter", "lat": 38.91788016666667, "is_disabled": 0}, {"fusion_lat": 0.0, "lon": -76.98377883333333, "is_reserved": 0, "bike_id": "b9d91bc230fe6895c26f1803130d4170", "fusion_lon": 0.0, "rental_uris": {"android": "https://dc.lft.to/lastmile_qr_scan", "ios": "https://dc.lft.to/lastmile_qr_scan"}, "name": "b9d91bc230fe6895c26f1803130d4170", "type": "electric_scooter", "lat": 38.86127616666667, "is_disabled": 0}, {"fusion_lat": 0.0, "lon": -77.02640983333333, "is_reserved": 0, "bike_id": "a293621700d49ab4d887636d409d8693", "fusion_lon": 0.0, "rental_uris": {"android": "https://dc.lft.to/lastmile_qr_scan", "ios": "https://dc.lft.to/lastmile_qr_scan"}, "name": "a293621700d49ab4d887636d409d8693", "type": "electric_scooter", "lat": 38.98469766666667, "is_disabled": 0}, {"fusion_lat": 0.0, "lon": -77.0188505, "is_reserved": 0, "bike_id": "2ecaf9d097e85cac6d5a84c94b97e28b", "fusion_lon": 0.0, "rental_uris": {"android": "https://dc.lft.to/lastmile_qr_scan", "ios": "https://dc.lft.to/lastmile_qr_scan"}, "name": "2ecaf9d097e85cac6d5a84c94b97e28b", "type": "electric_scooter", "lat": 38.90448583333333, "is_disabled": 0}, {"fusion_lat": 0.0, "lon": -76.9952, "is_reserved": 0, "bike_id": "49d2769291a78709bba66dc080f63724", "fusion_lon": 0.0, "rental_uris": {"android": "https://dc.lft.to/lastmile_qr_scan", "ios": "https://dc.lft.to/lastmile_qr_scan"}, "name": "49d2769291a78709bba66dc080f63724", "type": "electric_scooter", "lat": 38.895451, "is_disabled": 0}, {"fusion_lat": 0.0, "lon": -77.022136, "is_reserved": 0, "bike_id": "bd77a2882619f9db792a692d6739e658", "fusion_lon": 0.0, "rental_uris": {"android": "https://dc.lft.to/lastmile_qr_scan", "ios": "https://dc.lft.to/lastmile_qr_scan"}, "name": "bd77a2882619f9db792a692d6739e658", "type": "electric_scooter", "lat": 38.90219283333333, "is_disabled": 0}, {"fusion_lat": 0.0, "lon": -77.03305433333334, "is_reserved": 0, "bike_id": "305889087fe45803ec4e79aa93c82475", "fusion_lon": 0.0, "rental_uris": {"android": "https://dc.lft.to/lastmile_qr_scan", "ios": "https://dc.lft.to/lastmile_qr_scan"}, "name": "305889087fe45803ec4e79aa93c82475", "type": "electric_scooter", "lat": 38.9284625, "is_disabled": 0}, {"fusion_lat": 0.0, "lon": -76.996017, "is_reserved": 0, "bike_id": "ac8bc4393b67139aaf2c70357d170cba", "fusion_lon": 0.0, "rental_uris": {"android": "https://dc.lft.to/lastmile_qr_scan", "ios": "https://dc.lft.to/lastmile_qr_scan"}, "name": "ac8bc4393b67139aaf2c70357d170cba", "type": "electric_scooter", "lat": 38.885582, "is_disabled": 0}, {"fusion_lat": 0.0, "lon": -77.00848833333333, "is_reserved": 0, "bike_id": "5938e540eca434a63b314e0b394fb49f", "fusion_lon": 0.0, "rental_uris": {"android": "https://dc.lft.to/lastmile_qr_scan", "ios": "https://dc.lft.to/lastmile_qr_scan"}, "name": "5938e540eca434a63b314e0b394fb49f", "type": "electric_scooter", "lat": 38.87651833333334, "is_disabled": 0}, {"fusion_lat": 0.0, "lon": -77.08774366666667, "is_reserved": 0, "bike_id": "56822defb06d9039d9cb143a6e5ea70a", "fusion_lon": 0.0, "rental_uris": {"android": "https://dc.lft.to/lastmile_qr_scan", "ios": "https://dc.lft.to/lastmile_qr_scan"}, "name": "56822defb06d9039d9cb143a6e5ea70a", "type": "electric_bike", "lat": 38.83899616666667, "is_disabled": 0}, {"fusion_lat": 0.0, "lon": -76.98583333333333, "is_reserved": 0, "bike_id": "e19a922b04ca07702aea8718a6aedfe1", "fusion_lon": 0.0, "rental_uris": {"android": "https://dc.lft.to/lastmile_qr_scan", "ios": "https://dc.lft.to/lastmile_qr_scan"}, "name": "e19a922b04ca07702aea8718a6aedfe1", "type": "electric_scooter", "lat": 38.906465833333336, "is_disabled": 0}, {"fusion_lat": 0.0, "lon": -77.01749816666667, "is_reserved": 0, "bike_id": "bfdc4c4521ddd78b877b78ee4aa2c20e", "fusion_lon": 0.0, "rental_uris": {"android": "https://dc.lft.to/lastmile_qr_scan", "ios": "https://dc.lft.to/lastmile_qr_scan"}, "name": "bfdc4c4521ddd78b877b78ee4aa2c20e", "type": "electric_scooter", "lat": 38.894585, "is_disabled": 0}, {"fusion_lat": 0.0, "lon": -76.97709916666666, "is_reserved": 0, "bike_id": "4cbba90566ebc84a8ca4fd9add8900ac", "fusion_lon": 0.0, "rental_uris": {"android": "https://dc.lft.to/lastmile_qr_scan", "ios": "https://dc.lft.to/lastmile_qr_scan"}, "name": "4cbba90566ebc84a8ca4fd9add8900ac", "type": "electric_scooter", "lat": 38.8877595, "is_disabled": 0}, {"fusion_lat": 0.0, "lon": -77.00794166666667, "is_reserved": 0, "bike_id": "0fdf08b9f23528753b317426435cd535", "fusion_lon": 0.0, "rental_uris": {"android": "https://dc.lft.to/lastmile_qr_scan", "ios": "https://dc.lft.to/lastmile_qr_scan"}, "name": "0fdf08b9f23528753b317426435cd535", "type": "electric_scooter", "lat": 38.8964235, "is_disabled": 0}, {"fusion_lat": 0.0, "lon": -77.04857616666666, "is_reserved": 0, "bike_id": "89f8d95128b060d455d9f3454bbca6cc", "fusion_lon": 0.0, "rental_uris": {"android": "https://dc.lft.to/lastmile_qr_scan", "ios": "https://dc.lft.to/lastmile_qr_scan"}, "name": "89f8d95128b060d455d9f3454bbca6cc", "type": "electric_scooter", "lat": 38.901116, "is_disabled": 0}, {"fusion_lat": 0.0, "lon": -77.0269445, "is_reserved": 0, "bike_id": "1ea369241a06a33a8624d58123a157d1", "fusion_lon": 0.0, "rental_uris": {"android": "https://dc.lft.to/lastmile_qr_scan", "ios": "https://dc.lft.to/lastmile_qr_scan"}, "name": "1ea369241a06a33a8624d58123a157d1", "type": "electric_scooter", "lat": 38.897378, "is_disabled": 0}, {"fusion_lat": 0.0, "lon": -76.97869833333333, "is_reserved": 0, "bike_id": "35bbecce7d2532ee5897938db66339c5", "fusion_lon": 0.0, "rental_uris": {"android": "https://dc.lft.to/lastmile_qr_scan", "ios": "https://dc.lft.to/lastmile_qr_scan"}, "name": "35bbecce7d2532ee5897938db66339c5", "type": "electric_scooter", "lat": 38.88302816666667, "is_disabled": 0}, {"fusion_lat": 0.0, "lon": -77.07233, "is_reserved": 0, "bike_id": "7dea1e1ae9e97e7297aece137287a8c2", "fusion_lon": 0.0, "rental_uris": {"android": "https://dc.lft.to/lastmile_qr_scan", "ios": "https://dc.lft.to/lastmile_qr_scan"}, "name": "7dea1e1ae9e97e7297aece137287a8c2", "type": "electric_scooter", "lat": 38.940055666666666, "is_disabled": 0}, {"fusion_lat": 0.0, "lon": -77.00358666666666, "is_reserved": 0, "bike_id": "386dcb0be6cfee5e2580dfa24fbc783c", "fusion_lon": 0.0, "rental_uris": {"android": "https://dc.lft.to/lastmile_qr_scan", "ios": "https://dc.lft.to/lastmile_qr_scan"}, "name": "386dcb0be6cfee5e2580dfa24fbc783c", "type": "electric_scooter", "lat": 38.89730333333333, "is_disabled": 0}, {"fusion_lat": 0.0, "lon": -77.02688483333333, "is_reserved": 0, "bike_id": "ff00f9e17d5fb07a4af468493aac69d3", "fusion_lon": 0.0, "rental_uris": {"android": "https://dc.lft.to/lastmile_qr_scan", "ios": "https://dc.lft.to/lastmile_qr_scan"}, "name": "ff00f9e17d5fb07a4af468493aac69d3", "type": "electric_scooter", "lat": 38.89582516666667, "is_disabled": 0}, {"fusion_lat": 0.0, "lon": -77.04143333333333, "is_reserved": 0, "bike_id": "0c212ff9777b0e279a6cd9ae7a3d4a04", "fusion_lon": 0.0, "rental_uris": {"android": "https://dc.lft.to/lastmile_qr_scan", "ios": "https://dc.lft.to/lastmile_qr_scan"}, "name": "0c212ff9777b0e279a6cd9ae7a3d4a04", "type": "electric_scooter", "lat": 38.89222516666667, "is_disabled": 0}, {"fusion_lat": 0.0, "lon": -76.994198, "is_reserved": 0, "bike_id": "dfefddbd194693c0ba2c1fc8decc5ba6", "fusion_lon": 0.0, "rental_uris": {"android": "https://dc.lft.to/lastmile_qr_scan", "ios": "https://dc.lft.to/lastmile_qr_scan"}, "name": "dfefddbd194693c0ba2c1fc8decc5ba6", "type": "electric_scooter", "lat": 38.92103733333333, "is_disabled": 0}, {"fusion_lat": 0.0, "lon": -77.04452683333334, "is_reserved": 0, "bike_id": "a51982c1c462459b9eb16bf5d3602366", "fusion_lon": 0.0, "rental_uris": {"android": "https://dc.lft.to/lastmile_qr_scan", "ios": "https://dc.lft.to/lastmile_qr_scan"}, "name": "a51982c1c462459b9eb16bf5d3602366", "type": "electric_scooter", "lat": 38.908351333333336, "is_disabled": 0}, {"fusion_lat": 0.0, "lon": -77.00959233333333, "is_reserved": 0, "bike_id": "9451d882ba3c2091dc7e5fdae08722cd", "fusion_lon": 0.0, "rental_uris": {"android": "https://dc.lft.to/lastmile_qr_scan", "ios": "https://dc.lft.to/lastmile_qr_scan"}, "name": "9451d882ba3c2091dc7e5fdae08722cd", "type": "electric_scooter", "lat": 38.90783116666667, "is_disabled": 0}, {"fusion_lat": 0.0, "lon": -77.03928516666667, "is_reserved": 0, "bike_id": "19dfa36d7c16fea85cc36a5d656a3ed8", "fusion_lon": 0.0, "rental_uris": {"android": "https://dc.lft.to/lastmile_qr_scan", "ios": "https://dc.lft.to/lastmile_qr_scan"}, "name": "19dfa36d7c16fea85cc36a5d656a3ed8", "type": "electric_scooter", "lat": 38.924914333333334, "is_disabled": 0}, {"fusion_lat": 0.0, "lon": -77.02543483333334, "is_reserved": 0, "bike_id": "4accf8a3b1f88e8b96f46127be3f4631", "fusion_lon": 0.0, "rental_uris": {"android": "https://dc.lft.to/lastmile_qr_scan", "ios": "https://dc.lft.to/lastmile_qr_scan"}, "name": "4accf8a3b1f88e8b96f46127be3f4631", "type": "electric_scooter", "lat": 38.92473433333333, "is_disabled": 0}, {"fusion_lat": 0.0, "lon": -76.98103966666666, "is_reserved": 0, "bike_id": "04a7b503f1f2b213f5918a69b1818db3", "fusion_lon": 0.0, "rental_uris": {"android": "https://dc.lft.to/lastmile_qr_scan", "ios": "https://dc.lft.to/lastmile_qr_scan"}, "name": "04a7b503f1f2b213f5918a69b1818db3", "type": "electric_scooter", "lat": 38.903913, "is_disabled": 0}, {"fusion_lat": 0.0, "lon": -76.9752795, "is_reserved": 0, "bike_id": "5eaa792f156a61b11d3865310dc7a18e", "fusion_lon": 0.0, "rental_uris": {"android": "https://dc.lft.to/lastmile_qr_scan", "ios": "https://dc.lft.to/lastmile_qr_scan"}, "name": "5eaa792f156a61b11d3865310dc7a18e", "type": "electric_bike", "lat": 38.903323666666665, "is_disabled": 0}, {"fusion_lat": 0.0, "lon": -76.9983135, "is_reserved": 0, "bike_id": "16f60184b08cd11b56face6f69095e85", "fusion_lon": 0.0, "rental_uris": {"android": "https://dc.lft.to/lastmile_qr_scan", "ios": "https://dc.lft.to/lastmile_qr_scan"}, "name": "16f60184b08cd11b56face6f69095e85", "type": "electric_scooter", "lat": 38.89077983333333, "is_disabled": 0}, {"fusion_lat": 0.0, "lon": -77.04653266666666, "is_reserved": 0, "bike_id": "9d2425ab5c346c11781d323d87c72024", "fusion_lon": 0.0, "rental_uris": {"android": "https://dc.lft.to/lastmile_qr_scan", "ios": "https://dc.lft.to/lastmile_qr_scan"}, "name": "9d2425ab5c346c11781d323d87c72024", "type": "electric_scooter", "lat": 38.91367116666667, "is_disabled": 0}, {"fusion_lat": 0.0, "lon": -76.98358416666667, "is_reserved": 0, "bike_id": "89e1d244a501f67e1efe98cb62335b29", "fusion_lon": 0.0, "rental_uris": {"android": "https://dc.lft.to/lastmile_qr_scan", "ios": "https://dc.lft.to/lastmile_qr_scan"}, "name": "89e1d244a501f67e1efe98cb62335b29", "type": "electric_scooter", "lat": 38.88744583333333, "is_disabled": 0}, {"fusion_lat": 0.0, "lon": -77.0432945, "is_reserved": 0, "bike_id": "4d63e7d25f1b8dec5c02d9fc9cf0bbd4", "fusion_lon": 0.0, "rental_uris": {"android": "https://dc.lft.to/lastmile_qr_scan", "ios": "https://dc.lft.to/lastmile_qr_scan"}, "name": "4d63e7d25f1b8dec5c02d9fc9cf0bbd4", "type": "electric_scooter", "lat": 38.9088005, "is_disabled": 0}, {"fusion_lat": 0.0, "lon": -77.021969, "is_reserved": 0, "bike_id": "518708b0f67ef35502bc3c0dd778ba0a", "fusion_lon": 0.0, "rental_uris": {"android": "https://dc.lft.to/lastmile_qr_scan", "ios": "https://dc.lft.to/lastmile_qr_scan"}, "name": "518708b0f67ef35502bc3c0dd778ba0a", "type": "electric_scooter", "lat": 38.91134866666667, "is_disabled": 0}, {"fusion_lat": 0.0, "lon": -76.95753733333333, "is_reserved": 0, "bike_id": "dffcaef249ced5c54edff7acb9f6f4e7", "fusion_lon": 0.0, "rental_uris": {"android": "https://dc.lft.to/lastmile_qr_scan", "ios": "https://dc.lft.to/lastmile_qr_scan"}, "name": "dffcaef249ced5c54edff7acb9f6f4e7", "type": "electric_scooter", "lat": 38.884308833333336, "is_disabled": 0}, {"fusion_lat": 0.0, "lon": -76.98265083333334, "is_reserved": 0, "bike_id": "8beef58618d67be257c007f3e87f53b7", "fusion_lon": 0.0, "rental_uris": {"android": "https://dc.lft.to/lastmile_qr_scan", "ios": "https://dc.lft.to/lastmile_qr_scan"}, "name": "8beef58618d67be257c007f3e87f53b7", "type": "electric_scooter", "lat": 38.885298166666665, "is_disabled": 0}, {"fusion_lat": 0.0, "lon": -77.03440966666666, "is_reserved": 0, "bike_id": "522d6dd6dc9b824ad422dcb2a3735f04", "fusion_lon": 0.0, "rental_uris": {"android": "https://dc.lft.to/lastmile_qr_scan", "ios": "https://dc.lft.to/lastmile_qr_scan"}, "name": "522d6dd6dc9b824ad422dcb2a3735f04", "type": "electric_scooter", "lat": 38.91014216666667, "is_disabled": 0}, {"fusion_lat": 0.0, "lon": -77.02450733333333, "is_reserved": 0, "bike_id": "c2a9446153e94c426056a709916c678d", "fusion_lon": 0.0, "rental_uris": {"android": "https://dc.lft.to/lastmile_qr_scan", "ios": "https://dc.lft.to/lastmile_qr_scan"}, "name": "c2a9446153e94c426056a709916c678d", "type": "electric_scooter", "lat": 38.924079, "is_disabled": 0}, {"fusion_lat": 0.0, "lon": -77.0375355, "is_reserved": 0, "bike_id": "7230196bb5e5163f3ecc698c12ccb972", "fusion_lon": 0.0, "rental_uris": {"android": "https://dc.lft.to/lastmile_qr_scan", "ios": "https://dc.lft.to/lastmile_qr_scan"}, "name": "7230196bb5e5163f3ecc698c12ccb972", "type": "electric_scooter", "lat": 38.92217183333333, "is_disabled": 0}, {"fusion_lat": 0.0, "lon": -76.997784, "is_reserved": 0, "bike_id": "8e2df9111454250bd028d9143e329794", "fusion_lon": 0.0, "rental_uris": {"android": "https://dc.lft.to/lastmile_qr_scan", "ios": "https://dc.lft.to/lastmile_qr_scan"}, "name": "8e2df9111454250bd028d9143e329794", "type": "electric_scooter", "lat": 38.8443275, "is_disabled": 0}, {"fusion_lat": 0.0, "lon": -77.00431833333333, "is_reserved": 0, "bike_id": "50f8184d139ad3d031e39fe170bc5479", "fusion_lon": 0.0, "rental_uris": {"android": "https://dc.lft.to/lastmile_qr_scan", "ios": "https://dc.lft.to/lastmile_qr_scan"}, "name": "50f8184d139ad3d031e39fe170bc5479", "type": "electric_scooter", "lat": 38.87671233333333, "is_disabled": 0}, {"fusion_lat": 0.0, "lon": -77.02647683333333, "is_reserved": 0, "bike_id": "6d2ef7b8d069abcf8de3d9725855c2dc", "fusion_lon": 0.0, "rental_uris": {"android": "https://dc.lft.to/lastmile_qr_scan", "ios": "https://dc.lft.to/lastmile_qr_scan"}, "name": "6d2ef7b8d069abcf8de3d9725855c2dc", "type": "electric_bike", "lat": 38.98818983333334, "is_disabled": 0}, {"fusion_lat": 0.0, "lon": -77.0432635, "is_reserved": 0, "bike_id": "07881fc0f0db011cd7671e3155c6ee07", "fusion_lon": 0.0, "rental_uris": {"android": "https://dc.lft.to/lastmile_qr_scan", "ios": "https://dc.lft.to/lastmile_qr_scan"}, "name": "07881fc0f0db011cd7671e3155c6ee07", "type": "electric_scooter", "lat": 38.90219966666667, "is_disabled": 0}, {"fusion_lat": 0.0, "lon": -77.02205783333333, "is_reserved": 0, "bike_id": "702d1a11d2d42147f1c9ed500b00d369", "fusion_lon": 0.0, "rental_uris": {"android": "https://dc.lft.to/lastmile_qr_scan", "ios": "https://dc.lft.to/lastmile_qr_scan"}, "name": "702d1a11d2d42147f1c9ed500b00d369", "type": "electric_scooter", "lat": 38.90562333333333, "is_disabled": 0}, {"fusion_lat": 0.0, "lon": -76.9903765, "is_reserved": 0, "bike_id": "e1b85016318c2c20667d09eab962fe65", "fusion_lon": 0.0, "rental_uris": {"android": "https://dc.lft.to/lastmile_qr_scan", "ios": "https://dc.lft.to/lastmile_qr_scan"}, "name": "e1b85016318c2c20667d09eab962fe65", "type": "electric_bike", "lat": 38.865708, "is_disabled": 0}, {"fusion_lat": 0.0, "lon": -77.04474616666667, "is_reserved": 0, "bike_id": "1a464771486815fa515e4298841f74e6", "fusion_lon": 0.0, "rental_uris": {"android": "https://dc.lft.to/lastmile_qr_scan", "ios": "https://dc.lft.to/lastmile_qr_scan"}, "name": "1a464771486815fa515e4298841f74e6", "type": "electric_scooter", "lat": 38.921359833333334, "is_disabled": 0}, {"fusion_lat": 0.0, "lon": -77.02692116666667, "is_reserved": 0, "bike_id": "8fb32c1bff97917420e46c7b119276a6", "fusion_lon": 0.0, "rental_uris": {"android": "https://dc.lft.to/lastmile_qr_scan", "ios": "https://dc.lft.to/lastmile_qr_scan"}, "name": "8fb32c1bff97917420e46c7b119276a6", "type": "electric_scooter", "lat": 38.91131766666667, "is_disabled": 0}, {"fusion_lat": 0.0, "lon": -77.02688566666667, "is_reserved": 0, "bike_id": "fe5d486abfc43f3e07d56bc57d2bdedf", "fusion_lon": 0.0, "rental_uris": {"android": "https://dc.lft.to/lastmile_qr_scan", "ios": "https://dc.lft.to/lastmile_qr_scan"}, "name": "fe5d486abfc43f3e07d56bc57d2bdedf", "type": "electric_scooter", "lat": 38.9024275, "is_disabled": 0}, {"fusion_lat": 0.0, "lon": -77.03953116666666, "is_reserved": 0, "bike_id": "be6ee06135f17f6429da91a23179d2cb", "fusion_lon": 0.0, "rental_uris": {"android": "https://dc.lft.to/lastmile_qr_scan", "ios": "https://dc.lft.to/lastmile_qr_scan"}, "name": "be6ee06135f17f6429da91a23179d2cb", "type": "electric_scooter", "lat": 38.93149616666667, "is_disabled": 0}, {"fusion_lat": 0.0, "lon": -76.92936116666667, "is_reserved": 0, "bike_id": "fc1504e7965ca7f0dd245dbc5928bf13", "fusion_lon": 0.0, "rental_uris": {"android": "https://dc.lft.to/lastmile_qr_scan", "ios": "https://dc.lft.to/lastmile_qr_scan"}, "name": "fc1504e7965ca7f0dd245dbc5928bf13", "type": "electric_scooter", "lat": 38.883794, "is_disabled": 0}, {"fusion_lat": 0.0, "lon": -77.0351785, "is_reserved": 0, "bike_id": "580a364e832dbe511ed63254c3203bdc", "fusion_lon": 0.0, "rental_uris": {"android": "https://dc.lft.to/lastmile_qr_scan", "ios": "https://dc.lft.to/lastmile_qr_scan"}, "name": "580a364e832dbe511ed63254c3203bdc", "type": "electric_scooter", "lat": 38.9347675, "is_disabled": 0}, {"fusion_lat": 0.0, "lon": -77.04718583333333, "is_reserved": 0, "bike_id": "163631bfa8c6d0113d12eecd578146fa", "fusion_lon": 0.0, "rental_uris": {"android": "https://dc.lft.to/lastmile_qr_scan", "ios": "https://dc.lft.to/lastmile_qr_scan"}, "name": "163631bfa8c6d0113d12eecd578146fa", "type": "electric_scooter", "lat": 38.90254983333333, "is_disabled": 0}, {"fusion_lat": 0.0, "lon": -76.992683, "is_reserved": 0, "bike_id": "cd3249cfa64dfb68c8aa49c6c3b3d9a1", "fusion_lon": 0.0, "rental_uris": {"android": "https://dc.lft.to/lastmile_qr_scan", "ios": "https://dc.lft.to/lastmile_qr_scan"}, "name": "cd3249cfa64dfb68c8aa49c6c3b3d9a1", "type": "electric_scooter", "lat": 38.8976675, "is_disabled": 0}, {"fusion_lat": 0.0, "lon": -76.9768905, "is_reserved": 0, "bike_id": "32905d04df3846e89df8d00a6d9c4460", "fusion_lon": 0.0, "rental_uris": {"android": "https://dc.lft.to/lastmile_qr_scan", "ios": "https://dc.lft.to/lastmile_qr_scan"}, "name": "32905d04df3846e89df8d00a6d9c4460", "type": "electric_scooter", "lat": 38.8989285, "is_disabled": 0}, {"fusion_lat": 0.0, "lon": -77.00778133333333, "is_reserved": 0, "bike_id": "0de39d66a708cbd88a5a4c82e16c6aab", "fusion_lon": 0.0, "rental_uris": {"android": "https://dc.lft.to/lastmile_qr_scan", "ios": "https://dc.lft.to/lastmile_qr_scan"}, "name": "0de39d66a708cbd88a5a4c82e16c6aab", "type": "electric_scooter", "lat": 38.89734283333333, "is_disabled": 0}, {"fusion_lat": 0.0, "lon": -77.0220255, "is_reserved": 0, "bike_id": "11a99e80cb32f1e1db7208e6aff70730", "fusion_lon": 0.0, "rental_uris": {"android": "https://dc.lft.to/lastmile_qr_scan", "ios": "https://dc.lft.to/lastmile_qr_scan"}, "name": "11a99e80cb32f1e1db7208e6aff70730", "type": "electric_scooter", "lat": 38.901978666666665, "is_disabled": 0}, {"fusion_lat": 0.0, "lon": -77.0346065, "is_reserved": 0, "bike_id": "2cefb7e8b56b8f76356ac14cc2598b9c", "fusion_lon": 0.0, "rental_uris": {"android": "https://dc.lft.to/lastmile_qr_scan", "ios": "https://dc.lft.to/lastmile_qr_scan"}, "name": "2cefb7e8b56b8f76356ac14cc2598b9c", "type": "electric_scooter", "lat": 38.92923016666667, "is_disabled": 0}, {"fusion_lat": 0.0, "lon": -77.02651466666667, "is_reserved": 0, "bike_id": "76d4b6ea09f9f37c10c6c09c1f6096b1", "fusion_lon": 0.0, "rental_uris": {"android": "https://dc.lft.to/lastmile_qr_scan", "ios": "https://dc.lft.to/lastmile_qr_scan"}, "name": "76d4b6ea09f9f37c10c6c09c1f6096b1", "type": "electric_scooter", "lat": 38.892208333333336, "is_disabled": 0}, {"fusion_lat": 0.0, "lon": -77.0325555, "is_reserved": 0, "bike_id": "4fdd9db7751299c6ef88adcd2d93be37", "fusion_lon": 0.0, "rental_uris": {"android": "https://dc.lft.to/lastmile_qr_scan", "ios": "https://dc.lft.to/lastmile_qr_scan"}, "name": "4fdd9db7751299c6ef88adcd2d93be37", "type": "electric_scooter", "lat": 38.92881416666667, "is_disabled": 0}, {"fusion_lat": 0.0, "lon": -77.03468766666667, "is_reserved": 0, "bike_id": "f61c34133897ea66802a755a10c7db8b", "fusion_lon": 0.0, "rental_uris": {"android": "https://dc.lft.to/lastmile_qr_scan", "ios": "https://dc.lft.to/lastmile_qr_scan"}, "name": "f61c34133897ea66802a755a10c7db8b", "type": "electric_scooter", "lat": 38.9253905, "is_disabled": 0}, {"fusion_lat": 0.0, "lon": -77.02113316666667, "is_reserved": 0, "bike_id": "eb73544e512d1779dfaaaa4db098c7ed", "fusion_lon": 0.0, "rental_uris": {"android": "https://dc.lft.to/lastmile_qr_scan", "ios": "https://dc.lft.to/lastmile_qr_scan"}, "name": "eb73544e512d1779dfaaaa4db098c7ed", "type": "electric_scooter", "lat": 38.894735833333336, "is_disabled": 0}, {"fusion_lat": 0.0, "lon": -77.038487, "is_reserved": 0, "bike_id": "f32b13aaff30cfe6f361ce430c4020f3", "fusion_lon": 0.0, "rental_uris": {"android": "https://dc.lft.to/lastmile_qr_scan", "ios": "https://dc.lft.to/lastmile_qr_scan"}, "name": "f32b13aaff30cfe6f361ce430c4020f3", "type": "electric_scooter", "lat": 38.912792, "is_disabled": 0}, {"fusion_lat": 0.0, "lon": -76.97798016666667, "is_reserved": 0, "bike_id": "32608fa184c7551cf18846acfd334203", "fusion_lon": 0.0, "rental_uris": {"android": "https://dc.lft.to/lastmile_qr_scan", "ios": "https://dc.lft.to/lastmile_qr_scan"}, "name": "32608fa184c7551cf18846acfd334203", "type": "electric_scooter", "lat": 38.90313316666666, "is_disabled": 0}, {"fusion_lat": 0.0, "lon": -77.00926283333334, "is_reserved": 0, "bike_id": "050e7a15df1b661e17048d7082570332", "fusion_lon": 0.0, "rental_uris": {"android": "https://dc.lft.to/lastmile_qr_scan", "ios": "https://dc.lft.to/lastmile_qr_scan"}, "name": "050e7a15df1b661e17048d7082570332", "type": "electric_scooter", "lat": 38.91802933333334, "is_disabled": 0}, {"fusion_lat": 0.0, "lon": -77.03863016666666, "is_reserved": 0, "bike_id": "19f113e0f976780b7098c0e93fb2bddc", "fusion_lon": 0.0, "rental_uris": {"android": "https://dc.lft.to/lastmile_qr_scan", "ios": "https://dc.lft.to/lastmile_qr_scan"}, "name": "19f113e0f976780b7098c0e93fb2bddc", "type": "electric_scooter", "lat": 38.915552, "is_disabled": 0}, {"fusion_lat": 0.0, "lon": -77.024983, "is_reserved": 0, "bike_id": "89bce081daf2dd948ca1df3b9e9477a6", "fusion_lon": 0.0, "rental_uris": {"android": "https://dc.lft.to/lastmile_qr_scan", "ios": "https://dc.lft.to/lastmile_qr_scan"}, "name": "89bce081daf2dd948ca1df3b9e9477a6", "type": "electric_scooter", "lat": 38.92098933333333, "is_disabled": 0}, {"fusion_lat": 0.0, "lon": -77.03221616666667, "is_reserved": 0, "bike_id": "5b12905c56434bf0566919b5c92d8bf1", "fusion_lon": 0.0, "rental_uris": {"android": "https://dc.lft.to/lastmile_qr_scan", "ios": "https://dc.lft.to/lastmile_qr_scan"}, "name": "5b12905c56434bf0566919b5c92d8bf1", "type": "electric_scooter", "lat": 38.892232166666666, "is_disabled": 0}, {"fusion_lat": 0.0, "lon": -77.0043085, "is_reserved": 0, "bike_id": "321f0fe9861c554e4fbb1c33c345f009", "fusion_lon": 0.0, "rental_uris": {"android": "https://dc.lft.to/lastmile_qr_scan", "ios": "https://dc.lft.to/lastmile_qr_scan"}, "name": "321f0fe9861c554e4fbb1c33c345f009", "type": "electric_scooter", "lat": 38.905664, "is_disabled": 0}, {"fusion_lat": 0.0, "lon": -77.03304066666666, "is_reserved": 0, "bike_id": "829f5517886716958641fccacea14cd2", "fusion_lon": 0.0, "rental_uris": {"android": "https://dc.lft.to/lastmile_qr_scan", "ios": "https://dc.lft.to/lastmile_qr_scan"}, "name": "829f5517886716958641fccacea14cd2", "type": "electric_scooter", "lat": 38.956346333333336, "is_disabled": 0}, {"fusion_lat": 0.0, "lon": -77.0276245, "is_reserved": 0, "bike_id": "77e1793f1a083edb48c182984576feb0", "fusion_lon": 0.0, "rental_uris": {"android": "https://dc.lft.to/lastmile_qr_scan", "ios": "https://dc.lft.to/lastmile_qr_scan"}, "name": "77e1793f1a083edb48c182984576feb0", "type": "electric_scooter", "lat": 38.95426, "is_disabled": 0}, {"fusion_lat": 0.0, "lon": -77.0435445, "is_reserved": 0, "bike_id": "71c14829397b1889475947dbd8bed99c", "fusion_lon": 0.0, "rental_uris": {"android": "https://dc.lft.to/lastmile_qr_scan", "ios": "https://dc.lft.to/lastmile_qr_scan"}, "name": "71c14829397b1889475947dbd8bed99c", "type": "electric_scooter", "lat": 38.89229916666667, "is_disabled": 0}, {"fusion_lat": 0.0, "lon": -76.99079483333334, "is_reserved": 0, "bike_id": "637e89ed6e84d1c10669d1017201221a", "fusion_lon": 0.0, "rental_uris": {"android": "https://dc.lft.to/lastmile_qr_scan", "ios": "https://dc.lft.to/lastmile_qr_scan"}, "name": "637e89ed6e84d1c10669d1017201221a", "type": "electric_bike", "lat": 38.862378, "is_disabled": 0}, {"fusion_lat": 0.0, "lon": -77.0586075, "is_reserved": 0, "bike_id": "630ba67e89b628991bfc430d96d143ea", "fusion_lon": 0.0, "rental_uris": {"android": "https://dc.lft.to/lastmile_qr_scan", "ios": "https://dc.lft.to/lastmile_qr_scan"}, "name": "630ba67e89b628991bfc430d96d143ea", "type": "electric_scooter", "lat": 38.942921, "is_disabled": 0}, {"fusion_lat": 0.0, "lon": -76.99373183333333, "is_reserved": 0, "bike_id": "016a166718df0da83a5416f4196a3557", "fusion_lon": 0.0, "rental_uris": {"android": "https://dc.lft.to/lastmile_qr_scan", "ios": "https://dc.lft.to/lastmile_qr_scan"}, "name": "016a166718df0da83a5416f4196a3557", "type": "electric_bike", "lat": 38.92299083333333, "is_disabled": 0}, {"fusion_lat": 0.0, "lon": -77.07383333333334, "is_reserved": 0, "bike_id": "de39677cc9f1e733d16eb595be7644f2", "fusion_lon": 0.0, "rental_uris": {"android": "https://dc.lft.to/lastmile_qr_scan", "ios": "https://dc.lft.to/lastmile_qr_scan"}, "name": "de39677cc9f1e733d16eb595be7644f2", "type": "electric_bike", "lat": 38.96191116666667, "is_disabled": 0}, {"fusion_lat": 0.0, "lon": -77.03864916666667, "is_reserved": 0, "bike_id": "29eb28bcb7f5aab4370356d8277c80ab", "fusion_lon": 0.0, "rental_uris": {"android": "https://dc.lft.to/lastmile_qr_scan", "ios": "https://dc.lft.to/lastmile_qr_scan"}, "name": "29eb28bcb7f5aab4370356d8277c80ab", "type": "electric_scooter", "lat": 38.921528, "is_disabled": 0}, {"fusion_lat": 0.0, "lon": -77.01204683333333, "is_reserved": 0, "bike_id": "cfa2cbe974e3ade4f463667ace65bc43", "fusion_lon": 0.0, "rental_uris": {"android": "https://dc.lft.to/lastmile_qr_scan", "ios": "https://dc.lft.to/lastmile_qr_scan"}, "name": "cfa2cbe974e3ade4f463667ace65bc43", "type": "electric_scooter", "lat": 38.9183525, "is_disabled": 0}, {"fusion_lat": 0.0, "lon": -76.99778983333333, "is_reserved": 0, "bike_id": "e94b59c9cc8fafc8e8e3efd240afcfe9", "fusion_lon": 0.0, "rental_uris": {"android": "https://dc.lft.to/lastmile_qr_scan", "ios": "https://dc.lft.to/lastmile_qr_scan"}, "name": "e94b59c9cc8fafc8e8e3efd240afcfe9", "type": "electric_scooter", "lat": 38.90016633333333, "is_disabled": 0}, {"fusion_lat": 0.0, "lon": -77.04546116666667, "is_reserved": 0, "bike_id": "8aab0ae2e1ab3bf9bd1bd7e05faa204f", "fusion_lon": 0.0, "rental_uris": {"android": "https://dc.lft.to/lastmile_qr_scan", "ios": "https://dc.lft.to/lastmile_qr_scan"}, "name": "8aab0ae2e1ab3bf9bd1bd7e05faa204f", "type": "electric_scooter", "lat": 38.934096, "is_disabled": 0}, {"fusion_lat": 0.0, "lon": -77.02948933333333, "is_reserved": 0, "bike_id": "9159ef2c4234b8462c7d50607ababf1e", "fusion_lon": 0.0, "rental_uris": {"android": "https://dc.lft.to/lastmile_qr_scan", "ios": "https://dc.lft.to/lastmile_qr_scan"}, "name": "9159ef2c4234b8462c7d50607ababf1e", "type": "electric_scooter", "lat": 38.928576, "is_disabled": 0}, {"fusion_lat": 0.0, "lon": -77.03226416666666, "is_reserved": 0, "bike_id": "1818b60767504b9c96859794bb10fb2d", "fusion_lon": 0.0, "rental_uris": {"android": "https://dc.lft.to/lastmile_qr_scan", "ios": "https://dc.lft.to/lastmile_qr_scan"}, "name": "1818b60767504b9c96859794bb10fb2d", "type": "electric_scooter", "lat": 38.914064833333335, "is_disabled": 0}, {"fusion_lat": 0.0, "lon": -77.03936816666666, "is_reserved": 0, "bike_id": "667c3ba31d72a00155dffa1621416a46", "fusion_lon": 0.0, "rental_uris": {"android": "https://dc.lft.to/lastmile_qr_scan", "ios": "https://dc.lft.to/lastmile_qr_scan"}, "name": "667c3ba31d72a00155dffa1621416a46", "type": "electric_scooter", "lat": 38.91763, "is_disabled": 0}, {"fusion_lat": 0.0, "lon": -77.03777016666666, "is_reserved": 0, "bike_id": "f824d408fda4d77ad180f72618d9fe16", "fusion_lon": 0.0, "rental_uris": {"android": "https://dc.lft.to/lastmile_qr_scan", "ios": "https://dc.lft.to/lastmile_qr_scan"}, "name": "f824d408fda4d77ad180f72618d9fe16", "type": "electric_scooter", "lat": 38.92208183333334, "is_disabled": 0}, {"fusion_lat": 0.0, "lon": -77.02663, "is_reserved": 0, "bike_id": "27bb4ce3900120a0c8be7cf2771d839c", "fusion_lon": 0.0, "rental_uris": {"android": "https://dc.lft.to/lastmile_qr_scan", "ios": "https://dc.lft.to/lastmile_qr_scan"}, "name": "27bb4ce3900120a0c8be7cf2771d839c", "type": "electric_scooter", "lat": 38.9310335, "is_disabled": 0}, {"fusion_lat": 0.0, "lon": -77.00401883333333, "is_reserved": 0, "bike_id": "36fd4b1bbd2f437b042eb13e5981b03c", "fusion_lon": 0.0, "rental_uris": {"android": "https://dc.lft.to/lastmile_qr_scan", "ios": "https://dc.lft.to/lastmile_qr_scan"}, "name": "36fd4b1bbd2f437b042eb13e5981b03c", "type": "electric_bike", "lat": 38.98545583333333, "is_disabled": 0}, {"fusion_lat": 0.0, "lon": -76.96232966666666, "is_reserved": 0, "bike_id": "033d507f59ac71f9f280f61859fb8c61", "fusion_lon": 0.0, "rental_uris": {"android": "https://dc.lft.to/lastmile_qr_scan", "ios": "https://dc.lft.to/lastmile_qr_scan"}, "name": "033d507f59ac71f9f280f61859fb8c61", "type": "electric_scooter", "lat": 38.87766883333333, "is_disabled": 0}, {"fusion_lat": 0.0, "lon": -77.009803, "is_reserved": 0, "bike_id": "784587d2a8a235096414141da1342a29", "fusion_lon": 0.0, "rental_uris": {"android": "https://dc.lft.to/lastmile_qr_scan", "ios": "https://dc.lft.to/lastmile_qr_scan"}, "name": "784587d2a8a235096414141da1342a29", "type": "electric_scooter", "lat": 38.87286483333333, "is_disabled": 0}, {"fusion_lat": 0.0, "lon": -77.0237835, "is_reserved": 0, "bike_id": "e927ba1e7f8b57905fefced87d8a8ed4", "fusion_lon": 0.0, "rental_uris": {"android": "https://dc.lft.to/lastmile_qr_scan", "ios": "https://dc.lft.to/lastmile_qr_scan"}, "name": "e927ba1e7f8b57905fefced87d8a8ed4", "type": "electric_scooter", "lat": 38.916006333333335, "is_disabled": 0}, {"fusion_lat": 0.0, "lon": -76.99422633333333, "is_reserved": 0, "bike_id": "039d579bb8da33cdc11f742eaf8cb946", "fusion_lon": 0.0, "rental_uris": {"android": "https://dc.lft.to/lastmile_qr_scan", "ios": "https://dc.lft.to/lastmile_qr_scan"}, "name": "039d579bb8da33cdc11f742eaf8cb946", "type": "electric_scooter", "lat": 38.95053433333333, "is_disabled": 0}, {"fusion_lat": 0.0, "lon": -76.99767716666666, "is_reserved": 0, "bike_id": "e659f2bf4b1639c5d6e1ae009e0f5e25", "fusion_lon": 0.0, "rental_uris": {"android": "https://dc.lft.to/lastmile_qr_scan", "ios": "https://dc.lft.to/lastmile_qr_scan"}, "name": "e659f2bf4b1639c5d6e1ae009e0f5e25", "type": "electric_scooter", "lat": 38.91124683333334, "is_disabled": 0}, {"fusion_lat": 0.0, "lon": -77.04502666666667, "is_reserved": 0, "bike_id": "af3f20810ac3f4d242a6b98dc2f8e158", "fusion_lon": 0.0, "rental_uris": {"android": "https://dc.lft.to/lastmile_qr_scan", "ios": "https://dc.lft.to/lastmile_qr_scan"}, "name": "af3f20810ac3f4d242a6b98dc2f8e158", "type": "electric_scooter", "lat": 38.90782816666667, "is_disabled": 0}, {"fusion_lat": 0.0, "lon": -77.00371866666667, "is_reserved": 0, "bike_id": "57b424dcad0a76411b29d6159dca18b8", "fusion_lon": 0.0, "rental_uris": {"android": "https://dc.lft.to/lastmile_qr_scan", "ios": "https://dc.lft.to/lastmile_qr_scan"}, "name": "57b424dcad0a76411b29d6159dca18b8", "type": "electric_scooter", "lat": 38.897265166666664, "is_disabled": 0}, {"fusion_lat": 0.0, "lon": -77.02147133333334, "is_reserved": 0, "bike_id": "e56fb422327a0f63ef9c5114c5530cf4", "fusion_lon": 0.0, "rental_uris": {"android": "https://dc.lft.to/lastmile_qr_scan", "ios": "https://dc.lft.to/lastmile_qr_scan"}, "name": "e56fb422327a0f63ef9c5114c5530cf4", "type": "electric_scooter", "lat": 38.879178, "is_disabled": 0}, {"fusion_lat": 0.0, "lon": -77.02691966666667, "is_reserved": 0, "bike_id": "2c20b262b9a0f1fdb19b6193a075a723", "fusion_lon": 0.0, "rental_uris": {"android": "https://dc.lft.to/lastmile_qr_scan", "ios": "https://dc.lft.to/lastmile_qr_scan"}, "name": "2c20b262b9a0f1fdb19b6193a075a723", "type": "electric_scooter", "lat": 38.92330333333334, "is_disabled": 0}, {"fusion_lat": 0.0, "lon": -77.039932, "is_reserved": 0, "bike_id": "de1d415162f2b7418a3d831d6eea3c5a", "fusion_lon": 0.0, "rental_uris": {"android": "https://dc.lft.to/lastmile_qr_scan", "ios": "https://dc.lft.to/lastmile_qr_scan"}, "name": "de1d415162f2b7418a3d831d6eea3c5a", "type": "electric_scooter", "lat": 38.91761733333333, "is_disabled": 0}, {"fusion_lat": 0.0, "lon": -77.01132166666666, "is_reserved": 0, "bike_id": "3c0b86f14249d9e2285770724501e8e7", "fusion_lon": 0.0, "rental_uris": {"android": "https://dc.lft.to/lastmile_qr_scan", "ios": "https://dc.lft.to/lastmile_qr_scan"}, "name": "3c0b86f14249d9e2285770724501e8e7", "type": "electric_scooter", "lat": 38.880410166666664, "is_disabled": 0}, {"fusion_lat": 0.0, "lon": -77.01812683333333, "is_reserved": 0, "bike_id": "76d6d5a4478bdb248a9518b298e8ba05", "fusion_lon": 0.0, "rental_uris": {"android": "https://dc.lft.to/lastmile_qr_scan", "ios": "https://dc.lft.to/lastmile_qr_scan"}, "name": "76d6d5a4478bdb248a9518b298e8ba05", "type": "electric_scooter", "lat": 38.9096985, "is_disabled": 0}, {"fusion_lat": 0.0, "lon": -77.0335, "is_reserved": 0, "bike_id": "34fd820d03e024eae38357e51f9c029a", "fusion_lon": 0.0, "rental_uris": {"android": "https://dc.lft.to/lastmile_qr_scan", "ios": "https://dc.lft.to/lastmile_qr_scan"}, "name": "34fd820d03e024eae38357e51f9c029a", "type": "electric_scooter", "lat": 38.89897066666666, "is_disabled": 0}, {"fusion_lat": 0.0, "lon": -77.0269275, "is_reserved": 0, "bike_id": "0bf094cb7531881c279382fc58f7df4e", "fusion_lon": 0.0, "rental_uris": {"android": "https://dc.lft.to/lastmile_qr_scan", "ios": "https://dc.lft.to/lastmile_qr_scan"}, "name": "0bf094cb7531881c279382fc58f7df4e", "type": "electric_scooter", "lat": 38.9124915, "is_disabled": 0}, {"fusion_lat": 0.0, "lon": -76.98034866666667, "is_reserved": 0, "bike_id": "8a26526b246336c426abe34658efb877", "fusion_lon": 0.0, "rental_uris": {"android": "https://dc.lft.to/lastmile_qr_scan", "ios": "https://dc.lft.to/lastmile_qr_scan"}, "name": "8a26526b246336c426abe34658efb877", "type": "electric_bike", "lat": 38.88967483333333, "is_disabled": 0}, {"fusion_lat": 0.0, "lon": -77.048045, "is_reserved": 0, "bike_id": "76277024b66455e08166b31927296888", "fusion_lon": 0.0, "rental_uris": {"android": "https://dc.lft.to/lastmile_qr_scan", "ios": "https://dc.lft.to/lastmile_qr_scan"}, "name": "76277024b66455e08166b31927296888", "type": "electric_scooter", "lat": 38.91915566666667, "is_disabled": 0}, {"fusion_lat": 0.0, "lon": -76.9361925, "is_reserved": 0, "bike_id": "eca272e39cb58915a5acc19c88c16930", "fusion_lon": 0.0, "rental_uris": {"android": "https://dc.lft.to/lastmile_qr_scan", "ios": "https://dc.lft.to/lastmile_qr_scan"}, "name": "eca272e39cb58915a5acc19c88c16930", "type": "electric_bike", "lat": 38.970573333333334, "is_disabled": 0}, {"fusion_lat": 0.0, "lon": -77.00714583333334, "is_reserved": 0, "bike_id": "3ef7a5d04a7af823db088c4b6e1ee1ff", "fusion_lon": 0.0, "rental_uris": {"android": "https://dc.lft.to/lastmile_qr_scan", "ios": "https://dc.lft.to/lastmile_qr_scan"}, "name": "3ef7a5d04a7af823db088c4b6e1ee1ff", "type": "electric_scooter", "lat": 38.9058435, "is_disabled": 0}, {"fusion_lat": 0.0, "lon": -77.04645216666667, "is_reserved": 0, "bike_id": "730eb61961c6e9d9b6efc2a6dfa560f1", "fusion_lon": 0.0, "rental_uris": {"android": "https://dc.lft.to/lastmile_qr_scan", "ios": "https://dc.lft.to/lastmile_qr_scan"}, "name": "730eb61961c6e9d9b6efc2a6dfa560f1", "type": "electric_scooter", "lat": 38.9033555, "is_disabled": 0}, {"fusion_lat": 0.0, "lon": -76.9851775, "is_reserved": 0, "bike_id": "2b5958d5f9477ca90a0bf44520f69332", "fusion_lon": 0.0, "rental_uris": {"android": "https://dc.lft.to/lastmile_qr_scan", "ios": "https://dc.lft.to/lastmile_qr_scan"}, "name": "2b5958d5f9477ca90a0bf44520f69332", "type": "electric_scooter", "lat": 38.86655583333334, "is_disabled": 0}, {"fusion_lat": 0.0, "lon": -77.02766233333334, "is_reserved": 0, "bike_id": "629552a82cfbbb0b874fa5e6bf322440", "fusion_lon": 0.0, "rental_uris": {"android": "https://dc.lft.to/lastmile_qr_scan", "ios": "https://dc.lft.to/lastmile_qr_scan"}, "name": "629552a82cfbbb0b874fa5e6bf322440", "type": "electric_scooter", "lat": 38.92977616666667, "is_disabled": 0}, {"fusion_lat": 0.0, "lon": -76.99015166666666, "is_reserved": 0, "bike_id": "30d1adaf29ff275bea0ef7879797a194", "fusion_lon": 0.0, "rental_uris": {"android": "https://dc.lft.to/lastmile_qr_scan", "ios": "https://dc.lft.to/lastmile_qr_scan"}, "name": "30d1adaf29ff275bea0ef7879797a194", "type": "electric_scooter", "lat": 38.8818405, "is_disabled": 0}, {"fusion_lat": 0.0, "lon": -77.00062633333333, "is_reserved": 0, "bike_id": "85b91af8cae1f8d4e4899d13dcd80b3f", "fusion_lon": 0.0, "rental_uris": {"android": "https://dc.lft.to/lastmile_qr_scan", "ios": "https://dc.lft.to/lastmile_qr_scan"}, "name": "85b91af8cae1f8d4e4899d13dcd80b3f", "type": "electric_scooter", "lat": 38.8998745, "is_disabled": 0}, {"fusion_lat": 0.0, "lon": -77.02505516666666, "is_reserved": 0, "bike_id": "b81de3a1bf0f2a148852bb4bc8fa04e9", "fusion_lon": 0.0, "rental_uris": {"android": "https://dc.lft.to/lastmile_qr_scan", "ios": "https://dc.lft.to/lastmile_qr_scan"}, "name": "b81de3a1bf0f2a148852bb4bc8fa04e9", "type": "electric_scooter", "lat": 38.920981166666664, "is_disabled": 0}, {"fusion_lat": 0.0, "lon": -77.03294866666667, "is_reserved": 0, "bike_id": "9cfdd09ecb3dcc69c6e1397a6e213eb2", "fusion_lon": 0.0, "rental_uris": {"android": "https://dc.lft.to/lastmile_qr_scan", "ios": "https://dc.lft.to/lastmile_qr_scan"}, "name": "9cfdd09ecb3dcc69c6e1397a6e213eb2", "type": "electric_scooter", "lat": 38.928386333333336, "is_disabled": 0}, {"fusion_lat": 0.0, "lon": -77.04319933333333, "is_reserved": 0, "bike_id": "4efe9d9f717d00a59fd625e6001364de", "fusion_lon": 0.0, "rental_uris": {"android": "https://dc.lft.to/lastmile_qr_scan", "ios": "https://dc.lft.to/lastmile_qr_scan"}, "name": "4efe9d9f717d00a59fd625e6001364de", "type": "electric_scooter", "lat": 38.8922485, "is_disabled": 0}, {"fusion_lat": 0.0, "lon": -77.03471433333333, "is_reserved": 0, "bike_id": "d3988962f930224ed02bffc947970de7", "fusion_lon": 0.0, "rental_uris": {"android": "https://dc.lft.to/lastmile_qr_scan", "ios": "https://dc.lft.to/lastmile_qr_scan"}, "name": "d3988962f930224ed02bffc947970de7", "type": "electric_scooter", "lat": 38.9057005, "is_disabled": 0}, {"fusion_lat": 0.0, "lon": -77.00718766666667, "is_reserved": 0, "bike_id": "6ca52e9a97e5a18eeae9a16627de1dad", "fusion_lon": 0.0, "rental_uris": {"android": "https://dc.lft.to/lastmile_qr_scan", "ios": "https://dc.lft.to/lastmile_qr_scan"}, "name": "6ca52e9a97e5a18eeae9a16627de1dad", "type": "electric_scooter", "lat": 38.9057465, "is_disabled": 0}, {"fusion_lat": 0.0, "lon": -77.032021, "is_reserved": 0, "bike_id": "968c0a7854ed06b5d7f7941de324c864", "fusion_lon": 0.0, "rental_uris": {"android": "https://dc.lft.to/lastmile_qr_scan", "ios": "https://dc.lft.to/lastmile_qr_scan"}, "name": "968c0a7854ed06b5d7f7941de324c864", "type": "electric_scooter", "lat": 38.91789283333333, "is_disabled": 0}, {"fusion_lat": 0.0, "lon": -77.04868983333333, "is_reserved": 0, "bike_id": "9b54c3a9ecbe0e12c7a8056fbba0f6f3", "fusion_lon": 0.0, "rental_uris": {"android": "https://dc.lft.to/lastmile_qr_scan", "ios": "https://dc.lft.to/lastmile_qr_scan"}, "name": "9b54c3a9ecbe0e12c7a8056fbba0f6f3", "type": "electric_scooter", "lat": 38.901157, "is_disabled": 0}, {"fusion_lat": 0.0, "lon": -77.03639016666666, "is_reserved": 0, "bike_id": "51597a4dc1d6ad911e635ea1982fd8da", "fusion_lon": 0.0, "rental_uris": {"android": "https://dc.lft.to/lastmile_qr_scan", "ios": "https://dc.lft.to/lastmile_qr_scan"}, "name": "51597a4dc1d6ad911e635ea1982fd8da", "type": "electric_scooter", "lat": 38.921138666666664, "is_disabled": 0}, {"fusion_lat": 0.0, "lon": -77.02802466666667, "is_reserved": 0, "bike_id": "1c13ea134f259b1b45231d177320ae5b", "fusion_lon": 0.0, "rental_uris": {"android": "https://dc.lft.to/lastmile_qr_scan", "ios": "https://dc.lft.to/lastmile_qr_scan"}, "name": "1c13ea134f259b1b45231d177320ae5b", "type": "electric_scooter", "lat": 38.9097455, "is_disabled": 0}, {"fusion_lat": 0.0, "lon": -77.04242333333333, "is_reserved": 0, "bike_id": "a2fdf568b541dc3f6c09274cd07b278d", "fusion_lon": 0.0, "rental_uris": {"android": "https://dc.lft.to/lastmile_qr_scan", "ios": "https://dc.lft.to/lastmile_qr_scan"}, "name": "a2fdf568b541dc3f6c09274cd07b278d", "type": "electric_scooter", "lat": 38.9169625, "is_disabled": 0}, {"fusion_lat": 0.0, "lon": -76.98100183333334, "is_reserved": 0, "bike_id": "82099e92c747b694a6f2b6dd3e291c68", "fusion_lon": 0.0, "rental_uris": {"android": "https://dc.lft.to/lastmile_qr_scan", "ios": "https://dc.lft.to/lastmile_qr_scan"}, "name": "82099e92c747b694a6f2b6dd3e291c68", "type": "electric_scooter", "lat": 38.903871333333335, "is_disabled": 0}, {"fusion_lat": 0.0, "lon": -77.02124083333334, "is_reserved": 0, "bike_id": "bc3f682407df39ae3b2bd746d47a82dd", "fusion_lon": 0.0, "rental_uris": {"android": "https://dc.lft.to/lastmile_qr_scan", "ios": "https://dc.lft.to/lastmile_qr_scan"}, "name": "bc3f682407df39ae3b2bd746d47a82dd", "type": "electric_scooter", "lat": 38.89613533333333, "is_disabled": 0}, {"fusion_lat": 0.0, "lon": -77.04138983333333, "is_reserved": 0, "bike_id": "e1db77827bf8d0ac1b4654de896a448d", "fusion_lon": 0.0, "rental_uris": {"android": "https://dc.lft.to/lastmile_qr_scan", "ios": "https://dc.lft.to/lastmile_qr_scan"}, "name": "e1db77827bf8d0ac1b4654de896a448d", "type": "electric_bike", "lat": 38.823154833333334, "is_disabled": 0}, {"fusion_lat": 0.0, "lon": -77.04234016666666, "is_reserved": 0, "bike_id": "b4d83a42ec0a8489405ad33bfb61127c", "fusion_lon": 0.0, "rental_uris": {"android": "https://dc.lft.to/lastmile_qr_scan", "ios": "https://dc.lft.to/lastmile_qr_scan"}, "name": "b4d83a42ec0a8489405ad33bfb61127c", "type": "electric_scooter", "lat": 38.92185533333333, "is_disabled": 0}, {"fusion_lat": 0.0, "lon": -77.03292433333333, "is_reserved": 0, "bike_id": "6b66a845e872ce0175a1176b1b0e845a", "fusion_lon": 0.0, "rental_uris": {"android": "https://dc.lft.to/lastmile_qr_scan", "ios": "https://dc.lft.to/lastmile_qr_scan"}, "name": "6b66a845e872ce0175a1176b1b0e845a", "type": "electric_scooter", "lat": 38.93792116666667, "is_disabled": 0}, {"fusion_lat": 0.0, "lon": -76.9947695, "is_reserved": 0, "bike_id": "f8ccf1e2dbfe76ab38ca157c3fa7e75f", "fusion_lon": 0.0, "rental_uris": {"android": "https://dc.lft.to/lastmile_qr_scan", "ios": "https://dc.lft.to/lastmile_qr_scan"}, "name": "f8ccf1e2dbfe76ab38ca157c3fa7e75f", "type": "electric_scooter", "lat": 38.862157, "is_disabled": 0}, {"fusion_lat": 0.0, "lon": -77.1392085, "is_reserved": 0, "bike_id": "272c99a7b61dd44e4d010f241a65bbae", "fusion_lon": 0.0, "rental_uris": {"android": "https://dc.lft.to/lastmile_qr_scan", "ios": "https://dc.lft.to/lastmile_qr_scan"}, "name": "272c99a7b61dd44e4d010f241a65bbae", "type": "electric_bike", "lat": 38.87297016666667, "is_disabled": 0}, {"fusion_lat": 0.0, "lon": -76.97207266666666, "is_reserved": 0, "bike_id": "45381e794060223232475464ec8f6485", "fusion_lon": 0.0, "rental_uris": {"android": "https://dc.lft.to/lastmile_qr_scan", "ios": "https://dc.lft.to/lastmile_qr_scan"}, "name": "45381e794060223232475464ec8f6485", "type": "electric_bike", "lat": 38.892913, "is_disabled": 0}, {"fusion_lat": 0.0, "lon": -77.0167445, "is_reserved": 0, "bike_id": "09f6bba5938b1d65652fa64d071f42b5", "fusion_lon": 0.0, "rental_uris": {"android": "https://dc.lft.to/lastmile_qr_scan", "ios": "https://dc.lft.to/lastmile_qr_scan"}, "name": "09f6bba5938b1d65652fa64d071f42b5", "type": "electric_scooter", "lat": 38.8813675, "is_disabled": 0}, {"fusion_lat": 0.0, "lon": -77.03832483333333, "is_reserved": 0, "bike_id": "e841743ad6aa91b8c7b274a435f84413", "fusion_lon": 0.0, "rental_uris": {"android": "https://dc.lft.to/lastmile_qr_scan", "ios": "https://dc.lft.to/lastmile_qr_scan"}, "name": "e841743ad6aa91b8c7b274a435f84413", "type": "electric_scooter", "lat": 38.911215, "is_disabled": 0}, {"fusion_lat": 0.0, "lon": -76.998994, "is_reserved": 0, "bike_id": "6cadc8c732e50e036b4f72422b0b84f3", "fusion_lon": 0.0, "rental_uris": {"android": "https://dc.lft.to/lastmile_qr_scan", "ios": "https://dc.lft.to/lastmile_qr_scan"}, "name": "6cadc8c732e50e036b4f72422b0b84f3", "type": "electric_scooter", "lat": 38.9481585, "is_disabled": 0}, {"fusion_lat": 0.0, "lon": -77.02408016666666, "is_reserved": 0, "bike_id": "7e90478e5f5c368e9bbc62930f191aae", "fusion_lon": 0.0, "rental_uris": {"android": "https://dc.lft.to/lastmile_qr_scan", "ios": "https://dc.lft.to/lastmile_qr_scan"}, "name": "7e90478e5f5c368e9bbc62930f191aae", "type": "electric_scooter", "lat": 38.9206185, "is_disabled": 0}, {"fusion_lat": 0.0, "lon": -76.99931, "is_reserved": 0, "bike_id": "2c39492b195c38c64985c058a3e036ff", "fusion_lon": 0.0, "rental_uris": {"android": "https://dc.lft.to/lastmile_qr_scan", "ios": "https://dc.lft.to/lastmile_qr_scan"}, "name": "2c39492b195c38c64985c058a3e036ff", "type": "electric_scooter", "lat": 38.8429685, "is_disabled": 0}, {"fusion_lat": 0.0, "lon": -77.01279533333333, "is_reserved": 0, "bike_id": "efec6fd95c5f620a27e6957850c42058", "fusion_lon": 0.0, "rental_uris": {"android": "https://dc.lft.to/lastmile_qr_scan", "ios": "https://dc.lft.to/lastmile_qr_scan"}, "name": "efec6fd95c5f620a27e6957850c42058", "type": "electric_scooter", "lat": 38.901948833333336, "is_disabled": 0}, {"fusion_lat": 0.0, "lon": -76.9307325, "is_reserved": 0, "bike_id": "958d8eb24e314e1a5ae5bb12cfb418aa", "fusion_lon": 0.0, "rental_uris": {"android": "https://dc.lft.to/lastmile_qr_scan", "ios": "https://dc.lft.to/lastmile_qr_scan"}, "name": "958d8eb24e314e1a5ae5bb12cfb418aa", "type": "electric_scooter", "lat": 38.90161783333333, "is_disabled": 0}, {"fusion_lat": 0.0, "lon": -77.12731633333334, "is_reserved": 0, "bike_id": "d9e1cbc0bedb3ae69d16ccbbc91d8128", "fusion_lon": 0.0, "rental_uris": {"android": "https://dc.lft.to/lastmile_qr_scan", "ios": "https://dc.lft.to/lastmile_qr_scan"}, "name": "d9e1cbc0bedb3ae69d16ccbbc91d8128", "type": "electric_bike", "lat": 38.895635, "is_disabled": 0}, {"fusion_lat": 0.0, "lon": -77.03690666666667, "is_reserved": 0, "bike_id": "9d00643fb2c1d6b4f6c00e7fac838983", "fusion_lon": 0.0, "rental_uris": {"android": "https://dc.lft.to/lastmile_qr_scan", "ios": "https://dc.lft.to/lastmile_qr_scan"}, "name": "9d00643fb2c1d6b4f6c00e7fac838983", "type": "electric_scooter", "lat": 38.926111, "is_disabled": 0}, {"fusion_lat": 0.0, "lon": -76.9785875, "is_reserved": 0, "bike_id": "85c3b5489964b5697a948d6fab078cd7", "fusion_lon": 0.0, "rental_uris": {"android": "https://dc.lft.to/lastmile_qr_scan", "ios": "https://dc.lft.to/lastmile_qr_scan"}, "name": "85c3b5489964b5697a948d6fab078cd7", "type": "electric_scooter", "lat": 38.870751, "is_disabled": 0}, {"fusion_lat": 0.0, "lon": -77.00750616666667, "is_reserved": 0, "bike_id": "0f4fe1a85801ed1557e568dfb2bf4108", "fusion_lon": 0.0, "rental_uris": {"android": "https://dc.lft.to/lastmile_qr_scan", "ios": "https://dc.lft.to/lastmile_qr_scan"}, "name": "0f4fe1a85801ed1557e568dfb2bf4108", "type": "electric_scooter", "lat": 38.9267555, "is_disabled": 0}, {"fusion_lat": 0.0, "lon": -77.027978, "is_reserved": 0, "bike_id": "ef895356eb51f85e64f796249e554144", "fusion_lon": 0.0, "rental_uris": {"android": "https://dc.lft.to/lastmile_qr_scan", "ios": "https://dc.lft.to/lastmile_qr_scan"}, "name": "ef895356eb51f85e64f796249e554144", "type": "electric_scooter", "lat": 38.89233383333333, "is_disabled": 0}, {"fusion_lat": 0.0, "lon": -76.9656185, "is_reserved": 0, "bike_id": "d958c5f82f04a6443a9637415a82d374", "fusion_lon": 0.0, "rental_uris": {"android": "https://dc.lft.to/lastmile_qr_scan", "ios": "https://dc.lft.to/lastmile_qr_scan"}, "name": "d958c5f82f04a6443a9637415a82d374", "type": "electric_bike", "lat": 38.8737885, "is_disabled": 0}, {"fusion_lat": 0.0, "lon": -77.02901916666667, "is_reserved": 0, "bike_id": "9fffc1a07edcc7f63e0fc2a8c499a0f2", "fusion_lon": 0.0, "rental_uris": {"android": "https://dc.lft.to/lastmile_qr_scan", "ios": "https://dc.lft.to/lastmile_qr_scan"}, "name": "9fffc1a07edcc7f63e0fc2a8c499a0f2", "type": "electric_scooter", "lat": 38.94040916666667, "is_disabled": 0}, {"fusion_lat": 0.0, "lon": -77.043279, "is_reserved": 0, "bike_id": "9a5a58b9a37d4544082ed4a28908b2c9", "fusion_lon": 0.0, "rental_uris": {"android": "https://dc.lft.to/lastmile_qr_scan", "ios": "https://dc.lft.to/lastmile_qr_scan"}, "name": "9a5a58b9a37d4544082ed4a28908b2c9", "type": "electric_scooter", "lat": 38.90766966666666, "is_disabled": 0}, {"fusion_lat": 0.0, "lon": -77.03512933333333, "is_reserved": 0, "bike_id": "b36b9389fbfccf84de49011e55142e80", "fusion_lon": 0.0, "rental_uris": {"android": "https://dc.lft.to/lastmile_qr_scan", "ios": "https://dc.lft.to/lastmile_qr_scan"}, "name": "b36b9389fbfccf84de49011e55142e80", "type": "electric_scooter", "lat": 38.918865333333336, "is_disabled": 0}, {"fusion_lat": 0.0, "lon": -77.02897866666666, "is_reserved": 0, "bike_id": "d2ab7553cee043f28fdce6a968222fac", "fusion_lon": 0.0, "rental_uris": {"android": "https://dc.lft.to/lastmile_qr_scan", "ios": "https://dc.lft.to/lastmile_qr_scan"}, "name": "d2ab7553cee043f28fdce6a968222fac", "type": "electric_scooter", "lat": 38.96128233333334, "is_disabled": 0}, {"fusion_lat": 0.0, "lon": -76.99895983333333, "is_reserved": 0, "bike_id": "109f132ecafbe30904919e68216580f0", "fusion_lon": 0.0, "rental_uris": {"android": "https://dc.lft.to/lastmile_qr_scan", "ios": "https://dc.lft.to/lastmile_qr_scan"}, "name": "109f132ecafbe30904919e68216580f0", "type": "electric_scooter", "lat": 38.924557666666665, "is_disabled": 0}, {"fusion_lat": 0.0, "lon": -77.02916216666667, "is_reserved": 0, "bike_id": "99cf48f8c1d2137edfed5dcebe4f2f9d", "fusion_lon": 0.0, "rental_uris": {"android": "https://dc.lft.to/lastmile_qr_scan", "ios": "https://dc.lft.to/lastmile_qr_scan"}, "name": "99cf48f8c1d2137edfed5dcebe4f2f9d", "type": "electric_scooter", "lat": 38.90374666666666, "is_disabled": 0}, {"fusion_lat": 0.0, "lon": -77.0530375, "is_reserved": 0, "bike_id": "dea4484078e38a5ab648bff7642489c9", "fusion_lon": 0.0, "rental_uris": {"android": "https://dc.lft.to/lastmile_qr_scan", "ios": "https://dc.lft.to/lastmile_qr_scan"}, "name": "dea4484078e38a5ab648bff7642489c9", "type": "electric_scooter", "lat": 38.898521, "is_disabled": 0}, {"fusion_lat": 0.0, "lon": -77.0121975, "is_reserved": 0, "bike_id": "20336711b2e263ab72da2dd508ade4ab", "fusion_lon": 0.0, "rental_uris": {"android": "https://dc.lft.to/lastmile_qr_scan", "ios": "https://dc.lft.to/lastmile_qr_scan"}, "name": "20336711b2e263ab72da2dd508ade4ab", "type": "electric_scooter", "lat": 38.91523766666667, "is_disabled": 0}, {"fusion_lat": 0.0, "lon": -77.02950883333334, "is_reserved": 0, "bike_id": "ebed9d9780e27ac44108e17663384640", "fusion_lon": 0.0, "rental_uris": {"android": "https://dc.lft.to/lastmile_qr_scan", "ios": "https://dc.lft.to/lastmile_qr_scan"}, "name": "ebed9d9780e27ac44108e17663384640", "type": "electric_scooter", "lat": 38.92174383333333, "is_disabled": 0}, {"fusion_lat": 0.0, "lon": -76.98553283333334, "is_reserved": 0, "bike_id": "6336ebfeffe4f936c81359c7ecc8099d", "fusion_lon": 0.0, "rental_uris": {"android": "https://dc.lft.to/lastmile_qr_scan", "ios": "https://dc.lft.to/lastmile_qr_scan"}, "name": "6336ebfeffe4f936c81359c7ecc8099d", "type": "electric_scooter", "lat": 38.91032833333333, "is_disabled": 0}, {"fusion_lat": 0.0, "lon": -77.033401, "is_reserved": 0, "bike_id": "23bfab44e802f4f70dd295f6ce94c3ef", "fusion_lon": 0.0, "rental_uris": {"android": "https://dc.lft.to/lastmile_qr_scan", "ios": "https://dc.lft.to/lastmile_qr_scan"}, "name": "23bfab44e802f4f70dd295f6ce94c3ef", "type": "electric_scooter", "lat": 38.91708716666667, "is_disabled": 0}, {"fusion_lat": 0.0, "lon": -77.03632783333333, "is_reserved": 0, "bike_id": "300625e3282f9807ffb208ed610f2106", "fusion_lon": 0.0, "rental_uris": {"android": "https://dc.lft.to/lastmile_qr_scan", "ios": "https://dc.lft.to/lastmile_qr_scan"}, "name": "300625e3282f9807ffb208ed610f2106", "type": "electric_scooter", "lat": 38.93709966666667, "is_disabled": 0}, {"fusion_lat": 0.0, "lon": -77.04622583333334, "is_reserved": 0, "bike_id": "b0dc727f3914a3e0a471723a84017487", "fusion_lon": 0.0, "rental_uris": {"android": "https://dc.lft.to/lastmile_qr_scan", "ios": "https://dc.lft.to/lastmile_qr_scan"}, "name": "b0dc727f3914a3e0a471723a84017487", "type": "electric_scooter", "lat": 38.92323283333333, "is_disabled": 0}, {"fusion_lat": 0.0, "lon": -77.02439216666667, "is_reserved": 0, "bike_id": "52558f34a1f083eb830b1f9424ffd10f", "fusion_lon": 0.0, "rental_uris": {"android": "https://dc.lft.to/lastmile_qr_scan", "ios": "https://dc.lft.to/lastmile_qr_scan"}, "name": "52558f34a1f083eb830b1f9424ffd10f", "type": "electric_scooter", "lat": 38.8973065, "is_disabled": 0}, {"fusion_lat": 0.0, "lon": -77.03360533333333, "is_reserved": 0, "bike_id": "9d3e330257caa36985eb09d7153dc24c", "fusion_lon": 0.0, "rental_uris": {"android": "https://dc.lft.to/lastmile_qr_scan", "ios": "https://dc.lft.to/lastmile_qr_scan"}, "name": "9d3e330257caa36985eb09d7153dc24c", "type": "electric_scooter", "lat": 38.9001255, "is_disabled": 0}, {"fusion_lat": 0.0, "lon": -77.01499466666667, "is_reserved": 0, "bike_id": "136bf645fcc5132af19f4f2c92e7ee86", "fusion_lon": 0.0, "rental_uris": {"android": "https://dc.lft.to/lastmile_qr_scan", "ios": "https://dc.lft.to/lastmile_qr_scan"}, "name": "136bf645fcc5132af19f4f2c92e7ee86", "type": "electric_scooter", "lat": 38.886643666666664, "is_disabled": 0}, {"fusion_lat": 0.0, "lon": -76.99152733333334, "is_reserved": 0, "bike_id": "c42987510277052294df5246769968d5", "fusion_lon": 0.0, "rental_uris": {"android": "https://dc.lft.to/lastmile_qr_scan", "ios": "https://dc.lft.to/lastmile_qr_scan"}, "name": "c42987510277052294df5246769968d5", "type": "electric_scooter", "lat": 38.86324066666667, "is_disabled": 0}, {"fusion_lat": 0.0, "lon": -77.04620733333333, "is_reserved": 0, "bike_id": "4d558dbfe8f0727d5546c5edc0bd4950", "fusion_lon": 0.0, "rental_uris": {"android": "https://dc.lft.to/lastmile_qr_scan", "ios": "https://dc.lft.to/lastmile_qr_scan"}, "name": "4d558dbfe8f0727d5546c5edc0bd4950", "type": "electric_scooter", "lat": 38.916106166666665, "is_disabled": 0}, {"fusion_lat": 0.0, "lon": -77.03291033333333, "is_reserved": 0, "bike_id": "dc5df6e91d502b7f9d00bfed178ea230", "fusion_lon": 0.0, "rental_uris": {"android": "https://dc.lft.to/lastmile_qr_scan", "ios": "https://dc.lft.to/lastmile_qr_scan"}, "name": "dc5df6e91d502b7f9d00bfed178ea230", "type": "electric_scooter", "lat": 38.92056316666667, "is_disabled": 0}, {"fusion_lat": 0.0, "lon": -77.01980516666667, "is_reserved": 0, "bike_id": "e54e571eb90672e5ed0ad1bfc5fce5da", "fusion_lon": 0.0, "rental_uris": {"android": "https://dc.lft.to/lastmile_qr_scan", "ios": "https://dc.lft.to/lastmile_qr_scan"}, "name": "e54e571eb90672e5ed0ad1bfc5fce5da", "type": "electric_scooter", "lat": 38.88717483333333, "is_disabled": 0}, {"fusion_lat": 0.0, "lon": -77.042911, "is_reserved": 0, "bike_id": "d6274ea799cfa7dc2ac16e314b14c504", "fusion_lon": 0.0, "rental_uris": {"android": "https://dc.lft.to/lastmile_qr_scan", "ios": "https://dc.lft.to/lastmile_qr_scan"}, "name": "d6274ea799cfa7dc2ac16e314b14c504", "type": "electric_scooter", "lat": 38.91653916666667, "is_disabled": 0}, {"fusion_lat": 0.0, "lon": -77.04269366666666, "is_reserved": 0, "bike_id": "1a30f87949496c7d3100f6654385b810", "fusion_lon": 0.0, "rental_uris": {"android": "https://dc.lft.to/lastmile_qr_scan", "ios": "https://dc.lft.to/lastmile_qr_scan"}, "name": "1a30f87949496c7d3100f6654385b810", "type": "electric_scooter", "lat": 38.908636333333334, "is_disabled": 0}, {"fusion_lat": 0.0, "lon": -77.04457983333333, "is_reserved": 0, "bike_id": "6d9eb446e0c81d8bdecc94f043dc9c87", "fusion_lon": 0.0, "rental_uris": {"android": "https://dc.lft.to/lastmile_qr_scan", "ios": "https://dc.lft.to/lastmile_qr_scan"}, "name": "6d9eb446e0c81d8bdecc94f043dc9c87", "type": "electric_scooter", "lat": 38.923963666666666, "is_disabled": 0}, {"fusion_lat": 0.0, "lon": -77.027268, "is_reserved": 0, "bike_id": "5958e4f3464bea1b8685b72a363fbe95", "fusion_lon": 0.0, "rental_uris": {"android": "https://dc.lft.to/lastmile_qr_scan", "ios": "https://dc.lft.to/lastmile_qr_scan"}, "name": "5958e4f3464bea1b8685b72a363fbe95", "type": "electric_scooter", "lat": 38.91102166666667, "is_disabled": 0}, {"fusion_lat": 0.0, "lon": -77.031815, "is_reserved": 0, "bike_id": "58d5acada3498860a933d110b7544899", "fusion_lon": 0.0, "rental_uris": {"android": "https://dc.lft.to/lastmile_qr_scan", "ios": "https://dc.lft.to/lastmile_qr_scan"}, "name": "58d5acada3498860a933d110b7544899", "type": "electric_scooter", "lat": 38.915815333333335, "is_disabled": 0}, {"fusion_lat": 0.0, "lon": -77.02652333333333, "is_reserved": 0, "bike_id": "1ee5440df593b3f80a452d4ce6ba8627", "fusion_lon": 0.0, "rental_uris": {"android": "https://dc.lft.to/lastmile_qr_scan", "ios": "https://dc.lft.to/lastmile_qr_scan"}, "name": "1ee5440df593b3f80a452d4ce6ba8627", "type": "electric_scooter", "lat": 38.892143833333336, "is_disabled": 0}, {"fusion_lat": 0.0, "lon": -77.030663, "is_reserved": 0, "bike_id": "f2fd41aafdf12fd42aaa0f2fd0385445", "fusion_lon": 0.0, "rental_uris": {"android": "https://dc.lft.to/lastmile_qr_scan", "ios": "https://dc.lft.to/lastmile_qr_scan"}, "name": "f2fd41aafdf12fd42aaa0f2fd0385445", "type": "electric_scooter", "lat": 38.907563333333336, "is_disabled": 0}, {"fusion_lat": 0.0, "lon": -77.07512866666667, "is_reserved": 0, "bike_id": "02ee77177f6512965b95c060185e3f16", "fusion_lon": 0.0, "rental_uris": {"android": "https://dc.lft.to/lastmile_qr_scan", "ios": "https://dc.lft.to/lastmile_qr_scan"}, "name": "02ee77177f6512965b95c060185e3f16", "type": "electric_scooter", "lat": 38.89476066666667, "is_disabled": 0}, {"fusion_lat": 0.0, "lon": -77.051144, "is_reserved": 0, "bike_id": "726db2bf906f5daa07b97a7a851dd137", "fusion_lon": 0.0, "rental_uris": {"android": "https://dc.lft.to/lastmile_qr_scan", "ios": "https://dc.lft.to/lastmile_qr_scan"}, "name": "726db2bf906f5daa07b97a7a851dd137", "type": "electric_scooter", "lat": 38.92343533333333, "is_disabled": 0}, {"fusion_lat": 0.0, "lon": -76.976285, "is_reserved": 0, "bike_id": "37217ad136428440917e3cfe86f86d72", "fusion_lon": 0.0, "rental_uris": {"android": "https://dc.lft.to/lastmile_qr_scan", "ios": "https://dc.lft.to/lastmile_qr_scan"}, "name": "37217ad136428440917e3cfe86f86d72", "type": "electric_scooter", "lat": 38.905700333333336, "is_disabled": 0}, {"fusion_lat": 0.0, "lon": -76.98541816666666, "is_reserved": 0, "bike_id": "118998e5f0ccd35fb93b3b7f83c4651a", "fusion_lon": 0.0, "rental_uris": {"android": "https://dc.lft.to/lastmile_qr_scan", "ios": "https://dc.lft.to/lastmile_qr_scan"}, "name": "118998e5f0ccd35fb93b3b7f83c4651a", "type": "electric_scooter", "lat": 38.9102695, "is_disabled": 0}, {"fusion_lat": 0.0, "lon": -77.03269516666667, "is_reserved": 0, "bike_id": "0bf97f2095c56a2d55429ff7f14c923c", "fusion_lon": 0.0, "rental_uris": {"android": "https://dc.lft.to/lastmile_qr_scan", "ios": "https://dc.lft.to/lastmile_qr_scan"},