{"data": {"bikes": [{"fusion_lon": 0.0, "is_reserved": 0, "lat": 38.90380016666667, "is_disabled": 0, "type": "electric_scooter", "lon": -77.04554616666667, "fusion_lat": 0.0, "name": "ad2facc85a5f6990e9c029d37b396c21", "rental_uris": {"android": "https://dc.lft.to/lastmile_qr_scan", "ios": "https://dc.lft.to/lastmile_qr_scan"}, "bike_id": "ad2facc85a5f6990e9c029d37b396c21"}, {"fusion_lon": 0.0, "is_reserved": 0, "lat": 38.895763, "is_disabled": 0, "type": "electric_scooter", "lon": -77.0209125, "fusion_lat": 0.0, "name": "fe3a4114755343d722ceaeddfea63e41", "rental_uris": {"android": "https://dc.lft.to/lastmile_qr_scan", "ios": "https://dc.lft.to/lastmile_qr_scan"}, "bike_id": "fe3a4114755343d722ceaeddfea63e41"}, {"fusion_lon": 0.0, "is_reserved": 0, "lat": 38.904453, "is_disabled": 0, "type": "electric_scooter", "lon": -77.053176, "fusion_lat": 0.0, "name": "fcc53fff01879e19c2a262544f441a10", "rental_uris": {"android": "https://dc.lft.to/lastmile_qr_scan", "ios": "https://dc.lft.to/lastmile_qr_scan"}, "bike_id": "fcc53fff01879e19c2a262544f441a10"}, {"fusion_lon": 0.0, "is_reserved": 0, "lat": 38.9225285, "is_disabled": 0, "type": "electric_scooter", "lon": -77.019476, "fusion_lat": 0.0, "name": "b29f44f3554e028c98d9963b73629ee6", "rental_uris": {"android": "https://dc.lft.to/lastmile_qr_scan", "ios": "https://dc.lft.to/lastmile_qr_scan"}, "bike_id": "b29f44f3554e028c98d9963b73629ee6"}, {"fusion_lon": 0.0, "is_reserved": 0, "lat": 38.915116166666664, "is_disabled": 0, "type": "electric_scooter", "lon": -77.02449183333333, "fusion_lat": 0.0, "name": "47158874b417d4cc34968439e1672e68", "rental_uris": {"android": "https://dc.lft.to/lastmile_qr_scan", "ios": "https://dc.lft.to/lastmile_qr_scan"}, "bike_id": "47158874b417d4cc34968439e1672e68"}, {"fusion_lon": 0.0, "is_reserved": 0, "lat": 38.900291833333334, "is_disabled": 0, "type": "electric_scooter", "lon": -76.99877616666667, "fusion_lat": 0.0, "name": "a49c769272ae407c0dcdaaaf2c90f42f", "rental_uris": {"android": "https://dc.lft.to/lastmile_qr_scan", "ios": "https://dc.lft.to/lastmile_qr_scan"}, "bike_id": "a49c769272ae407c0dcdaaaf2c90f42f"}, {"fusion_lon": 0.0, "is_reserved": 0, "lat": 38.95231616666667, "is_disabled": 0, "type": "electric_bike", "lon": -77.00723833333333, "fusion_lat": 0.0, "name": "b7767e4c13148d230199ab3ae1ce1f6a", "rental_uris": {"android": "https://dc.lft.to/lastmile_qr_scan", "ios": "https://dc.lft.to/lastmile_qr_scan"}, "bike_id": "b7767e4c13148d230199ab3ae1ce1f6a"}, {"fusion_lon": 0.0, "is_reserved": 0, "lat": 38.902904666666664, "is_disabled": 0, "type": "electric_scooter", "lon": -77.03666616666666, "fusion_lat": 0.0, "name": "ee029b17f46625efd58a459f848b86b4", "rental_uris": {"android": "https://dc.lft.to/lastmile_qr_scan", "ios": "https://dc.lft.to/lastmile_qr_scan"}, "bike_id": "ee029b17f46625efd58a459f848b86b4"}, {"fusion_lon": 0.0, "is_reserved": 0, "lat": 38.878792833333335, "is_disabled": 0, "type": "electric_scooter", "lon": -77.00048533333333, "fusion_lat": 0.0, "name": "67a5f297e23c9f00b418d27fb7a66b2b", "rental_uris": {"android": "https://dc.lft.to/lastmile_qr_scan", "ios": "https://dc.lft.to/lastmile_qr_scan"}, "bike_id": "67a5f297e23c9f00b418d27fb7a66b2b"}, {"fusion_lon": 0.0, "is_reserved": 0, "lat": 38.9385405, "is_disabled": 0, "type": "electric_scooter", "lon": -77.0263015, "fusion_lat": 0.0, "name": "e39fa6eec0974053e18af02a41435c8c", "rental_uris": {"android": "https://dc.lft.to/lastmile_qr_scan", "ios": "https://dc.lft.to/lastmile_qr_scan"}, "bike_id": "e39fa6eec0974053e18af02a41435c8c"}, {"fusion_lon": 0.0, "is_reserved": 0, "lat": 38.905763666666665, "is_disabled": 0, "type": "electric_scooter", "lon": -77.002601, "fusion_lat": 0.0, "name": "ec37a3cbc6d8a036eecac76d6836f2da", "rental_uris": {"android": "https://dc.lft.to/lastmile_qr_scan", "ios": "https://dc.lft.to/lastmile_qr_scan"}, "bike_id": "ec37a3cbc6d8a036eecac76d6836f2da"}, {"fusion_lon": 0.0, "is_reserved": 0, "lat": 38.924747333333336, "is_disabled": 0, "type": "electric_scooter", "lon": -77.02218266666667, "fusion_lat": 0.0, "name": "30f8ea949aa72b9292a385c3c79342fd", "rental_uris": {"android": "https://dc.lft.to/lastmile_qr_scan", "ios": "https://dc.lft.to/lastmile_qr_scan"}, "bike_id": "30f8ea949aa72b9292a385c3c79342fd"}, {"fusion_lon": 0.0, "is_reserved": 0, "lat": 38.80528833333334, "is_disabled": 0, "type": "electric_bike", "lon": -77.04993483333334, "fusion_lat": 0.0, "name": "0195ca6880365cfc4a8bc4c876168290", "rental_uris": {"android": "https://dc.lft.to/lastmile_qr_scan", "ios": "https://dc.lft.to/lastmile_qr_scan"}, "bike_id": "0195ca6880365cfc4a8bc4c876168290"}, {"fusion_lon": 0.0, "is_reserved": 0, "lat": 38.911072833333336, "is_disabled": 0, "type": "electric_scooter", "lon": -76.99765116666667, "fusion_lat": 0.0, "name": "ade8d93c5e401fce4eba640098a9cba6", "rental_uris": {"android": "https://dc.lft.to/lastmile_qr_scan", "ios": "https://dc.lft.to/lastmile_qr_scan"}, "bike_id": "ade8d93c5e401fce4eba640098a9cba6"}, {"fusion_lon": 0.0, "is_reserved": 0, "lat": 38.906675166666666, "is_disabled": 0, "type": "electric_scooter", "lon": -77.0461805, "fusion_lat": 0.0, "name": "a29e31b7139827a69a5c651bee54183c", "rental_uris": {"android": "https://dc.lft.to/lastmile_qr_scan", "ios": "https://dc.lft.to/lastmile_qr_scan"}, "bike_id": "a29e31b7139827a69a5c651bee54183c"}, {"fusion_lon": 0.0, "is_reserved": 0, "lat": 38.894645, "is_disabled": 0, "type": "electric_scooter", "lon": -77.022446, "fusion_lat": 0.0, "name": "4d1e48f066f8b857886424ec278be93e", "rental_uris": {"android": "https://dc.lft.to/lastmile_qr_scan", "ios": "https://dc.lft.to/lastmile_qr_scan"}, "bike_id": "4d1e48f066f8b857886424ec278be93e"}, {"fusion_lon": 0.0, "is_reserved": 0, "lat": 38.910991333333335, "is_disabled": 0, "type": "electric_scooter", "lon": -77.0486945, "fusion_lat": 0.0, "name": "eaa12b794a2fb0b895f7d8e110e3bec4", "rental_uris": {"android": "https://dc.lft.to/lastmile_qr_scan", "ios": "https://dc.lft.to/lastmile_qr_scan"}, "bike_id": "eaa12b794a2fb0b895f7d8e110e3bec4"}, {"fusion_lon": 0.0, "is_reserved": 0, "lat": 38.90357316666667, "is_disabled": 0, "type": "electric_scooter", "lon": -77.03859483333333, "fusion_lat": 0.0, "name": "5ee24eeb47cc5643c629db5683fe6920", "rental_uris": {"android": "https://dc.lft.to/lastmile_qr_scan", "ios": "https://dc.lft.to/lastmile_qr_scan"}, "bike_id": "5ee24eeb47cc5643c629db5683fe6920"}, {"fusion_lon": 0.0, "is_reserved": 0, "lat": 38.93747483333333, "is_disabled": 0, "type": "electric_scooter", "lon": -76.99909566666666, "fusion_lat": 0.0, "name": "fef685603fdb9c91264a7b0dbcadef46", "rental_uris": {"android": "https://dc.lft.to/lastmile_qr_scan", "ios": "https://dc.lft.to/lastmile_qr_scan"}, "bike_id": "fef685603fdb9c91264a7b0dbcadef46"}, {"fusion_lon": 0.0, "is_reserved": 0, "lat": 38.9200815, "is_disabled": 0, "type": "electric_scooter", "lon": -77.04177966666667, "fusion_lat": 0.0, "name": "059473f8ebfeef0aae611dfdf60004ee", "rental_uris": {"android": "https://dc.lft.to/lastmile_qr_scan", "ios": "https://dc.lft.to/lastmile_qr_scan"}, "bike_id": "059473f8ebfeef0aae611dfdf60004ee"}, {"fusion_lon": 0.0, "is_reserved": 0, "lat": 38.93060933333334, "is_disabled": 0, "type": "electric_scooter", "lon": -77.02320566666667, "fusion_lat": 0.0, "name": "62e5c79ca3a437a0a4c8576a89576f7e", "rental_uris": {"android": "https://dc.lft.to/lastmile_qr_scan", "ios": "https://dc.lft.to/lastmile_qr_scan"}, "bike_id": "62e5c79ca3a437a0a4c8576a89576f7e"}, {"fusion_lon": 0.0, "is_reserved": 0, "lat": 38.94470066666667, "is_disabled": 0, "type": "electric_bike", "lon": -76.986868, "fusion_lat": 0.0, "name": "26789dfee568c48d9c1d0898f1a78732", "rental_uris": {"android": "https://dc.lft.to/lastmile_qr_scan", "ios": "https://dc.lft.to/lastmile_qr_scan"}, "bike_id": "26789dfee568c48d9c1d0898f1a78732"}, {"fusion_lon": 0.0, "is_reserved": 0, "lat": 38.9013665, "is_disabled": 0, "type": "electric_scooter", "lon": -77.03374933333333, "fusion_lat": 0.0, "name": "a2f68b8cde6be96a334157e5ef31de73", "rental_uris": {"android": "https://dc.lft.to/lastmile_qr_scan", "ios": "https://dc.lft.to/lastmile_qr_scan"}, "bike_id": "a2f68b8cde6be96a334157e5ef31de73"}, {"fusion_lon": 0.0, "is_reserved": 0, "lat": 38.8879035, "is_disabled": 0, "type": "electric_scooter", "lon": -76.9951375, "fusion_lat": 0.0, "name": "f996e8a818ed20f71684b3f703d811d0", "rental_uris": {"android": "https://dc.lft.to/lastmile_qr_scan", "ios": "https://dc.lft.to/lastmile_qr_scan"}, "bike_id": "f996e8a818ed20f71684b3f703d811d0"}, {"fusion_lon": 0.0, "is_reserved": 0, "lat": 38.90413183333333, "is_disabled": 0, "type": "electric_scooter", "lon": -77.0437475, "fusion_lat": 0.0, "name": "8cca539badd000f99f8e762bc5c46490", "rental_uris": {"android": "https://dc.lft.to/lastmile_qr_scan", "ios": "https://dc.lft.to/lastmile_qr_scan"}, "bike_id": "8cca539badd000f99f8e762bc5c46490"}, {"fusion_lon": 0.0, "is_reserved": 0, "lat": 38.923127666666666, "is_disabled": 0, "type": "electric_scooter", "lon": -77.0451425, "fusion_lat": 0.0, "name": "f7066e6dfa9c0a55bf7dfc30c75b25ca", "rental_uris": {"android": "https://dc.lft.to/lastmile_qr_scan", "ios": "https://dc.lft.to/lastmile_qr_scan"}, "bike_id": "f7066e6dfa9c0a55bf7dfc30c75b25ca"}, {"fusion_lon": 0.0, "is_reserved": 0, "lat": 38.908368833333334, "is_disabled": 0, "type": "electric_scooter", "lon": -77.03941416666666, "fusion_lat": 0.0, "name": "af195045022d26bb52d048fa7592ed39", "rental_uris": {"android": "https://dc.lft.to/lastmile_qr_scan", "ios": "https://dc.lft.to/lastmile_qr_scan"}, "bike_id": "af195045022d26bb52d048fa7592ed39"}, {"fusion_lon": 0.0, "is_reserved": 0, "lat": 38.8762585, "is_disabled": 0, "type": "electric_scooter", "lon": -76.96524216666667, "fusion_lat": 0.0, "name": "1a579cf80475cff7fe487dbe38ee614b", "rental_uris": {"android": "https://dc.lft.to/lastmile_qr_scan", "ios": "https://dc.lft.to/lastmile_qr_scan"}, "bike_id": "1a579cf80475cff7fe487dbe38ee614b"}, {"fusion_lon": 0.0, "is_reserved": 0, "lat": 38.949749, "is_disabled": 0, "type": "electric_scooter", "lon": -77.02449283333333, "fusion_lat": 0.0, "name": "c534518fca381e459f0cdefa2d42a26e", "rental_uris": {"android": "https://dc.lft.to/lastmile_qr_scan", "ios": "https://dc.lft.to/lastmile_qr_scan"}, "bike_id": "c534518fca381e459f0cdefa2d42a26e"}, {"fusion_lon": 0.0, "is_reserved": 0, "lat": 38.906041, "is_disabled": 0, "type": "electric_scooter", "lon": -77.016116, "fusion_lat": 0.0, "name": "95511507f1b5900057cb88e49f514460", "rental_uris": {"android": "https://dc.lft.to/lastmile_qr_scan", "ios": "https://dc.lft.to/lastmile_qr_scan"}, "bike_id": "95511507f1b5900057cb88e49f514460"}, {"fusion_lon": 0.0, "is_reserved": 0, "lat": 38.92331216666667, "is_disabled": 0, "type": "electric_scooter", "lon": -77.0196175, "fusion_lat": 0.0, "name": "834b3bbf3ec9d3e4e8da0dd0f534aa74", "rental_uris": {"android": "https://dc.lft.to/lastmile_qr_scan", "ios": "https://dc.lft.to/lastmile_qr_scan"}, "bike_id": "834b3bbf3ec9d3e4e8da0dd0f534aa74"}, {"fusion_lon": 0.0, "is_reserved": 0, "lat": 38.90794116666667, "is_disabled": 0, "type": "electric_bike", "lon": -77.07164066666667, "fusion_lat": 0.0, "name": "923ac67b1fbd6e6c96706a1c0f981bbb", "rental_uris": {"android": "https://dc.lft.to/lastmile_qr_scan", "ios": "https://dc.lft.to/lastmile_qr_scan"}, "bike_id": "923ac67b1fbd6e6c96706a1c0f981bbb"}, {"fusion_lon": 0.0, "is_reserved": 0, "lat": 38.905428666666666, "is_disabled": 0, "type": "electric_scooter", "lon": -77.05129033333333, "fusion_lat": 0.0, "name": "a7539037db690165c1a45e008d462efb", "rental_uris": {"android": "https://dc.lft.to/lastmile_qr_scan", "ios": "https://dc.lft.to/lastmile_qr_scan"}, "bike_id": "a7539037db690165c1a45e008d462efb"}, {"fusion_lon": 0.0, "is_reserved": 0, "lat": 38.91127383333333, "is_disabled": 0, "type": "electric_scooter", "lon": -77.03857316666667, "fusion_lat": 0.0, "name": "3224549370ceb33433be2f7d305c07bc", "rental_uris": {"android": "https://dc.lft.to/lastmile_qr_scan", "ios": "https://dc.lft.to/lastmile_qr_scan"}, "bike_id": "3224549370ceb33433be2f7d305c07bc"}, {"fusion_lon": 0.0, "is_reserved": 0, "lat": 38.8688535, "is_disabled": 0, "type": "electric_scooter", "lon": -76.9830575, "fusion_lat": 0.0, "name": "443cfec79babc8e298b88cbea4cada2e", "rental_uris": {"android": "https://dc.lft.to/lastmile_qr_scan", "ios": "https://dc.lft.to/lastmile_qr_scan"}, "bike_id": "443cfec79babc8e298b88cbea4cada2e"}, {"fusion_lon": 0.0, "is_reserved": 0, "lat": 38.887312333333334, "is_disabled": 0, "type": "electric_scooter", "lon": -77.01510816666666, "fusion_lat": 0.0, "name": "15c8d45288bbbe36a764a12d04a12165", "rental_uris": {"android": "https://dc.lft.to/lastmile_qr_scan", "ios": "https://dc.lft.to/lastmile_qr_scan"}, "bike_id": "15c8d45288bbbe36a764a12d04a12165"}, {"fusion_lon": 0.0, "is_reserved": 0, "lat": 38.918529, "is_disabled": 0, "type": "electric_scooter", "lon": -77.03889033333333, "fusion_lat": 0.0, "name": "bd8a648a17fbc924d1013960dffa5203", "rental_uris": {"android": "https://dc.lft.to/lastmile_qr_scan", "ios": "https://dc.lft.to/lastmile_qr_scan"}, "bike_id": "bd8a648a17fbc924d1013960dffa5203"}, {"fusion_lon": 0.0, "is_reserved": 0, "lat": 38.931771499999996, "is_disabled": 0, "type": "electric_scooter", "lon": -77.03660983333333, "fusion_lat": 0.0, "name": "58c7ae5c0438ee4cba658f44a963d11a", "rental_uris": {"android": "https://dc.lft.to/lastmile_qr_scan", "ios": "https://dc.lft.to/lastmile_qr_scan"}, "bike_id": "58c7ae5c0438ee4cba658f44a963d11a"}, {"fusion_lon": 0.0, "is_reserved": 0, "lat": 38.898608333333335, "is_disabled": 0, "type": "electric_scooter", "lon": -77.02729183333334, "fusion_lat": 0.0, "name": "049b0e12a511f8740d5f3732f27b22a5", "rental_uris": {"android": "https://dc.lft.to/lastmile_qr_scan", "ios": "https://dc.lft.to/lastmile_qr_scan"}, "bike_id": "049b0e12a511f8740d5f3732f27b22a5"}, {"fusion_lon": 0.0, "is_reserved": 0, "lat": 38.9535605, "is_disabled": 0, "type": "electric_bike", "lon": -76.98093916666667, "fusion_lat": 0.0, "name": "341a22acb1337e3a3bb132087a04a32c", "rental_uris": {"android": "https://dc.lft.to/lastmile_qr_scan", "ios": "https://dc.lft.to/lastmile_qr_scan"}, "bike_id": "341a22acb1337e3a3bb132087a04a32c"}, {"fusion_lon": 0.0, "is_reserved": 0, "lat": 38.8933905, "is_disabled": 0, "type": "electric_scooter", "lon": -77.04659033333333, "fusion_lat": 0.0, "name": "c2e2c0b3251a5abebac56b296823c05b", "rental_uris": {"android": "https://dc.lft.to/lastmile_qr_scan", "ios": "https://dc.lft.to/lastmile_qr_scan"}, "bike_id": "c2e2c0b3251a5abebac56b296823c05b"}, {"fusion_lon": 0.0, "is_reserved": 0, "lat": 38.919448833333334, "is_disabled": 0, "type": "electric_scooter", "lon": -77.01797916666666, "fusion_lat": 0.0, "name": "301d89119995a94d3e00f316d309f4bc", "rental_uris": {"android": "https://dc.lft.to/lastmile_qr_scan", "ios": "https://dc.lft.to/lastmile_qr_scan"}, "bike_id": "301d89119995a94d3e00f316d309f4bc"}, {"fusion_lon": 0.0, "is_reserved": 0, "lat": 38.8973785, "is_disabled": 0, "type": "electric_scooter", "lon": -77.04691316666667, "fusion_lat": 0.0, "name": "6865015fbdaf6e9c1fd18a03ea103f7d", "rental_uris": {"android": "https://dc.lft.to/lastmile_qr_scan", "ios": "https://dc.lft.to/lastmile_qr_scan"}, "bike_id": "6865015fbdaf6e9c1fd18a03ea103f7d"}, {"fusion_lon": 0.0, "is_reserved": 0, "lat": 38.900766833333336, "is_disabled": 0, "type": "electric_scooter", "lon": -77.04876183333333, "fusion_lat": 0.0, "name": "2260b9ca19af3c809bb51511414cc172", "rental_uris": {"android": "https://dc.lft.to/lastmile_qr_scan", "ios": "https://dc.lft.to/lastmile_qr_scan"}, "bike_id": "2260b9ca19af3c809bb51511414cc172"}, {"fusion_lon": 0.0, "is_reserved": 0, "lat": 38.93233466666667, "is_disabled": 0, "type": "electric_scooter", "lon": -76.96207183333334, "fusion_lat": 0.0, "name": "52fc3e8964a235ed412b485f4ea6cc3a", "rental_uris": {"android": "https://dc.lft.to/lastmile_qr_scan", "ios": "https://dc.lft.to/lastmile_qr_scan"}, "bike_id": "52fc3e8964a235ed412b485f4ea6cc3a"}, {"fusion_lon": 0.0, "is_reserved": 0, "lat": 38.898765166666664, "is_disabled": 0, "type": "electric_scooter", "lon": -77.03286033333333, "fusion_lat": 0.0, "name": "d5aedc410ea95d7f646d594118b194af", "rental_uris": {"android": "https://dc.lft.to/lastmile_qr_scan", "ios": "https://dc.lft.to/lastmile_qr_scan"}, "bike_id": "d5aedc410ea95d7f646d594118b194af"}, {"fusion_lon": 0.0, "is_reserved": 0, "lat": 38.9232255, "is_disabled": 0, "type": "electric_scooter", "lon": -77.0211515, "fusion_lat": 0.0, "name": "97c3af66dc486a9f454193ddc771440e", "rental_uris": {"android": "https://dc.lft.to/lastmile_qr_scan", "ios": "https://dc.lft.to/lastmile_qr_scan"}, "bike_id": "97c3af66dc486a9f454193ddc771440e"}, {"fusion_lon": 0.0, "is_reserved": 0, "lat": 38.938248, "is_disabled": 0, "type": "electric_scooter", "lon": -76.986166, "fusion_lat": 0.0, "name": "5f8151e9d3d53452fb971c3d37f99a23", "rental_uris": {"android": "https://dc.lft.to/lastmile_qr_scan", "ios": "https://dc.lft.to/lastmile_qr_scan"}, "bike_id": "5f8151e9d3d53452fb971c3d37f99a23"}, {"fusion_lon": 0.0, "is_reserved": 0, "lat": 38.895468666666666, "is_disabled": 0, "type": "electric_scooter", "lon": -77.00915133333334, "fusion_lat": 0.0, "name": "c0ac10d880e1c967c9f6791ef92d365f", "rental_uris": {"android": "https://dc.lft.to/lastmile_qr_scan", "ios": "https://dc.lft.to/lastmile_qr_scan"}, "bike_id": "c0ac10d880e1c967c9f6791ef92d365f"}, {"fusion_lon": 0.0, "is_reserved": 0, "lat": 38.911087, "is_disabled": 0, "type": "electric_scooter", "lon": -77.021678, "fusion_lat": 0.0, "name": "a0451d450bf78f61f48a9a8a178a6c69", "rental_uris": {"android": "https://dc.lft.to/lastmile_qr_scan", "ios": "https://dc.lft.to/lastmile_qr_scan"}, "bike_id": "a0451d450bf78f61f48a9a8a178a6c69"}, {"fusion_lon": 0.0, "is_reserved": 0, "lat": 38.903291333333335, "is_disabled": 0, "type": "electric_scooter", "lon": -77.01088133333333, "fusion_lat": 0.0, "name": "ff4221c427fce4974dc34c216f1752bc", "rental_uris": {"android": "https://dc.lft.to/lastmile_qr_scan", "ios": "https://dc.lft.to/lastmile_qr_scan"}, "bike_id": "ff4221c427fce4974dc34c216f1752bc"}, {"fusion_lon": 0.0, "is_reserved": 0, "lat": 38.9361455, "is_disabled": 0, "type": "electric_scooter", "lon": -77.0289135, "fusion_lat": 0.0, "name": "a2b997bd9876a533a373643aeba8e165", "rental_uris": {"android": "https://dc.lft.to/lastmile_qr_scan", "ios": "https://dc.lft.to/lastmile_qr_scan"}, "bike_id": "a2b997bd9876a533a373643aeba8e165"}, {"fusion_lon": 0.0, "is_reserved": 0, "lat": 38.89851516666667, "is_disabled": 0, "type": "electric_scooter", "lon": -77.0226055, "fusion_lat": 0.0, "name": "5dd22994ac226d96ddc98a785297bfb6", "rental_uris": {"android": "https://dc.lft.to/lastmile_qr_scan", "ios": "https://dc.lft.to/lastmile_qr_scan"}, "bike_id": "5dd22994ac226d96ddc98a785297bfb6"}, {"fusion_lon": 0.0, "is_reserved": 0, "lat": 38.913994, "is_disabled": 0, "type": "electric_scooter", "lon": -77.0181475, "fusion_lat": 0.0, "name": "52a4002828cfc4d0bf9cf7bc9aa6af6d", "rental_uris": {"android": "https://dc.lft.to/lastmile_qr_scan", "ios": "https://dc.lft.to/lastmile_qr_scan"}, "bike_id": "52a4002828cfc4d0bf9cf7bc9aa6af6d"}, {"fusion_lon": 0.0, "is_reserved": 0, "lat": 38.89782816666666, "is_disabled": 0, "type": "electric_scooter", "lon": -77.029736, "fusion_lat": 0.0, "name": "536b90a0c3e18f705248ab9c18447b69", "rental_uris": {"android": "https://dc.lft.to/lastmile_qr_scan", "ios": "https://dc.lft.to/lastmile_qr_scan"}, "bike_id": "536b90a0c3e18f705248ab9c18447b69"}, {"fusion_lon": 0.0, "is_reserved": 0, "lat": 38.91392783333333, "is_disabled": 0, "type": "electric_scooter", "lon": -77.0344625, "fusion_lat": 0.0, "name": "4a7c0c9b97f8b1eab535b9b756b88fcf", "rental_uris": {"android": "https://dc.lft.to/lastmile_qr_scan", "ios": "https://dc.lft.to/lastmile_qr_scan"}, "bike_id": "4a7c0c9b97f8b1eab535b9b756b88fcf"}, {"fusion_lon": 0.0, "is_reserved": 0, "lat": 38.887585666666666, "is_disabled": 0, "type": "electric_scooter", "lon": -77.01631783333333, "fusion_lat": 0.0, "name": "2532a12c616c4e21048a5ca54a5d34ab", "rental_uris": {"android": "https://dc.lft.to/lastmile_qr_scan", "ios": "https://dc.lft.to/lastmile_qr_scan"}, "bike_id": "2532a12c616c4e21048a5ca54a5d34ab"}, {"fusion_lon": 0.0, "is_reserved": 0, "lat": 38.8943535, "is_disabled": 0, "type": "electric_scooter", "lon": -76.98081583333334, "fusion_lat": 0.0, "name": "bbfd5149264c7ca8aa28c348ee512af8", "rental_uris": {"android": "https://dc.lft.to/lastmile_qr_scan", "ios": "https://dc.lft.to/lastmile_qr_scan"}, "bike_id": "bbfd5149264c7ca8aa28c348ee512af8"}, {"fusion_lon": 0.0, "is_reserved": 0, "lat": 38.90036283333333, "is_disabled": 0, "type": "electric_scooter", "lon": -77.03385066666667, "fusion_lat": 0.0, "name": "821153478fad475a9403d7b9c0cec800", "rental_uris": {"android": "https://dc.lft.to/lastmile_qr_scan", "ios": "https://dc.lft.to/lastmile_qr_scan"}, "bike_id": "821153478fad475a9403d7b9c0cec800"}, {"fusion_lon": 0.0, "is_reserved": 0, "lat": 38.90034416666667, "is_disabled": 0, "type": "electric_bike", "lon": -77.03003, "fusion_lat": 0.0, "name": "e7062a178c3f3707d01985e4a62b9e41", "rental_uris": {"android": "https://dc.lft.to/lastmile_qr_scan", "ios": "https://dc.lft.to/lastmile_qr_scan"}, "bike_id": "e7062a178c3f3707d01985e4a62b9e41"}, {"fusion_lon": 0.0, "is_reserved": 0, "lat": 38.91248183333333, "is_disabled": 0, "type": "electric_scooter", "lon": -77.04161333333333, "fusion_lat": 0.0, "name": "c71ac19d6352a21b0fc02524d13fba2b", "rental_uris": {"android": "https://dc.lft.to/lastmile_qr_scan", "ios": "https://dc.lft.to/lastmile_qr_scan"}, "bike_id": "c71ac19d6352a21b0fc02524d13fba2b"}, {"fusion_lon": 0.0, "is_reserved": 0, "lat": 38.90815383333333, "is_disabled": 0, "type": "electric_scooter", "lon": -77.039297, "fusion_lat": 0.0, "name": "61066b00ccc32e273ab0a8416fca3817", "rental_uris": {"android": "https://dc.lft.to/lastmile_qr_scan", "ios": "https://dc.lft.to/lastmile_qr_scan"}, "bike_id": "61066b00ccc32e273ab0a8416fca3817"}, {"fusion_lon": 0.0, "is_reserved": 0, "lat": 38.911161, "is_disabled": 0, "type": "electric_scooter", "lon": -77.04232733333333, "fusion_lat": 0.0, "name": "b9a6736ca52ad1673a209f68cd1d8a07", "rental_uris": {"android": "https://dc.lft.to/lastmile_qr_scan", "ios": "https://dc.lft.to/lastmile_qr_scan"}, "bike_id": "b9a6736ca52ad1673a209f68cd1d8a07"}, {"fusion_lon": 0.0, "is_reserved": 0, "lat": 38.902303333333336, "is_disabled": 0, "type": "electric_scooter", "lon": -76.97999466666667, "fusion_lat": 0.0, "name": "1fbed825ffad151a324c6d03f5289739", "rental_uris": {"android": "https://dc.lft.to/lastmile_qr_scan", "ios": "https://dc.lft.to/lastmile_qr_scan"}, "bike_id": "1fbed825ffad151a324c6d03f5289739"}, {"fusion_lon": 0.0, "is_reserved": 0, "lat": 38.931797833333334, "is_disabled": 0, "type": "electric_scooter", "lon": -77.03854116666666, "fusion_lat": 0.0, "name": "38839ea41cc066c6ee67ad3dcfd8d99b", "rental_uris": {"android": "https://dc.lft.to/lastmile_qr_scan", "ios": "https://dc.lft.to/lastmile_qr_scan"}, "bike_id": "38839ea41cc066c6ee67ad3dcfd8d99b"}, {"fusion_lon": 0.0, "is_reserved": 0, "lat": 38.90337316666667, "is_disabled": 0, "type": "electric_scooter", "lon": -77.03620183333334, "fusion_lat": 0.0, "name": "d83d13db0d5b5ffb39c92ea42b73578e", "rental_uris": {"android": "https://dc.lft.to/lastmile_qr_scan", "ios": "https://dc.lft.to/lastmile_qr_scan"}, "bike_id": "d83d13db0d5b5ffb39c92ea42b73578e"}, {"fusion_lon": 0.0, "is_reserved": 0, "lat": 38.901532833333334, "is_disabled": 0, "type": "electric_scooter", "lon": -77.0590745, "fusion_lat": 0.0, "name": "398c55491266244adfd0c7f7b85da65b", "rental_uris": {"android": "https://dc.lft.to/lastmile_qr_scan", "ios": "https://dc.lft.to/lastmile_qr_scan"}, "bike_id": "398c55491266244adfd0c7f7b85da65b"}, {"fusion_lon": 0.0, "is_reserved": 0, "lat": 38.945423, "is_disabled": 0, "type": "electric_scooter", "lon": -77.0644705, "fusion_lat": 0.0, "name": "0610e4a91cd256d41c91cf8cf4baa593", "rental_uris": {"android": "https://dc.lft.to/lastmile_qr_scan", "ios": "https://dc.lft.to/lastmile_qr_scan"}, "bike_id": "0610e4a91cd256d41c91cf8cf4baa593"}, {"fusion_lon": 0.0, "is_reserved": 0, "lat": 38.8982925, "is_disabled": 0, "type": "electric_scooter", "lon": -77.00749016666667, "fusion_lat": 0.0, "name": "6a5cdab0de06debd342b3ceab627fd3e", "rental_uris": {"android": "https://dc.lft.to/lastmile_qr_scan", "ios": "https://dc.lft.to/lastmile_qr_scan"}, "bike_id": "6a5cdab0de06debd342b3ceab627fd3e"}, {"fusion_lon": 0.0, "is_reserved": 0, "lat": 38.90274516666667, "is_disabled": 0, "type": "electric_scooter", "lon": -77.01161016666667, "fusion_lat": 0.0, "name": "178c5ab7eb409a835079537b23257730", "rental_uris": {"android": "https://dc.lft.to/lastmile_qr_scan", "ios": "https://dc.lft.to/lastmile_qr_scan"}, "bike_id": "178c5ab7eb409a835079537b23257730"}, {"fusion_lon": 0.0, "is_reserved": 0, "lat": 38.92082583333333, "is_disabled": 0, "type": "electric_scooter", "lon": -77.022934, "fusion_lat": 0.0, "name": "8f779069e1e2565958f642d9d57141e1", "rental_uris": {"android": "https://dc.lft.to/lastmile_qr_scan", "ios": "https://dc.lft.to/lastmile_qr_scan"}, "bike_id": "8f779069e1e2565958f642d9d57141e1"}, {"fusion_lon": 0.0, "is_reserved": 0, "lat": 38.9184715, "is_disabled": 0, "type": "electric_scooter", "lon": -77.025973, "fusion_lat": 0.0, "name": "495ee050cd3a2eb1bfaae9a0b37dbc89", "rental_uris": {"android": "https://dc.lft.to/lastmile_qr_scan", "ios": "https://dc.lft.to/lastmile_qr_scan"}, "bike_id": "495ee050cd3a2eb1bfaae9a0b37dbc89"}, {"fusion_lon": 0.0, "is_reserved": 0, "lat": 38.898857166666666, "is_disabled": 0, "type": "electric_scooter", "lon": -77.03283866666666, "fusion_lat": 0.0, "name": "f4cfb915c722847edf9a978d9b22bbe2", "rental_uris": {"android": "https://dc.lft.to/lastmile_qr_scan", "ios": "https://dc.lft.to/lastmile_qr_scan"}, "bike_id": "f4cfb915c722847edf9a978d9b22bbe2"}, {"fusion_lon": 0.0, "is_reserved": 0, "lat": 38.917690666666665, "is_disabled": 0, "type": "electric_scooter", "lon": -77.02305516666667, "fusion_lat": 0.0, "name": "18f67aef41307ca5ae254308eaf5c57c", "rental_uris": {"android": "https://dc.lft.to/lastmile_qr_scan", "ios": "https://dc.lft.to/lastmile_qr_scan"}, "bike_id": "18f67aef41307ca5ae254308eaf5c57c"}, {"fusion_lon": 0.0, "is_reserved": 0, "lat": 38.92368183333333, "is_disabled": 0, "type": "electric_scooter", "lon": -77.01952533333333, "fusion_lat": 0.0, "name": "fa45e31c447b0dc476b47e3d10db34ee", "rental_uris": {"android": "https://dc.lft.to/lastmile_qr_scan", "ios": "https://dc.lft.to/lastmile_qr_scan"}, "bike_id": "fa45e31c447b0dc476b47e3d10db34ee"}, {"fusion_lon": 0.0, "is_reserved": 0, "lat": 38.998534166666666, "is_disabled": 0, "type": "electric_bike", "lon": -76.99714083333333, "fusion_lat": 0.0, "name": "7111f73664944de9cd1f36cfefe653e5", "rental_uris": {"android": "https://dc.lft.to/lastmile_qr_scan", "ios": "https://dc.lft.to/lastmile_qr_scan"}, "bike_id": "7111f73664944de9cd1f36cfefe653e5"}, {"fusion_lon": 0.0, "is_reserved": 0, "lat": 38.9136235, "is_disabled": 0, "type": "electric_scooter", "lon": -77.045602, "fusion_lat": 0.0, "name": "842e2b9c4b5bbd0fdc85bd1d5254daaf", "rental_uris": {"android": "https://dc.lft.to/lastmile_qr_scan", "ios": "https://dc.lft.to/lastmile_qr_scan"}, "bike_id": "842e2b9c4b5bbd0fdc85bd1d5254daaf"}, {"fusion_lon": 0.0, "is_reserved": 0, "lat": 38.842737166666666, "is_disabled": 0, "type": "electric_bike", "lon": -76.98838116666667, "fusion_lat": 0.0, "name": "9cc8841a1bbbc1357e76504ecff534dc", "rental_uris": {"android": "https://dc.lft.to/lastmile_qr_scan", "ios": "https://dc.lft.to/lastmile_qr_scan"}, "bike_id": "9cc8841a1bbbc1357e76504ecff534dc"}, {"fusion_lon": 0.0, "is_reserved": 0, "lat": 38.90289283333333, "is_disabled": 0, "type": "electric_scooter", "lon": -77.006049, "fusion_lat": 0.0, "name": "e019d9447d1dc4e32ea31f7b3a1ec66e", "rental_uris": {"android": "https://dc.lft.to/lastmile_qr_scan", "ios": "https://dc.lft.to/lastmile_qr_scan"}, "bike_id": "e019d9447d1dc4e32ea31f7b3a1ec66e"}, {"fusion_lon": 0.0, "is_reserved": 0, "lat": 38.90130666666667, "is_disabled": 0, "type": "electric_scooter", "lon": -77.02855683333334, "fusion_lat": 0.0, "name": "caa0e76881c977b5c1bff3718966d8fa", "rental_uris": {"android": "https://dc.lft.to/lastmile_qr_scan", "ios": "https://dc.lft.to/lastmile_qr_scan"}, "bike_id": "caa0e76881c977b5c1bff3718966d8fa"}, {"fusion_lon": 0.0, "is_reserved": 0, "lat": 38.827654833333334, "is_disabled": 0, "type": "electric_scooter", "lon": -76.99450083333333, "fusion_lat": 0.0, "name": "aacafb7aa233f32ece6d6f8c9e8473b7", "rental_uris": {"android": "https://dc.lft.to/lastmile_qr_scan", "ios": "https://dc.lft.to/lastmile_qr_scan"}, "bike_id": "aacafb7aa233f32ece6d6f8c9e8473b7"}, {"fusion_lon": 0.0, "is_reserved": 0, "lat": 38.90595833333333, "is_disabled": 0, "type": "electric_scooter", "lon": -77.06292833333333, "fusion_lat": 0.0, "name": "aa77130282e1ba79b3e7723020f3b636", "rental_uris": {"android": "https://dc.lft.to/lastmile_qr_scan", "ios": "https://dc.lft.to/lastmile_qr_scan"}, "bike_id": "aa77130282e1ba79b3e7723020f3b636"}, {"fusion_lon": 0.0, "is_reserved": 0, "lat": 38.9139495, "is_disabled": 0, "type": "electric_scooter", "lon": -77.03927533333334, "fusion_lat": 0.0, "name": "b0da9b3b7d78f81dc3037413615b9924", "rental_uris": {"android": "https://dc.lft.to/lastmile_qr_scan", "ios": "https://dc.lft.to/lastmile_qr_scan"}, "bike_id": "b0da9b3b7d78f81dc3037413615b9924"}, {"fusion_lon": 0.0, "is_reserved": 0, "lat": 38.90265866666667, "is_disabled": 0, "type": "electric_scooter", "lon": -77.02824283333334, "fusion_lat": 0.0, "name": "b1ef25eca8f3d68ee9c24060877d9fe4", "rental_uris": {"android": "https://dc.lft.to/lastmile_qr_scan", "ios": "https://dc.lft.to/lastmile_qr_scan"}, "bike_id": "b1ef25eca8f3d68ee9c24060877d9fe4"}, {"fusion_lon": 0.0, "is_reserved": 0, "lat": 38.93474766666667, "is_disabled": 0, "type": "electric_scooter", "lon": -76.98888966666667, "fusion_lat": 0.0, "name": "68e5d2c251f1d949053aec4b95691aac", "rental_uris": {"android": "https://dc.lft.to/lastmile_qr_scan", "ios": "https://dc.lft.to/lastmile_qr_scan"}, "bike_id": "68e5d2c251f1d949053aec4b95691aac"}, {"fusion_lon": 0.0, "is_reserved": 0, "lat": 38.916812, "is_disabled": 0, "type": "electric_scooter", "lon": -77.024042, "fusion_lat": 0.0, "name": "44dd784faa72141d76f5355f0f5030ac", "rental_uris": {"android": "https://dc.lft.to/lastmile_qr_scan", "ios": "https://dc.lft.to/lastmile_qr_scan"}, "bike_id": "44dd784faa72141d76f5355f0f5030ac"}, {"fusion_lon": 0.0, "is_reserved": 0, "lat": 38.897713833333334, "is_disabled": 0, "type": "electric_scooter", "lon": -77.01225933333333, "fusion_lat": 0.0, "name": "fa97982ae38a1a85dcae60341a3018d1", "rental_uris": {"android": "https://dc.lft.to/lastmile_qr_scan", "ios": "https://dc.lft.to/lastmile_qr_scan"}, "bike_id": "fa97982ae38a1a85dcae60341a3018d1"}, {"fusion_lon": 0.0, "is_reserved": 0, "lat": 38.92030533333333, "is_disabled": 0, "type": "electric_scooter", "lon": -77.0258615, "fusion_lat": 0.0, "name": "9a6462e4730220301730f91b39a86084", "rental_uris": {"android": "https://dc.lft.to/lastmile_qr_scan", "ios": "https://dc.lft.to/lastmile_qr_scan"}, "bike_id": "9a6462e4730220301730f91b39a86084"}, {"fusion_lon": 0.0, "is_reserved": 0, "lat": 38.900627666666665, "is_disabled": 0, "type": "electric_scooter", "lon": -77.00753833333333, "fusion_lat": 0.0, "name": "51c37201527186df67abeca6ca3c64fa", "rental_uris": {"android": "https://dc.lft.to/lastmile_qr_scan", "ios": "https://dc.lft.to/lastmile_qr_scan"}, "bike_id": "51c37201527186df67abeca6ca3c64fa"}, {"fusion_lon": 0.0, "is_reserved": 0, "lat": 38.89895716666667, "is_disabled": 0, "type": "electric_scooter", "lon": -77.03972466666667, "fusion_lat": 0.0, "name": "14705488899407e88c691228cc1a4da0", "rental_uris": {"android": "https://dc.lft.to/lastmile_qr_scan", "ios": "https://dc.lft.to/lastmile_qr_scan"}, "bike_id": "14705488899407e88c691228cc1a4da0"}, {"fusion_lon": 0.0, "is_reserved": 0, "lat": 38.903851, "is_disabled": 0, "type": "electric_scooter", "lon": -77.04644216666667, "fusion_lat": 0.0, "name": "c850f52fb42b3d5edcabe1a38dfe3eea", "rental_uris": {"android": "https://dc.lft.to/lastmile_qr_scan", "ios": "https://dc.lft.to/lastmile_qr_scan"}, "bike_id": "c850f52fb42b3d5edcabe1a38dfe3eea"}, {"fusion_lon": 0.0, "is_reserved": 0, "lat": 38.8972995, "is_disabled": 0, "type": "electric_scooter", "lon": -77.01262366666667, "fusion_lat": 0.0, "name": "5b2b07de37b07ce3db3b64ef99bf1bc0", "rental_uris": {"android": "https://dc.lft.to/lastmile_qr_scan", "ios": "https://dc.lft.to/lastmile_qr_scan"}, "bike_id": "5b2b07de37b07ce3db3b64ef99bf1bc0"}, {"fusion_lon": 0.0, "is_reserved": 0, "lat": 38.922870833333334, "is_disabled": 0, "type": "electric_scooter", "lon": -77.07288716666666, "fusion_lat": 0.0, "name": "accc23e4249a85b8d90f6f7fdb5775d7", "rental_uris": {"android": "https://dc.lft.to/lastmile_qr_scan", "ios": "https://dc.lft.to/lastmile_qr_scan"}, "bike_id": "accc23e4249a85b8d90f6f7fdb5775d7"}, {"fusion_lon": 0.0, "is_reserved": 0, "lat": 38.9090245, "is_disabled": 0, "type": "electric_scooter", "lon": -77.07275216666666, "fusion_lat": 0.0, "name": "e10f3e4d1fe81930b7d4bf8634feffc4", "rental_uris": {"android": "https://dc.lft.to/lastmile_qr_scan", "ios": "https://dc.lft.to/lastmile_qr_scan"}, "bike_id": "e10f3e4d1fe81930b7d4bf8634feffc4"}, {"fusion_lon": 0.0, "is_reserved": 0, "lat": 38.9192645, "is_disabled": 0, "type": "electric_scooter", "lon": -77.03419833333334, "fusion_lat": 0.0, "name": "676d00270cbe46603232ae309eea20ae", "rental_uris": {"android": "https://dc.lft.to/lastmile_qr_scan", "ios": "https://dc.lft.to/lastmile_qr_scan"}, "bike_id": "676d00270cbe46603232ae309eea20ae"}, {"fusion_lon": 0.0, "is_reserved": 0, "lat": 38.919931166666665, "is_disabled": 0, "type": "electric_scooter", "lon": -77.02173833333333, "fusion_lat": 0.0, "name": "af998f5ede3cee99f04c154d3e3127b5", "rental_uris": {"android": "https://dc.lft.to/lastmile_qr_scan", "ios": "https://dc.lft.to/lastmile_qr_scan"}, "bike_id": "af998f5ede3cee99f04c154d3e3127b5"}, {"fusion_lon": 0.0, "is_reserved": 0, "lat": 38.902591666666666, "is_disabled": 0, "type": "electric_scooter", "lon": -77.01542033333334, "fusion_lat": 0.0, "name": "e143363bfb044a1d558d15e9eaa715be", "rental_uris": {"android": "https://dc.lft.to/lastmile_qr_scan", "ios": "https://dc.lft.to/lastmile_qr_scan"}, "bike_id": "e143363bfb044a1d558d15e9eaa715be"}, {"fusion_lon": 0.0, "is_reserved": 0, "lat": 38.9221965, "is_disabled": 0, "type": "electric_scooter", "lon": -77.01812433333333, "fusion_lat": 0.0, "name": "b55c4050c8dca6e8fb16f90ec0739ec9", "rental_uris": {"android": "https://dc.lft.to/lastmile_qr_scan", "ios": "https://dc.lft.to/lastmile_qr_scan"}, "bike_id": "b55c4050c8dca6e8fb16f90ec0739ec9"}, {"fusion_lon": 0.0, "is_reserved": 0, "lat": 38.92680583333333, "is_disabled": 0, "type": "electric_scooter", "lon": -77.01467766666667, "fusion_lat": 0.0, "name": "b1051302bd6040dbfc4b25dd5b863f25", "rental_uris": {"android": "https://dc.lft.to/lastmile_qr_scan", "ios": "https://dc.lft.to/lastmile_qr_scan"}, "bike_id": "b1051302bd6040dbfc4b25dd5b863f25"}, {"fusion_lon": 0.0, "is_reserved": 0, "lat": 38.91570516666667, "is_disabled": 0, "type": "electric_scooter", "lon": -77.038292, "fusion_lat": 0.0, "name": "89d5adb137d9256ecfa518dacf6b0d7f", "rental_uris": {"android": "https://dc.lft.to/lastmile_qr_scan", "ios": "https://dc.lft.to/lastmile_qr_scan"}, "bike_id": "89d5adb137d9256ecfa518dacf6b0d7f"}, {"fusion_lon": 0.0, "is_reserved": 0, "lat": 38.91806966666667, "is_disabled": 0, "type": "electric_scooter", "lon": -77.03185716666667, "fusion_lat": 0.0, "name": "22e669703affd26d8f25ac8cc8164162", "rental_uris": {"android": "https://dc.lft.to/lastmile_qr_scan", "ios": "https://dc.lft.to/lastmile_qr_scan"}, "bike_id": "22e669703affd26d8f25ac8cc8164162"}, {"fusion_lon": 0.0, "is_reserved": 0, "lat": 38.89535683333333, "is_disabled": 0, "type": "electric_scooter", "lon": -76.94889833333333, "fusion_lat": 0.0, "name": "db8462f8085960b7eda72270c71a7177", "rental_uris": {"android": "https://dc.lft.to/lastmile_qr_scan", "ios": "https://dc.lft.to/lastmile_qr_scan"}, "bike_id": "db8462f8085960b7eda72270c71a7177"}, {"fusion_lon": 0.0, "is_reserved": 0, "lat": 38.89035333333333, "is_disabled": 0, "type": "electric_scooter", "lon": -76.93756083333334, "fusion_lat": 0.0, "name": "700bea59a63e87ff1767df830c967846", "rental_uris": {"android": "https://dc.lft.to/lastmile_qr_scan", "ios": "https://dc.lft.to/lastmile_qr_scan"}, "bike_id": "700bea59a63e87ff1767df830c967846"}, {"fusion_lon": 0.0, "is_reserved": 0, "lat": 38.9246715, "is_disabled": 0, "type": "electric_scooter", "lon": -77.022086, "fusion_lat": 0.0, "name": "4028829588b6b27eecfe3de94a58749d", "rental_uris": {"android": "https://dc.lft.to/lastmile_qr_scan", "ios": "https://dc.lft.to/lastmile_qr_scan"}, "bike_id": "4028829588b6b27eecfe3de94a58749d"}, {"fusion_lon": 0.0, "is_reserved": 0, "lat": 38.8850545, "is_disabled": 0, "type": "electric_scooter", "lon": -77.00567716666667, "fusion_lat": 0.0, "name": "fc4720ba276670f3a727b1c295b1098a", "rental_uris": {"android": "https://dc.lft.to/lastmile_qr_scan", "ios": "https://dc.lft.to/lastmile_qr_scan"}, "bike_id": "fc4720ba276670f3a727b1c295b1098a"}, {"fusion_lon": 0.0, "is_reserved": 0, "lat": 38.92746316666667, "is_disabled": 0, "type": "electric_scooter", "lon": -77.021429, "fusion_lat": 0.0, "name": "0e42c1013d1bd8ee9e611e360f197802", "rental_uris": {"android": "https://dc.lft.to/lastmile_qr_scan", "ios": "https://dc.lft.to/lastmile_qr_scan"}, "bike_id": "0e42c1013d1bd8ee9e611e360f197802"}, {"fusion_lon": 0.0, "is_reserved": 0, "lat": 38.92199733333333, "is_disabled": 0, "type": "electric_scooter", "lon": -76.98363916666666, "fusion_lat": 0.0, "name": "87c68d9232baf2bfe34b2beead83b209", "rental_uris": {"android": "https://dc.lft.to/lastmile_qr_scan", "ios": "https://dc.lft.to/lastmile_qr_scan"}, "bike_id": "87c68d9232baf2bfe34b2beead83b209"}, {"fusion_lon": 0.0, "is_reserved": 0, "lat": 38.93098766666667, "is_disabled": 0, "type": "electric_scooter", "lon": -77.0247975, "fusion_lat": 0.0, "name": "6d99fa2694df709c764529facbb019dd", "rental_uris": {"android": "https://dc.lft.to/lastmile_qr_scan", "ios": "https://dc.lft.to/lastmile_qr_scan"}, "bike_id": "6d99fa2694df709c764529facbb019dd"}, {"fusion_lon": 0.0, "is_reserved": 0, "lat": 38.9292685, "is_disabled": 0, "type": "electric_scooter", "lon": -77.03290083333333, "fusion_lat": 0.0, "name": "907d7879f1afa5116816c6541eb9a5d0", "rental_uris": {"android": "https://dc.lft.to/lastmile_qr_scan", "ios": "https://dc.lft.to/lastmile_qr_scan"}, "bike_id": "907d7879f1afa5116816c6541eb9a5d0"}, {"fusion_lon": 0.0, "is_reserved": 0, "lat": 38.90751133333333, "is_disabled": 0, "type": "electric_scooter", "lon": -77.000998, "fusion_lat": 0.0, "name": "0c94b28aba9ab6a1ad7ac89a10ee87f5", "rental_uris": {"android": "https://dc.lft.to/lastmile_qr_scan", "ios": "https://dc.lft.to/lastmile_qr_scan"}, "bike_id": "0c94b28aba9ab6a1ad7ac89a10ee87f5"}, {"fusion_lon": 0.0, "is_reserved": 0, "lat": 38.924168, "is_disabled": 0, "type": "electric_scooter", "lon": -77.020118, "fusion_lat": 0.0, "name": "1815579e9d913dbba3e10cd4fc446e96", "rental_uris": {"android": "https://dc.lft.to/lastmile_qr_scan", "ios": "https://dc.lft.to/lastmile_qr_scan"}, "bike_id": "1815579e9d913dbba3e10cd4fc446e96"}, {"fusion_lon": 0.0, "is_reserved": 0, "lat": 38.903824, "is_disabled": 0, "type": "electric_scooter", "lon": -77.03632266666666, "fusion_lat": 0.0, "name": "a75e78fd2cec8974aa7230ae5088ce80", "rental_uris": {"android": "https://dc.lft.to/lastmile_qr_scan", "ios": "https://dc.lft.to/lastmile_qr_scan"}, "bike_id": "a75e78fd2cec8974aa7230ae5088ce80"}, {"fusion_lon": 0.0, "is_reserved": 0, "lat": 38.89984166666667, "is_disabled": 0, "type": "electric_scooter", "lon": -77.02681216666667, "fusion_lat": 0.0, "name": "bbf310f90c34afd0d7dbcae670bf2014", "rental_uris": {"android": "https://dc.lft.to/lastmile_qr_scan", "ios": "https://dc.lft.to/lastmile_qr_scan"}, "bike_id": "bbf310f90c34afd0d7dbcae670bf2014"}, {"fusion_lon": 0.0, "is_reserved": 0, "lat": 38.88224733333333, "is_disabled": 0, "type": "electric_bike", "lon": -77.114344, "fusion_lat": 0.0, "name": "fef85d6e954cb64996f242f94fc3774f", "rental_uris": {"android": "https://dc.lft.to/lastmile_qr_scan", "ios": "https://dc.lft.to/lastmile_qr_scan"}, "bike_id": "fef85d6e954cb64996f242f94fc3774f"}, {"fusion_lon": 0.0, "is_reserved": 0, "lat": 38.913457333333334, "is_disabled": 0, "type": "electric_scooter", "lon": -77.03185566666667, "fusion_lat": 0.0, "name": "a903fbc244ea170d0b9635f7d1766cae", "rental_uris": {"android": "https://dc.lft.to/lastmile_qr_scan", "ios": "https://dc.lft.to/lastmile_qr_scan"}, "bike_id": "a903fbc244ea170d0b9635f7d1766cae"}, {"fusion_lon": 0.0, "is_reserved": 0, "lat": 38.89615283333333, "is_disabled": 0, "type": "electric_scooter", "lon": -76.98567583333333, "fusion_lat": 0.0, "name": "b9e326ba8e5ddd8fbae1ca5b14cef208", "rental_uris": {"android": "https://dc.lft.to/lastmile_qr_scan", "ios": "https://dc.lft.to/lastmile_qr_scan"}, "bike_id": "b9e326ba8e5ddd8fbae1ca5b14cef208"}, {"fusion_lon": 0.0, "is_reserved": 0, "lat": 38.900426, "is_disabled": 0, "type": "electric_scooter", "lon": -77.00189433333334, "fusion_lat": 0.0, "name": "140a2d893aef9209a3000d48d77fb68c", "rental_uris": {"android": "https://dc.lft.to/lastmile_qr_scan", "ios": "https://dc.lft.to/lastmile_qr_scan"}, "bike_id": "140a2d893aef9209a3000d48d77fb68c"}, {"fusion_lon": 0.0, "is_reserved": 0, "lat": 38.9529735, "is_disabled": 0, "type": "electric_scooter", "lon": -77.0290845, "fusion_lat": 0.0, "name": "5c98b37a86c0d1ee0a31e07df3202e5f", "rental_uris": {"android": "https://dc.lft.to/lastmile_qr_scan", "ios": "https://dc.lft.to/lastmile_qr_scan"}, "bike_id": "5c98b37a86c0d1ee0a31e07df3202e5f"}, {"fusion_lon": 0.0, "is_reserved": 0, "lat": 38.89591633333333, "is_disabled": 0, "type": "electric_scooter", "lon": -77.07370833333333, "fusion_lat": 0.0, "name": "4b2e5cdebc33127f93d12346d6285aca", "rental_uris": {"android": "https://dc.lft.to/lastmile_qr_scan", "ios": "https://dc.lft.to/lastmile_qr_scan"}, "bike_id": "4b2e5cdebc33127f93d12346d6285aca"}, {"fusion_lon": 0.0, "is_reserved": 0, "lat": 38.920722166666664, "is_disabled": 0, "type": "electric_scooter", "lon": -77.02518316666666, "fusion_lat": 0.0, "name": "a3dd59c1250489aae444cb88a5414b5f", "rental_uris": {"android": "https://dc.lft.to/lastmile_qr_scan", "ios": "https://dc.lft.to/lastmile_qr_scan"}, "bike_id": "a3dd59c1250489aae444cb88a5414b5f"}, {"fusion_lon": 0.0, "is_reserved": 0, "lat": 38.88052483333333, "is_disabled": 0, "type": "electric_scooter", "lon": -76.9321835, "fusion_lat": 0.0, "name": "53e3d7648fe1bc7776c2972008159e33", "rental_uris": {"android": "https://dc.lft.to/lastmile_qr_scan", "ios": "https://dc.lft.to/lastmile_qr_scan"}, "bike_id": "53e3d7648fe1bc7776c2972008159e33"}, {"fusion_lon": 0.0, "is_reserved": 0, "lat": 38.8784165, "is_disabled": 0, "type": "electric_bike", "lon": -77.007675, "fusion_lat": 0.0, "name": "8371297e7366ca562dd8ac568131cc2c", "rental_uris": {"android": "https://dc.lft.to/lastmile_qr_scan", "ios": "https://dc.lft.to/lastmile_qr_scan"}, "bike_id": "8371297e7366ca562dd8ac568131cc2c"}, {"fusion_lon": 0.0, "is_reserved": 0, "lat": 38.8926265, "is_disabled": 0, "type": "electric_scooter", "lon": -76.98369033333333, "fusion_lat": 0.0, "name": "878c5f756cd2f15e4c82f6b6c03eba34", "rental_uris": {"android": "https://dc.lft.to/lastmile_qr_scan", "ios": "https://dc.lft.to/lastmile_qr_scan"}, "bike_id": "878c5f756cd2f15e4c82f6b6c03eba34"}, {"fusion_lon": 0.0, "is_reserved": 0, "lat": 38.88608966666666, "is_disabled": 0, "type": "electric_scooter", "lon": -77.003123, "fusion_lat": 0.0, "name": "c5d1d61e42960d80d03ae72bc1f7dd83", "rental_uris": {"android": "https://dc.lft.to/lastmile_qr_scan", "ios": "https://dc.lft.to/lastmile_qr_scan"}, "bike_id": "c5d1d61e42960d80d03ae72bc1f7dd83"}, {"fusion_lon": 0.0, "is_reserved": 0, "lat": 38.92222183333333, "is_disabled": 0, "type": "electric_scooter", "lon": -77.04329166666666, "fusion_lat": 0.0, "name": "9b4cff9e8f58e879aaf4b7885757b528", "rental_uris": {"android": "https://dc.lft.to/lastmile_qr_scan", "ios": "https://dc.lft.to/lastmile_qr_scan"}, "bike_id": "9b4cff9e8f58e879aaf4b7885757b528"}, {"fusion_lon": 0.0, "is_reserved": 0, "lat": 38.9056205, "is_disabled": 0, "type": "electric_scooter", "lon": -77.00582416666667, "fusion_lat": 0.0, "name": "662b9039c07a0d11fbfdcbb4f8fbbd42", "rental_uris": {"android": "https://dc.lft.to/lastmile_qr_scan", "ios": "https://dc.lft.to/lastmile_qr_scan"}, "bike_id": "662b9039c07a0d11fbfdcbb4f8fbbd42"}, {"fusion_lon": 0.0, "is_reserved": 0, "lat": 38.9089295, "is_disabled": 0, "type": "electric_scooter", "lon": -77.04124566666667, "fusion_lat": 0.0, "name": "f22fb4b6e5bcd50645e6c4e4474f9197", "rental_uris": {"android": "https://dc.lft.to/lastmile_qr_scan", "ios": "https://dc.lft.to/lastmile_qr_scan"}, "bike_id": "f22fb4b6e5bcd50645e6c4e4474f9197"}, {"fusion_lon": 0.0, "is_reserved": 0, "lat": 38.902741666666664, "is_disabled": 0, "type": "electric_scooter", "lon": -77.03843416666666, "fusion_lat": 0.0, "name": "74c5fd67b9ad06eedfc3b21673e2faba", "rental_uris": {"android": "https://dc.lft.to/lastmile_qr_scan", "ios": "https://dc.lft.to/lastmile_qr_scan"}, "bike_id": "74c5fd67b9ad06eedfc3b21673e2faba"}, {"fusion_lon": 0.0, "is_reserved": 0, "lat": 38.90234783333333, "is_disabled": 0, "type": "electric_scooter", "lon": -77.039666, "fusion_lat": 0.0, "name": "6e268ae805bc1cd8c34a4f1dd6986813", "rental_uris": {"android": "https://dc.lft.to/lastmile_qr_scan", "ios": "https://dc.lft.to/lastmile_qr_scan"}, "bike_id": "6e268ae805bc1cd8c34a4f1dd6986813"}, {"fusion_lon": 0.0, "is_reserved": 0, "lat": 38.86230233333333, "is_disabled": 0, "type": "electric_scooter", "lon": -76.9947925, "fusion_lat": 0.0, "name": "d2ea8ea9a3cf109a8319bd0c044bfb2f", "rental_uris": {"android": "https://dc.lft.to/lastmile_qr_scan", "ios": "https://dc.lft.to/lastmile_qr_scan"}, "bike_id": "d2ea8ea9a3cf109a8319bd0c044bfb2f"}, {"fusion_lon": 0.0, "is_reserved": 0, "lat": 38.91965366666667, "is_disabled": 0, "type": "electric_scooter", "lon": -77.0424585, "fusion_lat": 0.0, "name": "667fa9249c8c4033e4b88552d6c4f9ab", "rental_uris": {"android": "https://dc.lft.to/lastmile_qr_scan", "ios": "https://dc.lft.to/lastmile_qr_scan"}, "bike_id": "667fa9249c8c4033e4b88552d6c4f9ab"}, {"fusion_lon": 0.0, "is_reserved": 0, "lat": 38.90738316666667, "is_disabled": 0, "type": "electric_scooter", "lon": -77.04141716666666, "fusion_lat": 0.0, "name": "15b4c9d00ac66a3203f064ce70f2ea36", "rental_uris": {"android": "https://dc.lft.to/lastmile_qr_scan", "ios": "https://dc.lft.to/lastmile_qr_scan"}, "bike_id": "15b4c9d00ac66a3203f064ce70f2ea36"}, {"fusion_lon": 0.0, "is_reserved": 0, "lat": 38.927163666666665, "is_disabled": 0, "type": "electric_scooter", "lon": -77.03681466666667, "fusion_lat": 0.0, "name": "ffe3acf703b23fa546e33b0e9e0b703f", "rental_uris": {"android": "https://dc.lft.to/lastmile_qr_scan", "ios": "https://dc.lft.to/lastmile_qr_scan"}, "bike_id": "ffe3acf703b23fa546e33b0e9e0b703f"}, {"fusion_lon": 0.0, "is_reserved": 0, "lat": 38.896706333333334, "is_disabled": 0, "type": "electric_scooter", "lon": -77.05025933333333, "fusion_lat": 0.0, "name": "1500fb7210acfdf1fea42ce4678ba784", "rental_uris": {"android": "https://dc.lft.to/lastmile_qr_scan", "ios": "https://dc.lft.to/lastmile_qr_scan"}, "bike_id": "1500fb7210acfdf1fea42ce4678ba784"}, {"fusion_lon": 0.0, "is_reserved": 0, "lat": 38.902628666666665, "is_disabled": 0, "type": "electric_scooter", "lon": -77.03408266666666, "fusion_lat": 0.0, "name": "645ab2013a0718c1a6ee427251f663f3", "rental_uris": {"android": "https://dc.lft.to/lastmile_qr_scan", "ios": "https://dc.lft.to/lastmile_qr_scan"}, "bike_id": "645ab2013a0718c1a6ee427251f663f3"}, {"fusion_lon": 0.0, "is_reserved": 0, "lat": 38.91684166666667, "is_disabled": 0, "type": "electric_scooter", "lon": -77.03672616666667, "fusion_lat": 0.0, "name": "890f66be933e88ed598f8913add75df5", "rental_uris": {"android": "https://dc.lft.to/lastmile_qr_scan", "ios": "https://dc.lft.to/lastmile_qr_scan"}, "bike_id": "890f66be933e88ed598f8913add75df5"}, {"fusion_lon": 0.0, "is_reserved": 0, "lat": 38.92544266666667, "is_disabled": 0, "type": "electric_scooter", "lon": -77.03403716666666, "fusion_lat": 0.0, "name": "4b1d452fb92a8bf988309e01901312f6", "rental_uris": {"android": "https://dc.lft.to/lastmile_qr_scan", "ios": "https://dc.lft.to/lastmile_qr_scan"}, "bike_id": "4b1d452fb92a8bf988309e01901312f6"}, {"fusion_lon": 0.0, "is_reserved": 0, "lat": 38.905309833333334, "is_disabled": 0, "type": "electric_scooter", "lon": -76.99630083333334, "fusion_lat": 0.0, "name": "e9aa18e75c2ecf6b483c8e0f06b06d41", "rental_uris": {"android": "https://dc.lft.to/lastmile_qr_scan", "ios": "https://dc.lft.to/lastmile_qr_scan"}, "bike_id": "e9aa18e75c2ecf6b483c8e0f06b06d41"}, {"fusion_lon": 0.0, "is_reserved": 0, "lat": 38.857303333333334, "is_disabled": 0, "type": "electric_scooter", "lon": -76.99103883333333, "fusion_lat": 0.0, "name": "faee0449bda003ab385c717b179fb232", "rental_uris": {"android": "https://dc.lft.to/lastmile_qr_scan", "ios": "https://dc.lft.to/lastmile_qr_scan"}, "bike_id": "faee0449bda003ab385c717b179fb232"}, {"fusion_lon": 0.0, "is_reserved": 0, "lat": 38.90562533333333, "is_disabled": 0, "type": "electric_scooter", "lon": -77.03475233333333, "fusion_lat": 0.0, "name": "8dab186d4e37214fa083ba7143fdb869", "rental_uris": {"android": "https://dc.lft.to/lastmile_qr_scan", "ios": "https://dc.lft.to/lastmile_qr_scan"}, "bike_id": "8dab186d4e37214fa083ba7143fdb869"}, {"fusion_lon": 0.0, "is_reserved": 0, "lat": 38.87487766666667, "is_disabled": 0, "type": "electric_scooter", "lon": -77.00108233333333, "fusion_lat": 0.0, "name": "34223c007272f7c970ae7f8e35bd7bcc", "rental_uris": {"android": "https://dc.lft.to/lastmile_qr_scan", "ios": "https://dc.lft.to/lastmile_qr_scan"}, "bike_id": "34223c007272f7c970ae7f8e35bd7bcc"}, {"fusion_lon": 0.0, "is_reserved": 0, "lat": 38.83864583333333, "is_disabled": 0, "type": "electric_bike", "lon": -76.99692633333333, "fusion_lat": 0.0, "name": "150a03d652c1e0481a245d2db4b39f76", "rental_uris": {"android": "https://dc.lft.to/lastmile_qr_scan", "ios": "https://dc.lft.to/lastmile_qr_scan"}, "bike_id": "150a03d652c1e0481a245d2db4b39f76"}, {"fusion_lon": 0.0, "is_reserved": 0, "lat": 38.9119355, "is_disabled": 0, "type": "electric_scooter", "lon": -77.040307, "fusion_lat": 0.0, "name": "c90808f8688180151a44d652e35731a6", "rental_uris": {"android": "https://dc.lft.to/lastmile_qr_scan", "ios": "https://dc.lft.to/lastmile_qr_scan"}, "bike_id": "c90808f8688180151a44d652e35731a6"}, {"fusion_lon": 0.0, "is_reserved": 0, "lat": 38.9136025, "is_disabled": 0, "type": "electric_scooter", "lon": -77.02863366666666, "fusion_lat": 0.0, "name": "3547e05f0674e980f9058c579bb2bf4b", "rental_uris": {"android": "https://dc.lft.to/lastmile_qr_scan", "ios": "https://dc.lft.to/lastmile_qr_scan"}, "bike_id": "3547e05f0674e980f9058c579bb2bf4b"}, {"fusion_lon": 0.0, "is_reserved": 0, "lat": 38.972556833333336, "is_disabled": 0, "type": "electric_bike", "lon": -76.9927605, "fusion_lat": 0.0, "name": "17d3ec0687b499f64fe6ef6f487d09b9", "rental_uris": {"android": "https://dc.lft.to/lastmile_qr_scan", "ios": "https://dc.lft.to/lastmile_qr_scan"}, "bike_id": "17d3ec0687b499f64fe6ef6f487d09b9"}, {"fusion_lon": 0.0, "is_reserved": 0, "lat": 38.92462233333333, "is_disabled": 0, "type": "electric_scooter", "lon": -77.05197666666666, "fusion_lat": 0.0, "name": "3e07c61d59273024ade64af3050da465", "rental_uris": {"android": "https://dc.lft.to/lastmile_qr_scan", "ios": "https://dc.lft.to/lastmile_qr_scan"}, "bike_id": "3e07c61d59273024ade64af3050da465"}, {"fusion_lon": 0.0, "is_reserved": 0, "lat": 38.918074833333336, "is_disabled": 0, "type": "electric_scooter", "lon": -77.04171433333333, "fusion_lat": 0.0, "name": "21f88f194a633a8bbf2915123b0ab9bc", "rental_uris": {"android": "https://dc.lft.to/lastmile_qr_scan", "ios": "https://dc.lft.to/lastmile_qr_scan"}, "bike_id": "21f88f194a633a8bbf2915123b0ab9bc"}, {"fusion_lon": 0.0, "is_reserved": 0, "lat": 38.91344083333333, "is_disabled": 0, "type": "electric_scooter", "lon": -77.003191, "fusion_lat": 0.0, "name": "bc9b087118333ad4e268ce4e93b1f99a", "rental_uris": {"android": "https://dc.lft.to/lastmile_qr_scan", "ios": "https://dc.lft.to/lastmile_qr_scan"}, "bike_id": "bc9b087118333ad4e268ce4e93b1f99a"}, {"fusion_lon": 0.0, "is_reserved": 0, "lat": 38.8779165, "is_disabled": 0, "type": "electric_scooter", "lon": -76.99409266666666, "fusion_lat": 0.0, "name": "e8ddb59cf361191dcf49a5ce311a0d95", "rental_uris": {"android": "https://dc.lft.to/lastmile_qr_scan", "ios": "https://dc.lft.to/lastmile_qr_scan"}, "bike_id": "e8ddb59cf361191dcf49a5ce311a0d95"}, {"fusion_lon": 0.0, "is_reserved": 0, "lat": 39.00295583333333, "is_disabled": 0, "type": "electric_bike", "lon": -76.90301083333334, "fusion_lat": 0.0, "name": "706de3b1dab80f3eda24bc88d3e51e7e", "rental_uris": {"android": "https://dc.lft.to/lastmile_qr_scan", "ios": "https://dc.lft.to/lastmile_qr_scan"}, "bike_id": "706de3b1dab80f3eda24bc88d3e51e7e"}, {"fusion_lon": 0.0, "is_reserved": 0, "lat": 38.934779666666664, "is_disabled": 0, "type": "electric_scooter", "lon": -77.05788666666666, "fusion_lat": 0.0, "name": "fc7834b77d7a40b11b8f862f1f6976cf", "rental_uris": {"android": "https://dc.lft.to/lastmile_qr_scan", "ios": "https://dc.lft.to/lastmile_qr_scan"}, "bike_id": "fc7834b77d7a40b11b8f862f1f6976cf"}, {"fusion_lon": 0.0, "is_reserved": 0, "lat": 38.92293, "is_disabled": 0, "type": "electric_scooter", "lon": -77.04204566666667, "fusion_lat": 0.0, "name": "2749f50660fa3605c0009cc5f378859d", "rental_uris": {"android": "https://dc.lft.to/lastmile_qr_scan", "ios": "https://dc.lft.to/lastmile_qr_scan"}, "bike_id": "2749f50660fa3605c0009cc5f378859d"}, {"fusion_lon": 0.0, "is_reserved": 0, "lat": 38.897477, "is_disabled": 0, "type": "electric_scooter", "lon": -77.04663016666667, "fusion_lat": 0.0, "name": "ae1117b74769be3bc2c9dc60929434e1", "rental_uris": {"android": "https://dc.lft.to/lastmile_qr_scan", "ios": "https://dc.lft.to/lastmile_qr_scan"}, "bike_id": "ae1117b74769be3bc2c9dc60929434e1"}, {"fusion_lon": 0.0, "is_reserved": 0, "lat": 38.906467, "is_disabled": 0, "type": "electric_scooter", "lon": -76.99842233333334, "fusion_lat": 0.0, "name": "d696b442feae13e45877152613c58f2a", "rental_uris": {"android": "https://dc.lft.to/lastmile_qr_scan", "ios": "https://dc.lft.to/lastmile_qr_scan"}, "bike_id": "d696b442feae13e45877152613c58f2a"}, {"fusion_lon": 0.0, "is_reserved": 0, "lat": 38.898404666666664, "is_disabled": 0, "type": "electric_scooter", "lon": -77.01297766666667, "fusion_lat": 0.0, "name": "876f1338cd0836fad1770e3960274797", "rental_uris": {"android": "https://dc.lft.to/lastmile_qr_scan", "ios": "https://dc.lft.to/lastmile_qr_scan"}, "bike_id": "876f1338cd0836fad1770e3960274797"}, {"fusion_lon": 0.0, "is_reserved": 0, "lat": 38.929613833333335, "is_disabled": 0, "type": "electric_scooter", "lon": -77.01147966666667, "fusion_lat": 0.0, "name": "39e0822530c39a4e0d08b4916f8139a9", "rental_uris": {"android": "https://dc.lft.to/lastmile_qr_scan", "ios": "https://dc.lft.to/lastmile_qr_scan"}, "bike_id": "39e0822530c39a4e0d08b4916f8139a9"}, {"fusion_lon": 0.0, "is_reserved": 0, "lat": 38.9191865, "is_disabled": 0, "type": "electric_scooter", "lon": -77.02488466666667, "fusion_lat": 0.0, "name": "8edfcdb7683b2bc354ab1b2fc4cdd255", "rental_uris": {"android": "https://dc.lft.to/lastmile_qr_scan", "ios": "https://dc.lft.to/lastmile_qr_scan"}, "bike_id": "8edfcdb7683b2bc354ab1b2fc4cdd255"}, {"fusion_lon": 0.0, "is_reserved": 0, "lat": 38.995275666666664, "is_disabled": 0, "type": "electric_bike", "lon": -77.02886233333334, "fusion_lat": 0.0, "name": "ac85148d50f0fd2c6183e8f06b1dac54", "rental_uris": {"android": "https://dc.lft.to/lastmile_qr_scan", "ios": "https://dc.lft.to/lastmile_qr_scan"}, "bike_id": "ac85148d50f0fd2c6183e8f06b1dac54"}, {"fusion_lon": 0.0, "is_reserved": 0, "lat": 38.93824633333333, "is_disabled": 0, "type": "electric_scooter", "lon": -77.05988183333334, "fusion_lat": 0.0, "name": "a301ab49cbcc8265b8a875b779f2f444", "rental_uris": {"android": "https://dc.lft.to/lastmile_qr_scan", "ios": "https://dc.lft.to/lastmile_qr_scan"}, "bike_id": "a301ab49cbcc8265b8a875b779f2f444"}, {"fusion_lon": 0.0, "is_reserved": 0, "lat": 38.90235283333333, "is_disabled": 0, "type": "electric_scooter", "lon": -77.00893183333334, "fusion_lat": 0.0, "name": "b927958dd3c0a799c3a56fa564151d5f", "rental_uris": {"android": "https://dc.lft.to/lastmile_qr_scan", "ios": "https://dc.lft.to/lastmile_qr_scan"}, "bike_id": "b927958dd3c0a799c3a56fa564151d5f"}, {"fusion_lon": 0.0, "is_reserved": 0, "lat": 38.905582333333335, "is_disabled": 0, "type": "electric_scooter", "lon": -77.016337, "fusion_lat": 0.0, "name": "05dd23500ee78d27e34c3ecab66299af", "rental_uris": {"android": "https://dc.lft.to/lastmile_qr_scan", "ios": "https://dc.lft.to/lastmile_qr_scan"}, "bike_id": "05dd23500ee78d27e34c3ecab66299af"}, {"fusion_lon": 0.0, "is_reserved": 0, "lat": 38.906685833333334, "is_disabled": 0, "type": "electric_scooter", "lon": -77.02713766666666, "fusion_lat": 0.0, "name": "c5e0f483443742390ea97099158528a1", "rental_uris": {"android": "https://dc.lft.to/lastmile_qr_scan", "ios": "https://dc.lft.to/lastmile_qr_scan"}, "bike_id": "c5e0f483443742390ea97099158528a1"}, {"fusion_lon": 0.0, "is_reserved": 0, "lat": 38.89741516666667, "is_disabled": 0, "type": "electric_scooter", "lon": -77.00861566666667, "fusion_lat": 0.0, "name": "4909027a3253c272b7562017ab67f951", "rental_uris": {"android": "https://dc.lft.to/lastmile_qr_scan", "ios": "https://dc.lft.to/lastmile_qr_scan"}, "bike_id": "4909027a3253c272b7562017ab67f951"}, {"fusion_lon": 0.0, "is_reserved": 0, "lat": 38.912584833333334, "is_disabled": 0, "type": "electric_scooter", "lon": -77.0386335, "fusion_lat": 0.0, "name": "0e2dcb2c1324bf983ecabebf8e8094c5", "rental_uris": {"android": "https://dc.lft.to/lastmile_qr_scan", "ios": "https://dc.lft.to/lastmile_qr_scan"}, "bike_id": "0e2dcb2c1324bf983ecabebf8e8094c5"}, {"fusion_lon": 0.0, "is_reserved": 0, "lat": 38.898255666666664, "is_disabled": 0, "type": "electric_scooter", "lon": -76.94651566666667, "fusion_lat": 0.0, "name": "e6184a9f9aa1dd8d3c3953e3d7903b39", "rental_uris": {"android": "https://dc.lft.to/lastmile_qr_scan", "ios": "https://dc.lft.to/lastmile_qr_scan"}, "bike_id": "e6184a9f9aa1dd8d3c3953e3d7903b39"}, {"fusion_lon": 0.0, "is_reserved": 0, "lat": 38.92620516666667, "is_disabled": 0, "type": "electric_scooter", "lon": -77.07135866666667, "fusion_lat": 0.0, "name": "faadbdf7330c369a05337113ece051f2", "rental_uris": {"android": "https://dc.lft.to/lastmile_qr_scan", "ios": "https://dc.lft.to/lastmile_qr_scan"}, "bike_id": "faadbdf7330c369a05337113ece051f2"}, {"fusion_lon": 0.0, "is_reserved": 0, "lat": 38.941288, "is_disabled": 0, "type": "electric_scooter", "lon": -77.02153916666667, "fusion_lat": 0.0, "name": "76ae25ee85817c273ffe36f31659dd56", "rental_uris": {"android": "https://dc.lft.to/lastmile_qr_scan", "ios": "https://dc.lft.to/lastmile_qr_scan"}, "bike_id": "76ae25ee85817c273ffe36f31659dd56"}, {"fusion_lon": 0.0, "is_reserved": 0, "lat": 38.90733483333333, "is_disabled": 0, "type": "electric_scooter", "lon": -77.02805333333333, "fusion_lat": 0.0, "name": "a8bd331502eaa1553afaf528fda7bb0b", "rental_uris": {"android": "https://dc.lft.to/lastmile_qr_scan", "ios": "https://dc.lft.to/lastmile_qr_scan"}, "bike_id": "a8bd331502eaa1553afaf528fda7bb0b"}, {"fusion_lon": 0.0, "is_reserved": 0, "lat": 38.875694833333334, "is_disabled": 0, "type": "electric_scooter", "lon": -77.0059545, "fusion_lat": 0.0, "name": "f86e887df1493b82d88c4740d4d79b8a", "rental_uris": {"android": "https://dc.lft.to/lastmile_qr_scan", "ios": "https://dc.lft.to/lastmile_qr_scan"}, "bike_id": "f86e887df1493b82d88c4740d4d79b8a"}, {"fusion_lon": 0.0, "is_reserved": 0, "lat": 38.895509833333335, "is_disabled": 0, "type": "electric_scooter", "lon": -76.94940616666666, "fusion_lat": 0.0, "name": "192cf31f09443b5692233527bffe5711", "rental_uris": {"android": "https://dc.lft.to/lastmile_qr_scan", "ios": "https://dc.lft.to/lastmile_qr_scan"}, "bike_id": "192cf31f09443b5692233527bffe5711"}, {"fusion_lon": 0.0, "is_reserved": 0, "lat": 38.92668233333333, "is_disabled": 0, "type": "electric_scooter", "lon": -77.0330755, "fusion_lat": 0.0, "name": "89d8e6dbfd91e77e33d1f6d46d281806", "rental_uris": {"android": "https://dc.lft.to/lastmile_qr_scan", "ios": "https://dc.lft.to/lastmile_qr_scan"}, "bike_id": "89d8e6dbfd91e77e33d1f6d46d281806"}, {"fusion_lon": 0.0, "is_reserved": 0, "lat": 38.93732083333333, "is_disabled": 0, "type": "electric_scooter", "lon": -77.03255883333334, "fusion_lat": 0.0, "name": "d73902530d1c3a91ad261d66498705a7", "rental_uris": {"android": "https://dc.lft.to/lastmile_qr_scan", "ios": "https://dc.lft.to/lastmile_qr_scan"}, "bike_id": "d73902530d1c3a91ad261d66498705a7"}, {"fusion_lon": 0.0, "is_reserved": 0, "lat": 38.87890983333333, "is_disabled": 0, "type": "electric_scooter", "lon": -77.01388483333334, "fusion_lat": 0.0, "name": "6bf465c33e004e84c905d68a1b0cb110", "rental_uris": {"android": "https://dc.lft.to/lastmile_qr_scan", "ios": "https://dc.lft.to/lastmile_qr_scan"}, "bike_id": "6bf465c33e004e84c905d68a1b0cb110"}, {"fusion_lon": 0.0, "is_reserved": 0, "lat": 38.96121466666666, "is_disabled": 0, "type": "electric_bike", "lon": -77.03273383333334, "fusion_lat": 0.0, "name": "1a6fadf6ff94a405cb055210c963d640", "rental_uris": {"android": "https://dc.lft.to/lastmile_qr_scan", "ios": "https://dc.lft.to/lastmile_qr_scan"}, "bike_id": "1a6fadf6ff94a405cb055210c963d640"}, {"fusion_lon": 0.0, "is_reserved": 0, "lat": 38.91973016666667, "is_disabled": 0, "type": "electric_scooter", "lon": -76.99254066666667, "fusion_lat": 0.0, "name": "e3c572c67a83f75de74956961b900bf2", "rental_uris": {"android": "https://dc.lft.to/lastmile_qr_scan", "ios": "https://dc.lft.to/lastmile_qr_scan"}, "bike_id": "e3c572c67a83f75de74956961b900bf2"}, {"fusion_lon": 0.0, "is_reserved": 0, "lat": 38.89828883333333, "is_disabled": 0, "type": "electric_scooter", "lon": -77.04825783333334, "fusion_lat": 0.0, "name": "374788f5f61b70d26fd515c756139dcd", "rental_uris": {"android": "https://dc.lft.to/lastmile_qr_scan", "ios": "https://dc.lft.to/lastmile_qr_scan"}, "bike_id": "374788f5f61b70d26fd515c756139dcd"}, {"fusion_lon": 0.0, "is_reserved": 0, "lat": 38.90412383333334, "is_disabled": 0, "type": "electric_scooter", "lon": -77.02954283333334, "fusion_lat": 0.0, "name": "2011976efcb6d058a88806394d35df45", "rental_uris": {"android": "https://dc.lft.to/lastmile_qr_scan", "ios": "https://dc.lft.to/lastmile_qr_scan"}, "bike_id": "2011976efcb6d058a88806394d35df45"}, {"fusion_lon": 0.0, "is_reserved": 0, "lat": 38.90996716666667, "is_disabled": 0, "type": "electric_scooter", "lon": -77.0401145, "fusion_lat": 0.0, "name": "05d5016f31214e17a13a8e03a7ff65cc", "rental_uris": {"android": "https://dc.lft.to/lastmile_qr_scan", "ios": "https://dc.lft.to/lastmile_qr_scan"}, "bike_id": "05d5016f31214e17a13a8e03a7ff65cc"}, {"fusion_lon": 0.0, "is_reserved": 0, "lat": 38.911066, "is_disabled": 0, "type": "electric_scooter", "lon": -77.02171283333334, "fusion_lat": 0.0, "name": "001125a7f69a8935e93c177cd6382746", "rental_uris": {"android": "https://dc.lft.to/lastmile_qr_scan", "ios": "https://dc.lft.to/lastmile_qr_scan"}, "bike_id": "001125a7f69a8935e93c177cd6382746"}, {"fusion_lon": 0.0, "is_reserved": 0, "lat": 38.923202, "is_disabled": 0, "type": "electric_scooter", "lon": -77.02800716666667, "fusion_lat": 0.0, "name": "3462c4ded8ff10164e388ace2a95cbf5", "rental_uris": {"android": "https://dc.lft.to/lastmile_qr_scan", "ios": "https://dc.lft.to/lastmile_qr_scan"}, "bike_id": "3462c4ded8ff10164e388ace2a95cbf5"}, {"fusion_lon": 0.0, "is_reserved": 0, "lat": 38.87643333333333, "is_disabled": 0, "type": "electric_scooter", "lon": -77.000913, "fusion_lat": 0.0, "name": "96aed36339cf026806399c7358580eeb", "rental_uris": {"android": "https://dc.lft.to/lastmile_qr_scan", "ios": "https://dc.lft.to/lastmile_qr_scan"}, "bike_id": "96aed36339cf026806399c7358580eeb"}, {"fusion_lon": 0.0, "is_reserved": 0, "lat": 38.918450666666665, "is_disabled": 0, "type": "electric_scooter", "lon": -76.965375, "fusion_lat": 0.0, "name": "dffe2ab587c04cac017783dfccf967c0", "rental_uris": {"android": "https://dc.lft.to/lastmile_qr_scan", "ios": "https://dc.lft.to/lastmile_qr_scan"}, "bike_id": "dffe2ab587c04cac017783dfccf967c0"}, {"fusion_lon": 0.0, "is_reserved": 0, "lat": 38.894219666666665, "is_disabled": 0, "type": "electric_scooter", "lon": -77.05604233333334, "fusion_lat": 0.0, "name": "3d9e068d72c761e683abbf3b0483f97c", "rental_uris": {"android": "https://dc.lft.to/lastmile_qr_scan", "ios": "https://dc.lft.to/lastmile_qr_scan"}, "bike_id": "3d9e068d72c761e683abbf3b0483f97c"}, {"fusion_lon": 0.0, "is_reserved": 0, "lat": 38.8988715, "is_disabled": 0, "type": "electric_scooter", "lon": -77.02003983333333, "fusion_lat": 0.0, "name": "09e42e7f71770b6a7feb52970c011b1e", "rental_uris": {"android": "https://dc.lft.to/lastmile_qr_scan", "ios": "https://dc.lft.to/lastmile_qr_scan"}, "bike_id": "09e42e7f71770b6a7feb52970c011b1e"}, {"fusion_lon": 0.0, "is_reserved": 0, "lat": 38.90035, "is_disabled": 0, "type": "electric_scooter", "lon": -77.01184833333333, "fusion_lat": 0.0, "name": "45c823eb454857d0bf57acc399bae238", "rental_uris": {"android": "https://dc.lft.to/lastmile_qr_scan", "ios": "https://dc.lft.to/lastmile_qr_scan"}, "bike_id": "45c823eb454857d0bf57acc399bae238"}, {"fusion_lon": 0.0, "is_reserved": 0, "lat": 38.91544483333333, "is_disabled": 0, "type": "electric_scooter", "lon": -77.04157516666666, "fusion_lat": 0.0, "name": "673839d983577a9317f199f0b23f9ff9", "rental_uris": {"android": "https://dc.lft.to/lastmile_qr_scan", "ios": "https://dc.lft.to/lastmile_qr_scan"}, "bike_id": "673839d983577a9317f199f0b23f9ff9"}, {"fusion_lon": 0.0, "is_reserved": 0, "lat": 38.92852966666667, "is_disabled": 0, "type": "electric_scooter", "lon": -77.01409083333333, "fusion_lat": 0.0, "name": "6cf2bebed746e5b57590fa37b2aefff8", "rental_uris": {"android": "https://dc.lft.to/lastmile_qr_scan", "ios": "https://dc.lft.to/lastmile_qr_scan"}, "bike_id": "6cf2bebed746e5b57590fa37b2aefff8"}, {"fusion_lon": 0.0, "is_reserved": 0, "lat": 38.91401333333334, "is_disabled": 0, "type": "electric_scooter", "lon": -77.0181535, "fusion_lat": 0.0, "name": "bc00795d9ef7d7a826a541fa1ece17ed", "rental_uris": {"android": "https://dc.lft.to/lastmile_qr_scan", "ios": "https://dc.lft.to/lastmile_qr_scan"}, "bike_id": "bc00795d9ef7d7a826a541fa1ece17ed"}, {"fusion_lon": 0.0, "is_reserved": 0, "lat": 38.933437, "is_disabled": 0, "type": "electric_bike", "lon": -77.08313983333333, "fusion_lat": 0.0, "name": "7f17055047aa3ccc13f3c705fb07f53f", "rental_uris": {"android": "https://dc.lft.to/lastmile_qr_scan", "ios": "https://dc.lft.to/lastmile_qr_scan"}, "bike_id": "7f17055047aa3ccc13f3c705fb07f53f"}, {"fusion_lon": 0.0, "is_reserved": 0, "lat": 38.9004005, "is_disabled": 0, "type": "electric_scooter", "lon": -76.9882425, "fusion_lat": 0.0, "name": "26df8d238f801acfe43aeabc5392a157", "rental_uris": {"android": "https://dc.lft.to/lastmile_qr_scan", "ios": "https://dc.lft.to/lastmile_qr_scan"}, "bike_id": "26df8d238f801acfe43aeabc5392a157"}, {"fusion_lon": 0.0, "is_reserved": 0, "lat": 38.881208, "is_disabled": 0, "type": "electric_scooter", "lon": -77.01336666666667, "fusion_lat": 0.0, "name": "c43e6310a1c6772a1a79a5dc611729a5", "rental_uris": {"android": "https://dc.lft.to/lastmile_qr_scan", "ios": "https://dc.lft.to/lastmile_qr_scan"}, "bike_id": "c43e6310a1c6772a1a79a5dc611729a5"}, {"fusion_lon": 0.0, "is_reserved": 0, "lat": 38.923398, "is_disabled": 0, "type": "electric_scooter", "lon": -77.019129, "fusion_lat": 0.0, "name": "6ba59383e9d4b93c4ae753b5dfa70f3e", "rental_uris": {"android": "https://dc.lft.to/lastmile_qr_scan", "ios": "https://dc.lft.to/lastmile_qr_scan"}, "bike_id": "6ba59383e9d4b93c4ae753b5dfa70f3e"}, {"fusion_lon": 0.0, "is_reserved": 0, "lat": 38.89363066666667, "is_disabled": 0, "type": "electric_scooter", "lon": -77.02258116666667, "fusion_lat": 0.0, "name": "d235cbdcf251b811115f418d271c3298", "rental_uris": {"android": "https://dc.lft.to/lastmile_qr_scan", "ios": "https://dc.lft.to/lastmile_qr_scan"}, "bike_id": "d235cbdcf251b811115f418d271c3298"}, {"fusion_lon": 0.0, "is_reserved": 0, "lat": 38.91812916666667, "is_disabled": 0, "type": "electric_scooter", "lon": -77.02475383333334, "fusion_lat": 0.0, "name": "1c871198d710d0dca8d8419d95472967", "rental_uris": {"android": "https://dc.lft.to/lastmile_qr_scan", "ios": "https://dc.lft.to/lastmile_qr_scan"}, "bike_id": "1c871198d710d0dca8d8419d95472967"}, {"fusion_lon": 0.0, "is_reserved": 0, "lat": 38.92447683333333, "is_disabled": 0, "type": "electric_scooter", "lon": -77.03284466666666, "fusion_lat": 0.0, "name": "3007b63955ef17fecf670f7267bd6fd7", "rental_uris": {"android": "https://dc.lft.to/lastmile_qr_scan", "ios": "https://dc.lft.to/lastmile_qr_scan"}, "bike_id": "3007b63955ef17fecf670f7267bd6fd7"}, {"fusion_lon": 0.0, "is_reserved": 0, "lat": 38.909710833333335, "is_disabled": 0, "type": "electric_scooter", "lon": -77.03865216666667, "fusion_lat": 0.0, "name": "5f68423592c4c44f286e8c2ad0941a8e", "rental_uris": {"android": "https://dc.lft.to/lastmile_qr_scan", "ios": "https://dc.lft.to/lastmile_qr_scan"}, "bike_id": "5f68423592c4c44f286e8c2ad0941a8e"}, {"fusion_lon": 0.0, "is_reserved": 0, "lat": 38.92688666666667, "is_disabled": 0, "type": "electric_scooter", "lon": -77.02274466666667, "fusion_lat": 0.0, "name": "66fbbf1723d17bf5041916c2537e1fde", "rental_uris": {"android": "https://dc.lft.to/lastmile_qr_scan", "ios": "https://dc.lft.to/lastmile_qr_scan"}, "bike_id": "66fbbf1723d17bf5041916c2537e1fde"}, {"fusion_lon": 0.0, "is_reserved": 0, "lat": 38.907262, "is_disabled": 0, "type": "electric_scooter", "lon": -77.03775866666666, "fusion_lat": 0.0, "name": "a5c7caf230ddd275f361e54688afb84d", "rental_uris": {"android": "https://dc.lft.to/lastmile_qr_scan", "ios": "https://dc.lft.to/lastmile_qr_scan"}, "bike_id": "a5c7caf230ddd275f361e54688afb84d"}, {"fusion_lon": 0.0, "is_reserved": 0, "lat": 38.91808866666667, "is_disabled": 0, "type": "electric_scooter", "lon": -77.02501516666666, "fusion_lat": 0.0, "name": "f977d31b3c5dbd7f51514da5547a0d2f", "rental_uris": {"android": "https://dc.lft.to/lastmile_qr_scan", "ios": "https://dc.lft.to/lastmile_qr_scan"}, "bike_id": "f977d31b3c5dbd7f51514da5547a0d2f"}, {"fusion_lon": 0.0, "is_reserved": 0, "lat": 38.938559, "is_disabled": 0, "type": "electric_scooter", "lon": -77.02474916666667, "fusion_lat": 0.0, "name": "fb539230a72cce2570e0f710ae4d4303", "rental_uris": {"android": "https://dc.lft.to/lastmile_qr_scan", "ios": "https://dc.lft.to/lastmile_qr_scan"}, "bike_id": "fb539230a72cce2570e0f710ae4d4303"}, {"fusion_lon": 0.0, "is_reserved": 0, "lat": 38.923348, "is_disabled": 0, "type": "electric_scooter", "lon": -77.04448666666667, "fusion_lat": 0.0, "name": "dd180da88b57d3382316753f70ffee84", "rental_uris": {"android": "https://dc.lft.to/lastmile_qr_scan", "ios": "https://dc.lft.to/lastmile_qr_scan"}, "bike_id": "dd180da88b57d3382316753f70ffee84"}, {"fusion_lon": 0.0, "is_reserved": 0, "lat": 38.92214466666667, "is_disabled": 0, "type": "electric_scooter", "lon": -77.02664083333333, "fusion_lat": 0.0, "name": "a1e4fb47c97ccef78fdca2331af85f98", "rental_uris": {"android": "https://dc.lft.to/lastmile_qr_scan", "ios": "https://dc.lft.to/lastmile_qr_scan"}, "bike_id": "a1e4fb47c97ccef78fdca2331af85f98"}, {"fusion_lon": 0.0, "is_reserved": 0, "lat": 38.88538716666667, "is_disabled": 0, "type": "electric_scooter", "lon": -76.9788875, "fusion_lat": 0.0, "name": "0a7f64210b3c274be9a4779f86fd6220", "rental_uris": {"android": "https://dc.lft.to/lastmile_qr_scan", "ios": "https://dc.lft.to/lastmile_qr_scan"}, "bike_id": "0a7f64210b3c274be9a4779f86fd6220"}, {"fusion_lon": 0.0, "is_reserved": 0, "lat": 38.91054883333334, "is_disabled": 0, "type": "electric_scooter", "lon": -77.02653616666667, "fusion_lat": 0.0, "name": "b874c9b8fa4ccc7d892702dcdddd153b", "rental_uris": {"android": "https://dc.lft.to/lastmile_qr_scan", "ios": "https://dc.lft.to/lastmile_qr_scan"}, "bike_id": "b874c9b8fa4ccc7d892702dcdddd153b"}, {"fusion_lon": 0.0, "is_reserved": 0, "lat": 38.855639, "is_disabled": 0, "type": "electric_scooter", "lon": -76.99076333333333, "fusion_lat": 0.0, "name": "eeb494e23bad7799fc11b55193c11d67", "rental_uris": {"android": "https://dc.lft.to/lastmile_qr_scan", "ios": "https://dc.lft.to/lastmile_qr_scan"}, "bike_id": "eeb494e23bad7799fc11b55193c11d67"}, {"fusion_lon": 0.0, "is_reserved": 0, "lat": 38.8647895, "is_disabled": 0, "type": "electric_bike", "lon": -77.0546195, "fusion_lat": 0.0, "name": "1ddf70e58b5a87b271e6020b3bc10679", "rental_uris": {"android": "https://dc.lft.to/lastmile_qr_scan", "ios": "https://dc.lft.to/lastmile_qr_scan"}, "bike_id": "1ddf70e58b5a87b271e6020b3bc10679"}, {"fusion_lon": 0.0, "is_reserved": 0, "lat": 38.9234305, "is_disabled": 0, "type": "electric_scooter", "lon": -77.01899416666667, "fusion_lat": 0.0, "name": "ee1a3ad383967ff4a398ff5d8a58fb5f", "rental_uris": {"android": "https://dc.lft.to/lastmile_qr_scan", "ios": "https://dc.lft.to/lastmile_qr_scan"}, "bike_id": "ee1a3ad383967ff4a398ff5d8a58fb5f"}, {"fusion_lon": 0.0, "is_reserved": 0, "lat": 38.876653833333336, "is_disabled": 0, "type": "electric_scooter", "lon": -77.01577233333333, "fusion_lat": 0.0, "name": "da7b1b6efeced8b09cb05f2667094f3b", "rental_uris": {"android": "https://dc.lft.to/lastmile_qr_scan", "ios": "https://dc.lft.to/lastmile_qr_scan"}, "bike_id": "da7b1b6efeced8b09cb05f2667094f3b"}, {"fusion_lon": 0.0, "is_reserved": 0, "lat": 38.8922805, "is_disabled": 0, "type": "electric_scooter", "lon": -77.0217475, "fusion_lat": 0.0, "name": "0f688156c9775103309f41feb9bba441", "rental_uris": {"android": "https://dc.lft.to/lastmile_qr_scan", "ios": "https://dc.lft.to/lastmile_qr_scan"}, "bike_id": "0f688156c9775103309f41feb9bba441"}, {"fusion_lon": 0.0, "is_reserved": 0, "lat": 38.91690283333333, "is_disabled": 0, "type": "electric_scooter", "lon": -77.0259355, "fusion_lat": 0.0, "name": "7f9bfc3f5565ccff2f62176f604a85f1", "rental_uris": {"android": "https://dc.lft.to/lastmile_qr_scan", "ios": "https://dc.lft.to/lastmile_qr_scan"}, "bike_id": "7f9bfc3f5565ccff2f62176f604a85f1"}, {"fusion_lon": 0.0, "is_reserved": 0, "lat": 38.916505, "is_disabled": 0, "type": "electric_scooter", "lon": -77.0270965, "fusion_lat": 0.0, "name": "d06801e284bf1aef88b13cccac49d089", "rental_uris": {"android": "https://dc.lft.to/lastmile_qr_scan", "ios": "https://dc.lft.to/lastmile_qr_scan"}, "bike_id": "d06801e284bf1aef88b13cccac49d089"}, {"fusion_lon": 0.0, "is_reserved": 0, "lat": 38.931466666666665, "is_disabled": 0, "type": "electric_scooter", "lon": -77.03288133333334, "fusion_lat": 0.0, "name": "b9adb4077eaf34e0511ef59579ac786c", "rental_uris": {"android": "https://dc.lft.to/lastmile_qr_scan", "ios": "https://dc.lft.to/lastmile_qr_scan"}, "bike_id": "b9adb4077eaf34e0511ef59579ac786c"}, {"fusion_lon": 0.0, "is_reserved": 0, "lat": 38.923466833333336, "is_disabled": 0, "type": "electric_scooter", "lon": -77.02445516666667, "fusion_lat": 0.0, "name": "c060eedab536a9c8fcb36c03acedd088", "rental_uris": {"android": "https://dc.lft.to/lastmile_qr_scan", "ios": "https://dc.lft.to/lastmile_qr_scan"}, "bike_id": "c060eedab536a9c8fcb36c03acedd088"}, {"fusion_lon": 0.0, "is_reserved": 0, "lat": 38.92327366666667, "is_disabled": 0, "type": "electric_scooter", "lon": -77.01954233333333, "fusion_lat": 0.0, "name": "ef00dc805b8e72c28654da9609aeda99", "rental_uris": {"android": "https://dc.lft.to/lastmile_qr_scan", "ios": "https://dc.lft.to/lastmile_qr_scan"}, "bike_id": "ef00dc805b8e72c28654da9609aeda99"}, {"fusion_lon": 0.0, "is_reserved": 0, "lat": 38.91054166666667, "is_disabled": 0, "type": "electric_scooter", "lon": -77.0280135, "fusion_lat": 0.0, "name": "a0b43b17092a9ebecfa7a392e7a5a1ad", "rental_uris": {"android": "https://dc.lft.to/lastmile_qr_scan", "ios": "https://dc.lft.to/lastmile_qr_scan"}, "bike_id": "a0b43b17092a9ebecfa7a392e7a5a1ad"}, {"fusion_lon": 0.0, "is_reserved": 0, "lat": 38.897493833333336, "is_disabled": 0, "type": "electric_scooter", "lon": -77.01891583333334, "fusion_lat": 0.0, "name": "94c4d0533816a62535208db26ab3b1e2", "rental_uris": {"android": "https://dc.lft.to/lastmile_qr_scan", "ios": "https://dc.lft.to/lastmile_qr_scan"}, "bike_id": "94c4d0533816a62535208db26ab3b1e2"}, {"fusion_lon": 0.0, "is_reserved": 0, "lat": 38.9071465, "is_disabled": 0, "type": "electric_scooter", "lon": -77.03839183333334, "fusion_lat": 0.0, "name": "9dce57d1b6cc98354fe4330581fe32c0", "rental_uris": {"android": "https://dc.lft.to/lastmile_qr_scan", "ios": "https://dc.lft.to/lastmile_qr_scan"}, "bike_id": "9dce57d1b6cc98354fe4330581fe32c0"}, {"fusion_lon": 0.0, "is_reserved": 0, "lat": 38.91090533333333, "is_disabled": 0, "type": "electric_scooter", "lon": -77.04349316666666, "fusion_lat": 0.0, "name": "4e7f92fb37891fa402a7c2e52d56c12d", "rental_uris": {"android": "https://dc.lft.to/lastmile_qr_scan", "ios": "https://dc.lft.to/lastmile_qr_scan"}, "bike_id": "4e7f92fb37891fa402a7c2e52d56c12d"}, {"fusion_lon": 0.0, "is_reserved": 0, "lat": 38.93100666666667, "is_disabled": 0, "type": "electric_scooter", "lon": -77.02642816666666, "fusion_lat": 0.0, "name": "2110e458e713226220571d8ab95dce62", "rental_uris": {"android": "https://dc.lft.to/lastmile_qr_scan", "ios": "https://dc.lft.to/lastmile_qr_scan"}, "bike_id": "2110e458e713226220571d8ab95dce62"}, {"fusion_lon": 0.0, "is_reserved": 0, "lat": 38.87706033333333, "is_disabled": 0, "type": "electric_scooter", "lon": -77.11023283333333, "fusion_lat": 0.0, "name": "6ecfcb33e79c93a827f884fa55a513cf", "rental_uris": {"android": "https://dc.lft.to/lastmile_qr_scan", "ios": "https://dc.lft.to/lastmile_qr_scan"}, "bike_id": "6ecfcb33e79c93a827f884fa55a513cf"}, {"fusion_lon": 0.0, "is_reserved": 0, "lat": 38.9282735, "is_disabled": 0, "type": "electric_scooter", "lon": -77.02301033333333, "fusion_lat": 0.0, "name": "c0424c9574c3c2180f1ad70d675af03a", "rental_uris": {"android": "https://dc.lft.to/lastmile_qr_scan", "ios": "https://dc.lft.to/lastmile_qr_scan"}, "bike_id": "c0424c9574c3c2180f1ad70d675af03a"}, {"fusion_lon": 0.0, "is_reserved": 0, "lat": 38.9200445, "is_disabled": 0, "type": "electric_scooter", "lon": -77.0323885, "fusion_lat": 0.0, "name": "dae6efd8fb1cc6f871b8db89f1a75c6f", "rental_uris": {"android": "https://dc.lft.to/lastmile_qr_scan", "ios": "https://dc.lft.to/lastmile_qr_scan"}, "bike_id": "dae6efd8fb1cc6f871b8db89f1a75c6f"}, {"fusion_lon": 0.0, "is_reserved": 0, "lat": 38.924787, "is_disabled": 0, "type": "electric_scooter", "lon": -77.0273355, "fusion_lat": 0.0, "name": "a1ff15988c3d646426866d788a11fd6e", "rental_uris": {"android": "https://dc.lft.to/lastmile_qr_scan", "ios": "https://dc.lft.to/lastmile_qr_scan"}, "bike_id": "a1ff15988c3d646426866d788a11fd6e"}, {"fusion_lon": 0.0, "is_reserved": 0, "lat": 38.8922335, "is_disabled": 0, "type": "electric_scooter", "lon": -77.01353716666667, "fusion_lat": 0.0, "name": "fafe31280ba873e6b58c4275e050e710", "rental_uris": {"android": "https://dc.lft.to/lastmile_qr_scan", "ios": "https://dc.lft.to/lastmile_qr_scan"}, "bike_id": "fafe31280ba873e6b58c4275e050e710"}, {"fusion_lon": 0.0, "is_reserved": 0, "lat": 38.89606833333333, "is_disabled": 0, "type": "electric_scooter", "lon": -77.02132816666666, "fusion_lat": 0.0, "name": "57b3169a3150b9a36fafc2ba8fe8b2d3", "rental_uris": {"android": "https://dc.lft.to/lastmile_qr_scan", "ios": "https://dc.lft.to/lastmile_qr_scan"}, "bike_id": "57b3169a3150b9a36fafc2ba8fe8b2d3"}, {"fusion_lon": 0.0, "is_reserved": 0, "lat": 38.9237495, "is_disabled": 0, "type": "electric_scooter", "lon": -77.0264945, "fusion_lat": 0.0, "name": "1c7f58346ff5242f0b82837494226c28", "rental_uris": {"android": "https://dc.lft.to/lastmile_qr_scan", "ios": "https://dc.lft.to/lastmile_qr_scan"}, "bike_id": "1c7f58346ff5242f0b82837494226c28"}, {"fusion_lon": 0.0, "is_reserved": 0, "lat": 38.8840735, "is_disabled": 0, "type": "electric_bike", "lon": -76.98178566666667, "fusion_lat": 0.0, "name": "88c0197de53dac33a720b692ad904cad", "rental_uris": {"android": "https://dc.lft.to/lastmile_qr_scan", "ios": "https://dc.lft.to/lastmile_qr_scan"}, "bike_id": "88c0197de53dac33a720b692ad904cad"}, {"fusion_lon": 0.0, "is_reserved": 0, "lat": 38.93194666666667, "is_disabled": 0, "type": "electric_scooter", "lon": -77.02957783333333, "fusion_lat": 0.0, "name": "cb8e2e1307bba97a613705ae1db2c179", "rental_uris": {"android": "https://dc.lft.to/lastmile_qr_scan", "ios": "https://dc.lft.to/lastmile_qr_scan"}, "bike_id": "cb8e2e1307bba97a613705ae1db2c179"}, {"fusion_lon": 0.0, "is_reserved": 0, "lat": 38.8886935, "is_disabled": 0, "type": "electric_scooter", "lon": -76.99031633333334, "fusion_lat": 0.0, "name": "3ab1b394278e93052aebf78b19c2921d", "rental_uris": {"android": "https://dc.lft.to/lastmile_qr_scan", "ios": "https://dc.lft.to/lastmile_qr_scan"}, "bike_id": "3ab1b394278e93052aebf78b19c2921d"}, {"fusion_lon": 0.0, "is_reserved": 0, "lat": 38.90454533333333, "is_disabled": 0, "type": "electric_scooter", "lon": -77.062848, "fusion_lat": 0.0, "name": "7e8d44b43aee54d72e9d1a28568a0c79", "rental_uris": {"android": "https://dc.lft.to/lastmile_qr_scan", "ios": "https://dc.lft.to/lastmile_qr_scan"}, "bike_id": "7e8d44b43aee54d72e9d1a28568a0c79"}, {"fusion_lon": 0.0, "is_reserved": 0, "lat": 38.920973333333336, "is_disabled": 0, "type": "electric_scooter", "lon": -77.03657916666667, "fusion_lat": 0.0, "name": "d71f9d1cc0e84d5550126b9ab6dc7118", "rental_uris": {"android": "https://dc.lft.to/lastmile_qr_scan", "ios": "https://dc.lft.to/lastmile_qr_scan"}, "bike_id": "d71f9d1cc0e84d5550126b9ab6dc7118"}, {"fusion_lon": 0.0, "is_reserved": 0, "lat": 38.9125675, "is_disabled": 0, "type": "electric_scooter", "lon": -77.03852783333333, "fusion_lat": 0.0, "name": "f704194be7a38e63eb16f5d1c6b029f2", "rental_uris": {"android": "https://dc.lft.to/lastmile_qr_scan", "ios": "https://dc.lft.to/lastmile_qr_scan"}, "bike_id": "f704194be7a38e63eb16f5d1c6b029f2"}, {"fusion_lon": 0.0, "is_reserved": 0, "lat": 38.920933, "is_disabled": 0, "type": "electric_scooter", "lon": -77.02320766666666, "fusion_lat": 0.0, "name": "606cf12c0558eceb3eb81b12b5abb8e7", "rental_uris": {"android": "https://dc.lft.to/lastmile_qr_scan", "ios": "https://dc.lft.to/lastmile_qr_scan"}, "bike_id": "606cf12c0558eceb3eb81b12b5abb8e7"}, {"fusion_lon": 0.0, "is_reserved": 0, "lat": 38.915871333333335, "is_disabled": 0, "type": "electric_scooter", "lon": -77.0163585, "fusion_lat": 0.0, "name": "01048ffa67b274c1f6dcad99e6d89f4c", "rental_uris": {"android": "https://dc.lft.to/lastmile_qr_scan", "ios": "https://dc.lft.to/lastmile_qr_scan"}, "bike_id": "01048ffa67b274c1f6dcad99e6d89f4c"}, {"fusion_lon": 0.0, "is_reserved": 0, "lat": 38.87605516666667, "is_disabled": 0, "type": "electric_scooter", "lon": -77.0039715, "fusion_lat": 0.0, "name": "b3d862e87ad4424bac8197b824a57bd8", "rental_uris": {"android": "https://dc.lft.to/lastmile_qr_scan", "ios": "https://dc.lft.to/lastmile_qr_scan"}, "bike_id": "b3d862e87ad4424bac8197b824a57bd8"}, {"fusion_lon": 0.0, "is_reserved": 0, "lat": 38.90791683333333, "is_disabled": 0, "type": "electric_bike", "lon": -77.07161816666667, "fusion_lat": 0.0, "name": "49bb38b618197433a9c4a39c43478b7b", "rental_uris": {"android": "https://dc.lft.to/lastmile_qr_scan", "ios": "https://dc.lft.to/lastmile_qr_scan"}, "bike_id": "49bb38b618197433a9c4a39c43478b7b"}, {"fusion_lon": 0.0, "is_reserved": 0, "lat": 38.874568, "is_disabled": 0, "type": "electric_scooter", "lon": -77.00482233333334, "fusion_lat": 0.0, "name": "f545f4bd30b3a52eb27fb07cb76b88d7", "rental_uris": {"android": "https://dc.lft.to/lastmile_qr_scan", "ios": "https://dc.lft.to/lastmile_qr_scan"}, "bike_id": "f545f4bd30b3a52eb27fb07cb76b88d7"}, {"fusion_lon": 0.0, "is_reserved": 0, "lat": 38.91117966666667, "is_disabled": 0, "type": "electric_scooter", "lon": -77.04208333333334, "fusion_lat": 0.0, "name": "e1ae60d16a1aa0b49e836b818ebb8b7a", "rental_uris": {"android": "https://dc.lft.to/lastmile_qr_scan", "ios": "https://dc.lft.to/lastmile_qr_scan"}, "bike_id": "e1ae60d16a1aa0b49e836b818ebb8b7a"}, {"fusion_lon": 0.0, "is_reserved": 0, "lat": 38.8814345, "is_disabled": 0, "type": "electric_scooter", "lon": -77.02346866666667, "fusion_lat": 0.0, "name": "d3d70a6f924d3b4786bb27fec7455c34", "rental_uris": {"android": "https://dc.lft.to/lastmile_qr_scan", "ios": "https://dc.lft.to/lastmile_qr_scan"}, "bike_id": "d3d70a6f924d3b4786bb27fec7455c34"}, {"fusion_lon": 0.0, "is_reserved": 0, "lat": 38.9176335, "is_disabled": 0, "type": "electric_bike", "lon": -76.97312616666666, "fusion_lat": 0.0, "name": "c0f16aebb0288f3b6ac9da1eb6c7d55c", "rental_uris": {"android": "https://dc.lft.to/lastmile_qr_scan", "ios": "https://dc.lft.to/lastmile_qr_scan"}, "bike_id": "c0f16aebb0288f3b6ac9da1eb6c7d55c"}, {"fusion_lon": 0.0, "is_reserved": 0, "lat": 38.904508666666665, "is_disabled": 0, "type": "electric_scooter", "lon": -77.0172705, "fusion_lat": 0.0, "name": "5031824ddacd71989220be417c2a7dbc", "rental_uris": {"android": "https://dc.lft.to/lastmile_qr_scan", "ios": "https://dc.lft.to/lastmile_qr_scan"}, "bike_id": "5031824ddacd71989220be417c2a7dbc"}, {"fusion_lon": 0.0, "is_reserved": 0, "lat": 38.95390783333333, "is_disabled": 0, "type": "electric_scooter", "lon": -77.02560983333333, "fusion_lat": 0.0, "name": "d3e14fb108af04466c40efa9460b407b", "rental_uris": {"android": "https://dc.lft.to/lastmile_qr_scan", "ios": "https://dc.lft.to/lastmile_qr_scan"}, "bike_id": "d3e14fb108af04466c40efa9460b407b"}, {"fusion_lon": 0.0, "is_reserved": 0, "lat": 38.9034815, "is_disabled": 0, "type": "electric_scooter", "lon": -76.9294335, "fusion_lat": 0.0, "name": "b46ce79116e5716a8ae701c8373adc62", "rental_uris": {"android": "https://dc.lft.to/lastmile_qr_scan", "ios": "https://dc.lft.to/lastmile_qr_scan"}, "bike_id": "b46ce79116e5716a8ae701c8373adc62"}, {"fusion_lon": 0.0, "is_reserved": 0, "lat": 38.8419045, "is_disabled": 0, "type": "electric_bike", "lon": -77.07748016666666, "fusion_lat": 0.0, "name": "4e44ff3e83a013832054f66c3b10904b", "rental_uris": {"android": "https://dc.lft.to/lastmile_qr_scan", "ios": "https://dc.lft.to/lastmile_qr_scan"}, "bike_id": "4e44ff3e83a013832054f66c3b10904b"}, {"fusion_lon": 0.0, "is_reserved": 0, "lat": 38.918555166666664, "is_disabled": 0, "type": "electric_bike", "lon": -76.96084766666667, "fusion_lat": 0.0, "name": "265ec75103ae249d7c07d099eb764727", "rental_uris": {"android": "https://dc.lft.to/lastmile_qr_scan", "ios": "https://dc.lft.to/lastmile_qr_scan"}, "bike_id": "265ec75103ae249d7c07d099eb764727"}, {"fusion_lon": 0.0, "is_reserved": 0, "lat": 38.91919216666667, "is_disabled": 0, "type": "electric_scooter", "lon": -77.03300666666667, "fusion_lat": 0.0, "name": "32ce6494eff91516cc5cf46b1b5e7b1e", "rental_uris": {"android": "https://dc.lft.to/lastmile_qr_scan", "ios": "https://dc.lft.to/lastmile_qr_scan"}, "bike_id": "32ce6494eff91516cc5cf46b1b5e7b1e"}, {"fusion_lon": 0.0, "is_reserved": 0, "lat": 38.904004, "is_disabled": 0, "type": "electric_scooter", "lon": -77.04674816666666, "fusion_lat": 0.0, "name": "98ccec2b23b195bd9f6432c09c931c67", "rental_uris": {"android": "https://dc.lft.to/lastmile_qr_scan", "ios": "https://dc.lft.to/lastmile_qr_scan"}, "bike_id": "98ccec2b23b195bd9f6432c09c931c67"}, {"fusion_lon": 0.0, "is_reserved": 0, "lat": 38.921028666666665, "is_disabled": 0, "type": "electric_scooter", "lon": -77.01768083333333, "fusion_lat": 0.0, "name": "acb94738ce8e20b109e623456f1494c7", "rental_uris": {"android": "https://dc.lft.to/lastmile_qr_scan", "ios": "https://dc.lft.to/lastmile_qr_scan"}, "bike_id": "acb94738ce8e20b109e623456f1494c7"}, {"fusion_lon": 0.0, "is_reserved": 0, "lat": 38.87629166666667, "is_disabled": 0, "type": "electric_scooter", "lon": -76.9651995, "fusion_lat": 0.0, "name": "1c9ce31ab25030496c9025231fe78ba2", "rental_uris": {"android": "https://dc.lft.to/lastmile_qr_scan", "ios": "https://dc.lft.to/lastmile_qr_scan"}, "bike_id": "1c9ce31ab25030496c9025231fe78ba2"}, {"fusion_lon": 0.0, "is_reserved": 0, "lat": 38.907642833333334, "is_disabled": 0, "type": "electric_scooter", "lon": -77.07169766666667, "fusion_lat": 0.0, "name": "5041f40f007a81b1ccb230aad826b961", "rental_uris": {"android": "https://dc.lft.to/lastmile_qr_scan", "ios": "https://dc.lft.to/lastmile_qr_scan"}, "bike_id": "5041f40f007a81b1ccb230aad826b961"}, {"fusion_lon": 0.0, "is_reserved": 0, "lat": 38.92048316666666, "is_disabled": 0, "type": "electric_scooter", "lon": -77.04185066666666, "fusion_lat": 0.0, "name": "22e63b29191f1d82900e9c63af72d1fc", "rental_uris": {"android": "https://dc.lft.to/lastmile_qr_scan", "ios": "https://dc.lft.to/lastmile_qr_scan"}, "bike_id": "22e63b29191f1d82900e9c63af72d1fc"}, {"fusion_lon": 0.0, "is_reserved": 0, "lat": 38.902527666666664, "is_disabled": 0, "type": "electric_scooter", "lon": -77.03476983333333, "fusion_lat": 0.0, "name": "7a2ae3c6af5b8ae511be76b5ccef5578", "rental_uris": {"android": "https://dc.lft.to/lastmile_qr_scan", "ios": "https://dc.lft.to/lastmile_qr_scan"}, "bike_id": "7a2ae3c6af5b8ae511be76b5ccef5578"}, {"fusion_lon": 0.0, "is_reserved": 0, "lat": 38.92880516666666, "is_disabled": 0, "type": "electric_scooter", "lon": -77.01367316666666, "fusion_lat": 0.0, "name": "ae95fd72714a371069df319207ac3464", "rental_uris": {"android": "https://dc.lft.to/lastmile_qr_scan", "ios": "https://dc.lft.to/lastmile_qr_scan"}, "bike_id": "ae95fd72714a371069df319207ac3464"}, {"fusion_lon": 0.0, "is_reserved": 0, "lat": 38.897007333333335, "is_disabled": 0, "type": "electric_scooter", "lon": -77.032435, "fusion_lat": 0.0, "name": "754f90c3761701f3b4a901944530485c", "rental_uris": {"android": "https://dc.lft.to/lastmile_qr_scan", "ios": "https://dc.lft.to/lastmile_qr_scan"}, "bike_id": "754f90c3761701f3b4a901944530485c"}, {"fusion_lon": 0.0, "is_reserved": 0, "lat": 38.902590833333335, "is_disabled": 0, "type": "electric_scooter", "lon": -77.0057465, "fusion_lat": 0.0, "name": "c8ccd75f7456492bfc6fbd574e3f2be5", "rental_uris": {"android": "https://dc.lft.to/lastmile_qr_scan", "ios": "https://dc.lft.to/lastmile_qr_scan"}, "bike_id": "c8ccd75f7456492bfc6fbd574e3f2be5"}, {"fusion_lon": 0.0, "is_reserved": 0, "lat": 38.91140016666667, "is_disabled": 0, "type": "electric_scooter", "lon": -77.0103255, "fusion_lat": 0.0, "name": "7b81607bcdad7a05a84175361d53e2e0", "rental_uris": {"android": "https://dc.lft.to/lastmile_qr_scan", "ios": "https://dc.lft.to/lastmile_qr_scan"}, "bike_id": "7b81607bcdad7a05a84175361d53e2e0"}, {"fusion_lon": 0.0, "is_reserved": 0, "lat": 38.919821166666665, "is_disabled": 0, "type": "electric_scooter", "lon": -77.0217965, "fusion_lat": 0.0, "name": "edda317f13f384d1e9b904d86d750cd6", "rental_uris": {"android": "https://dc.lft.to/lastmile_qr_scan", "ios": "https://dc.lft.to/lastmile_qr_scan"}, "bike_id": "edda317f13f384d1e9b904d86d750cd6"}, {"fusion_lon": 0.0, "is_reserved": 0, "lat": 38.926963, "is_disabled": 0, "type": "electric_bike", "lon": -76.97901866666666, "fusion_lat": 0.0, "name": "601469b23c061cf16b699dcc77e8892c", "rental_uris": {"android": "https://dc.lft.to/lastmile_qr_scan", "ios": "https://dc.lft.to/lastmile_qr_scan"}, "bike_id": "601469b23c061cf16b699dcc77e8892c"}, {"fusion_lon": 0.0, "is_reserved": 0, "lat": 38.923392, "is_disabled": 0, "type": "electric_scooter", "lon": -77.0533655, "fusion_lat": 0.0, "name": "b202becd7de4fdffe123d840ab19c590", "rental_uris": {"android": "https://dc.lft.to/lastmile_qr_scan", "ios": "https://dc.lft.to/lastmile_qr_scan"}, "bike_id": "b202becd7de4fdffe123d840ab19c590"}, {"fusion_lon": 0.0, "is_reserved": 0, "lat": 38.881264333333334, "is_disabled": 0, "type": "electric_scooter", "lon": -77.01336266666667, "fusion_lat": 0.0, "name": "d440eda13eca44279f2efe95e437d29e", "rental_uris": {"android": "https://dc.lft.to/lastmile_qr_scan", "ios": "https://dc.lft.to/lastmile_qr_scan"}, "bike_id": "d440eda13eca44279f2efe95e437d29e"}, {"fusion_lon": 0.0, "is_reserved": 0, "lat": 38.92109633333333, "is_disabled": 0, "type": "electric_scooter", "lon": -77.02084233333333, "fusion_lat": 0.0, "name": "515ee68a5609759ff4e42dff56edd8a6", "rental_uris": {"android": "https://dc.lft.to/lastmile_qr_scan", "ios": "https://dc.lft.to/lastmile_qr_scan"}, "bike_id": "515ee68a5609759ff4e42dff56edd8a6"}, {"fusion_lon": 0.0, "is_reserved": 0, "lat": 38.921147833333336, "is_disabled": 0, "type": "electric_scooter", "lon": -77.0179445, "fusion_lat": 0.0, "name": "a1c733db1557546314991bca620f92c5", "rental_uris": {"android": "https://dc.lft.to/lastmile_qr_scan", "ios": "https://dc.lft.to/lastmile_qr_scan"}, "bike_id": "a1c733db1557546314991bca620f92c5"}, {"fusion_lon": 0.0, "is_reserved": 0, "lat": 38.933254833333336, "is_disabled": 0, "type": "electric_scooter", "lon": -77.0379055, "fusion_lat": 0.0, "name": "6b1faae8c383443d16ed544db4da0b80", "rental_uris": {"android": "https://dc.lft.to/lastmile_qr_scan", "ios": "https://dc.lft.to/lastmile_qr_scan"}, "bike_id": "6b1faae8c383443d16ed544db4da0b80"}, {"fusion_lon": 0.0, "is_reserved": 0, "lat": 38.908330166666666, "is_disabled": 0, "type": "electric_scooter", "lon": -77.04478983333334, "fusion_lat": 0.0, "name": "0cdb478f2aff03f545de6ae88cd15751", "rental_uris": {"android": "https://dc.lft.to/lastmile_qr_scan", "ios": "https://dc.lft.to/lastmile_qr_scan"}, "bike_id": "0cdb478f2aff03f545de6ae88cd15751"}, {"fusion_lon": 0.0, "is_reserved": 0, "lat": 38.88229183333333, "is_disabled": 0, "type": "electric_scooter", "lon": -76.994907, "fusion_lat": 0.0, "name": "66e1279cb9b9f4413d84d225d0a5d8bc", "rental_uris": {"android": "https://dc.lft.to/lastmile_qr_scan", "ios": "https://dc.lft.to/lastmile_qr_scan"}, "bike_id": "66e1279cb9b9f4413d84d225d0a5d8bc"}, {"fusion_lon": 0.0, "is_reserved": 0, "lat": 38.92516033333333, "is_disabled": 0, "type": "electric_scooter", "lon": -77.02577916666667, "fusion_lat": 0.0, "name": "4b65788f5237defac28d333935c82ab1", "rental_uris": {"android": "https://dc.lft.to/lastmile_qr_scan", "ios": "https://dc.lft.to/lastmile_qr_scan"}, "bike_id": "4b65788f5237defac28d333935c82ab1"}, {"fusion_lon": 0.0, "is_reserved": 0, "lat": 38.903862333333336, "is_disabled": 0, "type": "electric_scooter", "lon": -77.03626183333333, "fusion_lat": 0.0, "name": "217243361c5aa69bc4174edf58f82a3e", "rental_uris": {"android": "https://dc.lft.to/lastmile_qr_scan", "ios": "https://dc.lft.to/lastmile_qr_scan"}, "bike_id": "217243361c5aa69bc4174edf58f82a3e"}, {"fusion_lon": 0.0, "is_reserved": 0, "lat": 38.9412725, "is_disabled": 0, "type": "electric_scooter", "lon": -77.06174633333333, "fusion_lat": 0.0, "name": "21f17713b8530abc9e511761b0bce7ad", "rental_uris": {"android": "https://dc.lft.to/lastmile_qr_scan", "ios": "https://dc.lft.to/lastmile_qr_scan"}, "bike_id": "21f17713b8530abc9e511761b0bce7ad"}, {"fusion_lon": 0.0, "is_reserved": 0, "lat": 38.921032, "is_disabled": 0, "type": "electric_scooter", "lon": -77.01311116666666, "fusion_lat": 0.0, "name": "2b23cf86c6dcc266b172927550f96dc7", "rental_uris": {"android": "https://dc.lft.to/lastmile_qr_scan", "ios": "https://dc.lft.to/lastmile_qr_scan"}, "bike_id": "2b23cf86c6dcc266b172927550f96dc7"}, {"fusion_lon": 0.0, "is_reserved": 0, "lat": 38.872685833333335, "is_disabled": 0, "type": "electric_scooter", "lon": -77.0152065, "fusion_lat": 0.0, "name": "3cfbba86a8566ad31e61d16e5aa8942b", "rental_uris": {"android": "https://dc.lft.to/lastmile_qr_scan", "ios": "https://dc.lft.to/lastmile_qr_scan"}, "bike_id": "3cfbba86a8566ad31e61d16e5aa8942b"}, {"fusion_lon": 0.0, "is_reserved": 0, "lat": 38.90558583333333, "is_disabled": 0, "type": "electric_scooter", "lon": -77.03988666666666, "fusion_lat": 0.0, "name": "a50d67c767a4bcc85d9c28454fe5df47", "rental_uris": {"android": "https://dc.lft.to/lastmile_qr_scan", "ios": "https://dc.lft.to/lastmile_qr_scan"}, "bike_id": "a50d67c767a4bcc85d9c28454fe5df47"}, {"fusion_lon": 0.0, "is_reserved": 0, "lat": 38.900285, "is_disabled": 0, "type": "electric_scooter", "lon": -76.988567, "fusion_lat": 0.0, "name": "0e142924aaa04a6aa3b41c7f621e6ec8", "rental_uris": {"android": "https://dc.lft.to/lastmile_qr_scan", "ios": "https://dc.lft.to/lastmile_qr_scan"}, "bike_id": "0e142924aaa04a6aa3b41c7f621e6ec8"}, {"fusion_lon": 0.0, "is_reserved": 0, "lat": 38.930999, "is_disabled": 0, "type": "electric_scooter", "lon": -77.02641066666666, "fusion_lat": 0.0, "name": "76a56c2b866915f91509148a505b09a7", "rental_uris": {"android": "https://dc.lft.to/lastmile_qr_scan", "ios": "https://dc.lft.to/lastmile_qr_scan"}, "bike_id": "76a56c2b866915f91509148a505b09a7"}, {"fusion_lon": 0.0, "is_reserved": 0, "lat": 38.92249733333333, "is_disabled": 0, "type": "electric_scooter", "lon": -77.04361066666667, "fusion_lat": 0.0, "name": "ed60838f4918681edfbccdbcc8011e17", "rental_uris": {"android": "https://dc.lft.to/lastmile_qr_scan", "ios": "https://dc.lft.to/lastmile_qr_scan"}, "bike_id": "ed60838f4918681edfbccdbcc8011e17"}, {"fusion_lon": 0.0, "is_reserved": 0, "lat": 38.8970865, "is_disabled": 0, "type": "electric_scooter", "lon": -77.02632883333334, "fusion_lat": 0.0, "name": "161a8fb6cc9235e8a16ae2de9a829329", "rental_uris": {"android": "https://dc.lft.to/lastmile_qr_scan", "ios": "https://dc.lft.to/lastmile_qr_scan"}, "bike_id": "161a8fb6cc9235e8a16ae2de9a829329"}, {"fusion_lon": 0.0, "is_reserved": 0, "lat": 38.91714316666667, "is_disabled": 0, "type": "electric_scooter", "lon": -77.02383583333334, "fusion_lat": 0.0, "name": "b94c0c9bd4f4def7fa90294fee79ea39", "rental_uris": {"android": "https://dc.lft.to/lastmile_qr_scan", "ios": "https://dc.lft.to/lastmile_qr_scan"}, "bike_id": "b94c0c9bd4f4def7fa90294fee79ea39"}, {"fusion_lon": 0.0, "is_reserved": 0, "lat": 38.90066083333333, "is_disabled": 0, "type": "electric_scooter", "lon": -77.04530083333333, "fusion_lat": 0.0, "name": "cfc922c628cafed962a7fcb526bc2ce6", "rental_uris": {"android": "https://dc.lft.to/lastmile_qr_scan", "ios": "https://dc.lft.to/lastmile_qr_scan"}, "bike_id": "cfc922c628cafed962a7fcb526bc2ce6"}, {"fusion_lon": 0.0, "is_reserved": 0, "lat": 38.901313, "is_disabled": 0, "type": "electric_scooter", "lon": -77.0500505, "fusion_lat": 0.0, "name": "89235e542e920e205736c66cecbd1c3a", "rental_uris": {"android": "https://dc.lft.to/lastmile_qr_scan", "ios": "https://dc.lft.to/lastmile_qr_scan"}, "bike_id": "89235e542e920e205736c66cecbd1c3a"}, {"fusion_lon": 0.0, "is_reserved": 0, "lat": 38.910971833333335, "is_disabled": 0, "type": "electric_scooter", "lon": -77.0122465, "fusion_lat": 0.0, "name": "01c29b58c10ebe28276b9098d4cb75e6", "rental_uris": {"android": "https://dc.lft.to/lastmile_qr_scan", "ios": "https://dc.lft.to/lastmile_qr_scan"}, "bike_id": "01c29b58c10ebe28276b9098d4cb75e6"}, {"fusion_lon": 0.0, "is_reserved": 0, "lat": 38.88534883333333, "is_disabled": 0, "type": "electric_scooter", "lon": -77.01099683333334, "fusion_lat": 0.0, "name": "7b9ce382c6cb308455c180c1b6141d71", "rental_uris": {"android": "https://dc.lft.to/lastmile_qr_scan", "ios": "https://dc.lft.to/lastmile_qr_scan"}, "bike_id": "7b9ce382c6cb308455c180c1b6141d71"}, {"fusion_lon": 0.0, "is_reserved": 0, "lat": 38.91072616666666, "is_disabled": 0, "type": "electric_scooter", "lon": -77.0161155, "fusion_lat": 0.0, "name": "22f0c247285465bb6a809aa6814a1ce6", "rental_uris": {"android": "https://dc.lft.to/lastmile_qr_scan", "ios": "https://dc.lft.to/lastmile_qr_scan"}, "bike_id": "22f0c247285465bb6a809aa6814a1ce6"}, {"fusion_lon": 0.0, "is_reserved": 0, "lat": 38.95226016666667, "is_disabled": 0, "type": "electric_scooter", "lon": -77.06982966666666, "fusion_lat": 0.0, "name": "e9cc76c396707f12622ead0e379df6a9", "rental_uris": {"android": "https://dc.lft.to/lastmile_qr_scan", "ios": "https://dc.lft.to/lastmile_qr_scan"}, "bike_id": "e9cc76c396707f12622ead0e379df6a9"},