{"data": {"bikes": [{"is_reserved": 0, "type": "electric_scooter", "bike_id": "8e207cbfa3fc891de48dc1b52c80daa1", "lat": 38.89803066666666, "lon": -76.9889425, "rental_uris": {"android": "https://dc.lft.to/lastmile_qr_scan", "ios": "https://dc.lft.to/lastmile_qr_scan"}, "is_disabled": 0, "fusion_lat": 0.0, "name": "8e207cbfa3fc891de48dc1b52c80daa1", "fusion_lon": 0.0}, {"is_reserved": 0, "type": "electric_scooter", "bike_id": "2e0287b4b58e3f8513e85952ea2aac3b", "lat": 38.8988175, "lon": -77.048879, "rental_uris": {"android": "https://dc.lft.to/lastmile_qr_scan", "ios": "https://dc.lft.to/lastmile_qr_scan"}, "is_disabled": 0, "fusion_lat": 0.0, "name": "2e0287b4b58e3f8513e85952ea2aac3b", "fusion_lon": 0.0}, {"is_reserved": 0, "type": "electric_scooter", "bike_id": "cd34501cfbb84285947bc6dabf6a47ef", "lat": 38.9035065, "lon": -77.0286355, "rental_uris": {"android": "https://dc.lft.to/lastmile_qr_scan", "ios": "https://dc.lft.to/lastmile_qr_scan"}, "is_disabled": 0, "fusion_lat": 0.0, "name": "cd34501cfbb84285947bc6dabf6a47ef", "fusion_lon": 0.0}, {"is_reserved": 0, "type": "electric_scooter", "bike_id": "24d27e0096f9cbd11776118439e25634", "lat": 38.89937283333333, "lon": -77.0190105, "rental_uris": {"android": "https://dc.lft.to/lastmile_qr_scan", "ios": "https://dc.lft.to/lastmile_qr_scan"}, "is_disabled": 0, "fusion_lat": 0.0, "name": "24d27e0096f9cbd11776118439e25634", "fusion_lon": 0.0}, {"is_reserved": 0, "type": "electric_bike", "bike_id": "c48ec69154760c67a5f5c5e0d377f9d6", "lat": 38.91042183333333, "lon": -77.02191733333333, "rental_uris": {"android": "https://dc.lft.to/lastmile_qr_scan", "ios": "https://dc.lft.to/lastmile_qr_scan"}, "is_disabled": 0, "fusion_lat": 0.0, "name": "c48ec69154760c67a5f5c5e0d377f9d6", "fusion_lon": 0.0}, {"is_reserved": 0, "type": "electric_scooter", "bike_id": "994af178ba1132cae66f6db8f220ade2", "lat": 38.9003965, "lon": -77.03214466666667, "rental_uris": {"android": "https://dc.lft.to/lastmile_qr_scan", "ios": "https://dc.lft.to/lastmile_qr_scan"}, "is_disabled": 0, "fusion_lat": 0.0, "name": "994af178ba1132cae66f6db8f220ade2", "fusion_lon": 0.0}, {"is_reserved": 0, "type": "electric_scooter", "bike_id": "9ab212b8cb5505c84dc46ab53d7aed5e", "lat": 38.892352833333334, "lon": -77.01979333333334, "rental_uris": {"android": "https://dc.lft.to/lastmile_qr_scan", "ios": "https://dc.lft.to/lastmile_qr_scan"}, "is_disabled": 0, "fusion_lat": 0.0, "name": "9ab212b8cb5505c84dc46ab53d7aed5e", "fusion_lon": 0.0}, {"is_reserved": 0, "type": "electric_scooter", "bike_id": "19f72b4fc319145a432dbc1b0044f122", "lat": 38.924171666666666, "lon": -76.951355, "rental_uris": {"android": "https://dc.lft.to/lastmile_qr_scan", "ios": "https://dc.lft.to/lastmile_qr_scan"}, "is_disabled": 0, "fusion_lat": 0.0, "name": "19f72b4fc319145a432dbc1b0044f122", "fusion_lon": 0.0}, {"is_reserved": 0, "type": "electric_scooter", "bike_id": "4de269fffc1ece3304b70cc4feb9becb", "lat": 38.9170255, "lon": -77.039781, "rental_uris": {"android": "https://dc.lft.to/lastmile_qr_scan", "ios": "https://dc.lft.to/lastmile_qr_scan"}, "is_disabled": 0, "fusion_lat": 0.0, "name": "4de269fffc1ece3304b70cc4feb9becb", "fusion_lon": 0.0}, {"is_reserved": 0, "type": "electric_bike", "bike_id": "e59f1e78f25deb86e89ac370da6804a8", "lat": 38.909099833333336, "lon": -77.057104, "rental_uris": {"android": "https://dc.lft.to/lastmile_qr_scan", "ios": "https://dc.lft.to/lastmile_qr_scan"}, "is_disabled": 0, "fusion_lat": 0.0, "name": "e59f1e78f25deb86e89ac370da6804a8", "fusion_lon": 0.0}, {"is_reserved": 0, "type": "electric_scooter", "bike_id": "94638a1c64cf7318d57084a63a57434f", "lat": 38.887408, "lon": -77.01353733333333, "rental_uris": {"android": "https://dc.lft.to/lastmile_qr_scan", "ios": "https://dc.lft.to/lastmile_qr_scan"}, "is_disabled": 0, "fusion_lat": 0.0, "name": "94638a1c64cf7318d57084a63a57434f", "fusion_lon": 0.0}, {"is_reserved": 0, "type": "electric_scooter", "bike_id": "c66c7aebdfe22789d926e84cd273153a", "lat": 38.95475066666667, "lon": -77.06986366666666, "rental_uris": {"android": "https://dc.lft.to/lastmile_qr_scan", "ios": "https://dc.lft.to/lastmile_qr_scan"}, "is_disabled": 0, "fusion_lat": 0.0, "name": "c66c7aebdfe22789d926e84cd273153a", "fusion_lon": 0.0}, {"is_reserved": 0, "type": "electric_scooter", "bike_id": "e7ebd317d4b237b3acf76fa867d1abc9", "lat": 38.900181, "lon": -76.99349433333333, "rental_uris": {"android": "https://dc.lft.to/lastmile_qr_scan", "ios": "https://dc.lft.to/lastmile_qr_scan"}, "is_disabled": 0, "fusion_lat": 0.0, "name": "e7ebd317d4b237b3acf76fa867d1abc9", "fusion_lon": 0.0}, {"is_reserved": 0, "type": "electric_scooter", "bike_id": "6e67ed99761812665745ae41e4a90ca5", "lat": 38.90387, "lon": -77.04913983333333, "rental_uris": {"android": "https://dc.lft.to/lastmile_qr_scan", "ios": "https://dc.lft.to/lastmile_qr_scan"}, "is_disabled": 0, "fusion_lat": 0.0, "name": "6e67ed99761812665745ae41e4a90ca5", "fusion_lon": 0.0}, {"is_reserved": 0, "type": "electric_scooter", "bike_id": "bc3bb5765aa29fc9c04e4390cc49b0a2", "lat": 38.921587333333335, "lon": -77.032339, "rental_uris": {"android": "https://dc.lft.to/lastmile_qr_scan", "ios": "https://dc.lft.to/lastmile_qr_scan"}, "is_disabled": 0, "fusion_lat": 0.0, "name": "bc3bb5765aa29fc9c04e4390cc49b0a2", "fusion_lon": 0.0}, {"is_reserved": 0, "type": "electric_bike", "bike_id": "43d0ba7ef0570d77c4587896fc490de6", "lat": 38.857905833333334, "lon": -77.099629, "rental_uris": {"android": "https://dc.lft.to/lastmile_qr_scan", "ios": "https://dc.lft.to/lastmile_qr_scan"}, "is_disabled": 0, "fusion_lat": 0.0, "name": "43d0ba7ef0570d77c4587896fc490de6", "fusion_lon": 0.0}, {"is_reserved": 0, "type": "electric_scooter", "bike_id": "927e60bc39fbad04f575da5d660b3a5d", "lat": 38.92247533333333, "lon": -77.0435185, "rental_uris": {"android": "https://dc.lft.to/lastmile_qr_scan", "ios": "https://dc.lft.to/lastmile_qr_scan"}, "is_disabled": 0, "fusion_lat": 0.0, "name": "927e60bc39fbad04f575da5d660b3a5d", "fusion_lon": 0.0}, {"is_reserved": 0, "type": "electric_bike", "bike_id": "e6e664a2b0737ebe2c9e93bf942c859e", "lat": 38.96554616666667, "lon": -77.01624766666667, "rental_uris": {"android": "https://dc.lft.to/lastmile_qr_scan", "ios": "https://dc.lft.to/lastmile_qr_scan"}, "is_disabled": 0, "fusion_lat": 0.0, "name": "e6e664a2b0737ebe2c9e93bf942c859e", "fusion_lon": 0.0}, {"is_reserved": 0, "type": "electric_scooter", "bike_id": "99cf8ee6c417a56292a54e77ac826461", "lat": 38.9224145, "lon": -77.04698033333334, "rental_uris": {"android": "https://dc.lft.to/lastmile_qr_scan", "ios": "https://dc.lft.to/lastmile_qr_scan"}, "is_disabled": 0, "fusion_lat": 0.0, "name": "99cf8ee6c417a56292a54e77ac826461", "fusion_lon": 0.0}, {"is_reserved": 0, "type": "electric_scooter", "bike_id": "36e00ac9be8bed36a0698ea8936a022f", "lat": 38.93193616666667, "lon": -77.03861566666667, "rental_uris": {"android": "https://dc.lft.to/lastmile_qr_scan", "ios": "https://dc.lft.to/lastmile_qr_scan"}, "is_disabled": 0, "fusion_lat": 0.0, "name": "36e00ac9be8bed36a0698ea8936a022f", "fusion_lon": 0.0}, {"is_reserved": 0, "type": "electric_scooter", "bike_id": "9b1c96d74390a5a385a71ed0c2cde094", "lat": 38.92635166666667, "lon": -77.037903, "rental_uris": {"android": "https://dc.lft.to/lastmile_qr_scan", "ios": "https://dc.lft.to/lastmile_qr_scan"}, "is_disabled": 0, "fusion_lat": 0.0, "name": "9b1c96d74390a5a385a71ed0c2cde094", "fusion_lon": 0.0}, {"is_reserved": 0, "type": "electric_scooter", "bike_id": "08aebcbd235f89ad29bdec9b6a24a5e1", "lat": 38.900298, "lon": -76.99603633333334, "rental_uris": {"android": "https://dc.lft.to/lastmile_qr_scan", "ios": "https://dc.lft.to/lastmile_qr_scan"}, "is_disabled": 0, "fusion_lat": 0.0, "name": "08aebcbd235f89ad29bdec9b6a24a5e1", "fusion_lon": 0.0}, {"is_reserved": 0, "type": "electric_scooter", "bike_id": "18e21f00c2c87495dd8b3b34eaeae579", "lat": 38.91643166666667, "lon": -77.02190366666666, "rental_uris": {"android": "https://dc.lft.to/lastmile_qr_scan", "ios": "https://dc.lft.to/lastmile_qr_scan"}, "is_disabled": 0, "fusion_lat": 0.0, "name": "18e21f00c2c87495dd8b3b34eaeae579", "fusion_lon": 0.0}, {"is_reserved": 0, "type": "electric_bike", "bike_id": "a9d0e1a23dd7715e920366223b06ac33", "lat": 38.80384516666667, "lon": -76.988161, "rental_uris": {"android": "https://dc.lft.to/lastmile_qr_scan", "ios": "https://dc.lft.to/lastmile_qr_scan"}, "is_disabled": 0, "fusion_lat": 0.0, "name": "a9d0e1a23dd7715e920366223b06ac33", "fusion_lon": 0.0}, {"is_reserved": 0, "type": "electric_scooter", "bike_id": "32ec053285acaa1e3d0ad615d07cd81c", "lat": 38.84812616666667, "lon": -76.97814633333333, "rental_uris": {"android": "https://dc.lft.to/lastmile_qr_scan", "ios": "https://dc.lft.to/lastmile_qr_scan"}, "is_disabled": 0, "fusion_lat": 0.0, "name": "32ec053285acaa1e3d0ad615d07cd81c", "fusion_lon": 0.0}, {"is_reserved": 0, "type": "electric_scooter", "bike_id": "92ab7612aeb840e6e02deac547a39877", "lat": 38.90541733333333, "lon": -77.02951916666666, "rental_uris": {"android": "https://dc.lft.to/lastmile_qr_scan", "ios": "https://dc.lft.to/lastmile_qr_scan"}, "is_disabled": 0, "fusion_lat": 0.0, "name": "92ab7612aeb840e6e02deac547a39877", "fusion_lon": 0.0}, {"is_reserved": 0, "type": "electric_scooter", "bike_id": "4bb335a3c9fb43268705907124f42366", "lat": 38.9244415, "lon": -77.02023983333333, "rental_uris": {"android": "https://dc.lft.to/lastmile_qr_scan", "ios": "https://dc.lft.to/lastmile_qr_scan"}, "is_disabled": 0, "fusion_lat": 0.0, "name": "4bb335a3c9fb43268705907124f42366", "fusion_lon": 0.0}, {"is_reserved": 0, "type": "electric_scooter", "bike_id": "d83a6970b85d2c2b380b7b8d3e4e0ae3", "lat": 38.930516833333336, "lon": -77.02334366666666, "rental_uris": {"android": "https://dc.lft.to/lastmile_qr_scan", "ios": "https://dc.lft.to/lastmile_qr_scan"}, "is_disabled": 0, "fusion_lat": 0.0, "name": "d83a6970b85d2c2b380b7b8d3e4e0ae3", "fusion_lon": 0.0}, {"is_reserved": 0, "type": "electric_scooter", "bike_id": "73b6690f97c3821175eff9d052ff4c22", "lat": 38.89083766666667, "lon": -77.01505383333334, "rental_uris": {"android": "https://dc.lft.to/lastmile_qr_scan", "ios": "https://dc.lft.to/lastmile_qr_scan"}, "is_disabled": 0, "fusion_lat": 0.0, "name": "73b6690f97c3821175eff9d052ff4c22", "fusion_lon": 0.0}, {"is_reserved": 0, "type": "electric_scooter", "bike_id": "3ffa258f00edd33cf4ce39d6d69ed7ac", "lat": 38.90409266666666, "lon": -77.06892316666666, "rental_uris": {"android": "https://dc.lft.to/lastmile_qr_scan", "ios": "https://dc.lft.to/lastmile_qr_scan"}, "is_disabled": 0, "fusion_lat": 0.0, "name": "3ffa258f00edd33cf4ce39d6d69ed7ac", "fusion_lon": 0.0}, {"is_reserved": 0, "type": "electric_scooter", "bike_id": "d9da573e2869153170a68b1d682e8dac", "lat": 38.918057833333336, "lon": -77.024955, "rental_uris": {"android": "https://dc.lft.to/lastmile_qr_scan", "ios": "https://dc.lft.to/lastmile_qr_scan"}, "is_disabled": 0, "fusion_lat": 0.0, "name": "d9da573e2869153170a68b1d682e8dac", "fusion_lon": 0.0}, {"is_reserved": 0, "type": "electric_scooter", "bike_id": "95c8cc3b4f35c4c828e3f6f935c93389", "lat": 38.919129833333336, "lon": -77.04468983333334, "rental_uris": {"android": "https://dc.lft.to/lastmile_qr_scan", "ios": "https://dc.lft.to/lastmile_qr_scan"}, "is_disabled": 0, "fusion_lat": 0.0, "name": "95c8cc3b4f35c4c828e3f6f935c93389", "fusion_lon": 0.0}, {"is_reserved": 0, "type": "electric_bike", "bike_id": "46cbfc98027c4e366825fde799077586", "lat": 38.995678833333336, "lon": -77.0748585, "rental_uris": {"android": "https://dc.lft.to/lastmile_qr_scan", "ios": "https://dc.lft.to/lastmile_qr_scan"}, "is_disabled": 0, "fusion_lat": 0.0, "name": "46cbfc98027c4e366825fde799077586", "fusion_lon": 0.0}, {"is_reserved": 0, "type": "electric_scooter", "bike_id": "69720cfd477d8f585f9d45e2880985bf", "lat": 38.917273, "lon": -77.00209516666666, "rental_uris": {"android": "https://dc.lft.to/lastmile_qr_scan", "ios": "https://dc.lft.to/lastmile_qr_scan"}, "is_disabled": 0, "fusion_lat": 0.0, "name": "69720cfd477d8f585f9d45e2880985bf", "fusion_lon": 0.0}, {"is_reserved": 0, "type": "electric_scooter", "bike_id": "f048104c0ee1672361bf8dfc1eceaa7b", "lat": 38.923927166666665, "lon": -77.0504495, "rental_uris": {"android": "https://dc.lft.to/lastmile_qr_scan", "ios": "https://dc.lft.to/lastmile_qr_scan"}, "is_disabled": 0, "fusion_lat": 0.0, "name": "f048104c0ee1672361bf8dfc1eceaa7b", "fusion_lon": 0.0}, {"is_reserved": 0, "type": "electric_scooter", "bike_id": "fce99910854dc4bfe10a1583b8364a09", "lat": 38.9262765, "lon": -77.0394445, "rental_uris": {"android": "https://dc.lft.to/lastmile_qr_scan", "ios": "https://dc.lft.to/lastmile_qr_scan"}, "is_disabled": 0, "fusion_lat": 0.0, "name": "fce99910854dc4bfe10a1583b8364a09", "fusion_lon": 0.0}, {"is_reserved": 0, "type": "electric_scooter", "bike_id": "6e6f770a327d1a9a696d340440a86842", "lat": 38.952694, "lon": -77.02392633333334, "rental_uris": {"android": "https://dc.lft.to/lastmile_qr_scan", "ios": "https://dc.lft.to/lastmile_qr_scan"}, "is_disabled": 0, "fusion_lat": 0.0, "name": "6e6f770a327d1a9a696d340440a86842", "fusion_lon": 0.0}, {"is_reserved": 0, "type": "electric_scooter", "bike_id": "de0c5dbb2bdda3ab710fa1564c1b5169", "lat": 38.911851666666664, "lon": -77.00455016666666, "rental_uris": {"android": "https://dc.lft.to/lastmile_qr_scan", "ios": "https://dc.lft.to/lastmile_qr_scan"}, "is_disabled": 0, "fusion_lat": 0.0, "name": "de0c5dbb2bdda3ab710fa1564c1b5169", "fusion_lon": 0.0}, {"is_reserved": 0, "type": "electric_scooter", "bike_id": "4f3702d888b4d03bbc0d0f93f9d27745", "lat": 38.951922333333336, "lon": -77.02613883333333, "rental_uris": {"android": "https://dc.lft.to/lastmile_qr_scan", "ios": "https://dc.lft.to/lastmile_qr_scan"}, "is_disabled": 0, "fusion_lat": 0.0, "name": "4f3702d888b4d03bbc0d0f93f9d27745", "fusion_lon": 0.0}, {"is_reserved": 0, "type": "electric_scooter", "bike_id": "1a5d41e31f654577fb939a8d013e427f", "lat": 38.931034333333336, "lon": -77.02349866666667, "rental_uris": {"android": "https://dc.lft.to/lastmile_qr_scan", "ios": "https://dc.lft.to/lastmile_qr_scan"}, "is_disabled": 0, "fusion_lat": 0.0, "name": "1a5d41e31f654577fb939a8d013e427f", "fusion_lon": 0.0}, {"is_reserved": 0, "type": "electric_scooter", "bike_id": "8a55942c07ddb48a64dc78985d891253", "lat": 38.90551, "lon": -77.00614766666666, "rental_uris": {"android": "https://dc.lft.to/lastmile_qr_scan", "ios": "https://dc.lft.to/lastmile_qr_scan"}, "is_disabled": 0, "fusion_lat": 0.0, "name": "8a55942c07ddb48a64dc78985d891253", "fusion_lon": 0.0}, {"is_reserved": 0, "type": "electric_scooter", "bike_id": "c1536c1c434f07e0457bf5adaed33f92", "lat": 38.90202266666667, "lon": -77.022042, "rental_uris": {"android": "https://dc.lft.to/lastmile_qr_scan", "ios": "https://dc.lft.to/lastmile_qr_scan"}, "is_disabled": 0, "fusion_lat": 0.0, "name": "c1536c1c434f07e0457bf5adaed33f92", "fusion_lon": 0.0}, {"is_reserved": 0, "type": "electric_bike", "bike_id": "e854a36fd70ed2caa1000f8ebdaf7528", "lat": 39.038196, "lon": -77.04257033333333, "rental_uris": {"android": "https://dc.lft.to/lastmile_qr_scan", "ios": "https://dc.lft.to/lastmile_qr_scan"}, "is_disabled": 0, "fusion_lat": 0.0, "name": "e854a36fd70ed2caa1000f8ebdaf7528", "fusion_lon": 0.0}, {"is_reserved": 0, "type": "electric_scooter", "bike_id": "09449185279a34266b701de26e361ae4", "lat": 38.9068675, "lon": -77.06260916666666, "rental_uris": {"android": "https://dc.lft.to/lastmile_qr_scan", "ios": "https://dc.lft.to/lastmile_qr_scan"}, "is_disabled": 0, "fusion_lat": 0.0, "name": "09449185279a34266b701de26e361ae4", "fusion_lon": 0.0}, {"is_reserved": 0, "type": "electric_scooter", "bike_id": "fcdfb0a3f6b955802a76cda5b0585e53", "lat": 38.917078833333335, "lon": -77.03150883333333, "rental_uris": {"android": "https://dc.lft.to/lastmile_qr_scan", "ios": "https://dc.lft.to/lastmile_qr_scan"}, "is_disabled": 0, "fusion_lat": 0.0, "name": "fcdfb0a3f6b955802a76cda5b0585e53", "fusion_lon": 0.0}, {"is_reserved": 0, "type": "electric_scooter", "bike_id": "73fd9252e4813dd449d61a51e249ea02", "lat": 38.92240616666667, "lon": -77.02336466666667, "rental_uris": {"android": "https://dc.lft.to/lastmile_qr_scan", "ios": "https://dc.lft.to/lastmile_qr_scan"}, "is_disabled": 0, "fusion_lat": 0.0, "name": "73fd9252e4813dd449d61a51e249ea02", "fusion_lon": 0.0}, {"is_reserved": 0, "type": "electric_scooter", "bike_id": "31ee874883fbe4114b078a678dd87bcc", "lat": 38.911426666666664, "lon": -77.01888566666666, "rental_uris": {"android": "https://dc.lft.to/lastmile_qr_scan", "ios": "https://dc.lft.to/lastmile_qr_scan"}, "is_disabled": 0, "fusion_lat": 0.0, "name": "31ee874883fbe4114b078a678dd87bcc", "fusion_lon": 0.0}, {"is_reserved": 0, "type": "electric_scooter", "bike_id": "5a2933aacdb5288332ce761477f5d44e", "lat": 38.90030633333333, "lon": -76.98856916666666, "rental_uris": {"android": "https://dc.lft.to/lastmile_qr_scan", "ios": "https://dc.lft.to/lastmile_qr_scan"}, "is_disabled": 0, "fusion_lat": 0.0, "name": "5a2933aacdb5288332ce761477f5d44e", "fusion_lon": 0.0}, {"is_reserved": 0, "type": "electric_scooter", "bike_id": "1e81b6ba9ce2d1aee7d3488734d9050c", "lat": 38.87670966666667, "lon": -77.00737316666667, "rental_uris": {"android": "https://dc.lft.to/lastmile_qr_scan", "ios": "https://dc.lft.to/lastmile_qr_scan"}, "is_disabled": 0, "fusion_lat": 0.0, "name": "1e81b6ba9ce2d1aee7d3488734d9050c", "fusion_lon": 0.0}, {"is_reserved": 0, "type": "electric_scooter", "bike_id": "0b9a867f192f4e9a2a732467e8ebb388", "lat": 38.908491166666664, "lon": -77.02065666666667, "rental_uris": {"android": "https://dc.lft.to/lastmile_qr_scan", "ios": "https://dc.lft.to/lastmile_qr_scan"}, "is_disabled": 0, "fusion_lat": 0.0, "name": "0b9a867f192f4e9a2a732467e8ebb388", "fusion_lon": 0.0}, {"is_reserved": 0, "type": "electric_scooter", "bike_id": "429f7cb6daf986e40c6ff39dc820cc7f", "lat": 38.89733966666667, "lon": -77.025061, "rental_uris": {"android": "https://dc.lft.to/lastmile_qr_scan", "ios": "https://dc.lft.to/lastmile_qr_scan"}, "is_disabled": 0, "fusion_lat": 0.0, "name": "429f7cb6daf986e40c6ff39dc820cc7f", "fusion_lon": 0.0}, {"is_reserved": 0, "type": "electric_scooter", "bike_id": "b7a8f746e3c7656ac531c552a1ec51f7", "lat": 38.87921766666667, "lon": -77.00243033333334, "rental_uris": {"android": "https://dc.lft.to/lastmile_qr_scan", "ios": "https://dc.lft.to/lastmile_qr_scan"}, "is_disabled": 0, "fusion_lat": 0.0, "name": "b7a8f746e3c7656ac531c552a1ec51f7", "fusion_lon": 0.0}, {"is_reserved": 0, "type": "electric_scooter", "bike_id": "49ce47cfe581371945b8dfaf679f7811", "lat": 38.91692066666667, "lon": -77.003653, "rental_uris": {"android": "https://dc.lft.to/lastmile_qr_scan", "ios": "https://dc.lft.to/lastmile_qr_scan"}, "is_disabled": 0, "fusion_lat": 0.0, "name": "49ce47cfe581371945b8dfaf679f7811", "fusion_lon": 0.0}, {"is_reserved": 0, "type": "electric_scooter", "bike_id": "4a9930176cd56b2e72f618e8720afcb3", "lat": 38.915517, "lon": -77.01410616666666, "rental_uris": {"android": "https://dc.lft.to/lastmile_qr_scan", "ios": "https://dc.lft.to/lastmile_qr_scan"}, "is_disabled": 0, "fusion_lat": 0.0, "name": "4a9930176cd56b2e72f618e8720afcb3", "fusion_lon": 0.0}, {"is_reserved": 0, "type": "electric_scooter", "bike_id": "188fb085209d12f5e5dc1f726c31691a", "lat": 38.900673833333336, "lon": -77.01619933333333, "rental_uris": {"android": "https://dc.lft.to/lastmile_qr_scan", "ios": "https://dc.lft.to/lastmile_qr_scan"}, "is_disabled": 0, "fusion_lat": 0.0, "name": "188fb085209d12f5e5dc1f726c31691a", "fusion_lon": 0.0}, {"is_reserved": 0, "type": "electric_scooter", "bike_id": "c7fe491b9ef60178eb49f85f0e52b96b", "lat": 38.93528083333333, "lon": -77.01948916666667, "rental_uris": {"android": "https://dc.lft.to/lastmile_qr_scan", "ios": "https://dc.lft.to/lastmile_qr_scan"}, "is_disabled": 0, "fusion_lat": 0.0, "name": "c7fe491b9ef60178eb49f85f0e52b96b", "fusion_lon": 0.0}, {"is_reserved": 0, "type": "electric_scooter", "bike_id": "8e8f81a388a741abd682661a29544d1e", "lat": 38.893043, "lon": -77.02216616666666, "rental_uris": {"android": "https://dc.lft.to/lastmile_qr_scan", "ios": "https://dc.lft.to/lastmile_qr_scan"}, "is_disabled": 0, "fusion_lat": 0.0, "name": "8e8f81a388a741abd682661a29544d1e", "fusion_lon": 0.0}, {"is_reserved": 0, "type": "electric_scooter", "bike_id": "35ddeb1af23f1f0f890ee3254c51a69c", "lat": 38.92571683333333, "lon": -77.03099583333334, "rental_uris": {"android": "https://dc.lft.to/lastmile_qr_scan", "ios": "https://dc.lft.to/lastmile_qr_scan"}, "is_disabled": 0, "fusion_lat": 0.0, "name": "35ddeb1af23f1f0f890ee3254c51a69c", "fusion_lon": 0.0}, {"is_reserved": 0, "type": "electric_scooter", "bike_id": "3a6719243203662f4830ff0b9c9d070c", "lat": 38.909645166666664, "lon": -77.0363145, "rental_uris": {"android": "https://dc.lft.to/lastmile_qr_scan", "ios": "https://dc.lft.to/lastmile_qr_scan"}, "is_disabled": 0, "fusion_lat": 0.0, "name": "3a6719243203662f4830ff0b9c9d070c", "fusion_lon": 0.0}, {"is_reserved": 0, "type": "electric_scooter", "bike_id": "2ce7048a58417d1263e800d300118340", "lat": 38.906817, "lon": -77.06258066666666, "rental_uris": {"android": "https://dc.lft.to/lastmile_qr_scan", "ios": "https://dc.lft.to/lastmile_qr_scan"}, "is_disabled": 0, "fusion_lat": 0.0, "name": "2ce7048a58417d1263e800d300118340", "fusion_lon": 0.0}, {"is_reserved": 0, "type": "electric_scooter", "bike_id": "a344bea53dc84269962dd0b48197e91d", "lat": 38.87266833333334, "lon": -77.01614633333334, "rental_uris": {"android": "https://dc.lft.to/lastmile_qr_scan", "ios": "https://dc.lft.to/lastmile_qr_scan"}, "is_disabled": 0, "fusion_lat": 0.0, "name": "a344bea53dc84269962dd0b48197e91d", "fusion_lon": 0.0}, {"is_reserved": 0, "type": "electric_scooter", "bike_id": "bca33eef725c671822b842419668a3c4", "lat": 38.915994166666664, "lon": -77.012228, "rental_uris": {"android": "https://dc.lft.to/lastmile_qr_scan", "ios": "https://dc.lft.to/lastmile_qr_scan"}, "is_disabled": 0, "fusion_lat": 0.0, "name": "bca33eef725c671822b842419668a3c4", "fusion_lon": 0.0}, {"is_reserved": 0, "type": "electric_scooter", "bike_id": "b4fd90f2d93c33d7defa8d23444ddbe5", "lat": 38.91420016666667, "lon": -77.01409283333334, "rental_uris": {"android": "https://dc.lft.to/lastmile_qr_scan", "ios": "https://dc.lft.to/lastmile_qr_scan"}, "is_disabled": 0, "fusion_lat": 0.0, "name": "b4fd90f2d93c33d7defa8d23444ddbe5", "fusion_lon": 0.0}, {"is_reserved": 0, "type": "electric_scooter", "bike_id": "9e94face21843780a9ab762fa49ff3c3", "lat": 38.9075025, "lon": -77.04159083333333, "rental_uris": {"android": "https://dc.lft.to/lastmile_qr_scan", "ios": "https://dc.lft.to/lastmile_qr_scan"}, "is_disabled": 0, "fusion_lat": 0.0, "name": "9e94face21843780a9ab762fa49ff3c3", "fusion_lon": 0.0}, {"is_reserved": 0, "type": "electric_bike", "bike_id": "43b0799f42f67b81a02947f2214c0776", "lat": 38.8086485, "lon": -77.11256083333333, "rental_uris": {"android": "https://dc.lft.to/lastmile_qr_scan", "ios": "https://dc.lft.to/lastmile_qr_scan"}, "is_disabled": 0, "fusion_lat": 0.0, "name": "43b0799f42f67b81a02947f2214c0776", "fusion_lon": 0.0}, {"is_reserved": 0, "type": "electric_bike", "bike_id": "38e25a292a742b3612eb8f024259166a", "lat": 38.95205133333333, "lon": -76.96590183333333, "rental_uris": {"android": "https://dc.lft.to/lastmile_qr_scan", "ios": "https://dc.lft.to/lastmile_qr_scan"}, "is_disabled": 0, "fusion_lat": 0.0, "name": "38e25a292a742b3612eb8f024259166a", "fusion_lon": 0.0}, {"is_reserved": 0, "type": "electric_scooter", "bike_id": "e78f4d156412db68af97cfcc3765139c", "lat": 38.90084216666666, "lon": -77.0573705, "rental_uris": {"android": "https://dc.lft.to/lastmile_qr_scan", "ios": "https://dc.lft.to/lastmile_qr_scan"}, "is_disabled": 0, "fusion_lat": 0.0, "name": "e78f4d156412db68af97cfcc3765139c", "fusion_lon": 0.0}, {"is_reserved": 0, "type": "electric_scooter", "bike_id": "5160139faa924b21e387c267b8b82c5b", "lat": 38.901017333333336, "lon": -77.036374, "rental_uris": {"android": "https://dc.lft.to/lastmile_qr_scan", "ios": "https://dc.lft.to/lastmile_qr_scan"}, "is_disabled": 0, "fusion_lat": 0.0, "name": "5160139faa924b21e387c267b8b82c5b", "fusion_lon": 0.0}, {"is_reserved": 0, "type": "electric_scooter", "bike_id": "d1c782e7b8b79de84b924bc60adceb0e", "lat": 38.90441366666667, "lon": -77.0601385, "rental_uris": {"android": "https://dc.lft.to/lastmile_qr_scan", "ios": "https://dc.lft.to/lastmile_qr_scan"}, "is_disabled": 0, "fusion_lat": 0.0, "name": "d1c782e7b8b79de84b924bc60adceb0e", "fusion_lon": 0.0}, {"is_reserved": 0, "type": "electric_scooter", "bike_id": "10ec38868ad016cf81175fdd1ac5733c", "lat": 38.88664333333333, "lon": -77.00202633333333, "rental_uris": {"android": "https://dc.lft.to/lastmile_qr_scan", "ios": "https://dc.lft.to/lastmile_qr_scan"}, "is_disabled": 0, "fusion_lat": 0.0, "name": "10ec38868ad016cf81175fdd1ac5733c", "fusion_lon": 0.0}, {"is_reserved": 0, "type": "electric_scooter", "bike_id": "612e575bba94770f969fef96e69719b8", "lat": 38.92265166666667, "lon": -77.04194483333333, "rental_uris": {"android": "https://dc.lft.to/lastmile_qr_scan", "ios": "https://dc.lft.to/lastmile_qr_scan"}, "is_disabled": 0, "fusion_lat": 0.0, "name": "612e575bba94770f969fef96e69719b8", "fusion_lon": 0.0}, {"is_reserved": 0, "type": "electric_scooter", "bike_id": "f9f0bb01abbff5536fb57390d2d8085e", "lat": 38.924838666666666, "lon": -77.03197883333333, "rental_uris": {"android": "https://dc.lft.to/lastmile_qr_scan", "ios": "https://dc.lft.to/lastmile_qr_scan"}, "is_disabled": 0, "fusion_lat": 0.0, "name": "f9f0bb01abbff5536fb57390d2d8085e", "fusion_lon": 0.0}, {"is_reserved": 0, "type": "electric_scooter", "bike_id": "6cdb0d446ae16bd747c653ec3cbb7f4e", "lat": 38.90553633333333, "lon": -77.03250933333334, "rental_uris": {"android": "https://dc.lft.to/lastmile_qr_scan", "ios": "https://dc.lft.to/lastmile_qr_scan"}, "is_disabled": 0, "fusion_lat": 0.0, "name": "6cdb0d446ae16bd747c653ec3cbb7f4e", "fusion_lon": 0.0}, {"is_reserved": 0, "type": "electric_bike", "bike_id": "b08fc42855d5eb1b79678b2f6eb1fe29", "lat": 38.89253866666667, "lon": -76.97053816666667, "rental_uris": {"android": "https://dc.lft.to/lastmile_qr_scan", "ios": "https://dc.lft.to/lastmile_qr_scan"}, "is_disabled": 0, "fusion_lat": 0.0, "name": "b08fc42855d5eb1b79678b2f6eb1fe29", "fusion_lon": 0.0}, {"is_reserved": 0, "type": "electric_scooter", "bike_id": "680f89051aa7d9579740b033e5e4c95c", "lat": 38.922719, "lon": -77.03668416666666, "rental_uris": {"android": "https://dc.lft.to/lastmile_qr_scan", "ios": "https://dc.lft.to/lastmile_qr_scan"}, "is_disabled": 0, "fusion_lat": 0.0, "name": "680f89051aa7d9579740b033e5e4c95c", "fusion_lon": 0.0}, {"is_reserved": 0, "type": "electric_scooter", "bike_id": "5f6677e8eb719ef43908924937c95b00", "lat": 38.91180666666666, "lon": -77.02006316666667, "rental_uris": {"android": "https://dc.lft.to/lastmile_qr_scan", "ios": "https://dc.lft.to/lastmile_qr_scan"}, "is_disabled": 0, "fusion_lat": 0.0, "name": "5f6677e8eb719ef43908924937c95b00", "fusion_lon": 0.0}, {"is_reserved": 0, "type": "electric_scooter", "bike_id": "04f1231412c8b50c7f3b4ccbba1131d9", "lat": 38.915242666666664, "lon": -77.02000766666667, "rental_uris": {"android": "https://dc.lft.to/lastmile_qr_scan", "ios": "https://dc.lft.to/lastmile_qr_scan"}, "is_disabled": 0, "fusion_lat": 0.0, "name": "04f1231412c8b50c7f3b4ccbba1131d9", "fusion_lon": 0.0}, {"is_reserved": 0, "type": "electric_scooter", "bike_id": "bd6284b0c88097ac91b12821784d4975", "lat": 38.89964483333333, "lon": -76.99033183333333, "rental_uris": {"android": "https://dc.lft.to/lastmile_qr_scan", "ios": "https://dc.lft.to/lastmile_qr_scan"}, "is_disabled": 0, "fusion_lat": 0.0, "name": "bd6284b0c88097ac91b12821784d4975", "fusion_lon": 0.0}, {"is_reserved": 0, "type": "electric_scooter", "bike_id": "83cc278c4e9540cc1e173fa838b4b269", "lat": 38.9218065, "lon": -77.01041983333333, "rental_uris": {"android": "https://dc.lft.to/lastmile_qr_scan", "ios": "https://dc.lft.to/lastmile_qr_scan"}, "is_disabled": 0, "fusion_lat": 0.0, "name": "83cc278c4e9540cc1e173fa838b4b269", "fusion_lon": 0.0}, {"is_reserved": 0, "type": "electric_scooter", "bike_id": "ac13220c3f731041df09a1a7a49bbfe0", "lat": 38.93246333333333, "lon": -76.9950065, "rental_uris": {"android": "https://dc.lft.to/lastmile_qr_scan", "ios": "https://dc.lft.to/lastmile_qr_scan"}, "is_disabled": 0, "fusion_lat": 0.0, "name": "ac13220c3f731041df09a1a7a49bbfe0", "fusion_lon": 0.0}, {"is_reserved": 0, "type": "electric_scooter", "bike_id": "9efde26c1ad0373370d3d8e31e01571b", "lat": 38.924419666666665, "lon": -77.02019933333334, "rental_uris": {"android": "https://dc.lft.to/lastmile_qr_scan", "ios": "https://dc.lft.to/lastmile_qr_scan"}, "is_disabled": 0, "fusion_lat": 0.0, "name": "9efde26c1ad0373370d3d8e31e01571b", "fusion_lon": 0.0}, {"is_reserved": 0, "type": "electric_scooter", "bike_id": "22fdd0518cf84d688d95df2e27652181", "lat": 38.923977, "lon": -77.04289583333333, "rental_uris": {"android": "https://dc.lft.to/lastmile_qr_scan", "ios": "https://dc.lft.to/lastmile_qr_scan"}, "is_disabled": 0, "fusion_lat": 0.0, "name": "22fdd0518cf84d688d95df2e27652181", "fusion_lon": 0.0}, {"is_reserved": 0, "type": "electric_scooter", "bike_id": "9f093128dbaa5db80e340c4842c196bc", "lat": 38.90892816666667, "lon": -77.00275666666667, "rental_uris": {"android": "https://dc.lft.to/lastmile_qr_scan", "ios": "https://dc.lft.to/lastmile_qr_scan"}, "is_disabled": 0, "fusion_lat": 0.0, "name": "9f093128dbaa5db80e340c4842c196bc", "fusion_lon": 0.0}, {"is_reserved": 0, "type": "electric_scooter", "bike_id": "cd46814dd47436c145096ddc74c01110", "lat": 38.930367, "lon": -77.03298783333334, "rental_uris": {"android": "https://dc.lft.to/lastmile_qr_scan", "ios": "https://dc.lft.to/lastmile_qr_scan"}, "is_disabled": 0, "fusion_lat": 0.0, "name": "cd46814dd47436c145096ddc74c01110", "fusion_lon": 0.0}, {"is_reserved": 0, "type": "electric_scooter", "bike_id": "d27a9ce5f5fd7400ce965040f8d190a9", "lat": 38.917167666666664, "lon": -77.07281766666667, "rental_uris": {"android": "https://dc.lft.to/lastmile_qr_scan", "ios": "https://dc.lft.to/lastmile_qr_scan"}, "is_disabled": 0, "fusion_lat": 0.0, "name": "d27a9ce5f5fd7400ce965040f8d190a9", "fusion_lon": 0.0}, {"is_reserved": 0, "type": "electric_scooter", "bike_id": "6f1e1a25c11d31abf7b8955e049998aa", "lat": 38.96794883333333, "lon": -77.0242695, "rental_uris": {"android": "https://dc.lft.to/lastmile_qr_scan", "ios": "https://dc.lft.to/lastmile_qr_scan"}, "is_disabled": 0, "fusion_lat": 0.0, "name": "6f1e1a25c11d31abf7b8955e049998aa", "fusion_lon": 0.0}, {"is_reserved": 0, "type": "electric_scooter", "bike_id": "941c38fcb8101973dbe486cb066b783a", "lat": 38.916967666666665, "lon": -77.03772816666667, "rental_uris": {"android": "https://dc.lft.to/lastmile_qr_scan", "ios": "https://dc.lft.to/lastmile_qr_scan"}, "is_disabled": 0, "fusion_lat": 0.0, "name": "941c38fcb8101973dbe486cb066b783a", "fusion_lon": 0.0}, {"is_reserved": 0, "type": "electric_scooter", "bike_id": "f6862316dfbf3acd05440b78aa661e2b", "lat": 38.920539166666664, "lon": -77.022042, "rental_uris": {"android": "https://dc.lft.to/lastmile_qr_scan", "ios": "https://dc.lft.to/lastmile_qr_scan"}, "is_disabled": 0, "fusion_lat": 0.0, "name": "f6862316dfbf3acd05440b78aa661e2b", "fusion_lon": 0.0}, {"is_reserved": 0, "type": "electric_scooter", "bike_id": "434acdb20106cb550db10be64c34c468", "lat": 38.89939483333333, "lon": -77.031802, "rental_uris": {"android": "https://dc.lft.to/lastmile_qr_scan", "ios": "https://dc.lft.to/lastmile_qr_scan"}, "is_disabled": 0, "fusion_lat": 0.0, "name": "434acdb20106cb550db10be64c34c468", "fusion_lon": 0.0}, {"is_reserved": 0, "type": "electric_scooter", "bike_id": "86d106aac06e47bbc943ea110b489f88", "lat": 38.90039183333333, "lon": -76.99158166666666, "rental_uris": {"android": "https://dc.lft.to/lastmile_qr_scan", "ios": "https://dc.lft.to/lastmile_qr_scan"}, "is_disabled": 0, "fusion_lat": 0.0, "name": "86d106aac06e47bbc943ea110b489f88", "fusion_lon": 0.0}, {"is_reserved": 0, "type": "electric_scooter", "bike_id": "8bf32aff5b1fa89f2c9f671d6ebe84c1", "lat": 38.922751166666664, "lon": -76.9978425, "rental_uris": {"android": "https://dc.lft.to/lastmile_qr_scan", "ios": "https://dc.lft.to/lastmile_qr_scan"}, "is_disabled": 0, "fusion_lat": 0.0, "name": "8bf32aff5b1fa89f2c9f671d6ebe84c1", "fusion_lon": 0.0}, {"is_reserved": 0, "type": "electric_scooter", "bike_id": "bdcf537c3e4f8de4d9589017c4fa9f66", "lat": 38.89363766666666, "lon": -76.94104716666666, "rental_uris": {"android": "https://dc.lft.to/lastmile_qr_scan", "ios": "https://dc.lft.to/lastmile_qr_scan"}, "is_disabled": 0, "fusion_lat": 0.0, "name": "bdcf537c3e4f8de4d9589017c4fa9f66", "fusion_lon": 0.0}, {"is_reserved": 0, "type": "electric_scooter", "bike_id": "6097659769023e7873d8864e240cf088", "lat": 38.947338333333335, "lon": -77.02461516666666, "rental_uris": {"android": "https://dc.lft.to/lastmile_qr_scan", "ios": "https://dc.lft.to/lastmile_qr_scan"}, "is_disabled": 0, "fusion_lat": 0.0, "name": "6097659769023e7873d8864e240cf088", "fusion_lon": 0.0}, {"is_reserved": 0, "type": "electric_scooter", "bike_id": "d2b2743b022698d1020a8e8413fad8af", "lat": 38.925676333333335, "lon": -76.97005516666667, "rental_uris": {"android": "https://dc.lft.to/lastmile_qr_scan", "ios": "https://dc.lft.to/lastmile_qr_scan"}, "is_disabled": 0, "fusion_lat": 0.0, "name": "d2b2743b022698d1020a8e8413fad8af", "fusion_lon": 0.0}, {"is_reserved": 0, "type": "electric_scooter", "bike_id": "c1fb7b9434211bd1d9520a675f2474be", "lat": 38.940907333333335, "lon": -77.023199, "rental_uris": {"android": "https://dc.lft.to/lastmile_qr_scan", "ios": "https://dc.lft.to/lastmile_qr_scan"}, "is_disabled": 0, "fusion_lat": 0.0, "name": "c1fb7b9434211bd1d9520a675f2474be", "fusion_lon": 0.0}, {"is_reserved": 0, "type": "electric_scooter", "bike_id": "a772a91e2e32e84137ebe212775b7bc4", "lat": 38.905507, "lon": -77.0295425, "rental_uris": {"android": "https://dc.lft.to/lastmile_qr_scan", "ios": "https://dc.lft.to/lastmile_qr_scan"}, "is_disabled": 0, "fusion_lat": 0.0, "name": "a772a91e2e32e84137ebe212775b7bc4", "fusion_lon": 0.0}, {"is_reserved": 0, "type": "electric_scooter", "bike_id": "cb2d568ef0996d609a857694011159ce", "lat": 38.89223583333333, "lon": -77.02308483333333, "rental_uris": {"android": "https://dc.lft.to/lastmile_qr_scan", "ios": "https://dc.lft.to/lastmile_qr_scan"}, "is_disabled": 0, "fusion_lat": 0.0, "name": "cb2d568ef0996d609a857694011159ce", "fusion_lon": 0.0}, {"is_reserved": 0, "type": "electric_scooter", "bike_id": "c3d7a2b7b1e34be4bc6406752f34f289", "lat": 38.9082795, "lon": -77.03472366666666, "rental_uris": {"android": "https://dc.lft.to/lastmile_qr_scan", "ios": "https://dc.lft.to/lastmile_qr_scan"}, "is_disabled": 0, "fusion_lat": 0.0, "name": "c3d7a2b7b1e34be4bc6406752f34f289", "fusion_lon": 0.0}, {"is_reserved": 0, "type": "electric_bike", "bike_id": "8249dec425561b9c1d2b4551e4c4d99c", "lat": 38.951369, "lon": -76.96598333333333, "rental_uris": {"android": "https://dc.lft.to/lastmile_qr_scan", "ios": "https://dc.lft.to/lastmile_qr_scan"}, "is_disabled": 0, "fusion_lat": 0.0, "name": "8249dec425561b9c1d2b4551e4c4d99c", "fusion_lon": 0.0}, {"is_reserved": 0, "type": "electric_bike", "bike_id": "466ad86c8c08bb0ae885ce4548799b9d", "lat": 38.860889, "lon": -77.056463, "rental_uris": {"android": "https://dc.lft.to/lastmile_qr_scan", "ios": "https://dc.lft.to/lastmile_qr_scan"}, "is_disabled": 0, "fusion_lat": 0.0, "name": "466ad86c8c08bb0ae885ce4548799b9d", "fusion_lon": 0.0}, {"is_reserved": 0, "type": "electric_scooter", "bike_id": "a830a918bf9273b1d7ac740830a675af", "lat": 38.9181025, "lon": -77.01078983333333, "rental_uris": {"android": "https://dc.lft.to/lastmile_qr_scan", "ios": "https://dc.lft.to/lastmile_qr_scan"}, "is_disabled": 0, "fusion_lat": 0.0, "name": "a830a918bf9273b1d7ac740830a675af", "fusion_lon": 0.0}, {"is_reserved": 0, "type": "electric_scooter", "bike_id": "4746db596111a704bd273b44b161f246", "lat": 38.931916, "lon": -77.0256205, "rental_uris": {"android": "https://dc.lft.to/lastmile_qr_scan", "ios": "https://dc.lft.to/lastmile_qr_scan"}, "is_disabled": 0, "fusion_lat": 0.0, "name": "4746db596111a704bd273b44b161f246", "fusion_lon": 0.0}, {"is_reserved": 0, "type": "electric_scooter", "bike_id": "ec8bb01803c2d56f31c5dec8a0866e49", "lat": 38.900344, "lon": -76.988398, "rental_uris": {"android": "https://dc.lft.to/lastmile_qr_scan", "ios": "https://dc.lft.to/lastmile_qr_scan"}, "is_disabled": 0, "fusion_lat": 0.0, "name": "ec8bb01803c2d56f31c5dec8a0866e49", "fusion_lon": 0.0}, {"is_reserved": 0, "type": "electric_bike", "bike_id": "835820b163148d3938f31363303dbe75", "lat": 38.8946355, "lon": -77.10359333333334, "rental_uris": {"android": "https://dc.lft.to/lastmile_qr_scan", "ios": "https://dc.lft.to/lastmile_qr_scan"}, "is_disabled": 0, "fusion_lat": 0.0, "name": "835820b163148d3938f31363303dbe75", "fusion_lon": 0.0}, {"is_reserved": 0, "type": "electric_scooter", "bike_id": "8709ef0c7e3745c35c2ffbeb49bb2b65", "lat": 38.90029333333333, "lon": -76.9960335, "rental_uris": {"android": "https://dc.lft.to/lastmile_qr_scan", "ios": "https://dc.lft.to/lastmile_qr_scan"}, "is_disabled": 0, "fusion_lat": 0.0, "name": "8709ef0c7e3745c35c2ffbeb49bb2b65", "fusion_lon": 0.0}, {"is_reserved": 0, "type": "electric_scooter", "bike_id": "5cd3e7472dd08320165f9345cacfb8dd", "lat": 38.9044865, "lon": -76.9962525, "rental_uris": {"android": "https://dc.lft.to/lastmile_qr_scan", "ios": "https://dc.lft.to/lastmile_qr_scan"}, "is_disabled": 0, "fusion_lat": 0.0, "name": "5cd3e7472dd08320165f9345cacfb8dd", "fusion_lon": 0.0}, {"is_reserved": 0, "type": "electric_scooter", "bike_id": "ca3c001a8dfc7701fcdf89e1ca35bbb7", "lat": 38.8564885, "lon": -76.996791, "rental_uris": {"android": "https://dc.lft.to/lastmile_qr_scan", "ios": "https://dc.lft.to/lastmile_qr_scan"}, "is_disabled": 0, "fusion_lat": 0.0, "name": "ca3c001a8dfc7701fcdf89e1ca35bbb7", "fusion_lon": 0.0}, {"is_reserved": 0, "type": "electric_scooter", "bike_id": "78a8751ba38e0631c132eb41e47dd21e", "lat": 38.90107116666667, "lon": -76.98088683333333, "rental_uris": {"android": "https://dc.lft.to/lastmile_qr_scan", "ios": "https://dc.lft.to/lastmile_qr_scan"}, "is_disabled": 0, "fusion_lat": 0.0, "name": "78a8751ba38e0631c132eb41e47dd21e", "fusion_lon": 0.0}, {"is_reserved": 0, "type": "electric_scooter", "bike_id": "a11cb68eff9d5d06f9dfba1f972dab02", "lat": 38.91284666666667, "lon": -77.07277016666667, "rental_uris": {"android": "https://dc.lft.to/lastmile_qr_scan", "ios": "https://dc.lft.to/lastmile_qr_scan"}, "is_disabled": 0, "fusion_lat": 0.0, "name": "a11cb68eff9d5d06f9dfba1f972dab02", "fusion_lon": 0.0}, {"is_reserved": 0, "type": "electric_scooter", "bike_id": "4cb6cbe119bebcbc8faebac74307f598", "lat": 38.90729266666666, "lon": -77.07031766666667, "rental_uris": {"android": "https://dc.lft.to/lastmile_qr_scan", "ios": "https://dc.lft.to/lastmile_qr_scan"}, "is_disabled": 0, "fusion_lat": 0.0, "name": "4cb6cbe119bebcbc8faebac74307f598", "fusion_lon": 0.0}, {"is_reserved": 0, "type": "electric_scooter", "bike_id": "d073ba8be8b9bbe1483cb8ab8e39ffd6", "lat": 38.889908166666665, "lon": -77.00318383333334, "rental_uris": {"android": "https://dc.lft.to/lastmile_qr_scan", "ios": "https://dc.lft.to/lastmile_qr_scan"}, "is_disabled": 0, "fusion_lat": 0.0, "name": "d073ba8be8b9bbe1483cb8ab8e39ffd6", "fusion_lon": 0.0}, {"is_reserved": 0, "type": "electric_scooter", "bike_id": "34f8a02c5cb9a9d2fbc75856c6e6d212", "lat": 38.91264, "lon": -77.03876616666666, "rental_uris": {"android": "https://dc.lft.to/lastmile_qr_scan", "ios": "https://dc.lft.to/lastmile_qr_scan"}, "is_disabled": 0, "fusion_lat": 0.0, "name": "34f8a02c5cb9a9d2fbc75856c6e6d212", "fusion_lon": 0.0}, {"is_reserved": 0, "type": "electric_scooter", "bike_id": "7f50df5909a29954d68b32a22a2f6833", "lat": 38.903052833333334, "lon": -76.9765115, "rental_uris": {"android": "https://dc.lft.to/lastmile_qr_scan", "ios": "https://dc.lft.to/lastmile_qr_scan"}, "is_disabled": 0, "fusion_lat": 0.0, "name": "7f50df5909a29954d68b32a22a2f6833", "fusion_lon": 0.0}, {"is_reserved": 0, "type": "electric_scooter", "bike_id": "320feadf905ddd4769c5ad796ef46ed9", "lat": 38.9011945, "lon": -77.0375545, "rental_uris": {"android": "https://dc.lft.to/lastmile_qr_scan", "ios": "https://dc.lft.to/lastmile_qr_scan"}, "is_disabled": 0, "fusion_lat": 0.0, "name": "320feadf905ddd4769c5ad796ef46ed9", "fusion_lon": 0.0}, {"is_reserved": 0, "type": "electric_scooter", "bike_id": "64b35dc1e89ee978ebd5c81cc2af6ac5", "lat": 38.9170795, "lon": -77.02395133333333, "rental_uris": {"android": "https://dc.lft.to/lastmile_qr_scan", "ios": "https://dc.lft.to/lastmile_qr_scan"}, "is_disabled": 0, "fusion_lat": 0.0, "name": "64b35dc1e89ee978ebd5c81cc2af6ac5", "fusion_lon": 0.0}, {"is_reserved": 0, "type": "electric_scooter", "bike_id": "7e5b6d564442444b894f3a8d5efb1eba", "lat": 38.90626066666667, "lon": -77.03151216666667, "rental_uris": {"android": "https://dc.lft.to/lastmile_qr_scan", "ios": "https://dc.lft.to/lastmile_qr_scan"}, "is_disabled": 0, "fusion_lat": 0.0, "name": "7e5b6d564442444b894f3a8d5efb1eba", "fusion_lon": 0.0}, {"is_reserved": 0, "type": "electric_scooter", "bike_id": "6fc8a61494d06c607eb2c737cb8552bf", "lat": 38.935955166666666, "lon": -77.03367183333333, "rental_uris": {"android": "https://dc.lft.to/lastmile_qr_scan", "ios": "https://dc.lft.to/lastmile_qr_scan"}, "is_disabled": 0, "fusion_lat": 0.0, "name": "6fc8a61494d06c607eb2c737cb8552bf", "fusion_lon": 0.0}, {"is_reserved": 0, "type": "electric_bike", "bike_id": "ffbba9418638ab0c15e0f81ff7270a8a", "lat": 38.97315316666667, "lon": -76.994786, "rental_uris": {"android": "https://dc.lft.to/lastmile_qr_scan", "ios": "https://dc.lft.to/lastmile_qr_scan"}, "is_disabled": 0, "fusion_lat": 0.0, "name": "ffbba9418638ab0c15e0f81ff7270a8a", "fusion_lon": 0.0}, {"is_reserved": 0, "type": "electric_scooter", "bike_id": "4d934e383aceb357328f7403d8ecc4a8", "lat": 38.917893666666664, "lon": -77.03218516666666, "rental_uris": {"android": "https://dc.lft.to/lastmile_qr_scan", "ios": "https://dc.lft.to/lastmile_qr_scan"}, "is_disabled": 0, "fusion_lat": 0.0, "name": "4d934e383aceb357328f7403d8ecc4a8", "fusion_lon": 0.0}, {"is_reserved": 0, "type": "electric_scooter", "bike_id": "410d7ecbb433f95661dde4108b91a9d6", "lat": 38.915471333333336, "lon": -77.03257716666667, "rental_uris": {"android": "https://dc.lft.to/lastmile_qr_scan", "ios": "https://dc.lft.to/lastmile_qr_scan"}, "is_disabled": 0, "fusion_lat": 0.0, "name": "410d7ecbb433f95661dde4108b91a9d6", "fusion_lon": 0.0}, {"is_reserved": 0, "type": "electric_scooter", "bike_id": "6c5113ca9692a0a018602b8de6940612", "lat": 38.87564783333333, "lon": -77.00605016666667, "rental_uris": {"android": "https://dc.lft.to/lastmile_qr_scan", "ios": "https://dc.lft.to/lastmile_qr_scan"}, "is_disabled": 0, "fusion_lat": 0.0, "name": "6c5113ca9692a0a018602b8de6940612", "fusion_lon": 0.0}, {"is_reserved": 0, "type": "electric_scooter", "bike_id": "9323692efdde640b1ad03316ce6d4620", "lat": 38.89991966666667, "lon": -76.9949025, "rental_uris": {"android": "https://dc.lft.to/lastmile_qr_scan", "ios": "https://dc.lft.to/lastmile_qr_scan"}, "is_disabled": 0, "fusion_lat": 0.0, "name": "9323692efdde640b1ad03316ce6d4620", "fusion_lon": 0.0}, {"is_reserved": 0, "type": "electric_scooter", "bike_id": "2b5c963a893fd59760cde0c5c63c4119", "lat": 38.93189433333333, "lon": -77.0263115, "rental_uris": {"android": "https://dc.lft.to/lastmile_qr_scan", "ios": "https://dc.lft.to/lastmile_qr_scan"}, "is_disabled": 0, "fusion_lat": 0.0, "name": "2b5c963a893fd59760cde0c5c63c4119", "fusion_lon": 0.0}, {"is_reserved": 0, "type": "electric_scooter", "bike_id": "c7cfef235004e0b521f9747ec5f7c973", "lat": 38.916977333333335, "lon": -77.0323835, "rental_uris": {"android": "https://dc.lft.to/lastmile_qr_scan", "ios": "https://dc.lft.to/lastmile_qr_scan"}, "is_disabled": 0, "fusion_lat": 0.0, "name": "c7cfef235004e0b521f9747ec5f7c973", "fusion_lon": 0.0}, {"is_reserved": 0, "type": "electric_scooter", "bike_id": "de9da015071ca8889b047456f6bfc90d", "lat": 38.9305235, "lon": -77.02328966666667, "rental_uris": {"android": "https://dc.lft.to/lastmile_qr_scan", "ios": "https://dc.lft.to/lastmile_qr_scan"}, "is_disabled": 0, "fusion_lat": 0.0, "name": "de9da015071ca8889b047456f6bfc90d", "fusion_lon": 0.0}, {"is_reserved": 0, "type": "electric_scooter", "bike_id": "d08ac0c1d2633c4bf9d6606b424ed3c7", "lat": 38.886863, "lon": -76.99019533333333, "rental_uris": {"android": "https://dc.lft.to/lastmile_qr_scan", "ios": "https://dc.lft.to/lastmile_qr_scan"}, "is_disabled": 0, "fusion_lat": 0.0, "name": "d08ac0c1d2633c4bf9d6606b424ed3c7", "fusion_lon": 0.0}, {"is_reserved": 0, "type": "electric_scooter", "bike_id": "1ee50bafeca8cdc126230de01b9b93ee", "lat": 38.91713583333333, "lon": -77.03392833333334, "rental_uris": {"android": "https://dc.lft.to/lastmile_qr_scan", "ios": "https://dc.lft.to/lastmile_qr_scan"}, "is_disabled": 0, "fusion_lat": 0.0, "name": "1ee50bafeca8cdc126230de01b9b93ee", "fusion_lon": 0.0}, {"is_reserved": 0, "type": "electric_scooter", "bike_id": "917cd329e2c6a2deb92c893a701f421d", "lat": 38.92141866666667, "lon": -77.01220433333333, "rental_uris": {"android": "https://dc.lft.to/lastmile_qr_scan", "ios": "https://dc.lft.to/lastmile_qr_scan"}, "is_disabled": 0, "fusion_lat": 0.0, "name": "917cd329e2c6a2deb92c893a701f421d", "fusion_lon": 0.0}, {"is_reserved": 0, "type": "electric_scooter", "bike_id": "8f1d6f432efdd19a197e5e127b980fb1", "lat": 38.9071835, "lon": -77.04472216666667, "rental_uris": {"android": "https://dc.lft.to/lastmile_qr_scan", "ios": "https://dc.lft.to/lastmile_qr_scan"}, "is_disabled": 0, "fusion_lat": 0.0, "name": "8f1d6f432efdd19a197e5e127b980fb1", "fusion_lon": 0.0}, {"is_reserved": 0, "type": "electric_scooter", "bike_id": "76c1ec75a45c3db98bb76113f538c079", "lat": 38.90369166666667, "lon": -77.0163845, "rental_uris": {"android": "https://dc.lft.to/lastmile_qr_scan", "ios": "https://dc.lft.to/lastmile_qr_scan"}, "is_disabled": 0, "fusion_lat": 0.0, "name": "76c1ec75a45c3db98bb76113f538c079", "fusion_lon": 0.0}, {"is_reserved": 0, "type": "electric_scooter", "bike_id": "4b9be8bdd990a3a21c56a7465fb677e9", "lat": 38.929673666666666, "lon": -77.03252766666667, "rental_uris": {"android": "https://dc.lft.to/lastmile_qr_scan", "ios": "https://dc.lft.to/lastmile_qr_scan"}, "is_disabled": 0, "fusion_lat": 0.0, "name": "4b9be8bdd990a3a21c56a7465fb677e9", "fusion_lon": 0.0}, {"is_reserved": 0, "type": "electric_scooter", "bike_id": "ae2328a443b3c0872939e4af94e6a25b", "lat": 38.88770533333334, "lon": -76.93263416666667, "rental_uris": {"android": "https://dc.lft.to/lastmile_qr_scan", "ios": "https://dc.lft.to/lastmile_qr_scan"}, "is_disabled": 0, "fusion_lat": 0.0, "name": "ae2328a443b3c0872939e4af94e6a25b", "fusion_lon": 0.0}, {"is_reserved": 0, "type": "electric_scooter", "bike_id": "4ee988c92839a68bda1b5725f4d5e49e", "lat": 38.923394, "lon": -77.0539505, "rental_uris": {"android": "https://dc.lft.to/lastmile_qr_scan", "ios": "https://dc.lft.to/lastmile_qr_scan"}, "is_disabled": 0, "fusion_lat": 0.0, "name": "4ee988c92839a68bda1b5725f4d5e49e", "fusion_lon": 0.0}, {"is_reserved": 0, "type": "electric_scooter", "bike_id": "951f7f11f4d77744b84dbf4ed9754604", "lat": 38.901754, "lon": -77.02486016666667, "rental_uris": {"android": "https://dc.lft.to/lastmile_qr_scan", "ios": "https://dc.lft.to/lastmile_qr_scan"}, "is_disabled": 0, "fusion_lat": 0.0, "name": "951f7f11f4d77744b84dbf4ed9754604", "fusion_lon": 0.0}, {"is_reserved": 0, "type": "electric_scooter", "bike_id": "60700119106e24e56b7a2bc1a2201816", "lat": 38.93086316666667, "lon": -77.03496516666667, "rental_uris": {"android": "https://dc.lft.to/lastmile_qr_scan", "ios": "https://dc.lft.to/lastmile_qr_scan"}, "is_disabled": 0, "fusion_lat": 0.0, "name": "60700119106e24e56b7a2bc1a2201816", "fusion_lon": 0.0}, {"is_reserved": 0, "type": "electric_scooter", "bike_id": "5ca5374c401ab9277d64c605a149a57b", "lat": 38.87650633333333, "lon": -77.007372, "rental_uris": {"android": "https://dc.lft.to/lastmile_qr_scan", "ios": "https://dc.lft.to/lastmile_qr_scan"}, "is_disabled": 0, "fusion_lat": 0.0, "name": "5ca5374c401ab9277d64c605a149a57b", "fusion_lon": 0.0}, {"is_reserved": 0, "type": "electric_scooter", "bike_id": "8010ce2494dca9039213e2897f658398", "lat": 38.92022466666667, "lon": -77.01060483333333, "rental_uris": {"android": "https://dc.lft.to/lastmile_qr_scan", "ios": "https://dc.lft.to/lastmile_qr_scan"}, "is_disabled": 0, "fusion_lat": 0.0, "name": "8010ce2494dca9039213e2897f658398", "fusion_lon": 0.0}, {"is_reserved": 0, "type": "electric_scooter", "bike_id": "4b602ebaa5105f7d75a909b0e30f4211", "lat": 38.9346075, "lon": -77.058086, "rental_uris": {"android": "https://dc.lft.to/lastmile_qr_scan", "ios": "https://dc.lft.to/lastmile_qr_scan"}, "is_disabled": 0, "fusion_lat": 0.0, "name": "4b602ebaa5105f7d75a909b0e30f4211", "fusion_lon": 0.0}, {"is_reserved": 0, "type": "electric_scooter", "bike_id": "5597cb6bc7fd82b34b5f5312012165a3", "lat": 38.878148833333334, "lon": -77.02230183333333, "rental_uris": {"android": "https://dc.lft.to/lastmile_qr_scan", "ios": "https://dc.lft.to/lastmile_qr_scan"}, "is_disabled": 0, "fusion_lat": 0.0, "name": "5597cb6bc7fd82b34b5f5312012165a3", "fusion_lon": 0.0}, {"is_reserved": 0, "type": "electric_scooter", "bike_id": "b3c9af3462d04fea8abcedb48a4ab0cd", "lat": 38.91023466666667, "lon": -77.034382, "rental_uris": {"android": "https://dc.lft.to/lastmile_qr_scan", "ios": "https://dc.lft.to/lastmile_qr_scan"}, "is_disabled": 0, "fusion_lat": 0.0, "name": "b3c9af3462d04fea8abcedb48a4ab0cd", "fusion_lon": 0.0}, {"is_reserved": 0, "type": "electric_scooter", "bike_id": "2ed08e509e98003df1325cdf44f6db83", "lat": 38.9183535, "lon": -77.04175366666666, "rental_uris": {"android": "https://dc.lft.to/lastmile_qr_scan", "ios": "https://dc.lft.to/lastmile_qr_scan"}, "is_disabled": 0, "fusion_lat": 0.0, "name": "2ed08e509e98003df1325cdf44f6db83", "fusion_lon": 0.0}, {"is_reserved": 0, "type": "electric_scooter", "bike_id": "4507d8fa20520924f500349371f5658f", "lat": 38.92605183333333, "lon": -77.07328766666667, "rental_uris": {"android": "https://dc.lft.to/lastmile_qr_scan", "ios": "https://dc.lft.to/lastmile_qr_scan"}, "is_disabled": 0, "fusion_lat": 0.0, "name": "4507d8fa20520924f500349371f5658f", "fusion_lon": 0.0}, {"is_reserved": 0, "type": "electric_scooter", "bike_id": "a62a6aca8d21d6bdc289c1cd5814fc56", "lat": 38.924413, "lon": -77.02034016666667, "rental_uris": {"android": "https://dc.lft.to/lastmile_qr_scan", "ios": "https://dc.lft.to/lastmile_qr_scan"}, "is_disabled": 0, "fusion_lat": 0.0, "name": "a62a6aca8d21d6bdc289c1cd5814fc56", "fusion_lon": 0.0}, {"is_reserved": 0, "type": "electric_bike", "bike_id": "d840768d9463d6e5be2f53b58e42380c", "lat": 38.9584435, "lon": -76.98589416666667, "rental_uris": {"android": "https://dc.lft.to/lastmile_qr_scan", "ios": "https://dc.lft.to/lastmile_qr_scan"}, "is_disabled": 0, "fusion_lat": 0.0, "name": "d840768d9463d6e5be2f53b58e42380c", "fusion_lon": 0.0}, {"is_reserved": 0, "type": "electric_scooter", "bike_id": "b8d333dee3b0c7f5ddd62cb674f5caaf", "lat": 38.89807733333333, "lon": -76.99505633333334, "rental_uris": {"android": "https://dc.lft.to/lastmile_qr_scan", "ios": "https://dc.lft.to/lastmile_qr_scan"}, "is_disabled": 0, "fusion_lat": 0.0, "name": "b8d333dee3b0c7f5ddd62cb674f5caaf", "fusion_lon": 0.0}, {"is_reserved": 0, "type": "electric_scooter", "bike_id": "d26be85112cb618babb98464d1339c4f", "lat": 38.903538166666664, "lon": -77.03508783333334, "rental_uris": {"android": "https://dc.lft.to/lastmile_qr_scan", "ios": "https://dc.lft.to/lastmile_qr_scan"}, "is_disabled": 0, "fusion_lat": 0.0, "name": "d26be85112cb618babb98464d1339c4f", "fusion_lon": 0.0}, {"is_reserved": 0, "type": "electric_scooter", "bike_id": "c67c20e5424273b7d0cdfc934390c5bb", "lat": 38.89222316666667, "lon": -77.026336, "rental_uris": {"android": "https://dc.lft.to/lastmile_qr_scan", "ios": "https://dc.lft.to/lastmile_qr_scan"}, "is_disabled": 0, "fusion_lat": 0.0, "name": "c67c20e5424273b7d0cdfc934390c5bb", "fusion_lon": 0.0}, {"is_reserved": 0, "type": "electric_scooter", "bike_id": "b829fd2a303490a353e2bd590468dc2b", "lat": 38.91659466666667, "lon": -77.06871666666666, "rental_uris": {"android": "https://dc.lft.to/lastmile_qr_scan", "ios": "https://dc.lft.to/lastmile_qr_scan"}, "is_disabled": 0, "fusion_lat": 0.0, "name": "b829fd2a303490a353e2bd590468dc2b", "fusion_lon": 0.0}, {"is_reserved": 0, "type": "electric_scooter", "bike_id": "966c8a82969f359b64e5e29d6804bb25", "lat": 38.917494833333336, "lon": -77.04153483333333, "rental_uris": {"android": "https://dc.lft.to/lastmile_qr_scan", "ios": "https://dc.lft.to/lastmile_qr_scan"}, "is_disabled": 0, "fusion_lat": 0.0, "name": "966c8a82969f359b64e5e29d6804bb25", "fusion_lon": 0.0}, {"is_reserved": 0, "type": "electric_scooter", "bike_id": "803b6c9dcb8025cd252932d02881c3dc", "lat": 38.911039333333335, "lon": -77.04781516666667, "rental_uris": {"android": "https://dc.lft.to/lastmile_qr_scan", "ios": "https://dc.lft.to/lastmile_qr_scan"}, "is_disabled": 0, "fusion_lat": 0.0, "name": "803b6c9dcb8025cd252932d02881c3dc", "fusion_lon": 0.0}, {"is_reserved": 0, "type": "electric_scooter", "bike_id": "c7f0e085ddb2d9b77b60a71e3bc843d0", "lat": 38.924481166666666, "lon": -77.020218, "rental_uris": {"android": "https://dc.lft.to/lastmile_qr_scan", "ios": "https://dc.lft.to/lastmile_qr_scan"}, "is_disabled": 0, "fusion_lat": 0.0, "name": "c7f0e085ddb2d9b77b60a71e3bc843d0", "fusion_lon": 0.0}, {"is_reserved": 0, "type": "electric_scooter", "bike_id": "06899eea2f37e29a154d8c75520403c4", "lat": 38.92413766666667, "lon": -77.02007, "rental_uris": {"android": "https://dc.lft.to/lastmile_qr_scan", "ios": "https://dc.lft.to/lastmile_qr_scan"}, "is_disabled": 0, "fusion_lat": 0.0, "name": "06899eea2f37e29a154d8c75520403c4", "fusion_lon": 0.0}, {"is_reserved": 0, "type": "electric_scooter", "bike_id": "c554d1f779a00d263c9af99b6bca3150", "lat": 38.90572483333333, "lon": -77.00808266666667, "rental_uris": {"android": "https://dc.lft.to/lastmile_qr_scan", "ios": "https://dc.lft.to/lastmile_qr_scan"}, "is_disabled": 0, "fusion_lat": 0.0, "name": "c554d1f779a00d263c9af99b6bca3150", "fusion_lon": 0.0}, {"is_reserved": 0, "type": "electric_scooter", "bike_id": "d43b6051862b18abb44df0f6a22cc6e9", "lat": 38.909665333333336, "lon": -77.04502266666667, "rental_uris": {"android": "https://dc.lft.to/lastmile_qr_scan", "ios": "https://dc.lft.to/lastmile_qr_scan"}, "is_disabled": 0, "fusion_lat": 0.0, "name": "d43b6051862b18abb44df0f6a22cc6e9", "fusion_lon": 0.0}, {"is_reserved": 0, "type": "electric_scooter", "bike_id": "ae083c745e0350f8763f72fe2d742e46", "lat": 38.917169333333334, "lon": -77.031465, "rental_uris": {"android": "https://dc.lft.to/lastmile_qr_scan", "ios": "https://dc.lft.to/lastmile_qr_scan"}, "is_disabled": 0, "fusion_lat": 0.0, "name": "ae083c745e0350f8763f72fe2d742e46", "fusion_lon": 0.0}, {"is_reserved": 0, "type": "electric_scooter", "bike_id": "2278274d91b7e2e31e1e9dc49247d65f", "lat": 38.920987833333335, "lon": -77.01799783333334, "rental_uris": {"android": "https://dc.lft.to/lastmile_qr_scan", "ios": "https://dc.lft.to/lastmile_qr_scan"}, "is_disabled": 0, "fusion_lat": 0.0, "name": "2278274d91b7e2e31e1e9dc49247d65f", "fusion_lon": 0.0}, {"is_reserved": 0, "type": "electric_scooter", "bike_id": "daa990059708323896b12c5da476eef9", "lat": 38.9063685, "lon": -77.0514085, "rental_uris": {"android": "https://dc.lft.to/lastmile_qr_scan", "ios": "https://dc.lft.to/lastmile_qr_scan"}, "is_disabled": 0, "fusion_lat": 0.0, "name": "daa990059708323896b12c5da476eef9", "fusion_lon": 0.0}, {"is_reserved": 0, "type": "electric_scooter", "bike_id": "eed9abf38c5de2799eede71da532b879", "lat": 38.896977166666666, "lon": -77.00495383333333, "rental_uris": {"android": "https://dc.lft.to/lastmile_qr_scan", "ios": "https://dc.lft.to/lastmile_qr_scan"}, "is_disabled": 0, "fusion_lat": 0.0, "name": "eed9abf38c5de2799eede71da532b879", "fusion_lon": 0.0}, {"is_reserved": 0, "type": "electric_scooter", "bike_id": "6b94c0d4559fc43188ad78d8b020578f", "lat": 38.940321833333336, "lon": -77.0264115, "rental_uris": {"android": "https://dc.lft.to/lastmile_qr_scan", "ios": "https://dc.lft.to/lastmile_qr_scan"}, "is_disabled": 0, "fusion_lat": 0.0, "name": "6b94c0d4559fc43188ad78d8b020578f", "fusion_lon": 0.0}, {"is_reserved": 0, "type": "electric_scooter", "bike_id": "4b84205f18326c067bf4e36d18e98bb0", "lat": 38.903534, "lon": -77.0111715, "rental_uris": {"android": "https://dc.lft.to/lastmile_qr_scan", "ios": "https://dc.lft.to/lastmile_qr_scan"}, "is_disabled": 0, "fusion_lat": 0.0, "name": "4b84205f18326c067bf4e36d18e98bb0", "fusion_lon": 0.0}, {"is_reserved": 0, "type": "electric_bike", "bike_id": "f31398dc62120dc3400d0581a3b2cfa4", "lat": 38.895658166666664, "lon": -77.127365, "rental_uris": {"android": "https://dc.lft.to/lastmile_qr_scan", "ios": "https://dc.lft.to/lastmile_qr_scan"}, "is_disabled": 0, "fusion_lat": 0.0, "name": "f31398dc62120dc3400d0581a3b2cfa4", "fusion_lon": 0.0}, {"is_reserved": 0, "type": "electric_scooter", "bike_id": "432c48bc0c6274f5c3edd267c3b518af", "lat": 38.8962035, "lon": -77.026005, "rental_uris": {"android": "https://dc.lft.to/lastmile_qr_scan", "ios": "https://dc.lft.to/lastmile_qr_scan"}, "is_disabled": 0, "fusion_lat": 0.0, "name": "432c48bc0c6274f5c3edd267c3b518af", "fusion_lon": 0.0}, {"is_reserved": 0, "type": "electric_scooter", "bike_id": "d454a97f1b3c4f30c1bfa736fca734e7", "lat": 38.9086965, "lon": -77.04591166666667, "rental_uris": {"android": "https://dc.lft.to/lastmile_qr_scan", "ios": "https://dc.lft.to/lastmile_qr_scan"}, "is_disabled": 0, "fusion_lat": 0.0, "name": "d454a97f1b3c4f30c1bfa736fca734e7", "fusion_lon": 0.0}, {"is_reserved": 0, "type": "electric_scooter", "bike_id": "056276bad92ea61cbcd048c28da2118a", "lat": 38.90837783333333, "lon": -77.02199183333333, "rental_uris": {"android": "https://dc.lft.to/lastmile_qr_scan", "ios": "https://dc.lft.to/lastmile_qr_scan"}, "is_disabled": 0, "fusion_lat": 0.0, "name": "056276bad92ea61cbcd048c28da2118a", "fusion_lon": 0.0}, {"is_reserved": 0, "type": "electric_scooter", "bike_id": "d4fbe0a42bf43755c26fff78501fd267", "lat": 38.90031316666666, "lon": -76.98767716666667, "rental_uris": {"android": "https://dc.lft.to/lastmile_qr_scan", "ios": "https://dc.lft.to/lastmile_qr_scan"}, "is_disabled": 0, "fusion_lat": 0.0, "name": "d4fbe0a42bf43755c26fff78501fd267", "fusion_lon": 0.0}, {"is_reserved": 0, "type": "electric_scooter", "bike_id": "49cfc474e9f3c3e4e7edfcf1a1a567db", "lat": 38.936308, "lon": -77.08177383333333, "rental_uris": {"android": "https://dc.lft.to/lastmile_qr_scan", "ios": "https://dc.lft.to/lastmile_qr_scan"}, "is_disabled": 0, "fusion_lat": 0.0, "name": "49cfc474e9f3c3e4e7edfcf1a1a567db", "fusion_lon": 0.0}, {"is_reserved": 0, "type": "electric_bike", "bike_id": "e291c849851ea3c37afb03740b668f5e", "lat": 38.9479855, "lon": -76.942513, "rental_uris": {"android": "https://dc.lft.to/lastmile_qr_scan", "ios": "https://dc.lft.to/lastmile_qr_scan"}, "is_disabled": 0, "fusion_lat": 0.0, "name": "e291c849851ea3c37afb03740b668f5e", "fusion_lon": 0.0}, {"is_reserved": 0, "type": "electric_scooter", "bike_id": "be138e5209d82fb4a75ad54d298e12fb", "lat": 38.928664833333336, "lon": -77.037148, "rental_uris": {"android": "https://dc.lft.to/lastmile_qr_scan", "ios": "https://dc.lft.to/lastmile_qr_scan"}, "is_disabled": 0, "fusion_lat": 0.0, "name": "be138e5209d82fb4a75ad54d298e12fb", "fusion_lon": 0.0}, {"is_reserved": 0, "type": "electric_bike", "bike_id": "c9ebc3eba4f6d1e158587838a6a49b39", "lat": 38.80562966666667, "lon": -77.13226983333334, "rental_uris": {"android": "https://dc.lft.to/lastmile_qr_scan", "ios": "https://dc.lft.to/lastmile_qr_scan"}, "is_disabled": 0, "fusion_lat": 0.0, "name": "c9ebc3eba4f6d1e158587838a6a49b39", "fusion_lon": 0.0}, {"is_reserved": 0, "type": "electric_scooter", "bike_id": "4ed4346debccec975c266f763b60f551", "lat": 38.886472166666664, "lon": -76.9961565, "rental_uris": {"android": "https://dc.lft.to/lastmile_qr_scan", "ios": "https://dc.lft.to/lastmile_qr_scan"}, "is_disabled": 0, "fusion_lat": 0.0, "name": "4ed4346debccec975c266f763b60f551", "fusion_lon": 0.0}, {"is_reserved": 0, "type": "electric_scooter", "bike_id": "061487676a13a8ab13018878344d053b", "lat": 38.93109666666667, "lon": -77.02011733333333, "rental_uris": {"android": "https://dc.lft.to/lastmile_qr_scan", "ios": "https://dc.lft.to/lastmile_qr_scan"}, "is_disabled": 0, "fusion_lat": 0.0, "name": "061487676a13a8ab13018878344d053b", "fusion_lon": 0.0}, {"is_reserved": 0, "type": "electric_scooter", "bike_id": "8df86aed1a5c47fe09a21e6c6ba66080", "lat": 38.911068, "lon": -77.03835383333333, "rental_uris": {"android": "https://dc.lft.to/lastmile_qr_scan", "ios": "https://dc.lft.to/lastmile_qr_scan"}, "is_disabled": 0, "fusion_lat": 0.0, "name": "8df86aed1a5c47fe09a21e6c6ba66080", "fusion_lon": 0.0}, {"is_reserved": 0, "type": "electric_scooter", "bike_id": "2d22abdf450ee8631f8072ffa83baa07", "lat": 38.899188, "lon": -77.003584, "rental_uris": {"android": "https://dc.lft.to/lastmile_qr_scan", "ios": "https://dc.lft.to/lastmile_qr_scan"}, "is_disabled": 0, "fusion_lat": 0.0, "name": "2d22abdf450ee8631f8072ffa83baa07", "fusion_lon": 0.0}, {"is_reserved": 0, "type": "electric_scooter", "bike_id": "d4bbcb536bd26e9f642be640ff25df4b", "lat": 38.91661583333333, "lon": -77.03860083333333, "rental_uris": {"android": "https://dc.lft.to/lastmile_qr_scan", "ios": "https://dc.lft.to/lastmile_qr_scan"}, "is_disabled": 0, "fusion_lat": 0.0, "name": "d4bbcb536bd26e9f642be640ff25df4b", "fusion_lon": 0.0}, {"is_reserved": 0, "type": "electric_bike", "bike_id": "b9609a774bb5bb0132c5b150e79dddd1", "lat": 38.9871785, "lon": -76.94585116666667, "rental_uris": {"android": "https://dc.lft.to/lastmile_qr_scan", "ios": "https://dc.lft.to/lastmile_qr_scan"}, "is_disabled": 0, "fusion_lat": 0.0, "name": "b9609a774bb5bb0132c5b150e79dddd1", "fusion_lon": 0.0}, {"is_reserved": 0, "type": "electric_scooter", "bike_id": "d6387dfe8a2126717bd88938c4fbc24c", "lat": 38.884998833333334, "lon": -77.02099116666666, "rental_uris": {"android": "https://dc.lft.to/lastmile_qr_scan", "ios": "https://dc.lft.to/lastmile_qr_scan"}, "is_disabled": 0, "fusion_lat": 0.0, "name": "d6387dfe8a2126717bd88938c4fbc24c", "fusion_lon": 0.0}, {"is_reserved": 0, "type": "electric_scooter", "bike_id": "6459adea6c55ababe1d9070745332970", "lat": 38.9056555, "lon": -76.98138683333333, "rental_uris": {"android": "https://dc.lft.to/lastmile_qr_scan", "ios": "https://dc.lft.to/lastmile_qr_scan"}, "is_disabled": 0, "fusion_lat": 0.0, "name": "6459adea6c55ababe1d9070745332970", "fusion_lon": 0.0}, {"is_reserved": 0, "type": "electric_bike", "bike_id": "a0618df6df71c7fe806c6062ea5ed8af", "lat": 38.849432166666666, "lon": -77.1175195, "rental_uris": {"android": "https://dc.lft.to/lastmile_qr_scan", "ios": "https://dc.lft.to/lastmile_qr_scan"}, "is_disabled": 0, "fusion_lat": 0.0, "name": "a0618df6df71c7fe806c6062ea5ed8af", "fusion_lon": 0.0}, {"is_reserved": 0, "type": "electric_scooter", "bike_id": "1f73f542da387df8607d41e0ec7c15df", "lat": 38.918434, "lon": -77.04508116666666, "rental_uris": {"android": "https://dc.lft.to/lastmile_qr_scan", "ios": "https://dc.lft.to/lastmile_qr_scan"}, "is_disabled": 0, "fusion_lat": 0.0, "name": "1f73f542da387df8607d41e0ec7c15df", "fusion_lon": 0.0}, {"is_reserved": 0, "type": "electric_scooter", "bike_id": "ad6ec8fc46ee48a93878f19f54ef44af", "lat": 38.924128, "lon": -77.0200815, "rental_uris": {"android": "https://dc.lft.to/lastmile_qr_scan", "ios": "https://dc.lft.to/lastmile_qr_scan"}, "is_disabled": 0, "fusion_lat": 0.0, "name": "ad6ec8fc46ee48a93878f19f54ef44af", "fusion_lon": 0.0}, {"is_reserved": 0, "type": "electric_scooter", "bike_id": "c5fcca3f15bdaf33ad362962b9a40d8a", "lat": 38.87826716666667, "lon": -77.00869916666667, "rental_uris": {"android": "https://dc.lft.to/lastmile_qr_scan", "ios": "https://dc.lft.to/lastmile_qr_scan"}, "is_disabled": 0, "fusion_lat": 0.0, "name": "c5fcca3f15bdaf33ad362962b9a40d8a", "fusion_lon": 0.0}, {"is_reserved": 0, "type": "electric_scooter", "bike_id": "945b594ae55497a3ac488162a751de57", "lat": 38.929028, "lon": -77.03272133333333, "rental_uris": {"android": "https://dc.lft.to/lastmile_qr_scan", "ios": "https://dc.lft.to/lastmile_qr_scan"}, "is_disabled": 0, "fusion_lat": 0.0, "name": "945b594ae55497a3ac488162a751de57", "fusion_lon": 0.0}, {"is_reserved": 0, "type": "electric_scooter", "bike_id": "0af070927ee45630cc2bcbc348231be0", "lat": 38.892353666666665, "lon": -77.04875183333333, "rental_uris": {"android": "https://dc.lft.to/lastmile_qr_scan", "ios": "https://dc.lft.to/lastmile_qr_scan"}, "is_disabled": 0, "fusion_lat": 0.0, "name": "0af070927ee45630cc2bcbc348231be0", "fusion_lon": 0.0}, {"is_reserved": 0, "type": "electric_scooter", "bike_id": "f00bcc1a32ebe86c995f3bb0ef2bdff8", "lat": 38.90026816666666, "lon": -76.98860083333334, "rental_uris": {"android": "https://dc.lft.to/lastmile_qr_scan", "ios": "https://dc.lft.to/lastmile_qr_scan"}, "is_disabled": 0, "fusion_lat": 0.0, "name": "f00bcc1a32ebe86c995f3bb0ef2bdff8", "fusion_lon": 0.0}, {"is_reserved": 0, "type": "electric_scooter", "bike_id": "2d8328a216a7191306c40697b280b62f", "lat": 38.89952983333333, "lon": -77.02624916666667, "rental_uris": {"android": "https://dc.lft.to/lastmile_qr_scan", "ios": "https://dc.lft.to/lastmile_qr_scan"}, "is_disabled": 0, "fusion_lat": 0.0, "name": "2d8328a216a7191306c40697b280b62f", "fusion_lon": 0.0}, {"is_reserved": 0, "type": "electric_scooter", "bike_id": "b80f9cc48d9b023dec9309ee7341449e", "lat": 38.92189316666666, "lon": -76.99628216666666, "rental_uris": {"android": "https://dc.lft.to/lastmile_qr_scan", "ios": "https://dc.lft.to/lastmile_qr_scan"}, "is_disabled": 0, "fusion_lat": 0.0, "name": "b80f9cc48d9b023dec9309ee7341449e", "fusion_lon": 0.0}, {"is_reserved": 0, "type": "electric_scooter", "bike_id": "ff000cf728c27450dd3144865ae29f12", "lat": 38.925855, "lon": -77.02596383333334, "rental_uris": {"android": "https://dc.lft.to/lastmile_qr_scan", "ios": "https://dc.lft.to/lastmile_qr_scan"}, "is_disabled": 0, "fusion_lat": 0.0, "name": "ff000cf728c27450dd3144865ae29f12", "fusion_lon": 0.0}, {"is_reserved": 0, "type": "electric_scooter", "bike_id": "e03e43296ec1d4e8b3611ecdc1eae2cf", "lat": 38.902574333333334, "lon": -77.0175305, "rental_uris": {"android": "https://dc.lft.to/lastmile_qr_scan", "ios": "https://dc.lft.to/lastmile_qr_scan"}, "is_disabled": 0, "fusion_lat": 0.0, "name": "e03e43296ec1d4e8b3611ecdc1eae2cf", "fusion_lon": 0.0}, {"is_reserved": 0, "type": "electric_scooter", "bike_id": "8c0aaf644c2c14b7b727a385977dce90", "lat": 38.904516666666666, "lon": -77.03069183333334, "rental_uris": {"android": "https://dc.lft.to/lastmile_qr_scan", "ios": "https://dc.lft.to/lastmile_qr_scan"}, "is_disabled": 0, "fusion_lat": 0.0, "name": "8c0aaf644c2c14b7b727a385977dce90", "fusion_lon": 0.0}, {"is_reserved": 0, "type": "electric_scooter", "bike_id": "22915ee4d04adf836ff1add9a7c3bba4", "lat": 38.892325, "lon": -77.03240283333334, "rental_uris": {"android": "https://dc.lft.to/lastmile_qr_scan", "ios": "https://dc.lft.to/lastmile_qr_scan"}, "is_disabled": 0, "fusion_lat": 0.0, "name": "22915ee4d04adf836ff1add9a7c3bba4", "fusion_lon": 0.0}, {"is_reserved": 0, "type": "electric_scooter", "bike_id": "7a26a94e6ce6ad32ed9224b402a06440", "lat": 38.89896783333333, "lon": -77.0198605, "rental_uris": {"android": "https://dc.lft.to/lastmile_qr_scan", "ios": "https://dc.lft.to/lastmile_qr_scan"}, "is_disabled": 0, "fusion_lat": 0.0, "name": "7a26a94e6ce6ad32ed9224b402a06440", "fusion_lon": 0.0}, {"is_reserved": 0, "type": "electric_scooter", "bike_id": "332176fa0d8a2aa39e806f9962373177", "lat": 38.933789166666664, "lon": -76.99509433333333, "rental_uris": {"android": "https://dc.lft.to/lastmile_qr_scan", "ios": "https://dc.lft.to/lastmile_qr_scan"}, "is_disabled": 0, "fusion_lat": 0.0, "name": "332176fa0d8a2aa39e806f9962373177", "fusion_lon": 0.0}, {"is_reserved": 0, "type": "electric_scooter", "bike_id": "964f093d356696405240a7183418745f", "lat": 38.923857, "lon": -77.02605133333333, "rental_uris": {"android": "https://dc.lft.to/lastmile_qr_scan", "ios": "https://dc.lft.to/lastmile_qr_scan"}, "is_disabled": 0, "fusion_lat": 0.0, "name": "964f093d356696405240a7183418745f", "fusion_lon": 0.0}, {"is_reserved": 0, "type": "electric_scooter", "bike_id": "6752c58bf4e537b6f9a8be653d3ff1d7", "lat": 38.902347166666665, "lon": -77.03185616666667, "rental_uris": {"android": "https://dc.lft.to/lastmile_qr_scan", "ios": "https://dc.lft.to/lastmile_qr_scan"}, "is_disabled": 0, "fusion_lat": 0.0, "name": "6752c58bf4e537b6f9a8be653d3ff1d7", "fusion_lon": 0.0}, {"is_reserved": 0, "type": "electric_scooter", "bike_id": "571e95a08937a985d1c8643367042b53", "lat": 38.944363333333335, "lon": -76.97963033333333, "rental_uris": {"android": "https://dc.lft.to/lastmile_qr_scan", "ios": "https://dc.lft.to/lastmile_qr_scan"}, "is_disabled": 0, "fusion_lat": 0.0, "name": "571e95a08937a985d1c8643367042b53", "fusion_lon": 0.0}, {"is_reserved": 0, "type": "electric_bike", "bike_id": "c40ead3e35c3e382bd6fe1b20844f3d8", "lat": 39.0849465, "lon": -76.95061, "rental_uris": {"android": "https://dc.lft.to/lastmile_qr_scan", "ios": "https://dc.lft.to/lastmile_qr_scan"}, "is_disabled": 0, "fusion_lat": 0.0, "name": "c40ead3e35c3e382bd6fe1b20844f3d8", "fusion_lon": 0.0}, {"is_reserved": 0, "type": "electric_scooter", "bike_id": "80294ca3ffcc605182791dc3c398ed29", "lat": 38.91114266666666, "lon": -77.038243, "rental_uris": {"android": "https://dc.lft.to/lastmile_qr_scan", "ios": "https://dc.lft.to/lastmile_qr_scan"}, "is_disabled": 0, "fusion_lat": 0.0, "name": "80294ca3ffcc605182791dc3c398ed29", "fusion_lon": 0.0}, {"is_reserved": 0, "type": "electric_scooter", "bike_id": "a7cc438de84604201606de3fbf15bc5a", "lat": 38.91195533333333, "lon": -77.0022455, "rental_uris": {"android": "https://dc.lft.to/lastmile_qr_scan", "ios": "https://dc.lft.to/lastmile_qr_scan"}, "is_disabled": 0, "fusion_lat": 0.0, "name": "a7cc438de84604201606de3fbf15bc5a", "fusion_lon": 0.0}, {"is_reserved": 0, "type": "electric_scooter", "bike_id": "bb8d2a2554482268364dc8bfd1d4dda2", "lat": 38.909446, "lon": -77.044885, "rental_uris": {"android": "https://dc.lft.to/lastmile_qr_scan", "ios": "https://dc.lft.to/lastmile_qr_scan"}, "is_disabled": 0, "fusion_lat": 0.0, "name": "bb8d2a2554482268364dc8bfd1d4dda2", "fusion_lon": 0.0}, {"is_reserved": 0, "type": "electric_scooter", "bike_id": "fec9792fbbdd19ee5bc6aa0aa0ad087a", "lat": 38.921533833333335, "lon": -77.03487833333334, "rental_uris": {"android": "https://dc.lft.to/lastmile_qr_scan", "ios": "https://dc.lft.to/lastmile_qr_scan"}, "is_disabled": 0, "fusion_lat": 0.0, "name": "fec9792fbbdd19ee5bc6aa0aa0ad087a", "fusion_lon": 0.0}, {"is_reserved": 0, "type": "electric_scooter", "bike_id": "6defb442c8f04bee4e9e8c5894e877a4", "lat": 38.91100816666667, "lon": -77.01687566666666, "rental_uris": {"android": "https://dc.lft.to/lastmile_qr_scan", "ios": "https://dc.lft.to/lastmile_qr_scan"}, "is_disabled": 0, "fusion_lat": 0.0, "name": "6defb442c8f04bee4e9e8c5894e877a4", "fusion_lon": 0.0}, {"is_reserved": 0, "type": "electric_scooter", "bike_id": "cd734301e6df7f000ba3a36ea62e746c", "lat": 38.90289283333333, "lon": -77.013738, "rental_uris": {"android": "https://dc.lft.to/lastmile_qr_scan", "ios": "https://dc.lft.to/lastmile_qr_scan"}, "is_disabled": 0, "fusion_lat": 0.0, "name": "cd734301e6df7f000ba3a36ea62e746c", "fusion_lon": 0.0}, {"is_reserved": 0, "type": "electric_scooter", "bike_id": "968593404a60bf4a9462bc683efb7c47", "lat": 38.916350666666666, "lon": -77.039607, "rental_uris": {"android": "https://dc.lft.to/lastmile_qr_scan", "ios": "https://dc.lft.to/lastmile_qr_scan"}, "is_disabled": 0, "fusion_lat": 0.0, "name": "968593404a60bf4a9462bc683efb7c47", "fusion_lon": 0.0}, {"is_reserved": 0, "type": "electric_bike", "bike_id": "b00e3596b794e89c1613fb7964925e68", "lat": 38.80246233333333, "lon": -77.1144085, "rental_uris": {"android": "https://dc.lft.to/lastmile_qr_scan", "ios": "https://dc.lft.to/lastmile_qr_scan"}, "is_disabled": 0, "fusion_lat": 0.0, "name": "b00e3596b794e89c1613fb7964925e68", "fusion_lon": 0.0}, {"is_reserved": 0, "type": "electric_scooter", "bike_id": "05ee35f8cab24301940c562021e962ec", "lat": 38.918079, "lon": -77.03437216666667, "rental_uris": {"android": "https://dc.lft.to/lastmile_qr_scan", "ios": "https://dc.lft.to/lastmile_qr_scan"}, "is_disabled": 0, "fusion_lat": 0.0, "name": "05ee35f8cab24301940c562021e962ec", "fusion_lon": 0.0}, {"is_reserved": 0, "type": "electric_scooter", "bike_id": "234f21c1a6e51ec9d83680bca2c220a8", "lat": 38.911990833333334, "lon": -77.01997333333334, "rental_uris": {"android": "https://dc.lft.to/lastmile_qr_scan", "ios": "https://dc.lft.to/lastmile_qr_scan"}, "is_disabled": 0, "fusion_lat": 0.0, "name": "234f21c1a6e51ec9d83680bca2c220a8", "fusion_lon": 0.0}, {"is_reserved": 0, "type": "electric_scooter", "bike_id": "57c6558a5ef8b9e2d9d8f2b93f04f3e9", "lat": 38.9285575, "lon": -77.02737133333333, "rental_uris": {"android": "https://dc.lft.to/lastmile_qr_scan", "ios": "https://dc.lft.to/lastmile_qr_scan"}, "is_disabled": 0, "fusion_lat": 0.0, "name": "57c6558a5ef8b9e2d9d8f2b93f04f3e9", "fusion_lon": 0.0}, {"is_reserved": 0, "type": "electric_scooter", "bike_id": "f309f94a360c70c4a2ecd3637f08c735", "lat": 38.890378166666665, "lon": -77.02975466666666, "rental_uris": {"android": "https://dc.lft.to/lastmile_qr_scan", "ios": "https://dc.lft.to/lastmile_qr_scan"}, "is_disabled": 0, "fusion_lat": 0.0, "name": "f309f94a360c70c4a2ecd3637f08c735", "fusion_lon": 0.0}, {"is_reserved": 0, "type": "electric_scooter", "bike_id": "acee1bed231cb3ebdbea4bcaf110b2f9", "lat": 38.913248333333335, "lon": -77.04541066666667, "rental_uris": {"android": "https://dc.lft.to/lastmile_qr_scan", "ios": "https://dc.lft.to/lastmile_qr_scan"}, "is_disabled": 0, "fusion_lat": 0.0, "name": "acee1bed231cb3ebdbea4bcaf110b2f9", "fusion_lon": 0.0}, {"is_reserved": 0, "type": "electric_scooter", "bike_id": "6a1804b5171a0e02505226dff1725b93", "lat": 38.92724666666667, "lon": -77.03554816666667, "rental_uris": {"android": "https://dc.lft.to/lastmile_qr_scan", "ios": "https://dc.lft.to/lastmile_qr_scan"}, "is_disabled": 0, "fusion_lat": 0.0, "name": "6a1804b5171a0e02505226dff1725b93", "fusion_lon": 0.0}, {"is_reserved": 0, "type": "electric_scooter", "bike_id": "ac5f6e68834f63e15bf66343fe71302e", "lat": 38.90061866666667, "lon": -76.99857333333334, "rental_uris": {"android": "https://dc.lft.to/lastmile_qr_scan", "ios": "https://dc.lft.to/lastmile_qr_scan"}, "is_disabled": 0, "fusion_lat": 0.0, "name": "ac5f6e68834f63e15bf66343fe71302e", "fusion_lon": 0.0}, {"is_reserved": 0, "type": "electric_scooter", "bike_id": "ca80bdb8d8448d9fe0dcabaeba18dead", "lat": 38.8964645, "lon": -77.0330205, "rental_uris": {"android": "https://dc.lft.to/lastmile_qr_scan", "ios": "https://dc.lft.to/lastmile_qr_scan"}, "is_disabled": 0, "fusion_lat": 0.0, "name": "ca80bdb8d8448d9fe0dcabaeba18dead", "fusion_lon": 0.0}, {"is_reserved": 0, "type": "electric_bike", "bike_id": "01f96348ecbc02b1ded0d4fa4a449236", "lat": 38.93263066666667, "lon": -77.07241283333333, "rental_uris": {"android": "https://dc.lft.to/lastmile_qr_scan", "ios": "https://dc.lft.to/lastmile_qr_scan"}, "is_disabled": 0, "fusion_lat": 0.0, "name": "01f96348ecbc02b1ded0d4fa4a449236", "fusion_lon": 0.0}, {"is_reserved": 0, "type": "electric_scooter", "bike_id": "dca6f0da3017e4590ab8ab9b08d70823", "lat": 38.90694116666667, "lon": -77.04197066666667, "rental_uris": {"android": "https://dc.lft.to/lastmile_qr_scan", "ios": "https://dc.lft.to/lastmile_qr_scan"}, "is_disabled": 0, "fusion_lat": 0.0, "name": "dca6f0da3017e4590ab8ab9b08d70823", "fusion_lon": 0.0}, {"is_reserved": 0, "type": "electric_scooter", "bike_id": "5c858150069067578712aeaf72f5f18c", "lat": 38.89944933333334, "lon": -77.0079165, "rental_uris": {"android": "https://dc.lft.to/lastmile_qr_scan", "ios": "https://dc.lft.to/lastmile_qr_scan"}, "is_disabled": 0, "fusion_lat": 0.0, "name": "5c858150069067578712aeaf72f5f18c", "fusion_lon": 0.0}, {"is_reserved": 0, "type": "electric_scooter", "bike_id": "b7b74f41ca282077340521ed56a51600", "lat": 38.920622, "lon": -77.02949366666667, "rental_uris": {"android": "https://dc.lft.to/lastmile_qr_scan", "ios": "https://dc.lft.to/lastmile_qr_scan"}, "is_disabled": 0, "fusion_lat": 0.0, "name": "b7b74f41ca282077340521ed56a51600", "fusion_lon": 0.0}, {"is_reserved": 0, "type": "electric_scooter", "bike_id": "86546ad3517ae4671b8334fae5eec958", "lat": 38.959585, "lon": -77.07264683333334, "rental_uris": {"android": "https://dc.lft.to/lastmile_qr_scan", "ios": "https://dc.lft.to/lastmile_qr_scan"}, "is_disabled": 0, "fusion_lat": 0.0, "name": "86546ad3517ae4671b8334fae5eec958", "fusion_lon": 0.0}, {"is_reserved": 0, "type": "electric_bike", "bike_id": "b53f6956866f7ec87bcf2c511385097d", "lat": 38.8405205, "lon": -77.0560145, "rental_uris": {"android": "https://dc.lft.to/lastmile_qr_scan", "ios": "https://dc.lft.to/lastmile_qr_scan"}, "is_disabled": 0, "fusion_lat": 0.0, "name": "b53f6956866f7ec87bcf2c511385097d", "fusion_lon": 0.0}, {"is_reserved": 0, "type": "electric_scooter", "bike_id": "f883540e3d5dda89f2902ab02a9d36c9", "lat": 38.89937533333333, "lon": -77.03191433333333, "rental_uris": {"android": "https://dc.lft.to/lastmile_qr_scan", "ios": "https://dc.lft.to/lastmile_qr_scan"}, "is_disabled": 0, "fusion_lat": 0.0, "name": "f883540e3d5dda89f2902ab02a9d36c9", "fusion_lon": 0.0}, {"is_reserved": 0, "type": "electric_scooter", "bike_id": "b73fb49311937fd88c1fa2971e9a5fb6", "lat": 38.9186125, "lon": -77.03548816666667, "rental_uris": {"android": "https://dc.lft.to/lastmile_qr_scan", "ios": "https://dc.lft.to/lastmile_qr_scan"}, "is_disabled": 0, "fusion_lat": 0.0, "name": "b73fb49311937fd88c1fa2971e9a5fb6", "fusion_lon": 0.0}, {"is_reserved": 0, "type": "electric_scooter", "bike_id": "fb2aafd14cc25588fedd966183352b32", "lat": 38.91778566666667, "lon": -77.02413133333333, "rental_uris": {"android": "https://dc.lft.to/lastmile_qr_scan", "ios": "https://dc.lft.to/lastmile_qr_scan"}, "is_disabled": 0, "fusion_lat": 0.0, "name": "fb2aafd14cc25588fedd966183352b32", "fusion_lon": 0.0}, {"is_reserved": 0, "type": "electric_scooter", "bike_id": "ce072908463e1b81292e1a1de35f1b7f", "lat": 38.92585166666667, "lon": -77.01221566666666, "rental_uris": {"android": "https://dc.lft.to/lastmile_qr_scan", "ios": "https://dc.lft.to/lastmile_qr_scan"}, "is_disabled": 0, "fusion_lat": 0.0, "name": "ce072908463e1b81292e1a1de35f1b7f", "fusion_lon": 0.0}, {"is_reserved": 0, "type": "electric_scooter", "bike_id": "a91b959e90e0f1d36123ead901089af5", "lat": 38.92064366666666, "lon": -77.04199733333333, "rental_uris": {"android": "https://dc.lft.to/lastmile_qr_scan", "ios": "https://dc.lft.to/lastmile_qr_scan"}, "is_disabled": 0, "fusion_lat": 0.0, "name": "a91b959e90e0f1d36123ead901089af5", "fusion_lon": 0.0}, {"is_reserved": 0, "type": "electric_scooter", "bike_id": "5d1a24d836763eb51cc1135fade20ddc", "lat": 38.923668666666664, "lon": -77.03658766666666, "rental_uris": {"android": "https://dc.lft.to/lastmile_qr_scan", "ios": "https://dc.lft.to/lastmile_qr_scan"}, "is_disabled": 0, "fusion_lat": 0.0, "name": "5d1a24d836763eb51cc1135fade20ddc", "fusion_lon": 0.0}, {"is_reserved": 0, "type": "electric_scooter", "bike_id": "e28b994f6dae970fb4923b19c45d7899", "lat": 38.90506083333333, "lon": -77.06766283333333, "rental_uris": {"android": "https://dc.lft.to/lastmile_qr_scan", "ios": "https://dc.lft.to/lastmile_qr_scan"}, "is_disabled": 0, "fusion_lat": 0.0, "name": "e28b994f6dae970fb4923b19c45d7899", "fusion_lon": 0.0}, {"is_reserved": 0, "type": "electric_scooter", "bike_id": "abc33e7acedbef9f3cf19194d0fb2957", "lat": 38.921525333333335, "lon": -77.03504666666667, "rental_uris": {"android": "https://dc.lft.to/lastmile_qr_scan", "ios": "https://dc.lft.to/lastmile_qr_scan"}, "is_disabled": 0, "fusion_lat": 0.0, "name": "abc33e7acedbef9f3cf19194d0fb2957", "fusion_lon": 0.0}, {"is_reserved": 0, "type": "electric_scooter", "bike_id": "daab37e999b376441b0bf3b9b426aada", "lat": 38.93049666666667, "lon": -77.02333183333333, "rental_uris": {"android": "https://dc.lft.to/lastmile_qr_scan", "ios": "https://dc.lft.to/lastmile_qr_scan"}, "is_disabled": 0, "fusion_lat": 0.0, "name": "daab37e999b376441b0bf3b9b426aada", "fusion_lon": 0.0}, {"is_reserved": 0, "type": "electric_bike", "bike_id": "901b8bff37630051e173ea7fbfaa806f", "lat": 38.862202833333335, "lon": -76.9948985, "rental_uris": {"android": "https://dc.lft.to/lastmile_qr_scan", "ios": "https://dc.lft.to/lastmile_qr_scan"}, "is_disabled": 0, "fusion_lat": 0.0, "name": "901b8bff37630051e173ea7fbfaa806f", "fusion_lon": 0.0}, {"is_reserved": 0, "type": "electric_scooter", "bike_id": "ccaff0f6c99eecf348c40302a76d8fb6", "lat": 38.91253183333333, "lon": -76.98345383333333, "rental_uris": {"android": "https://dc.lft.to/lastmile_qr_scan", "ios": "https://dc.lft.to/lastmile_qr_scan"}, "is_disabled": 0, "fusion_lat": 0.0, "name": "ccaff0f6c99eecf348c40302a76d8fb6", "fusion_lon": 0.0}, {"is_reserved": 0, "type": "electric_scooter", "bike_id": "fcc21e9a44a1f2de2226271faec37755", "lat": 38.89861483333333, "lon": -76.97761783333333, "rental_uris": {"android": "https://dc.lft.to/lastmile_qr_scan", "ios": "https://dc.lft.to/lastmile_qr_scan"}, "is_disabled": 0, "fusion_lat": 0.0, "name": "fcc21e9a44a1f2de2226271faec37755", "fusion_lon": 0.0}, {"is_reserved": 0, "type": "electric_bike", "bike_id": "e034907c419780c3a271bd731ea7e1ce", "lat": 38.8794235, "lon": -76.99508366666667, "rental_uris": {"android": "https://dc.lft.to/lastmile_qr_scan", "ios": "https://dc.lft.to/lastmile_qr_scan"}, "is_disabled": 0, "fusion_lat": 0.0, "name": "e034907c419780c3a271bd731ea7e1ce", "fusion_lon": 0.0}, {"is_reserved": 0, "type": "electric_bike", "bike_id": "e50ac48d8022179ce0b7ab2d0b326e4d", "lat": 38.94313533333333, "lon": -76.990113, "rental_uris": {"android": "https://dc.lft.to/lastmile_qr_scan", "ios": "https://dc.lft.to/lastmile_qr_scan"}, "is_disabled": 0, "fusion_lat": 0.0, "name": "e50ac48d8022179ce0b7ab2d0b326e4d", "fusion_lon": 0.0}, {"is_reserved": 0, "type": "electric_bike", "bike_id": "e352c0297f335689cd40330031f03902", "lat": 38.861081, "lon": -76.98375216666666, "rental_uris": {"android": "https://dc.lft.to/lastmile_qr_scan", "ios": "https://dc.lft.to/lastmile_qr_scan"}, "is_disabled": 0, "fusion_lat": 0.0, "name": "e352c0297f335689cd40330031f03902", "fusion_lon": 0.0}, {"is_reserved": 0, "type": "electric_scooter", "bike_id": "6706bcd01f9e2caaff9d3ba947119796", "lat": 38.91819266666667, "lon": -77.040014, "rental_uris": {"android": "https://dc.lft.to/lastmile_qr_scan", "ios": "https://dc.lft.to/lastmile_qr_scan"}, "is_disabled": 0, "fusion_lat": 0.0, "name": "6706bcd01f9e2caaff9d3ba947119796", "fusion_lon": 0.0}, {"is_reserved": 0, "type": "electric_scooter", "bike_id": "e4b508f01f0bc026833d56fcb76b6b09", "lat": 38.903929833333336, "lon": -76.98944383333334, "rental_uris": {"android": "https://dc.lft.to/lastmile_qr_scan", "ios": "https://dc.lft.to/lastmile_qr_scan"}, "is_disabled": 0, "fusion_lat": 0.0, "name": "e4b508f01f0bc026833d56fcb76b6b09", "fusion_lon": 0.0}, {"is_reserved": 0, "type": "electric_bike", "bike_id": "50ac8e48f0ad1d06a94541e32b97b56b", "lat": 38.872098666666666, "lon": -77.11739516666667, "rental_uris": {"android": "https://dc.lft.to/lastmile_qr_scan", "ios": "https://dc.lft.to/lastmile_qr_scan"}, "is_disabled": 0, "fusion_lat": 0.0, "name": "50ac8e48f0ad1d06a94541e32b97b56b", "fusion_lon": 0.0}, {"is_reserved": 0, "type": "electric_scooter", "bike_id": "5ee45055614567818110b4dea3cb1495", "lat": 38.94697816666667, "lon": -77.0224495, "rental_uris": {"android": "https://dc.lft.to/lastmile_qr_scan", "ios": "https://dc.lft.to/lastmile_qr_scan"}, "is_disabled": 0, "fusion_lat": 0.0, "name": "5ee45055614567818110b4dea3cb1495", "fusion_lon": 0.0}, {"is_reserved": 0, "type": "electric_scooter", "bike_id": "1ad58148f99ff0854b770746f45f8952", "lat": 38.920812, "lon": -77.0769295, "rental_uris": {"android": "https://dc.lft.to/lastmile_qr_scan", "ios": "https://dc.lft.to/lastmile_qr_scan"}, "is_disabled": 0, "fusion_lat": 0.0, "name": "1ad58148f99ff0854b770746f45f8952", "fusion_lon": 0.0}, {"is_reserved": 0, "type": "electric_scooter", "bike_id": "5b7a345672285045499fb865ff283bc6", "lat": 38.916138833333335, "lon": -77.03181766666667, "rental_uris": {"android": "https://dc.lft.to/lastmile_qr_scan", "ios": "https://dc.lft.to/lastmile_qr_scan"}, "is_disabled": 0, "fusion_lat": 0.0, "name": "5b7a345672285045499fb865ff283bc6", "fusion_lon": 0.0}, {"is_reserved": 0, "type": "electric_scooter", "bike_id": "cc848464a37d5103a994b618c2821976", "lat": 38.924241333333335, "lon": -77.05185683333333, "rental_uris": {"android": "https://dc.lft.to/lastmile_qr_scan", "ios": "https://dc.lft.to/lastmile_qr_scan"}, "is_disabled": 0, "fusion_lat": 0.0, "name": "cc848464a37d5103a994b618c2821976", "fusion_lon": 0.0}, {"is_reserved": 0, "type": "electric_scooter", "bike_id": "391bf5ec75e4c91db201fbc25e8bbdcf", "lat": 38.921985166666666, "lon": -76.99421583333333, "rental_uris": {"android": "https://dc.lft.to/lastmile_qr_scan", "ios": "https://dc.lft.to/lastmile_qr_scan"}, "is_disabled": 0, "fusion_lat": 0.0, "name": "391bf5ec75e4c91db201fbc25e8bbdcf", "fusion_lon": 0.0}, {"is_reserved": 0, "type": "electric_bike", "bike_id": "e3d675794fe0860979a351bbaac86bc2", "lat": 38.946786, "lon": -76.993329, "rental_uris": {"android": "https://dc.lft.to/lastmile_qr_scan", "ios": "https://dc.lft.to/lastmile_qr_scan"}, "is_disabled": 0, "fusion_lat": 0.0, "name": "e3d675794fe0860979a351bbaac86bc2", "fusion_lon": 0.0}, {"is_reserved": 0, "type": "electric_scooter", "bike_id": "e3b32a4ad6383615925dd31f3b6069e2", "lat": 38.92273483333334, "lon": -77.0366735, "rental_uris": {"android": "https://dc.lft.to/lastmile_qr_scan", "ios": "https://dc.lft.to/lastmile_qr_scan"}, "is_disabled": 0, "fusion_lat": 0.0, "name": "e3b32a4ad6383615925dd31f3b6069e2", "fusion_lon": 0.0}, {"is_reserved": 0, "type": "electric_scooter", "bike_id": "723b5ab45bef5ff3f2ed22c0f0eb67ad", "lat": 38.9170945, "lon": -77.0313145, "rental_uris": {"android": "https://dc.lft.to/lastmile_qr_scan", "ios": "https://dc.lft.to/lastmile_qr_scan"}, "is_disabled": 0, "fusion_lat": 0.0, "name": "723b5ab45bef5ff3f2ed22c0f0eb67ad", "fusion_lon": 0.0}, {"is_reserved": 0, "type": "electric_scooter", "bike_id": "7ea8232673e6dbb2e323fea1cc82bb26", "lat": 38.89385083333333, "lon": -76.97817, "rental_uris": {"android": "https://dc.lft.to/lastmile_qr_scan", "ios": "https://dc.lft.to/lastmile_qr_scan"}, "is_disabled": 0, "fusion_lat": 0.0, "name": "7ea8232673e6dbb2e323fea1cc82bb26", "fusion_lon": 0.0}, {"is_reserved": 0, "type": "electric_scooter", "bike_id": "9ca737291b569fa080ba01abd4fa2690", "lat": 38.92646833333333, "lon": -77.0405575, "rental_uris": {"android": "https://dc.lft.to/lastmile_qr_scan", "ios": "https://dc.lft.to/lastmile_qr_scan"}, "is_disabled": 0, "fusion_lat": 0.0, "name": "9ca737291b569fa080ba01abd4fa2690", "fusion_lon": 0.0}, {"is_reserved": 0, "type": "electric_scooter", "bike_id": "3a3f8c0cd1737beacbd26a40cb99fbca", "lat": 38.9198085, "lon": -77.02518466666666, "rental_uris": {"android": "https://dc.lft.to/lastmile_qr_scan", "ios": "https://dc.lft.to/lastmile_qr_scan"}, "is_disabled": 0, "fusion_lat": 0.0, "name": "3a3f8c0cd1737beacbd26a40cb99fbca", "fusion_lon": 0.0}, {"is_reserved": 0, "type": "electric_scooter", "bike_id": "21aa6f5b51d039f0c2174ec2339923cd", "lat": 38.940769833333334, "lon": -77.029077, "rental_uris": {"android": "https://dc.lft.to/lastmile_qr_scan", "ios": "https://dc.lft.to/lastmile_qr_scan"}, "is_disabled": 0, "fusion_lat": 0.0, "name": "21aa6f5b51d039f0c2174ec2339923cd", "fusion_lon": 0.0}, {"is_reserved": 0, "type": "electric_scooter", "bike_id": "f58ca0036de134c63d71cdf414d69d73", "lat": 38.905461333333335, "lon": -76.9846595, "rental_uris": {"android": "https://dc.lft.to/lastmile_qr_scan", "ios": "https://dc.lft.to/lastmile_qr_scan"}, "is_disabled": 0, "fusion_lat": 0.0, "name": "f58ca0036de134c63d71cdf414d69d73", "fusion_lon": 0.0}, {"is_reserved": 0, "type": "electric_scooter", "bike_id": "24673f03743887fc8a0b306c0cc58aa8", "lat": 38.914769666666665, "lon": -77.018334, "rental_uris": {"android": "https://dc.lft.to/lastmile_qr_scan", "ios": "https://dc.lft.to/lastmile_qr_scan"}, "is_disabled": 0, "fusion_lat": 0.0, "name": "24673f03743887fc8a0b306c0cc58aa8", "fusion_lon": 0.0}, {"is_reserved": 0, "type": "electric_bike", "bike_id": "d63aaddbdb147da8467cd06b10fb7207", "lat": 38.8456185, "lon": -76.9706015, "rental_uris": {"android": "https://dc.lft.to/lastmile_qr_scan", "ios": "https://dc.lft.to/lastmile_qr_scan"}, "is_disabled": 0, "fusion_lat": 0.0, "name": "d63aaddbdb147da8467cd06b10fb7207", "fusion_lon": 0.0}, {"is_reserved": 0, "type": "electric_scooter", "bike_id": "9ab2aeaa779b45ece6cf478b979c6203", "lat": 38.882926499999996, "lon": -77.03135933333333, "rental_uris": {"android": "https://dc.lft.to/lastmile_qr_scan", "ios": "https://dc.lft.to/lastmile_qr_scan"}, "is_disabled": 0, "fusion_lat": 0.0, "name": "9ab2aeaa779b45ece6cf478b979c6203", "fusion_lon": 0.0}, {"is_reserved": 0, "type": "electric_scooter", "bike_id": "cefd478153c27f8386253980a74f4cf5", "lat": 38.87172183333333, "lon": -77.00625366666667, "rental_uris": {"android": "https://dc.lft.to/lastmile_qr_scan", "ios": "https://dc.lft.to/lastmile_qr_scan"}, "is_disabled": 0, "fusion_lat": 0.0, "name": "cefd478153c27f8386253980a74f4cf5", "fusion_lon": 0.0}, {"is_reserved": 0, "type": "electric_scooter", "bike_id": "289b7b0ac5a401edff9ffe25647b323b", "lat": 38.91349066666667, "lon": -77.03200166666667, "rental_uris": {"android": "https://dc.lft.to/lastmile_qr_scan", "ios": "https://dc.lft.to/lastmile_qr_scan"}, "is_disabled": 0, "fusion_lat": 0.0, "name": "289b7b0ac5a401edff9ffe25647b323b", "fusion_lon": 0.0}, {"is_reserved": 0, "type": "electric_scooter", "bike_id": "9ba81de65ce61c73368e6821c5c23b6c", "lat": 38.87624366666667, "lon": -77.0124805, "rental_uris": {"android": "https://dc.lft.to/lastmile_qr_scan", "ios": "https://dc.lft.to/lastmile_qr_scan"}, "is_disabled": 0, "fusion_lat": 0.0, "name": "9ba81de65ce61c73368e6821c5c23b6c", "fusion_lon": 0.0}, {"is_reserved": 0, "type": "electric_bike", "bike_id": "e7e1670c9fb2875785f961d1b401d590", "lat": 38.9276315, "lon": -77.0451555, "rental_uris": {"android": "https://dc.lft.to/lastmile_qr_scan", "ios": "https://dc.lft.to/lastmile_qr_scan"}, "is_disabled": 0, "fusion_lat": 0.0, "name": "e7e1670c9fb2875785f961d1b401d590", "fusion_lon": 0.0}, {"is_reserved": 0, "type": "electric_bike", "bike_id": "bb4471529e5dfd0a99ed3861a3291a99", "lat": 38.838121, "lon": -77.095228, "rental_uris": {"android": "https://dc.lft.to/lastmile_qr_scan", "ios": "https://dc.lft.to/lastmile_qr_scan"}, "is_disabled": 0, "fusion_lat": 0.0, "name": "bb4471529e5dfd0a99ed3861a3291a99", "fusion_lon": 0.0}, {"is_reserved": 0, "type": "electric_scooter", "bike_id": "1849131aa32ec0ab96de9895222ad69f", "lat": 38.900814, "lon": -76.98006566666666, "rental_uris": {"android": "https://dc.lft.to/lastmile_qr_scan", "ios": "https://dc.lft.to/lastmile_qr_scan"}, "is_disabled": 0, "fusion_lat": 0.0, "name": "1849131aa32ec0ab96de9895222ad69f", "fusion_lon": 0.0}, {"is_reserved": 0, "type": "electric_bike", "bike_id": "9e92e9827ac5e0244ba92df95598eae0", "lat": 39.042345833333336, "lon": -76.99740683333333, "rental_uris": {"android": "https://dc.lft.to/lastmile_qr_scan", "ios": "https://dc.lft.to/lastmile_qr_scan"}, "is_disabled": 0, "fusion_lat": 0.0, "name": "9e92e9827ac5e0244ba92df95598eae0", "fusion_lon": 0.0}, {"is_reserved": 0, "type": "electric_scooter", "bike_id": "9c77b24f1cf24d4d90bd237ff8a5d6f9", "lat": 38.890876666666664, "lon": -77.0150505, "rental_uris": {"android": "https://dc.lft.to/lastmile_qr_scan", "ios": "https://dc.lft.to/lastmile_qr_scan"}, "is_disabled": 0, "fusion_lat": 0.0, "name": "9c77b24f1cf24d4d90bd237ff8a5d6f9", "fusion_lon": 0.0}, {"is_reserved": 0, "type": "electric_scooter", "bike_id": "e4f0cc68ad2f50bcbb310ed4e6b7e753", "lat": 38.916099333333335, "lon": -77.04622033333334, "rental_uris": {"android": "https://dc.lft.to/lastmile_qr_scan", "ios": "https://dc.lft.to/lastmile_qr_scan"}, "is_disabled": 0, "fusion_lat": 0.0, "name": "e4f0cc68ad2f50bcbb310ed4e6b7e753", "fusion_lon": 0.0}, {"is_reserved": 0, "type": "electric_scooter", "bike_id": "463b39c9a33fa3c36fcabd01c3136fe4", "lat": 38.87375483333334, "lon": -77.0009145, "rental_uris": {"android": "https://dc.lft.to/lastmile_qr_scan", "ios": "https://dc.lft.to/lastmile_qr_scan"}, "is_disabled": 0, "fusion_lat": 0.0, "name": "463b39c9a33fa3c36fcabd01c3136fe4", "fusion_lon": 0.0}, {"is_reserved": 0, "type": "electric_scooter", "bike_id": "b982104cd83675d6957df62b643ed984", "lat": 38.91122416666666, "lon": -76.984746, "rental_uris": {"android": "https://dc.lft.to/lastmile_qr_scan", "ios": "https://dc.lft.to/lastmile_qr_scan"}, "is_disabled": 0, "fusion_lat": 0.0, "name": "b982104cd83675d6957df62b643ed984", "fusion_lon": 0.0}, {"is_reserved": 0, "type": "electric_scooter", "bike_id": "af878a142590ee7787cba496f544ab9b", "lat": 38.895016, "lon": -76.93477966666667, "rental_uris": {"android": "https://dc.lft.to/lastmile_qr_scan", "ios": "https://dc.lft.to/lastmile_qr_scan"}, "is_disabled": 0, "fusion_lat": 0.0, "name": "af878a142590ee7787cba496f544ab9b", "fusion_lon": 0.0}, {"is_reserved": 0, "type": "electric_bike", "bike_id": "a6edef2d74654092856c2a3c80823da7", "lat": 38.973455333333334, "lon": -76.995933, "rental_uris": {"android": "https://dc.lft.to/lastmile_qr_scan", "ios": "https://dc.lft.to/lastmile_qr_scan"}, "is_disabled": 0, "fusion_lat": 0.0, "name": "a6edef2d74654092856c2a3c80823da7", "fusion_lon": 0.0}, {"is_reserved": 0, "type": "electric_scooter", "bike_id": "07274d50a0e3cf69deca52fd1e9418db", "lat": 38.93241833333333, "lon": -77.03850916666667, "rental_uris": {"android": "https://dc.lft.to/lastmile_qr_scan", "ios": "https://dc.lft.to/lastmile_qr_scan"}, "is_disabled": 0, "fusion_lat": 0.0, "name": "07274d50a0e3cf69deca52fd1e9418db", "fusion_lon": 0.0}, {"is_reserved": 0, "type": "electric_scooter", "bike_id": "dfff4f9239adc68b2b29fb4286a9414b", "lat": 38.89637483333333, "lon": -77.025974, "rental_uris": {"android": "https://dc.lft.to/lastmile_qr_scan", "ios": "https://dc.lft.to/lastmile_qr_scan"}, "is_disabled": 0, "fusion_lat": 0.0, "name": "dfff4f9239adc68b2b29fb4286a9414b", "fusion_lon": 0.0}, {"is_reserved": 0, "type": "electric_scooter", "bike_id": "3e099377a48bd10b98f38bf8b800e5af", "lat": 38.92336316666667, "lon": -77.02962966666666, "rental_uris": {"android": "https://dc.lft.to/lastmile_qr_scan", "ios": "https://dc.lft.to/lastmile_qr_scan"}, "is_disabled": 0, "fusion_lat": 0.0, "name": "3e099377a48bd10b98f38bf8b800e5af", "fusion_lon": 0.0}, {"is_reserved": 0, "type": "electric_scooter", "bike_id": "90fbe94ebdc74ee23e4ef5063d1a1621", "lat": 38.927349166666666, "lon": -77.05245833333333, "rental_uris": {"android": "https://dc.lft.to/lastmile_qr_scan", "ios": "https://dc.lft.to/lastmile_qr_scan"}, "is_disabled": 0, "fusion_lat": 0.0, "name": "90fbe94ebdc74ee23e4ef5063d1a1621", "fusion_lon": 0.0}, {"is_reserved": 0, "type": "electric_scooter", "bike_id": "10ee9932812af48b7ac606ba49f16792", "lat": 38.91913683333333, "lon": -77.03383833333334, "rental_uris": {"android": "https://dc.lft.to/lastmile_qr_scan", "ios": "https://dc.lft.to/lastmile_qr_scan"}, "is_disabled": 0, "fusion_lat": 0.0, "name": "10ee9932812af48b7ac606ba49f16792", "fusion_lon": 0.0}, {"is_reserved": 0, "type": "electric_scooter", "bike_id": "250bef4184ea0396d892c58d33a182b3", "lat": 38.90782816666667, "lon": -76.999824, "rental_uris": {"android": "https://dc.lft.to/lastmile_qr_scan", "ios": "https://dc.lft.to/lastmile_qr_scan"}, "is_disabled": 0, "fusion_lat": 0.0, "name": "250bef4184ea0396d892c58d33a182b3", "fusion_lon": 0.0}, {"is_reserved": 0, "type": "electric_scooter", "bike_id": "86c5a4f0469f86f43acbad3112f9eb8b", "lat": 38.932439, "lon": -76.9949485, "rental_uris": {"android": "https://dc.lft.to/lastmile_qr_scan", "ios": "https://dc.lft.to/lastmile_qr_scan"}, "is_disabled": 0, "fusion_lat": 0.0, "name": "86c5a4f0469f86f43acbad3112f9eb8b", "fusion_lon": 0.0}, {"is_reserved": 0, "type": "electric_scooter", "bike_id": "6ab7b67c9c21f80505939c0370675a1c", "lat": 38.94981966666667, "lon": -77.0201875, "rental_uris": {"android": "https://dc.lft.to/lastmile_qr_scan", "ios": "https://dc.lft.to/lastmile_qr_scan"}, "is_disabled": 0, "fusion_lat": 0.0, "name": "6ab7b67c9c21f80505939c0370675a1c", "fusion_lon": 0.0}, {"is_reserved": 0, "type": "electric_bike", "bike_id": "c1c2df3d96dfdaf8b4da5ccae80a40bb", "lat": 38.931038, "lon": -77.038258, "rental_uris": {"android": "https://dc.lft.to/lastmile_qr_scan", "ios": "https://dc.lft.to/lastmile_qr_scan"}, "is_disabled": 0, "fusion_lat": 0.0, "name": "c1c2df3d96dfdaf8b4da5ccae80a40bb", "fusion_lon": 0.0}, {"is_reserved": 0, "type": "electric_scooter", "bike_id": "21e63e3e50c1744527f92be70e8b45ba", "lat": 38.92864616666667, "lon": -77.03288583333334, "rental_uris": {"android": "https://dc.lft.to/lastmile_qr_scan", "ios": "https://dc.lft.to/lastmile_qr_scan"}, "is_disabled": 0, "fusion_lat": 0.0, "name": "21e63e3e50c1744527f92be70e8b45ba", "fusion_lon": 0.0}, {"is_reserved": 0, "type": "electric_scooter", "bike_id": "ad63941201df61f506e3e17343217d37", "lat": 38.89484916666667, "lon": -77.05000616666666, "rental_uris": {"android": "https://dc.lft.to/lastmile_qr_scan", "ios": "https://dc.lft.to/lastmile_qr_scan"}, "is_disabled": 0, "fusion_lat": 0.0, "name": "ad63941201df61f506e3e17343217d37", "fusion_lon": 0.0}, {"is_reserved": 0, "type": "electric_scooter", "bike_id": "d3208caf6258e7300a42c9f8ad61f22f", "lat": 38.885484166666664, "lon": -77.02199683333333, "rental_uris": {"android": "https://dc.lft.to/lastmile_qr_scan", "ios": "https://dc.lft.to/lastmile_qr_scan"}, "is_disabled": 0, "fusion_lat": 0.0, "name": "d3208caf6258e7300a42c9f8ad61f22f", "fusion_lon": 0.0}, {"is_reserved": 0, "type": "electric_scooter", "bike_id": "6d622af09222d1505595c67c81143f87", "lat": 38.9258145, "lon": -77.02944316666667, "rental_uris": {"android": "https://dc.lft.to/lastmile_qr_scan", "ios": "https://dc.lft.to/lastmile_qr_scan"}, "is_disabled": 0, "fusion_lat": 0.0, "name": "6d622af09222d1505595c67c81143f87", "fusion_lon": 0.0}, {"is_reserved": 0, "type": "electric_scooter", "bike_id": "b3f12e7425685538773b64e75afc2a08", "lat": 38.916297166666666, "lon": -77.007624, "rental_uris": {"android": "https://dc.lft.to/lastmile_qr_scan", "ios": "https://dc.lft.to/lastmile_qr_scan"}, "is_disabled": 0, "fusion_lat": 0.0, "name": "b3f12e7425685538773b64e75afc2a08", "fusion_lon": 0.0}, {"is_reserved": 0, "type": "electric_scooter", "bike_id": "87fbda8755a08fd3d7b8bdb61baefb9c", "lat": 38.89390016666667, "lon": -77.022536, "rental_uris": {"android": "https://dc.lft.to/lastmile_qr_scan", "ios": "https://dc.lft.to/lastmile_qr_scan"}, "is_disabled": 0, "fusion_lat": 0.0, "name": "87fbda8755a08fd3d7b8bdb61baefb9c", "fusion_lon": 0.0}, {"is_reserved": 0, "type": "electric_scooter", "bike_id": "0ce06375a1678e6858cacc752c60a4ba", "lat": 38.91661083333334, "lon": -77.03854633333333, "rental_uris": {"android": "https://dc.lft.to/lastmile_qr_scan", "ios": "https://dc.lft.to/lastmile_qr_scan"}, "is_disabled": 0, "fusion_lat": 0.0, "name": "0ce06375a1678e6858cacc752c60a4ba", "fusion_lon": 0.0}, {"is_reserved": 0, "type": "electric_scooter", "bike_id": "cc07ac8541e8ea1606d6e40001d40af6", "lat": 38.922716, "lon": -77.03666783333334, "rental_uris": {"android": "https://dc.lft.to/lastmile_qr_scan", "ios": "https://dc.lft.to/lastmile_qr_scan"}, "is_disabled": 0, "fusion_lat": 0.0, "name": "cc07ac8541e8ea1606d6e40001d40af6", "fusion_lon": 0.0},