{"data": {"bikes": [{"bike_id": "374a7b09aeeaafc0954a447747f9a2c4", "type": "electric_scooter", "is_disabled": 0, "lat": 38.90258733333334, "rental_uris": {"ios": "https://dc.lft.to/lastmile_qr_scan", "android": "https://dc.lft.to/lastmile_qr_scan"}, "is_reserved": 0, "fusion_lon": 0.0, "fusion_lat": 0.0, "lon": -77.0310265, "name": "374a7b09aeeaafc0954a447747f9a2c4"}, {"bike_id": "e73578ce84585859cfa13e24af65645b", "type": "electric_scooter", "is_disabled": 0, "lat": 38.9056215, "rental_uris": {"ios": "https://dc.lft.to/lastmile_qr_scan", "android": "https://dc.lft.to/lastmile_qr_scan"}, "is_reserved": 0, "fusion_lon": 0.0, "fusion_lat": 0.0, "lon": -76.977883, "name": "e73578ce84585859cfa13e24af65645b"}, {"bike_id": "4e9d3690a855a1d952a178412ddb2675", "type": "electric_scooter", "is_disabled": 0, "lat": 38.91483183333333, "rental_uris": {"ios": "https://dc.lft.to/lastmile_qr_scan", "android": "https://dc.lft.to/lastmile_qr_scan"}, "is_reserved": 0, "fusion_lon": 0.0, "fusion_lat": 0.0, "lon": -77.02179066666666, "name": "4e9d3690a855a1d952a178412ddb2675"}, {"bike_id": "02414ce0640c31889423e8ef13a84b19", "type": "electric_bike", "is_disabled": 0, "lat": 38.832412, "rental_uris": {"ios": "https://dc.lft.to/lastmile_qr_scan", "android": "https://dc.lft.to/lastmile_qr_scan"}, "is_reserved": 0, "fusion_lon": 0.0, "fusion_lat": 0.0, "lon": -76.9462885, "name": "02414ce0640c31889423e8ef13a84b19"}, {"bike_id": "92896d8125db5579bd36f3196944559f", "type": "electric_scooter", "is_disabled": 0, "lat": 38.87751, "rental_uris": {"ios": "https://dc.lft.to/lastmile_qr_scan", "android": "https://dc.lft.to/lastmile_qr_scan"}, "is_reserved": 0, "fusion_lon": 0.0, "fusion_lat": 0.0, "lon": -76.98686783333333, "name": "92896d8125db5579bd36f3196944559f"}, {"bike_id": "ef300086194f595c38e71e027fedc7ab", "type": "electric_scooter", "is_disabled": 0, "lat": 38.918343, "rental_uris": {"ios": "https://dc.lft.to/lastmile_qr_scan", "android": "https://dc.lft.to/lastmile_qr_scan"}, "is_reserved": 0, "fusion_lon": 0.0, "fusion_lat": 0.0, "lon": -77.02514866666667, "name": "ef300086194f595c38e71e027fedc7ab"}, {"bike_id": "3c8860095b263695bebe82f33a40bb8d", "type": "electric_scooter", "is_disabled": 0, "lat": 38.9218015, "rental_uris": {"ios": "https://dc.lft.to/lastmile_qr_scan", "android": "https://dc.lft.to/lastmile_qr_scan"}, "is_reserved": 0, "fusion_lon": 0.0, "fusion_lat": 0.0, "lon": -77.02661833333333, "name": "3c8860095b263695bebe82f33a40bb8d"}, {"bike_id": "6d636a0d5bce79d69874c96e6c48cd3b", "type": "electric_scooter", "is_disabled": 0, "lat": 38.90275233333333, "rental_uris": {"ios": "https://dc.lft.to/lastmile_qr_scan", "android": "https://dc.lft.to/lastmile_qr_scan"}, "is_reserved": 0, "fusion_lon": 0.0, "fusion_lat": 0.0, "lon": -76.97033616666667, "name": "6d636a0d5bce79d69874c96e6c48cd3b"}, {"bike_id": "ae54178b6ae9a9443d9d83e50e6f0edc", "type": "electric_scooter", "is_disabled": 0, "lat": 38.939908, "rental_uris": {"ios": "https://dc.lft.to/lastmile_qr_scan", "android": "https://dc.lft.to/lastmile_qr_scan"}, "is_reserved": 0, "fusion_lon": 0.0, "fusion_lat": 0.0, "lon": -77.016953, "name": "ae54178b6ae9a9443d9d83e50e6f0edc"}, {"bike_id": "351c053e1e6900e90aa92da8690ffd19", "type": "electric_scooter", "is_disabled": 0, "lat": 38.91417333333333, "rental_uris": {"ios": "https://dc.lft.to/lastmile_qr_scan", "android": "https://dc.lft.to/lastmile_qr_scan"}, "is_reserved": 0, "fusion_lon": 0.0, "fusion_lat": 0.0, "lon": -77.02408683333333, "name": "351c053e1e6900e90aa92da8690ffd19"}, {"bike_id": "b1c9741bac1946796089ad394b010960", "type": "electric_scooter", "is_disabled": 0, "lat": 38.895683, "rental_uris": {"ios": "https://dc.lft.to/lastmile_qr_scan", "android": "https://dc.lft.to/lastmile_qr_scan"}, "is_reserved": 0, "fusion_lon": 0.0, "fusion_lat": 0.0, "lon": -76.930247, "name": "b1c9741bac1946796089ad394b010960"}, {"bike_id": "bfb1a9539a1fd180fe711064c42b6516", "type": "electric_scooter", "is_disabled": 0, "lat": 38.90359566666667, "rental_uris": {"ios": "https://dc.lft.to/lastmile_qr_scan", "android": "https://dc.lft.to/lastmile_qr_scan"}, "is_reserved": 0, "fusion_lon": 0.0, "fusion_lat": 0.0, "lon": -77.03174366666667, "name": "bfb1a9539a1fd180fe711064c42b6516"}, {"bike_id": "50b0256af3930527f292bd6de65cb311", "type": "electric_bike", "is_disabled": 0, "lat": 39.03422283333333, "rental_uris": {"ios": "https://dc.lft.to/lastmile_qr_scan", "android": "https://dc.lft.to/lastmile_qr_scan"}, "is_reserved": 0, "fusion_lon": 0.0, "fusion_lat": 0.0, "lon": -77.04304366666666, "name": "50b0256af3930527f292bd6de65cb311"}, {"bike_id": "0a654ee454ab836867a245bc1a292b06", "type": "electric_scooter", "is_disabled": 0, "lat": 38.92714466666666, "rental_uris": {"ios": "https://dc.lft.to/lastmile_qr_scan", "android": "https://dc.lft.to/lastmile_qr_scan"}, "is_reserved": 0, "fusion_lon": 0.0, "fusion_lat": 0.0, "lon": -77.02096683333333, "name": "0a654ee454ab836867a245bc1a292b06"}, {"bike_id": "edfd23942ecf3bce38cdd195f013b948", "type": "electric_scooter", "is_disabled": 0, "lat": 38.900726, "rental_uris": {"ios": "https://dc.lft.to/lastmile_qr_scan", "android": "https://dc.lft.to/lastmile_qr_scan"}, "is_reserved": 0, "fusion_lon": 0.0, "fusion_lat": 0.0, "lon": -77.0182745, "name": "edfd23942ecf3bce38cdd195f013b948"}, {"bike_id": "fee78351b953750a302d9857f810c79f", "type": "electric_scooter", "is_disabled": 0, "lat": 38.89799816666667, "rental_uris": {"ios": "https://dc.lft.to/lastmile_qr_scan", "android": "https://dc.lft.to/lastmile_qr_scan"}, "is_reserved": 0, "fusion_lon": 0.0, "fusion_lat": 0.0, "lon": -77.03050716666667, "name": "fee78351b953750a302d9857f810c79f"}, {"bike_id": "a2ced6efb232a5fdca6d3828eac4e44c", "type": "electric_scooter", "is_disabled": 0, "lat": 38.90058, "rental_uris": {"ios": "https://dc.lft.to/lastmile_qr_scan", "android": "https://dc.lft.to/lastmile_qr_scan"}, "is_reserved": 0, "fusion_lon": 0.0, "fusion_lat": 0.0, "lon": -77.04613416666666, "name": "a2ced6efb232a5fdca6d3828eac4e44c"}, {"bike_id": "593cfe3247915c236af1c05c4ec12e83", "type": "electric_bike", "is_disabled": 0, "lat": 38.950928166666664, "rental_uris": {"ios": "https://dc.lft.to/lastmile_qr_scan", "android": "https://dc.lft.to/lastmile_qr_scan"}, "is_reserved": 0, "fusion_lon": 0.0, "fusion_lat": 0.0, "lon": -77.08088366666667, "name": "593cfe3247915c236af1c05c4ec12e83"}, {"bike_id": "0dd6a08f8a2bbfbf5385b7139820001c", "type": "electric_scooter", "is_disabled": 0, "lat": 38.91533033333333, "rental_uris": {"ios": "https://dc.lft.to/lastmile_qr_scan", "android": "https://dc.lft.to/lastmile_qr_scan"}, "is_reserved": 0, "fusion_lon": 0.0, "fusion_lat": 0.0, "lon": -77.01849316666667, "name": "0dd6a08f8a2bbfbf5385b7139820001c"}, {"bike_id": "7118e8e7b93fd8bded064b47f9f8ebf8", "type": "electric_scooter", "is_disabled": 0, "lat": 38.915198, "rental_uris": {"ios": "https://dc.lft.to/lastmile_qr_scan", "android": "https://dc.lft.to/lastmile_qr_scan"}, "is_reserved": 0, "fusion_lon": 0.0, "fusion_lat": 0.0, "lon": -77.02299966666666, "name": "7118e8e7b93fd8bded064b47f9f8ebf8"}, {"bike_id": "f900d939cc377e5f033332d818673ca5", "type": "electric_scooter", "is_disabled": 0, "lat": 38.914920333333335, "rental_uris": {"ios": "https://dc.lft.to/lastmile_qr_scan", "android": "https://dc.lft.to/lastmile_qr_scan"}, "is_reserved": 0, "fusion_lon": 0.0, "fusion_lat": 0.0, "lon": -77.0256845, "name": "f900d939cc377e5f033332d818673ca5"}, {"bike_id": "4ec7b1abfbb0f2bdd9e194bb0dfb4b0f", "type": "electric_scooter", "is_disabled": 0, "lat": 38.917090333333334, "rental_uris": {"ios": "https://dc.lft.to/lastmile_qr_scan", "android": "https://dc.lft.to/lastmile_qr_scan"}, "is_reserved": 0, "fusion_lon": 0.0, "fusion_lat": 0.0, "lon": -77.0346745, "name": "4ec7b1abfbb0f2bdd9e194bb0dfb4b0f"}, {"bike_id": "6a48e66b4bc26dd2951011ab62335685", "type": "electric_scooter", "is_disabled": 0, "lat": 38.90182033333333, "rental_uris": {"ios": "https://dc.lft.to/lastmile_qr_scan", "android": "https://dc.lft.to/lastmile_qr_scan"}, "is_reserved": 0, "fusion_lon": 0.0, "fusion_lat": 0.0, "lon": -77.01295433333334, "name": "6a48e66b4bc26dd2951011ab62335685"}, {"bike_id": "5b1ce9ed92234141f2b0d7fc39ffea6f", "type": "electric_scooter", "is_disabled": 0, "lat": 38.9022305, "rental_uris": {"ios": "https://dc.lft.to/lastmile_qr_scan", "android": "https://dc.lft.to/lastmile_qr_scan"}, "is_reserved": 0, "fusion_lon": 0.0, "fusion_lat": 0.0, "lon": -77.058948, "name": "5b1ce9ed92234141f2b0d7fc39ffea6f"}, {"bike_id": "cd0715ad380e786cc6bb58f449ae4d99", "type": "electric_scooter", "is_disabled": 0, "lat": 38.89728616666667, "rental_uris": {"ios": "https://dc.lft.to/lastmile_qr_scan", "android": "https://dc.lft.to/lastmile_qr_scan"}, "is_reserved": 0, "fusion_lon": 0.0, "fusion_lat": 0.0, "lon": -77.0036895, "name": "cd0715ad380e786cc6bb58f449ae4d99"}, {"bike_id": "7dff9c5a45da2a80f8844464f3e0367c", "type": "electric_scooter", "is_disabled": 0, "lat": 38.87560366666666, "rental_uris": {"ios": "https://dc.lft.to/lastmile_qr_scan", "android": "https://dc.lft.to/lastmile_qr_scan"}, "is_reserved": 0, "fusion_lon": 0.0, "fusion_lat": 0.0, "lon": -76.95866566666666, "name": "7dff9c5a45da2a80f8844464f3e0367c"}, {"bike_id": "191512ac2fc342b285425402e4a3df60", "type": "electric_scooter", "is_disabled": 0, "lat": 38.91266016666667, "rental_uris": {"ios": "https://dc.lft.to/lastmile_qr_scan", "android": "https://dc.lft.to/lastmile_qr_scan"}, "is_reserved": 0, "fusion_lon": 0.0, "fusion_lat": 0.0, "lon": -77.02959566666667, "name": "191512ac2fc342b285425402e4a3df60"}, {"bike_id": "8b44ceb2d8abf0eafefddae28617433d", "type": "electric_scooter", "is_disabled": 0, "lat": 38.92877433333334, "rental_uris": {"ios": "https://dc.lft.to/lastmile_qr_scan", "android": "https://dc.lft.to/lastmile_qr_scan"}, "is_reserved": 0, "fusion_lon": 0.0, "fusion_lat": 0.0, "lon": -77.02654533333333, "name": "8b44ceb2d8abf0eafefddae28617433d"}, {"bike_id": "7704c9868a84a03c1e092e24e45246d3", "type": "electric_scooter", "is_disabled": 0, "lat": 38.939168333333335, "rental_uris": {"ios": "https://dc.lft.to/lastmile_qr_scan", "android": "https://dc.lft.to/lastmile_qr_scan"}, "is_reserved": 0, "fusion_lon": 0.0, "fusion_lat": 0.0, "lon": -77.06053016666667, "name": "7704c9868a84a03c1e092e24e45246d3"}, {"bike_id": "4d55c50a45c36600afa8eca4cd8f6be8", "type": "electric_scooter", "is_disabled": 0, "lat": 38.898211833333335, "rental_uris": {"ios": "https://dc.lft.to/lastmile_qr_scan", "android": "https://dc.lft.to/lastmile_qr_scan"}, "is_reserved": 0, "fusion_lon": 0.0, "fusion_lat": 0.0, "lon": -77.01745366666667, "name": "4d55c50a45c36600afa8eca4cd8f6be8"}, {"bike_id": "c0a400617347b908db6367e564359d39", "type": "electric_scooter", "is_disabled": 0, "lat": 38.92245616666666, "rental_uris": {"ios": "https://dc.lft.to/lastmile_qr_scan", "android": "https://dc.lft.to/lastmile_qr_scan"}, "is_reserved": 0, "fusion_lon": 0.0, "fusion_lat": 0.0, "lon": -77.04269866666667, "name": "c0a400617347b908db6367e564359d39"}, {"bike_id": "6487926e63cdd46a9c58b7cec33fac22", "type": "electric_bike", "is_disabled": 0, "lat": 39.03696466666667, "rental_uris": {"ios": "https://dc.lft.to/lastmile_qr_scan", "android": "https://dc.lft.to/lastmile_qr_scan"}, "is_reserved": 0, "fusion_lon": 0.0, "fusion_lat": 0.0, "lon": -77.028574, "name": "6487926e63cdd46a9c58b7cec33fac22"}, {"bike_id": "aa5f2aeb48f4133036cb786854fa78ee", "type": "electric_scooter", "is_disabled": 0, "lat": 38.915686666666666, "rental_uris": {"ios": "https://dc.lft.to/lastmile_qr_scan", "android": "https://dc.lft.to/lastmile_qr_scan"}, "is_reserved": 0, "fusion_lon": 0.0, "fusion_lat": 0.0, "lon": -77.019558, "name": "aa5f2aeb48f4133036cb786854fa78ee"}, {"bike_id": "9ce6ebcf23fc7de1fe7f3dbf87e6a221", "type": "electric_scooter", "is_disabled": 0, "lat": 38.858106, "rental_uris": {"ios": "https://dc.lft.to/lastmile_qr_scan", "android": "https://dc.lft.to/lastmile_qr_scan"}, "is_reserved": 0, "fusion_lon": 0.0, "fusion_lat": 0.0, "lon": -76.989178, "name": "9ce6ebcf23fc7de1fe7f3dbf87e6a221"}, {"bike_id": "875141a23c04c028deeaf71c5ff94636", "type": "electric_scooter", "is_disabled": 0, "lat": 38.896958833333336, "rental_uris": {"ios": "https://dc.lft.to/lastmile_qr_scan", "android": "https://dc.lft.to/lastmile_qr_scan"}, "is_reserved": 0, "fusion_lon": 0.0, "fusion_lat": 0.0, "lon": -77.02290883333333, "name": "875141a23c04c028deeaf71c5ff94636"}, {"bike_id": "c68fc87d37b839b815ba1657a06db96e", "type": "electric_scooter", "is_disabled": 0, "lat": 38.907874166666666, "rental_uris": {"ios": "https://dc.lft.to/lastmile_qr_scan", "android": "https://dc.lft.to/lastmile_qr_scan"}, "is_reserved": 0, "fusion_lon": 0.0, "fusion_lat": 0.0, "lon": -76.99419716666667, "name": "c68fc87d37b839b815ba1657a06db96e"}, {"bike_id": "288f2dbf56d1d93a4dfadfe6c02e8700", "type": "electric_scooter", "is_disabled": 0, "lat": 38.87066766666667, "rental_uris": {"ios": "https://dc.lft.to/lastmile_qr_scan", "android": "https://dc.lft.to/lastmile_qr_scan"}, "is_reserved": 0, "fusion_lon": 0.0, "fusion_lat": 0.0, "lon": -76.98128933333334, "name": "288f2dbf56d1d93a4dfadfe6c02e8700"}, {"bike_id": "dbf832be8423918c28a7782766b5a67f", "type": "electric_scooter", "is_disabled": 0, "lat": 38.886387666666664, "rental_uris": {"ios": "https://dc.lft.to/lastmile_qr_scan", "android": "https://dc.lft.to/lastmile_qr_scan"}, "is_reserved": 0, "fusion_lon": 0.0, "fusion_lat": 0.0, "lon": -77.01372966666666, "name": "dbf832be8423918c28a7782766b5a67f"}, {"bike_id": "ffa73ee2f9f7a045d86c83b95c6f3653", "type": "electric_scooter", "is_disabled": 0, "lat": 38.8923695, "rental_uris": {"ios": "https://dc.lft.to/lastmile_qr_scan", "android": "https://dc.lft.to/lastmile_qr_scan"}, "is_reserved": 0, "fusion_lon": 0.0, "fusion_lat": 0.0, "lon": -77.0435535, "name": "ffa73ee2f9f7a045d86c83b95c6f3653"}, {"bike_id": "39a7085412526093b9cf8c11c7346ea9", "type": "electric_scooter", "is_disabled": 0, "lat": 38.93503833333333, "rental_uris": {"ios": "https://dc.lft.to/lastmile_qr_scan", "android": "https://dc.lft.to/lastmile_qr_scan"}, "is_reserved": 0, "fusion_lon": 0.0, "fusion_lat": 0.0, "lon": -77.025433, "name": "39a7085412526093b9cf8c11c7346ea9"}, {"bike_id": "85d1b2f404be0c2c17e2e2d8cb0fe1ed", "type": "electric_scooter", "is_disabled": 0, "lat": 38.917005, "rental_uris": {"ios": "https://dc.lft.to/lastmile_qr_scan", "android": "https://dc.lft.to/lastmile_qr_scan"}, "is_reserved": 0, "fusion_lon": 0.0, "fusion_lat": 0.0, "lon": -77.03997133333333, "name": "85d1b2f404be0c2c17e2e2d8cb0fe1ed"}, {"bike_id": "e19a40fc4d49b5579dbc66d0f9196b96", "type": "electric_scooter", "is_disabled": 0, "lat": 38.905465666666665, "rental_uris": {"ios": "https://dc.lft.to/lastmile_qr_scan", "android": "https://dc.lft.to/lastmile_qr_scan"}, "is_reserved": 0, "fusion_lon": 0.0, "fusion_lat": 0.0, "lon": -77.0218005, "name": "e19a40fc4d49b5579dbc66d0f9196b96"}, {"bike_id": "f4893f9d2b600070c1c577ee3f052cea", "type": "electric_scooter", "is_disabled": 0, "lat": 38.91592033333333, "rental_uris": {"ios": "https://dc.lft.to/lastmile_qr_scan", "android": "https://dc.lft.to/lastmile_qr_scan"}, "is_reserved": 0, "fusion_lon": 0.0, "fusion_lat": 0.0, "lon": -77.03984066666666, "name": "f4893f9d2b600070c1c577ee3f052cea"}, {"bike_id": "cc47b0902f969ee317d04957a276dd6f", "type": "electric_scooter", "is_disabled": 0, "lat": 38.93981333333333, "rental_uris": {"ios": "https://dc.lft.to/lastmile_qr_scan", "android": "https://dc.lft.to/lastmile_qr_scan"}, "is_reserved": 0, "fusion_lon": 0.0, "fusion_lat": 0.0, "lon": -77.0287125, "name": "cc47b0902f969ee317d04957a276dd6f"}, {"bike_id": "023988cac3835b844a1ced03a1c0b765", "type": "electric_scooter", "is_disabled": 0, "lat": 38.9461175, "rental_uris": {"ios": "https://dc.lft.to/lastmile_qr_scan", "android": "https://dc.lft.to/lastmile_qr_scan"}, "is_reserved": 0, "fusion_lon": 0.0, "fusion_lat": 0.0, "lon": -77.0226585, "name": "023988cac3835b844a1ced03a1c0b765"}, {"bike_id": "6ef9711e48e5ad91d06156b3798af4f9", "type": "electric_scooter", "is_disabled": 0, "lat": 38.8986895, "rental_uris": {"ios": "https://dc.lft.to/lastmile_qr_scan", "android": "https://dc.lft.to/lastmile_qr_scan"}, "is_reserved": 0, "fusion_lon": 0.0, "fusion_lat": 0.0, "lon": -77.02394866666667, "name": "6ef9711e48e5ad91d06156b3798af4f9"}, {"bike_id": "586022eb2ebeea39ad516b343aaabdcf", "type": "electric_scooter", "is_disabled": 0, "lat": 38.89963483333333, "rental_uris": {"ios": "https://dc.lft.to/lastmile_qr_scan", "android": "https://dc.lft.to/lastmile_qr_scan"}, "is_reserved": 0, "fusion_lon": 0.0, "fusion_lat": 0.0, "lon": -76.98299216666666, "name": "586022eb2ebeea39ad516b343aaabdcf"}, {"bike_id": "35de26133aee2a8184df6f37596d7bf3", "type": "electric_scooter", "is_disabled": 0, "lat": 38.89791666666667, "rental_uris": {"ios": "https://dc.lft.to/lastmile_qr_scan", "android": "https://dc.lft.to/lastmile_qr_scan"}, "is_reserved": 0, "fusion_lon": 0.0, "fusion_lat": 0.0, "lon": -77.03217933333333, "name": "35de26133aee2a8184df6f37596d7bf3"}, {"bike_id": "47f063a1894fffbe0c316d57b412aed5", "type": "electric_scooter", "is_disabled": 0, "lat": 38.92124416666667, "rental_uris": {"ios": "https://dc.lft.to/lastmile_qr_scan", "android": "https://dc.lft.to/lastmile_qr_scan"}, "is_reserved": 0, "fusion_lon": 0.0, "fusion_lat": 0.0, "lon": -77.02713916666667, "name": "47f063a1894fffbe0c316d57b412aed5"}, {"bike_id": "16865b2ed654ddb00a95bc60e6b528fe", "type": "electric_scooter", "is_disabled": 0, "lat": 38.89485583333333, "rental_uris": {"ios": "https://dc.lft.to/lastmile_qr_scan", "android": "https://dc.lft.to/lastmile_qr_scan"}, "is_reserved": 0, "fusion_lon": 0.0, "fusion_lat": 0.0, "lon": -76.98781333333334, "name": "16865b2ed654ddb00a95bc60e6b528fe"}, {"bike_id": "74f0c3c52e838c7ddb2470638387453a", "type": "electric_scooter", "is_disabled": 0, "lat": 38.866265166666665, "rental_uris": {"ios": "https://dc.lft.to/lastmile_qr_scan", "android": "https://dc.lft.to/lastmile_qr_scan"}, "is_reserved": 0, "fusion_lon": 0.0, "fusion_lat": 0.0, "lon": -76.987185, "name": "74f0c3c52e838c7ddb2470638387453a"}, {"bike_id": "79c3713aaaa10b326d69972bca47dd75", "type": "electric_scooter", "is_disabled": 0, "lat": 38.908611, "rental_uris": {"ios": "https://dc.lft.to/lastmile_qr_scan", "android": "https://dc.lft.to/lastmile_qr_scan"}, "is_reserved": 0, "fusion_lon": 0.0, "fusion_lat": 0.0, "lon": -76.99954033333333, "name": "79c3713aaaa10b326d69972bca47dd75"}, {"bike_id": "857761b9c9fe9b16733f1c58c7379f5f", "type": "electric_bike", "is_disabled": 0, "lat": 38.94369, "rental_uris": {"ios": "https://dc.lft.to/lastmile_qr_scan", "android": "https://dc.lft.to/lastmile_qr_scan"}, "is_reserved": 0, "fusion_lon": 0.0, "fusion_lat": 0.0, "lon": -77.0034755, "name": "857761b9c9fe9b16733f1c58c7379f5f"}, {"bike_id": "61b0e657f66eb21145de1451c4d943f9", "type": "electric_bike", "is_disabled": 0, "lat": 39.05100366666667, "rental_uris": {"ios": "https://dc.lft.to/lastmile_qr_scan", "android": "https://dc.lft.to/lastmile_qr_scan"}, "is_reserved": 0, "fusion_lon": 0.0, "fusion_lat": 0.0, "lon": -77.11740983333334, "name": "61b0e657f66eb21145de1451c4d943f9"}, {"bike_id": "3f2fb9af4bf30d04ca7978f4acb36904", "type": "electric_scooter", "is_disabled": 0, "lat": 38.89511383333333, "rental_uris": {"ios": "https://dc.lft.to/lastmile_qr_scan", "android": "https://dc.lft.to/lastmile_qr_scan"}, "is_reserved": 0, "fusion_lon": 0.0, "fusion_lat": 0.0, "lon": -77.04331366666666, "name": "3f2fb9af4bf30d04ca7978f4acb36904"}, {"bike_id": "ae9dc5b5c3bb97c410e008e725e34f8a", "type": "electric_scooter", "is_disabled": 0, "lat": 38.933137333333335, "rental_uris": {"ios": "https://dc.lft.to/lastmile_qr_scan", "android": "https://dc.lft.to/lastmile_qr_scan"}, "is_reserved": 0, "fusion_lon": 0.0, "fusion_lat": 0.0, "lon": -77.02747016666666, "name": "ae9dc5b5c3bb97c410e008e725e34f8a"}, {"bike_id": "3e0a7896668a790323286a2dcf79234d", "type": "electric_scooter", "is_disabled": 0, "lat": 38.899807, "rental_uris": {"ios": "https://dc.lft.to/lastmile_qr_scan", "android": "https://dc.lft.to/lastmile_qr_scan"}, "is_reserved": 0, "fusion_lon": 0.0, "fusion_lat": 0.0, "lon": -77.02700083333333, "name": "3e0a7896668a790323286a2dcf79234d"}, {"bike_id": "9a310a907aa395aae46c9e2e8d02010d", "type": "electric_scooter", "is_disabled": 0, "lat": 38.922298, "rental_uris": {"ios": "https://dc.lft.to/lastmile_qr_scan", "android": "https://dc.lft.to/lastmile_qr_scan"}, "is_reserved": 0, "fusion_lon": 0.0, "fusion_lat": 0.0, "lon": -76.975312, "name": "9a310a907aa395aae46c9e2e8d02010d"}, {"bike_id": "cfb48038a4728a72cde837d0d572eb24", "type": "electric_scooter", "is_disabled": 0, "lat": 38.90353616666667, "rental_uris": {"ios": "https://dc.lft.to/lastmile_qr_scan", "android": "https://dc.lft.to/lastmile_qr_scan"}, "is_reserved": 0, "fusion_lon": 0.0, "fusion_lat": 0.0, "lon": -76.992204, "name": "cfb48038a4728a72cde837d0d572eb24"}, {"bike_id": "170e5011d0e25517796c01927582ec6a", "type": "electric_scooter", "is_disabled": 0, "lat": 38.91143366666667, "rental_uris": {"ios": "https://dc.lft.to/lastmile_qr_scan", "android": "https://dc.lft.to/lastmile_qr_scan"}, "is_reserved": 0, "fusion_lon": 0.0, "fusion_lat": 0.0, "lon": -77.04497233333333, "name": "170e5011d0e25517796c01927582ec6a"}, {"bike_id": "83bfbe03c48ecf2ef1c379d6f7fc9e66", "type": "electric_scooter", "is_disabled": 0, "lat": 38.887151333333335, "rental_uris": {"ios": "https://dc.lft.to/lastmile_qr_scan", "android": "https://dc.lft.to/lastmile_qr_scan"}, "is_reserved": 0, "fusion_lon": 0.0, "fusion_lat": 0.0, "lon": -77.0217985, "name": "83bfbe03c48ecf2ef1c379d6f7fc9e66"}, {"bike_id": "a496d2ba74ef478c9f1ff0455551985b", "type": "electric_scooter", "is_disabled": 0, "lat": 38.95634966666667, "rental_uris": {"ios": "https://dc.lft.to/lastmile_qr_scan", "android": "https://dc.lft.to/lastmile_qr_scan"}, "is_reserved": 0, "fusion_lon": 0.0, "fusion_lat": 0.0, "lon": -77.03625083333333, "name": "a496d2ba74ef478c9f1ff0455551985b"}, {"bike_id": "0f96e045c5a0d3a14599459a827180cd", "type": "electric_bike", "is_disabled": 0, "lat": 38.88043533333333, "rental_uris": {"ios": "https://dc.lft.to/lastmile_qr_scan", "android": "https://dc.lft.to/lastmile_qr_scan"}, "is_reserved": 0, "fusion_lon": 0.0, "fusion_lat": 0.0, "lon": -77.02521283333333, "name": "0f96e045c5a0d3a14599459a827180cd"}, {"bike_id": "7be437fa715d532a706dbc7feada7321", "type": "electric_scooter", "is_disabled": 0, "lat": 38.92189483333333, "rental_uris": {"ios": "https://dc.lft.to/lastmile_qr_scan", "android": "https://dc.lft.to/lastmile_qr_scan"}, "is_reserved": 0, "fusion_lon": 0.0, "fusion_lat": 0.0, "lon": -77.01972866666667, "name": "7be437fa715d532a706dbc7feada7321"}, {"bike_id": "c4a0fa402d3cdef20b8a89a7583cf9e9", "type": "electric_scooter", "is_disabled": 0, "lat": 38.905626, "rental_uris": {"ios": "https://dc.lft.to/lastmile_qr_scan", "android": "https://dc.lft.to/lastmile_qr_scan"}, "is_reserved": 0, "fusion_lon": 0.0, "fusion_lat": 0.0, "lon": -77.030705, "name": "c4a0fa402d3cdef20b8a89a7583cf9e9"}, {"bike_id": "879413d64a29be5b9159ba3e125d5e28", "type": "electric_scooter", "is_disabled": 0, "lat": 38.89230533333333, "rental_uris": {"ios": "https://dc.lft.to/lastmile_qr_scan", "android": "https://dc.lft.to/lastmile_qr_scan"}, "is_reserved": 0, "fusion_lon": 0.0, "fusion_lat": 0.0, "lon": -77.04160316666666, "name": "879413d64a29be5b9159ba3e125d5e28"}, {"bike_id": "8bd4a82d8f47d6e08517a67f9d988dcf", "type": "electric_scooter", "is_disabled": 0, "lat": 38.9097355, "rental_uris": {"ios": "https://dc.lft.to/lastmile_qr_scan", "android": "https://dc.lft.to/lastmile_qr_scan"}, "is_reserved": 0, "fusion_lon": 0.0, "fusion_lat": 0.0, "lon": -76.9958895, "name": "8bd4a82d8f47d6e08517a67f9d988dcf"}, {"bike_id": "0368acfded446cb6e26748667f914c2c", "type": "electric_scooter", "is_disabled": 0, "lat": 38.943097, "rental_uris": {"ios": "https://dc.lft.to/lastmile_qr_scan", "android": "https://dc.lft.to/lastmile_qr_scan"}, "is_reserved": 0, "fusion_lon": 0.0, "fusion_lat": 0.0, "lon": -77.06207183333333, "name": "0368acfded446cb6e26748667f914c2c"}, {"bike_id": "1dee43229293b1dfcd76e68ba473d876", "type": "electric_scooter", "is_disabled": 0, "lat": 38.91552183333334, "rental_uris": {"ios": "https://dc.lft.to/lastmile_qr_scan", "android": "https://dc.lft.to/lastmile_qr_scan"}, "is_reserved": 0, "fusion_lon": 0.0, "fusion_lat": 0.0, "lon": -77.0321695, "name": "1dee43229293b1dfcd76e68ba473d876"}, {"bike_id": "02ea12acf9d6cb09fd017b2bddd30bce", "type": "electric_scooter", "is_disabled": 0, "lat": 38.9117945, "rental_uris": {"ios": "https://dc.lft.to/lastmile_qr_scan", "android": "https://dc.lft.to/lastmile_qr_scan"}, "is_reserved": 0, "fusion_lon": 0.0, "fusion_lat": 0.0, "lon": -77.03219666666666, "name": "02ea12acf9d6cb09fd017b2bddd30bce"}, {"bike_id": "16f722bfc17c1fcd2bb4def0444fa8d6", "type": "electric_scooter", "is_disabled": 0, "lat": 38.909567333333335, "rental_uris": {"ios": "https://dc.lft.to/lastmile_qr_scan", "android": "https://dc.lft.to/lastmile_qr_scan"}, "is_reserved": 0, "fusion_lon": 0.0, "fusion_lat": 0.0, "lon": -77.036281, "name": "16f722bfc17c1fcd2bb4def0444fa8d6"}, {"bike_id": "d10a3c288ce8b9c690eda0a5d863063f", "type": "electric_scooter", "is_disabled": 0, "lat": 38.87661383333333, "rental_uris": {"ios": "https://dc.lft.to/lastmile_qr_scan", "android": "https://dc.lft.to/lastmile_qr_scan"}, "is_reserved": 0, "fusion_lon": 0.0, "fusion_lat": 0.0, "lon": -77.004283, "name": "d10a3c288ce8b9c690eda0a5d863063f"}, {"bike_id": "7e6f387b90d8b3559b228435c71a1694", "type": "electric_scooter", "is_disabled": 0, "lat": 38.8871175, "rental_uris": {"ios": "https://dc.lft.to/lastmile_qr_scan", "android": "https://dc.lft.to/lastmile_qr_scan"}, "is_reserved": 0, "fusion_lon": 0.0, "fusion_lat": 0.0, "lon": -77.01773633333333, "name": "7e6f387b90d8b3559b228435c71a1694"}, {"bike_id": "e3e9d8b7372a6118d2832bbb0ef6f242", "type": "electric_scooter", "is_disabled": 0, "lat": 38.88741683333333, "rental_uris": {"ios": "https://dc.lft.to/lastmile_qr_scan", "android": "https://dc.lft.to/lastmile_qr_scan"}, "is_reserved": 0, "fusion_lon": 0.0, "fusion_lat": 0.0, "lon": -77.01530333333334, "name": "e3e9d8b7372a6118d2832bbb0ef6f242"}, {"bike_id": "80c6d8c5bd2752fbb3dd690d7d82c068", "type": "electric_scooter", "is_disabled": 0, "lat": 38.8762685, "rental_uris": {"ios": "https://dc.lft.to/lastmile_qr_scan", "android": "https://dc.lft.to/lastmile_qr_scan"}, "is_reserved": 0, "fusion_lon": 0.0, "fusion_lat": 0.0, "lon": -77.000559, "name": "80c6d8c5bd2752fbb3dd690d7d82c068"}, {"bike_id": "11c00c21a687f9567f5bd048b0814149", "type": "electric_scooter", "is_disabled": 0, "lat": 38.91820533333333, "rental_uris": {"ios": "https://dc.lft.to/lastmile_qr_scan", "android": "https://dc.lft.to/lastmile_qr_scan"}, "is_reserved": 0, "fusion_lon": 0.0, "fusion_lat": 0.0, "lon": -77.04941883333333, "name": "11c00c21a687f9567f5bd048b0814149"}, {"bike_id": "e5fc2c1a2e6304266f9da198e83e21b0", "type": "electric_scooter", "is_disabled": 0, "lat": 38.922195, "rental_uris": {"ios": "https://dc.lft.to/lastmile_qr_scan", "android": "https://dc.lft.to/lastmile_qr_scan"}, "is_reserved": 0, "fusion_lon": 0.0, "fusion_lat": 0.0, "lon": -77.03293216666667, "name": "e5fc2c1a2e6304266f9da198e83e21b0"}, {"bike_id": "1e3935ee18bc6cc957ed171c0e88aeb9", "type": "electric_bike", "is_disabled": 0, "lat": 38.897378333333336, "rental_uris": {"ios": "https://dc.lft.to/lastmile_qr_scan", "android": "https://dc.lft.to/lastmile_qr_scan"}, "is_reserved": 0, "fusion_lon": 0.0, "fusion_lat": 0.0, "lon": -76.920475, "name": "1e3935ee18bc6cc957ed171c0e88aeb9"}, {"bike_id": "dc196fb1220bae38ac104b6512d2f870", "type": "electric_scooter", "is_disabled": 0, "lat": 38.89459633333333, "rental_uris": {"ios": "https://dc.lft.to/lastmile_qr_scan", "android": "https://dc.lft.to/lastmile_qr_scan"}, "is_reserved": 0, "fusion_lon": 0.0, "fusion_lat": 0.0, "lon": -77.01977066666667, "name": "dc196fb1220bae38ac104b6512d2f870"}, {"bike_id": "4449cdf4ca8582532cacc7d86896268f", "type": "electric_scooter", "is_disabled": 0, "lat": 38.91555816666666, "rental_uris": {"ios": "https://dc.lft.to/lastmile_qr_scan", "android": "https://dc.lft.to/lastmile_qr_scan"}, "is_reserved": 0, "fusion_lon": 0.0, "fusion_lat": 0.0, "lon": -77.03267866666667, "name": "4449cdf4ca8582532cacc7d86896268f"}, {"bike_id": "372d8b3f1cf118513dd1f072ebabb0fc", "type": "electric_scooter", "is_disabled": 0, "lat": 38.90170966666667, "rental_uris": {"ios": "https://dc.lft.to/lastmile_qr_scan", "android": "https://dc.lft.to/lastmile_qr_scan"}, "is_reserved": 0, "fusion_lon": 0.0, "fusion_lat": 0.0, "lon": -76.92655183333333, "name": "372d8b3f1cf118513dd1f072ebabb0fc"}, {"bike_id": "5e3093de1627a580183c5569cabe43a6", "type": "electric_scooter", "is_disabled": 0, "lat": 38.9066905, "rental_uris": {"ios": "https://dc.lft.to/lastmile_qr_scan", "android": "https://dc.lft.to/lastmile_qr_scan"}, "is_reserved": 0, "fusion_lon": 0.0, "fusion_lat": 0.0, "lon": -77.0270825, "name": "5e3093de1627a580183c5569cabe43a6"}, {"bike_id": "355b763b23491d3f9f2db2d729f90047", "type": "electric_scooter", "is_disabled": 0, "lat": 38.91605416666667, "rental_uris": {"ios": "https://dc.lft.to/lastmile_qr_scan", "android": "https://dc.lft.to/lastmile_qr_scan"}, "is_reserved": 0, "fusion_lon": 0.0, "fusion_lat": 0.0, "lon": -77.02290266666667, "name": "355b763b23491d3f9f2db2d729f90047"}, {"bike_id": "2b852b9964fcadbc094a92b8eb754085", "type": "electric_scooter", "is_disabled": 0, "lat": 38.915288833333335, "rental_uris": {"ios": "https://dc.lft.to/lastmile_qr_scan", "android": "https://dc.lft.to/lastmile_qr_scan"}, "is_reserved": 0, "fusion_lon": 0.0, "fusion_lat": 0.0, "lon": -77.01969316666667, "name": "2b852b9964fcadbc094a92b8eb754085"}, {"bike_id": "978e60851aced6c12189a7529df745ea", "type": "electric_scooter", "is_disabled": 0, "lat": 38.930785, "rental_uris": {"ios": "https://dc.lft.to/lastmile_qr_scan", "android": "https://dc.lft.to/lastmile_qr_scan"}, "is_reserved": 0, "fusion_lon": 0.0, "fusion_lat": 0.0, "lon": -77.02150233333333, "name": "978e60851aced6c12189a7529df745ea"}, {"bike_id": "649acafc7e3bf64e07862454aeeeedd9", "type": "electric_scooter", "is_disabled": 0, "lat": 38.90067466666667, "rental_uris": {"ios": "https://dc.lft.to/lastmile_qr_scan", "android": "https://dc.lft.to/lastmile_qr_scan"}, "is_reserved": 0, "fusion_lon": 0.0, "fusion_lat": 0.0, "lon": -77.01833283333333, "name": "649acafc7e3bf64e07862454aeeeedd9"}, {"bike_id": "64cbc832481aae8f1161e8228ba38be6", "type": "electric_scooter", "is_disabled": 0, "lat": 38.914014, "rental_uris": {"ios": "https://dc.lft.to/lastmile_qr_scan", "android": "https://dc.lft.to/lastmile_qr_scan"}, "is_reserved": 0, "fusion_lon": 0.0, "fusion_lat": 0.0, "lon": -77.03211666666667, "name": "64cbc832481aae8f1161e8228ba38be6"}, {"bike_id": "ee97c692285968e0d3817ddc9350d2c5", "type": "electric_scooter", "is_disabled": 0, "lat": 38.8946815, "rental_uris": {"ios": "https://dc.lft.to/lastmile_qr_scan", "android": "https://dc.lft.to/lastmile_qr_scan"}, "is_reserved": 0, "fusion_lon": 0.0, "fusion_lat": 0.0, "lon": -77.021826, "name": "ee97c692285968e0d3817ddc9350d2c5"}, {"bike_id": "891f65cc87918c042c424d9019768ed5", "type": "electric_scooter", "is_disabled": 0, "lat": 38.90452466666667, "rental_uris": {"ios": "https://dc.lft.to/lastmile_qr_scan", "android": "https://dc.lft.to/lastmile_qr_scan"}, "is_reserved": 0, "fusion_lon": 0.0, "fusion_lat": 0.0, "lon": -77.053314, "name": "891f65cc87918c042c424d9019768ed5"}, {"bike_id": "1a18f641b1bb040686c376b8be17f026", "type": "electric_scooter", "is_disabled": 0, "lat": 38.92147933333333, "rental_uris": {"ios": "https://dc.lft.to/lastmile_qr_scan", "android": "https://dc.lft.to/lastmile_qr_scan"}, "is_reserved": 0, "fusion_lon": 0.0, "fusion_lat": 0.0, "lon": -77.03378266666667, "name": "1a18f641b1bb040686c376b8be17f026"}, {"bike_id": "2de7f3fcf1679497d1795daa6cf9cf61", "type": "electric_scooter", "is_disabled": 0, "lat": 38.872874833333334, "rental_uris": {"ios": "https://dc.lft.to/lastmile_qr_scan", "android": "https://dc.lft.to/lastmile_qr_scan"}, "is_reserved": 0, "fusion_lon": 0.0, "fusion_lat": 0.0, "lon": -77.00986083333333, "name": "2de7f3fcf1679497d1795daa6cf9cf61"}, {"bike_id": "bb7d57a650f315704641422e86e768d5", "type": "electric_scooter", "is_disabled": 0, "lat": 38.881838333333334, "rental_uris": {"ios": "https://dc.lft.to/lastmile_qr_scan", "android": "https://dc.lft.to/lastmile_qr_scan"}, "is_reserved": 0, "fusion_lon": 0.0, "fusion_lat": 0.0, "lon": -77.02078566666667, "name": "bb7d57a650f315704641422e86e768d5"}, {"bike_id": "08dd7b7609a0181956eb44893588b60d", "type": "electric_scooter", "is_disabled": 0, "lat": 38.91419233333333, "rental_uris": {"ios": "https://dc.lft.to/lastmile_qr_scan", "android": "https://dc.lft.to/lastmile_qr_scan"}, "is_reserved": 0, "fusion_lon": 0.0, "fusion_lat": 0.0, "lon": -77.0180515, "name": "08dd7b7609a0181956eb44893588b60d"}, {"bike_id": "f7fdac27a8a0b49a55a97c0914a1dedd", "type": "electric_scooter", "is_disabled": 0, "lat": 38.924467166666666, "rental_uris": {"ios": "https://dc.lft.to/lastmile_qr_scan", "android": "https://dc.lft.to/lastmile_qr_scan"}, "is_reserved": 0, "fusion_lon": 0.0, "fusion_lat": 0.0, "lon": -77.03339, "name": "f7fdac27a8a0b49a55a97c0914a1dedd"}, {"bike_id": "51ce1eb5ed2c4b7db455178d79ef5af4", "type": "electric_scooter", "is_disabled": 0, "lat": 38.88131033333333, "rental_uris": {"ios": "https://dc.lft.to/lastmile_qr_scan", "android": "https://dc.lft.to/lastmile_qr_scan"}, "is_reserved": 0, "fusion_lon": 0.0, "fusion_lat": 0.0, "lon": -77.00076466666667, "name": "51ce1eb5ed2c4b7db455178d79ef5af4"}, {"bike_id": "9a998c89d2a5565611d7192dd60dea00", "type": "electric_scooter", "is_disabled": 0, "lat": 38.90478366666667, "rental_uris": {"ios": "https://dc.lft.to/lastmile_qr_scan", "android": "https://dc.lft.to/lastmile_qr_scan"}, "is_reserved": 0, "fusion_lon": 0.0, "fusion_lat": 0.0, "lon": -77.061209, "name": "9a998c89d2a5565611d7192dd60dea00"}, {"bike_id": "b5370047f67c06cdce7445a1dfc46bf8", "type": "electric_scooter", "is_disabled": 0, "lat": 38.898419, "rental_uris": {"ios": "https://dc.lft.to/lastmile_qr_scan", "android": "https://dc.lft.to/lastmile_qr_scan"}, "is_reserved": 0, "fusion_lon": 0.0, "fusion_lat": 0.0, "lon": -76.94632183333333, "name": "b5370047f67c06cdce7445a1dfc46bf8"}, {"bike_id": "42271d88699dc2654f395de7b4f4025a", "type": "electric_bike", "is_disabled": 0, "lat": 38.796038, "rental_uris": {"ios": "https://dc.lft.to/lastmile_qr_scan", "android": "https://dc.lft.to/lastmile_qr_scan"}, "is_reserved": 0, "fusion_lon": 0.0, "fusion_lat": 0.0, "lon": -76.997418, "name": "42271d88699dc2654f395de7b4f4025a"}, {"bike_id": "2e658815bb5face0b6de03c709b3b94e", "type": "electric_scooter", "is_disabled": 0, "lat": 38.929209666666665, "rental_uris": {"ios": "https://dc.lft.to/lastmile_qr_scan", "android": "https://dc.lft.to/lastmile_qr_scan"}, "is_reserved": 0, "fusion_lon": 0.0, "fusion_lat": 0.0, "lon": -77.03246466666667, "name": "2e658815bb5face0b6de03c709b3b94e"}, {"bike_id": "d10a429f364fe37f51d899318c1ab4c4", "type": "electric_scooter", "is_disabled": 0, "lat": 38.92329066666667, "rental_uris": {"ios": "https://dc.lft.to/lastmile_qr_scan", "android": "https://dc.lft.to/lastmile_qr_scan"}, "is_reserved": 0, "fusion_lon": 0.0, "fusion_lat": 0.0, "lon": -77.05415616666667, "name": "d10a429f364fe37f51d899318c1ab4c4"}, {"bike_id": "a0695b8f1c1445f13c9e3aa0a2226626", "type": "electric_scooter", "is_disabled": 0, "lat": 38.9239045, "rental_uris": {"ios": "https://dc.lft.to/lastmile_qr_scan", "android": "https://dc.lft.to/lastmile_qr_scan"}, "is_reserved": 0, "fusion_lon": 0.0, "fusion_lat": 0.0, "lon": -77.04448533333333, "name": "a0695b8f1c1445f13c9e3aa0a2226626"}, {"bike_id": "3da554b4697ddc0bc1ddf71c81e65d2b", "type": "electric_scooter", "is_disabled": 0, "lat": 38.8953745, "rental_uris": {"ios": "https://dc.lft.to/lastmile_qr_scan", "android": "https://dc.lft.to/lastmile_qr_scan"}, "is_reserved": 0, "fusion_lon": 0.0, "fusion_lat": 0.0, "lon": -77.01144683333334, "name": "3da554b4697ddc0bc1ddf71c81e65d2b"}, {"bike_id": "105838ac36b7daacd2de872e3f1b322f", "type": "electric_bike", "is_disabled": 0, "lat": 38.81507533333333, "rental_uris": {"ios": "https://dc.lft.to/lastmile_qr_scan", "android": "https://dc.lft.to/lastmile_qr_scan"}, "is_reserved": 0, "fusion_lon": 0.0, "fusion_lat": 0.0, "lon": -77.12655716666667, "name": "105838ac36b7daacd2de872e3f1b322f"}, {"bike_id": "b9a8c73dcb6cbfbb2230791143d14267", "type": "electric_scooter", "is_disabled": 0, "lat": 38.90391616666667, "rental_uris": {"ios": "https://dc.lft.to/lastmile_qr_scan", "android": "https://dc.lft.to/lastmile_qr_scan"}, "is_reserved": 0, "fusion_lon": 0.0, "fusion_lat": 0.0, "lon": -77.02491416666666, "name": "b9a8c73dcb6cbfbb2230791143d14267"}, {"bike_id": "401da16067a246deb5bb075407f36f42", "type": "electric_scooter", "is_disabled": 0, "lat": 38.97674516666667, "rental_uris": {"ios": "https://dc.lft.to/lastmile_qr_scan", "android": "https://dc.lft.to/lastmile_qr_scan"}, "is_reserved": 0, "fusion_lon": 0.0, "fusion_lat": 0.0, "lon": -77.01661083333333, "name": "401da16067a246deb5bb075407f36f42"}, {"bike_id": "30a744819d296ad18ada371c0b204a47", "type": "electric_scooter", "is_disabled": 0, "lat": 38.903660333333335, "rental_uris": {"ios": "https://dc.lft.to/lastmile_qr_scan", "android": "https://dc.lft.to/lastmile_qr_scan"}, "is_reserved": 0, "fusion_lon": 0.0, "fusion_lat": 0.0, "lon": -77.022141, "name": "30a744819d296ad18ada371c0b204a47"}, {"bike_id": "af79ab0ff9e791722feededf126fac50", "type": "electric_scooter", "is_disabled": 0, "lat": 38.9215835, "rental_uris": {"ios": "https://dc.lft.to/lastmile_qr_scan", "android": "https://dc.lft.to/lastmile_qr_scan"}, "is_reserved": 0, "fusion_lon": 0.0, "fusion_lat": 0.0, "lon": -77.03333916666666, "name": "af79ab0ff9e791722feededf126fac50"}, {"bike_id": "be1e394d5cffbdd0f6f343555ce0777d", "type": "electric_scooter", "is_disabled": 0, "lat": 38.90576683333333, "rental_uris": {"ios": "https://dc.lft.to/lastmile_qr_scan", "android": "https://dc.lft.to/lastmile_qr_scan"}, "is_reserved": 0, "fusion_lon": 0.0, "fusion_lat": 0.0, "lon": -77.05704883333334, "name": "be1e394d5cffbdd0f6f343555ce0777d"}, {"bike_id": "83554379598b1899297631ee543039ce", "type": "electric_scooter", "is_disabled": 0, "lat": 38.91711033333333, "rental_uris": {"ios": "https://dc.lft.to/lastmile_qr_scan", "android": "https://dc.lft.to/lastmile_qr_scan"}, "is_reserved": 0, "fusion_lon": 0.0, "fusion_lat": 0.0, "lon": -77.02950233333334, "name": "83554379598b1899297631ee543039ce"}, {"bike_id": "c2de459771a97429da8bd353a8bb5e6c", "type": "electric_scooter", "is_disabled": 0, "lat": 38.915029, "rental_uris": {"ios": "https://dc.lft.to/lastmile_qr_scan", "android": "https://dc.lft.to/lastmile_qr_scan"}, "is_reserved": 0, "fusion_lon": 0.0, "fusion_lat": 0.0, "lon": -77.01772716666666, "name": "c2de459771a97429da8bd353a8bb5e6c"}, {"bike_id": "9f5bb7045680e6ae5c8ea226fe1d7adf", "type": "electric_scooter", "is_disabled": 0, "lat": 38.914206666666665, "rental_uris": {"ios": "https://dc.lft.to/lastmile_qr_scan", "android": "https://dc.lft.to/lastmile_qr_scan"}, "is_reserved": 0, "fusion_lon": 0.0, "fusion_lat": 0.0, "lon": -77.02410466666667, "name": "9f5bb7045680e6ae5c8ea226fe1d7adf"}, {"bike_id": "b1c1567eb5f41224c3f10776183e31ea", "type": "electric_scooter", "is_disabled": 0, "lat": 38.866520666666666, "rental_uris": {"ios": "https://dc.lft.to/lastmile_qr_scan", "android": "https://dc.lft.to/lastmile_qr_scan"}, "is_reserved": 0, "fusion_lon": 0.0, "fusion_lat": 0.0, "lon": -76.98882933333333, "name": "b1c1567eb5f41224c3f10776183e31ea"}, {"bike_id": "83dd1b7fe1ee2d6a23fad788e6ec7c06", "type": "electric_scooter", "is_disabled": 0, "lat": 38.904076833333335, "rental_uris": {"ios": "https://dc.lft.to/lastmile_qr_scan", "android": "https://dc.lft.to/lastmile_qr_scan"}, "is_reserved": 0, "fusion_lon": 0.0, "fusion_lat": 0.0, "lon": -76.97332233333333, "name": "83dd1b7fe1ee2d6a23fad788e6ec7c06"}, {"bike_id": "abe5aa23558d18518e67d986d80525ca", "type": "electric_scooter", "is_disabled": 0, "lat": 38.92247233333333, "rental_uris": {"ios": "https://dc.lft.to/lastmile_qr_scan", "android": "https://dc.lft.to/lastmile_qr_scan"}, "is_reserved": 0, "fusion_lon": 0.0, "fusion_lat": 0.0, "lon": -77.0371925, "name": "abe5aa23558d18518e67d986d80525ca"}, {"bike_id": "110576463ca89f1b21c5381a327af7da", "type": "electric_bike", "is_disabled": 0, "lat": 38.94734033333334, "rental_uris": {"ios": "https://dc.lft.to/lastmile_qr_scan", "android": "https://dc.lft.to/lastmile_qr_scan"}, "is_reserved": 0, "fusion_lon": 0.0, "fusion_lat": 0.0, "lon": -76.99583583333333, "name": "110576463ca89f1b21c5381a327af7da"}, {"bike_id": "44f53d7a4843e56f4d07f38b119f6f19", "type": "electric_scooter", "is_disabled": 0, "lat": 38.94177533333333, "rental_uris": {"ios": "https://dc.lft.to/lastmile_qr_scan", "android": "https://dc.lft.to/lastmile_qr_scan"}, "is_reserved": 0, "fusion_lon": 0.0, "fusion_lat": 0.0, "lon": -77.02527033333334, "name": "44f53d7a4843e56f4d07f38b119f6f19"}, {"bike_id": "07a505074c0f6786678d6ecc9bca62cf", "type": "electric_bike", "is_disabled": 0, "lat": 38.849288, "rental_uris": {"ios": "https://dc.lft.to/lastmile_qr_scan", "android": "https://dc.lft.to/lastmile_qr_scan"}, "is_reserved": 0, "fusion_lon": 0.0, "fusion_lat": 0.0, "lon": -77.100145, "name": "07a505074c0f6786678d6ecc9bca62cf"}, {"bike_id": "2d160f4607dbc9e646a1fe9cbb382794", "type": "electric_scooter", "is_disabled": 0, "lat": 38.86694116666666, "rental_uris": {"ios": "https://dc.lft.to/lastmile_qr_scan", "android": "https://dc.lft.to/lastmile_qr_scan"}, "is_reserved": 0, "fusion_lon": 0.0, "fusion_lat": 0.0, "lon": -76.98709683333334, "name": "2d160f4607dbc9e646a1fe9cbb382794"}, {"bike_id": "b65ffb5314d6a93b6b687b74be45ec72", "type": "electric_scooter", "is_disabled": 0, "lat": 38.85747716666667, "rental_uris": {"ios": "https://dc.lft.to/lastmile_qr_scan", "android": "https://dc.lft.to/lastmile_qr_scan"}, "is_reserved": 0, "fusion_lon": 0.0, "fusion_lat": 0.0, "lon": -76.993069, "name": "b65ffb5314d6a93b6b687b74be45ec72"}, {"bike_id": "819a496b51570f06e6349b6ae1d26640", "type": "electric_scooter", "is_disabled": 0, "lat": 38.9350805, "rental_uris": {"ios": "https://dc.lft.to/lastmile_qr_scan", "android": "https://dc.lft.to/lastmile_qr_scan"}, "is_reserved": 0, "fusion_lon": 0.0, "fusion_lat": 0.0, "lon": -77.0329185, "name": "819a496b51570f06e6349b6ae1d26640"}, {"bike_id": "225c3c2f7159a1890e7ac1852e2e2ab7", "type": "electric_bike", "is_disabled": 0, "lat": 38.930798, "rental_uris": {"ios": "https://dc.lft.to/lastmile_qr_scan", "android": "https://dc.lft.to/lastmile_qr_scan"}, "is_reserved": 0, "fusion_lon": 0.0, "fusion_lat": 0.0, "lon": -77.01989866666666, "name": "225c3c2f7159a1890e7ac1852e2e2ab7"}, {"bike_id": "3b3c75018d115ecd2269608d9bed2b74", "type": "electric_scooter", "is_disabled": 0, "lat": 38.858373, "rental_uris": {"ios": "https://dc.lft.to/lastmile_qr_scan", "android": "https://dc.lft.to/lastmile_qr_scan"}, "is_reserved": 0, "fusion_lon": 0.0, "fusion_lat": 0.0, "lon": -76.98730483333334, "name": "3b3c75018d115ecd2269608d9bed2b74"}, {"bike_id": "a5f706c6e04d84b8e61a79fd8f6f5ca4", "type": "electric_scooter", "is_disabled": 0, "lat": 38.90536316666667, "rental_uris": {"ios": "https://dc.lft.to/lastmile_qr_scan", "android": "https://dc.lft.to/lastmile_qr_scan"}, "is_reserved": 0, "fusion_lon": 0.0, "fusion_lat": 0.0, "lon": -76.98626916666667, "name": "a5f706c6e04d84b8e61a79fd8f6f5ca4"}, {"bike_id": "ce39a13302c42e88ebc7f2c1bfb94a23", "type": "electric_scooter", "is_disabled": 0, "lat": 38.906007333333335, "rental_uris": {"ios": "https://dc.lft.to/lastmile_qr_scan", "android": "https://dc.lft.to/lastmile_qr_scan"}, "is_reserved": 0, "fusion_lon": 0.0, "fusion_lat": 0.0, "lon": -77.04002866666667, "name": "ce39a13302c42e88ebc7f2c1bfb94a23"}, {"bike_id": "60034de8fdd323608611e3d7f744f323", "type": "electric_scooter", "is_disabled": 0, "lat": 38.9216065, "rental_uris": {"ios": "https://dc.lft.to/lastmile_qr_scan", "android": "https://dc.lft.to/lastmile_qr_scan"}, "is_reserved": 0, "fusion_lon": 0.0, "fusion_lat": 0.0, "lon": -77.03846716666666, "name": "60034de8fdd323608611e3d7f744f323"}, {"bike_id": "c39f77e69086dd8bbf48dbb303428d12", "type": "electric_scooter", "is_disabled": 0, "lat": 38.89718, "rental_uris": {"ios": "https://dc.lft.to/lastmile_qr_scan", "android": "https://dc.lft.to/lastmile_qr_scan"}, "is_reserved": 0, "fusion_lon": 0.0, "fusion_lat": 0.0, "lon": -76.98835666666666, "name": "c39f77e69086dd8bbf48dbb303428d12"}, {"bike_id": "5f182c50dca44aca3f8ffae09afd20cc", "type": "electric_scooter", "is_disabled": 0, "lat": 38.922494666666665, "rental_uris": {"ios": "https://dc.lft.to/lastmile_qr_scan", "android": "https://dc.lft.to/lastmile_qr_scan"}, "is_reserved": 0, "fusion_lon": 0.0, "fusion_lat": 0.0, "lon": -77.01969633333333, "name": "5f182c50dca44aca3f8ffae09afd20cc"}, {"bike_id": "1d5ce1a2c010f4c06cab7603952630ee", "type": "electric_scooter", "is_disabled": 0, "lat": 38.92245666666667, "rental_uris": {"ios": "https://dc.lft.to/lastmile_qr_scan", "android": "https://dc.lft.to/lastmile_qr_scan"}, "is_reserved": 0, "fusion_lon": 0.0, "fusion_lat": 0.0, "lon": -77.07370666666667, "name": "1d5ce1a2c010f4c06cab7603952630ee"}, {"bike_id": "f62b374802e044a240ea514b2664733e", "type": "electric_scooter", "is_disabled": 0, "lat": 38.8947895, "rental_uris": {"ios": "https://dc.lft.to/lastmile_qr_scan", "android": "https://dc.lft.to/lastmile_qr_scan"}, "is_reserved": 0, "fusion_lon": 0.0, "fusion_lat": 0.0, "lon": -76.99517183333333, "name": "f62b374802e044a240ea514b2664733e"}, {"bike_id": "f5c2841cf4cd7451c58f72fd1e03847c", "type": "electric_scooter", "is_disabled": 0, "lat": 38.93113983333333, "rental_uris": {"ios": "https://dc.lft.to/lastmile_qr_scan", "android": "https://dc.lft.to/lastmile_qr_scan"}, "is_reserved": 0, "fusion_lon": 0.0, "fusion_lat": 0.0, "lon": -77.03023416666667, "name": "f5c2841cf4cd7451c58f72fd1e03847c"}, {"bike_id": "af799a3a493ddf4612f66c3af4dda6af", "type": "electric_scooter", "is_disabled": 0, "lat": 38.93342, "rental_uris": {"ios": "https://dc.lft.to/lastmile_qr_scan", "android": "https://dc.lft.to/lastmile_qr_scan"}, "is_reserved": 0, "fusion_lon": 0.0, "fusion_lat": 0.0, "lon": -77.06200983333333, "name": "af799a3a493ddf4612f66c3af4dda6af"}, {"bike_id": "1c02298856b89159348e8aff5d3ab340", "type": "electric_scooter", "is_disabled": 0, "lat": 38.9014605, "rental_uris": {"ios": "https://dc.lft.to/lastmile_qr_scan", "android": "https://dc.lft.to/lastmile_qr_scan"}, "is_reserved": 0, "fusion_lon": 0.0, "fusion_lat": 0.0, "lon": -77.02007866666666, "name": "1c02298856b89159348e8aff5d3ab340"}, {"bike_id": "57e240d010eb9281662daceca698d3c7", "type": "electric_scooter", "is_disabled": 0, "lat": 38.90058916666667, "rental_uris": {"ios": "https://dc.lft.to/lastmile_qr_scan", "android": "https://dc.lft.to/lastmile_qr_scan"}, "is_reserved": 0, "fusion_lon": 0.0, "fusion_lat": 0.0, "lon": -77.0500585, "name": "57e240d010eb9281662daceca698d3c7"}, {"bike_id": "d0753ff326d86a9d9888a92cf7c914ff", "type": "electric_scooter", "is_disabled": 0, "lat": 38.89616633333333, "rental_uris": {"ios": "https://dc.lft.to/lastmile_qr_scan", "android": "https://dc.lft.to/lastmile_qr_scan"}, "is_reserved": 0, "fusion_lon": 0.0, "fusion_lat": 0.0, "lon": -77.02585466666666, "name": "d0753ff326d86a9d9888a92cf7c914ff"}, {"bike_id": "5a306810b9a261827e8669b00c19dc44", "type": "electric_scooter", "is_disabled": 0, "lat": 38.91739533333333, "rental_uris": {"ios": "https://dc.lft.to/lastmile_qr_scan", "android": "https://dc.lft.to/lastmile_qr_scan"}, "is_reserved": 0, "fusion_lon": 0.0, "fusion_lat": 0.0, "lon": -77.03182416666667, "name": "5a306810b9a261827e8669b00c19dc44"}, {"bike_id": "456a236141dd51283abdf7bab08ac83d", "type": "electric_scooter", "is_disabled": 0, "lat": 38.90669716666667, "rental_uris": {"ios": "https://dc.lft.to/lastmile_qr_scan", "android": "https://dc.lft.to/lastmile_qr_scan"}, "is_reserved": 0, "fusion_lon": 0.0, "fusion_lat": 0.0, "lon": -77.02712783333334, "name": "456a236141dd51283abdf7bab08ac83d"}, {"bike_id": "db9d40338e5c881f31493ff3caf0aa5f", "type": "electric_scooter", "is_disabled": 0, "lat": 38.902289, "rental_uris": {"ios": "https://dc.lft.to/lastmile_qr_scan", "android": "https://dc.lft.to/lastmile_qr_scan"}, "is_reserved": 0, "fusion_lon": 0.0, "fusion_lat": 0.0, "lon": -77.029821, "name": "db9d40338e5c881f31493ff3caf0aa5f"}, {"bike_id": "92a5f1523775245ae86bad59bb90360b", "type": "electric_scooter", "is_disabled": 0, "lat": 38.900814, "rental_uris": {"ios": "https://dc.lft.to/lastmile_qr_scan", "android": "https://dc.lft.to/lastmile_qr_scan"}, "is_reserved": 0, "fusion_lon": 0.0, "fusion_lat": 0.0, "lon": -77.048299, "name": "92a5f1523775245ae86bad59bb90360b"}, {"bike_id": "6abaa5f44df8dee96db66ab6bfebf6ae", "type": "electric_scooter", "is_disabled": 0, "lat": 38.92124416666667, "rental_uris": {"ios": "https://dc.lft.to/lastmile_qr_scan", "android": "https://dc.lft.to/lastmile_qr_scan"}, "is_reserved": 0, "fusion_lon": 0.0, "fusion_lat": 0.0, "lon": -77.02715866666666, "name": "6abaa5f44df8dee96db66ab6bfebf6ae"}, {"bike_id": "3c93f776395b4d6c88c3d4cd34951508", "type": "electric_scooter", "is_disabled": 0, "lat": 38.9339745, "rental_uris": {"ios": "https://dc.lft.to/lastmile_qr_scan", "android": "https://dc.lft.to/lastmile_qr_scan"}, "is_reserved": 0, "fusion_lon": 0.0, "fusion_lat": 0.0, "lon": -77.05742166666667, "name": "3c93f776395b4d6c88c3d4cd34951508"}, {"bike_id": "9ae7c62a289194946fb488e1c4403d96", "type": "electric_scooter", "is_disabled": 0, "lat": 38.9644095, "rental_uris": {"ios": "https://dc.lft.to/lastmile_qr_scan", "android": "https://dc.lft.to/lastmile_qr_scan"}, "is_reserved": 0, "fusion_lon": 0.0, "fusion_lat": 0.0, "lon": -77.02066783333333, "name": "9ae7c62a289194946fb488e1c4403d96"}, {"bike_id": "d3cd25ed94446a727fb6001afe118105", "type": "electric_scooter", "is_disabled": 0, "lat": 38.916314666666665, "rental_uris": {"ios": "https://dc.lft.to/lastmile_qr_scan", "android": "https://dc.lft.to/lastmile_qr_scan"}, "is_reserved": 0, "fusion_lon": 0.0, "fusion_lat": 0.0, "lon": -77.02548783333333, "name": "d3cd25ed94446a727fb6001afe118105"}, {"bike_id": "7824fe392fd9fe350d272461f0cf482a", "type": "electric_scooter", "is_disabled": 0, "lat": 38.88406366666667, "rental_uris": {"ios": "https://dc.lft.to/lastmile_qr_scan", "android": "https://dc.lft.to/lastmile_qr_scan"}, "is_reserved": 0, "fusion_lon": 0.0, "fusion_lat": 0.0, "lon": -76.94826883333333, "name": "7824fe392fd9fe350d272461f0cf482a"}, {"bike_id": "757e0e631d086ad35118aae7c2c4f500", "type": "electric_scooter", "is_disabled": 0, "lat": 38.91418066666667, "rental_uris": {"ios": "https://dc.lft.to/lastmile_qr_scan", "android": "https://dc.lft.to/lastmile_qr_scan"}, "is_reserved": 0, "fusion_lon": 0.0, "fusion_lat": 0.0, "lon": -77.01987433333333, "name": "757e0e631d086ad35118aae7c2c4f500"}, {"bike_id": "139954c4dd5bbaab84928a427663c1a0", "type": "electric_bike", "is_disabled": 0, "lat": 38.88674983333333, "rental_uris": {"ios": "https://dc.lft.to/lastmile_qr_scan", "android": "https://dc.lft.to/lastmile_qr_scan"}, "is_reserved": 0, "fusion_lon": 0.0, "fusion_lat": 0.0, "lon": -77.16241983333333, "name": "139954c4dd5bbaab84928a427663c1a0"}, {"bike_id": "bcb64ef40ad0af7411d0ba7f338149d4", "type": "electric_scooter", "is_disabled": 0, "lat": 38.898356166666666, "rental_uris": {"ios": "https://dc.lft.to/lastmile_qr_scan", "android": "https://dc.lft.to/lastmile_qr_scan"}, "is_reserved": 0, "fusion_lon": 0.0, "fusion_lat": 0.0, "lon": -77.02253666666667, "name": "bcb64ef40ad0af7411d0ba7f338149d4"}, {"bike_id": "55bc4b486e9dc61aa3c278eec3a9061b", "type": "electric_bike", "is_disabled": 0, "lat": 38.836036, "rental_uris": {"ios": "https://dc.lft.to/lastmile_qr_scan", "android": "https://dc.lft.to/lastmile_qr_scan"}, "is_reserved": 0, "fusion_lon": 0.0, "fusion_lat": 0.0, "lon": -77.00377833333333, "name": "55bc4b486e9dc61aa3c278eec3a9061b"}, {"bike_id": "58e054d9d57db03fd005537f5b558f46", "type": "electric_scooter", "is_disabled": 0, "lat": 38.9223635, "rental_uris": {"ios": "https://dc.lft.to/lastmile_qr_scan", "android": "https://dc.lft.to/lastmile_qr_scan"}, "is_reserved": 0, "fusion_lon": 0.0, "fusion_lat": 0.0, "lon": -77.04249633333333, "name": "58e054d9d57db03fd005537f5b558f46"}, {"bike_id": "e4930e6af9f783faebf7a1ff9b7f4d59", "type": "electric_scooter", "is_disabled": 0, "lat": 38.916897666666664, "rental_uris": {"ios": "https://dc.lft.to/lastmile_qr_scan", "android": "https://dc.lft.to/lastmile_qr_scan"}, "is_reserved": 0, "fusion_lon": 0.0, "fusion_lat": 0.0, "lon": -77.0410195, "name": "e4930e6af9f783faebf7a1ff9b7f4d59"}, {"bike_id": "31fee259cf78432470203b31588a94a1", "type": "electric_scooter", "is_disabled": 0, "lat": 38.90672933333333, "rental_uris": {"ios": "https://dc.lft.to/lastmile_qr_scan", "android": "https://dc.lft.to/lastmile_qr_scan"}, "is_reserved": 0, "fusion_lon": 0.0, "fusion_lat": 0.0, "lon": -77.0270865, "name": "31fee259cf78432470203b31588a94a1"}, {"bike_id": "755c638bea5f276c1a2d8de29832bc11", "type": "electric_scooter", "is_disabled": 0, "lat": 38.9011075, "rental_uris": {"ios": "https://dc.lft.to/lastmile_qr_scan", "android": "https://dc.lft.to/lastmile_qr_scan"}, "is_reserved": 0, "fusion_lon": 0.0, "fusion_lat": 0.0, "lon": -77.03853116666667, "name": "755c638bea5f276c1a2d8de29832bc11"}, {"bike_id": "7a7c76aa668c0f5375cdecd33f89fedd", "type": "electric_scooter", "is_disabled": 0, "lat": 38.92237083333333, "rental_uris": {"ios": "https://dc.lft.to/lastmile_qr_scan", "android": "https://dc.lft.to/lastmile_qr_scan"}, "is_reserved": 0, "fusion_lon": 0.0, "fusion_lat": 0.0, "lon": -77.02981333333334, "name": "7a7c76aa668c0f5375cdecd33f89fedd"}, {"bike_id": "4f1b3b18f678a8591a506d2706e70854", "type": "electric_scooter", "is_disabled": 0, "lat": 38.939471, "rental_uris": {"ios": "https://dc.lft.to/lastmile_qr_scan", "android": "https://dc.lft.to/lastmile_qr_scan"}, "is_reserved": 0, "fusion_lon": 0.0, "fusion_lat": 0.0, "lon": -77.0725095, "name": "4f1b3b18f678a8591a506d2706e70854"}, {"bike_id": "65054d6f71e6e40dbf16c40af6dc1512", "type": "electric_scooter", "is_disabled": 0, "lat": 38.893296666666664, "rental_uris": {"ios": "https://dc.lft.to/lastmile_qr_scan", "android": "https://dc.lft.to/lastmile_qr_scan"}, "is_reserved": 0, "fusion_lon": 0.0, "fusion_lat": 0.0, "lon": -76.95053533333333, "name": "65054d6f71e6e40dbf16c40af6dc1512"}, {"bike_id": "5cc1670ef04fd8c67bd4ec22b32ecaf6", "type": "electric_scooter", "is_disabled": 0, "lat": 38.919282, "rental_uris": {"ios": "https://dc.lft.to/lastmile_qr_scan", "android": "https://dc.lft.to/lastmile_qr_scan"}, "is_reserved": 0, "fusion_lon": 0.0, "fusion_lat": 0.0, "lon": -77.02424, "name": "5cc1670ef04fd8c67bd4ec22b32ecaf6"}, {"bike_id": "ad98f6fd2f47e6dde2fe1f977492b40a", "type": "electric_scooter", "is_disabled": 0, "lat": 38.87387566666666, "rental_uris": {"ios": "https://dc.lft.to/lastmile_qr_scan", "android": "https://dc.lft.to/lastmile_qr_scan"}, "is_reserved": 0, "fusion_lon": 0.0, "fusion_lat": 0.0, "lon": -77.04335366666666, "name": "ad98f6fd2f47e6dde2fe1f977492b40a"}, {"bike_id": "7f70f88dd4f235c634dcacd607611eb4", "type": "electric_scooter", "is_disabled": 0, "lat": 38.921129, "rental_uris": {"ios": "https://dc.lft.to/lastmile_qr_scan", "android": "https://dc.lft.to/lastmile_qr_scan"}, "is_reserved": 0, "fusion_lon": 0.0, "fusion_lat": 0.0, "lon": -77.04212533333333, "name": "7f70f88dd4f235c634dcacd607611eb4"}, {"bike_id": "974c67764e12cc0a4c97c622f1dadff5", "type": "electric_bike", "is_disabled": 0, "lat": 38.83426, "rental_uris": {"ios": "https://dc.lft.to/lastmile_qr_scan", "android": "https://dc.lft.to/lastmile_qr_scan"}, "is_reserved": 0, "fusion_lon": 0.0, "fusion_lat": 0.0, "lon": -77.0588115, "name": "974c67764e12cc0a4c97c622f1dadff5"}, {"bike_id": "f522931bfa5ce6439d5aa91e1e326bdb", "type": "electric_scooter", "is_disabled": 0, "lat": 38.900875, "rental_uris": {"ios": "https://dc.lft.to/lastmile_qr_scan", "android": "https://dc.lft.to/lastmile_qr_scan"}, "is_reserved": 0, "fusion_lon": 0.0, "fusion_lat": 0.0, "lon": -76.98338166666667, "name": "f522931bfa5ce6439d5aa91e1e326bdb"}, {"bike_id": "3ed89dcc7b6330928ac0445dcd9c41a1", "type": "electric_scooter", "is_disabled": 0, "lat": 38.93672316666667, "rental_uris": {"ios": "https://dc.lft.to/lastmile_qr_scan", "android": "https://dc.lft.to/lastmile_qr_scan"}, "is_reserved": 0, "fusion_lon": 0.0, "fusion_lat": 0.0, "lon": -77.024424, "name": "3ed89dcc7b6330928ac0445dcd9c41a1"}, {"bike_id": "446d21212e22a84f1d3a47b420aab225", "type": "electric_scooter", "is_disabled": 0, "lat": 38.88032583333333, "rental_uris": {"ios": "https://dc.lft.to/lastmile_qr_scan", "android": "https://dc.lft.to/lastmile_qr_scan"}, "is_reserved": 0, "fusion_lon": 0.0, "fusion_lat": 0.0, "lon": -77.02499216666666, "name": "446d21212e22a84f1d3a47b420aab225"}, {"bike_id": "0b36562e8f62e49addc3c49b14711d2d", "type": "electric_scooter", "is_disabled": 0, "lat": 38.88745183333333, "rental_uris": {"ios": "https://dc.lft.to/lastmile_qr_scan", "android": "https://dc.lft.to/lastmile_qr_scan"}, "is_reserved": 0, "fusion_lon": 0.0, "fusion_lat": 0.0, "lon": -77.028451, "name": "0b36562e8f62e49addc3c49b14711d2d"}, {"bike_id": "22772d251c4f949541f92fc22efe9c2a", "type": "electric_scooter", "is_disabled": 0, "lat": 38.922455666666664, "rental_uris": {"ios": "https://dc.lft.to/lastmile_qr_scan", "android": "https://dc.lft.to/lastmile_qr_scan"}, "is_reserved": 0, "fusion_lon": 0.0, "fusion_lat": 0.0, "lon": -77.04256833333334, "name": "22772d251c4f949541f92fc22efe9c2a"}, {"bike_id": "aafb6554558c4d5a089c131bd9613de3", "type": "electric_scooter", "is_disabled": 0, "lat": 38.90138616666667, "rental_uris": {"ios": "https://dc.lft.to/lastmile_qr_scan", "android": "https://dc.lft.to/lastmile_qr_scan"}, "is_reserved": 0, "fusion_lon": 0.0, "fusion_lat": 0.0, "lon": -77.060762, "name": "aafb6554558c4d5a089c131bd9613de3"}, {"bike_id": "633f97e287c5ff395f390ed26c8a3717", "type": "electric_scooter", "is_disabled": 0, "lat": 38.905648, "rental_uris": {"ios": "https://dc.lft.to/lastmile_qr_scan", "android": "https://dc.lft.to/lastmile_qr_scan"}, "is_reserved": 0, "fusion_lon": 0.0, "fusion_lat": 0.0, "lon": -77.04286683333333, "name": "633f97e287c5ff395f390ed26c8a3717"}, {"bike_id": "e52e0b22fa10b9b02e2c04b846f6a13e", "type": "electric_scooter", "is_disabled": 0, "lat": 38.922391, "rental_uris": {"ios": "https://dc.lft.to/lastmile_qr_scan", "android": "https://dc.lft.to/lastmile_qr_scan"}, "is_reserved": 0, "fusion_lon": 0.0, "fusion_lat": 0.0, "lon": -77.036607, "name": "e52e0b22fa10b9b02e2c04b846f6a13e"}, {"bike_id": "30ea53beafff2723018f2781363b62eb", "type": "electric_scooter", "is_disabled": 0, "lat": 38.91855433333333, "rental_uris": {"ios": "https://dc.lft.to/lastmile_qr_scan", "android": "https://dc.lft.to/lastmile_qr_scan"}, "is_reserved": 0, "fusion_lon": 0.0, "fusion_lat": 0.0, "lon": -77.04099933333333, "name": "30ea53beafff2723018f2781363b62eb"}, {"bike_id": "63602492521924c20a0db6e017988790", "type": "electric_scooter", "is_disabled": 0, "lat": 38.922469166666666, "rental_uris": {"ios": "https://dc.lft.to/lastmile_qr_scan", "android": "https://dc.lft.to/lastmile_qr_scan"}, "is_reserved": 0, "fusion_lon": 0.0, "fusion_lat": 0.0, "lon": -77.04199583333333, "name": "63602492521924c20a0db6e017988790"}, {"bike_id": "0e8ec7d3aa00047aab1089894ecfe13c", "type": "electric_scooter", "is_disabled": 0, "lat": 38.899163333333334, "rental_uris": {"ios": "https://dc.lft.to/lastmile_qr_scan", "android": "https://dc.lft.to/lastmile_qr_scan"}, "is_reserved": 0, "fusion_lon": 0.0, "fusion_lat": 0.0, "lon": -76.93365716666666, "name": "0e8ec7d3aa00047aab1089894ecfe13c"}, {"bike_id": "0c0d543e6ba0233c3f979472301e8fe4", "type": "electric_scooter", "is_disabled": 0, "lat": 38.90505233333333, "rental_uris": {"ios": "https://dc.lft.to/lastmile_qr_scan", "android": "https://dc.lft.to/lastmile_qr_scan"}, "is_reserved": 0, "fusion_lon": 0.0, "fusion_lat": 0.0, "lon": -77.0294485, "name": "0c0d543e6ba0233c3f979472301e8fe4"}, {"bike_id": "b983e6d0d33d6c2e9168e3c34cab90cf", "type": "electric_scooter", "is_disabled": 0, "lat": 38.91093333333333, "rental_uris": {"ios": "https://dc.lft.to/lastmile_qr_scan", "android": "https://dc.lft.to/lastmile_qr_scan"}, "is_reserved": 0, "fusion_lon": 0.0, "fusion_lat": 0.0, "lon": -77.01680133333333, "name": "b983e6d0d33d6c2e9168e3c34cab90cf"}, {"bike_id": "8ece0ccf6b9fa970400532b1730e6d9c", "type": "electric_scooter", "is_disabled": 0, "lat": 38.93456166666667, "rental_uris": {"ios": "https://dc.lft.to/lastmile_qr_scan", "android": "https://dc.lft.to/lastmile_qr_scan"}, "is_reserved": 0, "fusion_lon": 0.0, "fusion_lat": 0.0, "lon": -77.0453655, "name": "8ece0ccf6b9fa970400532b1730e6d9c"}, {"bike_id": "c21942acdda2e1c3d68fb26aa0aaded1", "type": "electric_scooter", "is_disabled": 0, "lat": 38.91950716666667, "rental_uris": {"ios": "https://dc.lft.to/lastmile_qr_scan", "android": "https://dc.lft.to/lastmile_qr_scan"}, "is_reserved": 0, "fusion_lon": 0.0, "fusion_lat": 0.0, "lon": -77.04154016666666, "name": "c21942acdda2e1c3d68fb26aa0aaded1"}, {"bike_id": "a3e60b509e593e3d2268f6b5bf3dbd3a", "type": "electric_bike", "is_disabled": 0, "lat": 38.9223515, "rental_uris": {"ios": "https://dc.lft.to/lastmile_qr_scan", "android": "https://dc.lft.to/lastmile_qr_scan"}, "is_reserved": 0, "fusion_lon": 0.0, "fusion_lat": 0.0, "lon": -77.04482416666667, "name": "a3e60b509e593e3d2268f6b5bf3dbd3a"}, {"bike_id": "df726a37df8e6ed5a4f3f655898cb7f1", "type": "electric_scooter", "is_disabled": 0, "lat": 38.910870833333334, "rental_uris": {"ios": "https://dc.lft.to/lastmile_qr_scan", "android": "https://dc.lft.to/lastmile_qr_scan"}, "is_reserved": 0, "fusion_lon": 0.0, "fusion_lat": 0.0, "lon": -77.02401683333333, "name": "df726a37df8e6ed5a4f3f655898cb7f1"}, {"bike_id": "a2333efe241de42d0feda26cc738263f", "type": "electric_scooter", "is_disabled": 0, "lat": 38.9136105, "rental_uris": {"ios": "https://dc.lft.to/lastmile_qr_scan", "android": "https://dc.lft.to/lastmile_qr_scan"}, "is_reserved": 0, "fusion_lon": 0.0, "fusion_lat": 0.0, "lon": -77.01997383333334, "name": "a2333efe241de42d0feda26cc738263f"}, {"bike_id": "6b06c691d7dc0c3b608a6a43ea9d87b3", "type": "electric_scooter", "is_disabled": 0, "lat": 38.882773, "rental_uris": {"ios": "https://dc.lft.to/lastmile_qr_scan", "android": "https://dc.lft.to/lastmile_qr_scan"}, "is_reserved": 0, "fusion_lon": 0.0, "fusion_lat": 0.0, "lon": -77.02143416666667, "name": "6b06c691d7dc0c3b608a6a43ea9d87b3"}, {"bike_id": "2cbb23f2295366ed82132f1dc2807929", "type": "electric_scooter", "is_disabled": 0, "lat": 38.94469616666667, "rental_uris": {"ios": "https://dc.lft.to/lastmile_qr_scan", "android": "https://dc.lft.to/lastmile_qr_scan"}, "is_reserved": 0, "fusion_lon": 0.0, "fusion_lat": 0.0, "lon": -77.02339866666667, "name": "2cbb23f2295366ed82132f1dc2807929"}, {"bike_id": "a04fec863a53dfae66fa3cc46b3faa6d", "type": "electric_bike", "is_disabled": 0, "lat": 38.865093333333334, "rental_uris": {"ios": "https://dc.lft.to/lastmile_qr_scan", "android": "https://dc.lft.to/lastmile_qr_scan"}, "is_reserved": 0, "fusion_lon": 0.0, "fusion_lat": 0.0, "lon": -77.129378, "name": "a04fec863a53dfae66fa3cc46b3faa6d"}, {"bike_id": "893cc5f3cdb778d55a3ac60098e7578c", "type": "electric_scooter", "is_disabled": 0, "lat": 38.90845066666667, "rental_uris": {"ios": "https://dc.lft.to/lastmile_qr_scan", "android": "https://dc.lft.to/lastmile_qr_scan"}, "is_reserved": 0, "fusion_lon": 0.0, "fusion_lat": 0.0, "lon": -77.02058433333333, "name": "893cc5f3cdb778d55a3ac60098e7578c"}, {"bike_id": "e08aa6ff55473fdce082243b82be28d6", "type": "electric_scooter", "is_disabled": 0, "lat": 38.91551316666666, "rental_uris": {"ios": "https://dc.lft.to/lastmile_qr_scan", "android": "https://dc.lft.to/lastmile_qr_scan"}, "is_reserved": 0, "fusion_lon": 0.0, "fusion_lat": 0.0, "lon": -77.02137933333333, "name": "e08aa6ff55473fdce082243b82be28d6"}, {"bike_id": "016fd821d36a41b3e07c18082bd575cf", "type": "electric_bike", "is_disabled": 0, "lat": 38.8039195, "rental_uris": {"ios": "https://dc.lft.to/lastmile_qr_scan", "android": "https://dc.lft.to/lastmile_qr_scan"}, "is_reserved": 0, "fusion_lon": 0.0, "fusion_lat": 0.0, "lon": -77.05562666666667, "name": "016fd821d36a41b3e07c18082bd575cf"}, {"bike_id": "05f326f650617136f55cf5822716556f", "type": "electric_scooter", "is_disabled": 0, "lat": 38.914923333333334, "rental_uris": {"ios": "https://dc.lft.to/lastmile_qr_scan", "android": "https://dc.lft.to/lastmile_qr_scan"}, "is_reserved": 0, "fusion_lon": 0.0, "fusion_lat": 0.0, "lon": -77.031791, "name": "05f326f650617136f55cf5822716556f"}, {"bike_id": "f81438696532f8efe56b00223d0b14c2", "type": "electric_scooter", "is_disabled": 0, "lat": 38.88206366666667, "rental_uris": {"ios": "https://dc.lft.to/lastmile_qr_scan", "android": "https://dc.lft.to/lastmile_qr_scan"}, "is_reserved": 0, "fusion_lon": 0.0, "fusion_lat": 0.0, "lon": -77.02898, "name": "f81438696532f8efe56b00223d0b14c2"}, {"bike_id": "1940cb6c53385bed90de58a9871c047b", "type": "electric_scooter", "is_disabled": 0, "lat": 38.90188533333333, "rental_uris": {"ios": "https://dc.lft.to/lastmile_qr_scan", "android": "https://dc.lft.to/lastmile_qr_scan"}, "is_reserved": 0, "fusion_lon": 0.0, "fusion_lat": 0.0, "lon": -76.99680966666666, "name": "1940cb6c53385bed90de58a9871c047b"}, {"bike_id": "136a85f3a7f6ea90442b1fe13abd7995", "type": "electric_scooter", "is_disabled": 0, "lat": 38.8789805, "rental_uris": {"ios": "https://dc.lft.to/lastmile_qr_scan", "android": "https://dc.lft.to/lastmile_qr_scan"}, "is_reserved": 0, "fusion_lon": 0.0, "fusion_lat": 0.0, "lon": -76.99160566666667, "name": "136a85f3a7f6ea90442b1fe13abd7995"}, {"bike_id": "f6986e7f7af10ca5ed1739c3aa15f213", "type": "electric_scooter", "is_disabled": 0, "lat": 38.930374, "rental_uris": {"ios": "https://dc.lft.to/lastmile_qr_scan", "android": "https://dc.lft.to/lastmile_qr_scan"}, "is_reserved": 0, "fusion_lon": 0.0, "fusion_lat": 0.0, "lon": -77.01828266666666, "name": "f6986e7f7af10ca5ed1739c3aa15f213"}, {"bike_id": "71e56127b690104cb1796f2b5129ffb1", "type": "electric_scooter", "is_disabled": 0, "lat": 38.899600666666664, "rental_uris": {"ios": "https://dc.lft.to/lastmile_qr_scan", "android": "https://dc.lft.to/lastmile_qr_scan"}, "is_reserved": 0, "fusion_lon": 0.0, "fusion_lat": 0.0, "lon": -77.01508633333333, "name": "71e56127b690104cb1796f2b5129ffb1"}, {"bike_id": "1b06343aa4e5c567fa069d31e65670e8", "type": "electric_scooter", "is_disabled": 0, "lat": 38.908089833333335, "rental_uris": {"ios": "https://dc.lft.to/lastmile_qr_scan", "android": "https://dc.lft.to/lastmile_qr_scan"}, "is_reserved": 0, "fusion_lon": 0.0, "fusion_lat": 0.0, "lon": -77.02604383333333, "name": "1b06343aa4e5c567fa069d31e65670e8"}, {"bike_id": "9e47fb94f907b188e5d93496874529d2", "type": "electric_bike", "is_disabled": 0, "lat": 38.91899566666667, "rental_uris": {"ios": "https://dc.lft.to/lastmile_qr_scan", "android": "https://dc.lft.to/lastmile_qr_scan"}, "is_reserved": 0, "fusion_lon": 0.0, "fusion_lat": 0.0, "lon": -77.0005975, "name": "9e47fb94f907b188e5d93496874529d2"}, {"bike_id": "470b60eea9537fe9b10494536c44a1fd", "type": "electric_scooter", "is_disabled": 0, "lat": 38.88717066666667, "rental_uris": {"ios": "https://dc.lft.to/lastmile_qr_scan", "android": "https://dc.lft.to/lastmile_qr_scan"}, "is_reserved": 0, "fusion_lon": 0.0, "fusion_lat": 0.0, "lon": -77.02181583333333, "name": "470b60eea9537fe9b10494536c44a1fd"}, {"bike_id": "81a2a002e883364399b485afd8bda43e", "type": "electric_scooter", "is_disabled": 0, "lat": 38.90236783333334, "rental_uris": {"ios": "https://dc.lft.to/lastmile_qr_scan", "android": "https://dc.lft.to/lastmile_qr_scan"}, "is_reserved": 0, "fusion_lon": 0.0, "fusion_lat": 0.0, "lon": -77.03582083333333, "name": "81a2a002e883364399b485afd8bda43e"}, {"bike_id": "f149aedc0fbd84b592db58c4f0a44b3a", "type": "electric_scooter", "is_disabled": 0, "lat": 38.8843355, "rental_uris": {"ios": "https://dc.lft.to/lastmile_qr_scan", "android": "https://dc.lft.to/lastmile_qr_scan"}, "is_reserved": 0, "fusion_lon": 0.0, "fusion_lat": 0.0, "lon": -76.95757083333334, "name": "f149aedc0fbd84b592db58c4f0a44b3a"}, {"bike_id": "8e9a7372e117b96a212c8f7d93159bc8", "type": "electric_scooter", "is_disabled": 0, "lat": 38.9294505, "rental_uris": {"ios": "https://dc.lft.to/lastmile_qr_scan", "android": "https://dc.lft.to/lastmile_qr_scan"}, "is_reserved": 0, "fusion_lon": 0.0, "fusion_lat": 0.0, "lon": -77.03752583333333, "name": "8e9a7372e117b96a212c8f7d93159bc8"}, {"bike_id": "0210ff9a88fd569e14f4208b56f45d18", "type": "electric_scooter", "is_disabled": 0, "lat": 38.895644, "rental_uris": {"ios": "https://dc.lft.to/lastmile_qr_scan", "android": "https://dc.lft.to/lastmile_qr_scan"}, "is_reserved": 0, "fusion_lon": 0.0, "fusion_lat": 0.0, "lon": -77.03147133333333, "name": "0210ff9a88fd569e14f4208b56f45d18"}, {"bike_id": "89e3f45960221454fbeb05544a2bd1a0", "type": "electric_scooter", "is_disabled": 0, "lat": 38.90053283333334, "rental_uris": {"ios": "https://dc.lft.to/lastmile_qr_scan", "android": "https://dc.lft.to/lastmile_qr_scan"}, "is_reserved": 0, "fusion_lon": 0.0, "fusion_lat": 0.0, "lon": -77.05040083333333, "name": "89e3f45960221454fbeb05544a2bd1a0"}, {"bike_id": "25be2f5cc3d8e5e02f5e57ea5f0b11eb", "type": "electric_scooter", "is_disabled": 0, "lat": 38.896942333333335, "rental_uris": {"ios": "https://dc.lft.to/lastmile_qr_scan", "android": "https://dc.lft.to/lastmile_qr_scan"}, "is_reserved": 0, "fusion_lon": 0.0, "fusion_lat": 0.0, "lon": -76.9299635, "name": "25be2f5cc3d8e5e02f5e57ea5f0b11eb"}, {"bike_id": "3a4d2e5eda7ade161e3fae5a5e8587a2", "type": "electric_scooter", "is_disabled": 0, "lat": 38.8650335, "rental_uris": {"ios": "https://dc.lft.to/lastmile_qr_scan", "android": "https://dc.lft.to/lastmile_qr_scan"}, "is_reserved": 0, "fusion_lon": 0.0, "fusion_lat": 0.0, "lon": -76.9900255, "name": "3a4d2e5eda7ade161e3fae5a5e8587a2"}, {"bike_id": "9d1ff77bb2189b022f785517989964ce", "type": "electric_bike", "is_disabled": 0, "lat": 38.87292383333333, "rental_uris": {"ios": "https://dc.lft.to/lastmile_qr_scan", "android": "https://dc.lft.to/lastmile_qr_scan"}, "is_reserved": 0, "fusion_lon": 0.0, "fusion_lat": 0.0, "lon": -76.96975166666667, "name": "9d1ff77bb2189b022f785517989964ce"}, {"bike_id": "72e4de0959314ea5df2ac145de34aadf", "type": "electric_scooter", "is_disabled": 0, "lat": 38.86253466666667, "rental_uris": {"ios": "https://dc.lft.to/lastmile_qr_scan", "android": "https://dc.lft.to/lastmile_qr_scan"}, "is_reserved": 0, "fusion_lon": 0.0, "fusion_lat": 0.0, "lon": -76.9953775, "name": "72e4de0959314ea5df2ac145de34aadf"}, {"bike_id": "c66de8412ec6dec3680b0d3b9c8f6355", "type": "electric_scooter", "is_disabled": 0, "lat": 38.91614766666667, "rental_uris": {"ios": "https://dc.lft.to/lastmile_qr_scan", "android": "https://dc.lft.to/lastmile_qr_scan"}, "is_reserved": 0, "fusion_lon": 0.0, "fusion_lat": 0.0, "lon": -77.023157, "name": "c66de8412ec6dec3680b0d3b9c8f6355"}, {"bike_id": "f470effcb140c64da1edbec84a05df8c", "type": "electric_bike", "is_disabled": 0, "lat": 38.9082535, "rental_uris": {"ios": "https://dc.lft.to/lastmile_qr_scan", "android": "https://dc.lft.to/lastmile_qr_scan"}, "is_reserved": 0, "fusion_lon": 0.0, "fusion_lat": 0.0, "lon": -76.9415595, "name": "f470effcb140c64da1edbec84a05df8c"}, {"bike_id": "6bb13a502956a3943911a9fb499c6198", "type": "electric_scooter", "is_disabled": 0, "lat": 38.93273283333333, "rental_uris": {"ios": "https://dc.lft.to/lastmile_qr_scan", "android": "https://dc.lft.to/lastmile_qr_scan"}, "is_reserved": 0, "fusion_lon": 0.0, "fusion_lat": 0.0, "lon": -77.0403905, "name": "6bb13a502956a3943911a9fb499c6198"}, {"bike_id": "fa571f2f494b0db1648bae696846bc83", "type": "electric_scooter", "is_disabled": 0, "lat": 38.903776, "rental_uris": {"ios": "https://dc.lft.to/lastmile_qr_scan", "android": "https://dc.lft.to/lastmile_qr_scan"}, "is_reserved": 0, "fusion_lon": 0.0, "fusion_lat": 0.0, "lon": -77.01641216666667, "name": "fa571f2f494b0db1648bae696846bc83"}, {"bike_id": "c96713d0c4eeba1ea2678db49f3b1c0a", "type": "electric_scooter", "is_disabled": 0, "lat": 38.921453, "rental_uris": {"ios": "https://dc.lft.to/lastmile_qr_scan", "android": "https://dc.lft.to/lastmile_qr_scan"}, "is_reserved": 0, "fusion_lon": 0.0, "fusion_lat": 0.0, "lon": -77.0333495, "name": "c96713d0c4eeba1ea2678db49f3b1c0a"}, {"bike_id": "ede5b9df8cc7fe1af4cad8aef9b74fc9", "type": "electric_scooter", "is_disabled": 0, "lat": 38.9035505, "rental_uris": {"ios": "https://dc.lft.to/lastmile_qr_scan", "android": "https://dc.lft.to/lastmile_qr_scan"}, "is_reserved": 0, "fusion_lon": 0.0, "fusion_lat": 0.0, "lon": -77.0317205, "name": "ede5b9df8cc7fe1af4cad8aef9b74fc9"}, {"bike_id": "18bea7b4dce2a93e378efad9537d88a3", "type": "electric_scooter", "is_disabled": 0, "lat": 38.90233216666667, "rental_uris": {"ios": "https://dc.lft.to/lastmile_qr_scan", "android": "https://dc.lft.to/lastmile_qr_scan"}, "is_reserved": 0, "fusion_lon": 0.0, "fusion_lat": 0.0, "lon": -77.03260666666667, "name": "18bea7b4dce2a93e378efad9537d88a3"}, {"bike_id": "36079ef3bb1e5a5927d00f7a6e575a27", "type": "electric_scooter", "is_disabled": 0, "lat": 38.914971333333334, "rental_uris": {"ios": "https://dc.lft.to/lastmile_qr_scan", "android": "https://dc.lft.to/lastmile_qr_scan"}, "is_reserved": 0, "fusion_lon": 0.0, "fusion_lat": 0.0, "lon": -77.0121985, "name": "36079ef3bb1e5a5927d00f7a6e575a27"}, {"bike_id": "7169ea6681ade11542ee48777fc29279", "type": "electric_scooter", "is_disabled": 0, "lat": 38.923184166666665, "rental_uris": {"ios": "https://dc.lft.to/lastmile_qr_scan", "android": "https://dc.lft.to/lastmile_qr_scan"}, "is_reserved": 0, "fusion_lon": 0.0, "fusion_lat": 0.0, "lon": -77.03669833333333, "name": "7169ea6681ade11542ee48777fc29279"}, {"bike_id": "974dd1223971178d9f52b0546f7fa38b", "type": "electric_scooter", "is_disabled": 0, "lat": 38.914121333333334, "rental_uris": {"ios": "https://dc.lft.to/lastmile_qr_scan", "android": "https://dc.lft.to/lastmile_qr_scan"}, "is_reserved": 0, "fusion_lon": 0.0, "fusion_lat": 0.0, "lon": -77.02254766666667, "name": "974dd1223971178d9f52b0546f7fa38b"}, {"bike_id": "6b7b2e03e52b146220408f7d5e04a444", "type": "electric_scooter", "is_disabled": 0, "lat": 38.92101316666667, "rental_uris": {"ios": "https://dc.lft.to/lastmile_qr_scan", "android": "https://dc.lft.to/lastmile_qr_scan"}, "is_reserved": 0, "fusion_lon": 0.0, "fusion_lat": 0.0, "lon": -77.0219445, "name": "6b7b2e03e52b146220408f7d5e04a444"}, {"bike_id": "838a25cf897e9164bc88df43c200f173", "type": "electric_scooter", "is_disabled": 0, "lat": 38.9071865, "rental_uris": {"ios": "https://dc.lft.to/lastmile_qr_scan", "android": "https://dc.lft.to/lastmile_qr_scan"}, "is_reserved": 0, "fusion_lon": 0.0, "fusion_lat": 0.0, "lon": -77.025417, "name": "838a25cf897e9164bc88df43c200f173"}, {"bike_id": "16f12998a3bed99fea6d74ab0125c31e", "type": "electric_scooter", "is_disabled": 0, "lat": 38.8869785, "rental_uris": {"ios": "https://dc.lft.to/lastmile_qr_scan", "android": "https://dc.lft.to/lastmile_qr_scan"}, "is_reserved": 0, "fusion_lon": 0.0, "fusion_lat": 0.0, "lon": -77.01370483333334, "name": "16f12998a3bed99fea6d74ab0125c31e"}, {"bike_id": "a0f8e2fe69c29cbc23d12cc6366dd00c", "type": "electric_scooter", "is_disabled": 0, "lat": 38.93911216666667, "rental_uris": {"ios": "https://dc.lft.to/lastmile_qr_scan", "android": "https://dc.lft.to/lastmile_qr_scan"}, "is_reserved": 0, "fusion_lon": 0.0, "fusion_lat": 0.0, "lon": -77.060447, "name": "a0f8e2fe69c29cbc23d12cc6366dd00c"}, {"bike_id": "232709b270be47c18fa7db3ae0818a91", "type": "electric_scooter", "is_disabled": 0, "lat": 38.8624985, "rental_uris": {"ios": "https://dc.lft.to/lastmile_qr_scan", "android": "https://dc.lft.to/lastmile_qr_scan"}, "is_reserved": 0, "fusion_lon": 0.0, "fusion_lat": 0.0, "lon": -76.99263983333333, "name": "232709b270be47c18fa7db3ae0818a91"}, {"bike_id": "9872bd59bb7146475e5bb35cce427d2d", "type": "electric_scooter", "is_disabled": 0, "lat": 38.91618833333333, "rental_uris": {"ios": "https://dc.lft.to/lastmile_qr_scan", "android": "https://dc.lft.to/lastmile_qr_scan"}, "is_reserved": 0, "fusion_lon": 0.0, "fusion_lat": 0.0, "lon": -77.04810483333333, "name": "9872bd59bb7146475e5bb35cce427d2d"}, {"bike_id": "520aefd48808854a62ecac46f21d55da", "type": "electric_scooter", "is_disabled": 0, "lat": 38.915761, "rental_uris": {"ios": "https://dc.lft.to/lastmile_qr_scan", "android": "https://dc.lft.to/lastmile_qr_scan"}, "is_reserved": 0, "fusion_lon": 0.0, "fusion_lat": 0.0, "lon": -77.03187083333333, "name": "520aefd48808854a62ecac46f21d55da"}, {"bike_id": "bf48a752e4ff1b3990340b4385551abf", "type": "electric_scooter", "is_disabled": 0, "lat": 38.926419833333334, "rental_uris": {"ios": "https://dc.lft.to/lastmile_qr_scan", "android": "https://dc.lft.to/lastmile_qr_scan"}, "is_reserved": 0, "fusion_lon": 0.0, "fusion_lat": 0.0, "lon": -77.03547, "name": "bf48a752e4ff1b3990340b4385551abf"}, {"bike_id": "1d4e2885976126fe17aca9fee8d45e65", "type": "electric_scooter", "is_disabled": 0, "lat": 38.91633083333333, "rental_uris": {"ios": "https://dc.lft.to/lastmile_qr_scan", "android": "https://dc.lft.to/lastmile_qr_scan"}, "is_reserved": 0, "fusion_lon": 0.0, "fusion_lat": 0.0, "lon": -77.03203633333334, "name": "1d4e2885976126fe17aca9fee8d45e65"}, {"bike_id": "23fbc20afa696d0669d714b1b4954380", "type": "electric_scooter", "is_disabled": 0, "lat": 38.917631666666665, "rental_uris": {"ios": "https://dc.lft.to/lastmile_qr_scan", "android": "https://dc.lft.to/lastmile_qr_scan"}, "is_reserved": 0, "fusion_lon": 0.0, "fusion_lat": 0.0, "lon": -77.04757933333333, "name": "23fbc20afa696d0669d714b1b4954380"}, {"bike_id": "f87131377616cf464f4dde4dd9bdfc53", "type": "electric_scooter", "is_disabled": 0, "lat": 38.9286435, "rental_uris": {"ios": "https://dc.lft.to/lastmile_qr_scan", "android": "https://dc.lft.to/lastmile_qr_scan"}, "is_reserved": 0, "fusion_lon": 0.0, "fusion_lat": 0.0, "lon": -77.037089, "name": "f87131377616cf464f4dde4dd9bdfc53"}, {"bike_id": "edfb5442a6eb3d0eee5a74f2083c47ca", "type": "electric_scooter", "is_disabled": 0, "lat": 38.88945533333333, "rental_uris": {"ios": "https://dc.lft.to/lastmile_qr_scan", "android": "https://dc.lft.to/lastmile_qr_scan"}, "is_reserved": 0, "fusion_lon": 0.0, "fusion_lat": 0.0, "lon": -77.0497755, "name": "edfb5442a6eb3d0eee5a74f2083c47ca"}, {"bike_id": "9d179518c6cf9bc0c799eb87b799642f", "type": "electric_bike", "is_disabled": 0, "lat": 38.80973616666667, "rental_uris": {"ios": "https://dc.lft.to/lastmile_qr_scan", "android": "https://dc.lft.to/lastmile_qr_scan"}, "is_reserved": 0, "fusion_lon": 0.0, "fusion_lat": 0.0, "lon": -77.08626766666667, "name": "9d179518c6cf9bc0c799eb87b799642f"}, {"bike_id": "bedf8859976a5fad867274e63357661e", "type": "electric_scooter", "is_disabled": 0, "lat": 38.913496333333335, "rental_uris": {"ios": "https://dc.lft.to/lastmile_qr_scan", "android": "https://dc.lft.to/lastmile_qr_scan"}, "is_reserved": 0, "fusion_lon": 0.0, "fusion_lat": 0.0, "lon": -77.03208433333333, "name": "bedf8859976a5fad867274e63357661e"}, {"bike_id": "ec78b57f2d7f77432d7c983304a1d38d", "type": "electric_scooter", "is_disabled": 0, "lat": 38.863717, "rental_uris": {"ios": "https://dc.lft.to/lastmile_qr_scan", "android": "https://dc.lft.to/lastmile_qr_scan"}, "is_reserved": 0, "fusion_lon": 0.0, "fusion_lat": 0.0, "lon": -76.99055616666666, "name": "ec78b57f2d7f77432d7c983304a1d38d"}, {"bike_id": "ca5e92d09e11e18e0df397dfb4060da1", "type": "electric_bike", "is_disabled": 0, "lat": 38.935294999999996, "rental_uris": {"ios": "https://dc.lft.to/lastmile_qr_scan", "android": "https://dc.lft.to/lastmile_qr_scan"}, "is_reserved": 0, "fusion_lon": 0.0, "fusion_lat": 0.0, "lon": -76.96442616666667, "name": "ca5e92d09e11e18e0df397dfb4060da1"}, {"bike_id": "25262ff462d48ac2c46ba62938c57d9d", "type": "electric_scooter", "is_disabled": 0, "lat": 38.95575, "rental_uris": {"ios": "https://dc.lft.to/lastmile_qr_scan", "android": "https://dc.lft.to/lastmile_qr_scan"}, "is_reserved": 0, "fusion_lon": 0.0, "fusion_lat": 0.0, "lon": -77.0803305, "name": "25262ff462d48ac2c46ba62938c57d9d"}, {"bike_id": "3933f142c9a107b62f9fe230bfb41dbd", "type": "electric_scooter", "is_disabled": 0, "lat": 38.92321716666667, "rental_uris": {"ios": "https://dc.lft.to/lastmile_qr_scan", "android": "https://dc.lft.to/lastmile_qr_scan"}, "is_reserved": 0, "fusion_lon": 0.0, "fusion_lat": 0.0, "lon": -77.03506366666667, "name": "3933f142c9a107b62f9fe230bfb41dbd"}, {"bike_id": "441eefac986a5c28a7e90bd9c0b7733e", "type": "electric_scooter", "is_disabled": 0, "lat": 38.8970955, "rental_uris": {"ios": "https://dc.lft.to/lastmile_qr_scan", "android": "https://dc.lft.to/lastmile_qr_scan"}, "is_reserved": 0, "fusion_lon": 0.0, "fusion_lat": 0.0, "lon": -77.03155033333333, "name": "441eefac986a5c28a7e90bd9c0b7733e"}, {"bike_id": "da979f6e12a5794dedeefb92b9e0c1f3", "type": "electric_scooter", "is_disabled": 0, "lat": 38.916929, "rental_uris": {"ios": "https://dc.lft.to/lastmile_qr_scan", "android": "https://dc.lft.to/lastmile_qr_scan"}, "is_reserved": 0, "fusion_lon": 0.0, "fusion_lat": 0.0, "lon": -77.02657683333334, "name": "da979f6e12a5794dedeefb92b9e0c1f3"}, {"bike_id": "7a22ea37054944b93d944508ff11a2a9", "type": "electric_scooter", "is_disabled": 0, "lat": 38.92230766666667, "rental_uris": {"ios": "https://dc.lft.to/lastmile_qr_scan", "android": "https://dc.lft.to/lastmile_qr_scan"}, "is_reserved": 0, "fusion_lon": 0.0, "fusion_lat": 0.0, "lon": -77.02281733333334, "name": "7a22ea37054944b93d944508ff11a2a9"}, {"bike_id": "2f01ba62b6861a0dfd43e784a0464632", "type": "electric_scooter", "is_disabled": 0, "lat": 38.886541333333334, "rental_uris": {"ios": "https://dc.lft.to/lastmile_qr_scan", "android": "https://dc.lft.to/lastmile_qr_scan"}, "is_reserved": 0, "fusion_lon": 0.0, "fusion_lat": 0.0, "lon": -77.0283295, "name": "2f01ba62b6861a0dfd43e784a0464632"}, {"bike_id": "3cf900c3f0f4ec2d8b3cc2128d4e9e8d", "type": "electric_scooter", "is_disabled": 0, "lat": 38.908686833333334, "rental_uris": {"ios": "https://dc.lft.to/lastmile_qr_scan", "android": "https://dc.lft.to/lastmile_qr_scan"}, "is_reserved": 0, "fusion_lon": 0.0, "fusion_lat": 0.0, "lon": -77.03208883333333, "name": "3cf900c3f0f4ec2d8b3cc2128d4e9e8d"}, {"bike_id": "f0e08d14e72e175b70255d903f7b3829", "type": "electric_scooter", "is_disabled": 0, "lat": 38.903112666666665, "rental_uris": {"ios": "https://dc.lft.to/lastmile_qr_scan", "android": "https://dc.lft.to/lastmile_qr_scan"}, "is_reserved": 0, "fusion_lon": 0.0, "fusion_lat": 0.0, "lon": -76.991296, "name": "f0e08d14e72e175b70255d903f7b3829"}, {"bike_id": "33b88ef55a72c3f48f28e76d42ea1720", "type": "electric_scooter", "is_disabled": 0, "lat": 38.911752, "rental_uris": {"ios": "https://dc.lft.to/lastmile_qr_scan", "android": "https://dc.lft.to/lastmile_qr_scan"}, "is_reserved": 0, "fusion_lon": 0.0, "fusion_lat": 0.0, "lon": -77.031849, "name": "33b88ef55a72c3f48f28e76d42ea1720"}, {"bike_id": "b53687904e8b0499ec1b595c0966b97b", "type": "electric_scooter", "is_disabled": 0, "lat": 38.919609333333334, "rental_uris": {"ios": "https://dc.lft.to/lastmile_qr_scan", "android": "https://dc.lft.to/lastmile_qr_scan"}, "is_reserved": 0, "fusion_lon": 0.0, "fusion_lat": 0.0, "lon": -77.0143285, "name": "b53687904e8b0499ec1b595c0966b97b"}, {"bike_id": "aa92c488c133c28526dbd030e2491d70", "type": "electric_scooter", "is_disabled": 0, "lat": 38.892273833333334, "rental_uris": {"ios": "https://dc.lft.to/lastmile_qr_scan", "android": "https://dc.lft.to/lastmile_qr_scan"}, "is_reserved": 0, "fusion_lon": 0.0, "fusion_lat": 0.0, "lon": -77.01377866666667, "name": "aa92c488c133c28526dbd030e2491d70"}, {"bike_id": "3496a8ac13ab8ed4995eb8c70870f291", "type": "electric_scooter", "is_disabled": 0, "lat": 38.895423, "rental_uris": {"ios": "https://dc.lft.to/lastmile_qr_scan", "android": "https://dc.lft.to/lastmile_qr_scan"}, "is_reserved": 0, "fusion_lon": 0.0, "fusion_lat": 0.0, "lon": -76.9952135, "name": "3496a8ac13ab8ed4995eb8c70870f291"}, {"bike_id": "d700978bd433e7f6bea87db74d5ee88c", "type": "electric_scooter", "is_disabled": 0, "lat": 38.901883166666664, "rental_uris": {"ios": "https://dc.lft.to/lastmile_qr_scan", "android": "https://dc.lft.to/lastmile_qr_scan"}, "is_reserved": 0, "fusion_lon": 0.0, "fusion_lat": 0.0, "lon": -77.02311966666667, "name": "d700978bd433e7f6bea87db74d5ee88c"}, {"bike_id": "57de9d859dc1cd6f66ff6fdae1cf893d", "type": "electric_scooter", "is_disabled": 0, "lat": 38.9166475, "rental_uris": {"ios": "https://dc.lft.to/lastmile_qr_scan", "android": "https://dc.lft.to/lastmile_qr_scan"}, "is_reserved": 0, "fusion_lon": 0.0, "fusion_lat": 0.0, "lon": -77.0230985, "name": "57de9d859dc1cd6f66ff6fdae1cf893d"}, {"bike_id": "21e2d078518a735dba5de48884e7e8d1", "type": "electric_bike", "is_disabled": 0, "lat": 39.0147575, "rental_uris": {"ios": "https://dc.lft.to/lastmile_qr_scan", "android": "https://dc.lft.to/lastmile_qr_scan"}, "is_reserved": 0, "fusion_lon": 0.0, "fusion_lat": 0.0, "lon": -77.05493533333333, "name": "21e2d078518a735dba5de48884e7e8d1"}, {"bike_id": "d355944440a9a373d0e39303e5264aae", "type": "electric_bike", "is_disabled": 0, "lat": 38.90865216666667, "rental_uris": {"ios": "https://dc.lft.to/lastmile_qr_scan", "android": "https://dc.lft.to/lastmile_qr_scan"}, "is_reserved": 0, "fusion_lon": 0.0, "fusion_lat": 0.0, "lon": -77.0764835, "name": "d355944440a9a373d0e39303e5264aae"}, {"bike_id": "fcc7b19998c7eb477ffabdd4c46f00cd", "type": "electric_scooter", "is_disabled": 0, "lat": 38.914733166666664, "rental_uris": {"ios": "https://dc.lft.to/lastmile_qr_scan", "android": "https://dc.lft.to/lastmile_qr_scan"}, "is_reserved": 0, "fusion_lon": 0.0, "fusion_lat": 0.0, "lon": -77.0456005, "name": "fcc7b19998c7eb477ffabdd4c46f00cd"}, {"bike_id": "9335d2a1873ddc5bbb8baa9588a66ffd", "type": "electric_scooter", "is_disabled": 0, "lat": 38.917126833333334, "rental_uris": {"ios": "https://dc.lft.to/lastmile_qr_scan", "android": "https://dc.lft.to/lastmile_qr_scan"}, "is_reserved": 0, "fusion_lon": 0.0, "fusion_lat": 0.0, "lon": -77.02402333333333, "name": "9335d2a1873ddc5bbb8baa9588a66ffd"}, {"bike_id": "28c2abc9e2c9e04d6c4e7347c4591acd", "type": "electric_scooter", "is_disabled": 0, "lat": 38.89471483333333, "rental_uris": {"ios": "https://dc.lft.to/lastmile_qr_scan", "android": "https://dc.lft.to/lastmile_qr_scan"}, "is_reserved": 0, "fusion_lon": 0.0, "fusion_lat": 0.0, "lon": -76.994844, "name": "28c2abc9e2c9e04d6c4e7347c4591acd"}, {"bike_id": "83dd3757781dc8e9bfd24f47644fde27", "type": "electric_scooter", "is_disabled": 0, "lat": 38.91687433333333, "rental_uris": {"ios": "https://dc.lft.to/lastmile_qr_scan", "android": "https://dc.lft.to/lastmile_qr_scan"}, "is_reserved": 0, "fusion_lon": 0.0, "fusion_lat": 0.0, "lon": -77.02893133333333, "name": "83dd3757781dc8e9bfd24f47644fde27"}, {"bike_id": "fa153c5d8725cd9867b4944d1d684215", "type": "electric_scooter", "is_disabled": 0, "lat": 38.8984025, "rental_uris": {"ios": "https://dc.lft.to/lastmile_qr_scan", "android": "https://dc.lft.to/lastmile_qr_scan"}, "is_reserved": 0, "fusion_lon": 0.0, "fusion_lat": 0.0, "lon": -76.946355, "name": "fa153c5d8725cd9867b4944d1d684215"}, {"bike_id": "a1a5b6fbf96bc316fcfdb2dd813758f1", "type": "electric_scooter", "is_disabled": 0, "lat": 38.88428833333333, "rental_uris": {"ios": "https://dc.lft.to/lastmile_qr_scan", "android": "https://dc.lft.to/lastmile_qr_scan"}, "is_reserved": 0, "fusion_lon": 0.0, "fusion_lat": 0.0, "lon": -76.9575455, "name": "a1a5b6fbf96bc316fcfdb2dd813758f1"}, {"bike_id": "3d544e4c88b6fb75b31771db8676de6d", "type": "electric_scooter", "is_disabled": 0, "lat": 38.914430833333334, "rental_uris": {"ios": "https://dc.lft.to/lastmile_qr_scan", "android": "https://dc.lft.to/lastmile_qr_scan"}, "is_reserved": 0, "fusion_lon": 0.0, "fusion_lat": 0.0, "lon": -77.02588133333333, "name": "3d544e4c88b6fb75b31771db8676de6d"}, {"bike_id": "d324020915828500f221d95481b8854f", "type": "electric_scooter", "is_disabled": 0, "lat": 38.90134833333333, "rental_uris": {"ios": "https://dc.lft.to/lastmile_qr_scan", "android": "https://dc.lft.to/lastmile_qr_scan"}, "is_reserved": 0, "fusion_lon": 0.0, "fusion_lat": 0.0, "lon": -77.0178915, "name": "d324020915828500f221d95481b8854f"}, {"bike_id": "295f24167d0d6512c9838ac949273487", "type": "electric_scooter", "is_disabled": 0, "lat": 38.8873865, "rental_uris": {"ios": "https://dc.lft.to/lastmile_qr_scan", "android": "https://dc.lft.to/lastmile_qr_scan"}, "is_reserved": 0, "fusion_lon": 0.0, "fusion_lat": 0.0, "lon": -77.029329, "name": "295f24167d0d6512c9838ac949273487"}, {"bike_id": "edb2c1c5cd62e59084d0c7b69d719739", "type": "electric_scooter", "is_disabled": 0, "lat": 38.924607, "rental_uris": {"ios": "https://dc.lft.to/lastmile_qr_scan", "android": "https://dc.lft.to/lastmile_qr_scan"}, "is_reserved": 0, "fusion_lon": 0.0, "fusion_lat": 0.0, "lon": -77.03951816666667, "name": "edb2c1c5cd62e59084d0c7b69d719739"}, {"bike_id": "cae2ac448c4fe40924105f133bef8ac1", "type": "electric_scooter", "is_disabled": 0, "lat": 38.90501316666667, "rental_uris": {"ios": "https://dc.lft.to/lastmile_qr_scan", "android": "https://dc.lft.to/lastmile_qr_scan"}, "is_reserved": 0, "fusion_lon": 0.0, "fusion_lat": 0.0, "lon": -77.02954966666667, "name": "cae2ac448c4fe40924105f133bef8ac1"}, {"bike_id": "bd563ecb44844d25be483e0061b4429f", "type": "electric_scooter", "is_disabled": 0, "lat": 38.9103155, "rental_uris": {"ios": "https://dc.lft.to/lastmile_qr_scan", "android": "https://dc.lft.to/lastmile_qr_scan"}, "is_reserved": 0, "fusion_lon": 0.0, "fusion_lat": 0.0, "lon": -77.03799633333334, "name": "bd563ecb44844d25be483e0061b4429f"}, {"bike_id": "98e94cc6b008f4c82baefd2e2530a1bb", "type": "electric_scooter", "is_disabled": 0, "lat": 38.89279116666667, "rental_uris": {"ios": "https://dc.lft.to/lastmile_qr_scan", "android": "https://dc.lft.to/lastmile_qr_scan"}, "is_reserved": 0, "fusion_lon": 0.0, "fusion_lat": 0.0, "lon": -77.03356366666667, "name": "98e94cc6b008f4c82baefd2e2530a1bb"}, {"bike_id": "996bf46122acbe65a441365c2ea9012e", "type": "electric_scooter", "is_disabled": 0, "lat": 38.902487666666666, "rental_uris": {"ios": "https://dc.lft.to/lastmile_qr_scan", "android": "https://dc.lft.to/lastmile_qr_scan"}, "is_reserved": 0, "fusion_lon": 0.0, "fusion_lat": 0.0, "lon": -77.017568, "name": "996bf46122acbe65a441365c2ea9012e"}, {"bike_id": "112e49b7d7324c3799526ae4b5d6f9f2", "type": "electric_scooter", "is_disabled": 0, "lat": 38.903721833333336, "rental_uris": {"ios": "https://dc.lft.to/lastmile_qr_scan", "android": "https://dc.lft.to/lastmile_qr_scan"}, "is_reserved": 0, "fusion_lon": 0.0, "fusion_lat": 0.0, "lon": -76.94947783333333, "name": "112e49b7d7324c3799526ae4b5d6f9f2"}, {"bike_id": "2936c1be909b5324426d29bcb965527e", "type": "electric_scooter", "is_disabled": 0, "lat": 38.92310366666667, "rental_uris": {"ios": "https://dc.lft.to/lastmile_qr_scan", "android": "https://dc.lft.to/lastmile_qr_scan"}, "is_reserved": 0, "fusion_lon": 0.0, "fusion_lat": 0.0, "lon": -77.05565766666666, "name": "2936c1be909b5324426d29bcb965527e"}, {"bike_id": "8811aa817dc0618d2c4aa03e1e43d3d3", "type": "electric_scooter", "is_disabled": 0, "lat": 38.92873683333333, "rental_uris": {"ios": "https://dc.lft.to/lastmile_qr_scan", "android": "https://dc.lft.to/lastmile_qr_scan"}, "is_reserved": 0, "fusion_lon": 0.0, "fusion_lat": 0.0, "lon": -77.03925, "name": "8811aa817dc0618d2c4aa03e1e43d3d3"}, {"bike_id": "cfb3a28edc833f54475913527325a066", "type": "electric_scooter", "is_disabled": 0, "lat": 38.91695133333333, "rental_uris": {"ios": "https://dc.lft.to/lastmile_qr_scan", "android": "https://dc.lft.to/lastmile_qr_scan"}, "is_reserved": 0, "fusion_lon": 0.0, "fusion_lat": 0.0, "lon": -77.01594833333333, "name": "cfb3a28edc833f54475913527325a066"}, {"bike_id": "b3fbf3653c289bced6b4d3c223cd7af7", "type": "electric_scooter", "is_disabled": 0, "lat": 38.90115766666667, "rental_uris": {"ios": "https://dc.lft.to/lastmile_qr_scan", "android": "https://dc.lft.to/lastmile_qr_scan"}, "is_reserved": 0, "fusion_lon": 0.0, "fusion_lat": 0.0, "lon": -77.03232433333334, "name": "b3fbf3653c289bced6b4d3c223cd7af7"}, {"bike_id": "f34c0feddb29f5f0d8879e1e42bdd952", "type": "electric_scooter", "is_disabled": 0, "lat": 38.915525833333334, "rental_uris": {"ios": "https://dc.lft.to/lastmile_qr_scan", "android": "https://dc.lft.to/lastmile_qr_scan"}, "is_reserved": 0, "fusion_lon": 0.0, "fusion_lat": 0.0, "lon": -77.03253616666667, "name": "f34c0feddb29f5f0d8879e1e42bdd952"}, {"bike_id": "bc54196d403fc3bffad4025fde6e70ed", "type": "electric_scooter", "is_disabled": 0, "lat": 38.86624166666667, "rental_uris": {"ios": "https://dc.lft.to/lastmile_qr_scan", "android": "https://dc.lft.to/lastmile_qr_scan"}, "is_reserved": 0, "fusion_lon": 0.0, "fusion_lat": 0.0, "lon": -76.98714316666667, "name": "bc54196d403fc3bffad4025fde6e70ed"}, {"bike_id": "972a05cbc4a64223a6393291facc027e", "type": "electric_scooter", "is_disabled": 0, "lat": 38.931620833333334, "rental_uris": {"ios": "https://dc.lft.to/lastmile_qr_scan", "android": "https://dc.lft.to/lastmile_qr_scan"}, "is_reserved": 0, "fusion_lon": 0.0, "fusion_lat": 0.0, "lon": -77.0314545, "name": "972a05cbc4a64223a6393291facc027e"}, {"bike_id": "0716a8de8d149a4acc55c528db7dc098", "type": "electric_scooter", "is_disabled": 0, "lat": 38.89638466666667, "rental_uris": {"ios": "https://dc.lft.to/lastmile_qr_scan", "android": "https://dc.lft.to/lastmile_qr_scan"}, "is_reserved": 0, "fusion_lon": 0.0, "fusion_lat": 0.0, "lon": -77.0710995, "name": "0716a8de8d149a4acc55c528db7dc098"}, {"bike_id": "38e8dd37b55ddf119cecc0cf0199fe5c", "type": "electric_scooter", "is_disabled": 0, "lat": 38.903552833333336, "rental_uris": {"ios": "https://dc.lft.to/lastmile_qr_scan", "android": "https://dc.lft.to/lastmile_qr_scan"}, "is_reserved": 0, "fusion_lon": 0.0, "fusion_lat": 0.0, "lon": -77.03172416666666, "name": "38e8dd37b55ddf119cecc0cf0199fe5c"}, {"bike_id": "b80cb71e9559a3f627dcb105dc4fea52", "type": "electric_scooter", "is_disabled": 0, "lat": 38.91017216666667, "rental_uris": {"ios": "https://dc.lft.to/lastmile_qr_scan", "android": "https://dc.lft.to/lastmile_qr_scan"}, "is_reserved": 0, "fusion_lon": 0.0, "fusion_lat": 0.0, "lon": -77.0318535, "name": "b80cb71e9559a3f627dcb105dc4fea52"}, {"bike_id": "32054f22423eb30f5926d3c8803d5e41", "type": "electric_scooter", "is_disabled": 0, "lat": 38.8877835, "rental_uris": {"ios": "https://dc.lft.to/lastmile_qr_scan", "android": "https://dc.lft.to/lastmile_qr_scan"}, "is_reserved": 0, "fusion_lon": 0.0, "fusion_lat": 0.0, "lon": -76.95529633333334, "name": "32054f22423eb30f5926d3c8803d5e41"}, {"bike_id": "8fdb9a0937b1b12f56a065f4dede760b", "type": "electric_bike", "is_disabled": 0, "lat": 38.87827216666667, "rental_uris": {"ios": "https://dc.lft.to/lastmile_qr_scan", "android": "https://dc.lft.to/lastmile_qr_scan"}, "is_reserved": 0, "fusion_lon": 0.0, "fusion_lat": 0.0, "lon": -77.01912583333333, "name": "8fdb9a0937b1b12f56a065f4dede760b"}, {"bike_id": "63e293c0ab40f6fed45f78613e5e4c98", "type": "electric_scooter", "is_disabled": 0, "lat": 38.9103595, "rental_uris": {"ios": "https://dc.lft.to/lastmile_qr_scan", "android": "https://dc.lft.to/lastmile_qr_scan"}, "is_reserved": 0, "fusion_lon": 0.0, "fusion_lat": 0.0, "lon": -77.02911433333334, "name": "63e293c0ab40f6fed45f78613e5e4c98"}, {"bike_id": "14e22112467adf0864e9703431cb8537", "type": "electric_scooter", "is_disabled": 0, "lat": 38.897378, "rental_uris": {"ios": "https://dc.lft.to/lastmile_qr_scan", "android": "https://dc.lft.to/lastmile_qr_scan"}, "is_reserved": 0, "fusion_lon": 0.0, "fusion_lat": 0.0, "lon": -76.9472095, "name": "14e22112467adf0864e9703431cb8537"}, {"bike_id": "57d9ddb2929d1ca1406c961a79aa6127", "type": "electric_scooter", "is_disabled": 0, "lat": 38.90634633333333, "rental_uris": {"ios": "https://dc.lft.to/lastmile_qr_scan", "android": "https://dc.lft.to/lastmile_qr_scan"}, "is_reserved": 0, "fusion_lon": 0.0, "fusion_lat": 0.0, "lon": -77.03882366666667, "name": "57d9ddb2929d1ca1406c961a79aa6127"}, {"bike_id": "daff383079e2cc85611f453fce000df2", "type": "electric_scooter", "is_disabled": 0, "lat": 38.915633166666666, "rental_uris": {"ios": "https://dc.lft.to/lastmile_qr_scan", "android": "https://dc.lft.to/lastmile_qr_scan"}, "is_reserved": 0, "fusion_lon": 0.0, "fusion_lat": 0.0, "lon": -77.0441225, "name": "daff383079e2cc85611f453fce000df2"}, {"bike_id": "3f96928956e73b3e87d0613c5fcf887d", "type": "electric_scooter", "is_disabled": 0, "lat": 38.900509166666666, "rental_uris": {"ios": "https://dc.lft.to/lastmile_qr_scan", "android": "https://dc.lft.to/lastmile_qr_scan"}, "is_reserved": 0, "fusion_lon": 0.0, "fusion_lat": 0.0, "lon": -77.00056033333334, "name": "3f96928956e73b3e87d0613c5fcf887d"}, {"bike_id": "da18648c06d31698e6f82c7d65a9f913", "type": "electric_scooter", "is_disabled": 0, "lat": 38.9152635, "rental_uris": {"ios": "https://dc.lft.to/lastmile_qr_scan", "android": "https://dc.lft.to/lastmile_qr_scan"}, "is_reserved": 0, "fusion_lon": 0.0, "fusion_lat": 0.0, "lon": -77.021791, "name": "da18648c06d31698e6f82c7d65a9f913"}, {"bike_id": "4be8742d6435969d41649083410b2f98", "type": "electric_scooter", "is_disabled": 0, "lat": 38.94139766666667, "rental_uris": {"ios": "https://dc.lft.to/lastmile_qr_scan", "android": "https://dc.lft.to/lastmile_qr_scan"}, "is_reserved": 0, "fusion_lon": 0.0, "fusion_lat": 0.0, "lon": -77.02322883333333, "name": "4be8742d6435969d41649083410b2f98"}, {"bike_id": "5ccb32baff3b3a84cbc7b24cead9e335", "type": "electric_scooter", "is_disabled": 0, "lat": 38.929764166666665, "rental_uris": {"ios": "https://dc.lft.to/lastmile_qr_scan", "android": "https://dc.lft.to/lastmile_qr_scan"}, "is_reserved": 0, "fusion_lon": 0.0, "fusion_lat": 0.0, "lon": -77.01301966666666, "name": "5ccb32baff3b3a84cbc7b24cead9e335"}, {"bike_id": "a4c4313ec914fbfa9c2a3564ad06ff3b", "type": "electric_scooter", "is_disabled": 0, "lat": 38.8952455, "rental_uris": {"ios": "https://dc.lft.to/lastmile_qr_scan", "android": "https://dc.lft.to/lastmile_qr_scan"}, "is_reserved": 0, "fusion_lon": 0.0, "fusion_lat": 0.0, "lon": -76.94888533333334, "name": "a4c4313ec914fbfa9c2a3564ad06ff3b"}, {"bike_id": "78e8bdf7e946680172ce13f2ee9005ba", "type": "electric_scooter", "is_disabled": 0, "lat": 38.92332066666667, "rental_uris": {"ios": "https://dc.lft.to/lastmile_qr_scan", "android": "https://dc.lft.to/lastmile_qr_scan"}, "is_reserved": 0, "fusion_lon": 0.0, "fusion_lat": 0.0, "lon": -77.05326616666666, "name": "78e8bdf7e946680172ce13f2ee9005ba"}, {"bike_id": "c72a6951a2ea9b14a7fb3f997b1350ae", "type": "electric_scooter", "is_disabled": 0, "lat": 38.9075715, "rental_uris": {"ios": "https://dc.lft.to/lastmile_qr_scan", "android": "https://dc.lft.to/lastmile_qr_scan"}, "is_reserved": 0, "fusion_lon": 0.0, "fusion_lat": 0.0, "lon": -77.02383333333333, "name": "c72a6951a2ea9b14a7fb3f997b1350ae"}, {"bike_id": "ed9245850b5d9b6215c4f66df63e6344", "type": "electric_scooter", "is_disabled": 0, "lat": 38.87860033333333, "rental_uris": {"ios": "https://dc.lft.to/lastmile_qr_scan", "android": "https://dc.lft.to/lastmile_qr_scan"}, "is_reserved": 0, "fusion_lon": 0.0, "fusion_lat": 0.0, "lon": -76.96983, "name": "ed9245850b5d9b6215c4f66df63e6344"}, {"bike_id": "cb7ba695f1f07013c9034b8805e8a043", "type": "electric_scooter", "is_disabled": 0, "lat": 38.88845883333333, "rental_uris": {"ios": "https://dc.lft.to/lastmile_qr_scan", "android": "https://dc.lft.to/lastmile_qr_scan"}, "is_reserved": 0, "fusion_lon": 0.0, "fusion_lat": 0.0, "lon": -76.9268025, "name": "cb7ba695f1f07013c9034b8805e8a043"}, {"bike_id": "8e83dc42c3c060bf3dcbde3db0346813", "type": "electric_scooter", "is_disabled": 0, "lat": 38.92476683333334, "rental_uris": {"ios": "https://dc.lft.to/lastmile_qr_scan", "android": "https://dc.lft.to/lastmile_qr_scan"},