{"data": {"bikes": [{"name": "bcf1ee30bb544330d3e7c636e0e4a410", "type": "electric_scooter", "lat": 38.8995205, "is_reserved": 0, "lon": -77.03119766666667, "fusion_lon": 0.0, "is_disabled": 0, "fusion_lat": 0.0, "bike_id": "bcf1ee30bb544330d3e7c636e0e4a410", "rental_uris": {"ios": "https://dc.lft.to/lastmile_qr_scan", "android": "https://dc.lft.to/lastmile_qr_scan"}}, {"name": "54f7ec0c377155cc2572e69db5e63e70", "type": "electric_scooter", "lat": 38.92879933333333, "is_reserved": 0, "lon": -77.037608, "fusion_lon": 0.0, "is_disabled": 0, "fusion_lat": 0.0, "bike_id": "54f7ec0c377155cc2572e69db5e63e70", "rental_uris": {"ios": "https://dc.lft.to/lastmile_qr_scan", "android": "https://dc.lft.to/lastmile_qr_scan"}}, {"name": "5cba1ead2d97b4115ec633f5278f360f", "type": "electric_scooter", "lat": 38.897768666666664, "is_reserved": 0, "lon": -77.00897716666667, "fusion_lon": 0.0, "is_disabled": 0, "fusion_lat": 0.0, "bike_id": "5cba1ead2d97b4115ec633f5278f360f", "rental_uris": {"ios": "https://dc.lft.to/lastmile_qr_scan", "android": "https://dc.lft.to/lastmile_qr_scan"}}, {"name": "c710e0d79e220e602593809628aa531c", "type": "electric_scooter", "lat": 38.90623766666667, "is_reserved": 0, "lon": -77.0396835, "fusion_lon": 0.0, "is_disabled": 0, "fusion_lat": 0.0, "bike_id": "c710e0d79e220e602593809628aa531c", "rental_uris": {"ios": "https://dc.lft.to/lastmile_qr_scan", "android": "https://dc.lft.to/lastmile_qr_scan"}}, {"name": "318ff07bf3f8b4762f48b57f4a5033eb", "type": "electric_scooter", "lat": 38.874605833333334, "is_reserved": 0, "lon": -77.00547833333333, "fusion_lon": 0.0, "is_disabled": 0, "fusion_lat": 0.0, "bike_id": "318ff07bf3f8b4762f48b57f4a5033eb", "rental_uris": {"ios": "https://dc.lft.to/lastmile_qr_scan", "android": "https://dc.lft.to/lastmile_qr_scan"}}, {"name": "d0ad0d5a2bbdffa5327680a88cc8132c", "type": "electric_scooter", "lat": 38.92151533333333, "is_reserved": 0, "lon": -77.03458383333333, "fusion_lon": 0.0, "is_disabled": 0, "fusion_lat": 0.0, "bike_id": "d0ad0d5a2bbdffa5327680a88cc8132c", "rental_uris": {"ios": "https://dc.lft.to/lastmile_qr_scan", "android": "https://dc.lft.to/lastmile_qr_scan"}}, {"name": "2c9a346cfca76e97c7609136b0c9cf00", "type": "electric_bike", "lat": 38.959118333333336, "is_reserved": 0, "lon": -77.00154766666667, "fusion_lon": 0.0, "is_disabled": 0, "fusion_lat": 0.0, "bike_id": "2c9a346cfca76e97c7609136b0c9cf00", "rental_uris": {"ios": "https://dc.lft.to/lastmile_qr_scan", "android": "https://dc.lft.to/lastmile_qr_scan"}}, {"name": "1dfd3f7aa8dac9b54f9dc79d5570d8d3", "type": "electric_scooter", "lat": 38.91417233333333, "is_reserved": 0, "lon": -77.039093, "fusion_lon": 0.0, "is_disabled": 0, "fusion_lat": 0.0, "bike_id": "1dfd3f7aa8dac9b54f9dc79d5570d8d3", "rental_uris": {"ios": "https://dc.lft.to/lastmile_qr_scan", "android": "https://dc.lft.to/lastmile_qr_scan"}}, {"name": "e8a6b8ae17b9f9dbbd62d41902aedd65", "type": "electric_scooter", "lat": 38.92152383333333, "is_reserved": 0, "lon": -77.03530316666667, "fusion_lon": 0.0, "is_disabled": 0, "fusion_lat": 0.0, "bike_id": "e8a6b8ae17b9f9dbbd62d41902aedd65", "rental_uris": {"ios": "https://dc.lft.to/lastmile_qr_scan", "android": "https://dc.lft.to/lastmile_qr_scan"}}, {"name": "e19ab13fd308b1b9d8aa7193c06eae6d", "type": "electric_scooter", "lat": 38.90387466666667, "is_reserved": 0, "lon": -77.039672, "fusion_lon": 0.0, "is_disabled": 0, "fusion_lat": 0.0, "bike_id": "e19ab13fd308b1b9d8aa7193c06eae6d", "rental_uris": {"ios": "https://dc.lft.to/lastmile_qr_scan", "android": "https://dc.lft.to/lastmile_qr_scan"}}, {"name": "5cfc5e50097b517eb79dd9edd5ecd129", "type": "electric_scooter", "lat": 38.94099216666667, "is_reserved": 0, "lon": -77.02112216666667, "fusion_lon": 0.0, "is_disabled": 0, "fusion_lat": 0.0, "bike_id": "5cfc5e50097b517eb79dd9edd5ecd129", "rental_uris": {"ios": "https://dc.lft.to/lastmile_qr_scan", "android": "https://dc.lft.to/lastmile_qr_scan"}}, {"name": "542432c02b6571f6a947cf1096ae85a1", "type": "electric_scooter", "lat": 38.88505, "is_reserved": 0, "lon": -77.00569616666667, "fusion_lon": 0.0, "is_disabled": 0, "fusion_lat": 0.0, "bike_id": "542432c02b6571f6a947cf1096ae85a1", "rental_uris": {"ios": "https://dc.lft.to/lastmile_qr_scan", "android": "https://dc.lft.to/lastmile_qr_scan"}}, {"name": "5a03d7ddeea312b609aac8f001ded2b8", "type": "electric_scooter", "lat": 38.91567466666667, "is_reserved": 0, "lon": -77.03836316666667, "fusion_lon": 0.0, "is_disabled": 0, "fusion_lat": 0.0, "bike_id": "5a03d7ddeea312b609aac8f001ded2b8", "rental_uris": {"ios": "https://dc.lft.to/lastmile_qr_scan", "android": "https://dc.lft.to/lastmile_qr_scan"}}, {"name": "0e3155118412d8e473c9ceadf06a4c55", "type": "electric_scooter", "lat": 38.8910545, "is_reserved": 0, "lon": -76.98705416666667, "fusion_lon": 0.0, "is_disabled": 0, "fusion_lat": 0.0, "bike_id": "0e3155118412d8e473c9ceadf06a4c55", "rental_uris": {"ios": "https://dc.lft.to/lastmile_qr_scan", "android": "https://dc.lft.to/lastmile_qr_scan"}}, {"name": "547df4c355c149215b4e44f06fe5fa47", "type": "electric_scooter", "lat": 38.860931, "is_reserved": 0, "lon": -76.98379766666666, "fusion_lon": 0.0, "is_disabled": 0, "fusion_lat": 0.0, "bike_id": "547df4c355c149215b4e44f06fe5fa47", "rental_uris": {"ios": "https://dc.lft.to/lastmile_qr_scan", "android": "https://dc.lft.to/lastmile_qr_scan"}}, {"name": "989ce276e70f33d561f0b08a6a329e74", "type": "electric_scooter", "lat": 38.89517516666667, "is_reserved": 0, "lon": -77.02278783333334, "fusion_lon": 0.0, "is_disabled": 0, "fusion_lat": 0.0, "bike_id": "989ce276e70f33d561f0b08a6a329e74", "rental_uris": {"ios": "https://dc.lft.to/lastmile_qr_scan", "android": "https://dc.lft.to/lastmile_qr_scan"}}, {"name": "b63b22510cf43de06df0ab1fde85d30c", "type": "electric_scooter", "lat": 38.877223, "is_reserved": 0, "lon": -77.017648, "fusion_lon": 0.0, "is_disabled": 0, "fusion_lat": 0.0, "bike_id": "b63b22510cf43de06df0ab1fde85d30c", "rental_uris": {"ios": "https://dc.lft.to/lastmile_qr_scan", "android": "https://dc.lft.to/lastmile_qr_scan"}}, {"name": "44f5e32c7ec554330f2e5d227dc5ddc5", "type": "electric_scooter", "lat": 38.91570183333333, "is_reserved": 0, "lon": -77.046228, "fusion_lon": 0.0, "is_disabled": 0, "fusion_lat": 0.0, "bike_id": "44f5e32c7ec554330f2e5d227dc5ddc5", "rental_uris": {"ios": "https://dc.lft.to/lastmile_qr_scan", "android": "https://dc.lft.to/lastmile_qr_scan"}}, {"name": "c957919b35e38c69e28b493745c0101f", "type": "electric_bike", "lat": 38.8708765, "is_reserved": 0, "lon": -77.012017, "fusion_lon": 0.0, "is_disabled": 0, "fusion_lat": 0.0, "bike_id": "c957919b35e38c69e28b493745c0101f", "rental_uris": {"ios": "https://dc.lft.to/lastmile_qr_scan", "android": "https://dc.lft.to/lastmile_qr_scan"}}, {"name": "612981d6713414a4e4ce0b1cc0b58a19", "type": "electric_scooter", "lat": 38.90276766666667, "is_reserved": 0, "lon": -77.036676, "fusion_lon": 0.0, "is_disabled": 0, "fusion_lat": 0.0, "bike_id": "612981d6713414a4e4ce0b1cc0b58a19", "rental_uris": {"ios": "https://dc.lft.to/lastmile_qr_scan", "android": "https://dc.lft.to/lastmile_qr_scan"}}, {"name": "0e4cb8e88f308e2aff93369d17b1ac97", "type": "electric_scooter", "lat": 38.9048725, "is_reserved": 0, "lon": -76.98434666666667, "fusion_lon": 0.0, "is_disabled": 0, "fusion_lat": 0.0, "bike_id": "0e4cb8e88f308e2aff93369d17b1ac97", "rental_uris": {"ios": "https://dc.lft.to/lastmile_qr_scan", "android": "https://dc.lft.to/lastmile_qr_scan"}}, {"name": "a1c056491a14fd1e114a6ef2fd2165b6", "type": "electric_scooter", "lat": 38.89609766666667, "is_reserved": 0, "lon": -77.04507216666667, "fusion_lon": 0.0, "is_disabled": 0, "fusion_lat": 0.0, "bike_id": "a1c056491a14fd1e114a6ef2fd2165b6", "rental_uris": {"ios": "https://dc.lft.to/lastmile_qr_scan", "android": "https://dc.lft.to/lastmile_qr_scan"}}, {"name": "3e0ce158b6147b14fff5b8682d936d58", "type": "electric_scooter", "lat": 38.876807, "is_reserved": 0, "lon": -77.00076766666666, "fusion_lon": 0.0, "is_disabled": 0, "fusion_lat": 0.0, "bike_id": "3e0ce158b6147b14fff5b8682d936d58", "rental_uris": {"ios": "https://dc.lft.to/lastmile_qr_scan", "android": "https://dc.lft.to/lastmile_qr_scan"}}, {"name": "46e163df2c02bd2078158012ee2b94de", "type": "electric_scooter", "lat": 38.914364666666664, "is_reserved": 0, "lon": -77.0034855, "fusion_lon": 0.0, "is_disabled": 0, "fusion_lat": 0.0, "bike_id": "46e163df2c02bd2078158012ee2b94de", "rental_uris": {"ios": "https://dc.lft.to/lastmile_qr_scan", "android": "https://dc.lft.to/lastmile_qr_scan"}}, {"name": "78da2a85bd9fbb5445ac39f00753cbae", "type": "electric_scooter", "lat": 38.928848333333335, "is_reserved": 0, "lon": -77.05462566666667, "fusion_lon": 0.0, "is_disabled": 0, "fusion_lat": 0.0, "bike_id": "78da2a85bd9fbb5445ac39f00753cbae", "rental_uris": {"ios": "https://dc.lft.to/lastmile_qr_scan", "android": "https://dc.lft.to/lastmile_qr_scan"}}, {"name": "141518dc6d2db0a8e1ffeba02e4a9118", "type": "electric_scooter", "lat": 38.94282166666667, "is_reserved": 0, "lon": -77.02509066666667, "fusion_lon": 0.0, "is_disabled": 0, "fusion_lat": 0.0, "bike_id": "141518dc6d2db0a8e1ffeba02e4a9118", "rental_uris": {"ios": "https://dc.lft.to/lastmile_qr_scan", "android": "https://dc.lft.to/lastmile_qr_scan"}}, {"name": "0aea99dafad5ae7239a5d35576ed28c6", "type": "electric_scooter", "lat": 38.9066795, "is_reserved": 0, "lon": -77.04336216666667, "fusion_lon": 0.0, "is_disabled": 0, "fusion_lat": 0.0, "bike_id": "0aea99dafad5ae7239a5d35576ed28c6", "rental_uris": {"ios": "https://dc.lft.to/lastmile_qr_scan", "android": "https://dc.lft.to/lastmile_qr_scan"}}, {"name": "ef96f22b53a59507db7dc8c038c12af1", "type": "electric_scooter", "lat": 38.897572833333335, "is_reserved": 0, "lon": -77.0292955, "fusion_lon": 0.0, "is_disabled": 0, "fusion_lat": 0.0, "bike_id": "ef96f22b53a59507db7dc8c038c12af1", "rental_uris": {"ios": "https://dc.lft.to/lastmile_qr_scan", "android": "https://dc.lft.to/lastmile_qr_scan"}}, {"name": "f4b5497ca3a1f0b8266f8fcaaff726ba", "type": "electric_scooter", "lat": 38.904095166666664, "is_reserved": 0, "lon": -76.98096766666667, "fusion_lon": 0.0, "is_disabled": 0, "fusion_lat": 0.0, "bike_id": "f4b5497ca3a1f0b8266f8fcaaff726ba", "rental_uris": {"ios": "https://dc.lft.to/lastmile_qr_scan", "android": "https://dc.lft.to/lastmile_qr_scan"}}, {"name": "cea77d38d0a3338fa96ac69fe4c5120d", "type": "electric_scooter", "lat": 38.893545333333336, "is_reserved": 0, "lon": -77.003352, "fusion_lon": 0.0, "is_disabled": 0, "fusion_lat": 0.0, "bike_id": "cea77d38d0a3338fa96ac69fe4c5120d", "rental_uris": {"ios": "https://dc.lft.to/lastmile_qr_scan", "android": "https://dc.lft.to/lastmile_qr_scan"}}, {"name": "ca4223d1f392c85efd7a69a71dbfce10", "type": "electric_scooter", "lat": 38.90816916666667, "is_reserved": 0, "lon": -77.0394445, "fusion_lon": 0.0, "is_disabled": 0, "fusion_lat": 0.0, "bike_id": "ca4223d1f392c85efd7a69a71dbfce10", "rental_uris": {"ios": "https://dc.lft.to/lastmile_qr_scan", "android": "https://dc.lft.to/lastmile_qr_scan"}}, {"name": "149b33dec54a891425ee1b4251aae37f", "type": "electric_scooter", "lat": 38.908467333333334, "is_reserved": 0, "lon": -77.08531916666666, "fusion_lon": 0.0, "is_disabled": 0, "fusion_lat": 0.0, "bike_id": "149b33dec54a891425ee1b4251aae37f", "rental_uris": {"ios": "https://dc.lft.to/lastmile_qr_scan", "android": "https://dc.lft.to/lastmile_qr_scan"}}, {"name": "badbd94aa7969c049d20facc8b2a6536", "type": "electric_scooter", "lat": 38.890477833333335, "is_reserved": 0, "lon": -76.9375265, "fusion_lon": 0.0, "is_disabled": 0, "fusion_lat": 0.0, "bike_id": "badbd94aa7969c049d20facc8b2a6536", "rental_uris": {"ios": "https://dc.lft.to/lastmile_qr_scan", "android": "https://dc.lft.to/lastmile_qr_scan"}}, {"name": "b5f49c4c73cf83d4c57e0a874284c578", "type": "electric_scooter", "lat": 38.930592, "is_reserved": 0, "lon": -77.02797666666666, "fusion_lon": 0.0, "is_disabled": 0, "fusion_lat": 0.0, "bike_id": "b5f49c4c73cf83d4c57e0a874284c578", "rental_uris": {"ios": "https://dc.lft.to/lastmile_qr_scan", "android": "https://dc.lft.to/lastmile_qr_scan"}}, {"name": "1c029d017673d6a3812a65a8134dadec", "type": "electric_scooter", "lat": 38.924485, "is_reserved": 0, "lon": -77.0336825, "fusion_lon": 0.0, "is_disabled": 0, "fusion_lat": 0.0, "bike_id": "1c029d017673d6a3812a65a8134dadec", "rental_uris": {"ios": "https://dc.lft.to/lastmile_qr_scan", "android": "https://dc.lft.to/lastmile_qr_scan"}}, {"name": "346e49998490492a08cd13b0988fe4e6", "type": "electric_scooter", "lat": 38.903267166666666, "is_reserved": 0, "lon": -77.0347645, "fusion_lon": 0.0, "is_disabled": 0, "fusion_lat": 0.0, "bike_id": "346e49998490492a08cd13b0988fe4e6", "rental_uris": {"ios": "https://dc.lft.to/lastmile_qr_scan", "android": "https://dc.lft.to/lastmile_qr_scan"}}, {"name": "b6d4c3edf94551215d733a5576bd88d4", "type": "electric_scooter", "lat": 38.90124016666667, "is_reserved": 0, "lon": -77.03325083333333, "fusion_lon": 0.0, "is_disabled": 0, "fusion_lat": 0.0, "bike_id": "b6d4c3edf94551215d733a5576bd88d4", "rental_uris": {"ios": "https://dc.lft.to/lastmile_qr_scan", "android": "https://dc.lft.to/lastmile_qr_scan"}}, {"name": "a28838aacea006dbd2c3bf00d2a4f835", "type": "electric_scooter", "lat": 38.940976, "is_reserved": 0, "lon": -77.03281766666667, "fusion_lon": 0.0, "is_disabled": 0, "fusion_lat": 0.0, "bike_id": "a28838aacea006dbd2c3bf00d2a4f835", "rental_uris": {"ios": "https://dc.lft.to/lastmile_qr_scan", "android": "https://dc.lft.to/lastmile_qr_scan"}}, {"name": "3de4f88eb8158f26e2040f0bd8a1bf68", "type": "electric_scooter", "lat": 38.972357333333335, "is_reserved": 0, "lon": -77.02714966666667, "fusion_lon": 0.0, "is_disabled": 0, "fusion_lat": 0.0, "bike_id": "3de4f88eb8158f26e2040f0bd8a1bf68", "rental_uris": {"ios": "https://dc.lft.to/lastmile_qr_scan", "android": "https://dc.lft.to/lastmile_qr_scan"}}, {"name": "178b04019aa123c3de1b29412fa92452", "type": "electric_scooter", "lat": 38.9244655, "is_reserved": 0, "lon": -77.02037733333333, "fusion_lon": 0.0, "is_disabled": 0, "fusion_lat": 0.0, "bike_id": "178b04019aa123c3de1b29412fa92452", "rental_uris": {"ios": "https://dc.lft.to/lastmile_qr_scan", "android": "https://dc.lft.to/lastmile_qr_scan"}}, {"name": "ffdd5bb52b0a25a0ba87532a7e031421", "type": "electric_scooter", "lat": 38.85528583333333, "is_reserved": 0, "lon": -76.96921066666667, "fusion_lon": 0.0, "is_disabled": 0, "fusion_lat": 0.0, "bike_id": "ffdd5bb52b0a25a0ba87532a7e031421", "rental_uris": {"ios": "https://dc.lft.to/lastmile_qr_scan", "android": "https://dc.lft.to/lastmile_qr_scan"}}, {"name": "752cf6ec3b1050f0dfb133bacab181a7", "type": "electric_scooter", "lat": 38.894060333333336, "is_reserved": 0, "lon": -76.94803233333333, "fusion_lon": 0.0, "is_disabled": 0, "fusion_lat": 0.0, "bike_id": "752cf6ec3b1050f0dfb133bacab181a7", "rental_uris": {"ios": "https://dc.lft.to/lastmile_qr_scan", "android": "https://dc.lft.to/lastmile_qr_scan"}}, {"name": "2664724f5930c1adab5f8a2d67185008", "type": "electric_scooter", "lat": 38.919452, "is_reserved": 0, "lon": -77.03199783333334, "fusion_lon": 0.0, "is_disabled": 0, "fusion_lat": 0.0, "bike_id": "2664724f5930c1adab5f8a2d67185008", "rental_uris": {"ios": "https://dc.lft.to/lastmile_qr_scan", "android": "https://dc.lft.to/lastmile_qr_scan"}}, {"name": "900611122ca308ad283febbc3ad01a63", "type": "electric_scooter", "lat": 38.91506033333334, "is_reserved": 0, "lon": -77.03855183333333, "fusion_lon": 0.0, "is_disabled": 0, "fusion_lat": 0.0, "bike_id": "900611122ca308ad283febbc3ad01a63", "rental_uris": {"ios": "https://dc.lft.to/lastmile_qr_scan", "android": "https://dc.lft.to/lastmile_qr_scan"}}, {"name": "cac52eba9766a9134d9345ad119092e0", "type": "electric_scooter", "lat": 38.899987, "is_reserved": 0, "lon": -76.99507083333333, "fusion_lon": 0.0, "is_disabled": 0, "fusion_lat": 0.0, "bike_id": "cac52eba9766a9134d9345ad119092e0", "rental_uris": {"ios": "https://dc.lft.to/lastmile_qr_scan", "android": "https://dc.lft.to/lastmile_qr_scan"}}, {"name": "3d826a1846beca9a2de710ad4e33d1d0", "type": "electric_scooter", "lat": 38.86413966666667, "is_reserved": 0, "lon": -76.98053383333334, "fusion_lon": 0.0, "is_disabled": 0, "fusion_lat": 0.0, "bike_id": "3d826a1846beca9a2de710ad4e33d1d0", "rental_uris": {"ios": "https://dc.lft.to/lastmile_qr_scan", "android": "https://dc.lft.to/lastmile_qr_scan"}}, {"name": "228a03fe1d9e40ec64952d43ddd0a570", "type": "electric_scooter", "lat": 38.9175985, "is_reserved": 0, "lon": -77.039634, "fusion_lon": 0.0, "is_disabled": 0, "fusion_lat": 0.0, "bike_id": "228a03fe1d9e40ec64952d43ddd0a570", "rental_uris": {"ios": "https://dc.lft.to/lastmile_qr_scan", "android": "https://dc.lft.to/lastmile_qr_scan"}}, {"name": "efca994b5e969f29dbf4e7b7c51d99e9", "type": "electric_scooter", "lat": 38.899700833333334, "is_reserved": 0, "lon": -77.02720366666667, "fusion_lon": 0.0, "is_disabled": 0, "fusion_lat": 0.0, "bike_id": "efca994b5e969f29dbf4e7b7c51d99e9", "rental_uris": {"ios": "https://dc.lft.to/lastmile_qr_scan", "android": "https://dc.lft.to/lastmile_qr_scan"}}, {"name": "55239e9792ab35596bb85d0b4fed19c3", "type": "electric_scooter", "lat": 38.8852625, "is_reserved": 0, "lon": -77.0058175, "fusion_lon": 0.0, "is_disabled": 0, "fusion_lat": 0.0, "bike_id": "55239e9792ab35596bb85d0b4fed19c3", "rental_uris": {"ios": "https://dc.lft.to/lastmile_qr_scan", "android": "https://dc.lft.to/lastmile_qr_scan"}}, {"name": "95b4f9dd89da006c1efec9ccdea28b5d", "type": "electric_scooter", "lat": 38.933575833333336, "is_reserved": 0, "lon": -77.06938983333333, "fusion_lon": 0.0, "is_disabled": 0, "fusion_lat": 0.0, "bike_id": "95b4f9dd89da006c1efec9ccdea28b5d", "rental_uris": {"ios": "https://dc.lft.to/lastmile_qr_scan", "android": "https://dc.lft.to/lastmile_qr_scan"}}, {"name": "d292019b8c5d9bab37a11da7d2cd9793", "type": "electric_scooter", "lat": 38.89890166666667, "is_reserved": 0, "lon": -77.039347, "fusion_lon": 0.0, "is_disabled": 0, "fusion_lat": 0.0, "bike_id": "d292019b8c5d9bab37a11da7d2cd9793", "rental_uris": {"ios": "https://dc.lft.to/lastmile_qr_scan", "android": "https://dc.lft.to/lastmile_qr_scan"}}, {"name": "0f2a178285e0af9649cb64a0697d324a", "type": "electric_scooter", "lat": 38.919914, "is_reserved": 0, "lon": -77.034668, "fusion_lon": 0.0, "is_disabled": 0, "fusion_lat": 0.0, "bike_id": "0f2a178285e0af9649cb64a0697d324a", "rental_uris": {"ios": "https://dc.lft.to/lastmile_qr_scan", "android": "https://dc.lft.to/lastmile_qr_scan"}}, {"name": "af17b53e43c1b0d8bd3c1b8e9e5671a8", "type": "electric_scooter", "lat": 38.902838833333334, "is_reserved": 0, "lon": -77.03842183333333, "fusion_lon": 0.0, "is_disabled": 0, "fusion_lat": 0.0, "bike_id": "af17b53e43c1b0d8bd3c1b8e9e5671a8", "rental_uris": {"ios": "https://dc.lft.to/lastmile_qr_scan", "android": "https://dc.lft.to/lastmile_qr_scan"}}, {"name": "0a3cfe215f9330843760d507ef921de3", "type": "electric_scooter", "lat": 38.8974445, "is_reserved": 0, "lon": -77.04495483333334, "fusion_lon": 0.0, "is_disabled": 0, "fusion_lat": 0.0, "bike_id": "0a3cfe215f9330843760d507ef921de3", "rental_uris": {"ios": "https://dc.lft.to/lastmile_qr_scan", "android": "https://dc.lft.to/lastmile_qr_scan"}}, {"name": "61db755dbfd9338e96a9cbc546c7a699", "type": "electric_scooter", "lat": 38.88772933333333, "is_reserved": 0, "lon": -76.95535833333334, "fusion_lon": 0.0, "is_disabled": 0, "fusion_lat": 0.0, "bike_id": "61db755dbfd9338e96a9cbc546c7a699", "rental_uris": {"ios": "https://dc.lft.to/lastmile_qr_scan", "android": "https://dc.lft.to/lastmile_qr_scan"}}, {"name": "7702eb7bf95e063c39486ec43e29eaa1", "type": "electric_scooter", "lat": 38.891958333333335, "is_reserved": 0, "lon": -77.00243083333334, "fusion_lon": 0.0, "is_disabled": 0, "fusion_lat": 0.0, "bike_id": "7702eb7bf95e063c39486ec43e29eaa1", "rental_uris": {"ios": "https://dc.lft.to/lastmile_qr_scan", "android": "https://dc.lft.to/lastmile_qr_scan"}}, {"name": "41fb9f7404953db76b4cfa4f79e398b5", "type": "electric_scooter", "lat": 38.924274833333335, "is_reserved": 0, "lon": -77.04248533333333, "fusion_lon": 0.0, "is_disabled": 0, "fusion_lat": 0.0, "bike_id": "41fb9f7404953db76b4cfa4f79e398b5", "rental_uris": {"ios": "https://dc.lft.to/lastmile_qr_scan", "android": "https://dc.lft.to/lastmile_qr_scan"}}, {"name": "df1f51595e313dc5b79cb80f74cc4649", "type": "electric_bike", "lat": 38.95928716666667, "is_reserved": 0, "lon": -76.92541066666666, "fusion_lon": 0.0, "is_disabled": 0, "fusion_lat": 0.0, "bike_id": "df1f51595e313dc5b79cb80f74cc4649", "rental_uris": {"ios": "https://dc.lft.to/lastmile_qr_scan", "android": "https://dc.lft.to/lastmile_qr_scan"}}, {"name": "f5afbf82d712ff862e213ee8a9a105bb", "type": "electric_scooter", "lat": 38.906613666666665, "is_reserved": 0, "lon": -77.02693166666667, "fusion_lon": 0.0, "is_disabled": 0, "fusion_lat": 0.0, "bike_id": "f5afbf82d712ff862e213ee8a9a105bb", "rental_uris": {"ios": "https://dc.lft.to/lastmile_qr_scan", "android": "https://dc.lft.to/lastmile_qr_scan"}}, {"name": "5fa5eecb20b92602ff6c8a52b3210156", "type": "electric_scooter", "lat": 38.897402666666665, "is_reserved": 0, "lon": -77.02705283333333, "fusion_lon": 0.0, "is_disabled": 0, "fusion_lat": 0.0, "bike_id": "5fa5eecb20b92602ff6c8a52b3210156", "rental_uris": {"ios": "https://dc.lft.to/lastmile_qr_scan", "android": "https://dc.lft.to/lastmile_qr_scan"}}, {"name": "0cecda689b2eb9aa993339a071e6242f", "type": "electric_scooter", "lat": 38.869608166666666, "is_reserved": 0, "lon": -77.01377, "fusion_lon": 0.0, "is_disabled": 0, "fusion_lat": 0.0, "bike_id": "0cecda689b2eb9aa993339a071e6242f", "rental_uris": {"ios": "https://dc.lft.to/lastmile_qr_scan", "android": "https://dc.lft.to/lastmile_qr_scan"}}, {"name": "cce3d408645a257ba330a1c6214b7da3", "type": "electric_scooter", "lat": 38.92014433333333, "is_reserved": 0, "lon": -77.03775483333334, "fusion_lon": 0.0, "is_disabled": 0, "fusion_lat": 0.0, "bike_id": "cce3d408645a257ba330a1c6214b7da3", "rental_uris": {"ios": "https://dc.lft.to/lastmile_qr_scan", "android": "https://dc.lft.to/lastmile_qr_scan"}}, {"name": "90e9cbbf6a70abd620312b371310523f", "type": "electric_scooter", "lat": 38.902747833333336, "is_reserved": 0, "lon": -77.03850433333334, "fusion_lon": 0.0, "is_disabled": 0, "fusion_lat": 0.0, "bike_id": "90e9cbbf6a70abd620312b371310523f", "rental_uris": {"ios": "https://dc.lft.to/lastmile_qr_scan", "android": "https://dc.lft.to/lastmile_qr_scan"}}, {"name": "180c083c8ba668ebfcca64306ac6e2b2", "type": "electric_scooter", "lat": 38.9749255, "is_reserved": 0, "lon": -77.01696166666666, "fusion_lon": 0.0, "is_disabled": 0, "fusion_lat": 0.0, "bike_id": "180c083c8ba668ebfcca64306ac6e2b2", "rental_uris": {"ios": "https://dc.lft.to/lastmile_qr_scan", "android": "https://dc.lft.to/lastmile_qr_scan"}}, {"name": "be9760552e85661381f9890b4235b6f3", "type": "electric_bike", "lat": 38.95330233333333, "is_reserved": 0, "lon": -76.98250066666667, "fusion_lon": 0.0, "is_disabled": 0, "fusion_lat": 0.0, "bike_id": "be9760552e85661381f9890b4235b6f3", "rental_uris": {"ios": "https://dc.lft.to/lastmile_qr_scan", "android": "https://dc.lft.to/lastmile_qr_scan"}}, {"name": "221a6baa86f8d50538073848034e357f", "type": "electric_scooter", "lat": 38.909673833333336, "is_reserved": 0, "lon": -77.01120216666666, "fusion_lon": 0.0, "is_disabled": 0, "fusion_lat": 0.0, "bike_id": "221a6baa86f8d50538073848034e357f", "rental_uris": {"ios": "https://dc.lft.to/lastmile_qr_scan", "android": "https://dc.lft.to/lastmile_qr_scan"}}, {"name": "8937490fc6bb197687eed3031b138b65", "type": "electric_scooter", "lat": 38.89674983333333, "is_reserved": 0, "lon": -77.029529, "fusion_lon": 0.0, "is_disabled": 0, "fusion_lat": 0.0, "bike_id": "8937490fc6bb197687eed3031b138b65", "rental_uris": {"ios": "https://dc.lft.to/lastmile_qr_scan", "android": "https://dc.lft.to/lastmile_qr_scan"}}, {"name": "1b0c64b9122059cba40984f9c0a0301a", "type": "electric_scooter", "lat": 38.91239616666667, "is_reserved": 0, "lon": -77.04879616666666, "fusion_lon": 0.0, "is_disabled": 0, "fusion_lat": 0.0, "bike_id": "1b0c64b9122059cba40984f9c0a0301a", "rental_uris": {"ios": "https://dc.lft.to/lastmile_qr_scan", "android": "https://dc.lft.to/lastmile_qr_scan"}}, {"name": "f001a94dfe6f476547e047f1a369a16e", "type": "electric_scooter", "lat": 38.89525116666667, "is_reserved": 0, "lon": -77.0034335, "fusion_lon": 0.0, "is_disabled": 0, "fusion_lat": 0.0, "bike_id": "f001a94dfe6f476547e047f1a369a16e", "rental_uris": {"ios": "https://dc.lft.to/lastmile_qr_scan", "android": "https://dc.lft.to/lastmile_qr_scan"}}, {"name": "6c1e7e324f1efebf7fbef17e267f2527", "type": "electric_bike", "lat": 38.83830366666667, "is_reserved": 0, "lon": -76.99686316666667, "fusion_lon": 0.0, "is_disabled": 0, "fusion_lat": 0.0, "bike_id": "6c1e7e324f1efebf7fbef17e267f2527", "rental_uris": {"ios": "https://dc.lft.to/lastmile_qr_scan", "android": "https://dc.lft.to/lastmile_qr_scan"}}, {"name": "18242019d7750a6243e84560ae5b44da", "type": "electric_scooter", "lat": 38.928718, "is_reserved": 0, "lon": -77.01383716666666, "fusion_lon": 0.0, "is_disabled": 0, "fusion_lat": 0.0, "bike_id": "18242019d7750a6243e84560ae5b44da", "rental_uris": {"ios": "https://dc.lft.to/lastmile_qr_scan", "android": "https://dc.lft.to/lastmile_qr_scan"}}, {"name": "54c242c48a60ac80e7037c02f2d4b7e9", "type": "electric_scooter", "lat": 38.89237966666666, "is_reserved": 0, "lon": -77.01536766666666, "fusion_lon": 0.0, "is_disabled": 0, "fusion_lat": 0.0, "bike_id": "54c242c48a60ac80e7037c02f2d4b7e9", "rental_uris": {"ios": "https://dc.lft.to/lastmile_qr_scan", "android": "https://dc.lft.to/lastmile_qr_scan"}}, {"name": "a9a93fc8b783a3e9e22294980a78a777", "type": "electric_scooter", "lat": 38.93289016666667, "is_reserved": 0, "lon": -77.0398365, "fusion_lon": 0.0, "is_disabled": 0, "fusion_lat": 0.0, "bike_id": "a9a93fc8b783a3e9e22294980a78a777", "rental_uris": {"ios": "https://dc.lft.to/lastmile_qr_scan", "android": "https://dc.lft.to/lastmile_qr_scan"}}, {"name": "6114853a3efe8646db0bf5b75a8d2129", "type": "electric_scooter", "lat": 38.8651965, "is_reserved": 0, "lon": -76.99031233333334, "fusion_lon": 0.0, "is_disabled": 0, "fusion_lat": 0.0, "bike_id": "6114853a3efe8646db0bf5b75a8d2129", "rental_uris": {"ios": "https://dc.lft.to/lastmile_qr_scan", "android": "https://dc.lft.to/lastmile_qr_scan"}}, {"name": "5e9a08b10c308b78663a94e94e0130e0", "type": "electric_scooter", "lat": 38.886886833333335, "is_reserved": 0, "lon": -76.95764833333334, "fusion_lon": 0.0, "is_disabled": 0, "fusion_lat": 0.0, "bike_id": "5e9a08b10c308b78663a94e94e0130e0", "rental_uris": {"ios": "https://dc.lft.to/lastmile_qr_scan", "android": "https://dc.lft.to/lastmile_qr_scan"}}, {"name": "7195b3a3a56a3c218c43175186ea46e4", "type": "electric_scooter", "lat": 38.89456333333333, "is_reserved": 0, "lon": -77.0192055, "fusion_lon": 0.0, "is_disabled": 0, "fusion_lat": 0.0, "bike_id": "7195b3a3a56a3c218c43175186ea46e4", "rental_uris": {"ios": "https://dc.lft.to/lastmile_qr_scan", "android": "https://dc.lft.to/lastmile_qr_scan"}}, {"name": "5bb236c46d44e910a19f7fe33d2dc555", "type": "electric_scooter", "lat": 38.92771, "is_reserved": 0, "lon": -77.0730585, "fusion_lon": 0.0, "is_disabled": 0, "fusion_lat": 0.0, "bike_id": "5bb236c46d44e910a19f7fe33d2dc555", "rental_uris": {"ios": "https://dc.lft.to/lastmile_qr_scan", "android": "https://dc.lft.to/lastmile_qr_scan"}}, {"name": "f06f46f96d48c874f44cf3d1d7925a58", "type": "electric_scooter", "lat": 38.89739433333333, "is_reserved": 0, "lon": -76.93844333333334, "fusion_lon": 0.0, "is_disabled": 0, "fusion_lat": 0.0, "bike_id": "f06f46f96d48c874f44cf3d1d7925a58", "rental_uris": {"ios": "https://dc.lft.to/lastmile_qr_scan", "android": "https://dc.lft.to/lastmile_qr_scan"}}, {"name": "a52ac77563bd93bd0acfe384dbe3932e", "type": "electric_scooter", "lat": 38.87632, "is_reserved": 0, "lon": -76.96529483333333, "fusion_lon": 0.0, "is_disabled": 0, "fusion_lat": 0.0, "bike_id": "a52ac77563bd93bd0acfe384dbe3932e", "rental_uris": {"ios": "https://dc.lft.to/lastmile_qr_scan", "android": "https://dc.lft.to/lastmile_qr_scan"}}, {"name": "9425670fabd179bcc0ef8ed03c7102c1", "type": "electric_scooter", "lat": 38.9294675, "is_reserved": 0, "lon": -77.03256883333333, "fusion_lon": 0.0, "is_disabled": 0, "fusion_lat": 0.0, "bike_id": "9425670fabd179bcc0ef8ed03c7102c1", "rental_uris": {"ios": "https://dc.lft.to/lastmile_qr_scan", "android": "https://dc.lft.to/lastmile_qr_scan"}}, {"name": "f643faa1336d5dccae74edc94bac8dbe", "type": "electric_scooter", "lat": 38.91632966666667, "is_reserved": 0, "lon": -77.010896, "fusion_lon": 0.0, "is_disabled": 0, "fusion_lat": 0.0, "bike_id": "f643faa1336d5dccae74edc94bac8dbe", "rental_uris": {"ios": "https://dc.lft.to/lastmile_qr_scan", "android": "https://dc.lft.to/lastmile_qr_scan"}}, {"name": "97f71fd6c2f47eca4d0601f96df1251d", "type": "electric_scooter", "lat": 38.90662316666667, "is_reserved": 0, "lon": -77.026981, "fusion_lon": 0.0, "is_disabled": 0, "fusion_lat": 0.0, "bike_id": "97f71fd6c2f47eca4d0601f96df1251d", "rental_uris": {"ios": "https://dc.lft.to/lastmile_qr_scan", "android": "https://dc.lft.to/lastmile_qr_scan"}}, {"name": "080f95f2dc223002fab9486a76890a7b", "type": "electric_scooter", "lat": 38.87785566666667, "is_reserved": 0, "lon": -76.99416216666667, "fusion_lon": 0.0, "is_disabled": 0, "fusion_lat": 0.0, "bike_id": "080f95f2dc223002fab9486a76890a7b", "rental_uris": {"ios": "https://dc.lft.to/lastmile_qr_scan", "android": "https://dc.lft.to/lastmile_qr_scan"}}, {"name": "2e84732affdc41efe8b0c0a4cd2b2c27", "type": "electric_scooter", "lat": 38.905764166666664, "is_reserved": 0, "lon": -77.03859016666667, "fusion_lon": 0.0, "is_disabled": 0, "fusion_lat": 0.0, "bike_id": "2e84732affdc41efe8b0c0a4cd2b2c27", "rental_uris": {"ios": "https://dc.lft.to/lastmile_qr_scan", "android": "https://dc.lft.to/lastmile_qr_scan"}}, {"name": "f1a448bea28932eb10d02c2716b89ca7", "type": "electric_scooter", "lat": 38.927172, "is_reserved": 0, "lon": -77.0210075, "fusion_lon": 0.0, "is_disabled": 0, "fusion_lat": 0.0, "bike_id": "f1a448bea28932eb10d02c2716b89ca7", "rental_uris": {"ios": "https://dc.lft.to/lastmile_qr_scan", "android": "https://dc.lft.to/lastmile_qr_scan"}}, {"name": "528f0371668b397c7d97881adb31be03", "type": "electric_scooter", "lat": 38.866603833333336, "is_reserved": 0, "lon": -76.98884733333334, "fusion_lon": 0.0, "is_disabled": 0, "fusion_lat": 0.0, "bike_id": "528f0371668b397c7d97881adb31be03", "rental_uris": {"ios": "https://dc.lft.to/lastmile_qr_scan", "android": "https://dc.lft.to/lastmile_qr_scan"}}, {"name": "7ce9d2d29b23e6a88943dab219895628", "type": "electric_scooter", "lat": 38.94274633333333, "is_reserved": 0, "lon": -77.02507583333333, "fusion_lon": 0.0, "is_disabled": 0, "fusion_lat": 0.0, "bike_id": "7ce9d2d29b23e6a88943dab219895628", "rental_uris": {"ios": "https://dc.lft.to/lastmile_qr_scan", "android": "https://dc.lft.to/lastmile_qr_scan"}}, {"name": "4e22d0d174eebafcf6cea66d567e2c20", "type": "electric_bike", "lat": 38.965067166666664, "is_reserved": 0, "lon": -77.1033615, "fusion_lon": 0.0, "is_disabled": 0, "fusion_lat": 0.0, "bike_id": "4e22d0d174eebafcf6cea66d567e2c20", "rental_uris": {"ios": "https://dc.lft.to/lastmile_qr_scan", "android": "https://dc.lft.to/lastmile_qr_scan"}}, {"name": "9630e939b68a35a6883c6253911734b0", "type": "electric_scooter", "lat": 38.905637666666664, "is_reserved": 0, "lon": -77.03479833333333, "fusion_lon": 0.0, "is_disabled": 0, "fusion_lat": 0.0, "bike_id": "9630e939b68a35a6883c6253911734b0", "rental_uris": {"ios": "https://dc.lft.to/lastmile_qr_scan", "android": "https://dc.lft.to/lastmile_qr_scan"}}, {"name": "be8e9cc03851aadff02f273eb065bd36", "type": "electric_scooter", "lat": 38.90037916666667, "is_reserved": 0, "lon": -77.0468435, "fusion_lon": 0.0, "is_disabled": 0, "fusion_lat": 0.0, "bike_id": "be8e9cc03851aadff02f273eb065bd36", "rental_uris": {"ios": "https://dc.lft.to/lastmile_qr_scan", "android": "https://dc.lft.to/lastmile_qr_scan"}}, {"name": "1bf18cc59c744070d28f6e7e7fd65016", "type": "electric_scooter", "lat": 38.92153716666667, "is_reserved": 0, "lon": -77.0366675, "fusion_lon": 0.0, "is_disabled": 0, "fusion_lat": 0.0, "bike_id": "1bf18cc59c744070d28f6e7e7fd65016", "rental_uris": {"ios": "https://dc.lft.to/lastmile_qr_scan", "android": "https://dc.lft.to/lastmile_qr_scan"}}, {"name": "667296ce3952eaefaba1738233b4c1a4", "type": "electric_scooter", "lat": 38.8921935, "is_reserved": 0, "lon": -77.04640916666666, "fusion_lon": 0.0, "is_disabled": 0, "fusion_lat": 0.0, "bike_id": "667296ce3952eaefaba1738233b4c1a4", "rental_uris": {"ios": "https://dc.lft.to/lastmile_qr_scan", "android": "https://dc.lft.to/lastmile_qr_scan"}}, {"name": "35e1bb2d8b2afe3c8514d962882318d9", "type": "electric_scooter", "lat": 38.92144433333333, "is_reserved": 0, "lon": -77.03457166666666, "fusion_lon": 0.0, "is_disabled": 0, "fusion_lat": 0.0, "bike_id": "35e1bb2d8b2afe3c8514d962882318d9", "rental_uris": {"ios": "https://dc.lft.to/lastmile_qr_scan", "android": "https://dc.lft.to/lastmile_qr_scan"}}, {"name": "f969993dc5197115e89a5e74eacf5167", "type": "electric_scooter", "lat": 38.9096475, "is_reserved": 0, "lon": -77.02416866666667, "fusion_lon": 0.0, "is_disabled": 0, "fusion_lat": 0.0, "bike_id": "f969993dc5197115e89a5e74eacf5167", "rental_uris": {"ios": "https://dc.lft.to/lastmile_qr_scan", "android": "https://dc.lft.to/lastmile_qr_scan"}}, {"name": "94c177686db4ee456ded41845e73a495", "type": "electric_scooter", "lat": 38.917196833333335, "is_reserved": 0, "lon": -77.038589, "fusion_lon": 0.0, "is_disabled": 0, "fusion_lat": 0.0, "bike_id": "94c177686db4ee456ded41845e73a495", "rental_uris": {"ios": "https://dc.lft.to/lastmile_qr_scan", "android": "https://dc.lft.to/lastmile_qr_scan"}}, {"name": "c3f61b6e73472bf045d70b24d5ac0d89", "type": "electric_scooter", "lat": 38.90582666666667, "is_reserved": 0, "lon": -77.0343945, "fusion_lon": 0.0, "is_disabled": 0, "fusion_lat": 0.0, "bike_id": "c3f61b6e73472bf045d70b24d5ac0d89", "rental_uris": {"ios": "https://dc.lft.to/lastmile_qr_scan", "android": "https://dc.lft.to/lastmile_qr_scan"}}, {"name": "b799521ae6d6b71a03e2511037ab7fb1", "type": "electric_scooter", "lat": 38.949594833333336, "is_reserved": 0, "lon": -77.02725133333334, "fusion_lon": 0.0, "is_disabled": 0, "fusion_lat": 0.0, "bike_id": "b799521ae6d6b71a03e2511037ab7fb1", "rental_uris": {"ios": "https://dc.lft.to/lastmile_qr_scan", "android": "https://dc.lft.to/lastmile_qr_scan"}}, {"name": "34e982d754c78dbfde499774dad29931", "type": "electric_scooter", "lat": 38.91816466666667, "is_reserved": 0, "lon": -77.023041, "fusion_lon": 0.0, "is_disabled": 0, "fusion_lat": 0.0, "bike_id": "34e982d754c78dbfde499774dad29931", "rental_uris": {"ios": "https://dc.lft.to/lastmile_qr_scan", "android": "https://dc.lft.to/lastmile_qr_scan"}}, {"name": "aa8c660a326c5cbdd8d120d0ce102daf", "type": "electric_scooter", "lat": 38.9273345, "is_reserved": 0, "lon": -77.025028, "fusion_lon": 0.0, "is_disabled": 0, "fusion_lat": 0.0, "bike_id": "aa8c660a326c5cbdd8d120d0ce102daf", "rental_uris": {"ios": "https://dc.lft.to/lastmile_qr_scan", "android": "https://dc.lft.to/lastmile_qr_scan"}}, {"name": "a97accf309a4804971a9dd11c5e226dd", "type": "electric_scooter", "lat": 38.922728666666664, "is_reserved": 0, "lon": -77.03666933333334, "fusion_lon": 0.0, "is_disabled": 0, "fusion_lat": 0.0, "bike_id": "a97accf309a4804971a9dd11c5e226dd", "rental_uris": {"ios": "https://dc.lft.to/lastmile_qr_scan", "android": "https://dc.lft.to/lastmile_qr_scan"}}, {"name": "d5556cd84f1c0bd5ea2db62e0a2a2773", "type": "electric_scooter", "lat": 38.89221966666667, "is_reserved": 0, "lon": -77.022253, "fusion_lon": 0.0, "is_disabled": 0, "fusion_lat": 0.0, "bike_id": "d5556cd84f1c0bd5ea2db62e0a2a2773", "rental_uris": {"ios": "https://dc.lft.to/lastmile_qr_scan", "android": "https://dc.lft.to/lastmile_qr_scan"}}, {"name": "a1086923895900b172232f6c5e427ab2", "type": "electric_scooter", "lat": 38.92176766666667, "is_reserved": 0, "lon": -77.04276966666667, "fusion_lon": 0.0, "is_disabled": 0, "fusion_lat": 0.0, "bike_id": "a1086923895900b172232f6c5e427ab2", "rental_uris": {"ios": "https://dc.lft.to/lastmile_qr_scan", "android": "https://dc.lft.to/lastmile_qr_scan"}}, {"name": "f6400b8f021e383135f9e6010ca68edc", "type": "electric_bike", "lat": 38.8982105, "is_reserved": 0, "lon": -76.9906965, "fusion_lon": 0.0, "is_disabled": 0, "fusion_lat": 0.0, "bike_id": "f6400b8f021e383135f9e6010ca68edc", "rental_uris": {"ios": "https://dc.lft.to/lastmile_qr_scan", "android": "https://dc.lft.to/lastmile_qr_scan"}}, {"name": "8fc812409ce480d5e80b86b37c7922f4", "type": "electric_scooter", "lat": 38.927148, "is_reserved": 0, "lon": -77.03851666666667, "fusion_lon": 0.0, "is_disabled": 0, "fusion_lat": 0.0, "bike_id": "8fc812409ce480d5e80b86b37c7922f4", "rental_uris": {"ios": "https://dc.lft.to/lastmile_qr_scan", "android": "https://dc.lft.to/lastmile_qr_scan"}}, {"name": "d4556e3cbe18db4340765a5efa1bf264", "type": "electric_scooter", "lat": 38.883295333333336, "is_reserved": 0, "lon": -77.01774816666666, "fusion_lon": 0.0, "is_disabled": 0, "fusion_lat": 0.0, "bike_id": "d4556e3cbe18db4340765a5efa1bf264", "rental_uris": {"ios": "https://dc.lft.to/lastmile_qr_scan", "android": "https://dc.lft.to/lastmile_qr_scan"}}, {"name": "9e745f60afcc49d4291cd7c77aee71fb", "type": "electric_bike", "lat": 38.956472166666664, "is_reserved": 0, "lon": -76.99750616666667, "fusion_lon": 0.0, "is_disabled": 0, "fusion_lat": 0.0, "bike_id": "9e745f60afcc49d4291cd7c77aee71fb", "rental_uris": {"ios": "https://dc.lft.to/lastmile_qr_scan", "android": "https://dc.lft.to/lastmile_qr_scan"}}, {"name": "c4beb006b81e21e45b72b78ab1e59e2d", "type": "electric_scooter", "lat": 38.91708283333333, "is_reserved": 0, "lon": -77.00117816666666, "fusion_lon": 0.0, "is_disabled": 0, "fusion_lat": 0.0, "bike_id": "c4beb006b81e21e45b72b78ab1e59e2d", "rental_uris": {"ios": "https://dc.lft.to/lastmile_qr_scan", "android": "https://dc.lft.to/lastmile_qr_scan"}}, {"name": "30a2a672a1bee5c2a7d1e8003746f4bb", "type": "electric_bike", "lat": 38.95187033333333, "is_reserved": 0, "lon": -76.93547583333333, "fusion_lon": 0.0, "is_disabled": 0, "fusion_lat": 0.0, "bike_id": "30a2a672a1bee5c2a7d1e8003746f4bb", "rental_uris": {"ios": "https://dc.lft.to/lastmile_qr_scan", "android": "https://dc.lft.to/lastmile_qr_scan"}}, {"name": "ef1e2d0a583c106f825e54726eb71160", "type": "electric_scooter", "lat": 38.90058616666666, "is_reserved": 0, "lon": -77.02985633333333, "fusion_lon": 0.0, "is_disabled": 0, "fusion_lat": 0.0, "bike_id": "ef1e2d0a583c106f825e54726eb71160", "rental_uris": {"ios": "https://dc.lft.to/lastmile_qr_scan", "android": "https://dc.lft.to/lastmile_qr_scan"}}, {"name": "3e5bde958c66111b80ea383331172830", "type": "electric_scooter", "lat": 38.9156345, "is_reserved": 0, "lon": -77.03835133333334, "fusion_lon": 0.0, "is_disabled": 0, "fusion_lat": 0.0, "bike_id": "3e5bde958c66111b80ea383331172830", "rental_uris": {"ios": "https://dc.lft.to/lastmile_qr_scan", "android": "https://dc.lft.to/lastmile_qr_scan"}}, {"name": "5e247725151ef00e77556284a7bd1d18", "type": "electric_scooter", "lat": 38.87678433333333, "is_reserved": 0, "lon": -77.00058716666666, "fusion_lon": 0.0, "is_disabled": 0, "fusion_lat": 0.0, "bike_id": "5e247725151ef00e77556284a7bd1d18", "rental_uris": {"ios": "https://dc.lft.to/lastmile_qr_scan", "android": "https://dc.lft.to/lastmile_qr_scan"}}, {"name": "7562adc156ffc278f6ada318f4719378", "type": "electric_scooter", "lat": 38.905770833333335, "is_reserved": 0, "lon": -77.00540516666666, "fusion_lon": 0.0, "is_disabled": 0, "fusion_lat": 0.0, "bike_id": "7562adc156ffc278f6ada318f4719378", "rental_uris": {"ios": "https://dc.lft.to/lastmile_qr_scan", "android": "https://dc.lft.to/lastmile_qr_scan"}}, {"name": "559546f35e62284f8d9cd20177444835", "type": "electric_scooter", "lat": 38.90330383333333, "is_reserved": 0, "lon": -77.038414, "fusion_lon": 0.0, "is_disabled": 0, "fusion_lat": 0.0, "bike_id": "559546f35e62284f8d9cd20177444835", "rental_uris": {"ios": "https://dc.lft.to/lastmile_qr_scan", "android": "https://dc.lft.to/lastmile_qr_scan"}}, {"name": "bd9daaf3ce9828ad612dca0bf35e1fd3", "type": "electric_scooter", "lat": 38.897226833333335, "is_reserved": 0, "lon": -77.01323916666666, "fusion_lon": 0.0, "is_disabled": 0, "fusion_lat": 0.0, "bike_id": "bd9daaf3ce9828ad612dca0bf35e1fd3", "rental_uris": {"ios": "https://dc.lft.to/lastmile_qr_scan", "android": "https://dc.lft.to/lastmile_qr_scan"}}, {"name": "f2e0bf56d5126808046401c5f7cfaf2f", "type": "electric_scooter", "lat": 38.927422, "is_reserved": 0, "lon": -77.01206583333334, "fusion_lon": 0.0, "is_disabled": 0, "fusion_lat": 0.0, "bike_id": "f2e0bf56d5126808046401c5f7cfaf2f", "rental_uris": {"ios": "https://dc.lft.to/lastmile_qr_scan", "android": "https://dc.lft.to/lastmile_qr_scan"}}, {"name": "7c8834ae08c631d45acd97fa3aea7c35", "type": "electric_scooter", "lat": 38.90405966666667, "is_reserved": 0, "lon": -77.029594, "fusion_lon": 0.0, "is_disabled": 0, "fusion_lat": 0.0, "bike_id": "7c8834ae08c631d45acd97fa3aea7c35", "rental_uris": {"ios": "https://dc.lft.to/lastmile_qr_scan", "android": "https://dc.lft.to/lastmile_qr_scan"}}, {"name": "16a726034e74525b4c18faad012c0c36", "type": "electric_scooter", "lat": 38.913273833333335, "is_reserved": 0, "lon": -77.03126233333333, "fusion_lon": 0.0, "is_disabled": 0, "fusion_lat": 0.0, "bike_id": "16a726034e74525b4c18faad012c0c36", "rental_uris": {"ios": "https://dc.lft.to/lastmile_qr_scan", "android": "https://dc.lft.to/lastmile_qr_scan"}}, {"name": "3b7c0e7ef0b3c0864cdaa0bbda1e941c", "type": "electric_scooter", "lat": 38.90069233333333, "is_reserved": 0, "lon": -77.050654, "fusion_lon": 0.0, "is_disabled": 0, "fusion_lat": 0.0, "bike_id": "3b7c0e7ef0b3c0864cdaa0bbda1e941c", "rental_uris": {"ios": "https://dc.lft.to/lastmile_qr_scan", "android": "https://dc.lft.to/lastmile_qr_scan"}}, {"name": "4d5e50bfddcd9d284b9a3983e0404753", "type": "electric_scooter", "lat": 38.90000883333333, "is_reserved": 0, "lon": -77.02926433333333, "fusion_lon": 0.0, "is_disabled": 0, "fusion_lat": 0.0, "bike_id": "4d5e50bfddcd9d284b9a3983e0404753", "rental_uris": {"ios": "https://dc.lft.to/lastmile_qr_scan", "android": "https://dc.lft.to/lastmile_qr_scan"}}, {"name": "dba389b90cc4666c91af25b6f2f3e155", "type": "electric_scooter", "lat": 38.94955133333333, "is_reserved": 0, "lon": -77.07934333333333, "fusion_lon": 0.0, "is_disabled": 0, "fusion_lat": 0.0, "bike_id": "dba389b90cc4666c91af25b6f2f3e155", "rental_uris": {"ios": "https://dc.lft.to/lastmile_qr_scan", "android": "https://dc.lft.to/lastmile_qr_scan"}}, {"name": "b3831ca0bb1c20ba3ac6f295f1a339ad", "type": "electric_scooter", "lat": 38.884157, "is_reserved": 0, "lon": -76.9760545, "fusion_lon": 0.0, "is_disabled": 0, "fusion_lat": 0.0, "bike_id": "b3831ca0bb1c20ba3ac6f295f1a339ad", "rental_uris": {"ios": "https://dc.lft.to/lastmile_qr_scan", "android": "https://dc.lft.to/lastmile_qr_scan"}}, {"name": "63e371c82021caca3d3c8f9cf6bc6145", "type": "electric_scooter", "lat": 38.96985033333333, "is_reserved": 0, "lon": -77.02719983333333, "fusion_lon": 0.0, "is_disabled": 0, "fusion_lat": 0.0, "bike_id": "63e371c82021caca3d3c8f9cf6bc6145", "rental_uris": {"ios": "https://dc.lft.to/lastmile_qr_scan", "android": "https://dc.lft.to/lastmile_qr_scan"}}, {"name": "9f24dea462e8e7d487e606028561df1e", "type": "electric_scooter", "lat": 38.86699933333333, "is_reserved": 0, "lon": -76.987124, "fusion_lon": 0.0, "is_disabled": 0, "fusion_lat": 0.0, "bike_id": "9f24dea462e8e7d487e606028561df1e", "rental_uris": {"ios": "https://dc.lft.to/lastmile_qr_scan", "android": "https://dc.lft.to/lastmile_qr_scan"}}, {"name": "d25244d403dc1649878ee96f79283faa", "type": "electric_scooter", "lat": 38.8429345, "is_reserved": 0, "lon": -76.99951433333334, "fusion_lon": 0.0, "is_disabled": 0, "fusion_lat": 0.0, "bike_id": "d25244d403dc1649878ee96f79283faa", "rental_uris": {"ios": "https://dc.lft.to/lastmile_qr_scan", "android": "https://dc.lft.to/lastmile_qr_scan"}}, {"name": "a2a80414be905e0d9375dfca7acc9b42", "type": "electric_scooter", "lat": 38.92009783333334, "is_reserved": 0, "lon": -77.03888933333333, "fusion_lon": 0.0, "is_disabled": 0, "fusion_lat": 0.0, "bike_id": "a2a80414be905e0d9375dfca7acc9b42", "rental_uris": {"ios": "https://dc.lft.to/lastmile_qr_scan", "android": "https://dc.lft.to/lastmile_qr_scan"}}, {"name": "c514add7272cfcfa5b38cc985ef95a5d", "type": "electric_scooter", "lat": 38.89611266666667, "is_reserved": 0, "lon": -77.04510283333333, "fusion_lon": 0.0, "is_disabled": 0, "fusion_lat": 0.0, "bike_id": "c514add7272cfcfa5b38cc985ef95a5d", "rental_uris": {"ios": "https://dc.lft.to/lastmile_qr_scan", "android": "https://dc.lft.to/lastmile_qr_scan"}}, {"name": "1dd4cd462800261bacc5359781768f56", "type": "electric_scooter", "lat": 38.898274, "is_reserved": 0, "lon": -77.04272283333333, "fusion_lon": 0.0, "is_disabled": 0, "fusion_lat": 0.0, "bike_id": "1dd4cd462800261bacc5359781768f56", "rental_uris": {"ios": "https://dc.lft.to/lastmile_qr_scan", "android": "https://dc.lft.to/lastmile_qr_scan"}}, {"name": "ba352b96e579712abe38d8b56c6c1abe", "type": "electric_scooter", "lat": 38.90412933333333, "is_reserved": 0, "lon": -77.02950983333334, "fusion_lon": 0.0, "is_disabled": 0, "fusion_lat": 0.0, "bike_id": "ba352b96e579712abe38d8b56c6c1abe", "rental_uris": {"ios": "https://dc.lft.to/lastmile_qr_scan", "android": "https://dc.lft.to/lastmile_qr_scan"}}, {"name": "50d9907a67a7f79c6f3e4b0de67f94b3", "type": "electric_scooter", "lat": 38.904622833333335, "is_reserved": 0, "lon": -76.99506266666667, "fusion_lon": 0.0, "is_disabled": 0, "fusion_lat": 0.0, "bike_id": "50d9907a67a7f79c6f3e4b0de67f94b3", "rental_uris": {"ios": "https://dc.lft.to/lastmile_qr_scan", "android": "https://dc.lft.to/lastmile_qr_scan"}}, {"name": "c057c35eebcfdcc73379be1e4ec8b96a", "type": "electric_scooter", "lat": 38.8872245, "is_reserved": 0, "lon": -77.02832633333334, "fusion_lon": 0.0, "is_disabled": 0, "fusion_lat": 0.0, "bike_id": "c057c35eebcfdcc73379be1e4ec8b96a", "rental_uris": {"ios": "https://dc.lft.to/lastmile_qr_scan", "android": "https://dc.lft.to/lastmile_qr_scan"}}, {"name": "13dc1fe9f875b599ee613ae8623b16ec", "type": "electric_scooter", "lat": 38.93308916666667, "is_reserved": 0, "lon": -77.03767033333334, "fusion_lon": 0.0, "is_disabled": 0, "fusion_lat": 0.0, "bike_id": "13dc1fe9f875b599ee613ae8623b16ec", "rental_uris": {"ios": "https://dc.lft.to/lastmile_qr_scan", "android": "https://dc.lft.to/lastmile_qr_scan"}}, {"name": "33d2a23c327b1ae1721dc41968d35222", "type": "electric_scooter", "lat": 38.92603183333333, "is_reserved": 0, "lon": -77.02158833333333, "fusion_lon": 0.0, "is_disabled": 0, "fusion_lat": 0.0, "bike_id": "33d2a23c327b1ae1721dc41968d35222", "rental_uris": {"ios": "https://dc.lft.to/lastmile_qr_scan", "android": "https://dc.lft.to/lastmile_qr_scan"}}, {"name": "54e6d288b53f59ae6c9683af31bb17c9", "type": "electric_scooter", "lat": 38.917773333333336, "is_reserved": 0, "lon": -77.0409995, "fusion_lon": 0.0, "is_disabled": 0, "fusion_lat": 0.0, "bike_id": "54e6d288b53f59ae6c9683af31bb17c9", "rental_uris": {"ios": "https://dc.lft.to/lastmile_qr_scan", "android": "https://dc.lft.to/lastmile_qr_scan"}}, {"name": "58a0dbab0bfe641f57ed5cf5c3f87972", "type": "electric_bike", "lat": 39.0293395, "is_reserved": 0, "lon": -77.04931233333333, "fusion_lon": 0.0, "is_disabled": 0, "fusion_lat": 0.0, "bike_id": "58a0dbab0bfe641f57ed5cf5c3f87972", "rental_uris": {"ios": "https://dc.lft.to/lastmile_qr_scan", "android": "https://dc.lft.to/lastmile_qr_scan"}}, {"name": "6ff56b941f57c325f7c13e5015a3c8f2", "type": "electric_scooter", "lat": 38.968254333333334, "is_reserved": 0, "lon": -77.01791516666667, "fusion_lon": 0.0, "is_disabled": 0, "fusion_lat": 0.0, "bike_id": "6ff56b941f57c325f7c13e5015a3c8f2", "rental_uris": {"ios": "https://dc.lft.to/lastmile_qr_scan", "android": "https://dc.lft.to/lastmile_qr_scan"}}, {"name": "acb27fb678ccffadfdb3c0c2c9f2985b", "type": "electric_scooter", "lat": 38.89221166666667, "is_reserved": 0, "lon": -77.03343416666667, "fusion_lon": 0.0, "is_disabled": 0, "fusion_lat": 0.0, "bike_id": "acb27fb678ccffadfdb3c0c2c9f2985b", "rental_uris": {"ios": "https://dc.lft.to/lastmile_qr_scan", "android": "https://dc.lft.to/lastmile_qr_scan"}}, {"name": "fa918d7d02265fd1f6c267b8dfdd992a", "type": "electric_scooter", "lat": 38.92580233333333, "is_reserved": 0, "lon": -77.05268883333333, "fusion_lon": 0.0, "is_disabled": 0, "fusion_lat": 0.0, "bike_id": "fa918d7d02265fd1f6c267b8dfdd992a", "rental_uris": {"ios": "https://dc.lft.to/lastmile_qr_scan", "android": "https://dc.lft.to/lastmile_qr_scan"}}, {"name": "394a1fbb7ef8699d9f9eb9bcc10b1fd6", "type": "electric_scooter", "lat": 38.900266, "is_reserved": 0, "lon": -77.00211233333333, "fusion_lon": 0.0, "is_disabled": 0, "fusion_lat": 0.0, "bike_id": "394a1fbb7ef8699d9f9eb9bcc10b1fd6", "rental_uris": {"ios": "https://dc.lft.to/lastmile_qr_scan", "android": "https://dc.lft.to/lastmile_qr_scan"}}, {"name": "1e848bbc6ee2bbbc585e053c9125b92a", "type": "electric_scooter", "lat": 38.900312166666666, "is_reserved": 0, "lon": -77.01125433333333, "fusion_lon": 0.0, "is_disabled": 0, "fusion_lat": 0.0, "bike_id": "1e848bbc6ee2bbbc585e053c9125b92a", "rental_uris": {"ios": "https://dc.lft.to/lastmile_qr_scan", "android": "https://dc.lft.to/lastmile_qr_scan"}}, {"name": "1e21813cfb353aa9c17c385170c0f674", "type": "electric_scooter", "lat": 38.918966833333336, "is_reserved": 0, "lon": -77.01968916666667, "fusion_lon": 0.0, "is_disabled": 0, "fusion_lat": 0.0, "bike_id": "1e21813cfb353aa9c17c385170c0f674", "rental_uris": {"ios": "https://dc.lft.to/lastmile_qr_scan", "android": "https://dc.lft.to/lastmile_qr_scan"}}, {"name": "247a15fa307e952c7362b9fa5b42d684", "type": "electric_scooter", "lat": 38.9495985, "is_reserved": 0, "lon": -77.02725116666667, "fusion_lon": 0.0, "is_disabled": 0, "fusion_lat": 0.0, "bike_id": "247a15fa307e952c7362b9fa5b42d684", "rental_uris": {"ios": "https://dc.lft.to/lastmile_qr_scan", "android": "https://dc.lft.to/lastmile_qr_scan"}}, {"name": "3b616ad10a1a1ecdea59100ce362d8ba", "type": "electric_scooter", "lat": 38.87638916666667, "is_reserved": 0, "lon": -76.995895, "fusion_lon": 0.0, "is_disabled": 0, "fusion_lat": 0.0, "bike_id": "3b616ad10a1a1ecdea59100ce362d8ba", "rental_uris": {"ios": "https://dc.lft.to/lastmile_qr_scan", "android": "https://dc.lft.to/lastmile_qr_scan"}}, {"name": "c4a638fdb35ae51ec07532024b7e7087", "type": "electric_scooter", "lat": 38.90280383333333, "is_reserved": 0, "lon": -77.038492, "fusion_lon": 0.0, "is_disabled": 0, "fusion_lat": 0.0, "bike_id": "c4a638fdb35ae51ec07532024b7e7087", "rental_uris": {"ios": "https://dc.lft.to/lastmile_qr_scan", "android": "https://dc.lft.to/lastmile_qr_scan"}}, {"name": "b3d55678590d37ef7db1140a24c4ac5d", "type": "electric_scooter", "lat": 38.87708816666667, "is_reserved": 0, "lon": -76.99384516666667, "fusion_lon": 0.0, "is_disabled": 0, "fusion_lat": 0.0, "bike_id": "b3d55678590d37ef7db1140a24c4ac5d", "rental_uris": {"ios": "https://dc.lft.to/lastmile_qr_scan", "android": "https://dc.lft.to/lastmile_qr_scan"}}, {"name": "b15b036cd375dd6cb119c1c3b18f38bf", "type": "electric_scooter", "lat": 38.89839633333333, "is_reserved": 0, "lon": -77.033072, "fusion_lon": 0.0, "is_disabled": 0, "fusion_lat": 0.0, "bike_id": "b15b036cd375dd6cb119c1c3b18f38bf", "rental_uris": {"ios": "https://dc.lft.to/lastmile_qr_scan", "android": "https://dc.lft.to/lastmile_qr_scan"}}, {"name": "a597f480d824eb9bbd346c31aedad370", "type": "electric_scooter", "lat": 38.9039255, "is_reserved": 0, "lon": -77.0338095, "fusion_lon": 0.0, "is_disabled": 0, "fusion_lat": 0.0, "bike_id": "a597f480d824eb9bbd346c31aedad370", "rental_uris": {"ios": "https://dc.lft.to/lastmile_qr_scan", "android": "https://dc.lft.to/lastmile_qr_scan"}}, {"name": "e1b40eaaa2699f449440782ec901eaf5", "type": "electric_scooter", "lat": 38.921693166666664, "is_reserved": 0, "lon": -76.99398966666666, "fusion_lon": 0.0, "is_disabled": 0, "fusion_lat": 0.0, "bike_id": "e1b40eaaa2699f449440782ec901eaf5", "rental_uris": {"ios": "https://dc.lft.to/lastmile_qr_scan", "android": "https://dc.lft.to/lastmile_qr_scan"}}, {"name": "9ed8e6b8e273cc9c509dad455ac8ff7d", "type": "electric_scooter", "lat": 38.915298166666666, "is_reserved": 0, "lon": -77.046188, "fusion_lon": 0.0, "is_disabled": 0, "fusion_lat": 0.0, "bike_id": "9ed8e6b8e273cc9c509dad455ac8ff7d", "rental_uris": {"ios": "https://dc.lft.to/lastmile_qr_scan", "android": "https://dc.lft.to/lastmile_qr_scan"}}, {"name": "e7653471ee8f4eb53b4de5851d6c85b4", "type": "electric_scooter", "lat": 38.914904666666665, "is_reserved": 0, "lon": -77.0185415, "fusion_lon": 0.0, "is_disabled": 0, "fusion_lat": 0.0, "bike_id": "e7653471ee8f4eb53b4de5851d6c85b4", "rental_uris": {"ios": "https://dc.lft.to/lastmile_qr_scan", "android": "https://dc.lft.to/lastmile_qr_scan"}}, {"name": "f7648cd392ad716d9ce5942f8167f3c3", "type": "electric_scooter", "lat": 38.930703666666666, "is_reserved": 0, "lon": -77.0413935, "fusion_lon": 0.0, "is_disabled": 0, "fusion_lat": 0.0, "bike_id": "f7648cd392ad716d9ce5942f8167f3c3", "rental_uris": {"ios": "https://dc.lft.to/lastmile_qr_scan", "android": "https://dc.lft.to/lastmile_qr_scan"}}, {"name": "85e8e380ea985e600ffb71f267839fee", "type": "electric_scooter", "lat": 38.9125605, "is_reserved": 0, "lon": -77.00363316666666, "fusion_lon": 0.0, "is_disabled": 0, "fusion_lat": 0.0, "bike_id": "85e8e380ea985e600ffb71f267839fee", "rental_uris": {"ios": "https://dc.lft.to/lastmile_qr_scan", "android": "https://dc.lft.to/lastmile_qr_scan"}}, {"name": "a4af81a183491304185caf296c26b79a", "type": "electric_scooter", "lat": 38.89481966666666, "is_reserved": 0, "lon": -76.94874216666666, "fusion_lon": 0.0, "is_disabled": 0, "fusion_lat": 0.0, "bike_id": "a4af81a183491304185caf296c26b79a", "rental_uris": {"ios": "https://dc.lft.to/lastmile_qr_scan", "android": "https://dc.lft.to/lastmile_qr_scan"}}, {"name": "1936b3ecfdd9f499a35399c31553fbf7", "type": "electric_scooter", "lat": 38.919791833333335, "is_reserved": 0, "lon": -77.02179733333334, "fusion_lon": 0.0, "is_disabled": 0, "fusion_lat": 0.0, "bike_id": "1936b3ecfdd9f499a35399c31553fbf7", "rental_uris": {"ios": "https://dc.lft.to/lastmile_qr_scan", "android": "https://dc.lft.to/lastmile_qr_scan"}}, {"name": "219c4a76047e909c395466ca54acc282", "type": "electric_scooter", "lat": 38.9149865, "is_reserved": 0, "lon": -76.983697, "fusion_lon": 0.0, "is_disabled": 0, "fusion_lat": 0.0, "bike_id": "219c4a76047e909c395466ca54acc282", "rental_uris": {"ios": "https://dc.lft.to/lastmile_qr_scan", "android": "https://dc.lft.to/lastmile_qr_scan"}}, {"name": "5abf6722fab88a377769315441d9b3dc", "type": "electric_scooter", "lat": 38.9127055, "is_reserved": 0, "lon": -77.03142283333334, "fusion_lon": 0.0, "is_disabled": 0, "fusion_lat": 0.0, "bike_id": "5abf6722fab88a377769315441d9b3dc", "rental_uris": {"ios": "https://dc.lft.to/lastmile_qr_scan", "android": "https://dc.lft.to/lastmile_qr_scan"}}, {"name": "4e5a909cdb52bef4ffbcfdb16c1134ea", "type": "electric_scooter", "lat": 38.89224016666667, "is_reserved": 0, "lon": -77.0437165, "fusion_lon": 0.0, "is_disabled": 0, "fusion_lat": 0.0, "bike_id": "4e5a909cdb52bef4ffbcfdb16c1134ea", "rental_uris": {"ios": "https://dc.lft.to/lastmile_qr_scan", "android": "https://dc.lft.to/lastmile_qr_scan"}}, {"name": "6a3fefc49f6817a5e9e5a7625e7f0386", "type": "electric_scooter", "lat": 38.89522216666667, "is_reserved": 0, "lon": -77.04840883333334, "fusion_lon": 0.0, "is_disabled": 0, "fusion_lat": 0.0, "bike_id": "6a3fefc49f6817a5e9e5a7625e7f0386", "rental_uris": {"ios": "https://dc.lft.to/lastmile_qr_scan", "android": "https://dc.lft.to/lastmile_qr_scan"}}, {"name": "a9b0398d2d4f287cfaa1c622a89ab11d", "type": "electric_scooter", "lat": 38.892207166666665, "is_reserved": 0, "lon": -77.02226666666667, "fusion_lon": 0.0, "is_disabled": 0, "fusion_lat": 0.0, "bike_id": "a9b0398d2d4f287cfaa1c622a89ab11d", "rental_uris": {"ios": "https://dc.lft.to/lastmile_qr_scan", "android": "https://dc.lft.to/lastmile_qr_scan"}}, {"name": "d68be66f7ebd6395e44fe34fad331197", "type": "electric_scooter", "lat": 38.9224975, "is_reserved": 0, "lon": -77.030757, "fusion_lon": 0.0, "is_disabled": 0, "fusion_lat": 0.0, "bike_id": "d68be66f7ebd6395e44fe34fad331197", "rental_uris": {"ios": "https://dc.lft.to/lastmile_qr_scan", "android": "https://dc.lft.to/lastmile_qr_scan"}}, {"name": "4eb27c7608f5d33549d9c2df7094ea23", "type": "electric_scooter", "lat": 38.90000366666666, "is_reserved": 0, "lon": -77.05237016666666, "fusion_lon": 0.0, "is_disabled": 0, "fusion_lat": 0.0, "bike_id": "4eb27c7608f5d33549d9c2df7094ea23", "rental_uris": {"ios": "https://dc.lft.to/lastmile_qr_scan", "android": "https://dc.lft.to/lastmile_qr_scan"}}, {"name": "c3ffd746a06a2ec97f79e4717b62f2f2", "type": "electric_scooter", "lat": 38.87551083333334, "is_reserved": 0, "lon": -76.96492266666667, "fusion_lon": 0.0, "is_disabled": 0, "fusion_lat": 0.0, "bike_id": "c3ffd746a06a2ec97f79e4717b62f2f2", "rental_uris": {"ios": "https://dc.lft.to/lastmile_qr_scan", "android": "https://dc.lft.to/lastmile_qr_scan"}}, {"name": "3070165d7f27bab7394ebceb98e48ec6", "type": "electric_scooter", "lat": 38.917914, "is_reserved": 0, "lon": -77.0229615, "fusion_lon": 0.0, "is_disabled": 0, "fusion_lat": 0.0, "bike_id": "3070165d7f27bab7394ebceb98e48ec6", "rental_uris": {"ios": "https://dc.lft.to/lastmile_qr_scan", "android": "https://dc.lft.to/lastmile_qr_scan"}}, {"name": "281be543eaf69a49314c615ab6bfc2d4", "type": "electric_scooter", "lat": 38.898262, "is_reserved": 0, "lon": -76.94650783333333, "fusion_lon": 0.0, "is_disabled": 0, "fusion_lat": 0.0, "bike_id": "281be543eaf69a49314c615ab6bfc2d4", "rental_uris": {"ios": "https://dc.lft.to/lastmile_qr_scan", "android": "https://dc.lft.to/lastmile_qr_scan"}}, {"name": "12a86477659dbfa7510028e4aa8b06c6", "type": "electric_scooter", "lat": 38.88773283333333, "is_reserved": 0, "lon": -76.93266166666666, "fusion_lon": 0.0, "is_disabled": 0, "fusion_lat": 0.0, "bike_id": "12a86477659dbfa7510028e4aa8b06c6", "rental_uris": {"ios": "https://dc.lft.to/lastmile_qr_scan", "android": "https://dc.lft.to/lastmile_qr_scan"}}, {"name": "2368ff0d81104064278764065291df1c", "type": "electric_scooter", "lat": 38.9224995, "is_reserved": 0, "lon": -77.034752, "fusion_lon": 0.0, "is_disabled": 0, "fusion_lat": 0.0, "bike_id": "2368ff0d81104064278764065291df1c", "rental_uris": {"ios": "https://dc.lft.to/lastmile_qr_scan", "android": "https://dc.lft.to/lastmile_qr_scan"}}, {"name": "dd87a2469e3752c440b953a36e896ddb", "type": "electric_scooter", "lat": 38.892293333333335, "is_reserved": 0, "lon": -77.04867266666666, "fusion_lon": 0.0, "is_disabled": 0, "fusion_lat": 0.0, "bike_id": "dd87a2469e3752c440b953a36e896ddb", "rental_uris": {"ios": "https://dc.lft.to/lastmile_qr_scan", "android": "https://dc.lft.to/lastmile_qr_scan"}}, {"name": "5a47fc81ca04b12ffec06e71d3072837", "type": "electric_scooter", "lat": 38.902735666666665, "is_reserved": 0, "lon": -77.038485, "fusion_lon": 0.0, "is_disabled": 0, "fusion_lat": 0.0, "bike_id": "5a47fc81ca04b12ffec06e71d3072837", "rental_uris": {"ios": "https://dc.lft.to/lastmile_qr_scan", "android": "https://dc.lft.to/lastmile_qr_scan"}}, {"name": "19082efc16d64db7b33776938840b58f", "type": "electric_scooter", "lat": 38.9274795, "is_reserved": 0, "lon": -77.03270833333333, "fusion_lon": 0.0, "is_disabled": 0, "fusion_lat": 0.0, "bike_id": "19082efc16d64db7b33776938840b58f", "rental_uris": {"ios": "https://dc.lft.to/lastmile_qr_scan", "android": "https://dc.lft.to/lastmile_qr_scan"}}, {"name": "7af98a3b3e15f40fea9bb068de9b4a9a", "type": "electric_scooter", "lat": 38.8901505, "is_reserved": 0, "lon": -76.93733066666667, "fusion_lon": 0.0, "is_disabled": 0, "fusion_lat": 0.0, "bike_id": "7af98a3b3e15f40fea9bb068de9b4a9a", "rental_uris": {"ios": "https://dc.lft.to/lastmile_qr_scan", "android": "https://dc.lft.to/lastmile_qr_scan"}}, {"name": "c11143db81c2e17724b08a43e09e5ac9", "type": "electric_scooter", "lat": 38.896754333333334, "is_reserved": 0, "lon": -77.02623633333333, "fusion_lon": 0.0, "is_disabled": 0, "fusion_lat": 0.0, "bike_id": "c11143db81c2e17724b08a43e09e5ac9", "rental_uris": {"ios": "https://dc.lft.to/lastmile_qr_scan", "android": "https://dc.lft.to/lastmile_qr_scan"}}, {"name": "f01cd92b2fd0e6e76a672668405b705f", "type": "electric_scooter", "lat": 38.931593666666664, "is_reserved": 0, "lon": -77.056452, "fusion_lon": 0.0, "is_disabled": 0, "fusion_lat": 0.0, "bike_id": "f01cd92b2fd0e6e76a672668405b705f", "rental_uris": {"ios": "https://dc.lft.to/lastmile_qr_scan", "android": "https://dc.lft.to/lastmile_qr_scan"}}, {"name": "a30a85bffefed69a5694482d00ceb753", "type": "electric_scooter", "lat": 38.9296985, "is_reserved": 0, "lon": -77.00534983333333, "fusion_lon": 0.0, "is_disabled": 0, "fusion_lat": 0.0, "bike_id": "a30a85bffefed69a5694482d00ceb753", "rental_uris": {"ios": "https://dc.lft.to/lastmile_qr_scan", "android": "https://dc.lft.to/lastmile_qr_scan"}}, {"name": "6b5e4647c23eefbfc8277ed58c3c575b", "type": "electric_scooter", "lat": 38.89828466666667, "is_reserved": 0, "lon": -76.94652583333334, "fusion_lon": 0.0, "is_disabled": 0, "fusion_lat": 0.0, "bike_id": "6b5e4647c23eefbfc8277ed58c3c575b", "rental_uris": {"ios": "https://dc.lft.to/lastmile_qr_scan", "android": "https://dc.lft.to/lastmile_qr_scan"}}, {"name": "44bf877d8f55bdd98b1fb1f1b4757e36", "type": "electric_scooter", "lat": 38.9053355, "is_reserved": 0, "lon": -77.0502035, "fusion_lon": 0.0, "is_disabled": 0, "fusion_lat": 0.0, "bike_id": "44bf877d8f55bdd98b1fb1f1b4757e36", "rental_uris": {"ios": "https://dc.lft.to/lastmile_qr_scan", "android": "https://dc.lft.to/lastmile_qr_scan"}}, {"name": "be1b9cada5974cfbdc2a79d18e3de3fb", "type": "electric_scooter", "lat": 38.901191, "is_reserved": 0, "lon": -77.04994466666666, "fusion_lon": 0.0, "is_disabled": 0, "fusion_lat": 0.0, "bike_id": "be1b9cada5974cfbdc2a79d18e3de3fb", "rental_uris": {"ios": "https://dc.lft.to/lastmile_qr_scan", "android": "https://dc.lft.to/lastmile_qr_scan"}}, {"name": "3feba7a195c0a664fca26e5c82b4db7d", "type": "electric_scooter", "lat": 38.905790833333334, "is_reserved": 0, "lon": -77.04021133333333, "fusion_lon": 0.0, "is_disabled": 0, "fusion_lat": 0.0, "bike_id": "3feba7a195c0a664fca26e5c82b4db7d", "rental_uris": {"ios": "https://dc.lft.to/lastmile_qr_scan", "android": "https://dc.lft.to/lastmile_qr_scan"}}, {"name": "3be179b572b336ab41eb3cb2cb090ac3", "type": "electric_bike", "lat": 38.83801, "is_reserved": 0, "lon": -76.99832983333333, "fusion_lon": 0.0, "is_disabled": 0, "fusion_lat": 0.0, "bike_id": "3be179b572b336ab41eb3cb2cb090ac3", "rental_uris": {"ios": "https://dc.lft.to/lastmile_qr_scan", "android": "https://dc.lft.to/lastmile_qr_scan"}}, {"name": "0692d0419009cbe3c6c908face0f6c9f", "type": "electric_scooter", "lat": 38.91715166666667, "is_reserved": 0, "lon": -77.038603, "fusion_lon": 0.0, "is_disabled": 0, "fusion_lat": 0.0, "bike_id": "0692d0419009cbe3c6c908face0f6c9f", "rental_uris": {"ios": "https://dc.lft.to/lastmile_qr_scan", "android": "https://dc.lft.to/lastmile_qr_scan"}}, {"name": "f3ab8a3bea590d7bf49025a34e267cd6", "type": "electric_scooter", "lat": 38.9001355, "is_reserved": 0, "lon": -76.99075233333333, "fusion_lon": 0.0, "is_disabled": 0, "fusion_lat": 0.0, "bike_id": "f3ab8a3bea590d7bf49025a34e267cd6", "rental_uris": {"ios": "https://dc.lft.to/lastmile_qr_scan", "android": "https://dc.lft.to/lastmile_qr_scan"}}, {"name": "4fe12d35ba34001c52addaee1049ec66", "type": "electric_bike", "lat": 38.90296383333333, "is_reserved": 0, "lon": -76.94445083333333, "fusion_lon": 0.0, "is_disabled": 0, "fusion_lat": 0.0, "bike_id": "4fe12d35ba34001c52addaee1049ec66", "rental_uris": {"ios": "https://dc.lft.to/lastmile_qr_scan", "android": "https://dc.lft.to/lastmile_qr_scan"}}, {"name": "f2daa31af22098e5868eabe1ac462f27", "type": "electric_scooter", "lat": 38.9042175, "is_reserved": 0, "lon": -77.028078, "fusion_lon": 0.0, "is_disabled": 0, "fusion_lat": 0.0, "bike_id": "f2daa31af22098e5868eabe1ac462f27", "rental_uris": {"ios": "https://dc.lft.to/lastmile_qr_scan", "android": "https://dc.lft.to/lastmile_qr_scan"}}, {"name": "5ac588059e314848035fa58794fc6089", "type": "electric_scooter", "lat": 38.914202833333334, "is_reserved": 0, "lon": -77.039058, "fusion_lon": 0.0, "is_disabled": 0, "fusion_lat": 0.0, "bike_id": "5ac588059e314848035fa58794fc6089", "rental_uris": {"ios": "https://dc.lft.to/lastmile_qr_scan", "android": "https://dc.lft.to/lastmile_qr_scan"}}, {"name": "ce769813dc5a1f9e6104ccf8fd322bc6", "type": "electric_scooter", "lat": 38.939143, "is_reserved": 0, "lon": -77.02482683333334, "fusion_lon": 0.0, "is_disabled": 0, "fusion_lat": 0.0, "bike_id": "ce769813dc5a1f9e6104ccf8fd322bc6", "rental_uris": {"ios": "https://dc.lft.to/lastmile_qr_scan", "android": "https://dc.lft.to/lastmile_qr_scan"}}, {"name": "aa8b3e8ac32381c1819ec268d9713461", "type": "electric_scooter", "lat": 38.9233005, "is_reserved": 0, "lon": -77.0390275, "fusion_lon": 0.0, "is_disabled": 0, "fusion_lat": 0.0, "bike_id": "aa8b3e8ac32381c1819ec268d9713461", "rental_uris": {"ios": "https://dc.lft.to/lastmile_qr_scan", "android": "https://dc.lft.to/lastmile_qr_scan"}}, {"name": "14287be991b71d109bd1da2c4ab07dc0", "type": "electric_scooter", "lat": 38.91065033333334, "is_reserved": 0, "lon": -77.021943, "fusion_lon": 0.0, "is_disabled": 0, "fusion_lat": 0.0, "bike_id": "14287be991b71d109bd1da2c4ab07dc0", "rental_uris": {"ios": "https://dc.lft.to/lastmile_qr_scan", "android": "https://dc.lft.to/lastmile_qr_scan"}}, {"name": "72931415d3f19086bb282bd84372b5a6", "type": "electric_scooter", "lat": 38.903256, "is_reserved": 0, "lon": -77.04338733333333, "fusion_lon": 0.0, "is_disabled": 0, "fusion_lat": 0.0, "bike_id": "72931415d3f19086bb282bd84372b5a6", "rental_uris": {"ios": "https://dc.lft.to/lastmile_qr_scan", "android": "https://dc.lft.to/lastmile_qr_scan"}}, {"name": "1c0dbba89fd7ea914a26b82845a8baca", "type": "electric_scooter", "lat": 38.900906, "is_reserved": 0, "lon": -77.04901766666667, "fusion_lon": 0.0, "is_disabled": 0, "fusion_lat": 0.0, "bike_id": "1c0dbba89fd7ea914a26b82845a8baca", "rental_uris": {"ios": "https://dc.lft.to/lastmile_qr_scan", "android": "https://dc.lft.to/lastmile_qr_scan"}}, {"name": "a76cdda708c8801c326da2a9c048f6ea", "type": "electric_scooter", "lat": 38.905147, "is_reserved": 0, "lon": -77.06940233333333, "fusion_lon": 0.0, "is_disabled": 0, "fusion_lat": 0.0, "bike_id": "a76cdda708c8801c326da2a9c048f6ea", "rental_uris": {"ios": "https://dc.lft.to/lastmile_qr_scan", "android": "https://dc.lft.to/lastmile_qr_scan"}}, {"name": "c21733d115638a1ff5654ff7512aa267", "type": "electric_scooter", "lat": 38.896569166666666, "is_reserved": 0, "lon": -77.05028383333334, "fusion_lon": 0.0, "is_disabled": 0, "fusion_lat": 0.0, "bike_id": "c21733d115638a1ff5654ff7512aa267", "rental_uris": {"ios": "https://dc.lft.to/lastmile_qr_scan", "android": "https://dc.lft.to/lastmile_qr_scan"}}, {"name": "393d66706a2ae34b06074614b421075f", "type": "electric_scooter", "lat": 38.9233935, "is_reserved": 0, "lon": -77.01907116666666, "fusion_lon": 0.0, "is_disabled": 0, "fusion_lat": 0.0, "bike_id": "393d66706a2ae34b06074614b421075f", "rental_uris": {"ios": "https://dc.lft.to/lastmile_qr_scan", "android": "https://dc.lft.to/lastmile_qr_scan"}}, {"name": "b6820f746179130f1131f970d2eea961", "type": "electric_bike", "lat": 38.861678166666664, "is_reserved": 0, "lon": -76.95066566666667, "fusion_lon": 0.0, "is_disabled": 0, "fusion_lat": 0.0, "bike_id": "b6820f746179130f1131f970d2eea961", "rental_uris": {"ios": "https://dc.lft.to/lastmile_qr_scan", "android": "https://dc.lft.to/lastmile_qr_scan"}}, {"name": "56350cd2eac3b720151522b0daed417d", "type": "electric_scooter", "lat": 38.916869, "is_reserved": 0, "lon": -77.02526, "fusion_lon": 0.0, "is_disabled": 0, "fusion_lat": 0.0, "bike_id": "56350cd2eac3b720151522b0daed417d", "rental_uris": {"ios": "https://dc.lft.to/lastmile_qr_scan", "android": "https://dc.lft.to/lastmile_qr_scan"}}, {"name": "70baf81a63163700c675cc7875a0efe9", "type": "electric_scooter", "lat": 38.89246116666666, "is_reserved": 0, "lon": -77.031975, "fusion_lon": 0.0, "is_disabled": 0, "fusion_lat": 0.0, "bike_id": "70baf81a63163700c675cc7875a0efe9", "rental_uris": {"ios": "https://dc.lft.to/lastmile_qr_scan", "android": "https://dc.lft.to/lastmile_qr_scan"}}, {"name": "2fd99015cd914b75d6db0eedf74db7f6", "type": "electric_scooter", "lat": 38.9168055, "is_reserved": 0, "lon": -77.02984733333334, "fusion_lon": 0.0, "is_disabled": 0, "fusion_lat": 0.0, "bike_id": "2fd99015cd914b75d6db0eedf74db7f6", "rental_uris": {"ios": "https://dc.lft.to/lastmile_qr_scan", "android": "https://dc.lft.to/lastmile_qr_scan"}}, {"name": "2308cea0857c0793d9e17c72292d3193", "type": "electric_scooter", "lat": 38.925626, "is_reserved": 0, "lon": -77.022859, "fusion_lon": 0.0, "is_disabled": 0, "fusion_lat": 0.0, "bike_id": "2308cea0857c0793d9e17c72292d3193", "rental_uris": {"ios": "https://dc.lft.to/lastmile_qr_scan", "android": "https://dc.lft.to/lastmile_qr_scan"}}, {"name": "88a7ec20d4843c44c5fe6df175a56056", "type": "electric_bike", "lat": 38.9458805, "is_reserved": 0, "lon": -77.00271633333334, "fusion_lon": 0.0, "is_disabled": 0, "fusion_lat": 0.0, "bike_id": "88a7ec20d4843c44c5fe6df175a56056", "rental_uris": {"ios": "https://dc.lft.to/lastmile_qr_scan", "android": "https://dc.lft.to/lastmile_qr_scan"}}, {"name": "acd07ccb70e1c8ff5a9cb2170ca170f6", "type": "electric_scooter", "lat": 38.9526145, "is_reserved": 0, "lon": -77.00198333333333, "fusion_lon": 0.0, "is_disabled": 0, "fusion_lat": 0.0, "bike_id": "acd07ccb70e1c8ff5a9cb2170ca170f6", "rental_uris": {"ios": "https://dc.lft.to/lastmile_qr_scan", "android": "https://dc.lft.to/lastmile_qr_scan"}}, {"name": "60b940e313b3347f082cc3b277ccfa52", "type": "electric_scooter", "lat": 38.88496033333333, "is_reserved": 0, "lon": -77.0072715, "fusion_lon": 0.0, "is_disabled": 0, "fusion_lat": 0.0, "bike_id": "60b940e313b3347f082cc3b277ccfa52", "rental_uris": {"ios": "https://dc.lft.to/lastmile_qr_scan", "android": "https://dc.lft.to/lastmile_qr_scan"}}, {"name": "375a79ce4d3cc4b999fe40c69c396cef", "type": "electric_scooter", "lat": 38.89835166666667, "is_reserved": 0, "lon": -77.0267655, "fusion_lon": 0.0, "is_disabled": 0, "fusion_lat": 0.0, "bike_id": "375a79ce4d3cc4b999fe40c69c396cef", "rental_uris": {"ios": "https://dc.lft.to/lastmile_qr_scan", "android": "https://dc.lft.to/lastmile_qr_scan"}}, {"name": "5fbb9eacba12654e43935568c5ec6352", "type": "electric_scooter", "lat": 38.88127, "is_reserved": 0, "lon": -77.00243216666667, "fusion_lon": 0.0, "is_disabled": 0, "fusion_lat": 0.0, "bike_id": "5fbb9eacba12654e43935568c5ec6352", "rental_uris": {"ios": "https://dc.lft.to/lastmile_qr_scan", "android": "https://dc.lft.to/lastmile_qr_scan"}}, {"name": "4dc536ab8b468a42e08f7a0f1a651c36", "type": "electric_scooter", "lat": 38.88748566666666, "is_reserved": 0, "lon": -77.03131683333334, "fusion_lon": 0.0, "is_disabled": 0, "fusion_lat": 0.0, "bike_id": "4dc536ab8b468a42e08f7a0f1a651c36", "rental_uris": {"ios": "https://dc.lft.to/lastmile_qr_scan", "android": "https://dc.lft.to/lastmile_qr_scan"}}, {"name": "eda0937486af886db631f0858656fcd3", "type": "electric_scooter", "lat": 38.92406616666667, "is_reserved": 0, "lon": -77.019599, "fusion_lon": 0.0, "is_disabled": 0, "fusion_lat": 0.0, "bike_id": "eda0937486af886db631f0858656fcd3", "rental_uris": {"ios": "https://dc.lft.to/lastmile_qr_scan", "android": "https://dc.lft.to/lastmile_qr_scan"}}, {"name": "da5e57628dcf3014909a2f8cdb10d719", "type": "electric_scooter", "lat": 38.88401533333333, "is_reserved": 0, "lon": -76.99529216666667, "fusion_lon": 0.0, "is_disabled": 0, "fusion_lat": 0.0, "bike_id": "da5e57628dcf3014909a2f8cdb10d719", "rental_uris": {"ios": "https://dc.lft.to/lastmile_qr_scan", "android": "https://dc.lft.to/lastmile_qr_scan"}}, {"name": "3468e53681f9ac396ef072ed6729df3b", "type": "electric_scooter", "lat": 38.928666, "is_reserved": 0, "lon": -77.03755133333334, "fusion_lon": 0.0, "is_disabled": 0, "fusion_lat": 0.0, "bike_id": "3468e53681f9ac396ef072ed6729df3b", "rental_uris": {"ios": "https://dc.lft.to/lastmile_qr_scan", "android": "https://dc.lft.to/lastmile_qr_scan"}}, {"name": "92652df97a9f5fc1e7f897e869fd9fbc", "type": "electric_scooter", "lat": 38.887478333333334, "is_reserved": 0, "lon": -77.020262, "fusion_lon": 0.0, "is_disabled": 0, "fusion_lat": 0.0, "bike_id": "92652df97a9f5fc1e7f897e869fd9fbc", "rental_uris": {"ios": "https://dc.lft.to/lastmile_qr_scan", "android": "https://dc.lft.to/lastmile_qr_scan"}}, {"name": "1c42cfa022b11b6dbe247387d5688ca4", "type": "electric_scooter", "lat": 38.935728, "is_reserved": 0, "lon": -77.03732583333333, "fusion_lon": 0.0, "is_disabled": 0, "fusion_lat": 0.0, "bike_id": "1c42cfa022b11b6dbe247387d5688ca4", "rental_uris": {"ios": "https://dc.lft.to/lastmile_qr_scan", "android": "https://dc.lft.to/lastmile_qr_scan"}}, {"name": "98fd4e882346b892b5958f2c3a63a75b", "type": "electric_bike", "lat": 38.930627333333334, "is_reserved": 0, "lon": -76.9732725, "fusion_lon": 0.0, "is_disabled": 0, "fusion_lat": 0.0, "bike_id": "98fd4e882346b892b5958f2c3a63a75b", "rental_uris": {"ios": "https://dc.lft.to/lastmile_qr_scan", "android": "https://dc.lft.to/lastmile_qr_scan"}}, {"name": "4b6ac243a79cf935d6ee5bf7695ca7a0", "type": "electric_scooter", "lat": 38.9164045, "is_reserved": 0, "lon": -77.03204683333334, "fusion_lon": 0.0, "is_disabled": 0, "fusion_lat": 0.0, "bike_id": "4b6ac243a79cf935d6ee5bf7695ca7a0", "rental_uris": {"ios": "https://dc.lft.to/lastmile_qr_scan", "android": "https://dc.lft.to/lastmile_qr_scan"}}, {"name": "1e0ec33398a04b7934498587aa444f36", "type": "electric_scooter", "lat": 38.916585, "is_reserved": 0, "lon": -77.026989, "fusion_lon": 0.0, "is_disabled": 0, "fusion_lat": 0.0, "bike_id": "1e0ec33398a04b7934498587aa444f36", "rental_uris": {"ios": "https://dc.lft.to/lastmile_qr_scan", "android": "https://dc.lft.to/lastmile_qr_scan"}}, {"name": "a1a1f60814c7ed739b72f91eab75f78b", "type": "electric_scooter", "lat": 38.90373, "is_reserved": 0, "lon": -77.02982216666666, "fusion_lon": 0.0, "is_disabled": 0, "fusion_lat": 0.0, "bike_id": "a1a1f60814c7ed739b72f91eab75f78b", "rental_uris": {"ios": "https://dc.lft.to/lastmile_qr_scan", "android": "https://dc.lft.to/lastmile_qr_scan"}}, {"name": "d4dbb275902089d478891369f423868d", "type": "electric_scooter", "lat": 38.9036865, "is_reserved": 0, "lon": -77.04477966666667, "fusion_lon": 0.0, "is_disabled": 0, "fusion_lat": 0.0, "bike_id": "d4dbb275902089d478891369f423868d", "rental_uris": {"ios": "https://dc.lft.to/lastmile_qr_scan", "android": "https://dc.lft.to/lastmile_qr_scan"}}, {"name": "c195b4c6934fb7e53135e68175ceeb9c", "type": "electric_scooter", "lat": 38.926152, "is_reserved": 0, "lon": -77.02164066666667, "fusion_lon": 0.0, "is_disabled": 0, "fusion_lat": 0.0, "bike_id": "c195b4c6934fb7e53135e68175ceeb9c", "rental_uris": {"ios": "https://dc.lft.to/lastmile_qr_scan", "android": "https://dc.lft.to/lastmile_qr_scan"}}, {"name": "aa39f8e21e7bd9a854f40ce8f0ed976c", "type": "electric_scooter", "lat": 38.8787195, "is_reserved": 0, "lon": -77.02282966666667, "fusion_lon": 0.0, "is_disabled": 0, "fusion_lat": 0.0, "bike_id": "aa39f8e21e7bd9a854f40ce8f0ed976c", "rental_uris": {"ios": "https://dc.lft.to/lastmile_qr_scan", "android": "https://dc.lft.to/lastmile_qr_scan"}}, {"name": "85182d7ea6d49fb1490b08d44802f33f", "type": "electric_scooter", "lat": 38.896759, "is_reserved": 0, "lon": -76.94722116666667, "fusion_lon": 0.0, "is_disabled": 0, "fusion_lat": 0.0, "bike_id": "85182d7ea6d49fb1490b08d44802f33f", "rental_uris": {"ios": "https://dc.lft.to/lastmile_qr_scan", "android": "https://dc.lft.to/lastmile_qr_scan"}}, {"name": "b4c082ff4c1cef8684b90264cd7f36f2", "type": "electric_scooter", "lat": 38.9166785, "is_reserved": 0, "lon": -77.00507266666666, "fusion_lon": 0.0, "is_disabled": 0, "fusion_lat": 0.0, "bike_id": "b4c082ff4c1cef8684b90264cd7f36f2", "rental_uris": {"ios": "https://dc.lft.to/lastmile_qr_scan", "android": "https://dc.lft.to/lastmile_qr_scan"}}, {"name": "22132a1b1a5c9cf2f9df685360b73537", "type": "electric_scooter", "lat": 38.907318, "is_reserved": 0, "lon": -77.04356566666667, "fusion_lon": 0.0, "is_disabled": 0, "fusion_lat": 0.0, "bike_id": "22132a1b1a5c9cf2f9df685360b73537", "rental_uris": {"ios": "https://dc.lft.to/lastmile_qr_scan", "android": "https://dc.lft.to/lastmile_qr_scan"}}, {"name": "c9cf020b308c151ba09aa0a80ccf320f", "type": "electric_scooter", "lat": 38.940804, "is_reserved": 0, "lon": -77.06191433333333, "fusion_lon": 0.0, "is_disabled": 0, "fusion_lat": 0.0, "bike_id": "c9cf020b308c151ba09aa0a80ccf320f", "rental_uris": {"ios": "https://dc.lft.to/lastmile_qr_scan", "android": "https://dc.lft.to/lastmile_qr_scan"}}, {"name": "62c5d134b34458b6643b0b93707db81e", "type": "electric_scooter", "lat": 38.902307666666665, "is_reserved": 0, "lon": -77.0466165, "fusion_lon": 0.0, "is_disabled": 0, "fusion_lat": 0.0, "bike_id": "62c5d134b34458b6643b0b93707db81e", "rental_uris": {"ios": "https://dc.lft.to/lastmile_qr_scan", "android": "https://dc.lft.to/lastmile_qr_scan"}}, {"name": "024117786fe575033f3133ae8985990c", "type": "electric_scooter", "lat": 38.902774, "is_reserved": 0, "lon": -77.03360683333334, "fusion_lon": 0.0, "is_disabled": 0, "fusion_lat": 0.0, "bike_id": "024117786fe575033f3133ae8985990c", "rental_uris": {"ios": "https://dc.lft.to/lastmile_qr_scan", "android": "https://dc.lft.to/lastmile_qr_scan"}}, {"name": "3548c7e9b05676cbe2ca9e8c65ba2938", "type": "electric_scooter", "lat": 38.908089333333336, "is_reserved": 0, "lon": -77.03840366666667, "fusion_lon": 0.0, "is_disabled": 0, "fusion_lat": 0.0, "bike_id": "3548c7e9b05676cbe2ca9e8c65ba2938", "rental_uris": {"ios": "https://dc.lft.to/lastmile_qr_scan", "android": "https://dc.lft.to/lastmile_qr_scan"}}, {"name": "26e01c228d669dd6bf7b5f4f64c0bf8b", "type": "electric_scooter", "lat": 38.923689833333334, "is_reserved": 0, "lon": -77.0212455, "fusion_lon": 0.0, "is_disabled": 0, "fusion_lat": 0.0, "bike_id": "26e01c228d669dd6bf7b5f4f64c0bf8b", "rental_uris": {"ios": "https://dc.lft.to/lastmile_qr_scan", "android": "https://dc.lft.to/lastmile_qr_scan"}}, {"name": "9fb8ff97eac748810fa61c56cf3ab079", "type": "electric_scooter", "lat": 38.91260183333333, "is_reserved": 0, "lon": -77.00931433333334, "fusion_lon": 0.0, "is_disabled": 0, "fusion_lat": 0.0, "bike_id": "9fb8ff97eac748810fa61c56cf3ab079", "rental_uris": {"ios": "https://dc.lft.to/lastmile_qr_scan", "android": "https://dc.lft.to/lastmile_qr_scan"}}, {"name": "f8289d4324debfab814e1ed079017a6b", "type": "electric_scooter", "lat": 38.916825833333334, "is_reserved": 0, "lon": -77.0297285, "fusion_lon": 0.0, "is_disabled": 0, "fusion_lat": 0.0, "bike_id": "f8289d4324debfab814e1ed079017a6b", "rental_uris": {"ios": "https://dc.lft.to/lastmile_qr_scan", "android": "https://dc.lft.to/lastmile_qr_scan"}}, {"name": "1fcf4cc85297a23d0359e687e450de16", "type": "electric_scooter", "lat": 38.8778365, "is_reserved": 0, "lon": -77.00807916666666, "fusion_lon": 0.0, "is_disabled": 0, "fusion_lat": 0.0, "bike_id": "1fcf4cc85297a23d0359e687e450de16", "rental_uris": {"ios": "https://dc.lft.to/lastmile_qr_scan", "android": "https://dc.lft.to/lastmile_qr_scan"}}, {"name": "db53710d2e61fb925c4858911b7afa9e", "type": "electric_scooter", "lat": 38.89832283333333, "is_reserved": 0, "lon": -76.9463725, "fusion_lon": 0.0, "is_disabled": 0, "fusion_lat": 0.0, "bike_id": "db53710d2e61fb925c4858911b7afa9e", "rental_uris": {"ios": "https://dc.lft.to/lastmile_qr_scan", "android": "https://dc.lft.to/lastmile_qr_scan"}}, {"name": "d824b30d3f6727de3eae793b3d19bba7", "type": "electric_scooter", "lat": 38.9199915, "is_reserved": 0, "lon": -76.9581135, "fusion_lon": 0.0, "is_disabled": 0, "fusion_lat": 0.0, "bike_id": "d824b30d3f6727de3eae793b3d19bba7", "rental_uris": {"ios": "https://dc.lft.to/lastmile_qr_scan", "android": "https://dc.lft.to/lastmile_qr_scan"}}, {"name": "65df55b5cc7a3717c93e8f39df8ef47a", "type": "electric_scooter", "lat": 38.962336666666666, "is_reserved": 0, "lon": -77.0297735, "fusion_lon": 0.0, "is_disabled": 0, "fusion_lat": 0.0, "bike_id": "65df55b5cc7a3717c93e8f39df8ef47a", "rental_uris": {"ios": "https://dc.lft.to/lastmile_qr_scan", "android": "https://dc.lft.to/lastmile_qr_scan"}}, {"name": "4527cdbeec835a844c319e1dc3065d55", "type": "electric_scooter", "lat": 38.8901495, "is_reserved": 0, "lon": -76.93735216666667, "fusion_lon": 0.0, "is_disabled": 0, "fusion_lat": 0.0, "bike_id": "4527cdbeec835a844c319e1dc3065d55", "rental_uris": {"ios": "https://dc.lft.to/lastmile_qr_scan", "android": "https://dc.lft.to/lastmile_qr_scan"}}, {"name": "dc2dc2919ea15d5bbe346d7764e00744", "type": "electric_scooter", "lat": 38.90322483333333, "is_reserved": 0, "lon": -77.03454466666666, "fusion_lon": 0.0, "is_disabled": 0, "fusion_lat": 0.0, "bike_id": "dc2dc2919ea15d5bbe346d7764e00744", "rental_uris": {"ios": "https://dc.lft.to/lastmile_qr_scan", "android": "https://dc.lft.to/lastmile_qr_scan"}}, {"name": "546980a0140207ee9f742570fe596b12", "type": "electric_scooter", "lat": 38.90578383333333, "is_reserved": 0, "lon": -77.00489083333333, "fusion_lon": 0.0, "is_disabled": 0, "fusion_lat": 0.0, "bike_id": "546980a0140207ee9f742570fe596b12", "rental_uris": {"ios": "https://dc.lft.to/lastmile_qr_scan", "android": "https://dc.lft.to/lastmile_qr_scan"}}, {"name": "6bdcedab906e56ab1c896ae984d9db25", "type": "electric_scooter", "lat": 38.931229333333334, "is_reserved": 0, "lon": -77.038286, "fusion_lon": 0.0, "is_disabled": 0, "fusion_lat": 0.0, "bike_id": "6bdcedab906e56ab1c896ae984d9db25", "rental_uris": {"ios": "https://dc.lft.to/lastmile_qr_scan", "android": "https://dc.lft.to/lastmile_qr_scan"}}, {"name": "6ecf940f620fad7ee25ec97bae8d4dca", "type": "electric_scooter", "lat": 38.882207333333334, "is_reserved": 0, "lon": -76.94180383333334, "fusion_lon": 0.0, "is_disabled": 0, "fusion_lat": 0.0, "bike_id": "6ecf940f620fad7ee25ec97bae8d4dca", "rental_uris": {"ios": "https://dc.lft.to/lastmile_qr_scan", "android": "https://dc.lft.to/lastmile_qr_scan"}}, {"name": "55d7b39fd5ae8f2acc9c4d5c8dde5d0c", "type": "electric_scooter", "lat": 38.91867666666667, "is_reserved": 0, "lon": -77.03661883333334, "fusion_lon": 0.0, "is_disabled": 0, "fusion_lat": 0.0, "bike_id": "55d7b39fd5ae8f2acc9c4d5c8dde5d0c", "rental_uris": {"ios": "https://dc.lft.to/lastmile_qr_scan", "android": "https://dc.lft.to/lastmile_qr_scan"}}, {"name": "57dfb80477300ec7f54f8dc9721c0863", "type": "electric_scooter", "lat": 38.9032985, "is_reserved": 0, "lon": -76.98980583333334, "fusion_lon": 0.0, "is_disabled": 0, "fusion_lat": 0.0, "bike_id": "57dfb80477300ec7f54f8dc9721c0863", "rental_uris": {"ios": "https://dc.lft.to/lastmile_qr_scan", "android": "https://dc.lft.to/lastmile_qr_scan"}}, {"name": "a4c7d5b5d2facb550ce8aa09e1582112", "type": "electric_scooter", "lat": 38.886146333333336, "is_reserved": 0, "lon": -76.9951365, "fusion_lon": 0.0, "is_disabled": 0, "fusion_lat": 0.0, "bike_id": "a4c7d5b5d2facb550ce8aa09e1582112", "rental_uris": {"ios": "https://dc.lft.to/lastmile_qr_scan", "android": "https://dc.lft.to/lastmile_qr_scan"}}, {"name": "ee3ee132b328d48d2066bf027ef7c105", "type": "electric_scooter", "lat": 38.89828633333333, "is_reserved": 0, "lon": -77.03299683333333, "fusion_lon": 0.0, "is_disabled": 0, "fusion_lat": 0.0, "bike_id": "ee3ee132b328d48d2066bf027ef7c105", "rental_uris": {"ios": "https://dc.lft.to/lastmile_qr_scan", "android": "https://dc.lft.to/lastmile_qr_scan"}}, {"name": "911d0bba4e4f21abeeeb3ce65dba3540", "type": "electric_scooter", "lat": 38.89458716666667, "is_reserved": 0, "lon": -77.02148016666666, "fusion_lon": 0.0, "is_disabled": 0, "fusion_lat": 0.0, "bike_id": "911d0bba4e4f21abeeeb3ce65dba3540", "rental_uris": {"ios": "https://dc.lft.to/lastmile_qr_scan", "android": "https://dc.lft.to/lastmile_qr_scan"}}, {"name": "2ffaa804a9a650466a3a13a8098510e1", "type": "electric_scooter", "lat": 38.896304, "is_reserved": 0, "lon": -77.02286183333334, "fusion_lon": 0.0, "is_disabled": 0, "fusion_lat": 0.0, "bike_id": "2ffaa804a9a650466a3a13a8098510e1", "rental_uris": {"ios": "https://dc.lft.to/lastmile_qr_scan", "android": "https://dc.lft.to/lastmile_qr_scan"}}, {"name": "ee15d074a05988e05b5afc91ac69e62c", "type": "electric_scooter", "lat": 38.916925666666664, "is_reserved": 0, "lon": -77.02602033333334, "fusion_lon": 0.0, "is_disabled": 0, "fusion_lat": 0.0, "bike_id": "ee15d074a05988e05b5afc91ac69e62c", "rental_uris": {"ios": "https://dc.lft.to/lastmile_qr_scan", "android": "https://dc.lft.to/lastmile_qr_scan"}}, {"name": "cf673ff3ea9d2a37998c6a09c0a51fce", "type": "electric_scooter", "lat": 38.941803, "is_reserved": 0, "lon": -77.03656233333334, "fusion_lon": 0.0, "is_disabled": 0, "fusion_lat": 0.0, "bike_id": "cf673ff3ea9d2a37998c6a09c0a51fce", "rental_uris": {"ios": "https://dc.lft.to/lastmile_qr_scan", "android": "https://dc.lft.to/lastmile_qr_scan"}}, {"name": "929bf0f155847e9a83b19e3bf871e419", "type": "electric_scooter", "lat": 38.9072875, "is_reserved": 0, "lon": -77.04337383333333, "fusion_lon": 0.0, "is_disabled": 0, "fusion_lat": 0.0, "bike_id": "929bf0f155847e9a83b19e3bf871e419", "rental_uris": {"ios": "https://dc.lft.to/lastmile_qr_scan", "android": "https://dc.lft.to/lastmile_qr_scan"}}, {"name": "3cead5b0fc31e1455c80e771150682d1", "type": "electric_scooter", "lat": 38.9133155, "is_reserved": 0, "lon": -77.048144, "fusion_lon": 0.0, "is_disabled": 0, "fusion_lat": 0.0, "bike_id": "3cead5b0fc31e1455c80e771150682d1", "rental_uris": {"ios": "https://dc.lft.to/lastmile_qr_scan", "android": "https://dc.lft.to/lastmile_qr_scan"}}, {"name": "23a6a76f4c10fb8b4322123b2ad6c3f0", "type": "electric_bike", "lat": 38.8952265, "is_reserved": 0, "lon": -77.02739183333334, "fusion_lon": 0.0, "is_disabled": 0, "fusion_lat": 0.0, "bike_id": "23a6a76f4c10fb8b4322123b2ad6c3f0", "rental_uris": {"ios": "https://dc.lft.to/lastmile_qr_scan", "android": "https://dc.lft.to/lastmile_qr_scan"}}, {"name": "c15af439166263715a923b56274da2ee", "type": "electric_scooter", "lat": 38.89474216666667, "is_reserved": 0, "lon": -76.9856245, "fusion_lon": 0.0, "is_disabled": 0, "fusion_lat": 0.0, "bike_id": "c15af439166263715a923b56274da2ee", "rental_uris": {"ios": "https://dc.lft.to/lastmile_qr_scan", "android": "https://dc.lft.to/lastmile_qr_scan"}}, {"name": "53ef2656afcb61f9ac84607f2467981e", "type": "electric_scooter", "lat": 38.903898833333336, "is_reserved": 0, "lon": -77.04433083333333, "fusion_lon": 0.0, "is_disabled": 0, "fusion_lat": 0.0, "bike_id": "53ef2656afcb61f9ac84607f2467981e", "rental_uris": {"ios": "https://dc.lft.to/lastmile_qr_scan", "android": "https://dc.lft.to/lastmile_qr_scan"}}, {"name": "790ecba834caebf3b1ca31f8d14b89c0", "type": "electric_scooter", "lat": 38.90041433333333, "is_reserved": 0, "lon": -77.033108, "fusion_lon": 0.0, "is_disabled": 0, "fusion_lat": 0.0, "bike_id": "790ecba834caebf3b1ca31f8d14b89c0", "rental_uris": {"ios": "https://dc.lft.to/lastmile_qr_scan", "android": "https://dc.lft.to/lastmile_qr_scan"}}, {"name": "95eefac9d96ec3d533b9d5ccb049e8cd", "type": "electric_scooter", "lat": 38.905133666666664, "is_reserved": 0, "lon": -77.053321, "fusion_lon": 0.0, "is_disabled": 0, "fusion_lat": 0.0, "bike_id": "95eefac9d96ec3d533b9d5ccb049e8cd", "rental_uris": {"ios": "https://dc.lft.to/lastmile_qr_scan", "android": "https://dc.lft.to/lastmile_qr_scan"}}, {"name": "10bc683ab42ba45bdcf5681e448082f3", "type": "electric_scooter", "lat": 38.898559666666664, "is_reserved": 0, "lon": -77.02773783333333, "fusion_lon": 0.0, "is_disabled": 0, "fusion_lat": 0.0, "bike_id": "10bc683ab42ba45bdcf5681e448082f3", "rental_uris": {"ios": "https://dc.lft.to/lastmile_qr_scan", "android": "https://dc.lft.to/lastmile_qr_scan"}}, {"name": "862bc3b46078383d0b0fc662bf377b5a", "type": "electric_scooter", "lat": 38.9281025, "is_reserved": 0, "lon": -77.01401683333333, "fusion_lon": 0.0, "is_disabled": 0, "fusion_lat": 0.0, "bike_id": "862bc3b46078383d0b0fc662bf377b5a", "rental_uris": {"ios": "https://dc.lft.to/lastmile_qr_scan", "android": "https://dc.lft.to/lastmile_qr_scan"}}, {"name": "498bc40bdc5a299928c4d6185bd19a41", "type": "electric_scooter", "lat": 38.905902, "is_reserved": 0, "lon": -77.04875233333334, "fusion_lon": 0.0, "is_disabled": 0, "fusion_lat": 0.0, "bike_id": "498bc40bdc5a299928c4d6185bd19a41", "rental_uris": {"ios": "https://dc.lft.to/lastmile_qr_scan", "android": "https://dc.lft.to/lastmile_qr_scan"}}, {"name": "80f930688b3d450d777c3c6506437606", "type": "electric_scooter", "lat": 38.8682835, "is_reserved": 0, "lon": -76.986135, "fusion_lon": 0.0, "is_disabled": 0, "fusion_lat": 0.0, "bike_id": "80f930688b3d450d777c3c6506437606", "rental_uris": {"ios": "https://dc.lft.to/lastmile_qr_scan", "android": "https://dc.lft.to/lastmile_qr_scan"}}, {"name": "27224618d0de56e4368b230d0bc81ee7", "type": "electric_scooter", "lat": 38.88536933333334, "is_reserved": 0, "lon": -77.00579366666666, "fusion_lon": 0.0, "is_disabled": 0, "fusion_lat": 0.0, "bike_id": "27224618d0de56e4368b230d0bc81ee7", "rental_uris": {"ios": "https://dc.lft.to/lastmile_qr_scan", "android": "https://dc.lft.to/lastmile_qr_scan"}}, {"name": "c584240e44766d188547cd4dfe3a9fc0", "type": "electric_scooter", "lat": 38.93284933333333, "is_reserved": 0, "lon": -77.02979683333334, "fusion_lon": 0.0, "is_disabled": 0, "fusion_lat": 0.0, "bike_id": "c584240e44766d188547cd4dfe3a9fc0", "rental_uris": {"ios": "https://dc.lft.to/lastmile_qr_scan", "android": "https://dc.lft.to/lastmile_qr_scan"}}, {"name": "f5540ffb1d0c50ee1725c20abe69d39e", "type": "electric_scooter", "lat": 38.88289133333333, "is_reserved": 0, "lon": -76.986171, "fusion_lon": 0.0, "is_disabled": 0, "fusion_lat": 0.0, "bike_id": "f5540ffb1d0c50ee1725c20abe69d39e", "rental_uris": {"ios": "https://dc.lft.to/lastmile_qr_scan", "android": "https://dc.lft.to/lastmile_qr_scan"}}, {"name": "92779b58f753f22489e8972de2698156", "type": "electric_scooter", "lat": 38.90964066666667, "is_reserved": 0, "lon": -77.02414683333333, "fusion_lon": 0.0, "is_disabled": 0, "fusion_lat": 0.0, "bike_id": "92779b58f753f22489e8972de2698156", "rental_uris": {"ios": "https://dc.lft.to/lastmile_qr_scan", "android": "https://dc.lft.to/lastmile_qr_scan"}}, {"name": "df0cb621288384b8bf1523f3652e3d98", "type": "electric_scooter", "lat": 38.89989383333333, "is_reserved": 0, "lon": -77.02105283333333, "fusion_lon": 0.0, "is_disabled": 0, "fusion_lat": 0.0, "bike_id": "df0cb621288384b8bf1523f3652e3d98", "rental_uris": {"ios": "https://dc.lft.to/lastmile_qr_scan", "android": "https://dc.lft.to/lastmile_qr_scan"}}, {"name": "0fef47082f651ab87b3ee3969af02f0b", "type": "electric_scooter", "lat": 38.90804966666666, "is_reserved": 0, "lon": -77.03840633333333, "fusion_lon": 0.0, "is_disabled": 0, "fusion_lat": 0.0, "bike_id": "0fef47082f651ab87b3ee3969af02f0b", "rental_uris": {"ios": "https://dc.lft.to/lastmile_qr_scan", "android": "https://dc.lft.to/lastmile_qr_scan"}}, {"name": "0502606873890186367f8d792c763ce1", "type": "electric_scooter", "lat": 38.917200666666666, "is_reserved": 0, "lon": -77.036619, "fusion_lon": 0.0, "is_disabled": 0, "fusion_lat": 0.0, "bike_id": "0502606873890186367f8d792c763ce1", "rental_uris": {"ios": "https://dc.lft.to/lastmile_qr_scan", "android": "https://dc.lft.to/lastmile_qr_scan"}}, {"name": "c72e92dbf66c8397a5a7f0c3f95978bc", "type": "electric_scooter", "lat": 38.92723866666667, "is_reserved": 0, "lon": -77.02096, "fusion_lon": 0.0, "is_disabled": 0, "fusion_lat": 0.0, "bike_id": "c72e92dbf66c8397a5a7f0c3f95978bc", "rental_uris": {"ios": "https://dc.lft.to/lastmile_qr_scan", "android": "https://dc.lft.to/lastmile_qr_scan"}}, {"name": "516ab69cb7587ab8f6b2801185ca6a4f", "type": "electric_scooter", "lat": 38.90867166666666, "is_reserved": 0, "lon": -77.08596716666666, "fusion_lon": 0.0, "is_disabled": 0, "fusion_lat": 0.0, "bike_id": "516ab69cb7587ab8f6b2801185ca6a4f", "rental_uris": {"ios": "https://dc.lft.to/lastmile_qr_scan", "android": "https://dc.lft.to/lastmile_qr_scan"}}, {"name": "813ab183c0a8317bac19b2a80ff5bbe7", "type": "electric_scooter", "lat": 38.9019705, "is_reserved": 0, "lon": -76.982049, "fusion_lon": 0.0, "is_disabled": 0, "fusion_lat": 0.0, "bike_id": "813ab183c0a8317bac19b2a80ff5bbe7", "rental_uris": {"ios": "https://dc.lft.to/lastmile_qr_scan", "android": "https://dc.lft.to/lastmile_qr_scan"}}, {"name": "dff6d0b7349c88166c60c91f09b71679", "type": "electric_scooter", "lat": 38.84293016666667, "is_reserved": 0, "lon": -76.99948366666666, "fusion_lon": 0.0, "is_disabled": 0, "fusion_lat": 0.0, "bike_id": "dff6d0b7349c88166c60c91f09b71679", "rental_uris": {"ios": "https://dc.lft.to/lastmile_qr_scan", "android": "https://dc.lft.to/lastmile_qr_scan"}}, {"name": "2579960d4120cc301f1c1fa2e6b8ce96", "type": "electric_bike", "lat": 38.9922785, "is_reserved": 0, "lon": -76.87825783333334, "fusion_lon": 0.0, "is_disabled": 0, "fusion_lat": 0.0, "bike_id": "2579960d4120cc301f1c1fa2e6b8ce96", "rental_uris": {"ios": "https://dc.lft.to/lastmile_qr_scan", "android": "https://dc.lft.to/lastmile_qr_scan"}}, {"name": "f7672d0195c82d121cf0db192b03363e", "type": "electric_bike", "lat": 38.96898183333333, "is_reserved": 0, "lon": -76.95679866666667, "fusion_lon": 0.0, "is_disabled": 0, "fusion_lat": 0.0, "bike_id": "f7672d0195c82d121cf0db192b03363e", "rental_uris": {"ios": "https://dc.lft.to/lastmile_qr_scan", "android": "https://dc.lft.to/lastmile_qr_scan"}}, {"name": "bc748837617f9e66308b6468ebf9812f", "type": "electric_bike", "lat": 38.922104166666664, "is_reserved": 0, "lon": -76.9883695, "fusion_lon": 0.0, "is_disabled": 0, "fusion_lat": 0.0, "bike_id": "bc748837617f9e66308b6468ebf9812f", "rental_uris": {"ios": "https://dc.lft.to/lastmile_qr_scan", "android": "https://dc.lft.to/lastmile_qr_scan"}}, {"name": "13c3acbcd47bf56f7ac01990a812e449", "type": "electric_scooter", "lat": 38.90269883333333, "is_reserved": 0, "lon": -77.0610895, "fusion_lon": 0.0, "is_disabled": 0, "fusion_lat": 0.0, "bike_id": "13c3acbcd47bf56f7ac01990a812e449", "rental_uris": {"ios": "https://dc.lft.to/lastmile_qr_scan", "android": "https://dc.lft.to/lastmile_qr_scan"}}, {"name": "aed1b4b06a92b264b2ceebff6c159050", "type": "electric_scooter", "lat": 38.90368216666667, "is_reserved": 0, "lon": -77.03161016666667, "fusion_lon": 0.0, "is_disabled": 0, "fusion_lat": 0.0, "bike_id": "aed1b4b06a92b264b2ceebff6c159050", "rental_uris": {"ios": "https://dc.lft.to/lastmile_qr_scan", "android": "https://dc.lft.to/lastmile_qr_scan"}}, {"name": "3c7cce5eb1c258c13f94afdc8d447a0c", "type": "electric_scooter", "lat": 38.901349333333336, "is_reserved": 0, "lon": -77.01201566666667, "fusion_lon": 0.0, "is_disabled": 0, "fusion_lat": 0.0, "bike_id": "3c7cce5eb1c258c13f94afdc8d447a0c", "rental_uris": {"ios": "https://dc.lft.to/lastmile_qr_scan", "android": "https://dc.lft.to/lastmile_qr_scan"}}, {"name": "7e2179a06b778b267711abe966e32f4b", "type": "electric_scooter", "lat": 38.900416, "is_reserved": 0, "lon": -77.026104, "fusion_lon": 0.0, "is_disabled": 0, "fusion_lat": 0.0, "bike_id": "7e2179a06b778b267711abe966e32f4b", "rental_uris": {"ios": "https://dc.lft.to/lastmile_qr_scan", "android": "https://dc.lft.to/lastmile_qr_scan"}}, {"name": "7aae6ba0af0e72fbfb33f9f887d1dfff", "type": "electric_scooter", "lat": 38.86656166666667, "is_reserved": 0, "lon": -76.98887966666666, "fusion_lon": 0.0, "is_disabled": 0, "fusion_lat": 0.0, "bike_id": "7aae6ba0af0e72fbfb33f9f887d1dfff", "rental_uris": {"ios": "https://dc.lft.to/lastmile_qr_scan", "android": "https://dc.lft.to/lastmile_qr_scan"}}, {"name": "ed68817e02ef56fec9e54b5831b07b8f", "type": "electric_scooter", "lat": 38.9002805, "is_reserved": 0, "lon": -76.9986075, "fusion_lon": 0.0, "is_disabled": 0, "fusion_lat": 0.0, "bike_id": "ed68817e02ef56fec9e54b5831b07b8f", "rental_uris": {"ios": "https://dc.lft.to/lastmile_qr_scan", "android": "https://dc.lft.to/lastmile_qr_scan"}}, {"name": "18b8d1a57516f14b8a1b69aeb7bb49e3", "type": "electric_scooter", "lat": 38.9217215, "is_reserved": 0, "lon": -76.99399016666666, "fusion_lon": 0.0, "is_disabled": 0, "fusion_lat": 0.0, "bike_id": "18b8d1a57516f14b8a1b69aeb7bb49e3", "rental_uris": {"ios": "https://dc.lft.to/lastmile_qr_scan", "android": "https://dc.lft.to/lastmile_qr_scan"}}, {"name": "69df2798ac04a648075424c32d05844d", "type": "electric_scooter", "lat": 38.886401666666664, "is_reserved": 0, "lon": -77.02137083333334, "fusion_lon": 0.0, "is_disabled": 0, "fusion_lat": 0.0, "bike_id": "69df2798ac04a648075424c32d05844d", "rental_uris": {"ios": "https://dc.lft.to/lastmile_qr_scan", "android": "https://dc.lft.to/lastmile_qr_scan"}}, {"name": "89f1b590cd945f459bb4ba3816b25422", "type": "electric_scooter", "lat": 38.900295, "is_reserved": 0, "lon": -77.00228966666667, "fusion_lon": 0.0, "is_disabled": 0, "fusion_lat": 0.0, "bike_id": "89f1b590cd945f459bb4ba3816b25422", "rental_uris": {"ios": "https://dc.lft.to/lastmile_qr_scan", "android": "https://dc.lft.to/lastmile_qr_scan"}}, {"name": "49ffc6c3d24f736b7b55152b74a99d56", "type": "electric_scooter", "lat": 38.89629166666667, "is_reserved": 0, "lon": -77.02290666666667, "fusion_lon": 0.0, "is_disabled": 0, "fusion_lat": 0.0, "bike_id": "49ffc6c3d24f736b7b55152b74a99d56", "rental_uris": {"ios": "https://dc.lft.to/lastmile_qr_scan", "android": "https://dc.lft.to/lastmile_qr_scan"}}, {"name": "dd2f9ae92d5c695957e8bb9049c3467a", "type": "electric_bike", "lat": 38.85438416666667, "is_reserved": 0, "lon": -77.11705866666667, "fusion_lon": 0.0, "is_disabled": 0, "fusion_lat": 0.0, "bike_id": "dd2f9ae92d5c695957e8bb9049c3467a", "rental_uris": {"ios": "https://dc.lft.to/lastmile_qr_scan", "android": "https://dc.lft.to/lastmile_qr_scan"}}, {"name": "3f76afe78b6346a9df7671a15228fe71", "type": "electric_scooter", "lat": 38.907389, "is_reserved": 0, "lon": -77.03444766666667, "fusion_lon": 0.0, "is_disabled": 0, "fusion_lat": 0.0, "bike_id": "3f76afe78b6346a9df7671a15228fe71", "rental_uris": {"ios": "https://dc.lft.to/lastmile_qr_scan", "android": "https://dc.lft.to/lastmile_qr_scan"}}, {"name": "9d3a8a0cd037f9a6aa2057813b830654", "type": "electric_scooter", "lat": 38.897468833333335, "is_reserved": 0, "lon": -77.04685816666667, "fusion_lon": 0.0, "is_disabled": 0, "fusion_lat": 0.0, "bike_id": "9d3a8a0cd037f9a6aa2057813b830654", "rental_uris": {"ios": "https://dc.lft.to/lastmile_qr_scan", "android": "https://dc.lft.to/lastmile_qr_scan"}}, {"name": "0b3f5a52e61ed2dfbd40645f33dcbcb9", "type": "electric_scooter", "lat": 38.917247333333336, "is_reserved": 0, "lon": -77.04181366666667, "fusion_lon": 0.0, "is_disabled": 0, "fusion_lat": 0.0, "bike_id": "0b3f5a52e61ed2dfbd40645f33dcbcb9", "rental_uris": {"ios": "https://dc.lft.to/lastmile_qr_scan", "android": "https://dc.lft.to/lastmile_qr_scan"}}, {"name": "f6685e73fe414fa0d6389f5fee88bf95", "type": "electric_scooter", "lat": 38.907189, "is_reserved": 0, "lon": -77.02507733333333, "fusion_lon": 0.0, "is_disabled": 0, "fusion_lat": 0.0, "bike_id": "f6685e73fe414fa0d6389f5fee88bf95", "rental_uris": {"ios": "https://dc.lft.to/lastmile_qr_scan", "android": "https://dc.lft.to/lastmile_qr_scan"}}, {"name": "e04cffb79119110e6dd7669283d2583e", "type": "electric_scooter", "lat": 38.903683666666666, "is_reserved": 0, "lon": -77.04875033333333, "fusion_lon": 0.0, "is_disabled": 0, "fusion_lat": 0.0, "bike_id": "e04cffb79119110e6dd7669283d2583e", "rental_uris": {"ios": "https://dc.lft.to/lastmile_qr_scan", "android": "https://dc.lft.to/lastmile_qr_scan"}}, {"name": "aea7027c04794e23c78172dfe33881b5", "type": "electric_scooter", "lat": 38.89526033333333, "is_reserved": 0, "lon": -77.01614333333333, "fusion_lon": 0.0, "is_disabled": 0, "fusion_lat": 0.0, "bike_id": "aea7027c04794e23c78172dfe33881b5", "rental_uris": {"ios": "https://dc.lft.to/lastmile_qr_scan", "android": "https://dc.lft.to/lastmile_qr_scan"}},