{"data": {"bikes": [{"fusion_lon": 0.0, "bike_id": "f3ade65ca210fb41d369b35923097ac2", "name": "f3ade65ca210fb41d369b35923097ac2", "type": "electric_scooter", "lon": -77.033506, "rental_uris": {"android": "https://dc.lft.to/lastmile_qr_scan", "ios": "https://dc.lft.to/lastmile_qr_scan"}, "lat": 38.9002825, "is_reserved": 0, "is_disabled": 0, "fusion_lat": 0.0}, {"fusion_lon": 0.0, "bike_id": "9b0d19042ee766d01c8b4a7da79fe946", "name": "9b0d19042ee766d01c8b4a7da79fe946", "type": "electric_bike", "lon": -76.9655595, "rental_uris": {"android": "https://dc.lft.to/lastmile_qr_scan", "ios": "https://dc.lft.to/lastmile_qr_scan"}, "lat": 38.950847333333336, "is_reserved": 0, "is_disabled": 0, "fusion_lat": 0.0}, {"fusion_lon": 0.0, "bike_id": "1a21f1ef6df164295b691ede5f62c5aa", "name": "1a21f1ef6df164295b691ede5f62c5aa", "type": "electric_scooter", "lon": -77.0723075, "rental_uris": {"android": "https://dc.lft.to/lastmile_qr_scan", "ios": "https://dc.lft.to/lastmile_qr_scan"}, "lat": 38.934588166666664, "is_reserved": 0, "is_disabled": 0, "fusion_lat": 0.0}, {"fusion_lon": 0.0, "bike_id": "49742f8562d6b49952327b3da74d5203", "name": "49742f8562d6b49952327b3da74d5203", "type": "electric_scooter", "lon": -77.04607516666667, "rental_uris": {"android": "https://dc.lft.to/lastmile_qr_scan", "ios": "https://dc.lft.to/lastmile_qr_scan"}, "lat": 38.9168615, "is_reserved": 0, "is_disabled": 0, "fusion_lat": 0.0}, {"fusion_lon": 0.0, "bike_id": "c5d756ac050ed7a8004b1f1aa0e15a12", "name": "c5d756ac050ed7a8004b1f1aa0e15a12", "type": "electric_scooter", "lon": -77.02296233333334, "rental_uris": {"android": "https://dc.lft.to/lastmile_qr_scan", "ios": "https://dc.lft.to/lastmile_qr_scan"}, "lat": 38.91722566666667, "is_reserved": 0, "is_disabled": 0, "fusion_lat": 0.0}, {"fusion_lon": 0.0, "bike_id": "c86ededaa56bb1925bbaf308fea40227", "name": "c86ededaa56bb1925bbaf308fea40227", "type": "electric_scooter", "lon": -77.04393183333333, "rental_uris": {"android": "https://dc.lft.to/lastmile_qr_scan", "ios": "https://dc.lft.to/lastmile_qr_scan"}, "lat": 38.91089066666667, "is_reserved": 0, "is_disabled": 0, "fusion_lat": 0.0}, {"fusion_lon": 0.0, "bike_id": "25fb981844af87ddd8bfb68e3fa43731", "name": "25fb981844af87ddd8bfb68e3fa43731", "type": "electric_scooter", "lon": -77.0489725, "rental_uris": {"android": "https://dc.lft.to/lastmile_qr_scan", "ios": "https://dc.lft.to/lastmile_qr_scan"}, "lat": 38.892272, "is_reserved": 0, "is_disabled": 0, "fusion_lat": 0.0}, {"fusion_lon": 0.0, "bike_id": "20ab875c11575fe42583c5da2fb53bf9", "name": "20ab875c11575fe42583c5da2fb53bf9", "type": "electric_scooter", "lon": -77.04088866666666, "rental_uris": {"android": "https://dc.lft.to/lastmile_qr_scan", "ios": "https://dc.lft.to/lastmile_qr_scan"}, "lat": 38.907782, "is_reserved": 0, "is_disabled": 0, "fusion_lat": 0.0}, {"fusion_lon": 0.0, "bike_id": "9ea3d404844b595d441018bbb33bab17", "name": "9ea3d404844b595d441018bbb33bab17", "type": "electric_scooter", "lon": -77.02744366666667, "rental_uris": {"android": "https://dc.lft.to/lastmile_qr_scan", "ios": "https://dc.lft.to/lastmile_qr_scan"}, "lat": 38.93201716666667, "is_reserved": 0, "is_disabled": 0, "fusion_lat": 0.0}, {"fusion_lon": 0.0, "bike_id": "17eae6049d50716726f599bb28456c77", "name": "17eae6049d50716726f599bb28456c77", "type": "electric_scooter", "lon": -77.0281, "rental_uris": {"android": "https://dc.lft.to/lastmile_qr_scan", "ios": "https://dc.lft.to/lastmile_qr_scan"}, "lat": 38.916278, "is_reserved": 0, "is_disabled": 0, "fusion_lat": 0.0}, {"fusion_lon": 0.0, "bike_id": "23d52998f4823068c13d12eeb7fceceb", "name": "23d52998f4823068c13d12eeb7fceceb", "type": "electric_scooter", "lon": -76.99055666666666, "rental_uris": {"android": "https://dc.lft.to/lastmile_qr_scan", "ios": "https://dc.lft.to/lastmile_qr_scan"}, "lat": 38.8635705, "is_reserved": 0, "is_disabled": 0, "fusion_lat": 0.0}, {"fusion_lon": 0.0, "bike_id": "e17559a2b1a385ccf13ab55d5de3e18a", "name": "e17559a2b1a385ccf13ab55d5de3e18a", "type": "electric_scooter", "lon": -77.01012783333333, "rental_uris": {"android": "https://dc.lft.to/lastmile_qr_scan", "ios": "https://dc.lft.to/lastmile_qr_scan"}, "lat": 38.8796765, "is_reserved": 0, "is_disabled": 0, "fusion_lat": 0.0}, {"fusion_lon": 0.0, "bike_id": "798a0a7249a91a30dfa8fd8c271f5757", "name": "798a0a7249a91a30dfa8fd8c271f5757", "type": "electric_scooter", "lon": -76.993564, "rental_uris": {"android": "https://dc.lft.to/lastmile_qr_scan", "ios": "https://dc.lft.to/lastmile_qr_scan"}, "lat": 38.896116, "is_reserved": 0, "is_disabled": 0, "fusion_lat": 0.0}, {"fusion_lon": 0.0, "bike_id": "fead8b72ad79b9a71ddae9ccad74fe3d", "name": "fead8b72ad79b9a71ddae9ccad74fe3d", "type": "electric_scooter", "lon": -77.05158616666667, "rental_uris": {"android": "https://dc.lft.to/lastmile_qr_scan", "ios": "https://dc.lft.to/lastmile_qr_scan"}, "lat": 38.90077866666667, "is_reserved": 0, "is_disabled": 0, "fusion_lat": 0.0}, {"fusion_lon": 0.0, "bike_id": "24851ee9f11fee549f1c3aa8474d716a", "name": "24851ee9f11fee549f1c3aa8474d716a", "type": "electric_scooter", "lon": -76.99666366666666, "rental_uris": {"android": "https://dc.lft.to/lastmile_qr_scan", "ios": "https://dc.lft.to/lastmile_qr_scan"}, "lat": 38.932612, "is_reserved": 0, "is_disabled": 0, "fusion_lat": 0.0}, {"fusion_lon": 0.0, "bike_id": "c646545337de84af07cae5763af5683b", "name": "c646545337de84af07cae5763af5683b", "type": "electric_scooter", "lon": -77.033699, "rental_uris": {"android": "https://dc.lft.to/lastmile_qr_scan", "ios": "https://dc.lft.to/lastmile_qr_scan"}, "lat": 38.90982916666667, "is_reserved": 0, "is_disabled": 0, "fusion_lat": 0.0}, {"fusion_lon": 0.0, "bike_id": "4fff71296d5f0f8154a6f5e9ac12e3ef", "name": "4fff71296d5f0f8154a6f5e9ac12e3ef", "type": "electric_scooter", "lon": -77.00709733333333, "rental_uris": {"android": "https://dc.lft.to/lastmile_qr_scan", "ios": "https://dc.lft.to/lastmile_qr_scan"}, "lat": 38.876791833333336, "is_reserved": 0, "is_disabled": 0, "fusion_lat": 0.0}, {"fusion_lon": 0.0, "bike_id": "65a08ec8f4ebdaf58faafbcc7aa51ac9", "name": "65a08ec8f4ebdaf58faafbcc7aa51ac9", "type": "electric_scooter", "lon": -77.0025695, "rental_uris": {"android": "https://dc.lft.to/lastmile_qr_scan", "ios": "https://dc.lft.to/lastmile_qr_scan"}, "lat": 38.9110925, "is_reserved": 0, "is_disabled": 0, "fusion_lat": 0.0}, {"fusion_lon": 0.0, "bike_id": "421562859e232b8111c69841ae6f85ff", "name": "421562859e232b8111c69841ae6f85ff", "type": "electric_scooter", "lon": -77.04884266666667, "rental_uris": {"android": "https://dc.lft.to/lastmile_qr_scan", "ios": "https://dc.lft.to/lastmile_qr_scan"}, "lat": 38.90903466666666, "is_reserved": 0, "is_disabled": 0, "fusion_lat": 0.0}, {"fusion_lon": 0.0, "bike_id": "f37e1e6f5e5b7bf9c1a810b4a099e073", "name": "f37e1e6f5e5b7bf9c1a810b4a099e073", "type": "electric_scooter", "lon": -77.034645, "rental_uris": {"android": "https://dc.lft.to/lastmile_qr_scan", "ios": "https://dc.lft.to/lastmile_qr_scan"}, "lat": 38.91806783333333, "is_reserved": 0, "is_disabled": 0, "fusion_lat": 0.0}, {"fusion_lon": 0.0, "bike_id": "f573f2241904bad5c0f8f9e45b4d641a", "name": "f573f2241904bad5c0f8f9e45b4d641a", "type": "electric_scooter", "lon": -77.03839716666667, "rental_uris": {"android": "https://dc.lft.to/lastmile_qr_scan", "ios": "https://dc.lft.to/lastmile_qr_scan"}, "lat": 38.912127166666664, "is_reserved": 0, "is_disabled": 0, "fusion_lat": 0.0}, {"fusion_lon": 0.0, "bike_id": "a25307381589319be85f833c4d9683ce", "name": "a25307381589319be85f833c4d9683ce", "type": "electric_scooter", "lon": -77.031848, "rental_uris": {"android": "https://dc.lft.to/lastmile_qr_scan", "ios": "https://dc.lft.to/lastmile_qr_scan"}, "lat": 38.9134935, "is_reserved": 0, "is_disabled": 0, "fusion_lat": 0.0}, {"fusion_lon": 0.0, "bike_id": "ce1a4a34d722b422228e5e96b7862386", "name": "ce1a4a34d722b422228e5e96b7862386", "type": "electric_bike", "lon": -76.90536266666666, "rental_uris": {"android": "https://dc.lft.to/lastmile_qr_scan", "ios": "https://dc.lft.to/lastmile_qr_scan"}, "lat": 38.897344333333336, "is_reserved": 0, "is_disabled": 0, "fusion_lat": 0.0}, {"fusion_lon": 0.0, "bike_id": "d6232e5d9f35263d7438fdc852741b4f", "name": "d6232e5d9f35263d7438fdc852741b4f", "type": "electric_scooter", "lon": -77.01371483333334, "rental_uris": {"android": "https://dc.lft.to/lastmile_qr_scan", "ios": "https://dc.lft.to/lastmile_qr_scan"}, "lat": 38.88639383333334, "is_reserved": 0, "is_disabled": 0, "fusion_lat": 0.0}, {"fusion_lon": 0.0, "bike_id": "0c005255d813d2f0ea32b67f35e90b3e", "name": "0c005255d813d2f0ea32b67f35e90b3e", "type": "electric_scooter", "lon": -77.03854133333333, "rental_uris": {"android": "https://dc.lft.to/lastmile_qr_scan", "ios": "https://dc.lft.to/lastmile_qr_scan"}, "lat": 38.90978833333333, "is_reserved": 0, "is_disabled": 0, "fusion_lat": 0.0}, {"fusion_lon": 0.0, "bike_id": "363f83a5f850a8d429b9ea415bcfa71a", "name": "363f83a5f850a8d429b9ea415bcfa71a", "type": "electric_scooter", "lon": -77.01860133333334, "rental_uris": {"android": "https://dc.lft.to/lastmile_qr_scan", "ios": "https://dc.lft.to/lastmile_qr_scan"}, "lat": 38.9002825, "is_reserved": 0, "is_disabled": 0, "fusion_lat": 0.0}, {"fusion_lon": 0.0, "bike_id": "e0d9d94cf39ed8c9ad580d094748f208", "name": "e0d9d94cf39ed8c9ad580d094748f208", "type": "electric_scooter", "lon": -77.01654716666667, "rental_uris": {"android": "https://dc.lft.to/lastmile_qr_scan", "ios": "https://dc.lft.to/lastmile_qr_scan"}, "lat": 38.90155566666667, "is_reserved": 0, "is_disabled": 0, "fusion_lat": 0.0}, {"fusion_lon": 0.0, "bike_id": "a8e306c4cb3efa62ce6988e1952edb78", "name": "a8e306c4cb3efa62ce6988e1952edb78", "type": "electric_scooter", "lon": -77.013614, "rental_uris": {"android": "https://dc.lft.to/lastmile_qr_scan", "ios": "https://dc.lft.to/lastmile_qr_scan"}, "lat": 38.9288305, "is_reserved": 0, "is_disabled": 0, "fusion_lat": 0.0}, {"fusion_lon": 0.0, "bike_id": "e98161507ab78624247275d43b84ec62", "name": "e98161507ab78624247275d43b84ec62", "type": "electric_scooter", "lon": -77.0575235, "rental_uris": {"android": "https://dc.lft.to/lastmile_qr_scan", "ios": "https://dc.lft.to/lastmile_qr_scan"}, "lat": 38.925027666666665, "is_reserved": 0, "is_disabled": 0, "fusion_lat": 0.0}, {"fusion_lon": 0.0, "bike_id": "15fb7e438eb10587b418584220407ded", "name": "15fb7e438eb10587b418584220407ded", "type": "electric_scooter", "lon": -77.0284965, "rental_uris": {"android": "https://dc.lft.to/lastmile_qr_scan", "ios": "https://dc.lft.to/lastmile_qr_scan"}, "lat": 38.932583666666666, "is_reserved": 0, "is_disabled": 0, "fusion_lat": 0.0}, {"fusion_lon": 0.0, "bike_id": "3d13939534865e43408da5cf2c402599", "name": "3d13939534865e43408da5cf2c402599", "type": "electric_scooter", "lon": -77.06930166666666, "rental_uris": {"android": "https://dc.lft.to/lastmile_qr_scan", "ios": "https://dc.lft.to/lastmile_qr_scan"}, "lat": 38.9132315, "is_reserved": 0, "is_disabled": 0, "fusion_lat": 0.0}, {"fusion_lon": 0.0, "bike_id": "e8cf0aa3da2416bcb795cfc2a3778e7d", "name": "e8cf0aa3da2416bcb795cfc2a3778e7d", "type": "electric_bike", "lon": -77.01560316666666, "rental_uris": {"android": "https://dc.lft.to/lastmile_qr_scan", "ios": "https://dc.lft.to/lastmile_qr_scan"}, "lat": 38.950110333333335, "is_reserved": 0, "is_disabled": 0, "fusion_lat": 0.0}, {"fusion_lon": 0.0, "bike_id": "fd36a1ea9c8c2f3fd3c2164a5f90048a", "name": "fd36a1ea9c8c2f3fd3c2164a5f90048a", "type": "electric_scooter", "lon": -77.01374233333334, "rental_uris": {"android": "https://dc.lft.to/lastmile_qr_scan", "ios": "https://dc.lft.to/lastmile_qr_scan"}, "lat": 38.89219683333334, "is_reserved": 0, "is_disabled": 0, "fusion_lat": 0.0}, {"fusion_lon": 0.0, "bike_id": "7a5aa2056818a5ade6295e1f116cf8a6", "name": "7a5aa2056818a5ade6295e1f116cf8a6", "type": "electric_bike", "lon": -77.127407, "rental_uris": {"android": "https://dc.lft.to/lastmile_qr_scan", "ios": "https://dc.lft.to/lastmile_qr_scan"}, "lat": 38.88824683333333, "is_reserved": 0, "is_disabled": 0, "fusion_lat": 0.0}, {"fusion_lon": 0.0, "bike_id": "4d604bf6f6fef8914d7f9910a4ad78b1", "name": "4d604bf6f6fef8914d7f9910a4ad78b1", "type": "electric_scooter", "lon": -77.03860166666666, "rental_uris": {"android": "https://dc.lft.to/lastmile_qr_scan", "ios": "https://dc.lft.to/lastmile_qr_scan"}, "lat": 38.915502833333335, "is_reserved": 0, "is_disabled": 0, "fusion_lat": 0.0}, {"fusion_lon": 0.0, "bike_id": "09ee373db14b411ef7993422c85c58a8", "name": "09ee373db14b411ef7993422c85c58a8", "type": "electric_scooter", "lon": -77.02281733333334, "rental_uris": {"android": "https://dc.lft.to/lastmile_qr_scan", "ios": "https://dc.lft.to/lastmile_qr_scan"}, "lat": 38.908176, "is_reserved": 0, "is_disabled": 0, "fusion_lat": 0.0}, {"fusion_lon": 0.0, "bike_id": "523208630ffc80f41de5f131890a3664", "name": "523208630ffc80f41de5f131890a3664", "type": "electric_scooter", "lon": -76.98673216666667, "rental_uris": {"android": "https://dc.lft.to/lastmile_qr_scan", "ios": "https://dc.lft.to/lastmile_qr_scan"}, "lat": 38.855662, "is_reserved": 0, "is_disabled": 0, "fusion_lat": 0.0}, {"fusion_lon": 0.0, "bike_id": "7bd84a220473f1d8b9fa303ce0638c66", "name": "7bd84a220473f1d8b9fa303ce0638c66", "type": "electric_scooter", "lon": -77.0211065, "rental_uris": {"android": "https://dc.lft.to/lastmile_qr_scan", "ios": "https://dc.lft.to/lastmile_qr_scan"}, "lat": 38.89742966666667, "is_reserved": 0, "is_disabled": 0, "fusion_lat": 0.0}, {"fusion_lon": 0.0, "bike_id": "9d7c4a6faa55ba9062757bc8e3091aed", "name": "9d7c4a6faa55ba9062757bc8e3091aed", "type": "electric_scooter", "lon": -77.01254716666666, "rental_uris": {"android": "https://dc.lft.to/lastmile_qr_scan", "ios": "https://dc.lft.to/lastmile_qr_scan"}, "lat": 38.87476933333333, "is_reserved": 0, "is_disabled": 0, "fusion_lat": 0.0}, {"fusion_lon": 0.0, "bike_id": "188d181ccd172c53750cf3ee49ebea43", "name": "188d181ccd172c53750cf3ee49ebea43", "type": "electric_scooter", "lon": -77.0615855, "rental_uris": {"android": "https://dc.lft.to/lastmile_qr_scan", "ios": "https://dc.lft.to/lastmile_qr_scan"}, "lat": 38.94213933333333, "is_reserved": 0, "is_disabled": 0, "fusion_lat": 0.0}, {"fusion_lon": 0.0, "bike_id": "7aae2fab6eba40256e3623ea68837b29", "name": "7aae2fab6eba40256e3623ea68837b29", "type": "electric_scooter", "lon": -77.01497166666667, "rental_uris": {"android": "https://dc.lft.to/lastmile_qr_scan", "ios": "https://dc.lft.to/lastmile_qr_scan"}, "lat": 38.8848515, "is_reserved": 0, "is_disabled": 0, "fusion_lat": 0.0}, {"fusion_lon": 0.0, "bike_id": "797d2ba135c2fa8bda99aeb4cf02c883", "name": "797d2ba135c2fa8bda99aeb4cf02c883", "type": "electric_scooter", "lon": -77.00738416666667, "rental_uris": {"android": "https://dc.lft.to/lastmile_qr_scan", "ios": "https://dc.lft.to/lastmile_qr_scan"}, "lat": 38.9002635, "is_reserved": 0, "is_disabled": 0, "fusion_lat": 0.0}, {"fusion_lon": 0.0, "bike_id": "41b0945060948d832c147f3762db8880", "name": "41b0945060948d832c147f3762db8880", "type": "electric_scooter", "lon": -76.987753, "rental_uris": {"android": "https://dc.lft.to/lastmile_qr_scan", "ios": "https://dc.lft.to/lastmile_qr_scan"}, "lat": 38.912038833333334, "is_reserved": 0, "is_disabled": 0, "fusion_lat": 0.0}, {"fusion_lon": 0.0, "bike_id": "48c1a19553f10cdeaabbfe4c2d4444d9", "name": "48c1a19553f10cdeaabbfe4c2d4444d9", "type": "electric_scooter", "lon": -77.02451883333333, "rental_uris": {"android": "https://dc.lft.to/lastmile_qr_scan", "ios": "https://dc.lft.to/lastmile_qr_scan"}, "lat": 38.90330466666666, "is_reserved": 0, "is_disabled": 0, "fusion_lat": 0.0}, {"fusion_lon": 0.0, "bike_id": "fad41262c3570e98097882ae25135bd0", "name": "fad41262c3570e98097882ae25135bd0", "type": "electric_scooter", "lon": -77.027211, "rental_uris": {"android": "https://dc.lft.to/lastmile_qr_scan", "ios": "https://dc.lft.to/lastmile_qr_scan"}, "lat": 38.924807333333334, "is_reserved": 0, "is_disabled": 0, "fusion_lat": 0.0}, {"fusion_lon": 0.0, "bike_id": "7b3c96998f76152b1ecf5f369e856618", "name": "7b3c96998f76152b1ecf5f369e856618", "type": "electric_scooter", "lon": -76.9412015, "rental_uris": {"android": "https://dc.lft.to/lastmile_qr_scan", "ios": "https://dc.lft.to/lastmile_qr_scan"}, "lat": 38.90790633333334, "is_reserved": 0, "is_disabled": 0, "fusion_lat": 0.0}, {"fusion_lon": 0.0, "bike_id": "eb1f9f4d5dd816dce073fb94353d6f66", "name": "eb1f9f4d5dd816dce073fb94353d6f66", "type": "electric_scooter", "lon": -77.00483316666667, "rental_uris": {"android": "https://dc.lft.to/lastmile_qr_scan", "ios": "https://dc.lft.to/lastmile_qr_scan"}, "lat": 38.925903166666664, "is_reserved": 0, "is_disabled": 0, "fusion_lat": 0.0}, {"fusion_lon": 0.0, "bike_id": "0e20afdffe5647d9ce3795f36b754a4c", "name": "0e20afdffe5647d9ce3795f36b754a4c", "type": "electric_scooter", "lon": -77.00596016666667, "rental_uris": {"android": "https://dc.lft.to/lastmile_qr_scan", "ios": "https://dc.lft.to/lastmile_qr_scan"}, "lat": 38.87720216666666, "is_reserved": 0, "is_disabled": 0, "fusion_lat": 0.0}, {"fusion_lon": 0.0, "bike_id": "287e9c41c6249ca626e8f9769dcc0534", "name": "287e9c41c6249ca626e8f9769dcc0534", "type": "electric_bike", "lon": -76.9833395, "rental_uris": {"android": "https://dc.lft.to/lastmile_qr_scan", "ios": "https://dc.lft.to/lastmile_qr_scan"}, "lat": 38.96602766666667, "is_reserved": 0, "is_disabled": 0, "fusion_lat": 0.0}, {"fusion_lon": 0.0, "bike_id": "8a82220f4ad375e5d49f2a1ddd0868b3", "name": "8a82220f4ad375e5d49f2a1ddd0868b3", "type": "electric_scooter", "lon": -76.93433133333333, "rental_uris": {"android": "https://dc.lft.to/lastmile_qr_scan", "ios": "https://dc.lft.to/lastmile_qr_scan"}, "lat": 38.89963766666666, "is_reserved": 0, "is_disabled": 0, "fusion_lat": 0.0}, {"fusion_lon": 0.0, "bike_id": "b3c9352760721f7c4d3d74cf3566688a", "name": "b3c9352760721f7c4d3d74cf3566688a", "type": "electric_scooter", "lon": -77.0284685, "rental_uris": {"android": "https://dc.lft.to/lastmile_qr_scan", "ios": "https://dc.lft.to/lastmile_qr_scan"}, "lat": 38.922343, "is_reserved": 0, "is_disabled": 0, "fusion_lat": 0.0}, {"fusion_lon": 0.0, "bike_id": "ee53cabd0e7e5a82d24c5840e923a54a", "name": "ee53cabd0e7e5a82d24c5840e923a54a", "type": "electric_scooter", "lon": -77.02276333333333, "rental_uris": {"android": "https://dc.lft.to/lastmile_qr_scan", "ios": "https://dc.lft.to/lastmile_qr_scan"}, "lat": 38.916892833333335, "is_reserved": 0, "is_disabled": 0, "fusion_lat": 0.0}, {"fusion_lon": 0.0, "bike_id": "6a531e612189ea8cff41e08fcfd2bb57", "name": "6a531e612189ea8cff41e08fcfd2bb57", "type": "electric_scooter", "lon": -77.03211316666666, "rental_uris": {"android": "https://dc.lft.to/lastmile_qr_scan", "ios": "https://dc.lft.to/lastmile_qr_scan"}, "lat": 38.914992166666664, "is_reserved": 0, "is_disabled": 0, "fusion_lat": 0.0}, {"fusion_lon": 0.0, "bike_id": "ca60f51f32aca4a1e54fed6215a35681", "name": "ca60f51f32aca4a1e54fed6215a35681", "type": "electric_scooter", "lon": -77.024941, "rental_uris": {"android": "https://dc.lft.to/lastmile_qr_scan", "ios": "https://dc.lft.to/lastmile_qr_scan"}, "lat": 38.91806166666667, "is_reserved": 0, "is_disabled": 0, "fusion_lat": 0.0}, {"fusion_lon": 0.0, "bike_id": "c5faaa24f273400be1224846acb10ff4", "name": "c5faaa24f273400be1224846acb10ff4", "type": "electric_scooter", "lon": -76.990033, "rental_uris": {"android": "https://dc.lft.to/lastmile_qr_scan", "ios": "https://dc.lft.to/lastmile_qr_scan"}, "lat": 38.865024, "is_reserved": 0, "is_disabled": 0, "fusion_lat": 0.0}, {"fusion_lon": 0.0, "bike_id": "2d27f961c4ef0ecb11053c8447f99b3b", "name": "2d27f961c4ef0ecb11053c8447f99b3b", "type": "electric_scooter", "lon": -77.053106, "rental_uris": {"android": "https://dc.lft.to/lastmile_qr_scan", "ios": "https://dc.lft.to/lastmile_qr_scan"}, "lat": 38.92768316666667, "is_reserved": 0, "is_disabled": 0, "fusion_lat": 0.0}, {"fusion_lon": 0.0, "bike_id": "b2db9ef25b2bed2ce80430606936774e", "name": "b2db9ef25b2bed2ce80430606936774e", "type": "electric_bike", "lon": -77.05413083333333, "rental_uris": {"android": "https://dc.lft.to/lastmile_qr_scan", "ios": "https://dc.lft.to/lastmile_qr_scan"}, "lat": 38.848864666666664, "is_reserved": 0, "is_disabled": 0, "fusion_lat": 0.0}, {"fusion_lon": 0.0, "bike_id": "33e6bd167d263b6c484aea6e12bb498d", "name": "33e6bd167d263b6c484aea6e12bb498d", "type": "electric_bike", "lon": -77.10723866666666, "rental_uris": {"android": "https://dc.lft.to/lastmile_qr_scan", "ios": "https://dc.lft.to/lastmile_qr_scan"}, "lat": 38.85559583333333, "is_reserved": 0, "is_disabled": 0, "fusion_lat": 0.0}, {"fusion_lon": 0.0, "bike_id": "58ea3d1047992625b9fe93ae621d2f30", "name": "58ea3d1047992625b9fe93ae621d2f30", "type": "electric_scooter", "lon": -77.02782283333333, "rental_uris": {"android": "https://dc.lft.to/lastmile_qr_scan", "ios": "https://dc.lft.to/lastmile_qr_scan"}, "lat": 38.892211, "is_reserved": 0, "is_disabled": 0, "fusion_lat": 0.0}, {"fusion_lon": 0.0, "bike_id": "a35fb051fdccb8b76b94f744d01cd664", "name": "a35fb051fdccb8b76b94f744d01cd664", "type": "electric_scooter", "lon": -77.03924433333333, "rental_uris": {"android": "https://dc.lft.to/lastmile_qr_scan", "ios": "https://dc.lft.to/lastmile_qr_scan"}, "lat": 38.902856166666666, "is_reserved": 0, "is_disabled": 0, "fusion_lat": 0.0}, {"fusion_lon": 0.0, "bike_id": "916e29c44d818aa7112f8b26d07021b7", "name": "916e29c44d818aa7112f8b26d07021b7", "type": "electric_scooter", "lon": -76.96436683333333, "rental_uris": {"android": "https://dc.lft.to/lastmile_qr_scan", "ios": "https://dc.lft.to/lastmile_qr_scan"}, "lat": 38.934643, "is_reserved": 0, "is_disabled": 0, "fusion_lat": 0.0}, {"fusion_lon": 0.0, "bike_id": "88379b13ad1fb0fc867668818c36bb44", "name": "88379b13ad1fb0fc867668818c36bb44", "type": "electric_scooter", "lon": -77.03878333333333, "rental_uris": {"android": "https://dc.lft.to/lastmile_qr_scan", "ios": "https://dc.lft.to/lastmile_qr_scan"}, "lat": 38.9342505, "is_reserved": 0, "is_disabled": 0, "fusion_lat": 0.0}, {"fusion_lon": 0.0, "bike_id": "34de0c20c683fc78cb762c2cf59e4d81", "name": "34de0c20c683fc78cb762c2cf59e4d81", "type": "electric_bike", "lon": -77.05109566666667, "rental_uris": {"android": "https://dc.lft.to/lastmile_qr_scan", "ios": "https://dc.lft.to/lastmile_qr_scan"}, "lat": 38.94555233333333, "is_reserved": 0, "is_disabled": 0, "fusion_lat": 0.0}, {"fusion_lon": 0.0, "bike_id": "0c55200c0bc42e90b748d2df2e4372e5", "name": "0c55200c0bc42e90b748d2df2e4372e5", "type": "electric_bike", "lon": -77.000019, "rental_uris": {"android": "https://dc.lft.to/lastmile_qr_scan", "ios": "https://dc.lft.to/lastmile_qr_scan"}, "lat": 38.92391116666667, "is_reserved": 0, "is_disabled": 0, "fusion_lat": 0.0}, {"fusion_lon": 0.0, "bike_id": "e40755a11bd0e100bbfea5e78b3b3a2d", "name": "e40755a11bd0e100bbfea5e78b3b3a2d", "type": "electric_scooter", "lon": -77.039329, "rental_uris": {"android": "https://dc.lft.to/lastmile_qr_scan", "ios": "https://dc.lft.to/lastmile_qr_scan"}, "lat": 38.924940666666664, "is_reserved": 0, "is_disabled": 0, "fusion_lat": 0.0}, {"fusion_lon": 0.0, "bike_id": "511d5819a00e80f8c964c230265112e5", "name": "511d5819a00e80f8c964c230265112e5", "type": "electric_scooter", "lon": -77.04450033333333, "rental_uris": {"android": "https://dc.lft.to/lastmile_qr_scan", "ios": "https://dc.lft.to/lastmile_qr_scan"}, "lat": 38.90989066666667, "is_reserved": 0, "is_disabled": 0, "fusion_lat": 0.0}, {"fusion_lon": 0.0, "bike_id": "0f32a6d53cb762588cf769c313c70ff5", "name": "0f32a6d53cb762588cf769c313c70ff5", "type": "electric_scooter", "lon": -77.063605, "rental_uris": {"android": "https://dc.lft.to/lastmile_qr_scan", "ios": "https://dc.lft.to/lastmile_qr_scan"}, "lat": 38.94410933333333, "is_reserved": 0, "is_disabled": 0, "fusion_lat": 0.0}, {"fusion_lon": 0.0, "bike_id": "bccb1096173eca1fe964370d2dbbfba5", "name": "bccb1096173eca1fe964370d2dbbfba5", "type": "electric_scooter", "lon": -77.021118, "rental_uris": {"android": "https://dc.lft.to/lastmile_qr_scan", "ios": "https://dc.lft.to/lastmile_qr_scan"}, "lat": 38.94095933333333, "is_reserved": 0, "is_disabled": 0, "fusion_lat": 0.0}, {"fusion_lon": 0.0, "bike_id": "134de1a1794bb66d727b506dbfcffa34", "name": "134de1a1794bb66d727b506dbfcffa34", "type": "electric_scooter", "lon": -77.0324235, "rental_uris": {"android": "https://dc.lft.to/lastmile_qr_scan", "ios": "https://dc.lft.to/lastmile_qr_scan"}, "lat": 38.9155395, "is_reserved": 0, "is_disabled": 0, "fusion_lat": 0.0}, {"fusion_lon": 0.0, "bike_id": "7394529d72550b94a08867819e5363ce", "name": "7394529d72550b94a08867819e5363ce", "type": "electric_scooter", "lon": -76.96507, "rental_uris": {"android": "https://dc.lft.to/lastmile_qr_scan", "ios": "https://dc.lft.to/lastmile_qr_scan"}, "lat": 38.8764815, "is_reserved": 0, "is_disabled": 0, "fusion_lat": 0.0}, {"fusion_lon": 0.0, "bike_id": "30dc481d027bad596fac822377ed7930", "name": "30dc481d027bad596fac822377ed7930", "type": "electric_scooter", "lon": -77.02146266666666, "rental_uris": {"android": "https://dc.lft.to/lastmile_qr_scan", "ios": "https://dc.lft.to/lastmile_qr_scan"}, "lat": 38.92909816666667, "is_reserved": 0, "is_disabled": 0, "fusion_lat": 0.0}, {"fusion_lon": 0.0, "bike_id": "79a723d6dfb7ee2e5486d18f4bf24bbe", "name": "79a723d6dfb7ee2e5486d18f4bf24bbe", "type": "electric_scooter", "lon": -77.0317605, "rental_uris": {"android": "https://dc.lft.to/lastmile_qr_scan", "ios": "https://dc.lft.to/lastmile_qr_scan"}, "lat": 38.90726033333333, "is_reserved": 0, "is_disabled": 0, "fusion_lat": 0.0}, {"fusion_lon": 0.0, "bike_id": "096b656a32f4949120e0f93d38539928", "name": "096b656a32f4949120e0f93d38539928", "type": "electric_scooter", "lon": -77.0400015, "rental_uris": {"android": "https://dc.lft.to/lastmile_qr_scan", "ios": "https://dc.lft.to/lastmile_qr_scan"}, "lat": 38.93253466666667, "is_reserved": 0, "is_disabled": 0, "fusion_lat": 0.0}, {"fusion_lon": 0.0, "bike_id": "1706c54862c29936302518370522d60f", "name": "1706c54862c29936302518370522d60f", "type": "electric_scooter", "lon": -77.02851966666667, "rental_uris": {"android": "https://dc.lft.to/lastmile_qr_scan", "ios": "https://dc.lft.to/lastmile_qr_scan"}, "lat": 38.935874, "is_reserved": 0, "is_disabled": 0, "fusion_lat": 0.0}, {"fusion_lon": 0.0, "bike_id": "251e2bcbe768fa981e3418df0a6de2f8", "name": "251e2bcbe768fa981e3418df0a6de2f8", "type": "electric_scooter", "lon": -77.03287983333334, "rental_uris": {"android": "https://dc.lft.to/lastmile_qr_scan", "ios": "https://dc.lft.to/lastmile_qr_scan"}, "lat": 38.9168875, "is_reserved": 0, "is_disabled": 0, "fusion_lat": 0.0}, {"fusion_lon": 0.0, "bike_id": "6c2bcc0018ee363abf3348b1cbf8eedd", "name": "6c2bcc0018ee363abf3348b1cbf8eedd", "type": "electric_scooter", "lon": -76.99628583333333, "rental_uris": {"android": "https://dc.lft.to/lastmile_qr_scan", "ios": "https://dc.lft.to/lastmile_qr_scan"}, "lat": 38.846158333333335, "is_reserved": 0, "is_disabled": 0, "fusion_lat": 0.0}, {"fusion_lon": 0.0, "bike_id": "89aed82fd3f0c9bf0a85d970fcb893ad", "name": "89aed82fd3f0c9bf0a85d970fcb893ad", "type": "electric_scooter", "lon": -77.04997233333333, "rental_uris": {"android": "https://dc.lft.to/lastmile_qr_scan", "ios": "https://dc.lft.to/lastmile_qr_scan"}, "lat": 38.895548833333336, "is_reserved": 0, "is_disabled": 0, "fusion_lat": 0.0}, {"fusion_lon": 0.0, "bike_id": "5b2b3f3db93c465900a91ccc93e6ce27", "name": "5b2b3f3db93c465900a91ccc93e6ce27", "type": "electric_scooter", "lon": -76.93745033333333, "rental_uris": {"android": "https://dc.lft.to/lastmile_qr_scan", "ios": "https://dc.lft.to/lastmile_qr_scan"}, "lat": 38.890036, "is_reserved": 0, "is_disabled": 0, "fusion_lat": 0.0}, {"fusion_lon": 0.0, "bike_id": "6e45075aeeb2a07d7a5bb679993d8758", "name": "6e45075aeeb2a07d7a5bb679993d8758", "type": "electric_scooter", "lon": -77.0220895, "rental_uris": {"android": "https://dc.lft.to/lastmile_qr_scan", "ios": "https://dc.lft.to/lastmile_qr_scan"}, "lat": 38.905704166666666, "is_reserved": 0, "is_disabled": 0, "fusion_lat": 0.0}, {"fusion_lon": 0.0, "bike_id": "d4afa092ab731517a278b2781f4822c9", "name": "d4afa092ab731517a278b2781f4822c9", "type": "electric_scooter", "lon": -77.00524383333334, "rental_uris": {"android": "https://dc.lft.to/lastmile_qr_scan", "ios": "https://dc.lft.to/lastmile_qr_scan"}, "lat": 38.905257666666664, "is_reserved": 0, "is_disabled": 0, "fusion_lat": 0.0}, {"fusion_lon": 0.0, "bike_id": "fec1a6f054e6e03a25415c04f66630f6", "name": "fec1a6f054e6e03a25415c04f66630f6", "type": "electric_scooter", "lon": -77.03658516666667, "rental_uris": {"android": "https://dc.lft.to/lastmile_qr_scan", "ios": "https://dc.lft.to/lastmile_qr_scan"}, "lat": 38.9207525, "is_reserved": 0, "is_disabled": 0, "fusion_lat": 0.0}, {"fusion_lon": 0.0, "bike_id": "710c1b9286ea407158cc7cd8cd12f2d9", "name": "710c1b9286ea407158cc7cd8cd12f2d9", "type": "electric_scooter", "lon": -77.04662616666667, "rental_uris": {"android": "https://dc.lft.to/lastmile_qr_scan", "ios": "https://dc.lft.to/lastmile_qr_scan"}, "lat": 38.903523166666666, "is_reserved": 0, "is_disabled": 0, "fusion_lat": 0.0}, {"fusion_lon": 0.0, "bike_id": "c7775abc2b3a5586c14a6c395aac2d00", "name": "c7775abc2b3a5586c14a6c395aac2d00", "type": "electric_scooter", "lon": -76.983634, "rental_uris": {"android": "https://dc.lft.to/lastmile_qr_scan", "ios": "https://dc.lft.to/lastmile_qr_scan"}, "lat": 38.864698833333335, "is_reserved": 0, "is_disabled": 0, "fusion_lat": 0.0}, {"fusion_lon": 0.0, "bike_id": "e7ecb4671279c4c471655b07fe1ef3ef", "name": "e7ecb4671279c4c471655b07fe1ef3ef", "type": "electric_scooter", "lon": -77.038653, "rental_uris": {"android": "https://dc.lft.to/lastmile_qr_scan", "ios": "https://dc.lft.to/lastmile_qr_scan"}, "lat": 38.91837433333333, "is_reserved": 0, "is_disabled": 0, "fusion_lat": 0.0}, {"fusion_lon": 0.0, "bike_id": "802cb55ea7433a3760d58b1b3964696e", "name": "802cb55ea7433a3760d58b1b3964696e", "type": "electric_scooter", "lon": -77.05923366666667, "rental_uris": {"android": "https://dc.lft.to/lastmile_qr_scan", "ios": "https://dc.lft.to/lastmile_qr_scan"}, "lat": 38.936528, "is_reserved": 0, "is_disabled": 0, "fusion_lat": 0.0}, {"fusion_lon": 0.0, "bike_id": "1b117ebdf7d6c353353f2eacfd03e83b", "name": "1b117ebdf7d6c353353f2eacfd03e83b", "type": "electric_scooter", "lon": -77.02518783333333, "rental_uris": {"android": "https://dc.lft.to/lastmile_qr_scan", "ios": "https://dc.lft.to/lastmile_qr_scan"}, "lat": 38.920822333333334, "is_reserved": 0, "is_disabled": 0, "fusion_lat": 0.0}, {"fusion_lon": 0.0, "bike_id": "1f59cdb57f062cd418e86668156a74e2", "name": "1f59cdb57f062cd418e86668156a74e2", "type": "electric_scooter", "lon": -77.04175066666667, "rental_uris": {"android": "https://dc.lft.to/lastmile_qr_scan", "ios": "https://dc.lft.to/lastmile_qr_scan"}, "lat": 38.916205166666664, "is_reserved": 0, "is_disabled": 0, "fusion_lat": 0.0}, {"fusion_lon": 0.0, "bike_id": "f1d541ca5e2b52b9aac8be457ea9229e", "name": "f1d541ca5e2b52b9aac8be457ea9229e", "type": "electric_scooter", "lon": -77.05732033333334, "rental_uris": {"android": "https://dc.lft.to/lastmile_qr_scan", "ios": "https://dc.lft.to/lastmile_qr_scan"}, "lat": 38.924248166666665, "is_reserved": 0, "is_disabled": 0, "fusion_lat": 0.0}, {"fusion_lon": 0.0, "bike_id": "c3d034fff1846440727418f0f508cb99", "name": "c3d034fff1846440727418f0f508cb99", "type": "electric_scooter", "lon": -77.02823933333333, "rental_uris": {"android": "https://dc.lft.to/lastmile_qr_scan", "ios": "https://dc.lft.to/lastmile_qr_scan"}, "lat": 38.9482685, "is_reserved": 0, "is_disabled": 0, "fusion_lat": 0.0}, {"fusion_lon": 0.0, "bike_id": "3545a0b8f9d268544c7b032955997d06", "name": "3545a0b8f9d268544c7b032955997d06", "type": "electric_scooter", "lon": -76.93834566666666, "rental_uris": {"android": "https://dc.lft.to/lastmile_qr_scan", "ios": "https://dc.lft.to/lastmile_qr_scan"}, "lat": 38.89012566666667, "is_reserved": 0, "is_disabled": 0, "fusion_lat": 0.0}, {"fusion_lon": 0.0, "bike_id": "e25d7e75df737654ed3fa3690c1065f2", "name": "e25d7e75df737654ed3fa3690c1065f2", "type": "electric_scooter", "lon": -77.039425, "rental_uris": {"android": "https://dc.lft.to/lastmile_qr_scan", "ios": "https://dc.lft.to/lastmile_qr_scan"}, "lat": 38.91813066666667, "is_reserved": 0, "is_disabled": 0, "fusion_lat": 0.0}, {"fusion_lon": 0.0, "bike_id": "27a7fd25d5a22cae0f27899fb5d303e5", "name": "27a7fd25d5a22cae0f27899fb5d303e5", "type": "electric_scooter", "lon": -77.035365, "rental_uris": {"android": "https://dc.lft.to/lastmile_qr_scan", "ios": "https://dc.lft.to/lastmile_qr_scan"}, "lat": 38.92406116666667, "is_reserved": 0, "is_disabled": 0, "fusion_lat": 0.0}, {"fusion_lon": 0.0, "bike_id": "00baa47defdc5283d6822f6d71b3aef9", "name": "00baa47defdc5283d6822f6d71b3aef9", "type": "electric_scooter", "lon": -77.04675233333333, "rental_uris": {"android": "https://dc.lft.to/lastmile_qr_scan", "ios": "https://dc.lft.to/lastmile_qr_scan"}, "lat": 38.90330816666667, "is_reserved": 0, "is_disabled": 0, "fusion_lat": 0.0}, {"fusion_lon": 0.0, "bike_id": "ee921044c71d626bbdbab4a807b00ca3", "name": "ee921044c71d626bbdbab4a807b00ca3", "type": "electric_bike", "lon": -77.12503966666667, "rental_uris": {"android": "https://dc.lft.to/lastmile_qr_scan", "ios": "https://dc.lft.to/lastmile_qr_scan"}, "lat": 39.0242595, "is_reserved": 0, "is_disabled": 0, "fusion_lat": 0.0}, {"fusion_lon": 0.0, "bike_id": "83284f5006cae1cf253a606090171b3d", "name": "83284f5006cae1cf253a606090171b3d", "type": "electric_scooter", "lon": -77.02756416666666, "rental_uris": {"android": "https://dc.lft.to/lastmile_qr_scan", "ios": "https://dc.lft.to/lastmile_qr_scan"}, "lat": 38.954144666666664, "is_reserved": 0, "is_disabled": 0, "fusion_lat": 0.0}, {"fusion_lon": 0.0, "bike_id": "e3d2aea2759f87803c8723245714e134", "name": "e3d2aea2759f87803c8723245714e134", "type": "electric_scooter", "lon": -77.03185616666667, "rental_uris": {"android": "https://dc.lft.to/lastmile_qr_scan", "ios": "https://dc.lft.to/lastmile_qr_scan"}, "lat": 38.89229683333333, "is_reserved": 0, "is_disabled": 0, "fusion_lat": 0.0}, {"fusion_lon": 0.0, "bike_id": "cea1f9e7facd0add372aaafa86f50045", "name": "cea1f9e7facd0add372aaafa86f50045", "type": "electric_scooter", "lon": -77.02949616666666, "rental_uris": {"android": "https://dc.lft.to/lastmile_qr_scan", "ios": "https://dc.lft.to/lastmile_qr_scan"}, "lat": 38.905007499999996, "is_reserved": 0, "is_disabled": 0, "fusion_lat": 0.0}, {"fusion_lon": 0.0, "bike_id": "40dd0b003df94817a516beec5c5d1f21", "name": "40dd0b003df94817a516beec5c5d1f21", "type": "electric_scooter", "lon": -77.01360916666667, "rental_uris": {"android": "https://dc.lft.to/lastmile_qr_scan", "ios": "https://dc.lft.to/lastmile_qr_scan"}, "lat": 38.8921875, "is_reserved": 0, "is_disabled": 0, "fusion_lat": 0.0}, {"fusion_lon": 0.0, "bike_id": "c457d8f142692f5bf957e7a7e61bf27d", "name": "c457d8f142692f5bf957e7a7e61bf27d", "type": "electric_scooter", "lon": -77.04402966666666, "rental_uris": {"android": "https://dc.lft.to/lastmile_qr_scan", "ios": "https://dc.lft.to/lastmile_qr_scan"}, "lat": 38.8939555, "is_reserved": 0, "is_disabled": 0, "fusion_lat": 0.0}, {"fusion_lon": 0.0, "bike_id": "12495ae25ceed62ddfa59befc978a78c", "name": "12495ae25ceed62ddfa59befc978a78c", "type": "electric_scooter", "lon": -77.03708233333333, "rental_uris": {"android": "https://dc.lft.to/lastmile_qr_scan", "ios": "https://dc.lft.to/lastmile_qr_scan"}, "lat": 38.92634983333333, "is_reserved": 0, "is_disabled": 0, "fusion_lat": 0.0}, {"fusion_lon": 0.0, "bike_id": "176d7b0727363f0d9c731038d5a4ccbb", "name": "176d7b0727363f0d9c731038d5a4ccbb", "type": "electric_scooter", "lon": -77.04606666666666, "rental_uris": {"android": "https://dc.lft.to/lastmile_qr_scan", "ios": "https://dc.lft.to/lastmile_qr_scan"}, "lat": 38.90060666666667, "is_reserved": 0, "is_disabled": 0, "fusion_lat": 0.0}, {"fusion_lon": 0.0, "bike_id": "bf51944623270b02cc1dd150a2b4ca42", "name": "bf51944623270b02cc1dd150a2b4ca42", "type": "electric_scooter", "lon": -77.005229, "rental_uris": {"android": "https://dc.lft.to/lastmile_qr_scan", "ios": "https://dc.lft.to/lastmile_qr_scan"}, "lat": 38.8792715, "is_reserved": 0, "is_disabled": 0, "fusion_lat": 0.0}, {"fusion_lon": 0.0, "bike_id": "7017ef8cb72534ef7e5c759c203d1e85", "name": "7017ef8cb72534ef7e5c759c203d1e85", "type": "electric_bike", "lon": -76.98966916666667, "rental_uris": {"android": "https://dc.lft.to/lastmile_qr_scan", "ios": "https://dc.lft.to/lastmile_qr_scan"}, "lat": 38.889115, "is_reserved": 0, "is_disabled": 0, "fusion_lat": 0.0}, {"fusion_lon": 0.0, "bike_id": "5c201a188b3c4aa2eadfc801775cf24c", "name": "5c201a188b3c4aa2eadfc801775cf24c", "type": "electric_scooter", "lon": -77.025835, "rental_uris": {"android": "https://dc.lft.to/lastmile_qr_scan", "ios": "https://dc.lft.to/lastmile_qr_scan"}, "lat": 38.920329, "is_reserved": 0, "is_disabled": 0, "fusion_lat": 0.0}, {"fusion_lon": 0.0, "bike_id": "f60e910bf75f5cb19f4ecd00f8ac2437", "name": "f60e910bf75f5cb19f4ecd00f8ac2437", "type": "electric_scooter", "lon": -77.02606566666667, "rental_uris": {"android": "https://dc.lft.to/lastmile_qr_scan", "ios": "https://dc.lft.to/lastmile_qr_scan"}, "lat": 38.90493933333333, "is_reserved": 0, "is_disabled": 0, "fusion_lat": 0.0}, {"fusion_lon": 0.0, "bike_id": "28e8cf1c387cb0b7483b7a16b0b27d67", "name": "28e8cf1c387cb0b7483b7a16b0b27d67", "type": "electric_scooter", "lon": -77.0202745, "rental_uris": {"android": "https://dc.lft.to/lastmile_qr_scan", "ios": "https://dc.lft.to/lastmile_qr_scan"}, "lat": 38.881254166666665, "is_reserved": 0, "is_disabled": 0, "fusion_lat": 0.0}, {"fusion_lon": 0.0, "bike_id": "a77d964cbea8cd2dd1a3393dbbf9def9", "name": "a77d964cbea8cd2dd1a3393dbbf9def9", "type": "electric_scooter", "lon": -76.9868395, "rental_uris": {"android": "https://dc.lft.to/lastmile_qr_scan", "ios": "https://dc.lft.to/lastmile_qr_scan"}, "lat": 38.88532083333333, "is_reserved": 0, "is_disabled": 0, "fusion_lat": 0.0}, {"fusion_lon": 0.0, "bike_id": "b2c2cdcd87dfa3ca5c4acb138cd751b6", "name": "b2c2cdcd87dfa3ca5c4acb138cd751b6", "type": "electric_bike", "lon": -76.97191433333333, "rental_uris": {"android": "https://dc.lft.to/lastmile_qr_scan", "ios": "https://dc.lft.to/lastmile_qr_scan"}, "lat": 38.89246883333333, "is_reserved": 0, "is_disabled": 0, "fusion_lat": 0.0}, {"fusion_lon": 0.0, "bike_id": "84310ec065970e90265d87dd296c31da", "name": "84310ec065970e90265d87dd296c31da", "type": "electric_scooter", "lon": -77.0318, "rental_uris": {"android": "https://dc.lft.to/lastmile_qr_scan", "ios": "https://dc.lft.to/lastmile_qr_scan"}, "lat": 38.88734183333333, "is_reserved": 0, "is_disabled": 0, "fusion_lat": 0.0}, {"fusion_lon": 0.0, "bike_id": "8f6f8e5a94b3f483158a3a98e2d9187a", "name": "8f6f8e5a94b3f483158a3a98e2d9187a", "type": "electric_scooter", "lon": -77.01103633333334, "rental_uris": {"android": "https://dc.lft.to/lastmile_qr_scan", "ios": "https://dc.lft.to/lastmile_qr_scan"}, "lat": 38.903606833333335, "is_reserved": 0, "is_disabled": 0, "fusion_lat": 0.0}, {"fusion_lon": 0.0, "bike_id": "92e9e0ee3fe9811bd9e7f39e8bd0416d", "name": "92e9e0ee3fe9811bd9e7f39e8bd0416d", "type": "electric_scooter", "lon": -77.03388816666667, "rental_uris": {"android": "https://dc.lft.to/lastmile_qr_scan", "ios": "https://dc.lft.to/lastmile_qr_scan"}, "lat": 38.92160333333333, "is_reserved": 0, "is_disabled": 0, "fusion_lat": 0.0}, {"fusion_lon": 0.0, "bike_id": "a78c8d52a1a7af27ec717bb4999c56fd", "name": "a78c8d52a1a7af27ec717bb4999c56fd", "type": "electric_scooter", "lon": -77.00064833333333, "rental_uris": {"android": "https://dc.lft.to/lastmile_qr_scan", "ios": "https://dc.lft.to/lastmile_qr_scan"}, "lat": 38.90139716666667, "is_reserved": 0, "is_disabled": 0, "fusion_lat": 0.0}, {"fusion_lon": 0.0, "bike_id": "88813f03ec2420e2eca78924c88a2d31", "name": "88813f03ec2420e2eca78924c88a2d31", "type": "electric_bike", "lon": -77.02618433333333, "rental_uris": {"android": "https://dc.lft.to/lastmile_qr_scan", "ios": "https://dc.lft.to/lastmile_qr_scan"}, "lat": 38.96220133333333, "is_reserved": 0, "is_disabled": 0, "fusion_lat": 0.0}, {"fusion_lon": 0.0, "bike_id": "5c2003a28f15153231c26229a8f3fb6b", "name": "5c2003a28f15153231c26229a8f3fb6b", "type": "electric_bike", "lon": -77.08525183333333, "rental_uris": {"android": "https://dc.lft.to/lastmile_qr_scan", "ios": "https://dc.lft.to/lastmile_qr_scan"}, "lat": 38.8564545, "is_reserved": 0, "is_disabled": 0, "fusion_lat": 0.0}, {"fusion_lon": 0.0, "bike_id": "c8462b19ee01ce022dacd9dcbca9d952", "name": "c8462b19ee01ce022dacd9dcbca9d952", "type": "electric_scooter", "lon": -77.01624083333333, "rental_uris": {"android": "https://dc.lft.to/lastmile_qr_scan", "ios": "https://dc.lft.to/lastmile_qr_scan"}, "lat": 38.87634283333333, "is_reserved": 0, "is_disabled": 0, "fusion_lat": 0.0}, {"fusion_lon": 0.0, "bike_id": "61f98c17c9f0d56563c8b2cb94c7c0fa", "name": "61f98c17c9f0d56563c8b2cb94c7c0fa", "type": "electric_scooter", "lon": -77.0318735, "rental_uris": {"android": "https://dc.lft.to/lastmile_qr_scan", "ios": "https://dc.lft.to/lastmile_qr_scan"}, "lat": 38.91195916666667, "is_reserved": 0, "is_disabled": 0, "fusion_lat": 0.0}, {"fusion_lon": 0.0, "bike_id": "ec20e17abb276a019389feef5d207f9a", "name": "ec20e17abb276a019389feef5d207f9a", "type": "electric_bike", "lon": -77.11232083333333, "rental_uris": {"android": "https://dc.lft.to/lastmile_qr_scan", "ios": "https://dc.lft.to/lastmile_qr_scan"}, "lat": 38.828492833333335, "is_reserved": 0, "is_disabled": 0, "fusion_lat": 0.0}, {"fusion_lon": 0.0, "bike_id": "d2d1dbc13e6f9d3774447ce6922e0dc7", "name": "d2d1dbc13e6f9d3774447ce6922e0dc7", "type": "electric_bike", "lon": -76.874975, "rental_uris": {"android": "https://dc.lft.to/lastmile_qr_scan", "ios": "https://dc.lft.to/lastmile_qr_scan"}, "lat": 38.990895333333334, "is_reserved": 0, "is_disabled": 0, "fusion_lat": 0.0}, {"fusion_lon": 0.0, "bike_id": "2aadecfe8388a9a203b0723950c028e6", "name": "2aadecfe8388a9a203b0723950c028e6", "type": "electric_scooter", "lon": -77.02457766666667, "rental_uris": {"android": "https://dc.lft.to/lastmile_qr_scan", "ios": "https://dc.lft.to/lastmile_qr_scan"}, "lat": 38.903174, "is_reserved": 0, "is_disabled": 0, "fusion_lat": 0.0}, {"fusion_lon": 0.0, "bike_id": "840dfafcaebdc55b4df0d66ce67a40d7", "name": "840dfafcaebdc55b4df0d66ce67a40d7", "type": "electric_scooter", "lon": -77.03330966666667, "rental_uris": {"android": "https://dc.lft.to/lastmile_qr_scan", "ios": "https://dc.lft.to/lastmile_qr_scan"}, "lat": 38.919123666666664, "is_reserved": 0, "is_disabled": 0, "fusion_lat": 0.0}, {"fusion_lon": 0.0, "bike_id": "317b8e6137e59807e2bb3ff5d0775895", "name": "317b8e6137e59807e2bb3ff5d0775895", "type": "electric_scooter", "lon": -76.98193616666667, "rental_uris": {"android": "https://dc.lft.to/lastmile_qr_scan", "ios": "https://dc.lft.to/lastmile_qr_scan"}, "lat": 38.902006166666666, "is_reserved": 0, "is_disabled": 0, "fusion_lat": 0.0}, {"fusion_lon": 0.0, "bike_id": "81973948a88d4e46d6bd6aaf38f2efbc", "name": "81973948a88d4e46d6bd6aaf38f2efbc", "type": "electric_scooter", "lon": -77.01610333333333, "rental_uris": {"android": "https://dc.lft.to/lastmile_qr_scan", "ios": "https://dc.lft.to/lastmile_qr_scan"}, "lat": 38.899612, "is_reserved": 0, "is_disabled": 0, "fusion_lat": 0.0}, {"fusion_lon": 0.0, "bike_id": "bd7f65b1c94689d02f2b975f5418f4b9", "name": "bd7f65b1c94689d02f2b975f5418f4b9", "type": "electric_scooter", "lon": -76.980345, "rental_uris": {"android": "https://dc.lft.to/lastmile_qr_scan", "ios": "https://dc.lft.to/lastmile_qr_scan"}, "lat": 38.90785233333333, "is_reserved": 0, "is_disabled": 0, "fusion_lat": 0.0}, {"fusion_lon": 0.0, "bike_id": "32f02e4556a7cdd047f9b9c34ade6d81", "name": "32f02e4556a7cdd047f9b9c34ade6d81", "type": "electric_scooter", "lon": -77.00518483333333, "rental_uris": {"android": "https://dc.lft.to/lastmile_qr_scan", "ios": "https://dc.lft.to/lastmile_qr_scan"}, "lat": 38.874721666666666, "is_reserved": 0, "is_disabled": 0, "fusion_lat": 0.0}, {"fusion_lon": 0.0, "bike_id": "a47b5ca1dcb08dea114142476c2b1bab", "name": "a47b5ca1dcb08dea114142476c2b1bab", "type": "electric_scooter", "lon": -77.0314835, "rental_uris": {"android": "https://dc.lft.to/lastmile_qr_scan", "ios": "https://dc.lft.to/lastmile_qr_scan"}, "lat": 38.9318255, "is_reserved": 0, "is_disabled": 0, "fusion_lat": 0.0}, {"fusion_lon": 0.0, "bike_id": "fde7431d35bc278ab938c2b6c14bd55b", "name": "fde7431d35bc278ab938c2b6c14bd55b", "type": "electric_scooter", "lon": -76.93747816666666, "rental_uris": {"android": "https://dc.lft.to/lastmile_qr_scan", "ios": "https://dc.lft.to/lastmile_qr_scan"}, "lat": 38.890289333333335, "is_reserved": 0, "is_disabled": 0, "fusion_lat": 0.0}, {"fusion_lon": 0.0, "bike_id": "c0a5d148e72a9b7a2d6cbdbde5a5626f", "name": "c0a5d148e72a9b7a2d6cbdbde5a5626f", "type": "electric_scooter", "lon": -76.9963255, "rental_uris": {"android": "https://dc.lft.to/lastmile_qr_scan", "ios": "https://dc.lft.to/lastmile_qr_scan"}, "lat": 38.846208, "is_reserved": 0, "is_disabled": 0, "fusion_lat": 0.0}, {"fusion_lon": 0.0, "bike_id": "3fd43c52544f4975851d4cce42f8e215", "name": "3fd43c52544f4975851d4cce42f8e215", "type": "electric_scooter", "lon": -77.03194116666667, "rental_uris": {"android": "https://dc.lft.to/lastmile_qr_scan", "ios": "https://dc.lft.to/lastmile_qr_scan"}, "lat": 38.91797116666667, "is_reserved": 0, "is_disabled": 0, "fusion_lat": 0.0}, {"fusion_lon": 0.0, "bike_id": "a668fe510d0819bb6e3af52ef9765414", "name": "a668fe510d0819bb6e3af52ef9765414", "type": "electric_scooter", "lon": -77.04656283333334, "rental_uris": {"android": "https://dc.lft.to/lastmile_qr_scan", "ios": "https://dc.lft.to/lastmile_qr_scan"}, "lat": 38.8923305, "is_reserved": 0, "is_disabled": 0, "fusion_lat": 0.0}, {"fusion_lon": 0.0, "bike_id": "eaf3b19f82a064a50cca0b30dddad8ed", "name": "eaf3b19f82a064a50cca0b30dddad8ed", "type": "electric_scooter", "lon": -77.011972, "rental_uris": {"android": "https://dc.lft.to/lastmile_qr_scan", "ios": "https://dc.lft.to/lastmile_qr_scan"}, "lat": 38.895319, "is_reserved": 0, "is_disabled": 0, "fusion_lat": 0.0}, {"fusion_lon": 0.0, "bike_id": "e4a44ac41beb5bb4f75619c0c849d419", "name": "e4a44ac41beb5bb4f75619c0c849d419", "type": "electric_scooter", "lon": -77.0505765, "rental_uris": {"android": "https://dc.lft.to/lastmile_qr_scan", "ios": "https://dc.lft.to/lastmile_qr_scan"}, "lat": 38.9008515, "is_reserved": 0, "is_disabled": 0, "fusion_lat": 0.0}, {"fusion_lon": 0.0, "bike_id": "d36cc21b59a5dcecf6bf37d246b8bf19", "name": "d36cc21b59a5dcecf6bf37d246b8bf19", "type": "electric_bike", "lon": -76.98752916666666, "rental_uris": {"android": "https://dc.lft.to/lastmile_qr_scan", "ios": "https://dc.lft.to/lastmile_qr_scan"}, "lat": 38.988221, "is_reserved": 0, "is_disabled": 0, "fusion_lat": 0.0}, {"fusion_lon": 0.0, "bike_id": "9f9868c615682f5cf655b3c372b4e510", "name": "9f9868c615682f5cf655b3c372b4e510", "type": "electric_scooter", "lon": -77.01766883333333, "rental_uris": {"android": "https://dc.lft.to/lastmile_qr_scan", "ios": "https://dc.lft.to/lastmile_qr_scan"}, "lat": 38.920976333333336, "is_reserved": 0, "is_disabled": 0, "fusion_lat": 0.0}, {"fusion_lon": 0.0, "bike_id": "15dbfed333bc5e973a0048902790da98", "name": "15dbfed333bc5e973a0048902790da98", "type": "electric_scooter", "lon": -77.03156133333333, "rental_uris": {"android": "https://dc.lft.to/lastmile_qr_scan", "ios": "https://dc.lft.to/lastmile_qr_scan"}, "lat": 38.92809966666667, "is_reserved": 0, "is_disabled": 0, "fusion_lat": 0.0}, {"fusion_lon": 0.0, "bike_id": "a0ed75d0ada57c1ac6d71c24b02bcec8", "name": "a0ed75d0ada57c1ac6d71c24b02bcec8", "type": "electric_scooter", "lon": -77.01438133333333, "rental_uris": {"android": "https://dc.lft.to/lastmile_qr_scan", "ios": "https://dc.lft.to/lastmile_qr_scan"}, "lat": 38.8777545, "is_reserved": 0, "is_disabled": 0, "fusion_lat": 0.0}, {"fusion_lon": 0.0, "bike_id": "59e99ac01da450654f55a14eca4814cb", "name": "59e99ac01da450654f55a14eca4814cb", "type": "electric_bike", "lon": -76.93621716666667, "rental_uris": {"android": "https://dc.lft.to/lastmile_qr_scan", "ios": "https://dc.lft.to/lastmile_qr_scan"}, "lat": 38.970554666666665, "is_reserved": 0, "is_disabled": 0, "fusion_lat": 0.0}, {"fusion_lon": 0.0, "bike_id": "2ed83c0e695bbb3eb4a3f925c6c5f5f4", "name": "2ed83c0e695bbb3eb4a3f925c6c5f5f4", "type": "electric_bike", "lon": -77.00077383333333, "rental_uris": {"android": "https://dc.lft.to/lastmile_qr_scan", "ios": "https://dc.lft.to/lastmile_qr_scan"}, "lat": 38.88596733333333, "is_reserved": 0, "is_disabled": 0, "fusion_lat": 0.0}, {"fusion_lon": 0.0, "bike_id": "0d98bdd96c79048fb01e338a141c5aca", "name": "0d98bdd96c79048fb01e338a141c5aca", "type": "electric_scooter", "lon": -76.99080216666667, "rental_uris": {"android": "https://dc.lft.to/lastmile_qr_scan", "ios": "https://dc.lft.to/lastmile_qr_scan"}, "lat": 38.904180333333336, "is_reserved": 0, "is_disabled": 0, "fusion_lat": 0.0}, {"fusion_lon": 0.0, "bike_id": "92fefa08d6940b507a78aa6e7ed38d87", "name": "92fefa08d6940b507a78aa6e7ed38d87", "type": "electric_scooter", "lon": -77.01740116666667, "rental_uris": {"android": "https://dc.lft.to/lastmile_qr_scan", "ios": "https://dc.lft.to/lastmile_qr_scan"}, "lat": 38.8747185, "is_reserved": 0, "is_disabled": 0, "fusion_lat": 0.0}, {"fusion_lon": 0.0, "bike_id": "060644ce9cad951fb0be33fe6aa1cb6c", "name": "060644ce9cad951fb0be33fe6aa1cb6c", "type": "electric_scooter", "lon": -77.05438183333334, "rental_uris": {"android": "https://dc.lft.to/lastmile_qr_scan", "ios": "https://dc.lft.to/lastmile_qr_scan"}, "lat": 38.896043, "is_reserved": 0, "is_disabled": 0, "fusion_lat": 0.0}, {"fusion_lon": 0.0, "bike_id": "8e1ca68e8e12056589b52a2285fc6657", "name": "8e1ca68e8e12056589b52a2285fc6657", "type": "electric_scooter", "lon": -77.00754766666667, "rental_uris": {"android": "https://dc.lft.to/lastmile_qr_scan", "ios": "https://dc.lft.to/lastmile_qr_scan"}, "lat": 38.876556, "is_reserved": 0, "is_disabled": 0, "fusion_lat": 0.0}, {"fusion_lon": 0.0, "bike_id": "dffd103516df3d4c3142e16420ed6fcd", "name": "dffd103516df3d4c3142e16420ed6fcd", "type": "electric_scooter", "lon": -77.008692, "rental_uris": {"android": "https://dc.lft.to/lastmile_qr_scan", "ios": "https://dc.lft.to/lastmile_qr_scan"}, "lat": 38.90572316666667, "is_reserved": 0, "is_disabled": 0, "fusion_lat": 0.0}, {"fusion_lon": 0.0, "bike_id": "e64c074a2736a4cc80e3dc39bead60ee", "name": "e64c074a2736a4cc80e3dc39bead60ee", "type": "electric_scooter", "lon": -77.033671, "rental_uris": {"android": "https://dc.lft.to/lastmile_qr_scan", "ios": "https://dc.lft.to/lastmile_qr_scan"}, "lat": 38.91187333333333, "is_reserved": 0, "is_disabled": 0, "fusion_lat": 0.0}, {"fusion_lon": 0.0, "bike_id": "44673802daee87aca9010e7d65211efa", "name": "44673802daee87aca9010e7d65211efa", "type": "electric_scooter", "lon": -76.98071816666666, "rental_uris": {"android": "https://dc.lft.to/lastmile_qr_scan", "ios": "https://dc.lft.to/lastmile_qr_scan"}, "lat": 38.9166895, "is_reserved": 0, "is_disabled": 0, "fusion_lat": 0.0}, {"fusion_lon": 0.0, "bike_id": "b7af6646a806379829b4c7c6098acb65", "name": "b7af6646a806379829b4c7c6098acb65", "type": "electric_scooter", "lon": -77.0231175, "rental_uris": {"android": "https://dc.lft.to/lastmile_qr_scan", "ios": "https://dc.lft.to/lastmile_qr_scan"}, "lat": 38.920663, "is_reserved": 0, "is_disabled": 0, "fusion_lat": 0.0}, {"fusion_lon": 0.0, "bike_id": "c4650b187efc62ae5c5e96074b8478a4", "name": "c4650b187efc62ae5c5e96074b8478a4", "type": "electric_bike", "lon": -77.024959, "rental_uris": {"android": "https://dc.lft.to/lastmile_qr_scan", "ios": "https://dc.lft.to/lastmile_qr_scan"}, "lat": 38.97408083333333, "is_reserved": 0, "is_disabled": 0, "fusion_lat": 0.0}, {"fusion_lon": 0.0, "bike_id": "c1b2b0b3141fa88f165d743049810076", "name": "c1b2b0b3141fa88f165d743049810076", "type": "electric_scooter", "lon": -77.02172083333333, "rental_uris": {"android": "https://dc.lft.to/lastmile_qr_scan", "ios": "https://dc.lft.to/lastmile_qr_scan"}, "lat": 38.94292883333333, "is_reserved": 0, "is_disabled": 0, "fusion_lat": 0.0}, {"fusion_lon": 0.0, "bike_id": "1ad6dbbe213414ba259db242f80b6d58", "name": "1ad6dbbe213414ba259db242f80b6d58", "type": "electric_scooter", "lon": -77.0326985, "rental_uris": {"android": "https://dc.lft.to/lastmile_qr_scan", "ios": "https://dc.lft.to/lastmile_qr_scan"}, "lat": 38.918144166666664, "is_reserved": 0, "is_disabled": 0, "fusion_lat": 0.0}, {"fusion_lon": 0.0, "bike_id": "b490e400697d2dfdf59a52cc851194a4", "name": "b490e400697d2dfdf59a52cc851194a4", "type": "electric_scooter", "lon": -77.02019016666667, "rental_uris": {"android": "https://dc.lft.to/lastmile_qr_scan", "ios": "https://dc.lft.to/lastmile_qr_scan"}, "lat": 38.9243325, "is_reserved": 0, "is_disabled": 0, "fusion_lat": 0.0}, {"fusion_lon": 0.0, "bike_id": "ef2d5449de02907393d9e6820a67658b", "name": "ef2d5449de02907393d9e6820a67658b", "type": "electric_scooter", "lon": -77.04654883333333, "rental_uris": {"android": "https://dc.lft.to/lastmile_qr_scan", "ios": "https://dc.lft.to/lastmile_qr_scan"}, "lat": 38.907397833333334, "is_reserved": 0, "is_disabled": 0, "fusion_lat": 0.0}, {"fusion_lon": 0.0, "bike_id": "a7f777fb2209ce7e9bd3977f023a1a91", "name": "a7f777fb2209ce7e9bd3977f023a1a91", "type": "electric_scooter", "lon": -77.00581366666667, "rental_uris": {"android": "https://dc.lft.to/lastmile_qr_scan", "ios": "https://dc.lft.to/lastmile_qr_scan"}, "lat": 38.905717333333335, "is_reserved": 0, "is_disabled": 0, "fusion_lat": 0.0}, {"fusion_lon": 0.0, "bike_id": "6f41218199c8460d5db1f17f9c5e1934", "name": "6f41218199c8460d5db1f17f9c5e1934", "type": "electric_scooter", "lon": -77.00818616666666, "rental_uris": {"android": "https://dc.lft.to/lastmile_qr_scan", "ios": "https://dc.lft.to/lastmile_qr_scan"}, "lat": 38.91552183333334, "is_reserved": 0, "is_disabled": 0, "fusion_lat": 0.0}, {"fusion_lon": 0.0, "bike_id": "7aaf9a6bc27307fd2a81ba1a08966685", "name": "7aaf9a6bc27307fd2a81ba1a08966685", "type": "electric_scooter", "lon": -77.02005783333334, "rental_uris": {"android": "https://dc.lft.to/lastmile_qr_scan", "ios": "https://dc.lft.to/lastmile_qr_scan"}, "lat": 38.91566433333333, "is_reserved": 0, "is_disabled": 0, "fusion_lat": 0.0}, {"fusion_lon": 0.0, "bike_id": "0cee21ffa64828da20e6a87ac8a6ea40", "name": "0cee21ffa64828da20e6a87ac8a6ea40", "type": "electric_scooter", "lon": -77.06103483333334, "rental_uris": {"android": "https://dc.lft.to/lastmile_qr_scan", "ios": "https://dc.lft.to/lastmile_qr_scan"}, "lat": 38.94360783333333, "is_reserved": 0, "is_disabled": 0, "fusion_lat": 0.0}, {"fusion_lon": 0.0, "bike_id": "47fe45a9a89b3ce3e89738730246033b", "name": "47fe45a9a89b3ce3e89738730246033b", "type": "electric_scooter", "lon": -77.04164166666666, "rental_uris": {"android": "https://dc.lft.to/lastmile_qr_scan", "ios": "https://dc.lft.to/lastmile_qr_scan"}, "lat": 38.913531166666665, "is_reserved": 0, "is_disabled": 0, "fusion_lat": 0.0}, {"fusion_lon": 0.0, "bike_id": "fbf52b4f6639b5a861c214c2cecbbab9", "name": "fbf52b4f6639b5a861c214c2cecbbab9", "type": "electric_scooter", "lon": -77.03492983333334, "rental_uris": {"android": "https://dc.lft.to/lastmile_qr_scan", "ios": "https://dc.lft.to/lastmile_qr_scan"}, "lat": 38.921484666666665, "is_reserved": 0, "is_disabled": 0, "fusion_lat": 0.0}, {"fusion_lon": 0.0, "bike_id": "418e50161671b231090c0f25b261341c", "name": "418e50161671b231090c0f25b261341c", "type": "electric_scooter", "lon": -77.03054516666667, "rental_uris": {"android": "https://dc.lft.to/lastmile_qr_scan", "ios": "https://dc.lft.to/lastmile_qr_scan"}, "lat": 38.884086333333336, "is_reserved": 0, "is_disabled": 0, "fusion_lat": 0.0}, {"fusion_lon": 0.0, "bike_id": "6227e1ffb790af7abe1540f5a64ebd03", "name": "6227e1ffb790af7abe1540f5a64ebd03", "type": "electric_scooter", "lon": -77.01103983333333, "rental_uris": {"android": "https://dc.lft.to/lastmile_qr_scan", "ios": "https://dc.lft.to/lastmile_qr_scan"}, "lat": 38.894967666666666, "is_reserved": 0, "is_disabled": 0, "fusion_lat": 0.0}, {"fusion_lon": 0.0, "bike_id": "a6a0ac062324c341684a3c487e5913e8", "name": "a6a0ac062324c341684a3c487e5913e8", "type": "electric_scooter", "lon": -77.05428983333333, "rental_uris": {"android": "https://dc.lft.to/lastmile_qr_scan", "ios": "https://dc.lft.to/lastmile_qr_scan"}, "lat": 38.927983833333336, "is_reserved": 0, "is_disabled": 0, "fusion_lat": 0.0}, {"fusion_lon": 0.0, "bike_id": "b8d3853e023d249b1bb12a58d3b4737d", "name": "b8d3853e023d249b1bb12a58d3b4737d", "type": "electric_scooter", "lon": -77.00653916666667, "rental_uris": {"android": "https://dc.lft.to/lastmile_qr_scan", "ios": "https://dc.lft.to/lastmile_qr_scan"}, "lat": 38.911722, "is_reserved": 0, "is_disabled": 0, "fusion_lat": 0.0}, {"fusion_lon": 0.0, "bike_id": "6644eab6d287b606da4eb1d1dd7e02c2", "name": "6644eab6d287b606da4eb1d1dd7e02c2", "type": "electric_scooter", "lon": -77.02585133333334, "rental_uris": {"android": "https://dc.lft.to/lastmile_qr_scan", "ios": "https://dc.lft.to/lastmile_qr_scan"}, "lat": 38.942137, "is_reserved": 0, "is_disabled": 0, "fusion_lat": 0.0}, {"fusion_lon": 0.0, "bike_id": "8ba3b2b06e06d09cb2171e4820dd010a", "name": "8ba3b2b06e06d09cb2171e4820dd010a", "type": "electric_scooter", "lon": -77.031641, "rental_uris": {"android": "https://dc.lft.to/lastmile_qr_scan", "ios": "https://dc.lft.to/lastmile_qr_scan"}, "lat": 38.92716266666667, "is_reserved": 0, "is_disabled": 0, "fusion_lat": 0.0}, {"fusion_lon": 0.0, "bike_id": "6a1007d47c8b26ff9a6b230686dcfee2", "name": "6a1007d47c8b26ff9a6b230686dcfee2", "type": "electric_scooter", "lon": -77.03861166666667, "rental_uris": {"android": "https://dc.lft.to/lastmile_qr_scan", "ios": "https://dc.lft.to/lastmile_qr_scan"}, "lat": 38.91807683333333, "is_reserved": 0, "is_disabled": 0, "fusion_lat": 0.0}, {"fusion_lon": 0.0, "bike_id": "ae58696d9aa77e56026b5c6f66108aaa", "name": "ae58696d9aa77e56026b5c6f66108aaa", "type": "electric_scooter", "lon": -77.0269265, "rental_uris": {"android": "https://dc.lft.to/lastmile_qr_scan", "ios": "https://dc.lft.to/lastmile_qr_scan"}, "lat": 38.907348, "is_reserved": 0, "is_disabled": 0, "fusion_lat": 0.0}, {"fusion_lon": 0.0, "bike_id": "b99d21f1f067ab94ad84f7ab0e4f4c1b", "name": "b99d21f1f067ab94ad84f7ab0e4f4c1b", "type": "electric_scooter", "lon": -77.00746716666667, "rental_uris": {"android": "https://dc.lft.to/lastmile_qr_scan", "ios": "https://dc.lft.to/lastmile_qr_scan"}, "lat": 38.876498833333336, "is_reserved": 0, "is_disabled": 0, "fusion_lat": 0.0}, {"fusion_lon": 0.0, "bike_id": "6654c5de26dd971e3140f40209381f20", "name": "6654c5de26dd971e3140f40209381f20", "type": "electric_bike", "lon": -76.98204866666667, "rental_uris": {"android": "https://dc.lft.to/lastmile_qr_scan", "ios": "https://dc.lft.to/lastmile_qr_scan"}, "lat": 38.984973, "is_reserved": 0, "is_disabled": 0, "fusion_lat": 0.0}, {"fusion_lon": 0.0, "bike_id": "eaa39ac65f7821deff3f7dd9239a32af", "name": "eaa39ac65f7821deff3f7dd9239a32af", "type": "electric_scooter", "lon": -77.03270533333334, "rental_uris": {"android": "https://dc.lft.to/lastmile_qr_scan", "ios": "https://dc.lft.to/lastmile_qr_scan"}, "lat": 38.93216566666667, "is_reserved": 0, "is_disabled": 0, "fusion_lat": 0.0}, {"fusion_lon": 0.0, "bike_id": "884815bf12dca23c9efa42a05018e5d5", "name": "884815bf12dca23c9efa42a05018e5d5", "type": "electric_bike", "lon": -76.95204833333334, "rental_uris": {"android": "https://dc.lft.to/lastmile_qr_scan", "ios": "https://dc.lft.to/lastmile_qr_scan"}, "lat": 38.936659, "is_reserved": 0, "is_disabled": 0, "fusion_lat": 0.0}, {"fusion_lon": 0.0, "bike_id": "bd7560655edc0939e74ca724cf10a853", "name": "bd7560655edc0939e74ca724cf10a853", "type": "electric_bike", "lon": -77.0146595, "rental_uris": {"android": "https://dc.lft.to/lastmile_qr_scan", "ios": "https://dc.lft.to/lastmile_qr_scan"}, "lat": 38.876706166666665, "is_reserved": 0, "is_disabled": 0, "fusion_lat": 0.0}, {"fusion_lon": 0.0, "bike_id": "e8d590522ff93801bae0c0ecb492ca3c", "name": "e8d590522ff93801bae0c0ecb492ca3c", "type": "electric_scooter", "lon": -77.02345383333333, "rental_uris": {"android": "https://dc.lft.to/lastmile_qr_scan", "ios": "https://dc.lft.to/lastmile_qr_scan"}, "lat": 38.92265783333333, "is_reserved": 0, "is_disabled": 0, "fusion_lat": 0.0}, {"fusion_lon": 0.0, "bike_id": "01d438985aa6252d72fabb6360197e0d", "name": "01d438985aa6252d72fabb6360197e0d", "type": "electric_scooter", "lon": -77.0296145, "rental_uris": {"android": "https://dc.lft.to/lastmile_qr_scan", "ios": "https://dc.lft.to/lastmile_qr_scan"}, "lat": 38.928415333333334, "is_reserved": 0, "is_disabled": 0, "fusion_lat": 0.0}, {"fusion_lon": 0.0, "bike_id": "21ece408be25447f48fcc2b8de3f3195", "name": "21ece408be25447f48fcc2b8de3f3195", "type": "electric_scooter", "lon": -77.03184183333333, "rental_uris": {"android": "https://dc.lft.to/lastmile_qr_scan", "ios": "https://dc.lft.to/lastmile_qr_scan"}, "lat": 38.92061666666667, "is_reserved": 0, "is_disabled": 0, "fusion_lat": 0.0}, {"fusion_lon": 0.0, "bike_id": "2cc1708743ba26d58ef0e790d05f2509", "name": "2cc1708743ba26d58ef0e790d05f2509", "type": "electric_scooter", "lon": -77.02502266666667, "rental_uris": {"android": "https://dc.lft.to/lastmile_qr_scan", "ios": "https://dc.lft.to/lastmile_qr_scan"}, "lat": 38.92060816666667, "is_reserved": 0, "is_disabled": 0, "fusion_lat": 0.0}, {"fusion_lon": 0.0, "bike_id": "c17a211e37512fae8cca873a167d856f", "name": "c17a211e37512fae8cca873a167d856f", "type": "electric_scooter", "lon": -77.0433715, "rental_uris": {"android": "https://dc.lft.to/lastmile_qr_scan", "ios": "https://dc.lft.to/lastmile_qr_scan"}, "lat": 38.8980955, "is_reserved": 0, "is_disabled": 0, "fusion_lat": 0.0}, {"fusion_lon": 0.0, "bike_id": "3f810088d95a7593833e9a125daee762", "name": "3f810088d95a7593833e9a125daee762", "type": "electric_scooter", "lon": -77.010161, "rental_uris": {"android": "https://dc.lft.to/lastmile_qr_scan", "ios": "https://dc.lft.to/lastmile_qr_scan"}, "lat": 38.90619983333333, "is_reserved": 0, "is_disabled": 0, "fusion_lat": 0.0}, {"fusion_lon": 0.0, "bike_id": "a90336b2b489bee2f7bd07113fb19808", "name": "a90336b2b489bee2f7bd07113fb19808", "type": "electric_scooter", "lon": -77.04656883333334, "rental_uris": {"android": "https://dc.lft.to/lastmile_qr_scan", "ios": "https://dc.lft.to/lastmile_qr_scan"}, "lat": 38.90327383333333, "is_reserved": 0, "is_disabled": 0, "fusion_lat": 0.0}, {"fusion_lon": 0.0, "bike_id": "047fddc5a4629c1818c742f91b45f1e8", "name": "047fddc5a4629c1818c742f91b45f1e8", "type": "electric_scooter", "lon": -76.9872955, "rental_uris": {"android": "https://dc.lft.to/lastmile_qr_scan", "ios": "https://dc.lft.to/lastmile_qr_scan"}, "lat": 38.86711716666667, "is_reserved": 0, "is_disabled": 0, "fusion_lat": 0.0}, {"fusion_lon": 0.0, "bike_id": "2dd8d2efbec69cb91ff35eb910dbb270", "name": "2dd8d2efbec69cb91ff35eb910dbb270", "type": "electric_bike", "lon": -77.0880835, "rental_uris": {"android": "https://dc.lft.to/lastmile_qr_scan", "ios": "https://dc.lft.to/lastmile_qr_scan"}, "lat": 38.831719, "is_reserved": 0, "is_disabled": 0, "fusion_lat": 0.0}, {"fusion_lon": 0.0, "bike_id": "b67e3de97a8af4914b763be500dcc456", "name": "b67e3de97a8af4914b763be500dcc456", "type": "electric_scooter", "lon": -77.0246545, "rental_uris": {"android": "https://dc.lft.to/lastmile_qr_scan", "ios": "https://dc.lft.to/lastmile_qr_scan"}, "lat": 38.938344, "is_reserved": 0, "is_disabled": 0, "fusion_lat": 0.0}, {"fusion_lon": 0.0, "bike_id": "57f07483d3fe7e3145159ad15cf10436", "name": "57f07483d3fe7e3145159ad15cf10436", "type": "electric_scooter", "lon": -77.0462475, "rental_uris": {"android": "https://dc.lft.to/lastmile_qr_scan", "ios": "https://dc.lft.to/lastmile_qr_scan"}, "lat": 38.9180035, "is_reserved": 0, "is_disabled": 0, "fusion_lat": 0.0}, {"fusion_lon": 0.0, "bike_id": "d86664c10827050d9dbc41d20d259bea", "name": "d86664c10827050d9dbc41d20d259bea", "type": "electric_scooter", "lon": -77.02418666666667, "rental_uris": {"android": "https://dc.lft.to/lastmile_qr_scan", "ios": "https://dc.lft.to/lastmile_qr_scan"}, "lat": 38.93487433333333, "is_reserved": 0, "is_disabled": 0, "fusion_lat": 0.0}, {"fusion_lon": 0.0, "bike_id": "f25b7e9014729e5d49d7ba067b20847c", "name": "f25b7e9014729e5d49d7ba067b20847c", "type": "electric_scooter", "lon": -76.98775783333333, "rental_uris": {"android": "https://dc.lft.to/lastmile_qr_scan", "ios": "https://dc.lft.to/lastmile_qr_scan"}, "lat": 38.898247833333336, "is_reserved": 0, "is_disabled": 0, "fusion_lat": 0.0}, {"fusion_lon": 0.0, "bike_id": "917fa47caecc689e75454fa0e8ed50cf", "name": "917fa47caecc689e75454fa0e8ed50cf", "type": "electric_scooter", "lon": -77.03269833333333, "rental_uris": {"android": "https://dc.lft.to/lastmile_qr_scan", "ios": "https://dc.lft.to/lastmile_qr_scan"}, "lat": 38.9325195, "is_reserved": 0, "is_disabled": 0, "fusion_lat": 0.0}, {"fusion_lon": 0.0, "bike_id": "d80e372aaf554207b963c4f02421cf0c", "name": "d80e372aaf554207b963c4f02421cf0c", "type": "electric_scooter", "lon": -76.9901955, "rental_uris": {"android": "https://dc.lft.to/lastmile_qr_scan", "ios": "https://dc.lft.to/lastmile_qr_scan"}, "lat": 38.85863166666667, "is_reserved": 0, "is_disabled": 0, "fusion_lat": 0.0}, {"fusion_lon": 0.0, "bike_id": "309f7e9917ef807512d3322a98dbbc50", "name": "309f7e9917ef807512d3322a98dbbc50", "type": "electric_bike", "lon": -77.18290966666666, "rental_uris": {"android": "https://dc.lft.to/lastmile_qr_scan", "ios": "https://dc.lft.to/lastmile_qr_scan"}, "lat": 38.88340183333333, "is_reserved": 0, "is_disabled": 0, "fusion_lat": 0.0}, {"fusion_lon": 0.0, "bike_id": "78d409d847966997e791dad5f35ee478", "name": "78d409d847966997e791dad5f35ee478", "type": "electric_scooter", "lon": -77.02473233333333, "rental_uris": {"android": "https://dc.lft.to/lastmile_qr_scan", "ios": "https://dc.lft.to/lastmile_qr_scan"}, "lat": 38.939068666666664, "is_reserved": 0, "is_disabled": 0, "fusion_lat": 0.0}, {"fusion_lon": 0.0, "bike_id": "e3f3bd50886e0c0f4f18cc886691a85b", "name": "e3f3bd50886e0c0f4f18cc886691a85b", "type": "electric_scooter", "lon": -77.02778283333333, "rental_uris": {"android": "https://dc.lft.to/lastmile_qr_scan", "ios": "https://dc.lft.to/lastmile_qr_scan"}, "lat": 38.892184, "is_reserved": 0, "is_disabled": 0, "fusion_lat": 0.0}, {"fusion_lon": 0.0, "bike_id": "5b076e7105816a1e7fa6416f0b3c6691", "name": "5b076e7105816a1e7fa6416f0b3c6691", "type": "electric_scooter", "lon": -77.0384475, "rental_uris": {"android": "https://dc.lft.to/lastmile_qr_scan", "ios": "https://dc.lft.to/lastmile_qr_scan"}, "lat": 38.906677, "is_reserved": 0, "is_disabled": 0, "fusion_lat": 0.0}, {"fusion_lon": 0.0, "bike_id": "72c69a154b1f2367fd1d2119401b832f", "name": "72c69a154b1f2367fd1d2119401b832f", "type": "electric_scooter", "lon": -77.0481185, "rental_uris": {"android": "https://dc.lft.to/lastmile_qr_scan", "ios": "https://dc.lft.to/lastmile_qr_scan"}, "lat": 38.92034366666667, "is_reserved": 0, "is_disabled": 0, "fusion_lat": 0.0}, {"fusion_lon": 0.0, "bike_id": "ead338005a80bc4ae253efccf129020d", "name": "ead338005a80bc4ae253efccf129020d", "type": "electric_scooter", "lon": -77.048685, "rental_uris": {"android": "https://dc.lft.to/lastmile_qr_scan", "ios": "https://dc.lft.to/lastmile_qr_scan"}, "lat": 38.892224, "is_reserved": 0, "is_disabled": 0, "fusion_lat": 0.0}, {"fusion_lon": 0.0, "bike_id": "a9490affbed98658b1e063f2064f3c75", "name": "a9490affbed98658b1e063f2064f3c75", "type": "electric_scooter", "lon": -77.03305583333334, "rental_uris": {"android": "https://dc.lft.to/lastmile_qr_scan", "ios": "https://dc.lft.to/lastmile_qr_scan"}, "lat": 38.928870333333336, "is_reserved": 0, "is_disabled": 0, "fusion_lat": 0.0}, {"fusion_lon": 0.0, "bike_id": "e674d84da68cc2a23002345e821c0cac", "name": "e674d84da68cc2a23002345e821c0cac", "type": "electric_scooter", "lon": -77.0222275, "rental_uris": {"android": "https://dc.lft.to/lastmile_qr_scan", "ios": "https://dc.lft.to/lastmile_qr_scan"}, "lat": 38.8922085, "is_reserved": 0, "is_disabled": 0, "fusion_lat": 0.0}, {"fusion_lon": 0.0, "bike_id": "c9838e8ba4a76c27bb2d3158991c6607", "name": "c9838e8ba4a76c27bb2d3158991c6607", "type": "electric_scooter", "lon": -76.98094333333333, "rental_uris": {"android": "https://dc.lft.to/lastmile_qr_scan", "ios": "https://dc.lft.to/lastmile_qr_scan"}, "lat": 38.857151333333334, "is_reserved": 0, "is_disabled": 0, "fusion_lat": 0.0}, {"fusion_lon": 0.0, "bike_id": "42dbfc97d09d7bddf94d459bda22a4f4", "name": "42dbfc97d09d7bddf94d459bda22a4f4", "type": "electric_scooter", "lon": -77.01703916666666, "rental_uris": {"android": "https://dc.lft.to/lastmile_qr_scan", "ios": "https://dc.lft.to/lastmile_qr_scan"}, "lat": 38.907301, "is_reserved": 0, "is_disabled": 0, "fusion_lat": 0.0}, {"fusion_lon": 0.0, "bike_id": "cf04d787365bce1ce326edf4875dcd1d", "name": "cf04d787365bce1ce326edf4875dcd1d", "type": "electric_scooter", "lon": -77.05920916666666, "rental_uris": {"android": "https://dc.lft.to/lastmile_qr_scan", "ios": "https://dc.lft.to/lastmile_qr_scan"}, "lat": 38.936627333333334, "is_reserved": 0, "is_disabled": 0, "fusion_lat": 0.0}, {"fusion_lon": 0.0, "bike_id": "575dae9d3b8a6c0babafae1f20e243b1", "name": "575dae9d3b8a6c0babafae1f20e243b1", "type": "electric_scooter", "lon": -77.02760866666667, "rental_uris": {"android": "https://dc.lft.to/lastmile_qr_scan", "ios": "https://dc.lft.to/lastmile_qr_scan"}, "lat": 38.92577716666667, "is_reserved": 0, "is_disabled": 0, "fusion_lat": 0.0}, {"fusion_lon": 0.0, "bike_id": "2462fd26f915592c5259769f0921cf26", "name": "2462fd26f915592c5259769f0921cf26", "type": "electric_bike", "lon": -77.00678633333334, "rental_uris": {"android": "https://dc.lft.to/lastmile_qr_scan", "ios": "https://dc.lft.to/lastmile_qr_scan"}, "lat": 38.945145333333336, "is_reserved": 0, "is_disabled": 0, "fusion_lat": 0.0}, {"fusion_lon": 0.0, "bike_id": "c4df7db7b7b8399c9a03fc22b9de25c4", "name": "c4df7db7b7b8399c9a03fc22b9de25c4", "type": "electric_scooter", "lon": -77.07252816666667, "rental_uris": {"android": "https://dc.lft.to/lastmile_qr_scan", "ios": "https://dc.lft.to/lastmile_qr_scan"}, "lat": 38.9077685, "is_reserved": 0, "is_disabled": 0, "fusion_lat": 0.0}, {"fusion_lon": 0.0, "bike_id": "9389addb8f175b1254aadff794c6b773", "name": "9389addb8f175b1254aadff794c6b773", "type": "electric_scooter", "lon": -77.022207, "rental_uris": {"android": "https://dc.lft.to/lastmile_qr_scan", "ios": "https://dc.lft.to/lastmile_qr_scan"}, "lat": 38.912683333333334, "is_reserved": 0, "is_disabled": 0, "fusion_lat": 0.0}, {"fusion_lon": 0.0, "bike_id": "535831cd1fee63971133e2cd76922587", "name": "535831cd1fee63971133e2cd76922587", "type": "electric_scooter", "lon": -77.038412, "rental_uris": {"android": "https://dc.lft.to/lastmile_qr_scan", "ios": "https://dc.lft.to/lastmile_qr_scan"}, "lat": 38.915606833333335, "is_reserved": 0, "is_disabled": 0, "fusion_lat": 0.0}, {"fusion_lon": 0.0, "bike_id": "8f08ce4eefc279933ae9f5f5852d8b40", "name": "8f08ce4eefc279933ae9f5f5852d8b40", "type": "electric_scooter", "lon": -77.04837783333333, "rental_uris": {"android": "https://dc.lft.to/lastmile_qr_scan", "ios": "https://dc.lft.to/lastmile_qr_scan"}, "lat": 38.910489166666665, "is_reserved": 0, "is_disabled": 0, "fusion_lat": 0.0}, {"fusion_lon": 0.0, "bike_id": "bca948f532ffc5e53de0f13e02f750fc", "name": "bca948f532ffc5e53de0f13e02f750fc", "type": "electric_scooter", "lon": -77.02586416666666, "rental_uris": {"android": "https://dc.lft.to/lastmile_qr_scan", "ios": "https://dc.lft.to/lastmile_qr_scan"}, "lat": 38.920313166666666, "is_reserved": 0, "is_disabled": 0, "fusion_lat": 0.0}, {"fusion_lon": 0.0, "bike_id": "0751eef0a45698061ba6ca0e0e969a30", "name": "0751eef0a45698061ba6ca0e0e969a30", "type": "electric_scooter", "lon": -77.00294233333334, "rental_uris": {"android": "https://dc.lft.to/lastmile_qr_scan", "ios": "https://dc.lft.to/lastmile_qr_scan"}, "lat": 38.90121166666667, "is_reserved": 0, "is_disabled": 0, "fusion_lat": 0.0}, {"fusion_lon": 0.0, "bike_id": "1b96099bc1eb781dbd15546d51951efc", "name": "1b96099bc1eb781dbd15546d51951efc", "type": "electric_scooter", "lon": -77.00771116666667, "rental_uris": {"android": "https://dc.lft.to/lastmile_qr_scan", "ios": "https://dc.lft.to/lastmile_qr_scan"}, "lat": 38.9073195, "is_reserved": 0, "is_disabled": 0, "fusion_lat": 0.0}, {"fusion_lon": 0.0, "bike_id": "3a7a7322ef0f1e3348ae4bd36226a8d6", "name": "3a7a7322ef0f1e3348ae4bd36226a8d6", "type": "electric_scooter", "lon": -77.02705016666667, "rental_uris": {"android": "https://dc.lft.to/lastmile_qr_scan", "ios": "https://dc.lft.to/lastmile_qr_scan"}, "lat": 38.9097705, "is_reserved": 0, "is_disabled": 0, "fusion_lat": 0.0}, {"fusion_lon": 0.0, "bike_id": "6cf097a647091f803a9d090703505150", "name": "6cf097a647091f803a9d090703505150", "type": "electric_scooter", "lon": -76.97551183333333, "rental_uris": {"android": "https://dc.lft.to/lastmile_qr_scan", "ios": "https://dc.lft.to/lastmile_qr_scan"}, "lat": 38.9025515, "is_reserved": 0, "is_disabled": 0, "fusion_lat": 0.0}, {"fusion_lon": 0.0, "bike_id": "a91febe697a21f6368f230141106278f", "name": "a91febe697a21f6368f230141106278f", "type": "electric_scooter", "lon": -76.983322, "rental_uris": {"android": "https://dc.lft.to/lastmile_qr_scan", "ios": "https://dc.lft.to/lastmile_qr_scan"}, "lat": 38.88984983333334, "is_reserved": 0, "is_disabled": 0, "fusion_lat": 0.0}, {"fusion_lon": 0.0, "bike_id": "5ad82dd5c0cc208193dc7f2c64215cd0", "name": "5ad82dd5c0cc208193dc7f2c64215cd0", "type": "electric_scooter", "lon": -77.01859716666667, "rental_uris": {"android": "https://dc.lft.to/lastmile_qr_scan", "ios": "https://dc.lft.to/lastmile_qr_scan"}, "lat": 38.949171666666665, "is_reserved": 0, "is_disabled": 0, "fusion_lat": 0.0}, {"fusion_lon": 0.0, "bike_id": "b826cc0591948571b4a205fe818e8769", "name": "b826cc0591948571b4a205fe818e8769", "type": "electric_scooter", "lon": -76.96718166666666, "rental_uris": {"android": "https://dc.lft.to/lastmile_qr_scan", "ios": "https://dc.lft.to/lastmile_qr_scan"}, "lat": 38.8694525, "is_reserved": 0, "is_disabled": 0, "fusion_lat": 0.0}, {"fusion_lon": 0.0, "bike_id": "d4638bdb589a3d68ef689b7c6564a6fa", "name": "d4638bdb589a3d68ef689b7c6564a6fa", "type": "electric_scooter", "lon": -77.07104133333333, "rental_uris": {"android": "https://dc.lft.to/lastmile_qr_scan", "ios": "https://dc.lft.to/lastmile_qr_scan"}, "lat": 38.91987533333333, "is_reserved": 0, "is_disabled": 0, "fusion_lat": 0.0}, {"fusion_lon": 0.0, "bike_id": "8937b0aa8d1be9309409f281199b73a5", "name": "8937b0aa8d1be9309409f281199b73a5", "type": "electric_scooter", "lon": -77.01133783333333, "rental_uris": {"android": "https://dc.lft.to/lastmile_qr_scan", "ios": "https://dc.lft.to/lastmile_qr_scan"}, "lat": 38.89609683333333, "is_reserved": 0, "is_disabled": 0, "fusion_lat": 0.0}, {"fusion_lon": 0.0, "bike_id": "952d7c49600a28d3f9aadaf6b1ff1006", "name": "952d7c49600a28d3f9aadaf6b1ff1006", "type": "electric_scooter", "lon": -76.95748733333333, "rental_uris": {"android": "https://dc.lft.to/lastmile_qr_scan", "ios": "https://dc.lft.to/lastmile_qr_scan"}, "lat": 38.884287666666665, "is_reserved": 0, "is_disabled": 0, "fusion_lat": 0.0}, {"fusion_lon": 0.0, "bike_id": "9d7a43f63ce23734b2fcf254929a3c2c", "name": "9d7a43f63ce23734b2fcf254929a3c2c", "type": "electric_scooter", "lon": -76.9963295, "rental_uris": {"android": "https://dc.lft.to/lastmile_qr_scan", "ios": "https://dc.lft.to/lastmile_qr_scan"}, "lat": 38.8461815, "is_reserved": 0, "is_disabled": 0, "fusion_lat": 0.0}, {"fusion_lon": 0.0, "bike_id": "13cc556e1e5f0e5f84f8cc19bee3bd00", "name": "13cc556e1e5f0e5f84f8cc19bee3bd00", "type": "electric_scooter", "lon": -77.02394816666667, "rental_uris": {"android": "https://dc.lft.to/lastmile_qr_scan", "ios": "https://dc.lft.to/lastmile_qr_scan"}, "lat": 38.919551, "is_reserved": 0, "is_disabled": 0, "fusion_lat": 0.0}, {"fusion_lon": 0.0, "bike_id": "f587d759644d30a91f85cc5dbeed4561", "name": "f587d759644d30a91f85cc5dbeed4561", "type": "electric_scooter", "lon": -77.042256, "rental_uris": {"android": "https://dc.lft.to/lastmile_qr_scan", "ios": "https://dc.lft.to/lastmile_qr_scan"}, "lat": 38.92062633333333, "is_reserved": 0, "is_disabled": 0, "fusion_lat": 0.0}, {"fusion_lon": 0.0, "bike_id": "0d49fe1a79cefba368ca8be362cb1f5a", "name": "0d49fe1a79cefba368ca8be362cb1f5a", "type": "electric_scooter", "lon": -77.0249355, "rental_uris": {"android": "https://dc.lft.to/lastmile_qr_scan", "ios": "https://dc.lft.to/lastmile_qr_scan"}, "lat": 38.94185566666667, "is_reserved": 0, "is_disabled": 0, "fusion_lat": 0.0}, {"fusion_lon": 0.0, "bike_id": "016eb0a5641e97cef2e980e99bbac156", "name": "016eb0a5641e97cef2e980e99bbac156", "type": "electric_bike", "lon": -77.02491516666667, "rental_uris": {"android": "https://dc.lft.to/lastmile_qr_scan", "ios": "https://dc.lft.to/lastmile_qr_scan"}, "lat": 38.97365683333334, "is_reserved": 0, "is_disabled": 0, "fusion_lat": 0.0}, {"fusion_lon": 0.0, "bike_id": "aec63e683f7d7f9458207944836d9eee", "name": "aec63e683f7d7f9458207944836d9eee", "type": "electric_scooter", "lon": -76.99013616666667, "rental_uris": {"android": "https://dc.lft.to/lastmile_qr_scan", "ios": "https://dc.lft.to/lastmile_qr_scan"}, "lat": 38.86106316666667, "is_reserved": 0, "is_disabled": 0, "fusion_lat": 0.0}, {"fusion_lon": 0.0, "bike_id": "4b039ed8851acff570e64d8e1c543a11", "name": "4b039ed8851acff570e64d8e1c543a11", "type": "electric_scooter", "lon": -76.993929, "rental_uris": {"android": "https://dc.lft.to/lastmile_qr_scan", "ios": "https://dc.lft.to/lastmile_qr_scan"}, "lat": 38.88452483333333, "is_reserved": 0, "is_disabled": 0, "fusion_lat": 0.0}, {"fusion_lon": 0.0, "bike_id": "a066dfd1cb07ce7bac49f8e7a90ecb24", "name": "a066dfd1cb07ce7bac49f8e7a90ecb24", "type": "electric_scooter", "lon": -77.0440045, "rental_uris": {"android": "https://dc.lft.to/lastmile_qr_scan", "ios": "https://dc.lft.to/lastmile_qr_scan"}, "lat": 38.908905833333336, "is_reserved": 0, "is_disabled": 0, "fusion_lat": 0.0}, {"fusion_lon": 0.0, "bike_id": "94ec993c717030e4301c543cde8f71ab", "name": "94ec993c717030e4301c543cde8f71ab", "type": "electric_scooter", "lon": -77.014785, "rental_uris": {"android": "https://dc.lft.to/lastmile_qr_scan", "ios": "https://dc.lft.to/lastmile_qr_scan"}, "lat": 38.87629116666667, "is_reserved": 0, "is_disabled": 0, "fusion_lat": 0.0}, {"fusion_lon": 0.0, "bike_id": "26d0c6591d8a04dd02719594ec275a2b", "name": "26d0c6591d8a04dd02719594ec275a2b", "type": "electric_scooter", "lon": -76.97976466666667, "rental_uris": {"android": "https://dc.lft.to/lastmile_qr_scan", "ios": "https://dc.lft.to/lastmile_qr_scan"}, "lat": 38.8876645, "is_reserved": 0, "is_disabled": 0, "fusion_lat": 0.0}, {"fusion_lon": 0.0, "bike_id": "9e72e918f9976746081d2cf9a1b2b9a6", "name": "9e72e918f9976746081d2cf9a1b2b9a6", "type": "electric_scooter", "lon": -77.01778316666666, "rental_uris": {"android": "https://dc.lft.to/lastmile_qr_scan", "ios": "https://dc.lft.to/lastmile_qr_scan"}, "lat": 38.9024715, "is_reserved": 0, "is_disabled": 0, "fusion_lat": 0.0}, {"fusion_lon": 0.0, "bike_id": "f3c81b9be0e4eb4c0f762bfcbc8a494b", "name": "f3c81b9be0e4eb4c0f762bfcbc8a494b", "type": "electric_scooter", "lon": -77.02723366666666, "rental_uris": {"android": "https://dc.lft.to/lastmile_qr_scan", "ios": "https://dc.lft.to/lastmile_qr_scan"}, "lat": 38.8962915, "is_reserved": 0, "is_disabled": 0, "fusion_lat": 0.0}, {"fusion_lon": 0.0, "bike_id": "ce6875865f61e7adf1fecfca0a18e712", "name": "ce6875865f61e7adf1fecfca0a18e712", "type": "electric_scooter", "lon": -77.00223133333333, "rental_uris": {"android": "https://dc.lft.to/lastmile_qr_scan", "ios": "https://dc.lft.to/lastmile_qr_scan"}, "lat": 38.8909205, "is_reserved": 0, "is_disabled": 0, "fusion_lat": 0.0}, {"fusion_lon": 0.0, "bike_id": "ebde384b36d0735cc7759eaffe75bc08", "name": "ebde384b36d0735cc7759eaffe75bc08", "type": "electric_scooter", "lon": -77.01609966666666, "rental_uris": {"android": "https://dc.lft.to/lastmile_qr_scan", "ios": "https://dc.lft.to/lastmile_qr_scan"}, "lat": 38.899713, "is_reserved": 0, "is_disabled": 0, "fusion_lat": 0.0}, {"fusion_lon": 0.0, "bike_id": "d0bcc875c1a6185cda09d65018cae525", "name": "d0bcc875c1a6185cda09d65018cae525", "type": "electric_scooter", "lon": -77.06179616666667, "rental_uris": {"android": "https://dc.lft.to/lastmile_qr_scan", "ios": "https://dc.lft.to/lastmile_qr_scan"}, "lat": 38.940934, "is_reserved": 0, "is_disabled": 0, "fusion_lat": 0.0}, {"fusion_lon": 0.0, "bike_id": "9e916e691a6f26b360e1cb137e035929", "name": "9e916e691a6f26b360e1cb137e035929", "type": "electric_scooter", "lon": -77.00966633333333, "rental_uris": {"android": "https://dc.lft.to/lastmile_qr_scan", "ios": "https://dc.lft.to/lastmile_qr_scan"}, "lat": 38.9077825, "is_reserved": 0, "is_disabled": 0, "fusion_lat": 0.0}, {"fusion_lon": 0.0, "bike_id": "0cb75a422480942f4a211b331b6317f4", "name": "0cb75a422480942f4a211b331b6317f4", "type": "electric_scooter", "lon": -77.0294625, "rental_uris": {"android": "https://dc.lft.to/lastmile_qr_scan", "ios": "https://dc.lft.to/lastmile_qr_scan"}, "lat": 38.916808333333336, "is_reserved": 0, "is_disabled": 0, "fusion_lat": 0.0}, {"fusion_lon": 0.0, "bike_id": "6fc43be297e864aa42cdf03ff50acef8", "name": "6fc43be297e864aa42cdf03ff50acef8", "type": "electric_scooter", "lon": -77.019305, "rental_uris": {"android": "https://dc.lft.to/lastmile_qr_scan", "ios": "https://dc.lft.to/lastmile_qr_scan"}, "lat": 38.944720333333336, "is_reserved": 0, "is_disabled": 0, "fusion_lat": 0.0}, {"fusion_lon": 0.0, "bike_id": "26ffc68f174232c60aa053c832a10c41", "name": "26ffc68f174232c60aa053c832a10c41", "type": "electric_scooter", "lon": -77.06839, "rental_uris": {"android": "https://dc.lft.to/lastmile_qr_scan", "ios": "https://dc.lft.to/lastmile_qr_scan"}, "lat": 38.952043, "is_reserved": 0, "is_disabled": 0, "fusion_lat": 0.0}, {"fusion_lon": 0.0, "bike_id": "2400d05584bdb11b3daf22acddb5c4c0", "name": "2400d05584bdb11b3daf22acddb5c4c0", "type": "electric_bike", "lon": -77.04306866666667, "rental_uris": {"android": "https://dc.lft.to/lastmile_qr_scan", "ios": "https://dc.lft.to/lastmile_qr_scan"}, "lat": 39.05447733333333, "is_reserved": 0, "is_disabled": 0, "fusion_lat": 0.0}, {"fusion_lon": 0.0, "bike_id": "d621d09f376e3884b55337af92c8897f", "name": "d621d09f376e3884b55337af92c8897f", "type": "electric_scooter", "lon": -77.018231, "rental_uris": {"android": "https://dc.lft.to/lastmile_qr_scan", "ios": "https://dc.lft.to/lastmile_qr_scan"}, "lat": 38.922020333333336, "is_reserved": 0, "is_disabled": 0, "fusion_lat": 0.0}, {"fusion_lon": 0.0, "bike_id": "898b35db89191d4e9ada6642cc82936c", "name": "898b35db89191d4e9ada6642cc82936c", "type": "electric_scooter", "lon": -76.986613, "rental_uris": {"android": "https://dc.lft.to/lastmile_qr_scan", "ios": "https://dc.lft.to/lastmile_qr_scan"}, "lat": 38.901433833333336, "is_reserved": 0, "is_disabled": 0, "fusion_lat": 0.0}, {"fusion_lon": 0.0, "bike_id": "5d26730f69ab6971e77a05952d3b714b", "name": "5d26730f69ab6971e77a05952d3b714b", "type": "electric_bike", "lon": -77.17846683333333, "rental_uris": {"android": "https://dc.lft.to/lastmile_qr_scan", "ios": "https://dc.lft.to/lastmile_qr_scan"}, "lat": 39.088983, "is_reserved": 0, "is_disabled": 0, "fusion_lat": 0.0}, {"fusion_lon": 0.0, "bike_id": "022c323e1751b644994cd30cb21f1c82", "name": "022c323e1751b644994cd30cb21f1c82", "type": "electric_scooter", "lon": -77.00571166666667, "rental_uris": {"android": "https://dc.lft.to/lastmile_qr_scan", "ios": "https://dc.lft.to/lastmile_qr_scan"}, "lat": 38.905395166666665, "is_reserved": 0, "is_disabled": 0, "fusion_lat": 0.0}, {"fusion_lon": 0.0, "bike_id": "6b55db37bef91d3a93082cabee587c63", "name": "6b55db37bef91d3a93082cabee587c63", "type": "electric_scooter", "lon": -77.042077, "rental_uris": {"android": "https://dc.lft.to/lastmile_qr_scan", "ios": "https://dc.lft.to/lastmile_qr_scan"}, "lat": 38.917014, "is_reserved": 0, "is_disabled": 0, "fusion_lat": 0.0}, {"fusion_lon": 0.0, "bike_id": "c738fd136880634f05396d099d2fb4bc", "name": "c738fd136880634f05396d099d2fb4bc", "type": "electric_scooter", "lon": -77.073023, "rental_uris": {"android": "https://dc.lft.to/lastmile_qr_scan", "ios": "https://dc.lft.to/lastmile_qr_scan"}, "lat": 38.9215855, "is_reserved": 0, "is_disabled": 0, "fusion_lat": 0.0}, {"fusion_lon": 0.0, "bike_id": "c1a610a0a27766225cda6fe4f7a6bb2a", "name": "c1a610a0a27766225cda6fe4f7a6bb2a", "type": "electric_bike", "lon": -77.10131233333334, "rental_uris": {"android": "https://dc.lft.to/lastmile_qr_scan", "ios": "https://dc.lft.to/lastmile_qr_scan"}, "lat": 38.85212083333333, "is_reserved": 0, "is_disabled": 0, "fusion_lat": 0.0}, {"fusion_lon": 0.0, "bike_id": "9642a3f78208b19bbfba9075f7c3139a", "name": "9642a3f78208b19bbfba9075f7c3139a", "type": "electric_scooter", "lon": -77.0423695, "rental_uris": {"android": "https://dc.lft.to/lastmile_qr_scan", "ios": "https://dc.lft.to/lastmile_qr_scan"}, "lat": 38.910642333333335, "is_reserved": 0, "is_disabled": 0, "fusion_lat": 0.0}, {"fusion_lon": 0.0, "bike_id": "4380cea7b3753c2a8c53ac52b61d5b55", "name": "4380cea7b3753c2a8c53ac52b61d5b55", "type": "electric_scooter", "lon": -77.03795166666667, "rental_uris": {"android": "https://dc.lft.to/lastmile_qr_scan", "ios": "https://dc.lft.to/lastmile_qr_scan"}, "lat": 38.91034783333333, "is_reserved": 0, "is_disabled": 0, "fusion_lat": 0.0}, {"fusion_lon": 0.0, "bike_id": "91a58329905e8173b8f5965473db53c4", "name": "91a58329905e8173b8f5965473db53c4", "type": "electric_scooter", "lon": -77.02308733333334, "rental_uris": {"android": "https://dc.lft.to/lastmile_qr_scan", "ios": "https://dc.lft.to/lastmile_qr_scan"}, "lat": 38.91774683333333, "is_reserved": 0, "is_disabled": 0, "fusion_lat": 0.0}, {"fusion_lon": 0.0, "bike_id": "e0a2faeff432ec41a761c9f3fa29c5e5", "name": "e0a2faeff432ec41a761c9f3fa29c5e5", "type": "electric_scooter", "lon": -77.00341416666667, "rental_uris": {"android": "https://dc.lft.to/lastmile_qr_scan", "ios": "https://dc.lft.to/lastmile_qr_scan"}, "lat": 38.90444466666667, "is_reserved": 0, "is_disabled": 0, "fusion_lat": 0.0}, {"fusion_lon": 0.0, "bike_id": "93b25821b7fe6408b214018cc00a6d02", "name": "93b25821b7fe6408b214018cc00a6d02", "type": "electric_scooter", "lon": -77.04512916666667, "rental_uris": {"android": "https://dc.lft.to/lastmile_qr_scan", "ios": "https://dc.lft.to/lastmile_qr_scan"}, "lat": 38.88600233333333, "is_reserved": 0, "is_disabled": 0, "fusion_lat": 0.0}, {"fusion_lon": 0.0, "bike_id": "3c16d441727f06fe9113070c1820c084", "name": "3c16d441727f06fe9113070c1820c084", "type": "electric_scooter", "lon": -77.03523466666667, "rental_uris": {"android": "https://dc.lft.to/lastmile_qr_scan", "ios": "https://dc.lft.to/lastmile_qr_scan"}, "lat": 38.93272833333333, "is_reserved": 0, "is_disabled": 0, "fusion_lat": 0.0}, {"fusion_lon": 0.0, "bike_id": "e321c33d2516cbe85ab503cca2c0d9d4", "name": "e321c33d2516cbe85ab503cca2c0d9d4", "type": "electric_scooter", "lon": -77.03860233333333, "rental_uris": {"android": "https://dc.lft.to/lastmile_qr_scan", "ios": "https://dc.lft.to/lastmile_qr_scan"}, "lat": 38.915587333333335, "is_reserved": 0, "is_disabled": 0, "fusion_lat": 0.0}, {"fusion_lon": 0.0, "bike_id": "a2e51085f7f05fa2c1051f6bb8cadb63", "name": "a2e51085f7f05fa2c1051f6bb8cadb63", "type": "electric_scooter", "lon": -77.02697633333334, "rental_uris": {"android": "https://dc.lft.to/lastmile_qr_scan", "ios": "https://dc.lft.to/lastmile_qr_scan"}, "lat": 38.908380666666666, "is_reserved": 0, "is_disabled": 0, "fusion_lat": 0.0}, {"fusion_lon": 0.0, "bike_id": "d3ada90366449a1e90f8107ff341186a", "name": "d3ada90366449a1e90f8107ff341186a", "type": "electric_scooter", "lon": -77.051303, "rental_uris": {"android": "https://dc.lft.to/lastmile_qr_scan", "ios": "https://dc.lft.to/lastmile_qr_scan"}, "lat": 38.923590833333336, "is_reserved": 0, "is_disabled": 0, "fusion_lat": 0.0}, {"fusion_lon": 0.0, "bike_id": "8e46c6348f1c67d161faf802d9b595cd", "name": "8e46c6348f1c67d161faf802d9b595cd", "type": "electric_scooter", "lon": -77.02719183333333, "rental_uris": {"android": "https://dc.lft.to/lastmile_qr_scan", "ios": "https://dc.lft.to/lastmile_qr_scan"}, "lat": 38.907426, "is_reserved": 0, "is_disabled": 0, "fusion_lat": 0.0}, {"fusion_lon": 0.0, "bike_id": "d929726755aeff15579c5c80c6225e38", "name": "d929726755aeff15579c5c80c6225e38", "type": "electric_scooter", "lon": -76.94063033333333, "rental_uris": {"android": "https://dc.lft.to/lastmile_qr_scan", "ios": "https://dc.lft.to/lastmile_qr_scan"}, "lat": 38.890151, "is_reserved": 0, "is_disabled": 0, "fusion_lat": 0.0}, {"fusion_lon": 0.0, "bike_id": "90f850f993ffc9d106f5becaa9758b44", "name": "90f850f993ffc9d106f5becaa9758b44", "type": "electric_bike", "lon": -77.12584516666666, "rental_uris": {"android": "https://dc.lft.to/lastmile_qr_scan", "ios": "https://dc.lft.to/lastmile_qr_scan"}, "lat": 38.85144483333333, "is_reserved": 0, "is_disabled": 0, "fusion_lat": 0.0}, {"fusion_lon": 0.0, "bike_id": "d789c06ff6e14eefd9ac624e2f20587d", "name": "d789c06ff6e14eefd9ac624e2f20587d", "type": "electric_scooter", "lon": -77.01968883333333, "rental_uris": {"android": "https://dc.lft.to/lastmile_qr_scan", "ios": "https://dc.lft.to/lastmile_qr_scan"}, "lat": 38.88393283333333, "is_reserved": 0, "is_disabled": 0, "fusion_lat": 0.0}, {"fusion_lon": 0.0, "bike_id": "0b7612a643aba00fb38ab6608014ee8b", "name": "0b7612a643aba00fb38ab6608014ee8b", "type": "electric_scooter", "lon": -76.984193, "rental_uris": {"android": "https://dc.lft.to/lastmile_qr_scan", "ios": "https://dc.lft.to/lastmile_qr_scan"}, "lat": 38.91995633333333, "is_reserved": 0, "is_disabled": 0, "fusion_lat": 0.0}, {"fusion_lon": 0.0, "bike_id": "225bcd0a7b405d2b0297b1e32fd265e8", "name": "225bcd0a7b405d2b0297b1e32fd265e8", "type": "electric_scooter", "lon": -77.03199916666667, "rental_uris": {"android": "https://dc.lft.to/lastmile_qr_scan", "ios": "https://dc.lft.to/lastmile_qr_scan"}, "lat": 38.91764533333333, "is_reserved": 0, "is_disabled": 0, "fusion_lat": 0.0}, {"fusion_lon": 0.0, "bike_id": "3ed295e4999c4e2b45e98534a02707d3", "name": "3ed295e4999c4e2b45e98534a02707d3", "type": "electric_bike", "lon": -76.93230633333333, "rental_uris": {"android": "https://dc.lft.to/lastmile_qr_scan", "ios": "https://dc.lft.to/lastmile_qr_scan"}, "lat": 38.86592, "is_reserved": 0, "is_disabled": 0, "fusion_lat": 0.0}, {"fusion_lon": 0.0, "bike_id": "42a14d62bc14093a0035019443a1f0a6", "name": "42a14d62bc14093a0035019443a1f0a6", "type": "electric_scooter", "lon": -77.02255266666667, "rental_uris": {"android": "https://dc.lft.to/lastmile_qr_scan", "ios": "https://dc.lft.to/lastmile_qr_scan"}, "lat": 38.965585, "is_reserved": 0, "is_disabled": 0, "fusion_lat": 0.0}, {"fusion_lon": 0.0, "bike_id": "cf520cdd0c0c6997e3023c310df02051", "name": "cf520cdd0c0c6997e3023c310df02051", "type": "electric_scooter", "lon": -77.01843716666667, "rental_uris": {"android": "https://dc.lft.to/lastmile_qr_scan", "ios": "https://dc.lft.to/lastmile_qr_scan"}, "lat": 38.921793, "is_reserved": 0, "is_disabled": 0, "fusion_lat": 0.0}, {"fusion_lon": 0.0, "bike_id": "92102e83740e821c737fa9ed76de80f3", "name": "92102e83740e821c737fa9ed76de80f3", "type": "electric_scooter", "lon": -77.0418015, "rental_uris": {"android": "https://dc.lft.to/lastmile_qr_scan", "ios": "https://dc.lft.to/lastmile_qr_scan"}, "lat": 38.91579683333333, "is_reserved": 0, "is_disabled": 0, "fusion_lat": 0.0}, {"fusion_lon": 0.0, "bike_id": "77d7bcc601ec16ffd6f1b62f89e812fb", "name": "77d7bcc601ec16ffd6f1b62f89e812fb", "type": "electric_scooter", "lon": -76.9877645, "rental_uris": {"android": "https://dc.lft.to/lastmile_qr_scan", "ios": "https://dc.lft.to/lastmile_qr_scan"}, "lat": 38.91173916666666, "is_reserved": 0, "is_disabled": 0, "fusion_lat": 0.0}, {"fusion_lon": 0.0, "bike_id": "56a70e83dc750295f9ad8c986f1c58f4", "name": "56a70e83dc750295f9ad8c986f1c58f4", "type": "electric_scooter", "lon": -77.025962, "rental_uris": {"android": "https://dc.lft.to/lastmile_qr_scan", "ios": "https://dc.lft.to/lastmile_qr_scan"}, "lat": 38.91631116666667, "is_reserved": 0, "is_disabled": 0, "fusion_lat": 0.0}, {"fusion_lon": 0.0, "bike_id": "e85155db299ec158cc3f636a14ca0439", "name": "e85155db299ec158cc3f636a14ca0439", "type": "electric_scooter", "lon": -77.04721366666666, "rental_uris": {"android": "https://dc.lft.to/lastmile_qr_scan", "ios": "https://dc.lft.to/lastmile_qr_scan"}, "lat": 38.905921666666664, "is_reserved": 0, "is_disabled": 0, "fusion_lat": 0.0}, {"fusion_lon": 0.0, "bike_id": "e3a9a12f817a3dc223dcf3c392482831", "name": "e3a9a12f817a3dc223dcf3c392482831", "type": "electric_scooter", "lon": -77.03645566666667, "rental_uris": {"android": "https://dc.lft.to/lastmile_qr_scan", "ios": "https://dc.lft.to/lastmile_qr_scan"}, "lat": 38.90797716666667, "is_reserved": 0, "is_disabled": 0, "fusion_lat": 0.0}, {"fusion_lon": 0.0, "bike_id": "3252da0b398f9c8d8153b963ffa39525", "name": "3252da0b398f9c8d8153b963ffa39525", "type": "electric_scooter", "lon": -77.03851966666667, "rental_uris": {"android": "https://dc.lft.to/lastmile_qr_scan", "ios": "https://dc.lft.to/lastmile_qr_scan"}, "lat": 38.9154895, "is_reserved": 0, "is_disabled": 0, "fusion_lat": 0.0}, {"fusion_lon": 0.0, "bike_id": "9e4231a1eed9e82f3cc887f34aeed70b", "name": "9e4231a1eed9e82f3cc887f34aeed70b", "type": "electric_scooter", "lon": -77.046489, "rental_uris": {"android": "https://dc.lft.to/lastmile_qr_scan", "ios": "https://dc.lft.to/lastmile_qr_scan"}, "lat": 38.904114, "is_reserved": 0, "is_disabled": 0, "fusion_lat": 0.0}, {"fusion_lon": 0.0, "bike_id": "b80c8e19dacdc0d2144dfa5aa0844548", "name": "b80c8e19dacdc0d2144dfa5aa0844548", "type": "electric_scooter", "lon": -77.03856016666667, "rental_uris": {"android": "https://dc.lft.to/lastmile_qr_scan", "ios": "https://dc.lft.to/lastmile_qr_scan"}, "lat": 38.915530833333335, "is_reserved": 0, "is_disabled": 0, "fusion_lat": 0.0}, {"fusion_lon": 0.0, "bike_id": "658036cd219fcdcc9336f8ed3222b422", "name": "658036cd219fcdcc9336f8ed3222b422", "type": "electric_scooter", "lon": -77.02206566666666, "rental_uris": {"android": "https://dc.lft.to/lastmile_qr_scan", "ios": "https://dc.lft.to/lastmile_qr_scan"}, "lat": 38.905686333333335, "is_reserved": 0, "is_disabled": 0, "fusion_lat": 0.0}, {"fusion_lon": 0.0, "bike_id": "d2cb78e66e21d70b4e5997a451bdb6a7", "name": "d2cb78e66e21d70b4e5997a451bdb6a7", "type": "electric_scooter", "lon": -76.992268, "rental_uris": {"android": "https://dc.lft.to/lastmile_qr_scan", "ios": "https://dc.lft.to/lastmile_qr_scan"}, "lat": 38.89885066666667, "is_reserved": 0, "is_disabled": 0, "fusion_lat": 0.0}, {"fusion_lon": 0.0, "bike_id": "f9a39c8509083e09fa3f28166bd52c65", "name": "f9a39c8509083e09fa3f28166bd52c65", "type": "electric_scooter", "lon": -77.050066, "rental_uris": {"android": "https://dc.lft.to/lastmile_qr_scan", "ios": "https://dc.lft.to/lastmile_qr_scan"}, "lat": 38.892316666666666, "is_reserved": 0, "is_disabled": 0, "fusion_lat": 0.0}, {"fusion_lon": 0.0, "bike_id": "1c58387ecd003a130d0533fdb09cecf0", "name": "1c58387ecd003a130d0533fdb09cecf0", "type": "electric_scooter", "lon": -76.94888283333333, "rental_uris": {"android": "https://dc.lft.to/lastmile_qr_scan", "ios": "https://dc.lft.to/lastmile_qr_scan"}, "lat": 38.895102666666666, "is_reserved": 0, "is_disabled": 0, "fusion_lat": 0.0}, {"fusion_lon": 0.0, "bike_id": "6d7cdff81251eefdd5b0d40808b1e21b", "name": "6d7cdff81251eefdd5b0d40808b1e21b", "type": "electric_scooter", "lon": -77.04164666666667, "rental_uris": {"android": "https://dc.lft.to/lastmile_qr_scan", "ios": "https://dc.lft.to/lastmile_qr_scan"}, "lat": 38.911016000000004, "is_reserved": 0, "is_disabled": 0, "fusion_lat": 0.0}, {"fusion_lon": 0.0, "bike_id": "50dd6ac6def8896f2a31d3558dffc080", "name": "50dd6ac6def8896f2a31d3558dffc080", "type": "electric_scooter", "lon": -77.02570616666667, "rental_uris": {"android": "https://dc.lft.to/lastmile_qr_scan", "ios": "https://dc.lft.to/lastmile_qr_scan"}, "lat": 38.8995885, "is_reserved": 0, "is_disabled": 0, "fusion_lat": 0.0}, {"fusion_lon": 0.0, "bike_id": "8606af60a21f7938f022bc761b7c0fa9", "name": "8606af60a21f7938f022bc761b7c0fa9", "type": "electric_scooter", "lon": -77.04111583333334, "rental_uris": {"android": "https://dc.lft.to/lastmile_qr_scan", "ios": "https://dc.lft.to/lastmile_qr_scan"}, "lat": 38.92381266666666, "is_reserved": 0, "is_disabled": 0, "fusion_lat": 0.0}, {"fusion_lon": 0.0, "bike_id": "d43f125136d2fd0bb7601e34fc023e73", "name": "d43f125136d2fd0bb7601e34fc023e73", "type": "electric_bike", "lon": -77.09583083333334, "rental_uris": {"android": "https://dc.lft.to/lastmile_qr_scan", "ios": "https://dc.lft.to/lastmile_qr_scan"}, "lat": 38.837838833333336, "is_reserved": 0, "is_disabled": 0, "fusion_lat": 0.0}, {"fusion_lon": 0.0, "bike_id": "da6e6d6f3592d8fcac60416c3beb7199", "name": "da6e6d6f3592d8fcac60416c3beb7199", "type": "electric_bike", "lon": -77.14778783333334, "rental_uris": {"android": "https://dc.lft.to/lastmile_qr_scan", "ios": "https://dc.lft.to/lastmile_qr_scan"}, "lat": 39.0958585, "is_reserved": 0, "is_disabled": 0, "fusion_lat": 0.0}, {"fusion_lon": 0.0, "bike_id": "2fae1ef0b85af3048047aaf05ed39291", "name": "2fae1ef0b85af3048047aaf05ed39291", "type": "electric_scooter", "lon": -77.04481666666666, "rental_uris": {"android": "https://dc.lft.to/lastmile_qr_scan", "ios": "https://dc.lft.to/lastmile_qr_scan"}, "lat": 38.90666483333333, "is_reserved": 0, "is_disabled": 0, "fusion_lat": 0.0}, {"fusion_lon": 0.0, "bike_id": "deeebadd66f9cfda816d2ce8690b6b91", "name": "deeebadd66f9cfda816d2ce8690b6b91", "type": "electric_scooter", "lon": -77.024617, "rental_uris": {"android": "https://dc.lft.to/lastmile_qr_scan", "ios": "https://dc.lft.to/lastmile_qr_scan"}, "lat": 38.939092, "is_reserved": 0, "is_disabled": 0, "fusion_lat": 0.0}, {"fusion_lon": 0.0, "bike_id": "807cbef3f08b74910b7599433cfc1c73", "name": "807cbef3f08b74910b7599433cfc1c73", "type": "electric_scooter", "lon": -76.94651033333334, "rental_uris": {"android": "https://dc.lft.to/lastmile_qr_scan", "ios": "https://dc.lft.to/lastmile_qr_scan"}, "lat": 38.89823, "is_reserved": 0, "is_disabled": 0, "fusion_lat": 0.0}, {"fusion_lon": 0.0, "bike_id": "d0d46ee3f27026375cb0c3b2a3a0e618", "name": "d0d46ee3f27026375cb0c3b2a3a0e618", "type": "electric_scooter", "lon": -76.99853516666667, "rental_uris": {"android": "https://dc.lft.to/lastmile_qr_scan", "ios": "https://dc.lft.to/lastmile_qr_scan"}, "lat": 38.908946, "is_reserved": 0, "is_disabled": 0, "fusion_lat": 0.0}, {"fusion_lon": 0.0, "bike_id": "fc851359b1ea429b1228321075ecc01d", "name": "fc851359b1ea429b1228321075ecc01d", "type": "electric_scooter", "lon": -77.0227495, "rental_uris": {"android": "https://dc.lft.to/lastmile_qr_scan", "ios": "https://dc.lft.to/lastmile_qr_scan"}, "lat": 38.91760883333333, "is_reserved": 0, "is_disabled": 0, "fusion_lat": 0.0}, {"fusion_lon": 0.0, "bike_id": "3e28ced218353f889c5798fcd70d5023", "name": "3e28ced218353f889c5798fcd70d5023", "type": "electric_bike", "lon": -77.35309033333333, "rental_uris": {"android": "https://dc.lft.to/lastmile_qr_scan", "ios": "https://dc.lft.to/lastmile_qr_scan"}, "lat": 38.949983333333336, "is_reserved": 0, "is_disabled": 0, "fusion_lat": 0.0}, {"fusion_lon": 0.0, "bike_id": "7270bd25b95667a8a668c608fbf3d591", "name": "7270bd25b95667a8a668c608fbf3d591", "type": "electric_scooter", "lon": -77.04822716666666, "rental_uris": {"android": "https://dc.lft.to/lastmile_qr_scan", "ios": "https://dc.lft.to/lastmile_qr_scan"}, "lat": 38.89837333333333, "is_reserved": 0, "is_disabled": 0, "fusion_lat": 0.0}, {"fusion_lon": 0.0, "bike_id": "e42dbfa3bf1f245b486d54b77155c990", "name": "e42dbfa3bf1f245b486d54b77155c990", "type": "electric_scooter", "lon": -77.0634635, "rental_uris": {"android": "https://dc.lft.to/lastmile_qr_scan", "ios": "https://dc.lft.to/lastmile_qr_scan"}, "lat": 38.91336316666667, "is_reserved": 0, "is_disabled": 0, "fusion_lat": 0.0},