{"data": {"bikes": [{"lat": 38.9065375, "lon": -77.00669666666667, "is_disabled": 0, "fusion_lon": 0.0, "is_reserved": 0, "name": "52db497b54d2adda83de5f4274439758", "type": "electric_scooter", "bike_id": "52db497b54d2adda83de5f4274439758", "rental_uris": {"ios": "https://dc.lft.to/lastmile_qr_scan", "android": "https://dc.lft.to/lastmile_qr_scan"}, "fusion_lat": 0.0}, {"lat": 38.857254833333336, "lon": -76.97772783333333, "is_disabled": 0, "fusion_lon": 0.0, "is_reserved": 0, "name": "65415f070efe215c924ce5fa21b617c9", "type": "electric_bike", "bike_id": "65415f070efe215c924ce5fa21b617c9", "rental_uris": {"ios": "https://dc.lft.to/lastmile_qr_scan", "android": "https://dc.lft.to/lastmile_qr_scan"}, "fusion_lat": 0.0}, {"lat": 38.917087333333335, "lon": -77.03211283333333, "is_disabled": 0, "fusion_lon": 0.0, "is_reserved": 0, "name": "1eb389144037c3be3fb5626dd95ec96b", "type": "electric_scooter", "bike_id": "1eb389144037c3be3fb5626dd95ec96b", "rental_uris": {"ios": "https://dc.lft.to/lastmile_qr_scan", "android": "https://dc.lft.to/lastmile_qr_scan"}, "fusion_lat": 0.0}, {"lat": 38.907210166666665, "lon": -77.03473183333334, "is_disabled": 0, "fusion_lon": 0.0, "is_reserved": 0, "name": "22c3608abf299dbb955145962827a6d6", "type": "electric_scooter", "bike_id": "22c3608abf299dbb955145962827a6d6", "rental_uris": {"ios": "https://dc.lft.to/lastmile_qr_scan", "android": "https://dc.lft.to/lastmile_qr_scan"}, "fusion_lat": 0.0}, {"lat": 38.92099266666666, "lon": -77.046946, "is_disabled": 0, "fusion_lon": 0.0, "is_reserved": 0, "name": "6c8f2ef9668623dcee5d5891a9a61b41", "type": "electric_scooter", "bike_id": "6c8f2ef9668623dcee5d5891a9a61b41", "rental_uris": {"ios": "https://dc.lft.to/lastmile_qr_scan", "android": "https://dc.lft.to/lastmile_qr_scan"}, "fusion_lat": 0.0}, {"lat": 38.911047833333335, "lon": -77.02418466666667, "is_disabled": 0, "fusion_lon": 0.0, "is_reserved": 0, "name": "29d07d91f5f2ea471b314d2ab9ae62da", "type": "electric_scooter", "bike_id": "29d07d91f5f2ea471b314d2ab9ae62da", "rental_uris": {"ios": "https://dc.lft.to/lastmile_qr_scan", "android": "https://dc.lft.to/lastmile_qr_scan"}, "fusion_lat": 0.0}, {"lat": 38.89794666666667, "lon": -77.04889933333334, "is_disabled": 0, "fusion_lon": 0.0, "is_reserved": 0, "name": "2b742eb1005b43b5bc4a7616cc17dcb1", "type": "electric_scooter", "bike_id": "2b742eb1005b43b5bc4a7616cc17dcb1", "rental_uris": {"ios": "https://dc.lft.to/lastmile_qr_scan", "android": "https://dc.lft.to/lastmile_qr_scan"}, "fusion_lat": 0.0}, {"lat": 38.88719716666667, "lon": -77.0281955, "is_disabled": 0, "fusion_lon": 0.0, "is_reserved": 0, "name": "c159f670dd7ca4fe727b115373120c9d", "type": "electric_scooter", "bike_id": "c159f670dd7ca4fe727b115373120c9d", "rental_uris": {"ios": "https://dc.lft.to/lastmile_qr_scan", "android": "https://dc.lft.to/lastmile_qr_scan"}, "fusion_lat": 0.0}, {"lat": 38.9055045, "lon": -77.04247983333333, "is_disabled": 0, "fusion_lon": 0.0, "is_reserved": 0, "name": "5cacaab7b908265bd74ba5bcfef5b031", "type": "electric_scooter", "bike_id": "5cacaab7b908265bd74ba5bcfef5b031", "rental_uris": {"ios": "https://dc.lft.to/lastmile_qr_scan", "android": "https://dc.lft.to/lastmile_qr_scan"}, "fusion_lat": 0.0}, {"lat": 38.906712666666664, "lon": -77.02070116666667, "is_disabled": 0, "fusion_lon": 0.0, "is_reserved": 0, "name": "3eb8f57f1d5e65d4cda851179e2d1b26", "type": "electric_scooter", "bike_id": "3eb8f57f1d5e65d4cda851179e2d1b26", "rental_uris": {"ios": "https://dc.lft.to/lastmile_qr_scan", "android": "https://dc.lft.to/lastmile_qr_scan"}, "fusion_lat": 0.0}, {"lat": 38.934024, "lon": -77.04302583333333, "is_disabled": 0, "fusion_lon": 0.0, "is_reserved": 0, "name": "ba88d12677bd1c9549f145a9a5390799", "type": "electric_bike", "bike_id": "ba88d12677bd1c9549f145a9a5390799", "rental_uris": {"ios": "https://dc.lft.to/lastmile_qr_scan", "android": "https://dc.lft.to/lastmile_qr_scan"}, "fusion_lat": 0.0}, {"lat": 38.94178266666667, "lon": -77.02490866666666, "is_disabled": 0, "fusion_lon": 0.0, "is_reserved": 0, "name": "1d575a62d4115aaefcfc195c392218e5", "type": "electric_scooter", "bike_id": "1d575a62d4115aaefcfc195c392218e5", "rental_uris": {"ios": "https://dc.lft.to/lastmile_qr_scan", "android": "https://dc.lft.to/lastmile_qr_scan"}, "fusion_lat": 0.0}, {"lat": 38.91687183333333, "lon": -77.01589716666666, "is_disabled": 0, "fusion_lon": 0.0, "is_reserved": 0, "name": "3d548943113c3e4f2525d43c3fc36a9c", "type": "electric_scooter", "bike_id": "3d548943113c3e4f2525d43c3fc36a9c", "rental_uris": {"ios": "https://dc.lft.to/lastmile_qr_scan", "android": "https://dc.lft.to/lastmile_qr_scan"}, "fusion_lat": 0.0}, {"lat": 38.921808, "lon": -77.04013883333333, "is_disabled": 0, "fusion_lon": 0.0, "is_reserved": 0, "name": "e0770ac6d635f73af78b1740fe5b833f", "type": "electric_scooter", "bike_id": "e0770ac6d635f73af78b1740fe5b833f", "rental_uris": {"ios": "https://dc.lft.to/lastmile_qr_scan", "android": "https://dc.lft.to/lastmile_qr_scan"}, "fusion_lat": 0.0}, {"lat": 38.8976845, "lon": -76.99157383333333, "is_disabled": 0, "fusion_lon": 0.0, "is_reserved": 0, "name": "ba82ced2d5b90f74b90fa4fc8e9e3b62", "type": "electric_scooter", "bike_id": "ba82ced2d5b90f74b90fa4fc8e9e3b62", "rental_uris": {"ios": "https://dc.lft.to/lastmile_qr_scan", "android": "https://dc.lft.to/lastmile_qr_scan"}, "fusion_lat": 0.0}, {"lat": 38.88735416666667, "lon": -77.030796, "is_disabled": 0, "fusion_lon": 0.0, "is_reserved": 0, "name": "b62286efcad07c101570f303b8ddc3db", "type": "electric_scooter", "bike_id": "b62286efcad07c101570f303b8ddc3db", "rental_uris": {"ios": "https://dc.lft.to/lastmile_qr_scan", "android": "https://dc.lft.to/lastmile_qr_scan"}, "fusion_lat": 0.0}, {"lat": 38.879653833333336, "lon": -76.91613983333333, "is_disabled": 0, "fusion_lon": 0.0, "is_reserved": 0, "name": "2839a3e7a33f99b5167e6bbf7a956308", "type": "electric_bike", "bike_id": "2839a3e7a33f99b5167e6bbf7a956308", "rental_uris": {"ios": "https://dc.lft.to/lastmile_qr_scan", "android": "https://dc.lft.to/lastmile_qr_scan"}, "fusion_lat": 0.0}, {"lat": 38.927852333333334, "lon": -77.02456183333334, "is_disabled": 0, "fusion_lon": 0.0, "is_reserved": 0, "name": "2b59cf2f216eedca084e0796d794fc0d", "type": "electric_scooter", "bike_id": "2b59cf2f216eedca084e0796d794fc0d", "rental_uris": {"ios": "https://dc.lft.to/lastmile_qr_scan", "android": "https://dc.lft.to/lastmile_qr_scan"}, "fusion_lat": 0.0}, {"lat": 38.8872755, "lon": -76.98357866666667, "is_disabled": 0, "fusion_lon": 0.0, "is_reserved": 0, "name": "38c74a595f38f40a436ca8d3bfe157c5", "type": "electric_scooter", "bike_id": "38c74a595f38f40a436ca8d3bfe157c5", "rental_uris": {"ios": "https://dc.lft.to/lastmile_qr_scan", "android": "https://dc.lft.to/lastmile_qr_scan"}, "fusion_lat": 0.0}, {"lat": 38.907302333333334, "lon": -77.03181133333334, "is_disabled": 0, "fusion_lon": 0.0, "is_reserved": 0, "name": "a466a60e35b5db328cd962275e01dbb0", "type": "electric_scooter", "bike_id": "a466a60e35b5db328cd962275e01dbb0", "rental_uris": {"ios": "https://dc.lft.to/lastmile_qr_scan", "android": "https://dc.lft.to/lastmile_qr_scan"}, "fusion_lat": 0.0}, {"lat": 38.965616, "lon": -77.02821516666667, "is_disabled": 0, "fusion_lon": 0.0, "is_reserved": 0, "name": "856b3f78affc6af17e23da993f00cc45", "type": "electric_bike", "bike_id": "856b3f78affc6af17e23da993f00cc45", "rental_uris": {"ios": "https://dc.lft.to/lastmile_qr_scan", "android": "https://dc.lft.to/lastmile_qr_scan"}, "fusion_lat": 0.0}, {"lat": 38.90420966666667, "lon": -77.05337283333333, "is_disabled": 0, "fusion_lon": 0.0, "is_reserved": 0, "name": "63f3df099c6bac87451aeccfd26f52f1", "type": "electric_scooter", "bike_id": "63f3df099c6bac87451aeccfd26f52f1", "rental_uris": {"ios": "https://dc.lft.to/lastmile_qr_scan", "android": "https://dc.lft.to/lastmile_qr_scan"}, "fusion_lat": 0.0}, {"lat": 38.91548866666667, "lon": -77.03185083333334, "is_disabled": 0, "fusion_lon": 0.0, "is_reserved": 0, "name": "dff2338cb8c7cc16cc00522cf19431be", "type": "electric_scooter", "bike_id": "dff2338cb8c7cc16cc00522cf19431be", "rental_uris": {"ios": "https://dc.lft.to/lastmile_qr_scan", "android": "https://dc.lft.to/lastmile_qr_scan"}, "fusion_lat": 0.0}, {"lat": 38.974906, "lon": -77.01669833333334, "is_disabled": 0, "fusion_lon": 0.0, "is_reserved": 0, "name": "4a107773a1dd6949e058d72059ddcb29", "type": "electric_scooter", "bike_id": "4a107773a1dd6949e058d72059ddcb29", "rental_uris": {"ios": "https://dc.lft.to/lastmile_qr_scan", "android": "https://dc.lft.to/lastmile_qr_scan"}, "fusion_lat": 0.0}, {"lat": 38.944939166666664, "lon": -77.03633183333334, "is_disabled": 0, "fusion_lon": 0.0, "is_reserved": 0, "name": "787b815ea879ca3adc12587e0462f120", "type": "electric_scooter", "bike_id": "787b815ea879ca3adc12587e0462f120", "rental_uris": {"ios": "https://dc.lft.to/lastmile_qr_scan", "android": "https://dc.lft.to/lastmile_qr_scan"}, "fusion_lat": 0.0}, {"lat": 38.91677283333333, "lon": -77.022848, "is_disabled": 0, "fusion_lon": 0.0, "is_reserved": 0, "name": "eae84853d68c9971fa93ba25d56cae99", "type": "electric_scooter", "bike_id": "eae84853d68c9971fa93ba25d56cae99", "rental_uris": {"ios": "https://dc.lft.to/lastmile_qr_scan", "android": "https://dc.lft.to/lastmile_qr_scan"}, "fusion_lat": 0.0}, {"lat": 38.94972583333333, "lon": -77.024456, "is_disabled": 0, "fusion_lon": 0.0, "is_reserved": 0, "name": "8be0e2cb919efbf3b84e16054e9a534b", "type": "electric_scooter", "bike_id": "8be0e2cb919efbf3b84e16054e9a534b", "rental_uris": {"ios": "https://dc.lft.to/lastmile_qr_scan", "android": "https://dc.lft.to/lastmile_qr_scan"}, "fusion_lat": 0.0}, {"lat": 38.91273566666667, "lon": -77.0450715, "is_disabled": 0, "fusion_lon": 0.0, "is_reserved": 0, "name": "b1a6b935af5aa4ebc394ee86f15613b6", "type": "electric_scooter", "bike_id": "b1a6b935af5aa4ebc394ee86f15613b6", "rental_uris": {"ios": "https://dc.lft.to/lastmile_qr_scan", "android": "https://dc.lft.to/lastmile_qr_scan"}, "fusion_lat": 0.0}, {"lat": 38.890654833333336, "lon": -76.98833616666667, "is_disabled": 0, "fusion_lon": 0.0, "is_reserved": 0, "name": "028d5e6ac8953d62cbcbc9f2c989e17b", "type": "electric_scooter", "bike_id": "028d5e6ac8953d62cbcbc9f2c989e17b", "rental_uris": {"ios": "https://dc.lft.to/lastmile_qr_scan", "android": "https://dc.lft.to/lastmile_qr_scan"}, "fusion_lat": 0.0}, {"lat": 38.961574, "lon": -77.027946, "is_disabled": 0, "fusion_lon": 0.0, "is_reserved": 0, "name": "2095dea54aa44f669cd0e6329894caa4", "type": "electric_scooter", "bike_id": "2095dea54aa44f669cd0e6329894caa4", "rental_uris": {"ios": "https://dc.lft.to/lastmile_qr_scan", "android": "https://dc.lft.to/lastmile_qr_scan"}, "fusion_lat": 0.0}, {"lat": 38.91571583333333, "lon": -77.03193866666666, "is_disabled": 0, "fusion_lon": 0.0, "is_reserved": 0, "name": "d64dc812ff3f453adb5e2af96f535ca1", "type": "electric_scooter", "bike_id": "d64dc812ff3f453adb5e2af96f535ca1", "rental_uris": {"ios": "https://dc.lft.to/lastmile_qr_scan", "android": "https://dc.lft.to/lastmile_qr_scan"}, "fusion_lat": 0.0}, {"lat": 38.89928783333333, "lon": -77.012775, "is_disabled": 0, "fusion_lon": 0.0, "is_reserved": 0, "name": "e566cdf68424ee6d148cadf280c7405e", "type": "electric_scooter", "bike_id": "e566cdf68424ee6d148cadf280c7405e", "rental_uris": {"ios": "https://dc.lft.to/lastmile_qr_scan", "android": "https://dc.lft.to/lastmile_qr_scan"}, "fusion_lat": 0.0}, {"lat": 38.876387, "lon": -77.01484716666667, "is_disabled": 0, "fusion_lon": 0.0, "is_reserved": 0, "name": "b90b264f7e5ca167c69c0c612602832e", "type": "electric_scooter", "bike_id": "b90b264f7e5ca167c69c0c612602832e", "rental_uris": {"ios": "https://dc.lft.to/lastmile_qr_scan", "android": "https://dc.lft.to/lastmile_qr_scan"}, "fusion_lat": 0.0}, {"lat": 38.918549166666665, "lon": -76.96087716666666, "is_disabled": 0, "fusion_lon": 0.0, "is_reserved": 0, "name": "9a758f46323bffe30a73176ac6363f1f", "type": "electric_bike", "bike_id": "9a758f46323bffe30a73176ac6363f1f", "rental_uris": {"ios": "https://dc.lft.to/lastmile_qr_scan", "android": "https://dc.lft.to/lastmile_qr_scan"}, "fusion_lat": 0.0}, {"lat": 38.90827433333333, "lon": -76.93437583333333, "is_disabled": 0, "fusion_lon": 0.0, "is_reserved": 0, "name": "8d88e0aa2884dc8d524ba017356d572a", "type": "electric_scooter", "bike_id": "8d88e0aa2884dc8d524ba017356d572a", "rental_uris": {"ios": "https://dc.lft.to/lastmile_qr_scan", "android": "https://dc.lft.to/lastmile_qr_scan"}, "fusion_lat": 0.0}, {"lat": 38.83625883333333, "lon": -77.0694325, "is_disabled": 0, "fusion_lon": 0.0, "is_reserved": 0, "name": "65ece9915c5eb9acf2fecee415a44fae", "type": "electric_bike", "bike_id": "65ece9915c5eb9acf2fecee415a44fae", "rental_uris": {"ios": "https://dc.lft.to/lastmile_qr_scan", "android": "https://dc.lft.to/lastmile_qr_scan"}, "fusion_lat": 0.0}, {"lat": 38.9082165, "lon": -77.06376466666667, "is_disabled": 0, "fusion_lon": 0.0, "is_reserved": 0, "name": "ac5894f4d01d2344e5c4ba4565bd05d9", "type": "electric_scooter", "bike_id": "ac5894f4d01d2344e5c4ba4565bd05d9", "rental_uris": {"ios": "https://dc.lft.to/lastmile_qr_scan", "android": "https://dc.lft.to/lastmile_qr_scan"}, "fusion_lat": 0.0}, {"lat": 38.906527, "lon": -77.00962933333334, "is_disabled": 0, "fusion_lon": 0.0, "is_reserved": 0, "name": "70d6d91b024c6088226227844aedda2a", "type": "electric_scooter", "bike_id": "70d6d91b024c6088226227844aedda2a", "rental_uris": {"ios": "https://dc.lft.to/lastmile_qr_scan", "android": "https://dc.lft.to/lastmile_qr_scan"}, "fusion_lat": 0.0}, {"lat": 38.92137066666667, "lon": -77.043535, "is_disabled": 0, "fusion_lon": 0.0, "is_reserved": 0, "name": "6bacfe9372775182b8f63de8de549503", "type": "electric_scooter", "bike_id": "6bacfe9372775182b8f63de8de549503", "rental_uris": {"ios": "https://dc.lft.to/lastmile_qr_scan", "android": "https://dc.lft.to/lastmile_qr_scan"}, "fusion_lat": 0.0}, {"lat": 38.900186166666664, "lon": -77.03730933333334, "is_disabled": 0, "fusion_lon": 0.0, "is_reserved": 0, "name": "618fbcbd8e3ada9c79e86b6a475e06eb", "type": "electric_scooter", "bike_id": "618fbcbd8e3ada9c79e86b6a475e06eb", "rental_uris": {"ios": "https://dc.lft.to/lastmile_qr_scan", "android": "https://dc.lft.to/lastmile_qr_scan"}, "fusion_lat": 0.0}, {"lat": 38.90717033333333, "lon": -77.0166335, "is_disabled": 0, "fusion_lon": 0.0, "is_reserved": 0, "name": "29c84eeec7c9d9abfc8dc9b2270f7839", "type": "electric_scooter", "bike_id": "29c84eeec7c9d9abfc8dc9b2270f7839", "rental_uris": {"ios": "https://dc.lft.to/lastmile_qr_scan", "android": "https://dc.lft.to/lastmile_qr_scan"}, "fusion_lat": 0.0}, {"lat": 38.8873875, "lon": -77.02566616666667, "is_disabled": 0, "fusion_lon": 0.0, "is_reserved": 0, "name": "3283fc8e415123cb3af1ccaf5b76e8b3", "type": "electric_scooter", "bike_id": "3283fc8e415123cb3af1ccaf5b76e8b3", "rental_uris": {"ios": "https://dc.lft.to/lastmile_qr_scan", "android": "https://dc.lft.to/lastmile_qr_scan"}, "fusion_lat": 0.0}, {"lat": 38.93717316666667, "lon": -77.03263816666667, "is_disabled": 0, "fusion_lon": 0.0, "is_reserved": 0, "name": "a7242045f51be1136bdc729d0f0f8364", "type": "electric_scooter", "bike_id": "a7242045f51be1136bdc729d0f0f8364", "rental_uris": {"ios": "https://dc.lft.to/lastmile_qr_scan", "android": "https://dc.lft.to/lastmile_qr_scan"}, "fusion_lat": 0.0}, {"lat": 38.911197, "lon": -77.02191116666667, "is_disabled": 0, "fusion_lon": 0.0, "is_reserved": 0, "name": "20e6c4d150fcc22bd9d70527adab9bdc", "type": "electric_scooter", "bike_id": "20e6c4d150fcc22bd9d70527adab9bdc", "rental_uris": {"ios": "https://dc.lft.to/lastmile_qr_scan", "android": "https://dc.lft.to/lastmile_qr_scan"}, "fusion_lat": 0.0}, {"lat": 38.8999095, "lon": -77.01644116666667, "is_disabled": 0, "fusion_lon": 0.0, "is_reserved": 0, "name": "f6e79d4502a5c7d3b5259308de973c62", "type": "electric_scooter", "bike_id": "f6e79d4502a5c7d3b5259308de973c62", "rental_uris": {"ios": "https://dc.lft.to/lastmile_qr_scan", "android": "https://dc.lft.to/lastmile_qr_scan"}, "fusion_lat": 0.0}, {"lat": 38.90852866666667, "lon": -77.0222645, "is_disabled": 0, "fusion_lon": 0.0, "is_reserved": 0, "name": "ec221d92231d43b6b436802798841a4a", "type": "electric_scooter", "bike_id": "ec221d92231d43b6b436802798841a4a", "rental_uris": {"ios": "https://dc.lft.to/lastmile_qr_scan", "android": "https://dc.lft.to/lastmile_qr_scan"}, "fusion_lat": 0.0}, {"lat": 38.90104216666667, "lon": -76.93047083333333, "is_disabled": 0, "fusion_lon": 0.0, "is_reserved": 0, "name": "50fb677821a4d5e0931a93eb42392696", "type": "electric_scooter", "bike_id": "50fb677821a4d5e0931a93eb42392696", "rental_uris": {"ios": "https://dc.lft.to/lastmile_qr_scan", "android": "https://dc.lft.to/lastmile_qr_scan"}, "fusion_lat": 0.0}, {"lat": 38.9166715, "lon": -77.0316225, "is_disabled": 0, "fusion_lon": 0.0, "is_reserved": 0, "name": "8ffd912aa85f5d8d10a1b8b5fe74f8ad", "type": "electric_scooter", "bike_id": "8ffd912aa85f5d8d10a1b8b5fe74f8ad", "rental_uris": {"ios": "https://dc.lft.to/lastmile_qr_scan", "android": "https://dc.lft.to/lastmile_qr_scan"}, "fusion_lat": 0.0}, {"lat": 38.8601355, "lon": -76.967061, "is_disabled": 0, "fusion_lon": 0.0, "is_reserved": 0, "name": "d50a7051115a46308acc9ec35d8442b2", "type": "electric_scooter", "bike_id": "d50a7051115a46308acc9ec35d8442b2", "rental_uris": {"ios": "https://dc.lft.to/lastmile_qr_scan", "android": "https://dc.lft.to/lastmile_qr_scan"}, "fusion_lat": 0.0}, {"lat": 38.92721783333333, "lon": -77.02274133333333, "is_disabled": 0, "fusion_lon": 0.0, "is_reserved": 0, "name": "78453fdf1d1d857c99cb70dce4126420", "type": "electric_scooter", "bike_id": "78453fdf1d1d857c99cb70dce4126420", "rental_uris": {"ios": "https://dc.lft.to/lastmile_qr_scan", "android": "https://dc.lft.to/lastmile_qr_scan"}, "fusion_lat": 0.0}, {"lat": 38.912086333333335, "lon": -77.038414, "is_disabled": 0, "fusion_lon": 0.0, "is_reserved": 0, "name": "3ab30b46d229b9fb84461f262ce5af95", "type": "electric_scooter", "bike_id": "3ab30b46d229b9fb84461f262ce5af95", "rental_uris": {"ios": "https://dc.lft.to/lastmile_qr_scan", "android": "https://dc.lft.to/lastmile_qr_scan"}, "fusion_lat": 0.0}, {"lat": 38.90391866666667, "lon": -77.0513835, "is_disabled": 0, "fusion_lon": 0.0, "is_reserved": 0, "name": "ee98b43585162ca261a33c9f2045bab8", "type": "electric_scooter", "bike_id": "ee98b43585162ca261a33c9f2045bab8", "rental_uris": {"ios": "https://dc.lft.to/lastmile_qr_scan", "android": "https://dc.lft.to/lastmile_qr_scan"}, "fusion_lat": 0.0}, {"lat": 38.91050033333333, "lon": -77.0219355, "is_disabled": 0, "fusion_lon": 0.0, "is_reserved": 0, "name": "ee0843d3fb5ad3504b9c77615f325a4e", "type": "electric_scooter", "bike_id": "ee0843d3fb5ad3504b9c77615f325a4e", "rental_uris": {"ios": "https://dc.lft.to/lastmile_qr_scan", "android": "https://dc.lft.to/lastmile_qr_scan"}, "fusion_lat": 0.0}, {"lat": 38.9262115, "lon": -77.03233433333334, "is_disabled": 0, "fusion_lon": 0.0, "is_reserved": 0, "name": "858c126a481a54200d55a74da4e1694c", "type": "electric_scooter", "bike_id": "858c126a481a54200d55a74da4e1694c", "rental_uris": {"ios": "https://dc.lft.to/lastmile_qr_scan", "android": "https://dc.lft.to/lastmile_qr_scan"}, "fusion_lat": 0.0}, {"lat": 38.918219666666666, "lon": -77.0242, "is_disabled": 0, "fusion_lon": 0.0, "is_reserved": 0, "name": "e2c113256d63135b613403e65de8777b", "type": "electric_scooter", "bike_id": "e2c113256d63135b613403e65de8777b", "rental_uris": {"ios": "https://dc.lft.to/lastmile_qr_scan", "android": "https://dc.lft.to/lastmile_qr_scan"}, "fusion_lat": 0.0}, {"lat": 38.9120125, "lon": -77.01177083333333, "is_disabled": 0, "fusion_lon": 0.0, "is_reserved": 0, "name": "9ef64663600534b86d03189b32cdbba3", "type": "electric_scooter", "bike_id": "9ef64663600534b86d03189b32cdbba3", "rental_uris": {"ios": "https://dc.lft.to/lastmile_qr_scan", "android": "https://dc.lft.to/lastmile_qr_scan"}, "fusion_lat": 0.0}, {"lat": 38.9079845, "lon": -77.033873, "is_disabled": 0, "fusion_lon": 0.0, "is_reserved": 0, "name": "f727cf13cf1c903bea31fc573a11c46b", "type": "electric_scooter", "bike_id": "f727cf13cf1c903bea31fc573a11c46b", "rental_uris": {"ios": "https://dc.lft.to/lastmile_qr_scan", "android": "https://dc.lft.to/lastmile_qr_scan"}, "fusion_lat": 0.0}, {"lat": 38.93453366666667, "lon": -77.02912566666667, "is_disabled": 0, "fusion_lon": 0.0, "is_reserved": 0, "name": "057403014fec51d2def465ee34023b00", "type": "electric_scooter", "bike_id": "057403014fec51d2def465ee34023b00", "rental_uris": {"ios": "https://dc.lft.to/lastmile_qr_scan", "android": "https://dc.lft.to/lastmile_qr_scan"}, "fusion_lat": 0.0}, {"lat": 38.89701516666667, "lon": -76.9357685, "is_disabled": 0, "fusion_lon": 0.0, "is_reserved": 0, "name": "cf3642cf4c1a7c7ef2953333b213654f", "type": "electric_scooter", "bike_id": "cf3642cf4c1a7c7ef2953333b213654f", "rental_uris": {"ios": "https://dc.lft.to/lastmile_qr_scan", "android": "https://dc.lft.to/lastmile_qr_scan"}, "fusion_lat": 0.0}, {"lat": 38.95731833333333, "lon": -77.02405683333333, "is_disabled": 0, "fusion_lon": 0.0, "is_reserved": 0, "name": "04d083e948addae324c7a0ed316aba64", "type": "electric_scooter", "bike_id": "04d083e948addae324c7a0ed316aba64", "rental_uris": {"ios": "https://dc.lft.to/lastmile_qr_scan", "android": "https://dc.lft.to/lastmile_qr_scan"}, "fusion_lat": 0.0}, {"lat": 38.899290666666666, "lon": -77.012684, "is_disabled": 0, "fusion_lon": 0.0, "is_reserved": 0, "name": "d9a79688bd9a6aab88775034624eb222", "type": "electric_scooter", "bike_id": "d9a79688bd9a6aab88775034624eb222", "rental_uris": {"ios": "https://dc.lft.to/lastmile_qr_scan", "android": "https://dc.lft.to/lastmile_qr_scan"}, "fusion_lat": 0.0}, {"lat": 38.924967, "lon": -77.02406633333334, "is_disabled": 0, "fusion_lon": 0.0, "is_reserved": 0, "name": "83ba850dffbabeea4962402b51f48eac", "type": "electric_scooter", "bike_id": "83ba850dffbabeea4962402b51f48eac", "rental_uris": {"ios": "https://dc.lft.to/lastmile_qr_scan", "android": "https://dc.lft.to/lastmile_qr_scan"}, "fusion_lat": 0.0}, {"lat": 38.91607583333333, "lon": -77.03204216666667, "is_disabled": 0, "fusion_lon": 0.0, "is_reserved": 0, "name": "7d331d092c245b4adc01a1a3c51e7347", "type": "electric_scooter", "bike_id": "7d331d092c245b4adc01a1a3c51e7347", "rental_uris": {"ios": "https://dc.lft.to/lastmile_qr_scan", "android": "https://dc.lft.to/lastmile_qr_scan"}, "fusion_lat": 0.0}, {"lat": 38.90710283333333, "lon": -77.0297425, "is_disabled": 0, "fusion_lon": 0.0, "is_reserved": 0, "name": "491846a7be77b917ff8dd7116e499594", "type": "electric_scooter", "bike_id": "491846a7be77b917ff8dd7116e499594", "rental_uris": {"ios": "https://dc.lft.to/lastmile_qr_scan", "android": "https://dc.lft.to/lastmile_qr_scan"}, "fusion_lat": 0.0}, {"lat": 38.911184, "lon": -77.03828483333334, "is_disabled": 0, "fusion_lon": 0.0, "is_reserved": 0, "name": "554cc6d9e2a3f7dcf2784a286dba9bbd", "type": "electric_scooter", "bike_id": "554cc6d9e2a3f7dcf2784a286dba9bbd", "rental_uris": {"ios": "https://dc.lft.to/lastmile_qr_scan", "android": "https://dc.lft.to/lastmile_qr_scan"}, "fusion_lat": 0.0}, {"lat": 38.905412, "lon": -77.00504283333333, "is_disabled": 0, "fusion_lon": 0.0, "is_reserved": 0, "name": "c6cfc93fb1e3c4f8c92e8396ddce9b45", "type": "electric_scooter", "bike_id": "c6cfc93fb1e3c4f8c92e8396ddce9b45", "rental_uris": {"ios": "https://dc.lft.to/lastmile_qr_scan", "android": "https://dc.lft.to/lastmile_qr_scan"}, "fusion_lat": 0.0}, {"lat": 38.9804545, "lon": -76.95789266666667, "is_disabled": 0, "fusion_lon": 0.0, "is_reserved": 0, "name": "e256736989c6a6ba8e0431b9a5890eed", "type": "electric_bike", "bike_id": "e256736989c6a6ba8e0431b9a5890eed", "rental_uris": {"ios": "https://dc.lft.to/lastmile_qr_scan", "android": "https://dc.lft.to/lastmile_qr_scan"}, "fusion_lat": 0.0}, {"lat": 38.90998233333333, "lon": -77.0401095, "is_disabled": 0, "fusion_lon": 0.0, "is_reserved": 0, "name": "40ed25ab6c5a26e698ad9515fd06c71f", "type": "electric_scooter", "bike_id": "40ed25ab6c5a26e698ad9515fd06c71f", "rental_uris": {"ios": "https://dc.lft.to/lastmile_qr_scan", "android": "https://dc.lft.to/lastmile_qr_scan"}, "fusion_lat": 0.0}, {"lat": 38.92074933333333, "lon": -77.0320525, "is_disabled": 0, "fusion_lon": 0.0, "is_reserved": 0, "name": "4687e798747f4124fb968b8bc58e135d", "type": "electric_scooter", "bike_id": "4687e798747f4124fb968b8bc58e135d", "rental_uris": {"ios": "https://dc.lft.to/lastmile_qr_scan", "android": "https://dc.lft.to/lastmile_qr_scan"}, "fusion_lat": 0.0}, {"lat": 38.93031216666667, "lon": -77.057399, "is_disabled": 0, "fusion_lon": 0.0, "is_reserved": 0, "name": "7a8a31a8a2a34fe2cc7075f100a3df60", "type": "electric_scooter", "bike_id": "7a8a31a8a2a34fe2cc7075f100a3df60", "rental_uris": {"ios": "https://dc.lft.to/lastmile_qr_scan", "android": "https://dc.lft.to/lastmile_qr_scan"}, "fusion_lat": 0.0}, {"lat": 38.95359216666667, "lon": -76.98087783333334, "is_disabled": 0, "fusion_lon": 0.0, "is_reserved": 0, "name": "a4a4a0949459ac54e5030608bf9e419f", "type": "electric_bike", "bike_id": "a4a4a0949459ac54e5030608bf9e419f", "rental_uris": {"ios": "https://dc.lft.to/lastmile_qr_scan", "android": "https://dc.lft.to/lastmile_qr_scan"}, "fusion_lat": 0.0}, {"lat": 38.941837166666666, "lon": -77.04109933333334, "is_disabled": 0, "fusion_lon": 0.0, "is_reserved": 0, "name": "a0c0f5ee99457be3e71a0a96e3bc50ae", "type": "electric_scooter", "bike_id": "a0c0f5ee99457be3e71a0a96e3bc50ae", "rental_uris": {"ios": "https://dc.lft.to/lastmile_qr_scan", "android": "https://dc.lft.to/lastmile_qr_scan"}, "fusion_lat": 0.0}, {"lat": 38.92355466666667, "lon": -77.05066483333333, "is_disabled": 0, "fusion_lon": 0.0, "is_reserved": 0, "name": "70160ec7e86189b69a616aba3333d16f", "type": "electric_scooter", "bike_id": "70160ec7e86189b69a616aba3333d16f", "rental_uris": {"ios": "https://dc.lft.to/lastmile_qr_scan", "android": "https://dc.lft.to/lastmile_qr_scan"}, "fusion_lat": 0.0}, {"lat": 38.90518683333333, "lon": -77.048314, "is_disabled": 0, "fusion_lon": 0.0, "is_reserved": 0, "name": "aae6306c2a1b1f7abf6c7c12429a39a2", "type": "electric_scooter", "bike_id": "aae6306c2a1b1f7abf6c7c12429a39a2", "rental_uris": {"ios": "https://dc.lft.to/lastmile_qr_scan", "android": "https://dc.lft.to/lastmile_qr_scan"}, "fusion_lat": 0.0}, {"lat": 38.950022833333335, "lon": -77.08030616666667, "is_disabled": 0, "fusion_lon": 0.0, "is_reserved": 0, "name": "96840158c6b6f90376a317c6b743f564", "type": "electric_scooter", "bike_id": "96840158c6b6f90376a317c6b743f564", "rental_uris": {"ios": "https://dc.lft.to/lastmile_qr_scan", "android": "https://dc.lft.to/lastmile_qr_scan"}, "fusion_lat": 0.0}, {"lat": 38.9214335, "lon": -77.03352483333333, "is_disabled": 0, "fusion_lon": 0.0, "is_reserved": 0, "name": "09a8291041f5706a7a63db966344a549", "type": "electric_scooter", "bike_id": "09a8291041f5706a7a63db966344a549", "rental_uris": {"ios": "https://dc.lft.to/lastmile_qr_scan", "android": "https://dc.lft.to/lastmile_qr_scan"}, "fusion_lat": 0.0}, {"lat": 38.91522966666667, "lon": -77.03857933333333, "is_disabled": 0, "fusion_lon": 0.0, "is_reserved": 0, "name": "7295b65c458db84fc58063a0443c7a68", "type": "electric_scooter", "bike_id": "7295b65c458db84fc58063a0443c7a68", "rental_uris": {"ios": "https://dc.lft.to/lastmile_qr_scan", "android": "https://dc.lft.to/lastmile_qr_scan"}, "fusion_lat": 0.0}, {"lat": 38.868919166666664, "lon": -76.985164, "is_disabled": 0, "fusion_lon": 0.0, "is_reserved": 0, "name": "fe8054b4c793b5063b0180c7a5a5924f", "type": "electric_bike", "bike_id": "fe8054b4c793b5063b0180c7a5a5924f", "rental_uris": {"ios": "https://dc.lft.to/lastmile_qr_scan", "android": "https://dc.lft.to/lastmile_qr_scan"}, "fusion_lat": 0.0}, {"lat": 38.8475575, "lon": -76.99500666666667, "is_disabled": 0, "fusion_lon": 0.0, "is_reserved": 0, "name": "ac3603b407799ad03962da3a356dfef7", "type": "electric_scooter", "bike_id": "ac3603b407799ad03962da3a356dfef7", "rental_uris": {"ios": "https://dc.lft.to/lastmile_qr_scan", "android": "https://dc.lft.to/lastmile_qr_scan"}, "fusion_lat": 0.0}, {"lat": 38.88957, "lon": -76.93684566666667, "is_disabled": 0, "fusion_lon": 0.0, "is_reserved": 0, "name": "834a567f45a0a2559d1f3d860c731845", "type": "electric_scooter", "bike_id": "834a567f45a0a2559d1f3d860c731845", "rental_uris": {"ios": "https://dc.lft.to/lastmile_qr_scan", "android": "https://dc.lft.to/lastmile_qr_scan"}, "fusion_lat": 0.0}, {"lat": 38.92221033333333, "lon": -77.02121516666666, "is_disabled": 0, "fusion_lon": 0.0, "is_reserved": 0, "name": "b54f1dbc9b1e8b26e8b09d3c78f33eed", "type": "electric_scooter", "bike_id": "b54f1dbc9b1e8b26e8b09d3c78f33eed", "rental_uris": {"ios": "https://dc.lft.to/lastmile_qr_scan", "android": "https://dc.lft.to/lastmile_qr_scan"}, "fusion_lat": 0.0}, {"lat": 38.9043935, "lon": -76.99830666666666, "is_disabled": 0, "fusion_lon": 0.0, "is_reserved": 0, "name": "05984ec5c530a9d4031f97d834634682", "type": "electric_scooter", "bike_id": "05984ec5c530a9d4031f97d834634682", "rental_uris": {"ios": "https://dc.lft.to/lastmile_qr_scan", "android": "https://dc.lft.to/lastmile_qr_scan"}, "fusion_lat": 0.0}, {"lat": 39.05253316666667, "lon": -77.080658, "is_disabled": 0, "fusion_lon": 0.0, "is_reserved": 0, "name": "0cd8fe17fbcaaa9f94043eb713879bc0", "type": "electric_bike", "bike_id": "0cd8fe17fbcaaa9f94043eb713879bc0", "rental_uris": {"ios": "https://dc.lft.to/lastmile_qr_scan", "android": "https://dc.lft.to/lastmile_qr_scan"}, "fusion_lat": 0.0}, {"lat": 38.9156605, "lon": -77.01907966666667, "is_disabled": 0, "fusion_lon": 0.0, "is_reserved": 0, "name": "ff5c06842e56a7cd84ca855d5be8d36f", "type": "electric_scooter", "bike_id": "ff5c06842e56a7cd84ca855d5be8d36f", "rental_uris": {"ios": "https://dc.lft.to/lastmile_qr_scan", "android": "https://dc.lft.to/lastmile_qr_scan"}, "fusion_lat": 0.0}, {"lat": 38.903340666666665, "lon": -77.06281066666666, "is_disabled": 0, "fusion_lon": 0.0, "is_reserved": 0, "name": "770582d444b771d866bcbf5058508156", "type": "electric_scooter", "bike_id": "770582d444b771d866bcbf5058508156", "rental_uris": {"ios": "https://dc.lft.to/lastmile_qr_scan", "android": "https://dc.lft.to/lastmile_qr_scan"}, "fusion_lat": 0.0}, {"lat": 38.90719516666667, "lon": -77.04143033333334, "is_disabled": 0, "fusion_lon": 0.0, "is_reserved": 0, "name": "2e4211862f4b676e89052d86cc9b1faf", "type": "electric_scooter", "bike_id": "2e4211862f4b676e89052d86cc9b1faf", "rental_uris": {"ios": "https://dc.lft.to/lastmile_qr_scan", "android": "https://dc.lft.to/lastmile_qr_scan"}, "fusion_lat": 0.0}, {"lat": 38.899756333333336, "lon": -76.9855295, "is_disabled": 0, "fusion_lon": 0.0, "is_reserved": 0, "name": "5ba93127aba1cd9b2413d6fef152e8d0", "type": "electric_scooter", "bike_id": "5ba93127aba1cd9b2413d6fef152e8d0", "rental_uris": {"ios": "https://dc.lft.to/lastmile_qr_scan", "android": "https://dc.lft.to/lastmile_qr_scan"}, "fusion_lat": 0.0}, {"lat": 38.90906183333333, "lon": -77.02711883333333, "is_disabled": 0, "fusion_lon": 0.0, "is_reserved": 0, "name": "ab05cf1eb8c45f36bb7a50d134dcce11", "type": "electric_scooter", "bike_id": "ab05cf1eb8c45f36bb7a50d134dcce11", "rental_uris": {"ios": "https://dc.lft.to/lastmile_qr_scan", "android": "https://dc.lft.to/lastmile_qr_scan"}, "fusion_lat": 0.0}, {"lat": 38.964402, "lon": -77.031544, "is_disabled": 0, "fusion_lon": 0.0, "is_reserved": 0, "name": "67f0cdde4a09416baa9c8a49ac66bf46", "type": "electric_bike", "bike_id": "67f0cdde4a09416baa9c8a49ac66bf46", "rental_uris": {"ios": "https://dc.lft.to/lastmile_qr_scan", "android": "https://dc.lft.to/lastmile_qr_scan"}, "fusion_lat": 0.0}, {"lat": 38.9233845, "lon": -77.05174766666667, "is_disabled": 0, "fusion_lon": 0.0, "is_reserved": 0, "name": "e52d553e86b36c24f3634ea89dc42157", "type": "electric_scooter", "bike_id": "e52d553e86b36c24f3634ea89dc42157", "rental_uris": {"ios": "https://dc.lft.to/lastmile_qr_scan", "android": "https://dc.lft.to/lastmile_qr_scan"}, "fusion_lat": 0.0}, {"lat": 38.876754, "lon": -77.01701483333333, "is_disabled": 0, "fusion_lon": 0.0, "is_reserved": 0, "name": "9cd3cafc4fbd5c73485849a24dc38efc", "type": "electric_scooter", "bike_id": "9cd3cafc4fbd5c73485849a24dc38efc", "rental_uris": {"ios": "https://dc.lft.to/lastmile_qr_scan", "android": "https://dc.lft.to/lastmile_qr_scan"}, "fusion_lat": 0.0}, {"lat": 38.910068333333335, "lon": -77.04912316666666, "is_disabled": 0, "fusion_lon": 0.0, "is_reserved": 0, "name": "1fedc87ffabafe008dce865afe98ddf4", "type": "electric_scooter", "bike_id": "1fedc87ffabafe008dce865afe98ddf4", "rental_uris": {"ios": "https://dc.lft.to/lastmile_qr_scan", "android": "https://dc.lft.to/lastmile_qr_scan"}, "fusion_lat": 0.0}, {"lat": 38.932125, "lon": -77.032635, "is_disabled": 0, "fusion_lon": 0.0, "is_reserved": 0, "name": "ca3d072ef6d9d49196b9886feca7a09d", "type": "electric_scooter", "bike_id": "ca3d072ef6d9d49196b9886feca7a09d", "rental_uris": {"ios": "https://dc.lft.to/lastmile_qr_scan", "android": "https://dc.lft.to/lastmile_qr_scan"}, "fusion_lat": 0.0}, {"lat": 38.89831216666666, "lon": -76.94637466666667, "is_disabled": 0, "fusion_lon": 0.0, "is_reserved": 0, "name": "0773369814c79d030f252554ed77f5e5", "type": "electric_scooter", "bike_id": "0773369814c79d030f252554ed77f5e5", "rental_uris": {"ios": "https://dc.lft.to/lastmile_qr_scan", "android": "https://dc.lft.to/lastmile_qr_scan"}, "fusion_lat": 0.0}, {"lat": 38.900034166666664, "lon": -77.0119, "is_disabled": 0, "fusion_lon": 0.0, "is_reserved": 0, "name": "7504364094695adea5b574b348c79ba6", "type": "electric_scooter", "bike_id": "7504364094695adea5b574b348c79ba6", "rental_uris": {"ios": "https://dc.lft.to/lastmile_qr_scan", "android": "https://dc.lft.to/lastmile_qr_scan"}, "fusion_lat": 0.0}, {"lat": 38.92630183333333, "lon": -77.03835833333333, "is_disabled": 0, "fusion_lon": 0.0, "is_reserved": 0, "name": "14ea2766ffe4d10aea5f295ee64c1b9f", "type": "electric_scooter", "bike_id": "14ea2766ffe4d10aea5f295ee64c1b9f", "rental_uris": {"ios": "https://dc.lft.to/lastmile_qr_scan", "android": "https://dc.lft.to/lastmile_qr_scan"}, "fusion_lat": 0.0}, {"lat": 38.909601, "lon": -77.03424666666666, "is_disabled": 0, "fusion_lon": 0.0, "is_reserved": 0, "name": "368b6a14ac787a866c23149d70c76cea", "type": "electric_scooter", "bike_id": "368b6a14ac787a866c23149d70c76cea", "rental_uris": {"ios": "https://dc.lft.to/lastmile_qr_scan", "android": "https://dc.lft.to/lastmile_qr_scan"}, "fusion_lat": 0.0}, {"lat": 38.9244465, "lon": -77.02170166666667, "is_disabled": 0, "fusion_lon": 0.0, "is_reserved": 0, "name": "afb43b536760383fd6b744d863d8a21d", "type": "electric_scooter", "bike_id": "afb43b536760383fd6b744d863d8a21d", "rental_uris": {"ios": "https://dc.lft.to/lastmile_qr_scan", "android": "https://dc.lft.to/lastmile_qr_scan"}, "fusion_lat": 0.0}, {"lat": 38.907993, "lon": -77.06370366666667, "is_disabled": 0, "fusion_lon": 0.0, "is_reserved": 0, "name": "10aa22ef727cedc672324195149c8bd5", "type": "electric_scooter", "bike_id": "10aa22ef727cedc672324195149c8bd5", "rental_uris": {"ios": "https://dc.lft.to/lastmile_qr_scan", "android": "https://dc.lft.to/lastmile_qr_scan"}, "fusion_lat": 0.0}, {"lat": 38.9170825, "lon": -77.03866383333333, "is_disabled": 0, "fusion_lon": 0.0, "is_reserved": 0, "name": "33ebff2cedb80779de78149b9d303bbc", "type": "electric_scooter", "bike_id": "33ebff2cedb80779de78149b9d303bbc", "rental_uris": {"ios": "https://dc.lft.to/lastmile_qr_scan", "android": "https://dc.lft.to/lastmile_qr_scan"}, "fusion_lat": 0.0}, {"lat": 38.90840016666667, "lon": -77.03547333333333, "is_disabled": 0, "fusion_lon": 0.0, "is_reserved": 0, "name": "990e5f569d9c19928b74e648032b39f6", "type": "electric_scooter", "bike_id": "990e5f569d9c19928b74e648032b39f6", "rental_uris": {"ios": "https://dc.lft.to/lastmile_qr_scan", "android": "https://dc.lft.to/lastmile_qr_scan"}, "fusion_lat": 0.0}, {"lat": 38.90956166666667, "lon": -77.0164585, "is_disabled": 0, "fusion_lon": 0.0, "is_reserved": 0, "name": "fb3408dcca4a74e1113e4315f15b080c", "type": "electric_scooter", "bike_id": "fb3408dcca4a74e1113e4315f15b080c", "rental_uris": {"ios": "https://dc.lft.to/lastmile_qr_scan", "android": "https://dc.lft.to/lastmile_qr_scan"}, "fusion_lat": 0.0}, {"lat": 38.895271666666666, "lon": -77.02819716666667, "is_disabled": 0, "fusion_lon": 0.0, "is_reserved": 0, "name": "834769a2710dce9913ddbb66a9edc6b9", "type": "electric_scooter", "bike_id": "834769a2710dce9913ddbb66a9edc6b9", "rental_uris": {"ios": "https://dc.lft.to/lastmile_qr_scan", "android": "https://dc.lft.to/lastmile_qr_scan"}, "fusion_lat": 0.0}, {"lat": 38.873978, "lon": -77.01452666666667, "is_disabled": 0, "fusion_lon": 0.0, "is_reserved": 0, "name": "24ceb104d261a560f7bc4bf6effa35c8", "type": "electric_scooter", "bike_id": "24ceb104d261a560f7bc4bf6effa35c8", "rental_uris": {"ios": "https://dc.lft.to/lastmile_qr_scan", "android": "https://dc.lft.to/lastmile_qr_scan"}, "fusion_lat": 0.0}, {"lat": 38.917793833333334, "lon": -77.04421633333334, "is_disabled": 0, "fusion_lon": 0.0, "is_reserved": 0, "name": "23cc5c7673cd63aaefa88cd35f188622", "type": "electric_scooter", "bike_id": "23cc5c7673cd63aaefa88cd35f188622", "rental_uris": {"ios": "https://dc.lft.to/lastmile_qr_scan", "android": "https://dc.lft.to/lastmile_qr_scan"}, "fusion_lat": 0.0}, {"lat": 38.874641833333335, "lon": -77.00466616666667, "is_disabled": 0, "fusion_lon": 0.0, "is_reserved": 0, "name": "f6105c40eddcaf4ee83994516f24b7cd", "type": "electric_scooter", "bike_id": "f6105c40eddcaf4ee83994516f24b7cd", "rental_uris": {"ios": "https://dc.lft.to/lastmile_qr_scan", "android": "https://dc.lft.to/lastmile_qr_scan"}, "fusion_lat": 0.0}, {"lat": 38.9037835, "lon": -77.03567733333334, "is_disabled": 0, "fusion_lon": 0.0, "is_reserved": 0, "name": "85133107941a69d8f7dc789d7b550b01", "type": "electric_scooter", "bike_id": "85133107941a69d8f7dc789d7b550b01", "rental_uris": {"ios": "https://dc.lft.to/lastmile_qr_scan", "android": "https://dc.lft.to/lastmile_qr_scan"}, "fusion_lat": 0.0}, {"lat": 38.88988533333333, "lon": -76.98364883333333, "is_disabled": 0, "fusion_lon": 0.0, "is_reserved": 0, "name": "ce0933d7e0db6b2b1adf53bf3000ed8c", "type": "electric_scooter", "bike_id": "ce0933d7e0db6b2b1adf53bf3000ed8c", "rental_uris": {"ios": "https://dc.lft.to/lastmile_qr_scan", "android": "https://dc.lft.to/lastmile_qr_scan"}, "fusion_lat": 0.0}, {"lat": 38.902842666666665, "lon": -77.03452633333333, "is_disabled": 0, "fusion_lon": 0.0, "is_reserved": 0, "name": "381ce5e1fec63df5bf148e3235f7ee05", "type": "electric_scooter", "bike_id": "381ce5e1fec63df5bf148e3235f7ee05", "rental_uris": {"ios": "https://dc.lft.to/lastmile_qr_scan", "android": "https://dc.lft.to/lastmile_qr_scan"}, "fusion_lat": 0.0}, {"lat": 38.876344, "lon": -77.01484166666667, "is_disabled": 0, "fusion_lon": 0.0, "is_reserved": 0, "name": "1ece1b5a95d763eba142ceb840f7dfe1", "type": "electric_scooter", "bike_id": "1ece1b5a95d763eba142ceb840f7dfe1", "rental_uris": {"ios": "https://dc.lft.to/lastmile_qr_scan", "android": "https://dc.lft.to/lastmile_qr_scan"}, "fusion_lat": 0.0}, {"lat": 38.922959, "lon": -77.0232885, "is_disabled": 0, "fusion_lon": 0.0, "is_reserved": 0, "name": "cc090ed8e52b75c41133e92a7fe17b42", "type": "electric_scooter", "bike_id": "cc090ed8e52b75c41133e92a7fe17b42", "rental_uris": {"ios": "https://dc.lft.to/lastmile_qr_scan", "android": "https://dc.lft.to/lastmile_qr_scan"}, "fusion_lat": 0.0}, {"lat": 38.902638333333336, "lon": -77.03438466666667, "is_disabled": 0, "fusion_lon": 0.0, "is_reserved": 0, "name": "73b8c4d9ff010fb1ac706e9c8bd75e1e", "type": "electric_scooter", "bike_id": "73b8c4d9ff010fb1ac706e9c8bd75e1e", "rental_uris": {"ios": "https://dc.lft.to/lastmile_qr_scan", "android": "https://dc.lft.to/lastmile_qr_scan"}, "fusion_lat": 0.0}, {"lat": 38.916091333333334, "lon": -77.03187116666666, "is_disabled": 0, "fusion_lon": 0.0, "is_reserved": 0, "name": "e8cb22e2048a09f4e11ab59d797a9238", "type": "electric_scooter", "bike_id": "e8cb22e2048a09f4e11ab59d797a9238", "rental_uris": {"ios": "https://dc.lft.to/lastmile_qr_scan", "android": "https://dc.lft.to/lastmile_qr_scan"}, "fusion_lat": 0.0}, {"lat": 38.899161166666666, "lon": -77.02369933333334, "is_disabled": 0, "fusion_lon": 0.0, "is_reserved": 0, "name": "6f8a74c30e2519f5466fff9da0f609bd", "type": "electric_scooter", "bike_id": "6f8a74c30e2519f5466fff9da0f609bd", "rental_uris": {"ios": "https://dc.lft.to/lastmile_qr_scan", "android": "https://dc.lft.to/lastmile_qr_scan"}, "fusion_lat": 0.0}, {"lat": 38.926745, "lon": -77.022588, "is_disabled": 0, "fusion_lon": 0.0, "is_reserved": 0, "name": "aa02fd920af0fae2929cba1179289ce6", "type": "electric_scooter", "bike_id": "aa02fd920af0fae2929cba1179289ce6", "rental_uris": {"ios": "https://dc.lft.to/lastmile_qr_scan", "android": "https://dc.lft.to/lastmile_qr_scan"}, "fusion_lat": 0.0}, {"lat": 38.90356966666667, "lon": -77.02901116666666, "is_disabled": 0, "fusion_lon": 0.0, "is_reserved": 0, "name": "837c04eb0cab624bc4c2d19fd6565c33", "type": "electric_scooter", "bike_id": "837c04eb0cab624bc4c2d19fd6565c33", "rental_uris": {"ios": "https://dc.lft.to/lastmile_qr_scan", "android": "https://dc.lft.to/lastmile_qr_scan"}, "fusion_lat": 0.0}, {"lat": 38.89733733333333, "lon": -77.02562016666667, "is_disabled": 0, "fusion_lon": 0.0, "is_reserved": 0, "name": "8398351e8553983a07bcdfe5ec7bd93c", "type": "electric_scooter", "bike_id": "8398351e8553983a07bcdfe5ec7bd93c", "rental_uris": {"ios": "https://dc.lft.to/lastmile_qr_scan", "android": "https://dc.lft.to/lastmile_qr_scan"}, "fusion_lat": 0.0}, {"lat": 38.917745333333336, "lon": -77.02297566666667, "is_disabled": 0, "fusion_lon": 0.0, "is_reserved": 0, "name": "39b68dfd3a22b3ab8382f209af6f2091", "type": "electric_scooter", "bike_id": "39b68dfd3a22b3ab8382f209af6f2091", "rental_uris": {"ios": "https://dc.lft.to/lastmile_qr_scan", "android": "https://dc.lft.to/lastmile_qr_scan"}, "fusion_lat": 0.0}, {"lat": 38.90024366666667, "lon": -76.97401966666666, "is_disabled": 0, "fusion_lon": 0.0, "is_reserved": 0, "name": "5d5c44b572424f27fe1e7d263a02db7d", "type": "electric_scooter", "bike_id": "5d5c44b572424f27fe1e7d263a02db7d", "rental_uris": {"ios": "https://dc.lft.to/lastmile_qr_scan", "android": "https://dc.lft.to/lastmile_qr_scan"}, "fusion_lat": 0.0}, {"lat": 38.922949333333335, "lon": -77.04300366666666, "is_disabled": 0, "fusion_lon": 0.0, "is_reserved": 0, "name": "d30951a71343fc8cc8949f4e6e3fef02", "type": "electric_scooter", "bike_id": "d30951a71343fc8cc8949f4e6e3fef02", "rental_uris": {"ios": "https://dc.lft.to/lastmile_qr_scan", "android": "https://dc.lft.to/lastmile_qr_scan"}, "fusion_lat": 0.0}, {"lat": 38.9169405, "lon": -77.036249, "is_disabled": 0, "fusion_lon": 0.0, "is_reserved": 0, "name": "59264a07c714e939d61be92424fc200a", "type": "electric_scooter", "bike_id": "59264a07c714e939d61be92424fc200a", "rental_uris": {"ios": "https://dc.lft.to/lastmile_qr_scan", "android": "https://dc.lft.to/lastmile_qr_scan"}, "fusion_lat": 0.0}, {"lat": 38.881100333333336, "lon": -77.01668933333333, "is_disabled": 0, "fusion_lon": 0.0, "is_reserved": 0, "name": "1bf0e699e443d0616fe620d438ab7480", "type": "electric_scooter", "bike_id": "1bf0e699e443d0616fe620d438ab7480", "rental_uris": {"ios": "https://dc.lft.to/lastmile_qr_scan", "android": "https://dc.lft.to/lastmile_qr_scan"}, "fusion_lat": 0.0}, {"lat": 38.91114683333333, "lon": -77.037648, "is_disabled": 0, "fusion_lon": 0.0, "is_reserved": 0, "name": "f6eb3c13490aafa378c931bbab662183", "type": "electric_scooter", "bike_id": "f6eb3c13490aafa378c931bbab662183", "rental_uris": {"ios": "https://dc.lft.to/lastmile_qr_scan", "android": "https://dc.lft.to/lastmile_qr_scan"}, "fusion_lat": 0.0}, {"lat": 38.874856666666666, "lon": -77.00160933333333, "is_disabled": 0, "fusion_lon": 0.0, "is_reserved": 0, "name": "a2027d3059bfb04ec455a4e94fc89858", "type": "electric_scooter", "bike_id": "a2027d3059bfb04ec455a4e94fc89858", "rental_uris": {"ios": "https://dc.lft.to/lastmile_qr_scan", "android": "https://dc.lft.to/lastmile_qr_scan"}, "fusion_lat": 0.0}, {"lat": 38.90472183333333, "lon": -77.034805, "is_disabled": 0, "fusion_lon": 0.0, "is_reserved": 0, "name": "f6c3b3ec49d39677a14ae1833d81dde2", "type": "electric_scooter", "bike_id": "f6c3b3ec49d39677a14ae1833d81dde2", "rental_uris": {"ios": "https://dc.lft.to/lastmile_qr_scan", "android": "https://dc.lft.to/lastmile_qr_scan"}, "fusion_lat": 0.0}, {"lat": 38.88736083333333, "lon": -77.02125383333333, "is_disabled": 0, "fusion_lon": 0.0, "is_reserved": 0, "name": "604939a98ec728b8390af321fe34aef9", "type": "electric_scooter", "bike_id": "604939a98ec728b8390af321fe34aef9", "rental_uris": {"ios": "https://dc.lft.to/lastmile_qr_scan", "android": "https://dc.lft.to/lastmile_qr_scan"}, "fusion_lat": 0.0}, {"lat": 38.84766366666667, "lon": -76.9664015, "is_disabled": 0, "fusion_lon": 0.0, "is_reserved": 0, "name": "c365cb427fb713d696f5c1b8848d6e5d", "type": "electric_bike", "bike_id": "c365cb427fb713d696f5c1b8848d6e5d", "rental_uris": {"ios": "https://dc.lft.to/lastmile_qr_scan", "android": "https://dc.lft.to/lastmile_qr_scan"}, "fusion_lat": 0.0}, {"lat": 38.909901, "lon": -77.02296116666666, "is_disabled": 0, "fusion_lon": 0.0, "is_reserved": 0, "name": "8ea212fe12eaa426e4bf35a095939033", "type": "electric_scooter", "bike_id": "8ea212fe12eaa426e4bf35a095939033", "rental_uris": {"ios": "https://dc.lft.to/lastmile_qr_scan", "android": "https://dc.lft.to/lastmile_qr_scan"}, "fusion_lat": 0.0}, {"lat": 38.909194666666664, "lon": -76.99970933333333, "is_disabled": 0, "fusion_lon": 0.0, "is_reserved": 0, "name": "a17f3ce1ee845fb5e1b38ecb698c04f5", "type": "electric_scooter", "bike_id": "a17f3ce1ee845fb5e1b38ecb698c04f5", "rental_uris": {"ios": "https://dc.lft.to/lastmile_qr_scan", "android": "https://dc.lft.to/lastmile_qr_scan"}, "fusion_lat": 0.0}, {"lat": 38.90232133333333, "lon": -77.017319, "is_disabled": 0, "fusion_lon": 0.0, "is_reserved": 0, "name": "ab5bcd025fe009365e7749a6fe825b1c", "type": "electric_scooter", "bike_id": "ab5bcd025fe009365e7749a6fe825b1c", "rental_uris": {"ios": "https://dc.lft.to/lastmile_qr_scan", "android": "https://dc.lft.to/lastmile_qr_scan"}, "fusion_lat": 0.0}, {"lat": 38.90729266666666, "lon": -77.03443566666667, "is_disabled": 0, "fusion_lon": 0.0, "is_reserved": 0, "name": "f63cd27d61723d948a84ed7e94c81177", "type": "electric_scooter", "bike_id": "f63cd27d61723d948a84ed7e94c81177", "rental_uris": {"ios": "https://dc.lft.to/lastmile_qr_scan", "android": "https://dc.lft.to/lastmile_qr_scan"}, "fusion_lat": 0.0}, {"lat": 38.916732333333336, "lon": -77.02719566666667, "is_disabled": 0, "fusion_lon": 0.0, "is_reserved": 0, "name": "c083be846d5254e8b7f5dbbc56f74f9c", "type": "electric_scooter", "bike_id": "c083be846d5254e8b7f5dbbc56f74f9c", "rental_uris": {"ios": "https://dc.lft.to/lastmile_qr_scan", "android": "https://dc.lft.to/lastmile_qr_scan"}, "fusion_lat": 0.0}, {"lat": 38.8991165, "lon": -77.02371, "is_disabled": 0, "fusion_lon": 0.0, "is_reserved": 0, "name": "6b7d527a582db113e5d02e9de93c36c2", "type": "electric_scooter", "bike_id": "6b7d527a582db113e5d02e9de93c36c2", "rental_uris": {"ios": "https://dc.lft.to/lastmile_qr_scan", "android": "https://dc.lft.to/lastmile_qr_scan"}, "fusion_lat": 0.0}, {"lat": 38.904971833333335, "lon": -77.06577366666667, "is_disabled": 0, "fusion_lon": 0.0, "is_reserved": 0, "name": "c168456ba95fb44c51c69d0fc5c09f56", "type": "electric_scooter", "bike_id": "c168456ba95fb44c51c69d0fc5c09f56", "rental_uris": {"ios": "https://dc.lft.to/lastmile_qr_scan", "android": "https://dc.lft.to/lastmile_qr_scan"}, "fusion_lat": 0.0}, {"lat": 38.84425133333333, "lon": -76.99779233333334, "is_disabled": 0, "fusion_lon": 0.0, "is_reserved": 0, "name": "5ae145476b8778bfe73be0f962da642d", "type": "electric_scooter", "bike_id": "5ae145476b8778bfe73be0f962da642d", "rental_uris": {"ios": "https://dc.lft.to/lastmile_qr_scan", "android": "https://dc.lft.to/lastmile_qr_scan"}, "fusion_lat": 0.0}, {"lat": 38.899669833333334, "lon": -77.05096516666667, "is_disabled": 0, "fusion_lon": 0.0, "is_reserved": 0, "name": "13a0ccc42ae6c03834e9d2bb6cf8ffe6", "type": "electric_scooter", "bike_id": "13a0ccc42ae6c03834e9d2bb6cf8ffe6", "rental_uris": {"ios": "https://dc.lft.to/lastmile_qr_scan", "android": "https://dc.lft.to/lastmile_qr_scan"}, "fusion_lat": 0.0}, {"lat": 38.852003, "lon": -76.96301633333333, "is_disabled": 0, "fusion_lon": 0.0, "is_reserved": 0, "name": "1d8c7cef2b6c2ab51b85423b72a5fa95", "type": "electric_bike", "bike_id": "1d8c7cef2b6c2ab51b85423b72a5fa95", "rental_uris": {"ios": "https://dc.lft.to/lastmile_qr_scan", "android": "https://dc.lft.to/lastmile_qr_scan"}, "fusion_lat": 0.0}, {"lat": 38.9260875, "lon": -77.021616, "is_disabled": 0, "fusion_lon": 0.0, "is_reserved": 0, "name": "1cf320415ae733ba1b4be3b15ca1900d", "type": "electric_scooter", "bike_id": "1cf320415ae733ba1b4be3b15ca1900d", "rental_uris": {"ios": "https://dc.lft.to/lastmile_qr_scan", "android": "https://dc.lft.to/lastmile_qr_scan"}, "fusion_lat": 0.0}, {"lat": 38.92762533333333, "lon": -77.07010283333334, "is_disabled": 0, "fusion_lon": 0.0, "is_reserved": 0, "name": "5829ea76f92cf1df2bfd105eb10e440b", "type": "electric_bike", "bike_id": "5829ea76f92cf1df2bfd105eb10e440b", "rental_uris": {"ios": "https://dc.lft.to/lastmile_qr_scan", "android": "https://dc.lft.to/lastmile_qr_scan"}, "fusion_lat": 0.0}, {"lat": 38.91700266666667, "lon": -77.02893816666666, "is_disabled": 0, "fusion_lon": 0.0, "is_reserved": 0, "name": "c6d99cedb02f1889ea0f2d2347160af2", "type": "electric_scooter", "bike_id": "c6d99cedb02f1889ea0f2d2347160af2", "rental_uris": {"ios": "https://dc.lft.to/lastmile_qr_scan", "android": "https://dc.lft.to/lastmile_qr_scan"}, "fusion_lat": 0.0}, {"lat": 38.928587666666665, "lon": -77.03304483333334, "is_disabled": 0, "fusion_lon": 0.0, "is_reserved": 0, "name": "c9f6cc3e3efd88e0f67b9b14e890cd8b", "type": "electric_scooter", "bike_id": "c9f6cc3e3efd88e0f67b9b14e890cd8b", "rental_uris": {"ios": "https://dc.lft.to/lastmile_qr_scan", "android": "https://dc.lft.to/lastmile_qr_scan"}, "fusion_lat": 0.0}, {"lat": 38.907868, "lon": -77.03868933333334, "is_disabled": 0, "fusion_lon": 0.0, "is_reserved": 0, "name": "9cc6329a9e33b30aecbae4d3787c61ae", "type": "electric_scooter", "bike_id": "9cc6329a9e33b30aecbae4d3787c61ae", "rental_uris": {"ios": "https://dc.lft.to/lastmile_qr_scan", "android": "https://dc.lft.to/lastmile_qr_scan"}, "fusion_lat": 0.0}, {"lat": 38.928614, "lon": -77.0542975, "is_disabled": 0, "fusion_lon": 0.0, "is_reserved": 0, "name": "6c7f196760935287c6fdbca4d23f76a0", "type": "electric_scooter", "bike_id": "6c7f196760935287c6fdbca4d23f76a0", "rental_uris": {"ios": "https://dc.lft.to/lastmile_qr_scan", "android": "https://dc.lft.to/lastmile_qr_scan"}, "fusion_lat": 0.0}, {"lat": 38.897287666666664, "lon": -77.0498975, "is_disabled": 0, "fusion_lon": 0.0, "is_reserved": 0, "name": "82e0310061f545c3e00476a9a2b87c55", "type": "electric_scooter", "bike_id": "82e0310061f545c3e00476a9a2b87c55", "rental_uris": {"ios": "https://dc.lft.to/lastmile_qr_scan", "android": "https://dc.lft.to/lastmile_qr_scan"}, "fusion_lat": 0.0}, {"lat": 38.899859, "lon": -77.02707216666667, "is_disabled": 0, "fusion_lon": 0.0, "is_reserved": 0, "name": "f15d7f86daa3ea4a57eab573af7d605b", "type": "electric_scooter", "bike_id": "f15d7f86daa3ea4a57eab573af7d605b", "rental_uris": {"ios": "https://dc.lft.to/lastmile_qr_scan", "android": "https://dc.lft.to/lastmile_qr_scan"}, "fusion_lat": 0.0}, {"lat": 38.900364833333335, "lon": -76.99846416666666, "is_disabled": 0, "fusion_lon": 0.0, "is_reserved": 0, "name": "0cc9241bf5ce2ebceb40ed81496ac6dd", "type": "electric_scooter", "bike_id": "0cc9241bf5ce2ebceb40ed81496ac6dd", "rental_uris": {"ios": "https://dc.lft.to/lastmile_qr_scan", "android": "https://dc.lft.to/lastmile_qr_scan"}, "fusion_lat": 0.0}, {"lat": 38.90576983333333, "lon": -77.0088675, "is_disabled": 0, "fusion_lon": 0.0, "is_reserved": 0, "name": "c8793b45616ee7231bbc383ef4946eb7", "type": "electric_scooter", "bike_id": "c8793b45616ee7231bbc383ef4946eb7", "rental_uris": {"ios": "https://dc.lft.to/lastmile_qr_scan", "android": "https://dc.lft.to/lastmile_qr_scan"}, "fusion_lat": 0.0}, {"lat": 38.91177866666666, "lon": -77.03500033333333, "is_disabled": 0, "fusion_lon": 0.0, "is_reserved": 0, "name": "162cb5af4af0b252f02012b2d67aa97f", "type": "electric_scooter", "bike_id": "162cb5af4af0b252f02012b2d67aa97f", "rental_uris": {"ios": "https://dc.lft.to/lastmile_qr_scan", "android": "https://dc.lft.to/lastmile_qr_scan"}, "fusion_lat": 0.0}, {"lat": 38.89901533333333, "lon": -76.94555833333334, "is_disabled": 0, "fusion_lon": 0.0, "is_reserved": 0, "name": "54235fb414b71effb209452f8afc740f", "type": "electric_scooter", "bike_id": "54235fb414b71effb209452f8afc740f", "rental_uris": {"ios": "https://dc.lft.to/lastmile_qr_scan", "android": "https://dc.lft.to/lastmile_qr_scan"}, "fusion_lat": 0.0}, {"lat": 38.91798933333333, "lon": -77.02486633333334, "is_disabled": 0, "fusion_lon": 0.0, "is_reserved": 0, "name": "959cb6781b213e677580986b69473c51", "type": "electric_scooter", "bike_id": "959cb6781b213e677580986b69473c51", "rental_uris": {"ios": "https://dc.lft.to/lastmile_qr_scan", "android": "https://dc.lft.to/lastmile_qr_scan"}, "fusion_lat": 0.0}, {"lat": 38.896786666666664, "lon": -76.937073, "is_disabled": 0, "fusion_lon": 0.0, "is_reserved": 0, "name": "005fbad92b05c4201e75527be835442a", "type": "electric_scooter", "bike_id": "005fbad92b05c4201e75527be835442a", "rental_uris": {"ios": "https://dc.lft.to/lastmile_qr_scan", "android": "https://dc.lft.to/lastmile_qr_scan"}, "fusion_lat": 0.0}, {"lat": 38.91525933333333, "lon": -77.04865816666667, "is_disabled": 0, "fusion_lon": 0.0, "is_reserved": 0, "name": "19b784d25622e4719383d06f4af19340", "type": "electric_scooter", "bike_id": "19b784d25622e4719383d06f4af19340", "rental_uris": {"ios": "https://dc.lft.to/lastmile_qr_scan", "android": "https://dc.lft.to/lastmile_qr_scan"}, "fusion_lat": 0.0}, {"lat": 38.92587133333333, "lon": -77.0968825, "is_disabled": 0, "fusion_lon": 0.0, "is_reserved": 0, "name": "134c644f6022126063ce976f59ef2466", "type": "electric_scooter", "bike_id": "134c644f6022126063ce976f59ef2466", "rental_uris": {"ios": "https://dc.lft.to/lastmile_qr_scan", "android": "https://dc.lft.to/lastmile_qr_scan"}, "fusion_lat": 0.0}, {"lat": 38.90558216666667, "lon": -77.034334, "is_disabled": 0, "fusion_lon": 0.0, "is_reserved": 0, "name": "e4ca552accff61882f79730febcbbfd1", "type": "electric_scooter", "bike_id": "e4ca552accff61882f79730febcbbfd1", "rental_uris": {"ios": "https://dc.lft.to/lastmile_qr_scan", "android": "https://dc.lft.to/lastmile_qr_scan"}, "fusion_lat": 0.0}, {"lat": 38.950520166666664, "lon": -77.08027, "is_disabled": 0, "fusion_lon": 0.0, "is_reserved": 0, "name": "b6dd3cfda2dc04a2660d90f70fa7db3c", "type": "electric_scooter", "bike_id": "b6dd3cfda2dc04a2660d90f70fa7db3c", "rental_uris": {"ios": "https://dc.lft.to/lastmile_qr_scan", "android": "https://dc.lft.to/lastmile_qr_scan"}, "fusion_lat": 0.0}, {"lat": 38.93442966666667, "lon": -77.0905855, "is_disabled": 0, "fusion_lon": 0.0, "is_reserved": 0, "name": "29d4bc51caf0658ec1ad827d399edc2b", "type": "electric_scooter", "bike_id": "29d4bc51caf0658ec1ad827d399edc2b", "rental_uris": {"ios": "https://dc.lft.to/lastmile_qr_scan", "android": "https://dc.lft.to/lastmile_qr_scan"}, "fusion_lat": 0.0}, {"lat": 38.917256, "lon": -77.02587666666666, "is_disabled": 0, "fusion_lon": 0.0, "is_reserved": 0, "name": "a94f3179ffc2074dc1a5af2730b35a7d", "type": "electric_scooter", "bike_id": "a94f3179ffc2074dc1a5af2730b35a7d", "rental_uris": {"ios": "https://dc.lft.to/lastmile_qr_scan", "android": "https://dc.lft.to/lastmile_qr_scan"}, "fusion_lat": 0.0}, {"lat": 38.898988833333334, "lon": -76.99958816666667, "is_disabled": 0, "fusion_lon": 0.0, "is_reserved": 0, "name": "4d1ed7e8bf417dfddef47bf5d0777e30", "type": "electric_scooter", "bike_id": "4d1ed7e8bf417dfddef47bf5d0777e30", "rental_uris": {"ios": "https://dc.lft.to/lastmile_qr_scan", "android": "https://dc.lft.to/lastmile_qr_scan"}, "fusion_lat": 0.0}, {"lat": 38.914108, "lon": -77.008804, "is_disabled": 0, "fusion_lon": 0.0, "is_reserved": 0, "name": "70341b735bd5c6523b8175a140663d48", "type": "electric_scooter", "bike_id": "70341b735bd5c6523b8175a140663d48", "rental_uris": {"ios": "https://dc.lft.to/lastmile_qr_scan", "android": "https://dc.lft.to/lastmile_qr_scan"}, "fusion_lat": 0.0}, {"lat": 38.87578766666667, "lon": -77.23407983333334, "is_disabled": 0, "fusion_lon": 0.0, "is_reserved": 0, "name": "00ad68a891e68fa05ca7bd8bb29e713d", "type": "electric_bike", "bike_id": "00ad68a891e68fa05ca7bd8bb29e713d", "rental_uris": {"ios": "https://dc.lft.to/lastmile_qr_scan", "android": "https://dc.lft.to/lastmile_qr_scan"}, "fusion_lat": 0.0}, {"lat": 38.907175, "lon": -77.02676616666666, "is_disabled": 0, "fusion_lon": 0.0, "is_reserved": 0, "name": "039efe0a56faf12bdb92242163a906ad", "type": "electric_scooter", "bike_id": "039efe0a56faf12bdb92242163a906ad", "rental_uris": {"ios": "https://dc.lft.to/lastmile_qr_scan", "android": "https://dc.lft.to/lastmile_qr_scan"}, "fusion_lat": 0.0}, {"lat": 38.94916083333333, "lon": -77.00797366666667, "is_disabled": 0, "fusion_lon": 0.0, "is_reserved": 0, "name": "e3bc17bc29b4f19791ea1eead8171ed8", "type": "electric_bike", "bike_id": "e3bc17bc29b4f19791ea1eead8171ed8", "rental_uris": {"ios": "https://dc.lft.to/lastmile_qr_scan", "android": "https://dc.lft.to/lastmile_qr_scan"}, "fusion_lat": 0.0}, {"lat": 38.914134833333335, "lon": -77.0218635, "is_disabled": 0, "fusion_lon": 0.0, "is_reserved": 0, "name": "f696ef61dde0a2749344825dd50e9e42", "type": "electric_scooter", "bike_id": "f696ef61dde0a2749344825dd50e9e42", "rental_uris": {"ios": "https://dc.lft.to/lastmile_qr_scan", "android": "https://dc.lft.to/lastmile_qr_scan"}, "fusion_lat": 0.0}, {"lat": 38.931953, "lon": -77.028194, "is_disabled": 0, "fusion_lon": 0.0, "is_reserved": 0, "name": "8a2ec04ce2fa1fa7ed5319bdb991d6df", "type": "electric_scooter", "bike_id": "8a2ec04ce2fa1fa7ed5319bdb991d6df", "rental_uris": {"ios": "https://dc.lft.to/lastmile_qr_scan", "android": "https://dc.lft.to/lastmile_qr_scan"}, "fusion_lat": 0.0}, {"lat": 38.918851333333336, "lon": -77.029533, "is_disabled": 0, "fusion_lon": 0.0, "is_reserved": 0, "name": "21b4f104d834a1d07ea8bed8ce67a04e", "type": "electric_scooter", "bike_id": "21b4f104d834a1d07ea8bed8ce67a04e", "rental_uris": {"ios": "https://dc.lft.to/lastmile_qr_scan", "android": "https://dc.lft.to/lastmile_qr_scan"}, "fusion_lat": 0.0}, {"lat": 38.93243616666667, "lon": -77.03280433333333, "is_disabled": 0, "fusion_lon": 0.0, "is_reserved": 0, "name": "781974aa1716e627ec3b9d3e760ad27c", "type": "electric_scooter", "bike_id": "781974aa1716e627ec3b9d3e760ad27c", "rental_uris": {"ios": "https://dc.lft.to/lastmile_qr_scan", "android": "https://dc.lft.to/lastmile_qr_scan"}, "fusion_lat": 0.0}, {"lat": 38.916952, "lon": -77.02625133333333, "is_disabled": 0, "fusion_lon": 0.0, "is_reserved": 0, "name": "6fa59521514bb2ce85e7c13207b26805", "type": "electric_scooter", "bike_id": "6fa59521514bb2ce85e7c13207b26805", "rental_uris": {"ios": "https://dc.lft.to/lastmile_qr_scan", "android": "https://dc.lft.to/lastmile_qr_scan"}, "fusion_lat": 0.0}, {"lat": 38.93101016666667, "lon": -77.0266075, "is_disabled": 0, "fusion_lon": 0.0, "is_reserved": 0, "name": "126849b80cfad83f73d83a626750f7f0", "type": "electric_scooter", "bike_id": "126849b80cfad83f73d83a626750f7f0", "rental_uris": {"ios": "https://dc.lft.to/lastmile_qr_scan", "android": "https://dc.lft.to/lastmile_qr_scan"}, "fusion_lat": 0.0}, {"lat": 38.93103466666667, "lon": -77.03473833333334, "is_disabled": 0, "fusion_lon": 0.0, "is_reserved": 0, "name": "482b9a83f24fee3a3e053759e304cf8a", "type": "electric_bike", "bike_id": "482b9a83f24fee3a3e053759e304cf8a", "rental_uris": {"ios": "https://dc.lft.to/lastmile_qr_scan", "android": "https://dc.lft.to/lastmile_qr_scan"}, "fusion_lat": 0.0}, {"lat": 38.9248055, "lon": -77.03540783333334, "is_disabled": 0, "fusion_lon": 0.0, "is_reserved": 0, "name": "a903e5c6461c15d9f8f7fdceb0bc0787", "type": "electric_scooter", "bike_id": "a903e5c6461c15d9f8f7fdceb0bc0787", "rental_uris": {"ios": "https://dc.lft.to/lastmile_qr_scan", "android": "https://dc.lft.to/lastmile_qr_scan"}, "fusion_lat": 0.0}, {"lat": 38.993900833333335, "lon": -76.92890933333334, "is_disabled": 0, "fusion_lon": 0.0, "is_reserved": 0, "name": "0e3350da687f871a09db55d64c398fcb", "type": "electric_bike", "bike_id": "0e3350da687f871a09db55d64c398fcb", "rental_uris": {"ios": "https://dc.lft.to/lastmile_qr_scan", "android": "https://dc.lft.to/lastmile_qr_scan"}, "fusion_lat": 0.0}, {"lat": 38.88460116666667, "lon": -76.9522945, "is_disabled": 0, "fusion_lon": 0.0, "is_reserved": 0, "name": "067cf5d0fa7ba833b8168a5efde328ad", "type": "electric_bike", "bike_id": "067cf5d0fa7ba833b8168a5efde328ad", "rental_uris": {"ios": "https://dc.lft.to/lastmile_qr_scan", "android": "https://dc.lft.to/lastmile_qr_scan"}, "fusion_lat": 0.0}, {"lat": 38.91489716666667, "lon": -77.0346205, "is_disabled": 0, "fusion_lon": 0.0, "is_reserved": 0, "name": "389d0d027486be2bf2bf962e70236f45", "type": "electric_scooter", "bike_id": "389d0d027486be2bf2bf962e70236f45", "rental_uris": {"ios": "https://dc.lft.to/lastmile_qr_scan", "android": "https://dc.lft.to/lastmile_qr_scan"}, "fusion_lat": 0.0}, {"lat": 38.896187833333336, "lon": -77.02143333333333, "is_disabled": 0, "fusion_lon": 0.0, "is_reserved": 0, "name": "e6978411a9dcf9417985ae68f25609c4", "type": "electric_scooter", "bike_id": "e6978411a9dcf9417985ae68f25609c4", "rental_uris": {"ios": "https://dc.lft.to/lastmile_qr_scan", "android": "https://dc.lft.to/lastmile_qr_scan"}, "fusion_lat": 0.0}, {"lat": 38.90382683333333, "lon": -76.97619383333333, "is_disabled": 0, "fusion_lon": 0.0, "is_reserved": 0, "name": "f507ba7c979f95d888014d9d81b07fbe", "type": "electric_scooter", "bike_id": "f507ba7c979f95d888014d9d81b07fbe", "rental_uris": {"ios": "https://dc.lft.to/lastmile_qr_scan", "android": "https://dc.lft.to/lastmile_qr_scan"}, "fusion_lat": 0.0}, {"lat": 38.902603, "lon": -77.00590583333333, "is_disabled": 0, "fusion_lon": 0.0, "is_reserved": 0, "name": "8f705563cf14e344d0a1803f4d1a4799", "type": "electric_scooter", "bike_id": "8f705563cf14e344d0a1803f4d1a4799", "rental_uris": {"ios": "https://dc.lft.to/lastmile_qr_scan", "android": "https://dc.lft.to/lastmile_qr_scan"}, "fusion_lat": 0.0}, {"lat": 38.91907833333333, "lon": -77.03202766666666, "is_disabled": 0, "fusion_lon": 0.0, "is_reserved": 0, "name": "6938c40cfdb9813e064432e6a16dacd9", "type": "electric_scooter", "bike_id": "6938c40cfdb9813e064432e6a16dacd9", "rental_uris": {"ios": "https://dc.lft.to/lastmile_qr_scan", "android": "https://dc.lft.to/lastmile_qr_scan"}, "fusion_lat": 0.0}, {"lat": 38.928880666666664, "lon": -77.0325955, "is_disabled": 0, "fusion_lon": 0.0, "is_reserved": 0, "name": "2fa793f81d0cdec03f99b958ab2b7da3", "type": "electric_scooter", "bike_id": "2fa793f81d0cdec03f99b958ab2b7da3", "rental_uris": {"ios": "https://dc.lft.to/lastmile_qr_scan", "android": "https://dc.lft.to/lastmile_qr_scan"}, "fusion_lat": 0.0}, {"lat": 38.921361, "lon": -77.0094455, "is_disabled": 0, "fusion_lon": 0.0, "is_reserved": 0, "name": "1ee408512c8002f58059ab542cb7149c", "type": "electric_scooter", "bike_id": "1ee408512c8002f58059ab542cb7149c", "rental_uris": {"ios": "https://dc.lft.to/lastmile_qr_scan", "android": "https://dc.lft.to/lastmile_qr_scan"}, "fusion_lat": 0.0}, {"lat": 38.92910933333334, "lon": -77.0730775, "is_disabled": 0, "fusion_lon": 0.0, "is_reserved": 0, "name": "b13e7617d7562cad13495c931a394696", "type": "electric_scooter", "bike_id": "b13e7617d7562cad13495c931a394696", "rental_uris": {"ios": "https://dc.lft.to/lastmile_qr_scan", "android": "https://dc.lft.to/lastmile_qr_scan"}, "fusion_lat": 0.0}, {"lat": 38.90044066666667, "lon": -77.0131135, "is_disabled": 0, "fusion_lon": 0.0, "is_reserved": 0, "name": "77c5f01dcec0394ee17e35c97565d4a6", "type": "electric_scooter", "bike_id": "77c5f01dcec0394ee17e35c97565d4a6", "rental_uris": {"ios": "https://dc.lft.to/lastmile_qr_scan", "android": "https://dc.lft.to/lastmile_qr_scan"}, "fusion_lat": 0.0}, {"lat": 38.910252666666665, "lon": -77.039848, "is_disabled": 0, "fusion_lon": 0.0, "is_reserved": 0, "name": "ab3aa8af5800ff626eedee3ad1f56669", "type": "electric_scooter", "bike_id": "ab3aa8af5800ff626eedee3ad1f56669", "rental_uris": {"ios": "https://dc.lft.to/lastmile_qr_scan", "android": "https://dc.lft.to/lastmile_qr_scan"}, "fusion_lat": 0.0}, {"lat": 38.94203483333333, "lon": -77.01827066666667, "is_disabled": 0, "fusion_lon": 0.0, "is_reserved": 0, "name": "4a533893e924606bdfd4620eb4273684", "type": "electric_bike", "bike_id": "4a533893e924606bdfd4620eb4273684", "rental_uris": {"ios": "https://dc.lft.to/lastmile_qr_scan", "android": "https://dc.lft.to/lastmile_qr_scan"}, "fusion_lat": 0.0}, {"lat": 38.90463583333333, "lon": -76.9853185, "is_disabled": 0, "fusion_lon": 0.0, "is_reserved": 0, "name": "0d067810d069504a2e4a7dad2e393f13", "type": "electric_scooter", "bike_id": "0d067810d069504a2e4a7dad2e393f13", "rental_uris": {"ios": "https://dc.lft.to/lastmile_qr_scan", "android": "https://dc.lft.to/lastmile_qr_scan"}, "fusion_lat": 0.0}, {"lat": 38.89232783333333, "lon": -77.0487675, "is_disabled": 0, "fusion_lon": 0.0, "is_reserved": 0, "name": "8136ee5a3b9bc24c75d916248e6ac66b", "type": "electric_scooter", "bike_id": "8136ee5a3b9bc24c75d916248e6ac66b", "rental_uris": {"ios": "https://dc.lft.to/lastmile_qr_scan", "android": "https://dc.lft.to/lastmile_qr_scan"}, "fusion_lat": 0.0}, {"lat": 38.9614515, "lon": -77.027881, "is_disabled": 0, "fusion_lon": 0.0, "is_reserved": 0, "name": "d5cccf682cb54cfe3edf64796ff1e3a3", "type": "electric_scooter", "bike_id": "d5cccf682cb54cfe3edf64796ff1e3a3", "rental_uris": {"ios": "https://dc.lft.to/lastmile_qr_scan", "android": "https://dc.lft.to/lastmile_qr_scan"}, "fusion_lat": 0.0}, {"lat": 38.917975166666665, "lon": -77.02706083333334, "is_disabled": 0, "fusion_lon": 0.0, "is_reserved": 0, "name": "e912f22fb3207ec10d8cae1d73dda289", "type": "electric_scooter", "bike_id": "e912f22fb3207ec10d8cae1d73dda289", "rental_uris": {"ios": "https://dc.lft.to/lastmile_qr_scan", "android": "https://dc.lft.to/lastmile_qr_scan"}, "fusion_lat": 0.0}, {"lat": 38.9010025, "lon": -77.05056166666667, "is_disabled": 0, "fusion_lon": 0.0, "is_reserved": 0, "name": "6bbd3c112acfd7561f5588f59f014e21", "type": "electric_scooter", "bike_id": "6bbd3c112acfd7561f5588f59f014e21", "rental_uris": {"ios": "https://dc.lft.to/lastmile_qr_scan", "android": "https://dc.lft.to/lastmile_qr_scan"}, "fusion_lat": 0.0}, {"lat": 38.96793316666667, "lon": -77.02425533333333, "is_disabled": 0, "fusion_lon": 0.0, "is_reserved": 0, "name": "19dd155f9cfb4198838bdf80cb0593d0", "type": "electric_scooter", "bike_id": "19dd155f9cfb4198838bdf80cb0593d0", "rental_uris": {"ios": "https://dc.lft.to/lastmile_qr_scan", "android": "https://dc.lft.to/lastmile_qr_scan"}, "fusion_lat": 0.0}, {"lat": 38.9418475, "lon": -77.02491583333334, "is_disabled": 0, "fusion_lon": 0.0, "is_reserved": 0, "name": "44c81d3111bb0aaaf1c6a25f9a0bc24a", "type": "electric_scooter", "bike_id": "44c81d3111bb0aaaf1c6a25f9a0bc24a", "rental_uris": {"ios": "https://dc.lft.to/lastmile_qr_scan", "android": "https://dc.lft.to/lastmile_qr_scan"}, "fusion_lat": 0.0}, {"lat": 38.895427166666664, "lon": -76.9833855, "is_disabled": 0, "fusion_lon": 0.0, "is_reserved": 0, "name": "60e2bd74fa31120d9d70c195153ee461", "type": "electric_scooter", "bike_id": "60e2bd74fa31120d9d70c195153ee461", "rental_uris": {"ios": "https://dc.lft.to/lastmile_qr_scan", "android": "https://dc.lft.to/lastmile_qr_scan"}, "fusion_lat": 0.0}, {"lat": 38.917477833333336, "lon": -77.02493866666667, "is_disabled": 0, "fusion_lon": 0.0, "is_reserved": 0, "name": "b69f1800053f8afecba7c925bb8adce3", "type": "electric_scooter", "bike_id": "b69f1800053f8afecba7c925bb8adce3", "rental_uris": {"ios": "https://dc.lft.to/lastmile_qr_scan", "android": "https://dc.lft.to/lastmile_qr_scan"}, "fusion_lat": 0.0}, {"lat": 38.90080416666667, "lon": -76.92961066666666, "is_disabled": 0, "fusion_lon": 0.0, "is_reserved": 0, "name": "6d2b5abf236b59d1bea42d1ae9612fce", "type": "electric_scooter", "bike_id": "6d2b5abf236b59d1bea42d1ae9612fce", "rental_uris": {"ios": "https://dc.lft.to/lastmile_qr_scan", "android": "https://dc.lft.to/lastmile_qr_scan"}, "fusion_lat": 0.0}, {"lat": 38.900303666666666, "lon": -76.99138616666667, "is_disabled": 0, "fusion_lon": 0.0, "is_reserved": 0, "name": "2c94111a9b4a707bc3a81390e077f916", "type": "electric_scooter", "bike_id": "2c94111a9b4a707bc3a81390e077f916", "rental_uris": {"ios": "https://dc.lft.to/lastmile_qr_scan", "android": "https://dc.lft.to/lastmile_qr_scan"}, "fusion_lat": 0.0}, {"lat": 38.84273966666667, "lon": -76.98846383333333, "is_disabled": 0, "fusion_lon": 0.0, "is_reserved": 0, "name": "7e3eafbad25480ed6bfb9f6f49c1e9e5", "type": "electric_bike", "bike_id": "7e3eafbad25480ed6bfb9f6f49c1e9e5", "rental_uris": {"ios": "https://dc.lft.to/lastmile_qr_scan", "android": "https://dc.lft.to/lastmile_qr_scan"}, "fusion_lat": 0.0}, {"lat": 38.9217695, "lon": -77.03838466666667, "is_disabled": 0, "fusion_lon": 0.0, "is_reserved": 0, "name": "a6691e3c86597a0f9f070635259bc189", "type": "electric_scooter", "bike_id": "a6691e3c86597a0f9f070635259bc189", "rental_uris": {"ios": "https://dc.lft.to/lastmile_qr_scan", "android": "https://dc.lft.to/lastmile_qr_scan"}, "fusion_lat": 0.0}, {"lat": 38.923410833333335, "lon": -77.05223066666667, "is_disabled": 0, "fusion_lon": 0.0, "is_reserved": 0, "name": "1508effc649eb21ea261db41bf9dd44e", "type": "electric_scooter", "bike_id": "1508effc649eb21ea261db41bf9dd44e", "rental_uris": {"ios": "https://dc.lft.to/lastmile_qr_scan", "android": "https://dc.lft.to/lastmile_qr_scan"}, "fusion_lat": 0.0}, {"lat": 38.9017115, "lon": -76.9806725, "is_disabled": 0, "fusion_lon": 0.0, "is_reserved": 0, "name": "4af069e7fce98718c19f34667e87319c", "type": "electric_scooter", "bike_id": "4af069e7fce98718c19f34667e87319c", "rental_uris": {"ios": "https://dc.lft.to/lastmile_qr_scan", "android": "https://dc.lft.to/lastmile_qr_scan"}, "fusion_lat": 0.0}, {"lat": 38.916954, "lon": -77.03553016666666, "is_disabled": 0, "fusion_lon": 0.0, "is_reserved": 0, "name": "a5c719100d516f5f494d602c32328183", "type": "electric_scooter", "bike_id": "a5c719100d516f5f494d602c32328183", "rental_uris": {"ios": "https://dc.lft.to/lastmile_qr_scan", "android": "https://dc.lft.to/lastmile_qr_scan"}, "fusion_lat": 0.0}, {"lat": 38.900772, "lon": -77.05146933333333, "is_disabled": 0, "fusion_lon": 0.0, "is_reserved": 0, "name": "1fe85261799aaa6142a74117624519a2", "type": "electric_scooter", "bike_id": "1fe85261799aaa6142a74117624519a2", "rental_uris": {"ios": "https://dc.lft.to/lastmile_qr_scan", "android": "https://dc.lft.to/lastmile_qr_scan"}, "fusion_lat": 0.0}, {"lat": 38.89713966666667, "lon": -77.04828633333334, "is_disabled": 0, "fusion_lon": 0.0, "is_reserved": 0, "name": "5c6502a3b44b604fc3c81cdf2644d661", "type": "electric_scooter", "bike_id": "5c6502a3b44b604fc3c81cdf2644d661", "rental_uris": {"ios": "https://dc.lft.to/lastmile_qr_scan", "android": "https://dc.lft.to/lastmile_qr_scan"}, "fusion_lat": 0.0}, {"lat": 38.902601, "lon": -77.01896883333333, "is_disabled": 0, "fusion_lon": 0.0, "is_reserved": 0, "name": "95e776c0bff0c4a347831da3fc9f3831", "type": "electric_scooter", "bike_id": "95e776c0bff0c4a347831da3fc9f3831", "rental_uris": {"ios": "https://dc.lft.to/lastmile_qr_scan", "android": "https://dc.lft.to/lastmile_qr_scan"}, "fusion_lat": 0.0}, {"lat": 38.922989, "lon": -77.042715, "is_disabled": 0, "fusion_lon": 0.0, "is_reserved": 0, "name": "b6cee246a90ebdc94b020e81b65f70e7", "type": "electric_scooter", "bike_id": "b6cee246a90ebdc94b020e81b65f70e7", "rental_uris": {"ios": "https://dc.lft.to/lastmile_qr_scan", "android": "https://dc.lft.to/lastmile_qr_scan"}, "fusion_lat": 0.0}, {"lat": 38.9236025, "lon": -77.04406633333333, "is_disabled": 0, "fusion_lon": 0.0, "is_reserved": 0, "name": "430273cd153814b8fabb2c9133ff0f60", "type": "electric_scooter", "bike_id": "430273cd153814b8fabb2c9133ff0f60", "rental_uris": {"ios": "https://dc.lft.to/lastmile_qr_scan", "android": "https://dc.lft.to/lastmile_qr_scan"}, "fusion_lat": 0.0}, {"lat": 38.91681666666667, "lon": -77.03690233333333, "is_disabled": 0, "fusion_lon": 0.0, "is_reserved": 0, "name": "04d2a98756495e0e787aa847e825c939", "type": "electric_scooter", "bike_id": "04d2a98756495e0e787aa847e825c939", "rental_uris": {"ios": "https://dc.lft.to/lastmile_qr_scan", "android": "https://dc.lft.to/lastmile_qr_scan"}, "fusion_lat": 0.0}, {"lat": 38.90956083333333, "lon": -77.0241665, "is_disabled": 0, "fusion_lon": 0.0, "is_reserved": 0, "name": "885ec0a9e4654b54e103db0946412ab5", "type": "electric_scooter", "bike_id": "885ec0a9e4654b54e103db0946412ab5", "rental_uris": {"ios": "https://dc.lft.to/lastmile_qr_scan", "android": "https://dc.lft.to/lastmile_qr_scan"}, "fusion_lat": 0.0}, {"lat": 38.8981845, "lon": -77.05029483333334, "is_disabled": 0, "fusion_lon": 0.0, "is_reserved": 0, "name": "fcfdb38fd441d5e32c31ae9e26979ad2", "type": "electric_scooter", "bike_id": "fcfdb38fd441d5e32c31ae9e26979ad2", "rental_uris": {"ios": "https://dc.lft.to/lastmile_qr_scan", "android": "https://dc.lft.to/lastmile_qr_scan"}, "fusion_lat": 0.0}, {"lat": 38.901730666666666, "lon": -77.024821, "is_disabled": 0, "fusion_lon": 0.0, "is_reserved": 0, "name": "3dab2b01279429990989dc270ed6ccda", "type": "electric_scooter", "bike_id": "3dab2b01279429990989dc270ed6ccda", "rental_uris": {"ios": "https://dc.lft.to/lastmile_qr_scan", "android": "https://dc.lft.to/lastmile_qr_scan"}, "fusion_lat": 0.0}, {"lat": 38.923574333333335, "lon": -77.03203783333333, "is_disabled": 0, "fusion_lon": 0.0, "is_reserved": 0, "name": "35400eb1fec797a7177e6a017bc0db20", "type": "electric_scooter", "bike_id": "35400eb1fec797a7177e6a017bc0db20", "rental_uris": {"ios": "https://dc.lft.to/lastmile_qr_scan", "android": "https://dc.lft.to/lastmile_qr_scan"}, "fusion_lat": 0.0}, {"lat": 38.909882, "lon": -77.040131, "is_disabled": 0, "fusion_lon": 0.0, "is_reserved": 0, "name": "7ff484c008eb8674d3a13ac420b0186c", "type": "electric_scooter", "bike_id": "7ff484c008eb8674d3a13ac420b0186c", "rental_uris": {"ios": "https://dc.lft.to/lastmile_qr_scan", "android": "https://dc.lft.to/lastmile_qr_scan"}, "fusion_lat": 0.0}, {"lat": 38.915244, "lon": -77.01428583333333, "is_disabled": 0, "fusion_lon": 0.0, "is_reserved": 0, "name": "49bd8cb700fd855f87f833e32d7f472e", "type": "electric_scooter", "bike_id": "49bd8cb700fd855f87f833e32d7f472e", "rental_uris": {"ios": "https://dc.lft.to/lastmile_qr_scan", "android": "https://dc.lft.to/lastmile_qr_scan"}, "fusion_lat": 0.0}, {"lat": 38.91811933333334, "lon": -77.03174366666667, "is_disabled": 0, "fusion_lon": 0.0, "is_reserved": 0, "name": "e7b9e53747d8cd9f6aba0acc6abb9117", "type": "electric_scooter", "bike_id": "e7b9e53747d8cd9f6aba0acc6abb9117", "rental_uris": {"ios": "https://dc.lft.to/lastmile_qr_scan", "android": "https://dc.lft.to/lastmile_qr_scan"}, "fusion_lat": 0.0}, {"lat": 38.9167345, "lon": -77.02888316666666, "is_disabled": 0, "fusion_lon": 0.0, "is_reserved": 0, "name": "92ccc81a5ec8c3ef8766ddd8d045a540", "type": "electric_scooter", "bike_id": "92ccc81a5ec8c3ef8766ddd8d045a540", "rental_uris": {"ios": "https://dc.lft.to/lastmile_qr_scan", "android": "https://dc.lft.to/lastmile_qr_scan"}, "fusion_lat": 0.0}, {"lat": 38.955894666666666, "lon": -77.03362116666666, "is_disabled": 0, "fusion_lon": 0.0, "is_reserved": 0, "name": "7a0303cb648d9697c260b3b8391e0a89", "type": "electric_scooter", "bike_id": "7a0303cb648d9697c260b3b8391e0a89", "rental_uris": {"ios": "https://dc.lft.to/lastmile_qr_scan", "android": "https://dc.lft.to/lastmile_qr_scan"}, "fusion_lat": 0.0}, {"lat": 38.915476, "lon": -77.04157566666666, "is_disabled": 0, "fusion_lon": 0.0, "is_reserved": 0, "name": "2ee18c626dcdb0482c63483ef5aa2a9a", "type": "electric_scooter", "bike_id": "2ee18c626dcdb0482c63483ef5aa2a9a", "rental_uris": {"ios": "https://dc.lft.to/lastmile_qr_scan", "android": "https://dc.lft.to/lastmile_qr_scan"}, "fusion_lat": 0.0}, {"lat": 38.9370435, "lon": -77.02397716666667, "is_disabled": 0, "fusion_lon": 0.0, "is_reserved": 0, "name": "a04c2602aa7d726bac78cddd389a3ae4", "type": "electric_scooter", "bike_id": "a04c2602aa7d726bac78cddd389a3ae4", "rental_uris": {"ios": "https://dc.lft.to/lastmile_qr_scan", "android": "https://dc.lft.to/lastmile_qr_scan"}, "fusion_lat": 0.0}, {"lat": 38.87794383333333, "lon": -77.00119833333333, "is_disabled": 0, "fusion_lon": 0.0, "is_reserved": 0, "name": "660735011cdd660dff638b2ec0f22cdf", "type": "electric_scooter", "bike_id": "660735011cdd660dff638b2ec0f22cdf", "rental_uris": {"ios": "https://dc.lft.to/lastmile_qr_scan", "android": "https://dc.lft.to/lastmile_qr_scan"}, "fusion_lat": 0.0}, {"lat": 38.9113275, "lon": -77.041928, "is_disabled": 0, "fusion_lon": 0.0, "is_reserved": 0, "name": "291e47fe44da1388dce189b2dd4ecbf7", "type": "electric_scooter", "bike_id": "291e47fe44da1388dce189b2dd4ecbf7", "rental_uris": {"ios": "https://dc.lft.to/lastmile_qr_scan", "android": "https://dc.lft.to/lastmile_qr_scan"}, "fusion_lat": 0.0}, {"lat": 38.914165, "lon": -77.018039, "is_disabled": 0, "fusion_lon": 0.0, "is_reserved": 0, "name": "a521cc117b6f4557bd3ef2555e0e3e97", "type": "electric_scooter", "bike_id": "a521cc117b6f4557bd3ef2555e0e3e97", "rental_uris": {"ios": "https://dc.lft.to/lastmile_qr_scan", "android": "https://dc.lft.to/lastmile_qr_scan"}, "fusion_lat": 0.0}, {"lat": 38.9290135, "lon": -77.02740716666666, "is_disabled": 0, "fusion_lon": 0.0, "is_reserved": 0, "name": "3c69e751d68cdeb9ce2d1c46388826bb", "type": "electric_scooter", "bike_id": "3c69e751d68cdeb9ce2d1c46388826bb", "rental_uris": {"ios": "https://dc.lft.to/lastmile_qr_scan", "android": "https://dc.lft.to/lastmile_qr_scan"}, "fusion_lat": 0.0}, {"lat": 38.895954333333336, "lon": -77.02342733333333, "is_disabled": 0, "fusion_lon": 0.0, "is_reserved": 0, "name": "26a3bddf3867d935b18b1fc708687500", "type": "electric_scooter", "bike_id": "26a3bddf3867d935b18b1fc708687500", "rental_uris": {"ios": "https://dc.lft.to/lastmile_qr_scan", "android": "https://dc.lft.to/lastmile_qr_scan"}, "fusion_lat": 0.0}, {"lat": 38.9072945, "lon": -77.03176383333333, "is_disabled": 0, "fusion_lon": 0.0, "is_reserved": 0, "name": "e44294f084e994c61c0e7d3e35a38f62", "type": "electric_scooter", "bike_id": "e44294f084e994c61c0e7d3e35a38f62", "rental_uris": {"ios": "https://dc.lft.to/lastmile_qr_scan", "android": "https://dc.lft.to/lastmile_qr_scan"}, "fusion_lat": 0.0}, {"lat": 38.972529, "lon": -76.99274533333333, "is_disabled": 0, "fusion_lon": 0.0, "is_reserved": 0, "name": "dd9c128c658484c20aa75d20a0e79301", "type": "electric_bike", "bike_id": "dd9c128c658484c20aa75d20a0e79301", "rental_uris": {"ios": "https://dc.lft.to/lastmile_qr_scan", "android": "https://dc.lft.to/lastmile_qr_scan"}, "fusion_lat": 0.0}, {"lat": 38.90019133333333, "lon": -77.01184683333334, "is_disabled": 0, "fusion_lon": 0.0, "is_reserved": 0, "name": "2a7bce38484fdddd831c12e890286bb9", "type": "electric_scooter", "bike_id": "2a7bce38484fdddd831c12e890286bb9", "rental_uris": {"ios": "https://dc.lft.to/lastmile_qr_scan", "android": "https://dc.lft.to/lastmile_qr_scan"}, "fusion_lat": 0.0}, {"lat": 38.944950666666664, "lon": -77.0068095, "is_disabled": 0, "fusion_lon": 0.0, "is_reserved": 0, "name": "a722f2bb2241c942cca01163b4972949", "type": "electric_bike", "bike_id": "a722f2bb2241c942cca01163b4972949", "rental_uris": {"ios": "https://dc.lft.to/lastmile_qr_scan", "android": "https://dc.lft.to/lastmile_qr_scan"}, "fusion_lat": 0.0}, {"lat": 38.945820833333336, "lon": -76.96698566666667, "is_disabled": 0, "fusion_lon": 0.0, "is_reserved": 0, "name": "1178d90c7d37e64d251b1eaad985b337", "type": "electric_bike", "bike_id": "1178d90c7d37e64d251b1eaad985b337", "rental_uris": {"ios": "https://dc.lft.to/lastmile_qr_scan", "android": "https://dc.lft.to/lastmile_qr_scan"}, "fusion_lat": 0.0}, {"lat": 38.863815333333335, "lon": -76.99123816666666, "is_disabled": 0, "fusion_lon": 0.0, "is_reserved": 0, "name": "7373b1ad77601b6490c8b8ea06e3f167", "type": "electric_scooter", "bike_id": "7373b1ad77601b6490c8b8ea06e3f167", "rental_uris": {"ios": "https://dc.lft.to/lastmile_qr_scan", "android": "https://dc.lft.to/lastmile_qr_scan"}, "fusion_lat": 0.0}, {"lat": 38.939765333333334, "lon": -77.02530633333333, "is_disabled": 0, "fusion_lon": 0.0, "is_reserved": 0, "name": "7f1282bfccb04f0f98a6d7334d8eeaf4", "type": "electric_bike", "bike_id": "7f1282bfccb04f0f98a6d7334d8eeaf4", "rental_uris": {"ios": "https://dc.lft.to/lastmile_qr_scan", "android": "https://dc.lft.to/lastmile_qr_scan"}, "fusion_lat": 0.0}, {"lat": 38.90977566666667, "lon": -77.02180616666666, "is_disabled": 0, "fusion_lon": 0.0, "is_reserved": 0, "name": "cec0e6770a1492a948b13869134ff728", "type": "electric_scooter", "bike_id": "cec0e6770a1492a948b13869134ff728", "rental_uris": {"ios": "https://dc.lft.to/lastmile_qr_scan", "android": "https://dc.lft.to/lastmile_qr_scan"}, "fusion_lat": 0.0}, {"lat": 38.941054666666666, "lon": -77.000459, "is_disabled": 0, "fusion_lon": 0.0, "is_reserved": 0, "name": "83fae6a9f03661f6dff1d80f82b1314e", "type": "electric_scooter", "bike_id": "83fae6a9f03661f6dff1d80f82b1314e", "rental_uris": {"ios": "https://dc.lft.to/lastmile_qr_scan", "android": "https://dc.lft.to/lastmile_qr_scan"}, "fusion_lat": 0.0}, {"lat": 38.926517833333335, "lon": -77.041384, "is_disabled": 0, "fusion_lon": 0.0, "is_reserved": 0, "name": "e1135aef15ab46768d2a79e1c538c2d4", "type": "electric_scooter", "bike_id": "e1135aef15ab46768d2a79e1c538c2d4", "rental_uris": {"ios": "https://dc.lft.to/lastmile_qr_scan", "android": "https://dc.lft.to/lastmile_qr_scan"}, "fusion_lat": 0.0}, {"lat": 38.904993833333336, "lon": -77.06547466666666, "is_disabled": 0, "fusion_lon": 0.0, "is_reserved": 0, "name": "2d7dc2bd96542f1ef2c6d40aec4ab17b", "type": "electric_scooter", "bike_id": "2d7dc2bd96542f1ef2c6d40aec4ab17b", "rental_uris": {"ios": "https://dc.lft.to/lastmile_qr_scan", "android": "https://dc.lft.to/lastmile_qr_scan"}, "fusion_lat": 0.0}, {"lat": 38.907727666666666, "lon": -76.9971315, "is_disabled": 0, "fusion_lon": 0.0, "is_reserved": 0, "name": "e1aac3fb17cd23c5d783ae80ae68958b", "type": "electric_scooter", "bike_id": "e1aac3fb17cd23c5d783ae80ae68958b", "rental_uris": {"ios": "https://dc.lft.to/lastmile_qr_scan", "android": "https://dc.lft.to/lastmile_qr_scan"}, "fusion_lat": 0.0}, {"lat": 38.918871, "lon": -77.024419, "is_disabled": 0, "fusion_lon": 0.0, "is_reserved": 0, "name": "9bf7019ec54392feedc567d582c1061b", "type": "electric_scooter", "bike_id": "9bf7019ec54392feedc567d582c1061b", "rental_uris": {"ios": "https://dc.lft.to/lastmile_qr_scan", "android": "https://dc.lft.to/lastmile_qr_scan"}, "fusion_lat": 0.0}, {"lat": 38.88007016666667, "lon": -76.99740983333334, "is_disabled": 0, "fusion_lon": 0.0, "is_reserved": 0, "name": "906d9701b5500e2deec5b28c707fbe66", "type": "electric_scooter", "bike_id": "906d9701b5500e2deec5b28c707fbe66", "rental_uris": {"ios": "https://dc.lft.to/lastmile_qr_scan", "android": "https://dc.lft.to/lastmile_qr_scan"}, "fusion_lat": 0.0}, {"lat": 38.90621983333333, "lon": -77.02959766666666, "is_disabled": 0, "fusion_lon": 0.0, "is_reserved": 0, "name": "0ce04d5d3a969c2fcce09a808b7c56ad", "type": "electric_scooter", "bike_id": "0ce04d5d3a969c2fcce09a808b7c56ad", "rental_uris": {"ios": "https://dc.lft.to/lastmile_qr_scan", "android": "https://dc.lft.to/lastmile_qr_scan"}, "fusion_lat": 0.0}, {"lat": 38.9055135, "lon": -77.04655166666667, "is_disabled": 0, "fusion_lon": 0.0, "is_reserved": 0, "name": "6407cea75894d1f9184e58bcef35efd2", "type": "electric_scooter", "bike_id": "6407cea75894d1f9184e58bcef35efd2", "rental_uris": {"ios": "https://dc.lft.to/lastmile_qr_scan", "android": "https://dc.lft.to/lastmile_qr_scan"}, "fusion_lat": 0.0}, {"lat": 38.9198945, "lon": -77.0476175, "is_disabled": 0, "fusion_lon": 0.0, "is_reserved": 0, "name": "c84cf2a8193475dacb961ba4ed289c0a", "type": "electric_scooter", "bike_id": "c84cf2a8193475dacb961ba4ed289c0a", "rental_uris": {"ios": "https://dc.lft.to/lastmile_qr_scan", "android": "https://dc.lft.to/lastmile_qr_scan"}, "fusion_lat": 0.0}, {"lat": 38.88322333333333, "lon": -76.9254005, "is_disabled": 0, "fusion_lon": 0.0, "is_reserved": 0, "name": "f39a870a9ef580adefb567a4e236e80d", "type": "electric_scooter", "bike_id": "f39a870a9ef580adefb567a4e236e80d", "rental_uris": {"ios": "https://dc.lft.to/lastmile_qr_scan", "android": "https://dc.lft.to/lastmile_qr_scan"}, "fusion_lat": 0.0}, {"lat": 38.90735566666667, "lon": -77.028016, "is_disabled": 0, "fusion_lon": 0.0, "is_reserved": 0, "name": "699189681e7732a2ac791ffe9daaf294", "type": "electric_scooter", "bike_id": "699189681e7732a2ac791ffe9daaf294", "rental_uris": {"ios": "https://dc.lft.to/lastmile_qr_scan", "android": "https://dc.lft.to/lastmile_qr_scan"}, "fusion_lat": 0.0}, {"lat": 38.916906833333336, "lon": -77.02436983333334, "is_disabled": 0, "fusion_lon": 0.0, "is_reserved": 0, "name": "81a801a2379039d7f2c8a11b2793dcb2", "type": "electric_scooter", "bike_id": "81a801a2379039d7f2c8a11b2793dcb2", "rental_uris": {"ios": "https://dc.lft.to/lastmile_qr_scan", "android": "https://dc.lft.to/lastmile_qr_scan"}, "fusion_lat": 0.0}, {"lat": 38.9011515, "lon": -77.049877, "is_disabled": 0, "fusion_lon": 0.0, "is_reserved": 0, "name": "c4089c6763ca879b9e5c152e1433b3d6", "type": "electric_scooter", "bike_id": "c4089c6763ca879b9e5c152e1433b3d6", "rental_uris": {"ios": "https://dc.lft.to/lastmile_qr_scan", "android": "https://dc.lft.to/lastmile_qr_scan"}, "fusion_lat": 0.0}, {"lat": 38.94247433333334, "lon": -77.03625383333333, "is_disabled": 0, "fusion_lon": 0.0, "is_reserved": 0, "name": "355fff965533ec7f49841c4e956c9855", "type": "electric_scooter", "bike_id": "355fff965533ec7f49841c4e956c9855", "rental_uris": {"ios": "https://dc.lft.to/lastmile_qr_scan", "android": "https://dc.lft.to/lastmile_qr_scan"}, "fusion_lat": 0.0}, {"lat": 38.9169155, "lon": -77.03767216666667, "is_disabled": 0, "fusion_lon": 0.0, "is_reserved": 0, "name": "ee59edf9511eba0f4ea82e45252b0fb1", "type": "electric_bike", "bike_id": "ee59edf9511eba0f4ea82e45252b0fb1", "rental_uris": {"ios": "https://dc.lft.to/lastmile_qr_scan", "android": "https://dc.lft.to/lastmile_qr_scan"}, "fusion_lat": 0.0}, {"lat": 38.87356666666667, "lon": -77.00089316666667, "is_disabled": 0, "fusion_lon": 0.0, "is_reserved": 0, "name": "fc906c4d660ab136fd761c8212551a87", "type": "electric_scooter", "bike_id": "fc906c4d660ab136fd761c8212551a87", "rental_uris": {"ios": "https://dc.lft.to/lastmile_qr_scan", "android": "https://dc.lft.to/lastmile_qr_scan"}, "fusion_lat": 0.0}, {"lat": 38.894959666666665, "lon": -77.003579, "is_disabled": 0, "fusion_lon": 0.0, "is_reserved": 0, "name": "2444de6d4fc63988da3eb91368a1149e", "type": "electric_scooter", "bike_id": "2444de6d4fc63988da3eb91368a1149e", "rental_uris": {"ios": "https://dc.lft.to/lastmile_qr_scan", "android": "https://dc.lft.to/lastmile_qr_scan"}, "fusion_lat": 0.0}, {"lat": 38.93599916666667, "lon": -77.0212175, "is_disabled": 0, "fusion_lon": 0.0, "is_reserved": 0, "name": "6eb5fce1d57f9903432b7dc118895b22", "type": "electric_bike", "bike_id": "6eb5fce1d57f9903432b7dc118895b22", "rental_uris": {"ios": "https://dc.lft.to/lastmile_qr_scan", "android": "https://dc.lft.to/lastmile_qr_scan"}, "fusion_lat": 0.0}, {"lat": 38.89780116666667, "lon": -77.02721216666667, "is_disabled": 0, "fusion_lon": 0.0, "is_reserved": 0, "name": "4a53ae4162a19df411df96b23bd0312c", "type": "electric_scooter", "bike_id": "4a53ae4162a19df411df96b23bd0312c", "rental_uris": {"ios": "https://dc.lft.to/lastmile_qr_scan", "android": "https://dc.lft.to/lastmile_qr_scan"}, "fusion_lat": 0.0}, {"lat": 38.90076066666666, "lon": -77.04918233333333, "is_disabled": 0, "fusion_lon": 0.0, "is_reserved": 0, "name": "e4b1b7ab512a337c1980b0fddfffe593", "type": "electric_scooter", "bike_id": "e4b1b7ab512a337c1980b0fddfffe593", "rental_uris": {"ios": "https://dc.lft.to/lastmile_qr_scan", "android": "https://dc.lft.to/lastmile_qr_scan"}, "fusion_lat": 0.0}, {"lat": 38.917176, "lon": -77.02403533333333, "is_disabled": 0, "fusion_lon": 0.0, "is_reserved": 0, "name": "672cd0f5e4f1fd6cda1d73c918fb9a8b", "type": "electric_scooter", "bike_id": "672cd0f5e4f1fd6cda1d73c918fb9a8b", "rental_uris": {"ios": "https://dc.lft.to/lastmile_qr_scan", "android": "https://dc.lft.to/lastmile_qr_scan"}, "fusion_lat": 0.0}, {"lat": 38.89238233333333, "lon": -77.04875983333334, "is_disabled": 0, "fusion_lon": 0.0, "is_reserved": 0, "name": "086eb6718174e2cb95c25db980cf7f8b", "type": "electric_scooter", "bike_id": "086eb6718174e2cb95c25db980cf7f8b", "rental_uris": {"ios": "https://dc.lft.to/lastmile_qr_scan", "android": "https://dc.lft.to/lastmile_qr_scan"}, "fusion_lat": 0.0}, {"lat": 38.88252166666667, "lon": -77.0055145, "is_disabled": 0, "fusion_lon": 0.0, "is_reserved": 0, "name": "91a967b140398e01931ad904a0bd3f05", "type": "electric_scooter", "bike_id": "91a967b140398e01931ad904a0bd3f05", "rental_uris": {"ios": "https://dc.lft.to/lastmile_qr_scan", "android": "https://dc.lft.to/lastmile_qr_scan"}, "fusion_lat": 0.0}, {"lat": 38.89877333333333, "lon": -77.05002233333333, "is_disabled": 0, "fusion_lon": 0.0, "is_reserved": 0, "name": "3b7b66174571255d06584959a37475c2", "type": "electric_scooter", "bike_id": "3b7b66174571255d06584959a37475c2", "rental_uris": {"ios": "https://dc.lft.to/lastmile_qr_scan", "android": "https://dc.lft.to/lastmile_qr_scan"}, "fusion_lat": 0.0}, {"lat": 38.87265983333333, "lon": -77.01360916666667, "is_disabled": 0, "fusion_lon": 0.0, "is_reserved": 0, "name": "b00e68e2785ef6add364f0efe68c4547", "type": "electric_scooter", "bike_id": "b00e68e2785ef6add364f0efe68c4547", "rental_uris": {"ios": "https://dc.lft.to/lastmile_qr_scan", "android": "https://dc.lft.to/lastmile_qr_scan"}, "fusion_lat": 0.0}, {"lat": 38.8696035, "lon": -76.978537, "is_disabled": 0, "fusion_lon": 0.0, "is_reserved": 0, "name": "36b35ea7834851de056e0bd15f1fad5d", "type": "electric_scooter", "bike_id": "36b35ea7834851de056e0bd15f1fad5d", "rental_uris": {"ios": "https://dc.lft.to/lastmile_qr_scan", "android": "https://dc.lft.to/lastmile_qr_scan"}, "fusion_lat": 0.0}, {"lat": 38.898739166666665, "lon": -76.99693416666666, "is_disabled": 0, "fusion_lon": 0.0, "is_reserved": 0, "name": "98b0128d48bb66b91bcea2af2d25b357", "type": "electric_scooter", "bike_id": "98b0128d48bb66b91bcea2af2d25b357", "rental_uris": {"ios": "https://dc.lft.to/lastmile_qr_scan", "android": "https://dc.lft.to/lastmile_qr_scan"}, "fusion_lat": 0.0}, {"lat": 38.92029633333333, "lon": -77.03855716666666, "is_disabled": 0, "fusion_lon": 0.0, "is_reserved": 0, "name": "b0c958a778c0493b833086eaa10387c2", "type": "electric_scooter", "bike_id": "b0c958a778c0493b833086eaa10387c2", "rental_uris": {"ios": "https://dc.lft.to/lastmile_qr_scan", "android": "https://dc.lft.to/lastmile_qr_scan"}, "fusion_lat": 0.0}, {"lat": 38.92175983333333, "lon": -77.04020666666666, "is_disabled": 0, "fusion_lon": 0.0, "is_reserved": 0, "name": "0b21d98f0f64f09a9b939b17f6620f49", "type": "electric_scooter", "bike_id": "0b21d98f0f64f09a9b939b17f6620f49", "rental_uris": {"ios": "https://dc.lft.to/lastmile_qr_scan", "android": "https://dc.lft.to/lastmile_qr_scan"}, "fusion_lat": 0.0}, {"lat": 38.914763, "lon": -77.0127365, "is_disabled": 0, "fusion_lon": 0.0, "is_reserved": 0, "name": "5f0b85ccf2650b480434b32f1a8f6473", "type": "electric_scooter", "bike_id": "5f0b85ccf2650b480434b32f1a8f6473", "rental_uris": {"ios": "https://dc.lft.to/lastmile_qr_scan", "android": "https://dc.lft.to/lastmile_qr_scan"}, "fusion_lat": 0.0}, {"lat": 38.91916066666667, "lon": -77.01200866666667, "is_disabled": 0, "fusion_lon": 0.0, "is_reserved": 0, "name": "68e7fb374d6be896222f20410a5b0e90", "type": "electric_scooter", "bike_id": "68e7fb374d6be896222f20410a5b0e90", "rental_uris": {"ios": "https://dc.lft.to/lastmile_qr_scan", "android": "https://dc.lft.to/lastmile_qr_scan"}, "fusion_lat": 0.0}, {"lat": 38.924953, "lon": -77.0244945, "is_disabled": 0, "fusion_lon": 0.0, "is_reserved": 0, "name": "5f5ca1b0102a9d2538bfef64f84de3f5", "type": "electric_scooter", "bike_id": "5f5ca1b0102a9d2538bfef64f84de3f5", "rental_uris": {"ios": "https://dc.lft.to/lastmile_qr_scan", "android": "https://dc.lft.to/lastmile_qr_scan"}, "fusion_lat": 0.0}, {"lat": 38.928673833333335, "lon": -77.027668, "is_disabled": 0, "fusion_lon": 0.0, "is_reserved": 0, "name": "c0f0df053eb8f221271d88e6b40cb775", "type": "electric_scooter", "bike_id": "c0f0df053eb8f221271d88e6b40cb775", "rental_uris": {"ios": "https://dc.lft.to/lastmile_qr_scan", "android": "https://dc.lft.to/lastmile_qr_scan"}, "fusion_lat": 0.0}, {"lat": 38.92088916666667, "lon": -77.075542, "is_disabled": 0, "fusion_lon": 0.0, "is_reserved": 0, "name": "22800e6f326d98336cbb12aa0bcbc0d6", "type": "electric_scooter", "bike_id": "22800e6f326d98336cbb12aa0bcbc0d6", "rental_uris": {"ios": "https://dc.lft.to/lastmile_qr_scan", "android": "https://dc.lft.to/lastmile_qr_scan"}, "fusion_lat": 0.0}, {"lat": 38.89219333333333, "lon": -77.02655916666667, "is_disabled": 0, "fusion_lon": 0.0, "is_reserved": 0, "name": "68779cda15b783d7935afe3010dc3527", "type": "electric_scooter", "bike_id": "68779cda15b783d7935afe3010dc3527", "rental_uris": {"ios": "https://dc.lft.to/lastmile_qr_scan", "android": "https://dc.lft.to/lastmile_qr_scan"}, "fusion_lat": 0.0}, {"lat": 38.92427266666667, "lon": -77.0201915, "is_disabled": 0, "fusion_lon": 0.0, "is_reserved": 0, "name": "cde0965b381eabe97e83cc0b3c0af09a", "type": "electric_scooter", "bike_id": "cde0965b381eabe97e83cc0b3c0af09a", "rental_uris": {"ios": "https://dc.lft.to/lastmile_qr_scan", "android": "https://dc.lft.to/lastmile_qr_scan"}, "fusion_lat": 0.0}, {"lat": 38.88082383333333, "lon": -76.98533183333333, "is_disabled": 0, "fusion_lon": 0.0, "is_reserved": 0, "name": "a5c97ba68790e7f8ca0262d49bd1894f", "type": "electric_scooter", "bike_id": "a5c97ba68790e7f8ca0262d49bd1894f", "rental_uris": {"ios": "https://dc.lft.to/lastmile_qr_scan", "android": "https://dc.lft.to/lastmile_qr_scan"}, "fusion_lat": 0.0}, {"lat": 38.914728, "lon": -77.02457316666667, "is_disabled": 0, "fusion_lon": 0.0, "is_reserved": 0, "name": "33c893b1bded812ef32767ffbbb21d6e", "type": "electric_scooter", "bike_id": "33c893b1bded812ef32767ffbbb21d6e", "rental_uris": {"ios": "https://dc.lft.to/lastmile_qr_scan", "android": "https://dc.lft.to/lastmile_qr_scan"}, "fusion_lat": 0.0}, {"lat": 38.905439333333334, "lon": -76.99471283333334, "is_disabled": 0, "fusion_lon": 0.0, "is_reserved": 0, "name": "f561697bc584e40a3a69526161ca0566", "type": "electric_scooter", "bike_id": "f561697bc584e40a3a69526161ca0566", "rental_uris": {"ios": "https://dc.lft.to/lastmile_qr_scan", "android": "https://dc.lft.to/lastmile_qr_scan"}, "fusion_lat": 0.0}, {"lat": 38.912995333333335, "lon": -77.01454016666666, "is_disabled": 0, "fusion_lon": 0.0, "is_reserved": 0, "name": "d7e40e8e318cd8b263c2f476d4716976", "type": "electric_scooter", "bike_id": "d7e40e8e318cd8b263c2f476d4716976", "rental_uris": {"ios": "https://dc.lft.to/lastmile_qr_scan", "android": "https://dc.lft.to/lastmile_qr_scan"}, "fusion_lat": 0.0}, {"lat": 38.92175533333333, "lon": -77.03838216666666, "is_disabled": 0, "fusion_lon": 0.0, "is_reserved": 0, "name": "15e299a385302e80a77688d54f16c819", "type": "electric_scooter", "bike_id": "15e299a385302e80a77688d54f16c819", "rental_uris": {"ios": "https://dc.lft.to/lastmile_qr_scan", "android": "https://dc.lft.to/lastmile_qr_scan"}, "fusion_lat": 0.0}, {"lat": 38.9053015, "lon": -77.00610083333333, "is_disabled": 0, "fusion_lon": 0.0, "is_reserved": 0, "name": "082e2be6866bd5e423c40dee14d1255b", "type": "electric_scooter", "bike_id": "082e2be6866bd5e423c40dee14d1255b", "rental_uris": {"ios": "https://dc.lft.to/lastmile_qr_scan", "android": "https://dc.lft.to/lastmile_qr_scan"}, "fusion_lat": 0.0}, {"lat": 38.937112666666664, "lon": -77.0364075, "is_disabled": 0, "fusion_lon": 0.0, "is_reserved": 0, "name": "cef7965a9f179329b420687b6ad63047", "type": "electric_scooter", "bike_id": "cef7965a9f179329b420687b6ad63047", "rental_uris": {"ios": "https://dc.lft.to/lastmile_qr_scan", "android": "https://dc.lft.to/lastmile_qr_scan"}, "fusion_lat": 0.0}, {"lat": 38.91401233333333, "lon": -77.02485416666667, "is_disabled": 0, "fusion_lon": 0.0, "is_reserved": 0, "name": "f0f43d258244774aad4469a41614cd35", "type": "electric_scooter", "bike_id": "f0f43d258244774aad4469a41614cd35", "rental_uris": {"ios": "https://dc.lft.to/lastmile_qr_scan", "android": "https://dc.lft.to/lastmile_qr_scan"}, "fusion_lat": 0.0}, {"lat": 38.92283416666667, "lon": -76.99773033333334, "is_disabled": 0, "fusion_lon": 0.0, "is_reserved": 0, "name": "8a47456d5453c78417cdaf6802931339", "type": "electric_bike", "bike_id": "8a47456d5453c78417cdaf6802931339", "rental_uris": {"ios": "https://dc.lft.to/lastmile_qr_scan", "android": "https://dc.lft.to/lastmile_qr_scan"}, "fusion_lat": 0.0}, {"lat": 38.915966, "lon": -77.0489935, "is_disabled": 0, "fusion_lon": 0.0, "is_reserved": 0, "name": "3339f12b98f4de38989d7beae5ddba09", "type": "electric_scooter", "bike_id": "3339f12b98f4de38989d7beae5ddba09", "rental_uris": {"ios": "https://dc.lft.to/lastmile_qr_scan", "android": "https://dc.lft.to/lastmile_qr_scan"}, "fusion_lat": 0.0}, {"lat": 38.898794333333335, "lon": -77.053585, "is_disabled": 0, "fusion_lon": 0.0, "is_reserved": 0, "name": "64b7249bd8c414f8956dd4b3b712e591", "type": "electric_scooter", "bike_id": "64b7249bd8c414f8956dd4b3b712e591", "rental_uris": {"ios": "https://dc.lft.to/lastmile_qr_scan", "android": "https://dc.lft.to/lastmile_qr_scan"}, "fusion_lat": 0.0}, {"lat": 38.902447, "lon": -77.01537716666667, "is_disabled": 0, "fusion_lon": 0.0, "is_reserved": 0, "name": "866bde3717a99a2662a6d0c14f3e1d7f", "type": "electric_scooter", "bike_id": "866bde3717a99a2662a6d0c14f3e1d7f", "rental_uris": {"ios": "https://dc.lft.to/lastmile_qr_scan", "android": "https://dc.lft.to/lastmile_qr_scan"}, "fusion_lat": 0.0}, {"lat": 38.8922165, "lon": -77.04505966666666, "is_disabled": 0, "fusion_lon": 0.0, "is_reserved": 0, "name": "8aa788d6efeae3c990fc4c9f1d638679", "type": "electric_scooter", "bike_id": "8aa788d6efeae3c990fc4c9f1d638679", "rental_uris": {"ios": "https://dc.lft.to/lastmile_qr_scan", "android": "https://dc.lft.to/lastmile_qr_scan"}, "fusion_lat": 0.0}, {"lat": 38.87832983333333, "lon": -77.01935983333334, "is_disabled": 0, "fusion_lon": 0.0, "is_reserved": 0, "name": "c23e7c2274334499be2e2758b5cb401d", "type": "electric_scooter", "bike_id": "c23e7c2274334499be2e2758b5cb401d", "rental_uris": {"ios": "https://dc.lft.to/lastmile_qr_scan", "android": "https://dc.lft.to/lastmile_qr_scan"}, "fusion_lat": 0.0}, {"lat": 38.934486666666665, "lon": -77.03878866666666, "is_disabled": 0, "fusion_lon": 0.0, "is_reserved": 0, "name": "0c782bc35c6629240f8371ce6afabd4d", "type": "electric_scooter", "bike_id": "0c782bc35c6629240f8371ce6afabd4d", "rental_uris": {"ios": "https://dc.lft.to/lastmile_qr_scan", "android": "https://dc.lft.to/lastmile_qr_scan"}, "fusion_lat": 0.0}, {"lat": 38.887345, "lon": -77.0212505, "is_disabled": 0, "fusion_lon": 0.0, "is_reserved": 0, "name": "a0514b6943ae371058f57bf164b0d20a", "type": "electric_scooter", "bike_id": "a0514b6943ae371058f57bf164b0d20a", "rental_uris": {"ios": "https://dc.lft.to/lastmile_qr_scan", "android": "https://dc.lft.to/lastmile_qr_scan"}, "fusion_lat": 0.0}, {"lat": 38.916951166666664, "lon": -77.02741533333334, "is_disabled": 0, "fusion_lon": 0.0, "is_reserved": 0, "name": "b3870a2a203325d0dfdd0fdd6ce09f81", "type": "electric_scooter", "bike_id": "b3870a2a203325d0dfdd0fdd6ce09f81", "rental_uris": {"ios": "https://dc.lft.to/lastmile_qr_scan", "android": "https://dc.lft.to/lastmile_qr_scan"}, "fusion_lat": 0.0},