{"data": {"bikes": [{"lon": -77.024795, "bike_id": "e709d58c51e6c19a30aa592e189a509b", "lat": 38.925941, "fusion_lon": 0.0, "fusion_lat": 0.0, "type": "electric_scooter", "name": "e709d58c51e6c19a30aa592e189a509b", "is_disabled": 0, "rental_uris": {"ios": "https://dc.lft.to/lastmile_qr_scan", "android": "https://dc.lft.to/lastmile_qr_scan"}, "is_reserved": 0}, {"lon": -77.038967, "bike_id": "ed86b0bf269418f03e655fd5a02c3644", "lat": 38.9233365, "fusion_lon": 0.0, "fusion_lat": 0.0, "type": "electric_scooter", "name": "ed86b0bf269418f03e655fd5a02c3644", "is_disabled": 0, "rental_uris": {"ios": "https://dc.lft.to/lastmile_qr_scan", "android": "https://dc.lft.to/lastmile_qr_scan"}, "is_reserved": 0}, {"lon": -77.02440483333334, "bike_id": "3138734c38ddb301a4c989d04cff646f", "lat": 38.935995, "fusion_lon": 0.0, "fusion_lat": 0.0, "type": "electric_scooter", "name": "3138734c38ddb301a4c989d04cff646f", "is_disabled": 0, "rental_uris": {"ios": "https://dc.lft.to/lastmile_qr_scan", "android": "https://dc.lft.to/lastmile_qr_scan"}, "is_reserved": 0}, {"lon": -77.02706816666667, "bike_id": "a9e4356cfbcadda1dcde772130e04963", "lat": 38.897326666666665, "fusion_lon": 0.0, "fusion_lat": 0.0, "type": "electric_scooter", "name": "a9e4356cfbcadda1dcde772130e04963", "is_disabled": 0, "rental_uris": {"ios": "https://dc.lft.to/lastmile_qr_scan", "android": "https://dc.lft.to/lastmile_qr_scan"}, "is_reserved": 0}, {"lon": -77.02805466666666, "bike_id": "2eea79052e53c65952ef555903448679", "lat": 38.9419185, "fusion_lon": 0.0, "fusion_lat": 0.0, "type": "electric_scooter", "name": "2eea79052e53c65952ef555903448679", "is_disabled": 0, "rental_uris": {"ios": "https://dc.lft.to/lastmile_qr_scan", "android": "https://dc.lft.to/lastmile_qr_scan"}, "is_reserved": 0}, {"lon": -76.97005, "bike_id": "77569bf61786941a08203ca4a4d486fb", "lat": 38.8636835, "fusion_lon": 0.0, "fusion_lat": 0.0, "type": "electric_bike", "name": "77569bf61786941a08203ca4a4d486fb", "is_disabled": 0, "rental_uris": {"ios": "https://dc.lft.to/lastmile_qr_scan", "android": "https://dc.lft.to/lastmile_qr_scan"}, "is_reserved": 0}, {"lon": -77.028223, "bike_id": "a96bfccef5f59f66eecef7a1a3f6f6e1", "lat": 38.8952375, "fusion_lon": 0.0, "fusion_lat": 0.0, "type": "electric_scooter", "name": "a96bfccef5f59f66eecef7a1a3f6f6e1", "is_disabled": 0, "rental_uris": {"ios": "https://dc.lft.to/lastmile_qr_scan", "android": "https://dc.lft.to/lastmile_qr_scan"}, "is_reserved": 0}, {"lon": -77.01053733333333, "bike_id": "cd21b1f82b2d813fbb49faabcf25b31c", "lat": 38.911852333333336, "fusion_lon": 0.0, "fusion_lat": 0.0, "type": "electric_scooter", "name": "cd21b1f82b2d813fbb49faabcf25b31c", "is_disabled": 0, "rental_uris": {"ios": "https://dc.lft.to/lastmile_qr_scan", "android": "https://dc.lft.to/lastmile_qr_scan"}, "is_reserved": 0}, {"lon": -77.043583, "bike_id": "8f4143d57d9cc192324742490ba4c90b", "lat": 39.015395833333336, "fusion_lon": 0.0, "fusion_lat": 0.0, "type": "electric_bike", "name": "8f4143d57d9cc192324742490ba4c90b", "is_disabled": 0, "rental_uris": {"ios": "https://dc.lft.to/lastmile_qr_scan", "android": "https://dc.lft.to/lastmile_qr_scan"}, "is_reserved": 0}, {"lon": -77.03339266666667, "bike_id": "0ba771c7396abe02c742cce6d827952d", "lat": 38.91701466666667, "fusion_lon": 0.0, "fusion_lat": 0.0, "type": "electric_scooter", "name": "0ba771c7396abe02c742cce6d827952d", "is_disabled": 0, "rental_uris": {"ios": "https://dc.lft.to/lastmile_qr_scan", "android": "https://dc.lft.to/lastmile_qr_scan"}, "is_reserved": 0}, {"lon": -76.97842016666667, "bike_id": "a47ab117d8e59c1f1965192151644af7", "lat": 38.8656645, "fusion_lon": 0.0, "fusion_lat": 0.0, "type": "electric_scooter", "name": "a47ab117d8e59c1f1965192151644af7", "is_disabled": 0, "rental_uris": {"ios": "https://dc.lft.to/lastmile_qr_scan", "android": "https://dc.lft.to/lastmile_qr_scan"}, "is_reserved": 0}, {"lon": -76.94893633333334, "bike_id": "b4c96e20d4eae8e5965a595b4398483d", "lat": 38.895293333333335, "fusion_lon": 0.0, "fusion_lat": 0.0, "type": "electric_scooter", "name": "b4c96e20d4eae8e5965a595b4398483d", "is_disabled": 0, "rental_uris": {"ios": "https://dc.lft.to/lastmile_qr_scan", "android": "https://dc.lft.to/lastmile_qr_scan"}, "is_reserved": 0}, {"lon": -77.0486725, "bike_id": "a677f5d8417b6f849fee6b054c7c9265", "lat": 38.89222633333333, "fusion_lon": 0.0, "fusion_lat": 0.0, "type": "electric_scooter", "name": "a677f5d8417b6f849fee6b054c7c9265", "is_disabled": 0, "rental_uris": {"ios": "https://dc.lft.to/lastmile_qr_scan", "android": "https://dc.lft.to/lastmile_qr_scan"}, "is_reserved": 0}, {"lon": -76.97482516666666, "bike_id": "d9900ee90b2f77bfca0fa2c3cacc76d3", "lat": 38.903505833333334, "fusion_lon": 0.0, "fusion_lat": 0.0, "type": "electric_scooter", "name": "d9900ee90b2f77bfca0fa2c3cacc76d3", "is_disabled": 0, "rental_uris": {"ios": "https://dc.lft.to/lastmile_qr_scan", "android": "https://dc.lft.to/lastmile_qr_scan"}, "is_reserved": 0}, {"lon": -77.03657866666667, "bike_id": "241fefb3b2114f036c4511ecbc27df8a", "lat": 38.90415383333333, "fusion_lon": 0.0, "fusion_lat": 0.0, "type": "electric_scooter", "name": "241fefb3b2114f036c4511ecbc27df8a", "is_disabled": 0, "rental_uris": {"ios": "https://dc.lft.to/lastmile_qr_scan", "android": "https://dc.lft.to/lastmile_qr_scan"}, "is_reserved": 0}, {"lon": -77.06522016666666, "bike_id": "7416c76047101c4246612bd5a189047a", "lat": 38.90402783333333, "fusion_lon": 0.0, "fusion_lat": 0.0, "type": "electric_scooter", "name": "7416c76047101c4246612bd5a189047a", "is_disabled": 0, "rental_uris": {"ios": "https://dc.lft.to/lastmile_qr_scan", "android": "https://dc.lft.to/lastmile_qr_scan"}, "is_reserved": 0}, {"lon": -76.99088566666667, "bike_id": "93f110ec7f7ce912b4c140ca9aee6ee2", "lat": 38.86236666666667, "fusion_lon": 0.0, "fusion_lat": 0.0, "type": "electric_bike", "name": "93f110ec7f7ce912b4c140ca9aee6ee2", "is_disabled": 0, "rental_uris": {"ios": "https://dc.lft.to/lastmile_qr_scan", "android": "https://dc.lft.to/lastmile_qr_scan"}, "is_reserved": 0}, {"lon": -77.02386316666667, "bike_id": "f11732ac00ee57e57c1a5260c2eaaa7f", "lat": 38.90868183333333, "fusion_lon": 0.0, "fusion_lat": 0.0, "type": "electric_scooter", "name": "f11732ac00ee57e57c1a5260c2eaaa7f", "is_disabled": 0, "rental_uris": {"ios": "https://dc.lft.to/lastmile_qr_scan", "android": "https://dc.lft.to/lastmile_qr_scan"}, "is_reserved": 0}, {"lon": -77.08069183333333, "bike_id": "03dcb06b6da91b9c7305afc980d7cf87", "lat": 39.0528155, "fusion_lon": 0.0, "fusion_lat": 0.0, "type": "electric_bike", "name": "03dcb06b6da91b9c7305afc980d7cf87", "is_disabled": 0, "rental_uris": {"ios": "https://dc.lft.to/lastmile_qr_scan", "android": "https://dc.lft.to/lastmile_qr_scan"}, "is_reserved": 0}, {"lon": -77.02619116666666, "bike_id": "de8cd739498c633635ed284735b8e64a", "lat": 38.92909616666667, "fusion_lon": 0.0, "fusion_lat": 0.0, "type": "electric_scooter", "name": "de8cd739498c633635ed284735b8e64a", "is_disabled": 0, "rental_uris": {"ios": "https://dc.lft.to/lastmile_qr_scan", "android": "https://dc.lft.to/lastmile_qr_scan"}, "is_reserved": 0}, {"lon": -76.9901575, "bike_id": "dfe7cf414f23e66121cb5e4b285c903e", "lat": 38.866414, "fusion_lon": 0.0, "fusion_lat": 0.0, "type": "electric_scooter", "name": "dfe7cf414f23e66121cb5e4b285c903e", "is_disabled": 0, "rental_uris": {"ios": "https://dc.lft.to/lastmile_qr_scan", "android": "https://dc.lft.to/lastmile_qr_scan"}, "is_reserved": 0}, {"lon": -77.01938833333334, "bike_id": "1853d64d0cd696c26ce67ce7b92f6cf9", "lat": 38.93524266666667, "fusion_lon": 0.0, "fusion_lat": 0.0, "type": "electric_scooter", "name": "1853d64d0cd696c26ce67ce7b92f6cf9", "is_disabled": 0, "rental_uris": {"ios": "https://dc.lft.to/lastmile_qr_scan", "android": "https://dc.lft.to/lastmile_qr_scan"}, "is_reserved": 0}, {"lon": -76.99532783333333, "bike_id": "af390b3a8c794b8add476c23f9b0ffcf", "lat": 38.88373416666667, "fusion_lon": 0.0, "fusion_lat": 0.0, "type": "electric_scooter", "name": "af390b3a8c794b8add476c23f9b0ffcf", "is_disabled": 0, "rental_uris": {"ios": "https://dc.lft.to/lastmile_qr_scan", "android": "https://dc.lft.to/lastmile_qr_scan"}, "is_reserved": 0}, {"lon": -77.00209433333333, "bike_id": "639184a16c7057ad0429e39336d9bdbb", "lat": 38.881289, "fusion_lon": 0.0, "fusion_lat": 0.0, "type": "electric_scooter", "name": "639184a16c7057ad0429e39336d9bdbb", "is_disabled": 0, "rental_uris": {"ios": "https://dc.lft.to/lastmile_qr_scan", "android": "https://dc.lft.to/lastmile_qr_scan"}, "is_reserved": 0}, {"lon": -77.02712666666666, "bike_id": "51c7f9402d4db23424f80c3dd9fc527e", "lat": 38.92770316666667, "fusion_lon": 0.0, "fusion_lat": 0.0, "type": "electric_scooter", "name": "51c7f9402d4db23424f80c3dd9fc527e", "is_disabled": 0, "rental_uris": {"ios": "https://dc.lft.to/lastmile_qr_scan", "android": "https://dc.lft.to/lastmile_qr_scan"}, "is_reserved": 0}, {"lon": -77.08336883333334, "bike_id": "7c37ab866eb0db5e85c90e6029d26fd1", "lat": 38.929863, "fusion_lon": 0.0, "fusion_lat": 0.0, "type": "electric_scooter", "name": "7c37ab866eb0db5e85c90e6029d26fd1", "is_disabled": 0, "rental_uris": {"ios": "https://dc.lft.to/lastmile_qr_scan", "android": "https://dc.lft.to/lastmile_qr_scan"}, "is_reserved": 0}, {"lon": -77.04455516666667, "bike_id": "71be3079ac74dcbbb1931e56bdc26e34", "lat": 38.9187165, "fusion_lon": 0.0, "fusion_lat": 0.0, "type": "electric_scooter", "name": "71be3079ac74dcbbb1931e56bdc26e34", "is_disabled": 0, "rental_uris": {"ios": "https://dc.lft.to/lastmile_qr_scan", "android": "https://dc.lft.to/lastmile_qr_scan"}, "is_reserved": 0}, {"lon": -77.04638183333333, "bike_id": "2b8380365d2c735e0277c7dc01ffdd87", "lat": 38.91911116666667, "fusion_lon": 0.0, "fusion_lat": 0.0, "type": "electric_scooter", "name": "2b8380365d2c735e0277c7dc01ffdd87", "is_disabled": 0, "rental_uris": {"ios": "https://dc.lft.to/lastmile_qr_scan", "android": "https://dc.lft.to/lastmile_qr_scan"}, "is_reserved": 0}, {"lon": -76.93355, "bike_id": "beb2124a9c507c5984587bbe49ec0361", "lat": 38.898975666666665, "fusion_lon": 0.0, "fusion_lat": 0.0, "type": "electric_scooter", "name": "beb2124a9c507c5984587bbe49ec0361", "is_disabled": 0, "rental_uris": {"ios": "https://dc.lft.to/lastmile_qr_scan", "android": "https://dc.lft.to/lastmile_qr_scan"}, "is_reserved": 0}, {"lon": -77.0478615, "bike_id": "46817a79b4ae5d3593b93b870870f8c8", "lat": 38.90964016666667, "fusion_lon": 0.0, "fusion_lat": 0.0, "type": "electric_scooter", "name": "46817a79b4ae5d3593b93b870870f8c8", "is_disabled": 0, "rental_uris": {"ios": "https://dc.lft.to/lastmile_qr_scan", "android": "https://dc.lft.to/lastmile_qr_scan"}, "is_reserved": 0}, {"lon": -76.92734916666667, "bike_id": "80d0df5edfa25fe9ff1245eb8ad81df2", "lat": 38.889661, "fusion_lon": 0.0, "fusion_lat": 0.0, "type": "electric_scooter", "name": "80d0df5edfa25fe9ff1245eb8ad81df2", "is_disabled": 0, "rental_uris": {"ios": "https://dc.lft.to/lastmile_qr_scan", "android": "https://dc.lft.to/lastmile_qr_scan"}, "is_reserved": 0}, {"lon": -77.12658983333333, "bike_id": "9848ae52b48881f94b769495627ab250", "lat": 38.81510333333333, "fusion_lon": 0.0, "fusion_lat": 0.0, "type": "electric_bike", "name": "9848ae52b48881f94b769495627ab250", "is_disabled": 0, "rental_uris": {"ios": "https://dc.lft.to/lastmile_qr_scan", "android": "https://dc.lft.to/lastmile_qr_scan"}, "is_reserved": 0}, {"lon": -77.05347683333333, "bike_id": "28d6a7881314ca8855001017f97faff1", "lat": 38.9269245, "fusion_lon": 0.0, "fusion_lat": 0.0, "type": "electric_scooter", "name": "28d6a7881314ca8855001017f97faff1", "is_disabled": 0, "rental_uris": {"ios": "https://dc.lft.to/lastmile_qr_scan", "android": "https://dc.lft.to/lastmile_qr_scan"}, "is_reserved": 0}, {"lon": -77.02257816666666, "bike_id": "490e654ae7067d44c9a25b8bcae19f3b", "lat": 38.92822016666667, "fusion_lon": 0.0, "fusion_lat": 0.0, "type": "electric_scooter", "name": "490e654ae7067d44c9a25b8bcae19f3b", "is_disabled": 0, "rental_uris": {"ios": "https://dc.lft.to/lastmile_qr_scan", "android": "https://dc.lft.to/lastmile_qr_scan"}, "is_reserved": 0}, {"lon": -77.02362216666667, "bike_id": "116d4ed42e15330cf2c387140d538b57", "lat": 38.92063266666667, "fusion_lon": 0.0, "fusion_lat": 0.0, "type": "electric_scooter", "name": "116d4ed42e15330cf2c387140d538b57", "is_disabled": 0, "rental_uris": {"ios": "https://dc.lft.to/lastmile_qr_scan", "android": "https://dc.lft.to/lastmile_qr_scan"}, "is_reserved": 0}, {"lon": -76.985632, "bike_id": "2f4108c7a3c53ae7b4d54c28036d0579", "lat": 38.899565, "fusion_lon": 0.0, "fusion_lat": 0.0, "type": "electric_scooter", "name": "2f4108c7a3c53ae7b4d54c28036d0579", "is_disabled": 0, "rental_uris": {"ios": "https://dc.lft.to/lastmile_qr_scan", "android": "https://dc.lft.to/lastmile_qr_scan"}, "is_reserved": 0}, {"lon": -76.991076, "bike_id": "96f13a92944fa70604fdb928820fe93b", "lat": 38.903179333333334, "fusion_lon": 0.0, "fusion_lat": 0.0, "type": "electric_scooter", "name": "96f13a92944fa70604fdb928820fe93b", "is_disabled": 0, "rental_uris": {"ios": "https://dc.lft.to/lastmile_qr_scan", "android": "https://dc.lft.to/lastmile_qr_scan"}, "is_reserved": 0}, {"lon": -76.9828635, "bike_id": "62058981263292e1be2b78cf95e062f5", "lat": 38.90048216666667, "fusion_lon": 0.0, "fusion_lat": 0.0, "type": "electric_scooter", "name": "62058981263292e1be2b78cf95e062f5", "is_disabled": 0, "rental_uris": {"ios": "https://dc.lft.to/lastmile_qr_scan", "android": "https://dc.lft.to/lastmile_qr_scan"}, "is_reserved": 0}, {"lon": -76.981932, "bike_id": "53524f0601bac0d8cf3e5d69962f036b", "lat": 38.926011833333334, "fusion_lon": 0.0, "fusion_lat": 0.0, "type": "electric_scooter", "name": "53524f0601bac0d8cf3e5d69962f036b", "is_disabled": 0, "rental_uris": {"ios": "https://dc.lft.to/lastmile_qr_scan", "android": "https://dc.lft.to/lastmile_qr_scan"}, "is_reserved": 0}, {"lon": -77.04504733333333, "bike_id": "e0670f51b0f1a673de01360246777b90", "lat": 38.91586483333333, "fusion_lon": 0.0, "fusion_lat": 0.0, "type": "electric_scooter", "name": "e0670f51b0f1a673de01360246777b90", "is_disabled": 0, "rental_uris": {"ios": "https://dc.lft.to/lastmile_qr_scan", "android": "https://dc.lft.to/lastmile_qr_scan"}, "is_reserved": 0}, {"lon": -77.04826016666667, "bike_id": "42c391da5331f59345cc4b0779e9158d", "lat": 38.907255666666664, "fusion_lon": 0.0, "fusion_lat": 0.0, "type": "electric_scooter", "name": "42c391da5331f59345cc4b0779e9158d", "is_disabled": 0, "rental_uris": {"ios": "https://dc.lft.to/lastmile_qr_scan", "android": "https://dc.lft.to/lastmile_qr_scan"}, "is_reserved": 0}, {"lon": -77.01927483333333, "bike_id": "c217add696ab1d5b39b9e66a6509038f", "lat": 38.92220666666667, "fusion_lon": 0.0, "fusion_lat": 0.0, "type": "electric_scooter", "name": "c217add696ab1d5b39b9e66a6509038f", "is_disabled": 0, "rental_uris": {"ios": "https://dc.lft.to/lastmile_qr_scan", "android": "https://dc.lft.to/lastmile_qr_scan"}, "is_reserved": 0}, {"lon": -77.054178, "bike_id": "a4961d7c91a6bb435aff87039ce7de82", "lat": 38.92836166666667, "fusion_lon": 0.0, "fusion_lat": 0.0, "type": "electric_scooter", "name": "a4961d7c91a6bb435aff87039ce7de82", "is_disabled": 0, "rental_uris": {"ios": "https://dc.lft.to/lastmile_qr_scan", "android": "https://dc.lft.to/lastmile_qr_scan"}, "is_reserved": 0}, {"lon": -77.13101233333333, "bike_id": "fd7c4f605411f3211ca83533cf036ddd", "lat": 39.02434866666667, "fusion_lon": 0.0, "fusion_lat": 0.0, "type": "electric_bike", "name": "fd7c4f605411f3211ca83533cf036ddd", "is_disabled": 0, "rental_uris": {"ios": "https://dc.lft.to/lastmile_qr_scan", "android": "https://dc.lft.to/lastmile_qr_scan"}, "is_reserved": 0}, {"lon": -77.02070866666666, "bike_id": "e2433421e20daad68a793c2279098de6", "lat": 38.93262216666667, "fusion_lon": 0.0, "fusion_lat": 0.0, "type": "electric_bike", "name": "e2433421e20daad68a793c2279098de6", "is_disabled": 0, "rental_uris": {"ios": "https://dc.lft.to/lastmile_qr_scan", "android": "https://dc.lft.to/lastmile_qr_scan"}, "is_reserved": 0}, {"lon": -77.03463066666667, "bike_id": "815aae600947ec371c4c3e2ccdec343a", "lat": 38.92154033333333, "fusion_lon": 0.0, "fusion_lat": 0.0, "type": "electric_scooter", "name": "815aae600947ec371c4c3e2ccdec343a", "is_disabled": 0, "rental_uris": {"ios": "https://dc.lft.to/lastmile_qr_scan", "android": "https://dc.lft.to/lastmile_qr_scan"}, "is_reserved": 0}, {"lon": -77.050648, "bike_id": "867ab7edfa135a1ecddd07b229722916", "lat": 38.900668, "fusion_lon": 0.0, "fusion_lat": 0.0, "type": "electric_scooter", "name": "867ab7edfa135a1ecddd07b229722916", "is_disabled": 0, "rental_uris": {"ios": "https://dc.lft.to/lastmile_qr_scan", "android": "https://dc.lft.to/lastmile_qr_scan"}, "is_reserved": 0}, {"lon": -77.0036415, "bike_id": "0ad4951c6110b51767dcc2e32fefb6b1", "lat": 38.88707816666667, "fusion_lon": 0.0, "fusion_lat": 0.0, "type": "electric_scooter", "name": "0ad4951c6110b51767dcc2e32fefb6b1", "is_disabled": 0, "rental_uris": {"ios": "https://dc.lft.to/lastmile_qr_scan", "android": "https://dc.lft.to/lastmile_qr_scan"}, "is_reserved": 0}, {"lon": -77.0294675, "bike_id": "9028f7126cd7846e32949a661a976def", "lat": 38.9064735, "fusion_lon": 0.0, "fusion_lat": 0.0, "type": "electric_scooter", "name": "9028f7126cd7846e32949a661a976def", "is_disabled": 0, "rental_uris": {"ios": "https://dc.lft.to/lastmile_qr_scan", "android": "https://dc.lft.to/lastmile_qr_scan"}, "is_reserved": 0}, {"lon": -77.03969583333334, "bike_id": "1329d1277c7db76a0db5e18cfb5ed589", "lat": 38.91199433333333, "fusion_lon": 0.0, "fusion_lat": 0.0, "type": "electric_scooter", "name": "1329d1277c7db76a0db5e18cfb5ed589", "is_disabled": 0, "rental_uris": {"ios": "https://dc.lft.to/lastmile_qr_scan", "android": "https://dc.lft.to/lastmile_qr_scan"}, "is_reserved": 0}, {"lon": -77.0329555, "bike_id": "e51b1bb69430acf28bd3cd2bf15d8d0d", "lat": 38.9096685, "fusion_lon": 0.0, "fusion_lat": 0.0, "type": "electric_scooter", "name": "e51b1bb69430acf28bd3cd2bf15d8d0d", "is_disabled": 0, "rental_uris": {"ios": "https://dc.lft.to/lastmile_qr_scan", "android": "https://dc.lft.to/lastmile_qr_scan"}, "is_reserved": 0}, {"lon": -76.9801465, "bike_id": "9e3dc5e50b8c549a5b0567645167eb3a", "lat": 38.90330483333334, "fusion_lon": 0.0, "fusion_lat": 0.0, "type": "electric_scooter", "name": "9e3dc5e50b8c549a5b0567645167eb3a", "is_disabled": 0, "rental_uris": {"ios": "https://dc.lft.to/lastmile_qr_scan", "android": "https://dc.lft.to/lastmile_qr_scan"}, "is_reserved": 0}, {"lon": -77.003712, "bike_id": "e06130a1241ef07c57de81ab394f8254", "lat": 38.8972925, "fusion_lon": 0.0, "fusion_lat": 0.0, "type": "electric_scooter", "name": "e06130a1241ef07c57de81ab394f8254", "is_disabled": 0, "rental_uris": {"ios": "https://dc.lft.to/lastmile_qr_scan", "android": "https://dc.lft.to/lastmile_qr_scan"}, "is_reserved": 0}, {"lon": -77.03464916666667, "bike_id": "5c58237181102270e990f50270cfec5b", "lat": 38.910076333333336, "fusion_lon": 0.0, "fusion_lat": 0.0, "type": "electric_scooter", "name": "5c58237181102270e990f50270cfec5b", "is_disabled": 0, "rental_uris": {"ios": "https://dc.lft.to/lastmile_qr_scan", "android": "https://dc.lft.to/lastmile_qr_scan"}, "is_reserved": 0}, {"lon": -77.011363, "bike_id": "d56b7bdd5ccd65839e8a8a379f3ea41f", "lat": 38.90727866666667, "fusion_lon": 0.0, "fusion_lat": 0.0, "type": "electric_scooter", "name": "d56b7bdd5ccd65839e8a8a379f3ea41f", "is_disabled": 0, "rental_uris": {"ios": "https://dc.lft.to/lastmile_qr_scan", "android": "https://dc.lft.to/lastmile_qr_scan"}, "is_reserved": 0}, {"lon": -76.98884733333334, "bike_id": "9a477922083b9ad1e7001475857847de", "lat": 38.866468166666664, "fusion_lon": 0.0, "fusion_lat": 0.0, "type": "electric_scooter", "name": "9a477922083b9ad1e7001475857847de", "is_disabled": 0, "rental_uris": {"ios": "https://dc.lft.to/lastmile_qr_scan", "android": "https://dc.lft.to/lastmile_qr_scan"}, "is_reserved": 0}, {"lon": -77.0214315, "bike_id": "6ddfaeecd1ab8311d1f4ec7c7f70adc5", "lat": 38.92248133333333, "fusion_lon": 0.0, "fusion_lat": 0.0, "type": "electric_scooter", "name": "6ddfaeecd1ab8311d1f4ec7c7f70adc5", "is_disabled": 0, "rental_uris": {"ios": "https://dc.lft.to/lastmile_qr_scan", "android": "https://dc.lft.to/lastmile_qr_scan"}, "is_reserved": 0}, {"lon": -76.927682, "bike_id": "454d75c57421f92c87b6de377a914fca", "lat": 38.9008785, "fusion_lon": 0.0, "fusion_lat": 0.0, "type": "electric_scooter", "name": "454d75c57421f92c87b6de377a914fca", "is_disabled": 0, "rental_uris": {"ios": "https://dc.lft.to/lastmile_qr_scan", "android": "https://dc.lft.to/lastmile_qr_scan"}, "is_reserved": 0}, {"lon": -77.05492183333334, "bike_id": "72a83c64192331084d7b9c4660735093", "lat": 38.90843483333333, "fusion_lon": 0.0, "fusion_lat": 0.0, "type": "electric_scooter", "name": "72a83c64192331084d7b9c4660735093", "is_disabled": 0, "rental_uris": {"ios": "https://dc.lft.to/lastmile_qr_scan", "android": "https://dc.lft.to/lastmile_qr_scan"}, "is_reserved": 0}, {"lon": -77.051969, "bike_id": "3bf00c44a2f8a535f482d96a19e36ae0", "lat": 38.924464666666665, "fusion_lon": 0.0, "fusion_lat": 0.0, "type": "electric_scooter", "name": "3bf00c44a2f8a535f482d96a19e36ae0", "is_disabled": 0, "rental_uris": {"ios": "https://dc.lft.to/lastmile_qr_scan", "android": "https://dc.lft.to/lastmile_qr_scan"}, "is_reserved": 0}, {"lon": -77.02371083333334, "bike_id": "292328c5edcc5ea903e54eda5bad7267", "lat": 38.90196683333333, "fusion_lon": 0.0, "fusion_lat": 0.0, "type": "electric_scooter", "name": "292328c5edcc5ea903e54eda5bad7267", "is_disabled": 0, "rental_uris": {"ios": "https://dc.lft.to/lastmile_qr_scan", "android": "https://dc.lft.to/lastmile_qr_scan"}, "is_reserved": 0}, {"lon": -76.98313083333333, "bike_id": "521975e2eaf689c3c859f940d3d46088", "lat": 38.8688665, "fusion_lon": 0.0, "fusion_lat": 0.0, "type": "electric_scooter", "name": "521975e2eaf689c3c859f940d3d46088", "is_disabled": 0, "rental_uris": {"ios": "https://dc.lft.to/lastmile_qr_scan", "android": "https://dc.lft.to/lastmile_qr_scan"}, "is_reserved": 0}, {"lon": -76.96055716666666, "bike_id": "e570c7ec3394966507f338f7f2b81f91", "lat": 38.884086333333336, "fusion_lon": 0.0, "fusion_lat": 0.0, "type": "electric_bike", "name": "e570c7ec3394966507f338f7f2b81f91", "is_disabled": 0, "rental_uris": {"ios": "https://dc.lft.to/lastmile_qr_scan", "android": "https://dc.lft.to/lastmile_qr_scan"}, "is_reserved": 0}, {"lon": -76.98713033333334, "bike_id": "95e3cd1ae9b8e9d4e45fcc24ad04b45f", "lat": 38.86627266666667, "fusion_lon": 0.0, "fusion_lat": 0.0, "type": "electric_scooter", "name": "95e3cd1ae9b8e9d4e45fcc24ad04b45f", "is_disabled": 0, "rental_uris": {"ios": "https://dc.lft.to/lastmile_qr_scan", "android": "https://dc.lft.to/lastmile_qr_scan"}, "is_reserved": 0}, {"lon": -77.00215233333333, "bike_id": "5f59af0ca2cc293cfb1d3a984200d62f", "lat": 38.90033066666667, "fusion_lon": 0.0, "fusion_lat": 0.0, "type": "electric_scooter", "name": "5f59af0ca2cc293cfb1d3a984200d62f", "is_disabled": 0, "rental_uris": {"ios": "https://dc.lft.to/lastmile_qr_scan", "android": "https://dc.lft.to/lastmile_qr_scan"}, "is_reserved": 0}, {"lon": -77.03184083333333, "bike_id": "08df197e883122984ab3fa2d082d5b54", "lat": 38.919202, "fusion_lon": 0.0, "fusion_lat": 0.0, "type": "electric_scooter", "name": "08df197e883122984ab3fa2d082d5b54", "is_disabled": 0, "rental_uris": {"ios": "https://dc.lft.to/lastmile_qr_scan", "android": "https://dc.lft.to/lastmile_qr_scan"}, "is_reserved": 0}, {"lon": -77.03423866666667, "bike_id": "a3ac9898715e34d2e95dcabc0b00ec9c", "lat": 38.92244733333333, "fusion_lon": 0.0, "fusion_lat": 0.0, "type": "electric_scooter", "name": "a3ac9898715e34d2e95dcabc0b00ec9c", "is_disabled": 0, "rental_uris": {"ios": "https://dc.lft.to/lastmile_qr_scan", "android": "https://dc.lft.to/lastmile_qr_scan"}, "is_reserved": 0}, {"lon": -77.03268483333333, "bike_id": "c543d80e995a1e2cab4f255efc3ab311", "lat": 38.934034833333335, "fusion_lon": 0.0, "fusion_lat": 0.0, "type": "electric_scooter", "name": "c543d80e995a1e2cab4f255efc3ab311", "is_disabled": 0, "rental_uris": {"ios": "https://dc.lft.to/lastmile_qr_scan", "android": "https://dc.lft.to/lastmile_qr_scan"}, "is_reserved": 0}, {"lon": -77.039003, "bike_id": "5cf42c70c87f8ba61309d0f3597c9572", "lat": 38.9234955, "fusion_lon": 0.0, "fusion_lat": 0.0, "type": "electric_scooter", "name": "5cf42c70c87f8ba61309d0f3597c9572", "is_disabled": 0, "rental_uris": {"ios": "https://dc.lft.to/lastmile_qr_scan", "android": "https://dc.lft.to/lastmile_qr_scan"}, "is_reserved": 0}, {"lon": -77.02683416666666, "bike_id": "7d3d056a0a7f86b6430e42d77758a732", "lat": 38.89700583333333, "fusion_lon": 0.0, "fusion_lat": 0.0, "type": "electric_scooter", "name": "7d3d056a0a7f86b6430e42d77758a732", "is_disabled": 0, "rental_uris": {"ios": "https://dc.lft.to/lastmile_qr_scan", "android": "https://dc.lft.to/lastmile_qr_scan"}, "is_reserved": 0}, {"lon": -77.0349745, "bike_id": "475f909f18822ef5439551c0e16d3558", "lat": 38.93753666666667, "fusion_lon": 0.0, "fusion_lat": 0.0, "type": "electric_scooter", "name": "475f909f18822ef5439551c0e16d3558", "is_disabled": 0, "rental_uris": {"ios": "https://dc.lft.to/lastmile_qr_scan", "android": "https://dc.lft.to/lastmile_qr_scan"}, "is_reserved": 0}, {"lon": -77.01332533333333, "bike_id": "941357c373a5a3f46a0691ce326f1f91", "lat": 38.879211166666664, "fusion_lon": 0.0, "fusion_lat": 0.0, "type": "electric_scooter", "name": "941357c373a5a3f46a0691ce326f1f91", "is_disabled": 0, "rental_uris": {"ios": "https://dc.lft.to/lastmile_qr_scan", "android": "https://dc.lft.to/lastmile_qr_scan"}, "is_reserved": 0}, {"lon": -77.03971066666666, "bike_id": "5026b43e247187498b1187abdd3e2a1b", "lat": 38.911923333333334, "fusion_lon": 0.0, "fusion_lat": 0.0, "type": "electric_scooter", "name": "5026b43e247187498b1187abdd3e2a1b", "is_disabled": 0, "rental_uris": {"ios": "https://dc.lft.to/lastmile_qr_scan", "android": "https://dc.lft.to/lastmile_qr_scan"}, "is_reserved": 0}, {"lon": -77.0634285, "bike_id": "6e5ee110024d962969b335fdb67ce949", "lat": 38.90682666666667, "fusion_lon": 0.0, "fusion_lat": 0.0, "type": "electric_scooter", "name": "6e5ee110024d962969b335fdb67ce949", "is_disabled": 0, "rental_uris": {"ios": "https://dc.lft.to/lastmile_qr_scan", "android": "https://dc.lft.to/lastmile_qr_scan"}, "is_reserved": 0}, {"lon": -77.0319935, "bike_id": "c67a48fa69c7f465905a3aeb88d6f6fe", "lat": 38.9034335, "fusion_lon": 0.0, "fusion_lat": 0.0, "type": "electric_scooter", "name": "c67a48fa69c7f465905a3aeb88d6f6fe", "is_disabled": 0, "rental_uris": {"ios": "https://dc.lft.to/lastmile_qr_scan", "android": "https://dc.lft.to/lastmile_qr_scan"}, "is_reserved": 0}, {"lon": -76.98075866666667, "bike_id": "4ef8f92287ce96c129f935c45ce7b734", "lat": 38.901702, "fusion_lon": 0.0, "fusion_lat": 0.0, "type": "electric_scooter", "name": "4ef8f92287ce96c129f935c45ce7b734", "is_disabled": 0, "rental_uris": {"ios": "https://dc.lft.to/lastmile_qr_scan", "android": "https://dc.lft.to/lastmile_qr_scan"}, "is_reserved": 0}, {"lon": -77.05533966666667, "bike_id": "201b579f7f20bbb55d0548053115c517", "lat": 38.93427466666667, "fusion_lon": 0.0, "fusion_lat": 0.0, "type": "electric_scooter", "name": "201b579f7f20bbb55d0548053115c517", "is_disabled": 0, "rental_uris": {"ios": "https://dc.lft.to/lastmile_qr_scan", "android": "https://dc.lft.to/lastmile_qr_scan"}, "is_reserved": 0}, {"lon": -77.0350615, "bike_id": "fcb285279d00075e79a51a33767f58ac", "lat": 38.92489066666667, "fusion_lon": 0.0, "fusion_lat": 0.0, "type": "electric_scooter", "name": "fcb285279d00075e79a51a33767f58ac", "is_disabled": 0, "rental_uris": {"ios": "https://dc.lft.to/lastmile_qr_scan", "android": "https://dc.lft.to/lastmile_qr_scan"}, "is_reserved": 0}, {"lon": -77.08456583333333, "bike_id": "6248fded77884da01ceebe2d4d0d7aa7", "lat": 38.848189166666664, "fusion_lon": 0.0, "fusion_lat": 0.0, "type": "electric_bike", "name": "6248fded77884da01ceebe2d4d0d7aa7", "is_disabled": 0, "rental_uris": {"ios": "https://dc.lft.to/lastmile_qr_scan", "android": "https://dc.lft.to/lastmile_qr_scan"}, "is_reserved": 0}, {"lon": -77.00352283333334, "bike_id": "320bee851590781dedf5d1446ca7ad38", "lat": 38.8991365, "fusion_lon": 0.0, "fusion_lat": 0.0, "type": "electric_scooter", "name": "320bee851590781dedf5d1446ca7ad38", "is_disabled": 0, "rental_uris": {"ios": "https://dc.lft.to/lastmile_qr_scan", "android": "https://dc.lft.to/lastmile_qr_scan"}, "is_reserved": 0}, {"lon": -77.00697683333334, "bike_id": "17c8b265d38bb8114381b4dbd5794d4e", "lat": 38.91744533333333, "fusion_lon": 0.0, "fusion_lat": 0.0, "type": "electric_scooter", "name": "17c8b265d38bb8114381b4dbd5794d4e", "is_disabled": 0, "rental_uris": {"ios": "https://dc.lft.to/lastmile_qr_scan", "android": "https://dc.lft.to/lastmile_qr_scan"}, "is_reserved": 0}, {"lon": -77.03663883333333, "bike_id": "bf4e40515a620dfe3e4018dddc8f69ce", "lat": 38.922633, "fusion_lon": 0.0, "fusion_lat": 0.0, "type": "electric_scooter", "name": "bf4e40515a620dfe3e4018dddc8f69ce", "is_disabled": 0, "rental_uris": {"ios": "https://dc.lft.to/lastmile_qr_scan", "android": "https://dc.lft.to/lastmile_qr_scan"}, "is_reserved": 0}, {"lon": -77.0058945, "bike_id": "71c2083dd45a7230dd0ae589065fbcbf", "lat": 38.874770833333336, "fusion_lon": 0.0, "fusion_lat": 0.0, "type": "electric_scooter", "name": "71c2083dd45a7230dd0ae589065fbcbf", "is_disabled": 0, "rental_uris": {"ios": "https://dc.lft.to/lastmile_qr_scan", "android": "https://dc.lft.to/lastmile_qr_scan"}, "is_reserved": 0}, {"lon": -77.04011366666667, "bike_id": "b30f3129610d0c73bfbb45afb33479f8", "lat": 38.933036333333334, "fusion_lon": 0.0, "fusion_lat": 0.0, "type": "electric_scooter", "name": "b30f3129610d0c73bfbb45afb33479f8", "is_disabled": 0, "rental_uris": {"ios": "https://dc.lft.to/lastmile_qr_scan", "android": "https://dc.lft.to/lastmile_qr_scan"}, "is_reserved": 0}, {"lon": -77.01638033333333, "bike_id": "68f69a41a23dcb4de12b837af3948c3a", "lat": 38.8811, "fusion_lon": 0.0, "fusion_lat": 0.0, "type": "electric_scooter", "name": "68f69a41a23dcb4de12b837af3948c3a", "is_disabled": 0, "rental_uris": {"ios": "https://dc.lft.to/lastmile_qr_scan", "android": "https://dc.lft.to/lastmile_qr_scan"}, "is_reserved": 0}, {"lon": -77.033186, "bike_id": "de354658f052e2f76c62347b1f736eb8", "lat": 38.9155705, "fusion_lon": 0.0, "fusion_lat": 0.0, "type": "electric_scooter", "name": "de354658f052e2f76c62347b1f736eb8", "is_disabled": 0, "rental_uris": {"ios": "https://dc.lft.to/lastmile_qr_scan", "android": "https://dc.lft.to/lastmile_qr_scan"}, "is_reserved": 0}, {"lon": -76.98559066666667, "bike_id": "99381546665977d4847644bc3998f402", "lat": 38.910330333333334, "fusion_lon": 0.0, "fusion_lat": 0.0, "type": "electric_scooter", "name": "99381546665977d4847644bc3998f402", "is_disabled": 0, "rental_uris": {"ios": "https://dc.lft.to/lastmile_qr_scan", "android": "https://dc.lft.to/lastmile_qr_scan"}, "is_reserved": 0}, {"lon": -77.08203183333333, "bike_id": "e70f3a3ceccde00cf72276005d723800", "lat": 38.922085333333335, "fusion_lon": 0.0, "fusion_lat": 0.0, "type": "electric_bike", "name": "e70f3a3ceccde00cf72276005d723800", "is_disabled": 0, "rental_uris": {"ios": "https://dc.lft.to/lastmile_qr_scan", "android": "https://dc.lft.to/lastmile_qr_scan"}, "is_reserved": 0}, {"lon": -77.0225605, "bike_id": "cd3eb05fd753e8b32b6faa591e2c4d9a", "lat": 38.91274, "fusion_lon": 0.0, "fusion_lat": 0.0, "type": "electric_scooter", "name": "cd3eb05fd753e8b32b6faa591e2c4d9a", "is_disabled": 0, "rental_uris": {"ios": "https://dc.lft.to/lastmile_qr_scan", "android": "https://dc.lft.to/lastmile_qr_scan"}, "is_reserved": 0}, {"lon": -77.03808716666667, "bike_id": "db56383fda44ebbf8172f686634fe742", "lat": 38.920707666666665, "fusion_lon": 0.0, "fusion_lat": 0.0, "type": "electric_scooter", "name": "db56383fda44ebbf8172f686634fe742", "is_disabled": 0, "rental_uris": {"ios": "https://dc.lft.to/lastmile_qr_scan", "android": "https://dc.lft.to/lastmile_qr_scan"}, "is_reserved": 0}, {"lon": -77.041199, "bike_id": "857fb50a125b6faf6b94a06215ff5814", "lat": 38.9440745, "fusion_lon": 0.0, "fusion_lat": 0.0, "type": "electric_bike", "name": "857fb50a125b6faf6b94a06215ff5814", "is_disabled": 0, "rental_uris": {"ios": "https://dc.lft.to/lastmile_qr_scan", "android": "https://dc.lft.to/lastmile_qr_scan"}, "is_reserved": 0}, {"lon": -77.017379, "bike_id": "848a215eb00784a703d8e7ee45d39166", "lat": 38.902624, "fusion_lon": 0.0, "fusion_lat": 0.0, "type": "electric_scooter", "name": "848a215eb00784a703d8e7ee45d39166", "is_disabled": 0, "rental_uris": {"ios": "https://dc.lft.to/lastmile_qr_scan", "android": "https://dc.lft.to/lastmile_qr_scan"}, "is_reserved": 0}, {"lon": -77.031996, "bike_id": "d00c45d0804e14415b14f6720d434b7e", "lat": 38.939687, "fusion_lon": 0.0, "fusion_lat": 0.0, "type": "electric_scooter", "name": "d00c45d0804e14415b14f6720d434b7e", "is_disabled": 0, "rental_uris": {"ios": "https://dc.lft.to/lastmile_qr_scan", "android": "https://dc.lft.to/lastmile_qr_scan"}, "is_reserved": 0}, {"lon": -77.04454366666667, "bike_id": "02855a5b71c1b76615d37342751e403c", "lat": 38.92168216666666, "fusion_lon": 0.0, "fusion_lat": 0.0, "type": "electric_scooter", "name": "02855a5b71c1b76615d37342751e403c", "is_disabled": 0, "rental_uris": {"ios": "https://dc.lft.to/lastmile_qr_scan", "android": "https://dc.lft.to/lastmile_qr_scan"}, "is_reserved": 0}, {"lon": -77.05614333333334, "bike_id": "42648f3f1e69f58567861d30b9d37d45", "lat": 38.923249166666665, "fusion_lon": 0.0, "fusion_lat": 0.0, "type": "electric_scooter", "name": "42648f3f1e69f58567861d30b9d37d45", "is_disabled": 0, "rental_uris": {"ios": "https://dc.lft.to/lastmile_qr_scan", "android": "https://dc.lft.to/lastmile_qr_scan"}, "is_reserved": 0}, {"lon": -77.01420633333333, "bike_id": "b989787e4c3a07d919a547e55b583cc8", "lat": 38.928451333333335, "fusion_lon": 0.0, "fusion_lat": 0.0, "type": "electric_scooter", "name": "b989787e4c3a07d919a547e55b583cc8", "is_disabled": 0, "rental_uris": {"ios": "https://dc.lft.to/lastmile_qr_scan", "android": "https://dc.lft.to/lastmile_qr_scan"}, "is_reserved": 0}, {"lon": -77.03348216666667, "bike_id": "66e750f48c440158fa12e58ae8df1eb3", "lat": 38.89966883333334, "fusion_lon": 0.0, "fusion_lat": 0.0, "type": "electric_scooter", "name": "66e750f48c440158fa12e58ae8df1eb3", "is_disabled": 0, "rental_uris": {"ios": "https://dc.lft.to/lastmile_qr_scan", "android": "https://dc.lft.to/lastmile_qr_scan"}, "is_reserved": 0}, {"lon": -77.05058283333334, "bike_id": "2c61ddb5d0fa38cb9ca971e268cfedc5", "lat": 38.92584216666667, "fusion_lon": 0.0, "fusion_lat": 0.0, "type": "electric_scooter", "name": "2c61ddb5d0fa38cb9ca971e268cfedc5", "is_disabled": 0, "rental_uris": {"ios": "https://dc.lft.to/lastmile_qr_scan", "android": "https://dc.lft.to/lastmile_qr_scan"}, "is_reserved": 0}, {"lon": -77.03754483333333, "bike_id": "6f7c5da2cd96d944b94e1ff602e0e716", "lat": 38.928772, "fusion_lon": 0.0, "fusion_lat": 0.0, "type": "electric_scooter", "name": "6f7c5da2cd96d944b94e1ff602e0e716", "is_disabled": 0, "rental_uris": {"ios": "https://dc.lft.to/lastmile_qr_scan", "android": "https://dc.lft.to/lastmile_qr_scan"}, "is_reserved": 0}, {"lon": -77.03855566666667, "bike_id": "de45c7deed139c9532253cb40bcfb569", "lat": 38.910169333333336, "fusion_lon": 0.0, "fusion_lat": 0.0, "type": "electric_scooter", "name": "de45c7deed139c9532253cb40bcfb569", "is_disabled": 0, "rental_uris": {"ios": "https://dc.lft.to/lastmile_qr_scan", "android": "https://dc.lft.to/lastmile_qr_scan"}, "is_reserved": 0}, {"lon": -77.02694216666667, "bike_id": "7a5577d6729ef8b72ca3d678dc4567e9", "lat": 38.916358333333335, "fusion_lon": 0.0, "fusion_lat": 0.0, "type": "electric_scooter", "name": "7a5577d6729ef8b72ca3d678dc4567e9", "is_disabled": 0, "rental_uris": {"ios": "https://dc.lft.to/lastmile_qr_scan", "android": "https://dc.lft.to/lastmile_qr_scan"}, "is_reserved": 0}, {"lon": -77.03252116666667, "bike_id": "2c4b5f19b65d622a1b68483eb6e54a1b", "lat": 38.94155133333334, "fusion_lon": 0.0, "fusion_lat": 0.0, "type": "electric_scooter", "name": "2c4b5f19b65d622a1b68483eb6e54a1b", "is_disabled": 0, "rental_uris": {"ios": "https://dc.lft.to/lastmile_qr_scan", "android": "https://dc.lft.to/lastmile_qr_scan"}, "is_reserved": 0}, {"lon": -76.98460716666666, "bike_id": "b6a3c8595898f57644fbde1c2854141f", "lat": 38.90555916666667, "fusion_lon": 0.0, "fusion_lat": 0.0, "type": "electric_scooter", "name": "b6a3c8595898f57644fbde1c2854141f", "is_disabled": 0, "rental_uris": {"ios": "https://dc.lft.to/lastmile_qr_scan", "android": "https://dc.lft.to/lastmile_qr_scan"}, "is_reserved": 0}, {"lon": -77.03329816666667, "bike_id": "ff626456411e75611e9a92ba74f4ec6b", "lat": 38.9156385, "fusion_lon": 0.0, "fusion_lat": 0.0, "type": "electric_scooter", "name": "ff626456411e75611e9a92ba74f4ec6b", "is_disabled": 0, "rental_uris": {"ios": "https://dc.lft.to/lastmile_qr_scan", "android": "https://dc.lft.to/lastmile_qr_scan"}, "is_reserved": 0}, {"lon": -77.03151733333333, "bike_id": "990a171363be17c9c56295fb42db4cc1", "lat": 38.88305416666667, "fusion_lon": 0.0, "fusion_lat": 0.0, "type": "electric_scooter", "name": "990a171363be17c9c56295fb42db4cc1", "is_disabled": 0, "rental_uris": {"ios": "https://dc.lft.to/lastmile_qr_scan", "android": "https://dc.lft.to/lastmile_qr_scan"}, "is_reserved": 0}, {"lon": -77.03635416666667, "bike_id": "b9e73e9c752fa051f1a90c0755caa74b", "lat": 38.916867333333336, "fusion_lon": 0.0, "fusion_lat": 0.0, "type": "electric_scooter", "name": "b9e73e9c752fa051f1a90c0755caa74b", "is_disabled": 0, "rental_uris": {"ios": "https://dc.lft.to/lastmile_qr_scan", "android": "https://dc.lft.to/lastmile_qr_scan"}, "is_reserved": 0}, {"lon": -77.003443, "bike_id": "5a44ad0215c387fedae45a58f7324001", "lat": 38.91628033333333, "fusion_lon": 0.0, "fusion_lat": 0.0, "type": "electric_scooter", "name": "5a44ad0215c387fedae45a58f7324001", "is_disabled": 0, "rental_uris": {"ios": "https://dc.lft.to/lastmile_qr_scan", "android": "https://dc.lft.to/lastmile_qr_scan"}, "is_reserved": 0}, {"lon": -76.99174283333333, "bike_id": "be0c0eb7ce6c6a851848519da1f13ffc", "lat": 38.889911833333336, "fusion_lon": 0.0, "fusion_lat": 0.0, "type": "electric_scooter", "name": "be0c0eb7ce6c6a851848519da1f13ffc", "is_disabled": 0, "rental_uris": {"ios": "https://dc.lft.to/lastmile_qr_scan", "android": "https://dc.lft.to/lastmile_qr_scan"}, "is_reserved": 0}, {"lon": -77.02448666666666, "bike_id": "d5755414fad1c639cb217ba6a46423eb", "lat": 38.92346633333333, "fusion_lon": 0.0, "fusion_lat": 0.0, "type": "electric_scooter", "name": "d5755414fad1c639cb217ba6a46423eb", "is_disabled": 0, "rental_uris": {"ios": "https://dc.lft.to/lastmile_qr_scan", "android": "https://dc.lft.to/lastmile_qr_scan"}, "is_reserved": 0}, {"lon": -77.04096666666666, "bike_id": "9b697e04bb0f5a5349137189e32d7e9e", "lat": 38.90965033333333, "fusion_lon": 0.0, "fusion_lat": 0.0, "type": "electric_scooter", "name": "9b697e04bb0f5a5349137189e32d7e9e", "is_disabled": 0, "rental_uris": {"ios": "https://dc.lft.to/lastmile_qr_scan", "android": "https://dc.lft.to/lastmile_qr_scan"}, "is_reserved": 0}, {"lon": -77.01538433333333, "bike_id": "267ead1127e5b61a0c9d3fbc41b5c310", "lat": 38.90970866666667, "fusion_lon": 0.0, "fusion_lat": 0.0, "type": "electric_bike", "name": "267ead1127e5b61a0c9d3fbc41b5c310", "is_disabled": 0, "rental_uris": {"ios": "https://dc.lft.to/lastmile_qr_scan", "android": "https://dc.lft.to/lastmile_qr_scan"}, "is_reserved": 0}, {"lon": -77.03520066666667, "bike_id": "87d4383a12e8d7943ceb84ba9b2f3307", "lat": 38.923325166666665, "fusion_lon": 0.0, "fusion_lat": 0.0, "type": "electric_scooter", "name": "87d4383a12e8d7943ceb84ba9b2f3307", "is_disabled": 0, "rental_uris": {"ios": "https://dc.lft.to/lastmile_qr_scan", "android": "https://dc.lft.to/lastmile_qr_scan"}, "is_reserved": 0}, {"lon": -77.04066933333333, "bike_id": "d96a3dd66a6f7beea9b9d1eb61bfcbab", "lat": 38.914911833333335, "fusion_lon": 0.0, "fusion_lat": 0.0, "type": "electric_scooter", "name": "d96a3dd66a6f7beea9b9d1eb61bfcbab", "is_disabled": 0, "rental_uris": {"ios": "https://dc.lft.to/lastmile_qr_scan", "android": "https://dc.lft.to/lastmile_qr_scan"}, "is_reserved": 0}, {"lon": -77.1222445, "bike_id": "3f0930f85d45d66f07696590c15dc5b9", "lat": 38.8530185, "fusion_lon": 0.0, "fusion_lat": 0.0, "type": "electric_bike", "name": "3f0930f85d45d66f07696590c15dc5b9", "is_disabled": 0, "rental_uris": {"ios": "https://dc.lft.to/lastmile_qr_scan", "android": "https://dc.lft.to/lastmile_qr_scan"}, "is_reserved": 0}, {"lon": -77.01134333333333, "bike_id": "690a30d826aee4d2254da0142d5f7a35", "lat": 38.89469116666667, "fusion_lon": 0.0, "fusion_lat": 0.0, "type": "electric_scooter", "name": "690a30d826aee4d2254da0142d5f7a35", "is_disabled": 0, "rental_uris": {"ios": "https://dc.lft.to/lastmile_qr_scan", "android": "https://dc.lft.to/lastmile_qr_scan"}, "is_reserved": 0}, {"lon": -76.9776285, "bike_id": "59b65506aacb6724b4412921ff98d1dd", "lat": 38.864461166666665, "fusion_lon": 0.0, "fusion_lat": 0.0, "type": "electric_scooter", "name": "59b65506aacb6724b4412921ff98d1dd", "is_disabled": 0, "rental_uris": {"ios": "https://dc.lft.to/lastmile_qr_scan", "android": "https://dc.lft.to/lastmile_qr_scan"}, "is_reserved": 0}, {"lon": -76.98846133333333, "bike_id": "5f6412bfc8c8dd66266862179de44724", "lat": 38.9013045, "fusion_lon": 0.0, "fusion_lat": 0.0, "type": "electric_scooter", "name": "5f6412bfc8c8dd66266862179de44724", "is_disabled": 0, "rental_uris": {"ios": "https://dc.lft.to/lastmile_qr_scan", "android": "https://dc.lft.to/lastmile_qr_scan"}, "is_reserved": 0}, {"lon": -77.0116095, "bike_id": "df83d9c5ebcafa1aee80ea3135c94626", "lat": 38.895803666666666, "fusion_lon": 0.0, "fusion_lat": 0.0, "type": "electric_scooter", "name": "df83d9c5ebcafa1aee80ea3135c94626", "is_disabled": 0, "rental_uris": {"ios": "https://dc.lft.to/lastmile_qr_scan", "android": "https://dc.lft.to/lastmile_qr_scan"}, "is_reserved": 0}, {"lon": -77.01454216666667, "bike_id": "836d8f28ea599688656eafaf50e7f986", "lat": 38.90518983333333, "fusion_lon": 0.0, "fusion_lat": 0.0, "type": "electric_scooter", "name": "836d8f28ea599688656eafaf50e7f986", "is_disabled": 0, "rental_uris": {"ios": "https://dc.lft.to/lastmile_qr_scan", "android": "https://dc.lft.to/lastmile_qr_scan"}, "is_reserved": 0}, {"lon": -77.0321935, "bike_id": "134ef1fe5806b80ed3f9afa50ebd6617", "lat": 38.89223416666667, "fusion_lon": 0.0, "fusion_lat": 0.0, "type": "electric_scooter", "name": "134ef1fe5806b80ed3f9afa50ebd6617", "is_disabled": 0, "rental_uris": {"ios": "https://dc.lft.to/lastmile_qr_scan", "android": "https://dc.lft.to/lastmile_qr_scan"}, "is_reserved": 0}, {"lon": -77.03505366666667, "bike_id": "2150a3d4a814946775c8a2491ca4c52d", "lat": 38.90049616666667, "fusion_lon": 0.0, "fusion_lat": 0.0, "type": "electric_scooter", "name": "2150a3d4a814946775c8a2491ca4c52d", "is_disabled": 0, "rental_uris": {"ios": "https://dc.lft.to/lastmile_qr_scan", "android": "https://dc.lft.to/lastmile_qr_scan"}, "is_reserved": 0}, {"lon": -77.0271345, "bike_id": "b41f72c6114ff349757eb95acf79060d", "lat": 38.922867833333335, "fusion_lon": 0.0, "fusion_lat": 0.0, "type": "electric_scooter", "name": "b41f72c6114ff349757eb95acf79060d", "is_disabled": 0, "rental_uris": {"ios": "https://dc.lft.to/lastmile_qr_scan", "android": "https://dc.lft.to/lastmile_qr_scan"}, "is_reserved": 0}, {"lon": -77.044639, "bike_id": "c886491736cecd86db9e7b097793024c", "lat": 38.9243065, "fusion_lon": 0.0, "fusion_lat": 0.0, "type": "electric_scooter", "name": "c886491736cecd86db9e7b097793024c", "is_disabled": 0, "rental_uris": {"ios": "https://dc.lft.to/lastmile_qr_scan", "android": "https://dc.lft.to/lastmile_qr_scan"}, "is_reserved": 0}, {"lon": -77.02822233333333, "bike_id": "d5a4b5bf8663b38eda129a9bfb5e1364", "lat": 38.895297666666664, "fusion_lon": 0.0, "fusion_lat": 0.0, "type": "electric_scooter", "name": "d5a4b5bf8663b38eda129a9bfb5e1364", "is_disabled": 0, "rental_uris": {"ios": "https://dc.lft.to/lastmile_qr_scan", "android": "https://dc.lft.to/lastmile_qr_scan"}, "is_reserved": 0}, {"lon": -77.034202, "bike_id": "b208b9ecbf65102626b5bf4103604b34", "lat": 38.919294, "fusion_lon": 0.0, "fusion_lat": 0.0, "type": "electric_scooter", "name": "b208b9ecbf65102626b5bf4103604b34", "is_disabled": 0, "rental_uris": {"ios": "https://dc.lft.to/lastmile_qr_scan", "android": "https://dc.lft.to/lastmile_qr_scan"}, "is_reserved": 0}, {"lon": -77.02102533333333, "bike_id": "18814050202dd765792a5e33f8d4411b", "lat": 38.949168666666665, "fusion_lon": 0.0, "fusion_lat": 0.0, "type": "electric_scooter", "name": "18814050202dd765792a5e33f8d4411b", "is_disabled": 0, "rental_uris": {"ios": "https://dc.lft.to/lastmile_qr_scan", "android": "https://dc.lft.to/lastmile_qr_scan"}, "is_reserved": 0}, {"lon": -77.03037866666666, "bike_id": "3bb922a705e00162d9a22e5ecc25c164", "lat": 38.937128333333334, "fusion_lon": 0.0, "fusion_lat": 0.0, "type": "electric_scooter", "name": "3bb922a705e00162d9a22e5ecc25c164", "is_disabled": 0, "rental_uris": {"ios": "https://dc.lft.to/lastmile_qr_scan", "android": "https://dc.lft.to/lastmile_qr_scan"}, "is_reserved": 0}, {"lon": -77.02693733333334, "bike_id": "6a0f070003ddbbaf8f0bda589950c4c6", "lat": 38.904272166666665, "fusion_lon": 0.0, "fusion_lat": 0.0, "type": "electric_scooter", "name": "6a0f070003ddbbaf8f0bda589950c4c6", "is_disabled": 0, "rental_uris": {"ios": "https://dc.lft.to/lastmile_qr_scan", "android": "https://dc.lft.to/lastmile_qr_scan"}, "is_reserved": 0}, {"lon": -77.07420216666667, "bike_id": "07ea94a349561e68ca4c95b4e730d7c4", "lat": 38.928918, "fusion_lon": 0.0, "fusion_lat": 0.0, "type": "electric_scooter", "name": "07ea94a349561e68ca4c95b4e730d7c4", "is_disabled": 0, "rental_uris": {"ios": "https://dc.lft.to/lastmile_qr_scan", "android": "https://dc.lft.to/lastmile_qr_scan"}, "is_reserved": 0}, {"lon": -77.01679, "bike_id": "8ffabb72bb6d1f6ed75b003160c2f7af", "lat": 38.91444033333333, "fusion_lon": 0.0, "fusion_lat": 0.0, "type": "electric_scooter", "name": "8ffabb72bb6d1f6ed75b003160c2f7af", "is_disabled": 0, "rental_uris": {"ios": "https://dc.lft.to/lastmile_qr_scan", "android": "https://dc.lft.to/lastmile_qr_scan"}, "is_reserved": 0}, {"lon": -77.02158466666667, "bike_id": "13696d91c65bd28b97e22368551dced5", "lat": 38.89737983333333, "fusion_lon": 0.0, "fusion_lat": 0.0, "type": "electric_scooter", "name": "13696d91c65bd28b97e22368551dced5", "is_disabled": 0, "rental_uris": {"ios": "https://dc.lft.to/lastmile_qr_scan", "android": "https://dc.lft.to/lastmile_qr_scan"}, "is_reserved": 0}, {"lon": -76.93188166666667, "bike_id": "772e24bb2a96b7e68edb645573016f3a", "lat": 38.898765, "fusion_lon": 0.0, "fusion_lat": 0.0, "type": "electric_scooter", "name": "772e24bb2a96b7e68edb645573016f3a", "is_disabled": 0, "rental_uris": {"ios": "https://dc.lft.to/lastmile_qr_scan", "android": "https://dc.lft.to/lastmile_qr_scan"}, "is_reserved": 0}, {"lon": -77.03209583333333, "bike_id": "179c93a64a94c3d4bba66333aa727be8", "lat": 38.918162333333335, "fusion_lon": 0.0, "fusion_lat": 0.0, "type": "electric_scooter", "name": "179c93a64a94c3d4bba66333aa727be8", "is_disabled": 0, "rental_uris": {"ios": "https://dc.lft.to/lastmile_qr_scan", "android": "https://dc.lft.to/lastmile_qr_scan"}, "is_reserved": 0}, {"lon": -77.03765233333333, "bike_id": "0b3a8d33a10b50d5d21415f120eed15b", "lat": 38.926029166666666, "fusion_lon": 0.0, "fusion_lat": 0.0, "type": "electric_scooter", "name": "0b3a8d33a10b50d5d21415f120eed15b", "is_disabled": 0, "rental_uris": {"ios": "https://dc.lft.to/lastmile_qr_scan", "android": "https://dc.lft.to/lastmile_qr_scan"}, "is_reserved": 0}, {"lon": -76.945998, "bike_id": "8797c131258884671718b183e29eee11", "lat": 38.901467833333335, "fusion_lon": 0.0, "fusion_lat": 0.0, "type": "electric_scooter", "name": "8797c131258884671718b183e29eee11", "is_disabled": 0, "rental_uris": {"ios": "https://dc.lft.to/lastmile_qr_scan", "android": "https://dc.lft.to/lastmile_qr_scan"}, "is_reserved": 0}, {"lon": -77.0746645, "bike_id": "556f51e83bf9bb07f71b085512d2327d", "lat": 38.920656666666666, "fusion_lon": 0.0, "fusion_lat": 0.0, "type": "electric_bike", "name": "556f51e83bf9bb07f71b085512d2327d", "is_disabled": 0, "rental_uris": {"ios": "https://dc.lft.to/lastmile_qr_scan", "android": "https://dc.lft.to/lastmile_qr_scan"}, "is_reserved": 0}, {"lon": -76.973954, "bike_id": "dfe0432373469587dc13e714036b0766", "lat": 38.902959, "fusion_lon": 0.0, "fusion_lat": 0.0, "type": "electric_scooter", "name": "dfe0432373469587dc13e714036b0766", "is_disabled": 0, "rental_uris": {"ios": "https://dc.lft.to/lastmile_qr_scan", "android": "https://dc.lft.to/lastmile_qr_scan"}, "is_reserved": 0}, {"lon": -77.02716666666667, "bike_id": "d7f7673d0d9f89e897ed072c02316abf", "lat": 38.9246625, "fusion_lon": 0.0, "fusion_lat": 0.0, "type": "electric_scooter", "name": "d7f7673d0d9f89e897ed072c02316abf", "is_disabled": 0, "rental_uris": {"ios": "https://dc.lft.to/lastmile_qr_scan", "android": "https://dc.lft.to/lastmile_qr_scan"}, "is_reserved": 0}, {"lon": -77.088035, "bike_id": "884c69882f948e6fa29fbc26effe031a", "lat": 38.9117415, "fusion_lon": 0.0, "fusion_lat": 0.0, "type": "electric_scooter", "name": "884c69882f948e6fa29fbc26effe031a", "is_disabled": 0, "rental_uris": {"ios": "https://dc.lft.to/lastmile_qr_scan", "android": "https://dc.lft.to/lastmile_qr_scan"}, "is_reserved": 0}, {"lon": -77.0399685, "bike_id": "5d0f098cd0a3cf3c9e73694443b6e7c5", "lat": 38.9343045, "fusion_lon": 0.0, "fusion_lat": 0.0, "type": "electric_scooter", "name": "5d0f098cd0a3cf3c9e73694443b6e7c5", "is_disabled": 0, "rental_uris": {"ios": "https://dc.lft.to/lastmile_qr_scan", "android": "https://dc.lft.to/lastmile_qr_scan"}, "is_reserved": 0}, {"lon": -77.03824483333334, "bike_id": "259eaf44e56205bf15620b7673e86cb7", "lat": 38.90954516666667, "fusion_lon": 0.0, "fusion_lat": 0.0, "type": "electric_scooter", "name": "259eaf44e56205bf15620b7673e86cb7", "is_disabled": 0, "rental_uris": {"ios": "https://dc.lft.to/lastmile_qr_scan", "android": "https://dc.lft.to/lastmile_qr_scan"}, "is_reserved": 0}, {"lon": -77.04734116666667, "bike_id": "9da21be79b2c38aa85f312bc3fcfdc22", "lat": 38.90309116666667, "fusion_lon": 0.0, "fusion_lat": 0.0, "type": "electric_scooter", "name": "9da21be79b2c38aa85f312bc3fcfdc22", "is_disabled": 0, "rental_uris": {"ios": "https://dc.lft.to/lastmile_qr_scan", "android": "https://dc.lft.to/lastmile_qr_scan"}, "is_reserved": 0}, {"lon": -76.98917583333333, "bike_id": "ccdb5ed16891cdd3547e8820230e84f1", "lat": 38.864928, "fusion_lon": 0.0, "fusion_lat": 0.0, "type": "electric_scooter", "name": "ccdb5ed16891cdd3547e8820230e84f1", "is_disabled": 0, "rental_uris": {"ios": "https://dc.lft.to/lastmile_qr_scan", "android": "https://dc.lft.to/lastmile_qr_scan"}, "is_reserved": 0}, {"lon": -76.9806035, "bike_id": "105fc67aacbd05cc51dd0bab37b919fe", "lat": 38.8849085, "fusion_lon": 0.0, "fusion_lat": 0.0, "type": "electric_scooter", "name": "105fc67aacbd05cc51dd0bab37b919fe", "is_disabled": 0, "rental_uris": {"ios": "https://dc.lft.to/lastmile_qr_scan", "android": "https://dc.lft.to/lastmile_qr_scan"}, "is_reserved": 0}, {"lon": -77.08491566666666, "bike_id": "50286305a6fba052c71f65d43b5d4169", "lat": 38.848476, "fusion_lon": 0.0, "fusion_lat": 0.0, "type": "electric_bike", "name": "50286305a6fba052c71f65d43b5d4169", "is_disabled": 0, "rental_uris": {"ios": "https://dc.lft.to/lastmile_qr_scan", "android": "https://dc.lft.to/lastmile_qr_scan"}, "is_reserved": 0}, {"lon": -77.02574466666667, "bike_id": "b9fad728e6d8a7b022efaf190976da72", "lat": 38.91413416666666, "fusion_lon": 0.0, "fusion_lat": 0.0, "type": "electric_scooter", "name": "b9fad728e6d8a7b022efaf190976da72", "is_disabled": 0, "rental_uris": {"ios": "https://dc.lft.to/lastmile_qr_scan", "android": "https://dc.lft.to/lastmile_qr_scan"}, "is_reserved": 0}, {"lon": -77.0321485, "bike_id": "f6dbf77b745951f8d6282797ce1a111a", "lat": 38.918976666666666, "fusion_lon": 0.0, "fusion_lat": 0.0, "type": "electric_scooter", "name": "f6dbf77b745951f8d6282797ce1a111a", "is_disabled": 0, "rental_uris": {"ios": "https://dc.lft.to/lastmile_qr_scan", "android": "https://dc.lft.to/lastmile_qr_scan"}, "is_reserved": 0}, {"lon": -76.983299, "bike_id": "893b4267a0962b040e8f0397396058c0", "lat": 38.90093533333334, "fusion_lon": 0.0, "fusion_lat": 0.0, "type": "electric_scooter", "name": "893b4267a0962b040e8f0397396058c0", "is_disabled": 0, "rental_uris": {"ios": "https://dc.lft.to/lastmile_qr_scan", "android": "https://dc.lft.to/lastmile_qr_scan"}, "is_reserved": 0}, {"lon": -76.99267233333333, "bike_id": "51282f08966e2742d32cf4d120950e01", "lat": 38.897665833333335, "fusion_lon": 0.0, "fusion_lat": 0.0, "type": "electric_scooter", "name": "51282f08966e2742d32cf4d120950e01", "is_disabled": 0, "rental_uris": {"ios": "https://dc.lft.to/lastmile_qr_scan", "android": "https://dc.lft.to/lastmile_qr_scan"}, "is_reserved": 0}, {"lon": -76.94892866666666, "bike_id": "82ca30c752fa88773d4077387ff69d87", "lat": 38.89529916666667, "fusion_lon": 0.0, "fusion_lat": 0.0, "type": "electric_scooter", "name": "82ca30c752fa88773d4077387ff69d87", "is_disabled": 0, "rental_uris": {"ios": "https://dc.lft.to/lastmile_qr_scan", "android": "https://dc.lft.to/lastmile_qr_scan"}, "is_reserved": 0}, {"lon": -77.00676366666667, "bike_id": "c24190b354ab0830b250150eee0eda96", "lat": 38.87839133333333, "fusion_lon": 0.0, "fusion_lat": 0.0, "type": "electric_scooter", "name": "c24190b354ab0830b250150eee0eda96", "is_disabled": 0, "rental_uris": {"ios": "https://dc.lft.to/lastmile_qr_scan", "android": "https://dc.lft.to/lastmile_qr_scan"}, "is_reserved": 0}, {"lon": -77.0186385, "bike_id": "9b9d3d3b8b29a262a50b6fe3035805b5", "lat": 38.901342166666666, "fusion_lon": 0.0, "fusion_lat": 0.0, "type": "electric_scooter", "name": "9b9d3d3b8b29a262a50b6fe3035805b5", "is_disabled": 0, "rental_uris": {"ios": "https://dc.lft.to/lastmile_qr_scan", "android": "https://dc.lft.to/lastmile_qr_scan"}, "is_reserved": 0}, {"lon": -77.00726183333333, "bike_id": "2edf5c30f59e915b4bb1039a623588e9", "lat": 38.95063233333333, "fusion_lon": 0.0, "fusion_lat": 0.0, "type": "electric_bike", "name": "2edf5c30f59e915b4bb1039a623588e9", "is_disabled": 0, "rental_uris": {"ios": "https://dc.lft.to/lastmile_qr_scan", "android": "https://dc.lft.to/lastmile_qr_scan"}, "is_reserved": 0}, {"lon": -77.08821583333334, "bike_id": "bfe4617c23b9e6b3b3e0530cadd8d5cc", "lat": 38.909756333333334, "fusion_lon": 0.0, "fusion_lat": 0.0, "type": "electric_scooter", "name": "bfe4617c23b9e6b3b3e0530cadd8d5cc", "is_disabled": 0, "rental_uris": {"ios": "https://dc.lft.to/lastmile_qr_scan", "android": "https://dc.lft.to/lastmile_qr_scan"}, "is_reserved": 0}, {"lon": -77.0020445, "bike_id": "8638761364d1b12fdce6aebb8690a1db", "lat": 38.900343666666664, "fusion_lon": 0.0, "fusion_lat": 0.0, "type": "electric_scooter", "name": "8638761364d1b12fdce6aebb8690a1db", "is_disabled": 0, "rental_uris": {"ios": "https://dc.lft.to/lastmile_qr_scan", "android": "https://dc.lft.to/lastmile_qr_scan"}, "is_reserved": 0}, {"lon": -77.00549683333334, "bike_id": "4a3eeafbbc46d78237ff618e337a8f54", "lat": 38.874576833333336, "fusion_lon": 0.0, "fusion_lat": 0.0, "type": "electric_scooter", "name": "4a3eeafbbc46d78237ff618e337a8f54", "is_disabled": 0, "rental_uris": {"ios": "https://dc.lft.to/lastmile_qr_scan", "android": "https://dc.lft.to/lastmile_qr_scan"}, "is_reserved": 0}, {"lon": -76.99271083333333, "bike_id": "9943ae9e7f69e7d118dbc912e22ec69e", "lat": 38.89613, "fusion_lon": 0.0, "fusion_lat": 0.0, "type": "electric_scooter", "name": "9943ae9e7f69e7d118dbc912e22ec69e", "is_disabled": 0, "rental_uris": {"ios": "https://dc.lft.to/lastmile_qr_scan", "android": "https://dc.lft.to/lastmile_qr_scan"}, "is_reserved": 0}, {"lon": -77.04483466666667, "bike_id": "7c5f48de69836ab735a8ea9ff5b2def5", "lat": 38.912880666666666, "fusion_lon": 0.0, "fusion_lat": 0.0, "type": "electric_scooter", "name": "7c5f48de69836ab735a8ea9ff5b2def5", "is_disabled": 0, "rental_uris": {"ios": "https://dc.lft.to/lastmile_qr_scan", "android": "https://dc.lft.to/lastmile_qr_scan"}, "is_reserved": 0}, {"lon": -77.047132, "bike_id": "e85cbb36651d55db52d7f7569ff67e49", "lat": 38.89951033333333, "fusion_lon": 0.0, "fusion_lat": 0.0, "type": "electric_scooter", "name": "e85cbb36651d55db52d7f7569ff67e49", "is_disabled": 0, "rental_uris": {"ios": "https://dc.lft.to/lastmile_qr_scan", "android": "https://dc.lft.to/lastmile_qr_scan"}, "is_reserved": 0}, {"lon": -77.03176416666666, "bike_id": "42693b9d6b4debdb64c5d9f5a85a1543", "lat": 38.89222633333333, "fusion_lon": 0.0, "fusion_lat": 0.0, "type": "electric_scooter", "name": "42693b9d6b4debdb64c5d9f5a85a1543", "is_disabled": 0, "rental_uris": {"ios": "https://dc.lft.to/lastmile_qr_scan", "android": "https://dc.lft.to/lastmile_qr_scan"}, "is_reserved": 0}, {"lon": -77.0362965, "bike_id": "2e9127a175fd469facd251ab8bcf6fd3", "lat": 38.9376945, "fusion_lon": 0.0, "fusion_lat": 0.0, "type": "electric_bike", "name": "2e9127a175fd469facd251ab8bcf6fd3", "is_disabled": 0, "rental_uris": {"ios": "https://dc.lft.to/lastmile_qr_scan", "android": "https://dc.lft.to/lastmile_qr_scan"}, "is_reserved": 0}, {"lon": -77.0572615, "bike_id": "17d4ca566efbbd910e15569aa49274bb", "lat": 38.933636166666666, "fusion_lon": 0.0, "fusion_lat": 0.0, "type": "electric_scooter", "name": "17d4ca566efbbd910e15569aa49274bb", "is_disabled": 0, "rental_uris": {"ios": "https://dc.lft.to/lastmile_qr_scan", "android": "https://dc.lft.to/lastmile_qr_scan"}, "is_reserved": 0}, {"lon": -77.06520283333333, "bike_id": "3f3df235a3fd4542ad0e1eda7a176560", "lat": 38.9088335, "fusion_lon": 0.0, "fusion_lat": 0.0, "type": "electric_scooter", "name": "3f3df235a3fd4542ad0e1eda7a176560", "is_disabled": 0, "rental_uris": {"ios": "https://dc.lft.to/lastmile_qr_scan", "android": "https://dc.lft.to/lastmile_qr_scan"}, "is_reserved": 0}, {"lon": -76.97331133333333, "bike_id": "538914b0e449f534f6b59f35c57bcb0d", "lat": 38.904834, "fusion_lon": 0.0, "fusion_lat": 0.0, "type": "electric_bike", "name": "538914b0e449f534f6b59f35c57bcb0d", "is_disabled": 0, "rental_uris": {"ios": "https://dc.lft.to/lastmile_qr_scan", "android": "https://dc.lft.to/lastmile_qr_scan"}, "is_reserved": 0}, {"lon": -76.97904566666666, "bike_id": "4480e2ecabe8f523bcebe3566432de81", "lat": 38.9246055, "fusion_lon": 0.0, "fusion_lat": 0.0, "type": "electric_bike", "name": "4480e2ecabe8f523bcebe3566432de81", "is_disabled": 0, "rental_uris": {"ios": "https://dc.lft.to/lastmile_qr_scan", "android": "https://dc.lft.to/lastmile_qr_scan"}, "is_reserved": 0}, {"lon": -76.99793333333334, "bike_id": "dab204a565327197012400c8848f175b", "lat": 38.95641166666667, "fusion_lon": 0.0, "fusion_lat": 0.0, "type": "electric_bike", "name": "dab204a565327197012400c8848f175b", "is_disabled": 0, "rental_uris": {"ios": "https://dc.lft.to/lastmile_qr_scan", "android": "https://dc.lft.to/lastmile_qr_scan"}, "is_reserved": 0}, {"lon": -77.01788166666667, "bike_id": "bba6d7127f9a91de69164eebee408f4f", "lat": 38.900794166666664, "fusion_lon": 0.0, "fusion_lat": 0.0, "type": "electric_scooter", "name": "bba6d7127f9a91de69164eebee408f4f", "is_disabled": 0, "rental_uris": {"ios": "https://dc.lft.to/lastmile_qr_scan", "android": "https://dc.lft.to/lastmile_qr_scan"}, "is_reserved": 0}, {"lon": -77.00033483333333, "bike_id": "61b1126e620edf6ee2cba1d830ffd36b", "lat": 38.87439166666667, "fusion_lon": 0.0, "fusion_lat": 0.0, "type": "electric_scooter", "name": "61b1126e620edf6ee2cba1d830ffd36b", "is_disabled": 0, "rental_uris": {"ios": "https://dc.lft.to/lastmile_qr_scan", "android": "https://dc.lft.to/lastmile_qr_scan"}, "is_reserved": 0}, {"lon": -76.925823, "bike_id": "40433366eeb2e1afec6e11730ed65403", "lat": 38.89779633333333, "fusion_lon": 0.0, "fusion_lat": 0.0, "type": "electric_scooter", "name": "40433366eeb2e1afec6e11730ed65403", "is_disabled": 0, "rental_uris": {"ios": "https://dc.lft.to/lastmile_qr_scan", "android": "https://dc.lft.to/lastmile_qr_scan"}, "is_reserved": 0}, {"lon": -77.02397, "bike_id": "29363da9464c337258e5b91fde00dde3", "lat": 38.881315666666666, "fusion_lon": 0.0, "fusion_lat": 0.0, "type": "electric_scooter", "name": "29363da9464c337258e5b91fde00dde3", "is_disabled": 0, "rental_uris": {"ios": "https://dc.lft.to/lastmile_qr_scan", "android": "https://dc.lft.to/lastmile_qr_scan"}, "is_reserved": 0}, {"lon": -76.9761845, "bike_id": "94b71cc6ac9a16826a199fa76faf49d9", "lat": 38.903833666666664, "fusion_lon": 0.0, "fusion_lat": 0.0, "type": "electric_scooter", "name": "94b71cc6ac9a16826a199fa76faf49d9", "is_disabled": 0, "rental_uris": {"ios": "https://dc.lft.to/lastmile_qr_scan", "android": "https://dc.lft.to/lastmile_qr_scan"}, "is_reserved": 0}, {"lon": -77.040252, "bike_id": "574faf3e33a8af683401f16e58fd9b9f", "lat": 38.92451233333333, "fusion_lon": 0.0, "fusion_lat": 0.0, "type": "electric_scooter", "name": "574faf3e33a8af683401f16e58fd9b9f", "is_disabled": 0, "rental_uris": {"ios": "https://dc.lft.to/lastmile_qr_scan", "android": "https://dc.lft.to/lastmile_qr_scan"}, "is_reserved": 0}, {"lon": -77.0006785, "bike_id": "3c873b2f19917eafdc2b83061343ede2", "lat": 38.9243135, "fusion_lon": 0.0, "fusion_lat": 0.0, "type": "electric_scooter", "name": "3c873b2f19917eafdc2b83061343ede2", "is_disabled": 0, "rental_uris": {"ios": "https://dc.lft.to/lastmile_qr_scan", "android": "https://dc.lft.to/lastmile_qr_scan"}, "is_reserved": 0}, {"lon": -76.99768433333334, "bike_id": "5d34cd8d1dbb3f48669721acea7c6c63", "lat": 38.922962166666665, "fusion_lon": 0.0, "fusion_lat": 0.0, "type": "electric_scooter", "name": "5d34cd8d1dbb3f48669721acea7c6c63", "is_disabled": 0, "rental_uris": {"ios": "https://dc.lft.to/lastmile_qr_scan", "android": "https://dc.lft.to/lastmile_qr_scan"}, "is_reserved": 0}, {"lon": -77.00922616666666, "bike_id": "18f338103b95ec46d9103c4ca4630a91", "lat": 38.827848, "fusion_lon": 0.0, "fusion_lat": 0.0, "type": "electric_bike", "name": "18f338103b95ec46d9103c4ca4630a91", "is_disabled": 0, "rental_uris": {"ios": "https://dc.lft.to/lastmile_qr_scan", "android": "https://dc.lft.to/lastmile_qr_scan"}, "is_reserved": 0}, {"lon": -76.96359083333333, "bike_id": "a1505846326990bf88c319eebd86860d", "lat": 38.93492583333333, "fusion_lon": 0.0, "fusion_lat": 0.0, "type": "electric_scooter", "name": "a1505846326990bf88c319eebd86860d", "is_disabled": 0, "rental_uris": {"ios": "https://dc.lft.to/lastmile_qr_scan", "android": "https://dc.lft.to/lastmile_qr_scan"}, "is_reserved": 0}, {"lon": -77.03247733333333, "bike_id": "4a2a09adf9340f0dd3f5786fd94b3ea3", "lat": 38.905469833333335, "fusion_lon": 0.0, "fusion_lat": 0.0, "type": "electric_scooter", "name": "4a2a09adf9340f0dd3f5786fd94b3ea3", "is_disabled": 0, "rental_uris": {"ios": "https://dc.lft.to/lastmile_qr_scan", "android": "https://dc.lft.to/lastmile_qr_scan"}, "is_reserved": 0}, {"lon": -77.0317785, "bike_id": "ee154ff6bbe915fdcaf1757100294149", "lat": 38.9192035, "fusion_lon": 0.0, "fusion_lat": 0.0, "type": "electric_scooter", "name": "ee154ff6bbe915fdcaf1757100294149", "is_disabled": 0, "rental_uris": {"ios": "https://dc.lft.to/lastmile_qr_scan", "android": "https://dc.lft.to/lastmile_qr_scan"}, "is_reserved": 0}, {"lon": -77.022244, "bike_id": "6921cfe67d535485b98cc54c55cc6f23", "lat": 38.899863833333335, "fusion_lon": 0.0, "fusion_lat": 0.0, "type": "electric_scooter", "name": "6921cfe67d535485b98cc54c55cc6f23", "is_disabled": 0, "rental_uris": {"ios": "https://dc.lft.to/lastmile_qr_scan", "android": "https://dc.lft.to/lastmile_qr_scan"}, "is_reserved": 0}, {"lon": -77.047218, "bike_id": "5608d79fe32a42d0e355dcf6a0c4dc31", "lat": 38.922375833333334, "fusion_lon": 0.0, "fusion_lat": 0.0, "type": "electric_scooter", "name": "5608d79fe32a42d0e355dcf6a0c4dc31", "is_disabled": 0, "rental_uris": {"ios": "https://dc.lft.to/lastmile_qr_scan", "android": "https://dc.lft.to/lastmile_qr_scan"}, "is_reserved": 0}, {"lon": -77.03513783333334, "bike_id": "55680db86fef8e6f98423306e99bae22", "lat": 38.90682483333333, "fusion_lon": 0.0, "fusion_lat": 0.0, "type": "electric_scooter", "name": "55680db86fef8e6f98423306e99bae22", "is_disabled": 0, "rental_uris": {"ios": "https://dc.lft.to/lastmile_qr_scan", "android": "https://dc.lft.to/lastmile_qr_scan"}, "is_reserved": 0}, {"lon": -77.03215916666667, "bike_id": "aca57f838acec9a892b24392578310e4", "lat": 38.919247166666665, "fusion_lon": 0.0, "fusion_lat": 0.0, "type": "electric_scooter", "name": "aca57f838acec9a892b24392578310e4", "is_disabled": 0, "rental_uris": {"ios": "https://dc.lft.to/lastmile_qr_scan", "android": "https://dc.lft.to/lastmile_qr_scan"}, "is_reserved": 0}, {"lon": -77.01304233333333, "bike_id": "dc8b0920446a7e1d1d331544b203d055", "lat": 38.9432585, "fusion_lon": 0.0, "fusion_lat": 0.0, "type": "electric_scooter", "name": "dc8b0920446a7e1d1d331544b203d055", "is_disabled": 0, "rental_uris": {"ios": "https://dc.lft.to/lastmile_qr_scan", "android": "https://dc.lft.to/lastmile_qr_scan"}, "is_reserved": 0}, {"lon": -76.98096016666666, "bike_id": "f8e67ad317b65e940ea800c8e8eb4701", "lat": 38.90527683333333, "fusion_lon": 0.0, "fusion_lat": 0.0, "type": "electric_scooter", "name": "f8e67ad317b65e940ea800c8e8eb4701", "is_disabled": 0, "rental_uris": {"ios": "https://dc.lft.to/lastmile_qr_scan", "android": "https://dc.lft.to/lastmile_qr_scan"}, "is_reserved": 0}, {"lon": -77.07004366666666, "bike_id": "a8b24e84fcde03c2d9cc5ca55ca812dd", "lat": 38.95849183333333, "fusion_lon": 0.0, "fusion_lat": 0.0, "type": "electric_scooter", "name": "a8b24e84fcde03c2d9cc5ca55ca812dd", "is_disabled": 0, "rental_uris": {"ios": "https://dc.lft.to/lastmile_qr_scan", "android": "https://dc.lft.to/lastmile_qr_scan"}, "is_reserved": 0}, {"lon": -76.99958383333333, "bike_id": "108cb97666410f0deb1db6aa4115c8e3", "lat": 38.89818133333333, "fusion_lon": 0.0, "fusion_lat": 0.0, "type": "electric_scooter", "name": "108cb97666410f0deb1db6aa4115c8e3", "is_disabled": 0, "rental_uris": {"ios": "https://dc.lft.to/lastmile_qr_scan", "android": "https://dc.lft.to/lastmile_qr_scan"}, "is_reserved": 0}, {"lon": -77.0367255, "bike_id": "49138441710008c67a6835bda61457b4", "lat": 38.92330316666666, "fusion_lon": 0.0, "fusion_lat": 0.0, "type": "electric_scooter", "name": "49138441710008c67a6835bda61457b4", "is_disabled": 0, "rental_uris": {"ios": "https://dc.lft.to/lastmile_qr_scan", "android": "https://dc.lft.to/lastmile_qr_scan"}, "is_reserved": 0}, {"lon": -77.03939883333334, "bike_id": "c5de15d419cc6bec3dbfaf9f64b8f6af", "lat": 38.90063983333334, "fusion_lon": 0.0, "fusion_lat": 0.0, "type": "electric_scooter", "name": "c5de15d419cc6bec3dbfaf9f64b8f6af", "is_disabled": 0, "rental_uris": {"ios": "https://dc.lft.to/lastmile_qr_scan", "android": "https://dc.lft.to/lastmile_qr_scan"}, "is_reserved": 0}, {"lon": -77.0057255, "bike_id": "9d00113589b8444ed1e9b85835a09ba0", "lat": 38.83592016666667, "fusion_lon": 0.0, "fusion_lat": 0.0, "type": "electric_scooter", "name": "9d00113589b8444ed1e9b85835a09ba0", "is_disabled": 0, "rental_uris": {"ios": "https://dc.lft.to/lastmile_qr_scan", "android": "https://dc.lft.to/lastmile_qr_scan"}, "is_reserved": 0}, {"lon": -76.99371283333333, "bike_id": "516dde3bb6566bb49103f00715a473b0", "lat": 38.971869833333336, "fusion_lon": 0.0, "fusion_lat": 0.0, "type": "electric_bike", "name": "516dde3bb6566bb49103f00715a473b0", "is_disabled": 0, "rental_uris": {"ios": "https://dc.lft.to/lastmile_qr_scan", "android": "https://dc.lft.to/lastmile_qr_scan"}, "is_reserved": 0}, {"lon": -77.0487805, "bike_id": "d583c179dbd2408d8dace25ca5e308f6", "lat": 38.8923235, "fusion_lon": 0.0, "fusion_lat": 0.0, "type": "electric_scooter", "name": "d583c179dbd2408d8dace25ca5e308f6", "is_disabled": 0, "rental_uris": {"ios": "https://dc.lft.to/lastmile_qr_scan", "android": "https://dc.lft.to/lastmile_qr_scan"}, "is_reserved": 0}, {"lon": -77.0279705, "bike_id": "995e0b7169520555a09452dec4360e3e", "lat": 38.9393095, "fusion_lon": 0.0, "fusion_lat": 0.0, "type": "electric_scooter", "name": "995e0b7169520555a09452dec4360e3e", "is_disabled": 0, "rental_uris": {"ios": "https://dc.lft.to/lastmile_qr_scan", "android": "https://dc.lft.to/lastmile_qr_scan"}, "is_reserved": 0}, {"lon": -76.94885183333334, "bike_id": "43f15f9fc46b3628407408a7affd9ad4", "lat": 38.895411833333334, "fusion_lon": 0.0, "fusion_lat": 0.0, "type": "electric_scooter", "name": "43f15f9fc46b3628407408a7affd9ad4", "is_disabled": 0, "rental_uris": {"ios": "https://dc.lft.to/lastmile_qr_scan", "android": "https://dc.lft.to/lastmile_qr_scan"}, "is_reserved": 0}, {"lon": -76.96155366666666, "bike_id": "a02c4039fdc6e17e12be27167e3d3dc9", "lat": 38.883574, "fusion_lon": 0.0, "fusion_lat": 0.0, "type": "electric_scooter", "name": "a02c4039fdc6e17e12be27167e3d3dc9", "is_disabled": 0, "rental_uris": {"ios": "https://dc.lft.to/lastmile_qr_scan", "android": "https://dc.lft.to/lastmile_qr_scan"}, "is_reserved": 0}, {"lon": -77.02711233333333, "bike_id": "48c67ca1f45f0cf0e8462e70763a602f", "lat": 38.9246965, "fusion_lon": 0.0, "fusion_lat": 0.0, "type": "electric_scooter", "name": "48c67ca1f45f0cf0e8462e70763a602f", "is_disabled": 0, "rental_uris": {"ios": "https://dc.lft.to/lastmile_qr_scan", "android": "https://dc.lft.to/lastmile_qr_scan"}, "is_reserved": 0}, {"lon": -76.9904895, "bike_id": "b9820d282f6672e022148ff27e1343f6", "lat": 38.887637, "fusion_lon": 0.0, "fusion_lat": 0.0, "type": "electric_scooter", "name": "b9820d282f6672e022148ff27e1343f6", "is_disabled": 0, "rental_uris": {"ios": "https://dc.lft.to/lastmile_qr_scan", "android": "https://dc.lft.to/lastmile_qr_scan"}, "is_reserved": 0}, {"lon": -77.034104, "bike_id": "52e2a1a25c3b52d0b761777b1ed36574", "lat": 38.9203505, "fusion_lon": 0.0, "fusion_lat": 0.0, "type": "electric_bike", "name": "52e2a1a25c3b52d0b761777b1ed36574", "is_disabled": 0, "rental_uris": {"ios": "https://dc.lft.to/lastmile_qr_scan", "android": "https://dc.lft.to/lastmile_qr_scan"}, "is_reserved": 0}, {"lon": -77.00806133333333, "bike_id": "b02ff0ff8913cec64e6be38d37dece44", "lat": 38.905562, "fusion_lon": 0.0, "fusion_lat": 0.0, "type": "electric_scooter", "name": "b02ff0ff8913cec64e6be38d37dece44", "is_disabled": 0, "rental_uris": {"ios": "https://dc.lft.to/lastmile_qr_scan", "android": "https://dc.lft.to/lastmile_qr_scan"}, "is_reserved": 0}, {"lon": -76.967818, "bike_id": "6fa549ff3f5e22f18326637e6c0a2302", "lat": 38.86842633333333, "fusion_lon": 0.0, "fusion_lat": 0.0, "type": "electric_scooter", "name": "6fa549ff3f5e22f18326637e6c0a2302", "is_disabled": 0, "rental_uris": {"ios": "https://dc.lft.to/lastmile_qr_scan", "android": "https://dc.lft.to/lastmile_qr_scan"}, "is_reserved": 0}, {"lon": -76.99835783333333, "bike_id": "80a9138d386c2303427e7750cf7b05fc", "lat": 38.902162, "fusion_lon": 0.0, "fusion_lat": 0.0, "type": "electric_scooter", "name": "80a9138d386c2303427e7750cf7b05fc", "is_disabled": 0, "rental_uris": {"ios": "https://dc.lft.to/lastmile_qr_scan", "android": "https://dc.lft.to/lastmile_qr_scan"}, "is_reserved": 0}, {"lon": -77.0389235, "bike_id": "cefaa90496424c0cc220d6a117aa7289", "lat": 38.910015, "fusion_lon": 0.0, "fusion_lat": 0.0, "type": "electric_scooter", "name": "cefaa90496424c0cc220d6a117aa7289", "is_disabled": 0, "rental_uris": {"ios": "https://dc.lft.to/lastmile_qr_scan", "android": "https://dc.lft.to/lastmile_qr_scan"}, "is_reserved": 0}, {"lon": -77.03866866666667, "bike_id": "f853215c78b107643187d2274166e917", "lat": 38.94506633333334, "fusion_lon": 0.0, "fusion_lat": 0.0, "type": "electric_scooter", "name": "f853215c78b107643187d2274166e917", "is_disabled": 0, "rental_uris": {"ios": "https://dc.lft.to/lastmile_qr_scan", "android": "https://dc.lft.to/lastmile_qr_scan"}, "is_reserved": 0}, {"lon": -77.03182066666666, "bike_id": "8cc64e92479bc7b5e73e6b9d92347ca9", "lat": 38.91921933333333, "fusion_lon": 0.0, "fusion_lat": 0.0, "type": "electric_scooter", "name": "8cc64e92479bc7b5e73e6b9d92347ca9", "is_disabled": 0, "rental_uris": {"ios": "https://dc.lft.to/lastmile_qr_scan", "android": "https://dc.lft.to/lastmile_qr_scan"}, "is_reserved": 0}, {"lon": -76.93534916666667, "bike_id": "4e99421a7d953923a282fef7141838df", "lat": 38.896839, "fusion_lon": 0.0, "fusion_lat": 0.0, "type": "electric_scooter", "name": "4e99421a7d953923a282fef7141838df", "is_disabled": 0, "rental_uris": {"ios": "https://dc.lft.to/lastmile_qr_scan", "android": "https://dc.lft.to/lastmile_qr_scan"}, "is_reserved": 0}, {"lon": -76.98098933333333, "bike_id": "1d467bcea6081d41a6bc3ea697a5cc41", "lat": 38.89548116666667, "fusion_lon": 0.0, "fusion_lat": 0.0, "type": "electric_scooter", "name": "1d467bcea6081d41a6bc3ea697a5cc41", "is_disabled": 0, "rental_uris": {"ios": "https://dc.lft.to/lastmile_qr_scan", "android": "https://dc.lft.to/lastmile_qr_scan"}, "is_reserved": 0}, {"lon": -77.010578, "bike_id": "109c53f08cdbb93719d4bbb3ee8ffd0e", "lat": 38.8786825, "fusion_lon": 0.0, "fusion_lat": 0.0, "type": "electric_scooter", "name": "109c53f08cdbb93719d4bbb3ee8ffd0e", "is_disabled": 0, "rental_uris": {"ios": "https://dc.lft.to/lastmile_qr_scan", "android": "https://dc.lft.to/lastmile_qr_scan"}, "is_reserved": 0}, {"lon": -76.99885083333334, "bike_id": "4de64a5874e582a3268e204672d74678", "lat": 38.92056, "fusion_lon": 0.0, "fusion_lat": 0.0, "type": "electric_scooter", "name": "4de64a5874e582a3268e204672d74678", "is_disabled": 0, "rental_uris": {"ios": "https://dc.lft.to/lastmile_qr_scan", "android": "https://dc.lft.to/lastmile_qr_scan"}, "is_reserved": 0}, {"lon": -77.03299616666666, "bike_id": "0859c59ac4802a0d477016a1afa4870e", "lat": 38.9010355, "fusion_lon": 0.0, "fusion_lat": 0.0, "type": "electric_scooter", "name": "0859c59ac4802a0d477016a1afa4870e", "is_disabled": 0, "rental_uris": {"ios": "https://dc.lft.to/lastmile_qr_scan", "android": "https://dc.lft.to/lastmile_qr_scan"}, "is_reserved": 0}, {"lon": -77.0058955, "bike_id": "79e6658d14af655c012d3345680ba7b8", "lat": 38.90562533333333, "fusion_lon": 0.0, "fusion_lat": 0.0, "type": "electric_scooter", "name": "79e6658d14af655c012d3345680ba7b8", "is_disabled": 0, "rental_uris": {"ios": "https://dc.lft.to/lastmile_qr_scan", "android": "https://dc.lft.to/lastmile_qr_scan"}, "is_reserved": 0}, {"lon": -76.97301266666666, "bike_id": "97f28da17b3cce3be61fff2972119ecd", "lat": 38.91646683333333, "fusion_lon": 0.0, "fusion_lat": 0.0, "type": "electric_scooter", "name": "97f28da17b3cce3be61fff2972119ecd", "is_disabled": 0, "rental_uris": {"ios": "https://dc.lft.to/lastmile_qr_scan", "android": "https://dc.lft.to/lastmile_qr_scan"}, "is_reserved": 0}, {"lon": -77.0153715, "bike_id": "5245f8b38dfed841f371ef8f44c05688", "lat": 38.8873995, "fusion_lon": 0.0, "fusion_lat": 0.0, "type": "electric_scooter", "name": "5245f8b38dfed841f371ef8f44c05688", "is_disabled": 0, "rental_uris": {"ios": "https://dc.lft.to/lastmile_qr_scan", "android": "https://dc.lft.to/lastmile_qr_scan"}, "is_reserved": 0}, {"lon": -76.94401483333333, "bike_id": "b66260bf8c98ffdab327081e88bc14b3", "lat": 38.8814085, "fusion_lon": 0.0, "fusion_lat": 0.0, "type": "electric_scooter", "name": "b66260bf8c98ffdab327081e88bc14b3", "is_disabled": 0, "rental_uris": {"ios": "https://dc.lft.to/lastmile_qr_scan", "android": "https://dc.lft.to/lastmile_qr_scan"}, "is_reserved": 0}, {"lon": -77.05047383333333, "bike_id": "da0e3eaa6ada68e14c0c47431bbe6844", "lat": 38.924149, "fusion_lon": 0.0, "fusion_lat": 0.0, "type": "electric_bike", "name": "da0e3eaa6ada68e14c0c47431bbe6844", "is_disabled": 0, "rental_uris": {"ios": "https://dc.lft.to/lastmile_qr_scan", "android": "https://dc.lft.to/lastmile_qr_scan"}, "is_reserved": 0}, {"lon": -77.022858, "bike_id": "78c00b96a25b57443a1462b6d1b7db2b", "lat": 38.912159833333334, "fusion_lon": 0.0, "fusion_lat": 0.0, "type": "electric_scooter", "name": "78c00b96a25b57443a1462b6d1b7db2b", "is_disabled": 0, "rental_uris": {"ios": "https://dc.lft.to/lastmile_qr_scan", "android": "https://dc.lft.to/lastmile_qr_scan"}, "is_reserved": 0}, {"lon": -76.99354316666667, "bike_id": "d1edb3321044b794e738401085ef2291", "lat": 38.845048, "fusion_lon": 0.0, "fusion_lat": 0.0, "type": "electric_bike", "name": "d1edb3321044b794e738401085ef2291", "is_disabled": 0, "rental_uris": {"ios": "https://dc.lft.to/lastmile_qr_scan", "android": "https://dc.lft.to/lastmile_qr_scan"}, "is_reserved": 0}, {"lon": -77.0417175, "bike_id": "ef831c2cad882316c009cc0ef738b319", "lat": 38.9231125, "fusion_lon": 0.0, "fusion_lat": 0.0, "type": "electric_scooter", "name": "ef831c2cad882316c009cc0ef738b319", "is_disabled": 0, "rental_uris": {"ios": "https://dc.lft.to/lastmile_qr_scan", "android": "https://dc.lft.to/lastmile_qr_scan"}, "is_reserved": 0}, {"lon": -77.01012266666666, "bike_id": "5594468ec12cd7944077e7a1c7685c9c", "lat": 38.89468866666667, "fusion_lon": 0.0, "fusion_lat": 0.0, "type": "electric_scooter", "name": "5594468ec12cd7944077e7a1c7685c9c", "is_disabled": 0, "rental_uris": {"ios": "https://dc.lft.to/lastmile_qr_scan", "android": "https://dc.lft.to/lastmile_qr_scan"}, "is_reserved": 0}, {"lon": -77.03425366666667, "bike_id": "568d724f8b11844ecd112c32decb7c51", "lat": 38.919295166666664, "fusion_lon": 0.0, "fusion_lat": 0.0, "type": "electric_scooter", "name": "568d724f8b11844ecd112c32decb7c51", "is_disabled": 0, "rental_uris": {"ios": "https://dc.lft.to/lastmile_qr_scan", "android": "https://dc.lft.to/lastmile_qr_scan"}, "is_reserved": 0}, {"lon": -77.03209766666667, "bike_id": "47e66c27910697b3a15aaf3489a381c6", "lat": 38.92189716666667, "fusion_lon": 0.0, "fusion_lat": 0.0, "type": "electric_scooter", "name": "47e66c27910697b3a15aaf3489a381c6", "is_disabled": 0, "rental_uris": {"ios": "https://dc.lft.to/lastmile_qr_scan", "android": "https://dc.lft.to/lastmile_qr_scan"}, "is_reserved": 0}, {"lon": -77.02629266666666, "bike_id": "36d1f3d675b4feaf532aae8699b99166", "lat": 38.96216783333333, "fusion_lon": 0.0, "fusion_lat": 0.0, "type": "electric_bike", "name": "36d1f3d675b4feaf532aae8699b99166", "is_disabled": 0, "rental_uris": {"ios": "https://dc.lft.to/lastmile_qr_scan", "android": "https://dc.lft.to/lastmile_qr_scan"}, "is_reserved": 0}, {"lon": -77.0092525, "bike_id": "ad0e19624dfca601206337782e07b969", "lat": 38.89604333333333, "fusion_lon": 0.0, "fusion_lat": 0.0, "type": "electric_scooter", "name": "ad0e19624dfca601206337782e07b969", "is_disabled": 0, "rental_uris": {"ios": "https://dc.lft.to/lastmile_qr_scan", "android": "https://dc.lft.to/lastmile_qr_scan"}, "is_reserved": 0}, {"lon": -77.04228416666666, "bike_id": "18613eb70827b03cd1a21a9ad6c4eb02", "lat": 38.917026166666666, "fusion_lon": 0.0, "fusion_lat": 0.0, "type": "electric_scooter", "name": "18613eb70827b03cd1a21a9ad6c4eb02", "is_disabled": 0, "rental_uris": {"ios": "https://dc.lft.to/lastmile_qr_scan", "android": "https://dc.lft.to/lastmile_qr_scan"}, "is_reserved": 0}, {"lon": -76.995325, "bike_id": "06a733160e1cabbb9162fa19942cf5e9", "lat": 38.88373766666667, "fusion_lon": 0.0, "fusion_lat": 0.0, "type": "electric_scooter", "name": "06a733160e1cabbb9162fa19942cf5e9", "is_disabled": 0, "rental_uris": {"ios": "https://dc.lft.to/lastmile_qr_scan", "android": "https://dc.lft.to/lastmile_qr_scan"}, "is_reserved": 0}, {"lon": -77.01912883333334, "bike_id": "550fca9f8c853469323e924e91aa21b0", "lat": 38.88633566666667, "fusion_lon": 0.0, "fusion_lat": 0.0, "type": "electric_scooter", "name": "550fca9f8c853469323e924e91aa21b0", "is_disabled": 0, "rental_uris": {"ios": "https://dc.lft.to/lastmile_qr_scan", "android": "https://dc.lft.to/lastmile_qr_scan"}, "is_reserved": 0}, {"lon": -77.1856405, "bike_id": "88bc334ec3e54ba1c0ca615f02238753", "lat": 39.09977033333333, "fusion_lon": 0.0, "fusion_lat": 0.0, "type": "electric_bike", "name": "88bc334ec3e54ba1c0ca615f02238753", "is_disabled": 0, "rental_uris": {"ios": "https://dc.lft.to/lastmile_qr_scan", "android": "https://dc.lft.to/lastmile_qr_scan"}, "is_reserved": 0}, {"lon": -76.96261516666667, "bike_id": "3bc3ef58cd87b9e3b05e555712786e90", "lat": 38.882464666666664, "fusion_lon": 0.0, "fusion_lat": 0.0, "type": "electric_bike", "name": "3bc3ef58cd87b9e3b05e555712786e90", "is_disabled": 0, "rental_uris": {"ios": "https://dc.lft.to/lastmile_qr_scan", "android": "https://dc.lft.to/lastmile_qr_scan"}, "is_reserved": 0}, {"lon": -77.00193716666666, "bike_id": "9718be28c6e02c79e3ac0cab3c6c2f74", "lat": 38.891102333333336, "fusion_lon": 0.0, "fusion_lat": 0.0, "type": "electric_scooter", "name": "9718be28c6e02c79e3ac0cab3c6c2f74", "is_disabled": 0, "rental_uris": {"ios": "https://dc.lft.to/lastmile_qr_scan", "android": "https://dc.lft.to/lastmile_qr_scan"}, "is_reserved": 0}, {"lon": -77.03174016666667, "bike_id": "33505b27e202b60b11c169351e773c8d", "lat": 38.936069333333336, "fusion_lon": 0.0, "fusion_lat": 0.0, "type": "electric_scooter", "name": "33505b27e202b60b11c169351e773c8d", "is_disabled": 0, "rental_uris": {"ios": "https://dc.lft.to/lastmile_qr_scan", "android": "https://dc.lft.to/lastmile_qr_scan"}, "is_reserved": 0}, {"lon": -76.98777516666667, "bike_id": "76e815866b8129627316d432a02876da", "lat": 38.866095666666666, "fusion_lon": 0.0, "fusion_lat": 0.0, "type": "electric_bike", "name": "76e815866b8129627316d432a02876da", "is_disabled": 0, "rental_uris": {"ios": "https://dc.lft.to/lastmile_qr_scan", "android": "https://dc.lft.to/lastmile_qr_scan"}, "is_reserved": 0}, {"lon": -77.00658683333333, "bike_id": "ed2d6df2ecc82eb2c8410d6b1bfc586b", "lat": 38.944617666666666, "fusion_lon": 0.0, "fusion_lat": 0.0, "type": "electric_scooter", "name": "ed2d6df2ecc82eb2c8410d6b1bfc586b", "is_disabled": 0, "rental_uris": {"ios": "https://dc.lft.to/lastmile_qr_scan", "android": "https://dc.lft.to/lastmile_qr_scan"}, "is_reserved": 0}, {"lon": -77.03182233333334, "bike_id": "ef5a23385f49c3290c916373f653e632", "lat": 38.929141, "fusion_lon": 0.0, "fusion_lat": 0.0, "type": "electric_scooter", "name": "ef5a23385f49c3290c916373f653e632", "is_disabled": 0, "rental_uris": {"ios": "https://dc.lft.to/lastmile_qr_scan", "android": "https://dc.lft.to/lastmile_qr_scan"}, "is_reserved": 0}, {"lon": -77.034624, "bike_id": "4c3b554bd0a7c5557584a27c80b56fef", "lat": 38.910085333333335, "fusion_lon": 0.0, "fusion_lat": 0.0, "type": "electric_scooter", "name": "4c3b554bd0a7c5557584a27c80b56fef", "is_disabled": 0, "rental_uris": {"ios": "https://dc.lft.to/lastmile_qr_scan", "android": "https://dc.lft.to/lastmile_qr_scan"}, "is_reserved": 0}, {"lon": -77.0047885, "bike_id": "d8877a34a1f45d72a7c2433d48770b10", "lat": 38.895839, "fusion_lon": 0.0, "fusion_lat": 0.0, "type": "electric_scooter", "name": "d8877a34a1f45d72a7c2433d48770b10", "is_disabled": 0, "rental_uris": {"ios": "https://dc.lft.to/lastmile_qr_scan", "android": "https://dc.lft.to/lastmile_qr_scan"}, "is_reserved": 0}, {"lon": -77.01317133333333, "bike_id": "f910a51dbad81b74570ca84efcd9374c", "lat": 38.87157, "fusion_lon": 0.0, "fusion_lat": 0.0, "type": "electric_scooter", "name": "f910a51dbad81b74570ca84efcd9374c", "is_disabled": 0, "rental_uris": {"ios": "https://dc.lft.to/lastmile_qr_scan", "android": "https://dc.lft.to/lastmile_qr_scan"}, "is_reserved": 0}, {"lon": -77.000563, "bike_id": "18cfb5a7a712606ba0f39de5dfeb4b83", "lat": 38.875292, "fusion_lon": 0.0, "fusion_lat": 0.0, "type": "electric_scooter", "name": "18cfb5a7a712606ba0f39de5dfeb4b83", "is_disabled": 0, "rental_uris": {"ios": "https://dc.lft.to/lastmile_qr_scan", "android": "https://dc.lft.to/lastmile_qr_scan"}, "is_reserved": 0}, {"lon": -77.01137133333333, "bike_id": "f4b1e05482aec8697e9675873a27a26d", "lat": 38.900128, "fusion_lon": 0.0, "fusion_lat": 0.0, "type": "electric_scooter", "name": "f4b1e05482aec8697e9675873a27a26d", "is_disabled": 0, "rental_uris": {"ios": "https://dc.lft.to/lastmile_qr_scan", "android": "https://dc.lft.to/lastmile_qr_scan"}, "is_reserved": 0}, {"lon": -76.99376016666666, "bike_id": "41ecc5c9846d7d889276714c251fa30e", "lat": 38.87973216666666, "fusion_lon": 0.0, "fusion_lat": 0.0, "type": "electric_scooter", "name": "41ecc5c9846d7d889276714c251fa30e", "is_disabled": 0, "rental_uris": {"ios": "https://dc.lft.to/lastmile_qr_scan", "android": "https://dc.lft.to/lastmile_qr_scan"}, "is_reserved": 0}, {"lon": -77.03781216666667, "bike_id": "7daf42d7d35c2ed84b3046d5363f373b", "lat": 38.92565233333333, "fusion_lon": 0.0, "fusion_lat": 0.0, "type": "electric_scooter", "name": "7daf42d7d35c2ed84b3046d5363f373b", "is_disabled": 0, "rental_uris": {"ios": "https://dc.lft.to/lastmile_qr_scan", "android": "https://dc.lft.to/lastmile_qr_scan"}, "is_reserved": 0}, {"lon": -76.97927033333333, "bike_id": "1d820a4118c9766b1a75ed77345a6a5c", "lat": 38.90502166666667, "fusion_lon": 0.0, "fusion_lat": 0.0, "type": "electric_scooter", "name": "1d820a4118c9766b1a75ed77345a6a5c", "is_disabled": 0, "rental_uris": {"ios": "https://dc.lft.to/lastmile_qr_scan", "android": "https://dc.lft.to/lastmile_qr_scan"}, "is_reserved": 0}, {"lon": -76.9900135, "bike_id": "4c29fbc92f3544f954ac61bd4a49d387", "lat": 38.8651015, "fusion_lon": 0.0, "fusion_lat": 0.0, "type": "electric_scooter", "name": "4c29fbc92f3544f954ac61bd4a49d387", "is_disabled": 0, "rental_uris": {"ios": "https://dc.lft.to/lastmile_qr_scan", "android": "https://dc.lft.to/lastmile_qr_scan"}, "is_reserved": 0}, {"lon": -77.09866933333333, "bike_id": "d0eb7e0b58ca5d60d7dca7ae3ae727e2", "lat": 38.9496545, "fusion_lon": 0.0, "fusion_lat": 0.0, "type": "electric_scooter", "name": "d0eb7e0b58ca5d60d7dca7ae3ae727e2", "is_disabled": 0, "rental_uris": {"ios": "https://dc.lft.to/lastmile_qr_scan", "android": "https://dc.lft.to/lastmile_qr_scan"}, "is_reserved": 0}, {"lon": -77.02714833333333, "bike_id": "ffdb19687ed948b1291e21ea1948b3d9", "lat": 38.89731283333333, "fusion_lon": 0.0, "fusion_lat": 0.0, "type": "electric_scooter", "name": "ffdb19687ed948b1291e21ea1948b3d9", "is_disabled": 0, "rental_uris": {"ios": "https://dc.lft.to/lastmile_qr_scan", "android": "https://dc.lft.to/lastmile_qr_scan"}, "is_reserved": 0}, {"lon": -76.99460433333333, "bike_id": "21ddf648813c17c4b820899972dd058a", "lat": 38.96619716666667, "fusion_lon": 0.0, "fusion_lat": 0.0, "type": "electric_bike", "name": "21ddf648813c17c4b820899972dd058a", "is_disabled": 0, "rental_uris": {"ios": "https://dc.lft.to/lastmile_qr_scan", "android": "https://dc.lft.to/lastmile_qr_scan"}, "is_reserved": 0}, {"lon": -77.0374145, "bike_id": "fab3374668028b288027dc202751dfad", "lat": 38.91807283333333, "fusion_lon": 0.0, "fusion_lat": 0.0, "type": "electric_scooter", "name": "fab3374668028b288027dc202751dfad", "is_disabled": 0, "rental_uris": {"ios": "https://dc.lft.to/lastmile_qr_scan", "android": "https://dc.lft.to/lastmile_qr_scan"}, "is_reserved": 0}, {"lon": -77.0184995, "bike_id": "0d30f2f913f18b50276c2b6a1436b0ed", "lat": 38.912550833333334, "fusion_lon": 0.0, "fusion_lat": 0.0, "type": "electric_scooter", "name": "0d30f2f913f18b50276c2b6a1436b0ed", "is_disabled": 0, "rental_uris": {"ios": "https://dc.lft.to/lastmile_qr_scan", "android": "https://dc.lft.to/lastmile_qr_scan"}, "is_reserved": 0}, {"lon": -77.03458783333333, "bike_id": "16acf6054d5b6bea2d6b82f0beb93859", "lat": 38.906926, "fusion_lon": 0.0, "fusion_lat": 0.0, "type": "electric_scooter", "name": "16acf6054d5b6bea2d6b82f0beb93859", "is_disabled": 0, "rental_uris": {"ios": "https://dc.lft.to/lastmile_qr_scan", "android": "https://dc.lft.to/lastmile_qr_scan"}, "is_reserved": 0}, {"lon": -76.9860655, "bike_id": "44eaec486ffa139bad3b130fe3d27d3c", "lat": 38.9062175, "fusion_lon": 0.0, "fusion_lat": 0.0, "type": "electric_bike", "name": "44eaec486ffa139bad3b130fe3d27d3c", "is_disabled": 0, "rental_uris": {"ios": "https://dc.lft.to/lastmile_qr_scan", "android": "https://dc.lft.to/lastmile_qr_scan"}, "is_reserved": 0}, {"lon": -77.04370216666666, "bike_id": "a97e24b85f0c1e4efbcf465600a3ef96", "lat": 38.91868683333333, "fusion_lon": 0.0, "fusion_lat": 0.0, "type": "electric_scooter", "name": "a97e24b85f0c1e4efbcf465600a3ef96", "is_disabled": 0, "rental_uris": {"ios": "https://dc.lft.to/lastmile_qr_scan", "android": "https://dc.lft.to/lastmile_qr_scan"}, "is_reserved": 0}, {"lon": -77.04867566666667, "bike_id": "b2075e8c93a47d21e6df8acc285da72f", "lat": 38.9161425, "fusion_lon": 0.0, "fusion_lat": 0.0, "type": "electric_scooter", "name": "b2075e8c93a47d21e6df8acc285da72f", "is_disabled": 0, "rental_uris": {"ios": "https://dc.lft.to/lastmile_qr_scan", "android": "https://dc.lft.to/lastmile_qr_scan"}, "is_reserved": 0}, {"lon": -77.0007525, "bike_id": "eb6cc799bbf0d814a1fa5308251bda1f", "lat": 38.899945, "fusion_lon": 0.0, "fusion_lat": 0.0, "type": "electric_scooter", "name": "eb6cc799bbf0d814a1fa5308251bda1f", "is_disabled": 0, "rental_uris": {"ios": "https://dc.lft.to/lastmile_qr_scan", "android": "https://dc.lft.to/lastmile_qr_scan"}, "is_reserved": 0}, {"lon": -77.01101483333333, "bike_id": "cea2d67e78b9cc86fd7ed09d8595a02c", "lat": 38.903795833333334, "fusion_lon": 0.0, "fusion_lat": 0.0, "type": "electric_scooter", "name": "cea2d67e78b9cc86fd7ed09d8595a02c", "is_disabled": 0, "rental_uris": {"ios": "https://dc.lft.to/lastmile_qr_scan", "android": "https://dc.lft.to/lastmile_qr_scan"}, "is_reserved": 0}, {"lon": -77.00063133333333, "bike_id": "ed4446ecb26569f2b117f0ad4db7ba7f", "lat": 38.90083766666667, "fusion_lon": 0.0, "fusion_lat": 0.0, "type": "electric_scooter", "name": "ed4446ecb26569f2b117f0ad4db7ba7f", "is_disabled": 0, "rental_uris": {"ios": "https://dc.lft.to/lastmile_qr_scan", "android": "https://dc.lft.to/lastmile_qr_scan"}, "is_reserved": 0}, {"lon": -77.0223895, "bike_id": "ccf66db2ac19c84fc867a5d91efb210a", "lat": 38.955297333333334, "fusion_lon": 0.0, "fusion_lat": 0.0, "type": "electric_scooter", "name": "ccf66db2ac19c84fc867a5d91efb210a", "is_disabled": 0, "rental_uris": {"ios": "https://dc.lft.to/lastmile_qr_scan", "android": "https://dc.lft.to/lastmile_qr_scan"}, "is_reserved": 0}, {"lon": -77.03865933333333, "bike_id": "ff78dc17a8cd347586deedacf1b2b5ec", "lat": 38.912550333333336, "fusion_lon": 0.0, "fusion_lat": 0.0, "type": "electric_scooter", "name": "ff78dc17a8cd347586deedacf1b2b5ec", "is_disabled": 0, "rental_uris": {"ios": "https://dc.lft.to/lastmile_qr_scan", "android": "https://dc.lft.to/lastmile_qr_scan"}, "is_reserved": 0}, {"lon": -76.99370133333333, "bike_id": "846330b090855d75709e102ad421fc64", "lat": 38.893684, "fusion_lon": 0.0, "fusion_lat": 0.0, "type": "electric_scooter", "name": "846330b090855d75709e102ad421fc64", "is_disabled": 0, "rental_uris": {"ios": "https://dc.lft.to/lastmile_qr_scan", "android": "https://dc.lft.to/lastmile_qr_scan"}, "is_reserved": 0}, {"lon": -77.0067985, "bike_id": "10ed8fec8c86523bf64637026f69c304", "lat": 38.834927666666665, "fusion_lon": 0.0, "fusion_lat": 0.0, "type": "electric_scooter", "name": "10ed8fec8c86523bf64637026f69c304", "is_disabled": 0, "rental_uris": {"ios": "https://dc.lft.to/lastmile_qr_scan", "android": "https://dc.lft.to/lastmile_qr_scan"}, "is_reserved": 0}, {"lon": -77.02587566666666, "bike_id": "80bd1ad200285a669df01bcf21c15f58", "lat": 38.887420666666664, "fusion_lon": 0.0, "fusion_lat": 0.0, "type": "electric_scooter", "name": "80bd1ad200285a669df01bcf21c15f58", "is_disabled": 0, "rental_uris": {"ios": "https://dc.lft.to/lastmile_qr_scan", "android": "https://dc.lft.to/lastmile_qr_scan"}, "is_reserved": 0}, {"lon": -76.94792833333334, "bike_id": "75cb3596828d860debeacde850b2cc0b", "lat": 38.861847, "fusion_lon": 0.0, "fusion_lat": 0.0, "type": "electric_bike", "name": "75cb3596828d860debeacde850b2cc0b", "is_disabled": 0, "rental_uris": {"ios": "https://dc.lft.to/lastmile_qr_scan", "android": "https://dc.lft.to/lastmile_qr_scan"}, "is_reserved": 0}, {"lon": -77.0176615, "bike_id": "87a9f158fdae4ff2176d2f3f5885f46d", "lat": 38.88740766666667, "fusion_lon": 0.0, "fusion_lat": 0.0, "type": "electric_scooter", "name": "87a9f158fdae4ff2176d2f3f5885f46d", "is_disabled": 0, "rental_uris": {"ios": "https://dc.lft.to/lastmile_qr_scan", "android": "https://dc.lft.to/lastmile_qr_scan"}, "is_reserved": 0}, {"lon": -76.9487945, "bike_id": "110ba50b8aac2ef784624c9bac90422b", "lat": 38.894265833333336, "fusion_lon": 0.0, "fusion_lat": 0.0, "type": "electric_scooter", "name": "110ba50b8aac2ef784624c9bac90422b", "is_disabled": 0, "rental_uris": {"ios": "https://dc.lft.to/lastmile_qr_scan", "android": "https://dc.lft.to/lastmile_qr_scan"}, "is_reserved": 0}, {"lon": -76.9962345, "bike_id": "e05c40bb91ec11ed761142199a8a6736", "lat": 38.8880375, "fusion_lon": 0.0, "fusion_lat": 0.0, "type": "electric_scooter", "name": "e05c40bb91ec11ed761142199a8a6736", "is_disabled": 0, "rental_uris": {"ios": "https://dc.lft.to/lastmile_qr_scan", "android": "https://dc.lft.to/lastmile_qr_scan"}, "is_reserved": 0}, {"lon": -77.01822366666667, "bike_id": "2f89ffd22e7c56dbbd3287b207a6def1", "lat": 38.901288, "fusion_lon": 0.0, "fusion_lat": 0.0, "type": "electric_scooter", "name": "2f89ffd22e7c56dbbd3287b207a6def1", "is_disabled": 0, "rental_uris": {"ios": "https://dc.lft.to/lastmile_qr_scan", "android": "https://dc.lft.to/lastmile_qr_scan"}, "is_reserved": 0}, {"lon": -76.94126366666667, "bike_id": "bece600ad7256bfbdf2fcaef2dd134c1", "lat": 38.9083845, "fusion_lon": 0.0, "fusion_lat": 0.0, "type": "electric_scooter", "name": "bece600ad7256bfbdf2fcaef2dd134c1", "is_disabled": 0, "rental_uris": {"ios": "https://dc.lft.to/lastmile_qr_scan", "android": "https://dc.lft.to/lastmile_qr_scan"}, "is_reserved": 0}, {"lon": -77.04335633333334, "bike_id": "4a3555df21f9c2c0e5355d3842275ded", "lat": 38.912661, "fusion_lon": 0.0, "fusion_lat": 0.0, "type": "electric_scooter", "name": "4a3555df21f9c2c0e5355d3842275ded", "is_disabled": 0, "rental_uris": {"ios": "https://dc.lft.to/lastmile_qr_scan", "android": "https://dc.lft.to/lastmile_qr_scan"}, "is_reserved": 0}, {"lon": -76.990495, "bike_id": "3d5dc542cf78b00c7f6b4dd87b169101", "lat": 38.863777666666664, "fusion_lon": 0.0, "fusion_lat": 0.0, "type": "electric_scooter", "name": "3d5dc542cf78b00c7f6b4dd87b169101", "is_disabled": 0, "rental_uris": {"ios": "https://dc.lft.to/lastmile_qr_scan", "android": "https://dc.lft.to/lastmile_qr_scan"}, "is_reserved": 0}, {"lon": -77.05287583333333, "bike_id": "e73f0a070403848f1bfb082c3914a958", "lat": 38.903397166666664, "fusion_lon": 0.0, "fusion_lat": 0.0, "type": "electric_scooter", "name": "e73f0a070403848f1bfb082c3914a958", "is_disabled": 0, "rental_uris": {"ios": "https://dc.lft.to/lastmile_qr_scan", "android": "https://dc.lft.to/lastmile_qr_scan"}, "is_reserved": 0}, {"lon": -77.03387933333333, "bike_id": "c38cb7d4950f37ab3886ad26c110ba93", "lat": 38.9386265, "fusion_lon": 0.0, "fusion_lat": 0.0, "type": "electric_scooter", "name": "c38cb7d4950f37ab3886ad26c110ba93", "is_disabled": 0, "rental_uris": {"ios": "https://dc.lft.to/lastmile_qr_scan", "android": "https://dc.lft.to/lastmile_qr_scan"}, "is_reserved": 0}, {"lon": -77.020891, "bike_id": "10a371552aa33fac565514c90d2f4a04", "lat": 38.927021333333336, "fusion_lon": 0.0, "fusion_lat": 0.0, "type": "electric_scooter", "name": "10a371552aa33fac565514c90d2f4a04", "is_disabled": 0, "rental_uris": {"ios": "https://dc.lft.to/lastmile_qr_scan", "android": "https://dc.lft.to/lastmile_qr_scan"}, "is_reserved": 0}, {"lon": -77.0351135, "bike_id": "4b3717a390c0fc3bf36089c14d5f5e4f", "lat": 38.9214785, "fusion_lon": 0.0, "fusion_lat": 0.0, "type": "electric_scooter", "name": "4b3717a390c0fc3bf36089c14d5f5e4f", "is_disabled": 0, "rental_uris": {"ios": "https://dc.lft.to/lastmile_qr_scan", "android": "https://dc.lft.to/lastmile_qr_scan"}, "is_reserved": 0}, {"lon": -77.067433, "bike_id": "dd23f1a0d24f947b10083bda9f3097f1", "lat": 38.903535, "fusion_lon": 0.0, "fusion_lat": 0.0, "type": "electric_bike", "name": "dd23f1a0d24f947b10083bda9f3097f1", "is_disabled": 0, "rental_uris": {"ios": "https://dc.lft.to/lastmile_qr_scan", "android": "https://dc.lft.to/lastmile_qr_scan"}, "is_reserved": 0}, {"lon": -77.02399383333334, "bike_id": "08f87f392c5242cb0cf43461e663964f", "lat": 38.919585166666664, "fusion_lon": 0.0, "fusion_lat": 0.0, "type": "electric_scooter", "name": "08f87f392c5242cb0cf43461e663964f", "is_disabled": 0, "rental_uris": {"ios": "https://dc.lft.to/lastmile_qr_scan", "android": "https://dc.lft.to/lastmile_qr_scan"}, "is_reserved": 0}, {"lon": -76.989862, "bike_id": "6d0cfe8b440771a19e441881f0944b7d", "lat": 38.933628, "fusion_lon": 0.0, "fusion_lat": 0.0, "type": "electric_scooter", "name": "6d0cfe8b440771a19e441881f0944b7d", "is_disabled": 0, "rental_uris": {"ios": "https://dc.lft.to/lastmile_qr_scan", "android": "https://dc.lft.to/lastmile_qr_scan"}, "is_reserved": 0}, {"lon": -77.02163866666666, "bike_id": "c425f6a60d4ed0a2a816c226fe55019c", "lat": 38.95074316666667, "fusion_lon": 0.0, "fusion_lat": 0.0, "type": "electric_scooter", "name": "c425f6a60d4ed0a2a816c226fe55019c", "is_disabled": 0, "rental_uris": {"ios": "https://dc.lft.to/lastmile_qr_scan", "android": "https://dc.lft.to/lastmile_qr_scan"}, "is_reserved": 0}, {"lon": -76.98014, "bike_id": "22f01e33ce4239de52bf8575dc734d6e", "lat": 38.85318983333333, "fusion_lon": 0.0, "fusion_lat": 0.0, "type": "electric_bike", "name": "22f01e33ce4239de52bf8575dc734d6e", "is_disabled": 0, "rental_uris": {"ios": "https://dc.lft.to/lastmile_qr_scan", "android": "https://dc.lft.to/lastmile_qr_scan"}, "is_reserved": 0}, {"lon": -77.05884433333334, "bike_id": "9297b3fb727afca02f7b945f12e37ed3", "lat": 38.862854666666664, "fusion_lon": 0.0, "fusion_lat": 0.0, "type": "electric_bike", "name": "9297b3fb727afca02f7b945f12e37ed3", "is_disabled": 0, "rental_uris": {"ios": "https://dc.lft.to/lastmile_qr_scan", "android": "https://dc.lft.to/lastmile_qr_scan"}, "is_reserved": 0}, {"lon": -77.00733983333333, "bike_id": "814e8f44c1e261f8af45be063110fc42", "lat": 38.89914983333333, "fusion_lon": 0.0, "fusion_lat": 0.0, "type": "electric_scooter", "name": "814e8f44c1e261f8af45be063110fc42", "is_disabled": 0, "rental_uris": {"ios": "https://dc.lft.to/lastmile_qr_scan", "android": "https://dc.lft.to/lastmile_qr_scan"}, "is_reserved": 0}, {"lon": -77.03657233333334, "bike_id": "daa4703cc4aba5dacd559042a0c5072f", "lat": 38.9362085, "fusion_lon": 0.0, "fusion_lat": 0.0, "type": "electric_bike", "name": "daa4703cc4aba5dacd559042a0c5072f", "is_disabled": 0, "rental_uris": {"ios": "https://dc.lft.to/lastmile_qr_scan", "android": "https://dc.lft.to/lastmile_qr_scan"}, "is_reserved": 0}, {"lon": -77.032478, "bike_id": "0a544576f6926ff7e157ccef3c39dbab", "lat": 38.90544883333333, "fusion_lon": 0.0, "fusion_lat": 0.0, "type": "electric_scooter", "name": "0a544576f6926ff7e157ccef3c39dbab", "is_disabled": 0, "rental_uris": {"ios": "https://dc.lft.to/lastmile_qr_scan", "android": "https://dc.lft.to/lastmile_qr_scan"}, "is_reserved": 0}, {"lon": -77.02001616666666, "bike_id": "0b8bc8f937eb43e4500cbea8dbfc7603", "lat": 38.9241015, "fusion_lon": 0.0, "fusion_lat": 0.0, "type": "electric_scooter", "name": "0b8bc8f937eb43e4500cbea8dbfc7603", "is_disabled": 0, "rental_uris": {"ios": "https://dc.lft.to/lastmile_qr_scan", "android": "https://dc.lft.to/lastmile_qr_scan"}, "is_reserved": 0}, {"lon": -76.99517883333333, "bike_id": "9c4ec88c758b01a4042dc7ccf2b59a00", "lat": 38.862555666666665, "fusion_lon": 0.0, "fusion_lat": 0.0, "type": "electric_scooter", "name": "9c4ec88c758b01a4042dc7ccf2b59a00", "is_disabled": 0, "rental_uris": {"ios": "https://dc.lft.to/lastmile_qr_scan", "android": "https://dc.lft.to/lastmile_qr_scan"}, "is_reserved": 0}, {"lon": -77.03424566666666, "bike_id": "3024e1b4b287813ce64efb3916b18150", "lat": 38.926381, "fusion_lon": 0.0, "fusion_lat": 0.0, "type": "electric_scooter", "name": "3024e1b4b287813ce64efb3916b18150", "is_disabled": 0, "rental_uris": {"ios": "https://dc.lft.to/lastmile_qr_scan", "android": "https://dc.lft.to/lastmile_qr_scan"}, "is_reserved": 0}, {"lon": -77.05238266666667, "bike_id": "aa9f289b8cdc802e13c3b1626c2835ba", "lat": 38.92467466666667, "fusion_lon": 0.0, "fusion_lat": 0.0, "type": "electric_scooter", "name": "aa9f289b8cdc802e13c3b1626c2835ba", "is_disabled": 0, "rental_uris": {"ios": "https://dc.lft.to/lastmile_qr_scan", "android": "https://dc.lft.to/lastmile_qr_scan"}, "is_reserved": 0},