{"data": {"bikes": [{"fusion_lat": 0.0, "name": "4c85f359bedc0624a5823c5fc9256f58", "is_disabled": 0, "rental_uris": {"android": "https://dc.lft.to/lastmile_qr_scan", "ios": "https://dc.lft.to/lastmile_qr_scan"}, "fusion_lon": 0.0, "lat": 38.909443833333334, "bike_id": "4c85f359bedc0624a5823c5fc9256f58", "type": "electric_scooter", "is_reserved": 0, "lon": -76.987704}, {"fusion_lat": 0.0, "name": "24655937fe46fcc29b4541358cf3c065", "is_disabled": 0, "rental_uris": {"android": "https://dc.lft.to/lastmile_qr_scan", "ios": "https://dc.lft.to/lastmile_qr_scan"}, "fusion_lon": 0.0, "lat": 38.91409083333333, "bike_id": "24655937fe46fcc29b4541358cf3c065", "type": "electric_scooter", "is_reserved": 0, "lon": -77.02427516666667}, {"fusion_lat": 0.0, "name": "088de21fe50de12c0436f34b958eda86", "is_disabled": 0, "rental_uris": {"android": "https://dc.lft.to/lastmile_qr_scan", "ios": "https://dc.lft.to/lastmile_qr_scan"}, "fusion_lon": 0.0, "lat": 38.9030555, "bike_id": "088de21fe50de12c0436f34b958eda86", "type": "electric_scooter", "is_reserved": 0, "lon": -77.04884233333334}, {"fusion_lat": 0.0, "name": "1ebf007e43897d9f5b48b0eb109879e4", "is_disabled": 0, "rental_uris": {"android": "https://dc.lft.to/lastmile_qr_scan", "ios": "https://dc.lft.to/lastmile_qr_scan"}, "fusion_lon": 0.0, "lat": 38.8792065, "bike_id": "1ebf007e43897d9f5b48b0eb109879e4", "type": "electric_scooter", "is_reserved": 0, "lon": -77.02157416666667}, {"fusion_lat": 0.0, "name": "bbd7e6819c360da25227b8502f5d4fa0", "is_disabled": 0, "rental_uris": {"android": "https://dc.lft.to/lastmile_qr_scan", "ios": "https://dc.lft.to/lastmile_qr_scan"}, "fusion_lon": 0.0, "lat": 38.9133555, "bike_id": "bbd7e6819c360da25227b8502f5d4fa0", "type": "electric_scooter", "is_reserved": 0, "lon": -77.03190483333333}, {"fusion_lat": 0.0, "name": "36a49f7d1321c605b23e8dd61908d325", "is_disabled": 0, "rental_uris": {"android": "https://dc.lft.to/lastmile_qr_scan", "ios": "https://dc.lft.to/lastmile_qr_scan"}, "fusion_lon": 0.0, "lat": 38.906856166666664, "bike_id": "36a49f7d1321c605b23e8dd61908d325", "type": "electric_scooter", "is_reserved": 0, "lon": -76.9996575}, {"fusion_lat": 0.0, "name": "32c808549c3106b03906bf3aa8014fb0", "is_disabled": 0, "rental_uris": {"android": "https://dc.lft.to/lastmile_qr_scan", "ios": "https://dc.lft.to/lastmile_qr_scan"}, "fusion_lon": 0.0, "lat": 38.89262633333333, "bike_id": "32c808549c3106b03906bf3aa8014fb0", "type": "electric_scooter", "is_reserved": 0, "lon": -77.046569}, {"fusion_lat": 0.0, "name": "e08f8b39f5dc1ada3a4b44f594e1eb72", "is_disabled": 0, "rental_uris": {"android": "https://dc.lft.to/lastmile_qr_scan", "ios": "https://dc.lft.to/lastmile_qr_scan"}, "fusion_lon": 0.0, "lat": 38.91352883333333, "bike_id": "e08f8b39f5dc1ada3a4b44f594e1eb72", "type": "electric_scooter", "is_reserved": 0, "lon": -77.0205585}, {"fusion_lat": 0.0, "name": "7f180520c7b86fc978f18bd03f54503d", "is_disabled": 0, "rental_uris": {"android": "https://dc.lft.to/lastmile_qr_scan", "ios": "https://dc.lft.to/lastmile_qr_scan"}, "fusion_lon": 0.0, "lat": 38.90024316666667, "bike_id": "7f180520c7b86fc978f18bd03f54503d", "type": "electric_scooter", "is_reserved": 0, "lon": -76.97399466666667}, {"fusion_lat": 0.0, "name": "7cfda56c096ce2f6b50792854911b78a", "is_disabled": 0, "rental_uris": {"android": "https://dc.lft.to/lastmile_qr_scan", "ios": "https://dc.lft.to/lastmile_qr_scan"}, "fusion_lon": 0.0, "lat": 38.923294166666665, "bike_id": "7cfda56c096ce2f6b50792854911b78a", "type": "electric_scooter", "is_reserved": 0, "lon": -77.04618}, {"fusion_lat": 0.0, "name": "94835f78bea60600897229c4452b4a3d", "is_disabled": 0, "rental_uris": {"android": "https://dc.lft.to/lastmile_qr_scan", "ios": "https://dc.lft.to/lastmile_qr_scan"}, "fusion_lon": 0.0, "lat": 38.96442716666667, "bike_id": "94835f78bea60600897229c4452b4a3d", "type": "electric_bike", "is_reserved": 0, "lon": -77.0225105}, {"fusion_lat": 0.0, "name": "2be76e2cf497e80784a5f308ddae65f3", "is_disabled": 0, "rental_uris": {"android": "https://dc.lft.to/lastmile_qr_scan", "ios": "https://dc.lft.to/lastmile_qr_scan"}, "fusion_lon": 0.0, "lat": 38.923436333333335, "bike_id": "2be76e2cf497e80784a5f308ddae65f3", "type": "electric_scooter", "is_reserved": 0, "lon": -77.05619583333333}, {"fusion_lat": 0.0, "name": "3306734e1c6a9a6d4a9b68787c90ac15", "is_disabled": 0, "rental_uris": {"android": "https://dc.lft.to/lastmile_qr_scan", "ios": "https://dc.lft.to/lastmile_qr_scan"}, "fusion_lon": 0.0, "lat": 38.92228133333333, "bike_id": "3306734e1c6a9a6d4a9b68787c90ac15", "type": "electric_bike", "is_reserved": 0, "lon": -77.023405}, {"fusion_lat": 0.0, "name": "6b78ebba38b5090738d17a9d0932544f", "is_disabled": 0, "rental_uris": {"android": "https://dc.lft.to/lastmile_qr_scan", "ios": "https://dc.lft.to/lastmile_qr_scan"}, "fusion_lon": 0.0, "lat": 38.87719716666667, "bike_id": "6b78ebba38b5090738d17a9d0932544f", "type": "electric_scooter", "is_reserved": 0, "lon": -77.01757483333333}, {"fusion_lat": 0.0, "name": "c10fee8f767a0af10e6d3020a497a6ee", "is_disabled": 0, "rental_uris": {"android": "https://dc.lft.to/lastmile_qr_scan", "ios": "https://dc.lft.to/lastmile_qr_scan"}, "fusion_lon": 0.0, "lat": 38.90017433333333, "bike_id": "c10fee8f767a0af10e6d3020a497a6ee", "type": "electric_scooter", "is_reserved": 0, "lon": -76.99865633333333}, {"fusion_lat": 0.0, "name": "02caaa798053a9dd919f7796f879a35b", "is_disabled": 0, "rental_uris": {"android": "https://dc.lft.to/lastmile_qr_scan", "ios": "https://dc.lft.to/lastmile_qr_scan"}, "fusion_lon": 0.0, "lat": 38.92756766666667, "bike_id": "02caaa798053a9dd919f7796f879a35b", "type": "electric_scooter", "is_reserved": 0, "lon": -77.0327915}, {"fusion_lat": 0.0, "name": "d8820612c011979bebe2bc49f65ef3bc", "is_disabled": 0, "rental_uris": {"android": "https://dc.lft.to/lastmile_qr_scan", "ios": "https://dc.lft.to/lastmile_qr_scan"}, "fusion_lon": 0.0, "lat": 38.931728, "bike_id": "d8820612c011979bebe2bc49f65ef3bc", "type": "electric_bike", "is_reserved": 0, "lon": -77.03543583333334}, {"fusion_lat": 0.0, "name": "40a1fdb073a308ff1a35137fac5702d0", "is_disabled": 0, "rental_uris": {"android": "https://dc.lft.to/lastmile_qr_scan", "ios": "https://dc.lft.to/lastmile_qr_scan"}, "fusion_lon": 0.0, "lat": 38.8075435, "bike_id": "40a1fdb073a308ff1a35137fac5702d0", "type": "electric_bike", "is_reserved": 0, "lon": -77.0945565}, {"fusion_lat": 0.0, "name": "6da2baa86e9c88f89b027d7218e56502", "is_disabled": 0, "rental_uris": {"android": "https://dc.lft.to/lastmile_qr_scan", "ios": "https://dc.lft.to/lastmile_qr_scan"}, "fusion_lon": 0.0, "lat": 38.848597833333336, "bike_id": "6da2baa86e9c88f89b027d7218e56502", "type": "electric_bike", "is_reserved": 0, "lon": -77.09897}, {"fusion_lat": 0.0, "name": "f3c1568fe10aac75684e41410061e188", "is_disabled": 0, "rental_uris": {"android": "https://dc.lft.to/lastmile_qr_scan", "ios": "https://dc.lft.to/lastmile_qr_scan"}, "fusion_lon": 0.0, "lat": 38.926793833333335, "bike_id": "f3c1568fe10aac75684e41410061e188", "type": "electric_scooter", "is_reserved": 0, "lon": -77.0257915}, {"fusion_lat": 0.0, "name": "f95724457c7a1c67a3a5eb79f141f882", "is_disabled": 0, "rental_uris": {"android": "https://dc.lft.to/lastmile_qr_scan", "ios": "https://dc.lft.to/lastmile_qr_scan"}, "fusion_lon": 0.0, "lat": 38.9099945, "bike_id": "f95724457c7a1c67a3a5eb79f141f882", "type": "electric_scooter", "is_reserved": 0, "lon": -77.04007966666667}, {"fusion_lat": 0.0, "name": "8af2209a7ec5a83782e2b388b59b618a", "is_disabled": 0, "rental_uris": {"android": "https://dc.lft.to/lastmile_qr_scan", "ios": "https://dc.lft.to/lastmile_qr_scan"}, "fusion_lon": 0.0, "lat": 38.9047895, "bike_id": "8af2209a7ec5a83782e2b388b59b618a", "type": "electric_scooter", "is_reserved": 0, "lon": -76.99626716666667}, {"fusion_lat": 0.0, "name": "5613bdfbd034581564a43b0430d94fac", "is_disabled": 0, "rental_uris": {"android": "https://dc.lft.to/lastmile_qr_scan", "ios": "https://dc.lft.to/lastmile_qr_scan"}, "fusion_lon": 0.0, "lat": 38.95350583333333, "bike_id": "5613bdfbd034581564a43b0430d94fac", "type": "electric_scooter", "is_reserved": 0, "lon": -77.02554466666666}, {"fusion_lat": 0.0, "name": "b22a7c58b6701b5989c717f3634d6166", "is_disabled": 0, "rental_uris": {"android": "https://dc.lft.to/lastmile_qr_scan", "ios": "https://dc.lft.to/lastmile_qr_scan"}, "fusion_lon": 0.0, "lat": 38.8866195, "bike_id": "b22a7c58b6701b5989c717f3634d6166", "type": "electric_scooter", "is_reserved": 0, "lon": -77.01995133333334}, {"fusion_lat": 0.0, "name": "c9cdd55e676650c214a8597c208d8846", "is_disabled": 0, "rental_uris": {"android": "https://dc.lft.to/lastmile_qr_scan", "ios": "https://dc.lft.to/lastmile_qr_scan"}, "fusion_lon": 0.0, "lat": 38.932638833333336, "bike_id": "c9cdd55e676650c214a8597c208d8846", "type": "electric_scooter", "is_reserved": 0, "lon": -76.98898116666666}, {"fusion_lat": 0.0, "name": "ccfcc4184d088f87f7ce85fa59405bf5", "is_disabled": 0, "rental_uris": {"android": "https://dc.lft.to/lastmile_qr_scan", "ios": "https://dc.lft.to/lastmile_qr_scan"}, "fusion_lon": 0.0, "lat": 38.863492, "bike_id": "ccfcc4184d088f87f7ce85fa59405bf5", "type": "electric_bike", "is_reserved": 0, "lon": -76.98699466666666}, {"fusion_lat": 0.0, "name": "bd1600970d04860982a7f351f50e919a", "is_disabled": 0, "rental_uris": {"android": "https://dc.lft.to/lastmile_qr_scan", "ios": "https://dc.lft.to/lastmile_qr_scan"}, "fusion_lon": 0.0, "lat": 38.90915, "bike_id": "bd1600970d04860982a7f351f50e919a", "type": "electric_scooter", "is_reserved": 0, "lon": -77.064191}, {"fusion_lat": 0.0, "name": "c5251b0f89a3b75253fc77fba8210457", "is_disabled": 0, "rental_uris": {"android": "https://dc.lft.to/lastmile_qr_scan", "ios": "https://dc.lft.to/lastmile_qr_scan"}, "fusion_lon": 0.0, "lat": 38.90774866666667, "bike_id": "c5251b0f89a3b75253fc77fba8210457", "type": "electric_scooter", "is_reserved": 0, "lon": -77.0385905}, {"fusion_lat": 0.0, "name": "84bf057d5b2493e44bef3d2582bd267b", "is_disabled": 0, "rental_uris": {"android": "https://dc.lft.to/lastmile_qr_scan", "ios": "https://dc.lft.to/lastmile_qr_scan"}, "fusion_lon": 0.0, "lat": 38.909779, "bike_id": "84bf057d5b2493e44bef3d2582bd267b", "type": "electric_scooter", "is_reserved": 0, "lon": -77.047972}, {"fusion_lat": 0.0, "name": "dd7a94183905938a86c3d57e086a2cb8", "is_disabled": 0, "rental_uris": {"android": "https://dc.lft.to/lastmile_qr_scan", "ios": "https://dc.lft.to/lastmile_qr_scan"}, "fusion_lon": 0.0, "lat": 38.925760833333335, "bike_id": "dd7a94183905938a86c3d57e086a2cb8", "type": "electric_scooter", "is_reserved": 0, "lon": -77.03775966666667}, {"fusion_lat": 0.0, "name": "2a0ee80dbc84ca7bc5fa35b454283f00", "is_disabled": 0, "rental_uris": {"android": "https://dc.lft.to/lastmile_qr_scan", "ios": "https://dc.lft.to/lastmile_qr_scan"}, "fusion_lon": 0.0, "lat": 38.87716833333333, "bike_id": "2a0ee80dbc84ca7bc5fa35b454283f00", "type": "electric_scooter", "is_reserved": 0, "lon": -77.01759633333333}, {"fusion_lat": 0.0, "name": "cae6bfb83a2a642f603bbf9d6a34b836", "is_disabled": 0, "rental_uris": {"android": "https://dc.lft.to/lastmile_qr_scan", "ios": "https://dc.lft.to/lastmile_qr_scan"}, "fusion_lon": 0.0, "lat": 38.89823416666667, "bike_id": "cae6bfb83a2a642f603bbf9d6a34b836", "type": "electric_scooter", "is_reserved": 0, "lon": -77.02976433333333}, {"fusion_lat": 0.0, "name": "3676f009ce57e1a836be82e2d93f5490", "is_disabled": 0, "rental_uris": {"android": "https://dc.lft.to/lastmile_qr_scan", "ios": "https://dc.lft.to/lastmile_qr_scan"}, "fusion_lon": 0.0, "lat": 38.896666833333335, "bike_id": "3676f009ce57e1a836be82e2d93f5490", "type": "electric_scooter", "is_reserved": 0, "lon": -77.02486983333333}, {"fusion_lat": 0.0, "name": "ca3acf2bef9ff6fb08d9a4260076dac6", "is_disabled": 0, "rental_uris": {"android": "https://dc.lft.to/lastmile_qr_scan", "ios": "https://dc.lft.to/lastmile_qr_scan"}, "fusion_lon": 0.0, "lat": 38.917797, "bike_id": "ca3acf2bef9ff6fb08d9a4260076dac6", "type": "electric_bike", "is_reserved": 0, "lon": -77.04260033333334}, {"fusion_lat": 0.0, "name": "453d6b12c29569f7a8336f67e36ace77", "is_disabled": 0, "rental_uris": {"android": "https://dc.lft.to/lastmile_qr_scan", "ios": "https://dc.lft.to/lastmile_qr_scan"}, "fusion_lon": 0.0, "lat": 38.880121, "bike_id": "453d6b12c29569f7a8336f67e36ace77", "type": "electric_scooter", "is_reserved": 0, "lon": -77.02488883333334}, {"fusion_lat": 0.0, "name": "e93cf6b0204e90ce21f6b1d1091bb9fd", "is_disabled": 0, "rental_uris": {"android": "https://dc.lft.to/lastmile_qr_scan", "ios": "https://dc.lft.to/lastmile_qr_scan"}, "fusion_lon": 0.0, "lat": 38.843452666666664, "bike_id": "e93cf6b0204e90ce21f6b1d1091bb9fd", "type": "electric_bike", "is_reserved": 0, "lon": -76.97823683333333}, {"fusion_lat": 0.0, "name": "488df282641f7a8a78396bb855f9004e", "is_disabled": 0, "rental_uris": {"android": "https://dc.lft.to/lastmile_qr_scan", "ios": "https://dc.lft.to/lastmile_qr_scan"}, "fusion_lon": 0.0, "lat": 38.89848416666667, "bike_id": "488df282641f7a8a78396bb855f9004e", "type": "electric_scooter", "is_reserved": 0, "lon": -77.033709}, {"fusion_lat": 0.0, "name": "989b885be4abdf59eb8d9fe3029f1a39", "is_disabled": 0, "rental_uris": {"android": "https://dc.lft.to/lastmile_qr_scan", "ios": "https://dc.lft.to/lastmile_qr_scan"}, "fusion_lon": 0.0, "lat": 38.91576116666667, "bike_id": "989b885be4abdf59eb8d9fe3029f1a39", "type": "electric_scooter", "is_reserved": 0, "lon": -76.98386916666666}, {"fusion_lat": 0.0, "name": "9bf73590e317e77d16c06083c6a93b41", "is_disabled": 0, "rental_uris": {"android": "https://dc.lft.to/lastmile_qr_scan", "ios": "https://dc.lft.to/lastmile_qr_scan"}, "fusion_lon": 0.0, "lat": 38.956257, "bike_id": "9bf73590e317e77d16c06083c6a93b41", "type": "electric_scooter", "is_reserved": 0, "lon": -77.02837983333333}, {"fusion_lat": 0.0, "name": "036b257ac8e3c063cc9f7f2a88e715a6", "is_disabled": 0, "rental_uris": {"android": "https://dc.lft.to/lastmile_qr_scan", "ios": "https://dc.lft.to/lastmile_qr_scan"}, "fusion_lon": 0.0, "lat": 38.923406666666665, "bike_id": "036b257ac8e3c063cc9f7f2a88e715a6", "type": "electric_scooter", "is_reserved": 0, "lon": -77.05226816666666}, {"fusion_lat": 0.0, "name": "dc450a26a724ffce3f7e94c06c1a69ba", "is_disabled": 0, "rental_uris": {"android": "https://dc.lft.to/lastmile_qr_scan", "ios": "https://dc.lft.to/lastmile_qr_scan"}, "fusion_lon": 0.0, "lat": 38.90724383333333, "bike_id": "dc450a26a724ffce3f7e94c06c1a69ba", "type": "electric_scooter", "is_reserved": 0, "lon": -77.0294805}, {"fusion_lat": 0.0, "name": "98f44896e09802bcecb70e45c68f2574", "is_disabled": 0, "rental_uris": {"android": "https://dc.lft.to/lastmile_qr_scan", "ios": "https://dc.lft.to/lastmile_qr_scan"}, "fusion_lon": 0.0, "lat": 38.91708233333333, "bike_id": "98f44896e09802bcecb70e45c68f2574", "type": "electric_scooter", "is_reserved": 0, "lon": -77.03255883333334}, {"fusion_lat": 0.0, "name": "176e39507f79728fdf6b2c8e16a63481", "is_disabled": 0, "rental_uris": {"android": "https://dc.lft.to/lastmile_qr_scan", "ios": "https://dc.lft.to/lastmile_qr_scan"}, "fusion_lon": 0.0, "lat": 38.901405833333335, "bike_id": "176e39507f79728fdf6b2c8e16a63481", "type": "electric_scooter", "is_reserved": 0, "lon": -77.05911283333333}, {"fusion_lat": 0.0, "name": "9447c2e0e0f45624d6f8dabc067a83e0", "is_disabled": 0, "rental_uris": {"android": "https://dc.lft.to/lastmile_qr_scan", "ios": "https://dc.lft.to/lastmile_qr_scan"}, "fusion_lon": 0.0, "lat": 38.918256, "bike_id": "9447c2e0e0f45624d6f8dabc067a83e0", "type": "electric_scooter", "is_reserved": 0, "lon": -77.03219633333333}, {"fusion_lat": 0.0, "name": "69e0581e760c2cafa4423260d3f48601", "is_disabled": 0, "rental_uris": {"android": "https://dc.lft.to/lastmile_qr_scan", "ios": "https://dc.lft.to/lastmile_qr_scan"}, "fusion_lon": 0.0, "lat": 38.879732, "bike_id": "69e0581e760c2cafa4423260d3f48601", "type": "electric_scooter", "is_reserved": 0, "lon": -77.00593083333334}, {"fusion_lat": 0.0, "name": "171e133e6369cc7b47b247d3be9f31dc", "is_disabled": 0, "rental_uris": {"android": "https://dc.lft.to/lastmile_qr_scan", "ios": "https://dc.lft.to/lastmile_qr_scan"}, "fusion_lon": 0.0, "lat": 38.93141516666667, "bike_id": "171e133e6369cc7b47b247d3be9f31dc", "type": "electric_bike", "is_reserved": 0, "lon": -77.01970866666667}, {"fusion_lat": 0.0, "name": "621d499c76a0dfd7c34e839b47ed27d2", "is_disabled": 0, "rental_uris": {"android": "https://dc.lft.to/lastmile_qr_scan", "ios": "https://dc.lft.to/lastmile_qr_scan"}, "fusion_lon": 0.0, "lat": 38.905025, "bike_id": "621d499c76a0dfd7c34e839b47ed27d2", "type": "electric_bike", "is_reserved": 0, "lon": -76.974473}, {"fusion_lat": 0.0, "name": "8ae40f275f76c893cf63dbe8f5bc1c34", "is_disabled": 0, "rental_uris": {"android": "https://dc.lft.to/lastmile_qr_scan", "ios": "https://dc.lft.to/lastmile_qr_scan"}, "fusion_lon": 0.0, "lat": 38.91924383333333, "bike_id": "8ae40f275f76c893cf63dbe8f5bc1c34", "type": "electric_scooter", "is_reserved": 0, "lon": -77.03420183333333}, {"fusion_lat": 0.0, "name": "cf81fd2b20138c79765a9a7982df503e", "is_disabled": 0, "rental_uris": {"android": "https://dc.lft.to/lastmile_qr_scan", "ios": "https://dc.lft.to/lastmile_qr_scan"}, "fusion_lon": 0.0, "lat": 38.90643883333333, "bike_id": "cf81fd2b20138c79765a9a7982df503e", "type": "electric_scooter", "is_reserved": 0, "lon": -77.04148166666667}, {"fusion_lat": 0.0, "name": "ced3d07c7fba4437248352bb664c6b50", "is_disabled": 0, "rental_uris": {"android": "https://dc.lft.to/lastmile_qr_scan", "ios": "https://dc.lft.to/lastmile_qr_scan"}, "fusion_lon": 0.0, "lat": 38.921563166666665, "bike_id": "ced3d07c7fba4437248352bb664c6b50", "type": "electric_scooter", "is_reserved": 0, "lon": -77.03261866666666}, {"fusion_lat": 0.0, "name": "b50f59d29c0ca3e494c6ff1aadef5086", "is_disabled": 0, "rental_uris": {"android": "https://dc.lft.to/lastmile_qr_scan", "ios": "https://dc.lft.to/lastmile_qr_scan"}, "fusion_lon": 0.0, "lat": 38.8874535, "bike_id": "b50f59d29c0ca3e494c6ff1aadef5086", "type": "electric_scooter", "is_reserved": 0, "lon": -77.021335}, {"fusion_lat": 0.0, "name": "90d45a1c94d72c2ebd908cdd114bf58b", "is_disabled": 0, "rental_uris": {"android": "https://dc.lft.to/lastmile_qr_scan", "ios": "https://dc.lft.to/lastmile_qr_scan"}, "fusion_lon": 0.0, "lat": 38.90281733333333, "bike_id": "90d45a1c94d72c2ebd908cdd114bf58b", "type": "electric_scooter", "is_reserved": 0, "lon": -77.016212}, {"fusion_lat": 0.0, "name": "460c40c8f1c6fb9514ab58dc4d1ff902", "is_disabled": 0, "rental_uris": {"android": "https://dc.lft.to/lastmile_qr_scan", "ios": "https://dc.lft.to/lastmile_qr_scan"}, "fusion_lon": 0.0, "lat": 38.92580916666667, "bike_id": "460c40c8f1c6fb9514ab58dc4d1ff902", "type": "electric_scooter", "is_reserved": 0, "lon": -77.02980866666667}, {"fusion_lat": 0.0, "name": "7bfff22b41ceee24cffdded64035da20", "is_disabled": 0, "rental_uris": {"android": "https://dc.lft.to/lastmile_qr_scan", "ios": "https://dc.lft.to/lastmile_qr_scan"}, "fusion_lon": 0.0, "lat": 38.92459316666667, "bike_id": "7bfff22b41ceee24cffdded64035da20", "type": "electric_scooter", "is_reserved": 0, "lon": -77.03979383333333}, {"fusion_lat": 0.0, "name": "5907fa8715a9387697b9c8446293d9af", "is_disabled": 0, "rental_uris": {"android": "https://dc.lft.to/lastmile_qr_scan", "ios": "https://dc.lft.to/lastmile_qr_scan"}, "fusion_lon": 0.0, "lat": 38.92115716666667, "bike_id": "5907fa8715a9387697b9c8446293d9af", "type": "electric_scooter", "is_reserved": 0, "lon": -77.04425433333333}, {"fusion_lat": 0.0, "name": "9f109f123e6a6210bd17392f4a98ca08", "is_disabled": 0, "rental_uris": {"android": "https://dc.lft.to/lastmile_qr_scan", "ios": "https://dc.lft.to/lastmile_qr_scan"}, "fusion_lon": 0.0, "lat": 38.917076333333334, "bike_id": "9f109f123e6a6210bd17392f4a98ca08", "type": "electric_scooter", "is_reserved": 0, "lon": -77.023855}, {"fusion_lat": 0.0, "name": "ea5a772b88abc3480e8d6b0794061d0f", "is_disabled": 0, "rental_uris": {"android": "https://dc.lft.to/lastmile_qr_scan", "ios": "https://dc.lft.to/lastmile_qr_scan"}, "fusion_lon": 0.0, "lat": 38.915488333333336, "bike_id": "ea5a772b88abc3480e8d6b0794061d0f", "type": "electric_scooter", "is_reserved": 0, "lon": -77.03202466666667}, {"fusion_lat": 0.0, "name": "a4cec56bd1a9edd1b45e2e46821ed20f", "is_disabled": 0, "rental_uris": {"android": "https://dc.lft.to/lastmile_qr_scan", "ios": "https://dc.lft.to/lastmile_qr_scan"}, "fusion_lon": 0.0, "lat": 38.9156215, "bike_id": "a4cec56bd1a9edd1b45e2e46821ed20f", "type": "electric_bike", "is_reserved": 0, "lon": -77.00584083333334}, {"fusion_lat": 0.0, "name": "59b261090041f8d6d782e80a8ee63e5b", "is_disabled": 0, "rental_uris": {"android": "https://dc.lft.to/lastmile_qr_scan", "ios": "https://dc.lft.to/lastmile_qr_scan"}, "fusion_lon": 0.0, "lat": 38.91533866666666, "bike_id": "59b261090041f8d6d782e80a8ee63e5b", "type": "electric_scooter", "is_reserved": 0, "lon": -77.03198766666667}, {"fusion_lat": 0.0, "name": "a1a85753dfbd502510999ee530234bc3", "is_disabled": 0, "rental_uris": {"android": "https://dc.lft.to/lastmile_qr_scan", "ios": "https://dc.lft.to/lastmile_qr_scan"}, "fusion_lon": 0.0, "lat": 38.9224395, "bike_id": "a1a85753dfbd502510999ee530234bc3", "type": "electric_scooter", "is_reserved": 0, "lon": -77.0308645}, {"fusion_lat": 0.0, "name": "b625c8869b0998ec3b5e6bef5def7518", "is_disabled": 0, "rental_uris": {"android": "https://dc.lft.to/lastmile_qr_scan", "ios": "https://dc.lft.to/lastmile_qr_scan"}, "fusion_lon": 0.0, "lat": 38.93025683333333, "bike_id": "b625c8869b0998ec3b5e6bef5def7518", "type": "electric_scooter", "is_reserved": 0, "lon": -77.03782616666666}, {"fusion_lat": 0.0, "name": "33ff6609a0edc05c747dabd011b926ef", "is_disabled": 0, "rental_uris": {"android": "https://dc.lft.to/lastmile_qr_scan", "ios": "https://dc.lft.to/lastmile_qr_scan"}, "fusion_lon": 0.0, "lat": 38.900209333333336, "bike_id": "33ff6609a0edc05c747dabd011b926ef", "type": "electric_scooter", "is_reserved": 0, "lon": -76.99857616666667}, {"fusion_lat": 0.0, "name": "667b28d1a4296a8930eccb117046bf81", "is_disabled": 0, "rental_uris": {"android": "https://dc.lft.to/lastmile_qr_scan", "ios": "https://dc.lft.to/lastmile_qr_scan"}, "fusion_lon": 0.0, "lat": 38.89231733333333, "bike_id": "667b28d1a4296a8930eccb117046bf81", "type": "electric_scooter", "is_reserved": 0, "lon": -77.0487375}, {"fusion_lat": 0.0, "name": "816184224aa63f60f0cfd17f8ba74d79", "is_disabled": 0, "rental_uris": {"android": "https://dc.lft.to/lastmile_qr_scan", "ios": "https://dc.lft.to/lastmile_qr_scan"}, "fusion_lon": 0.0, "lat": 38.91924433333333, "bike_id": "816184224aa63f60f0cfd17f8ba74d79", "type": "electric_scooter", "is_reserved": 0, "lon": -77.03422116666667}, {"fusion_lat": 0.0, "name": "45bd1826d1f71560340afd46d1923716", "is_disabled": 0, "rental_uris": {"android": "https://dc.lft.to/lastmile_qr_scan", "ios": "https://dc.lft.to/lastmile_qr_scan"}, "fusion_lon": 0.0, "lat": 38.90382683333333, "bike_id": "45bd1826d1f71560340afd46d1923716", "type": "electric_scooter", "is_reserved": 0, "lon": -76.97615016666667}, {"fusion_lat": 0.0, "name": "448080cab77cf5b74b584e8164acea50", "is_disabled": 0, "rental_uris": {"android": "https://dc.lft.to/lastmile_qr_scan", "ios": "https://dc.lft.to/lastmile_qr_scan"}, "fusion_lon": 0.0, "lat": 38.90426566666667, "bike_id": "448080cab77cf5b74b584e8164acea50", "type": "electric_scooter", "is_reserved": 0, "lon": -77.05131683333333}, {"fusion_lat": 0.0, "name": "7506452e40936261ad295f709262db49", "is_disabled": 0, "rental_uris": {"android": "https://dc.lft.to/lastmile_qr_scan", "ios": "https://dc.lft.to/lastmile_qr_scan"}, "fusion_lon": 0.0, "lat": 38.88188516666666, "bike_id": "7506452e40936261ad295f709262db49", "type": "electric_scooter", "is_reserved": 0, "lon": -77.00355766666667}, {"fusion_lat": 0.0, "name": "1e72fd25527baff386589ecd61debad4", "is_disabled": 0, "rental_uris": {"android": "https://dc.lft.to/lastmile_qr_scan", "ios": "https://dc.lft.to/lastmile_qr_scan"}, "fusion_lon": 0.0, "lat": 38.9021005, "bike_id": "1e72fd25527baff386589ecd61debad4", "type": "electric_scooter", "is_reserved": 0, "lon": -77.04576583333333}, {"fusion_lat": 0.0, "name": "cf63c72c6d895374c38f4b6b85eccb5f", "is_disabled": 0, "rental_uris": {"android": "https://dc.lft.to/lastmile_qr_scan", "ios": "https://dc.lft.to/lastmile_qr_scan"}, "fusion_lon": 0.0, "lat": 38.872879166666664, "bike_id": "cf63c72c6d895374c38f4b6b85eccb5f", "type": "electric_scooter", "is_reserved": 0, "lon": -77.00985866666667}, {"fusion_lat": 0.0, "name": "bb3badb8297309836547735390b6064b", "is_disabled": 0, "rental_uris": {"android": "https://dc.lft.to/lastmile_qr_scan", "ios": "https://dc.lft.to/lastmile_qr_scan"}, "fusion_lon": 0.0, "lat": 38.921729666666664, "bike_id": "bb3badb8297309836547735390b6064b", "type": "electric_scooter", "is_reserved": 0, "lon": -77.035246}, {"fusion_lat": 0.0, "name": "d9b42bb63ea227d755289e38cec46f04", "is_disabled": 0, "rental_uris": {"android": "https://dc.lft.to/lastmile_qr_scan", "ios": "https://dc.lft.to/lastmile_qr_scan"}, "fusion_lon": 0.0, "lat": 38.9037545, "bike_id": "d9b42bb63ea227d755289e38cec46f04", "type": "electric_scooter", "is_reserved": 0, "lon": -77.03989966666667}, {"fusion_lat": 0.0, "name": "8c9810550bbbb8d649d414ef5071d4cc", "is_disabled": 0, "rental_uris": {"android": "https://dc.lft.to/lastmile_qr_scan", "ios": "https://dc.lft.to/lastmile_qr_scan"}, "fusion_lon": 0.0, "lat": 38.917925, "bike_id": "8c9810550bbbb8d649d414ef5071d4cc", "type": "electric_scooter", "is_reserved": 0, "lon": -77.04113033333333}, {"fusion_lat": 0.0, "name": "992c575543390be65977d3998c82bd2a", "is_disabled": 0, "rental_uris": {"android": "https://dc.lft.to/lastmile_qr_scan", "ios": "https://dc.lft.to/lastmile_qr_scan"}, "fusion_lon": 0.0, "lat": 38.90869333333333, "bike_id": "992c575543390be65977d3998c82bd2a", "type": "electric_scooter", "is_reserved": 0, "lon": -76.99801333333333}, {"fusion_lat": 0.0, "name": "df5f894a7a5134f4a643490573da8f01", "is_disabled": 0, "rental_uris": {"android": "https://dc.lft.to/lastmile_qr_scan", "ios": "https://dc.lft.to/lastmile_qr_scan"}, "fusion_lon": 0.0, "lat": 38.91799833333334, "bike_id": "df5f894a7a5134f4a643490573da8f01", "type": "electric_scooter", "is_reserved": 0, "lon": -77.0271245}, {"fusion_lat": 0.0, "name": "65c86b605cfcf90bc7eb8b448bc3426d", "is_disabled": 0, "rental_uris": {"android": "https://dc.lft.to/lastmile_qr_scan", "ios": "https://dc.lft.to/lastmile_qr_scan"}, "fusion_lon": 0.0, "lat": 38.919165, "bike_id": "65c86b605cfcf90bc7eb8b448bc3426d", "type": "electric_scooter", "is_reserved": 0, "lon": -77.03176283333333}, {"fusion_lat": 0.0, "name": "d0df2b069dcf505b43bcd8d619c0213b", "is_disabled": 0, "rental_uris": {"android": "https://dc.lft.to/lastmile_qr_scan", "ios": "https://dc.lft.to/lastmile_qr_scan"}, "fusion_lon": 0.0, "lat": 38.92372266666667, "bike_id": "d0df2b069dcf505b43bcd8d619c0213b", "type": "electric_scooter", "is_reserved": 0, "lon": -77.0281705}, {"fusion_lat": 0.0, "name": "7ff6ec609927d65345534e3631f0f183", "is_disabled": 0, "rental_uris": {"android": "https://dc.lft.to/lastmile_qr_scan", "ios": "https://dc.lft.to/lastmile_qr_scan"}, "fusion_lon": 0.0, "lat": 38.90134833333333, "bike_id": "7ff6ec609927d65345534e3631f0f183", "type": "electric_scooter", "is_reserved": 0, "lon": -77.0319795}, {"fusion_lat": 0.0, "name": "4d3147cb6868c62e930d5d8f8ea1cd1f", "is_disabled": 0, "rental_uris": {"android": "https://dc.lft.to/lastmile_qr_scan", "ios": "https://dc.lft.to/lastmile_qr_scan"}, "fusion_lon": 0.0, "lat": 38.91147016666667, "bike_id": "4d3147cb6868c62e930d5d8f8ea1cd1f", "type": "electric_scooter", "is_reserved": 0, "lon": -77.031982}, {"fusion_lat": 0.0, "name": "6e9a8cd9221a4a9dbf408ce5e2224da5", "is_disabled": 0, "rental_uris": {"android": "https://dc.lft.to/lastmile_qr_scan", "ios": "https://dc.lft.to/lastmile_qr_scan"}, "fusion_lon": 0.0, "lat": 38.93469183333333, "bike_id": "6e9a8cd9221a4a9dbf408ce5e2224da5", "type": "electric_scooter", "is_reserved": 0, "lon": -77.07256966666667}, {"fusion_lat": 0.0, "name": "a5419010a25d586f39db064539f5f536", "is_disabled": 0, "rental_uris": {"android": "https://dc.lft.to/lastmile_qr_scan", "ios": "https://dc.lft.to/lastmile_qr_scan"}, "fusion_lon": 0.0, "lat": 38.931005, "bike_id": "a5419010a25d586f39db064539f5f536", "type": "electric_scooter", "is_reserved": 0, "lon": -77.02478233333333}, {"fusion_lat": 0.0, "name": "f7d854d7532fddec944dd31c60961c08", "is_disabled": 0, "rental_uris": {"android": "https://dc.lft.to/lastmile_qr_scan", "ios": "https://dc.lft.to/lastmile_qr_scan"}, "fusion_lon": 0.0, "lat": 38.905672333333335, "bike_id": "f7d854d7532fddec944dd31c60961c08", "type": "electric_scooter", "is_reserved": 0, "lon": -77.0060195}, {"fusion_lat": 0.0, "name": "9c2fc701cdc49704cfc87860b0dc528a", "is_disabled": 0, "rental_uris": {"android": "https://dc.lft.to/lastmile_qr_scan", "ios": "https://dc.lft.to/lastmile_qr_scan"}, "fusion_lon": 0.0, "lat": 38.91254383333333, "bike_id": "9c2fc701cdc49704cfc87860b0dc528a", "type": "electric_scooter", "is_reserved": 0, "lon": -77.03158333333333}, {"fusion_lat": 0.0, "name": "05e66d217a28c9d62194083815e86580", "is_disabled": 0, "rental_uris": {"android": "https://dc.lft.to/lastmile_qr_scan", "ios": "https://dc.lft.to/lastmile_qr_scan"}, "fusion_lon": 0.0, "lat": 38.92478833333333, "bike_id": "05e66d217a28c9d62194083815e86580", "type": "electric_scooter", "is_reserved": 0, "lon": -77.02595183333334}, {"fusion_lat": 0.0, "name": "593bed19082f6236e40ecea4ce363b7c", "is_disabled": 0, "rental_uris": {"android": "https://dc.lft.to/lastmile_qr_scan", "ios": "https://dc.lft.to/lastmile_qr_scan"}, "fusion_lon": 0.0, "lat": 38.90280533333333, "bike_id": "593bed19082f6236e40ecea4ce363b7c", "type": "electric_scooter", "is_reserved": 0, "lon": -77.03670416666667}, {"fusion_lat": 0.0, "name": "280efd685a3b7eae79801b1b1dbbd94f", "is_disabled": 0, "rental_uris": {"android": "https://dc.lft.to/lastmile_qr_scan", "ios": "https://dc.lft.to/lastmile_qr_scan"}, "fusion_lon": 0.0, "lat": 38.917317833333335, "bike_id": "280efd685a3b7eae79801b1b1dbbd94f", "type": "electric_bike", "is_reserved": 0, "lon": -76.9790745}, {"fusion_lat": 0.0, "name": "f8d3161f0d290314dd6f8dbb71dba6b8", "is_disabled": 0, "rental_uris": {"android": "https://dc.lft.to/lastmile_qr_scan", "ios": "https://dc.lft.to/lastmile_qr_scan"}, "fusion_lon": 0.0, "lat": 38.92314833333333, "bike_id": "f8d3161f0d290314dd6f8dbb71dba6b8", "type": "electric_scooter", "is_reserved": 0, "lon": -77.035703}, {"fusion_lat": 0.0, "name": "73f5b92f34b5fa134b61bfdc79b174b3", "is_disabled": 0, "rental_uris": {"android": "https://dc.lft.to/lastmile_qr_scan", "ios": "https://dc.lft.to/lastmile_qr_scan"}, "fusion_lon": 0.0, "lat": 38.876553333333334, "bike_id": "73f5b92f34b5fa134b61bfdc79b174b3", "type": "electric_scooter", "is_reserved": 0, "lon": -77.00417083333333}, {"fusion_lat": 0.0, "name": "b1bc44770b3b8189f4869d6027453fc7", "is_disabled": 0, "rental_uris": {"android": "https://dc.lft.to/lastmile_qr_scan", "ios": "https://dc.lft.to/lastmile_qr_scan"}, "fusion_lon": 0.0, "lat": 38.916894, "bike_id": "b1bc44770b3b8189f4869d6027453fc7", "type": "electric_scooter", "is_reserved": 0, "lon": -77.03773083333333}, {"fusion_lat": 0.0, "name": "b59a291a713de1417c6a7fb100b6dd04", "is_disabled": 0, "rental_uris": {"android": "https://dc.lft.to/lastmile_qr_scan", "ios": "https://dc.lft.to/lastmile_qr_scan"}, "fusion_lon": 0.0, "lat": 38.92370783333333, "bike_id": "b59a291a713de1417c6a7fb100b6dd04", "type": "electric_scooter", "is_reserved": 0, "lon": -77.02966}, {"fusion_lat": 0.0, "name": "e083ea6f23180bc82bd07a49566e8af7", "is_disabled": 0, "rental_uris": {"android": "https://dc.lft.to/lastmile_qr_scan", "ios": "https://dc.lft.to/lastmile_qr_scan"}, "fusion_lon": 0.0, "lat": 38.84425566666667, "bike_id": "e083ea6f23180bc82bd07a49566e8af7", "type": "electric_scooter", "is_reserved": 0, "lon": -76.9978105}, {"fusion_lat": 0.0, "name": "c4f2411a45ad45c2a2e1c17f8775808c", "is_disabled": 0, "rental_uris": {"android": "https://dc.lft.to/lastmile_qr_scan", "ios": "https://dc.lft.to/lastmile_qr_scan"}, "fusion_lon": 0.0, "lat": 38.87719933333333, "bike_id": "c4f2411a45ad45c2a2e1c17f8775808c", "type": "electric_scooter", "is_reserved": 0, "lon": -77.0072655}, {"fusion_lat": 0.0, "name": "f179f8cbefdf7dd3d4b9fa030b97d37e", "is_disabled": 0, "rental_uris": {"android": "https://dc.lft.to/lastmile_qr_scan", "ios": "https://dc.lft.to/lastmile_qr_scan"}, "fusion_lon": 0.0, "lat": 38.904621, "bike_id": "f179f8cbefdf7dd3d4b9fa030b97d37e", "type": "electric_scooter", "is_reserved": 0, "lon": -77.053352}, {"fusion_lat": 0.0, "name": "50fbbc2e42cff53a0da4be19a3d28da7", "is_disabled": 0, "rental_uris": {"android": "https://dc.lft.to/lastmile_qr_scan", "ios": "https://dc.lft.to/lastmile_qr_scan"}, "fusion_lon": 0.0, "lat": 38.9113445, "bike_id": "50fbbc2e42cff53a0da4be19a3d28da7", "type": "electric_scooter", "is_reserved": 0, "lon": -77.0653875}, {"fusion_lat": 0.0, "name": "1ef2d07d75d813210cfd90c1c6a26c91", "is_disabled": 0, "rental_uris": {"android": "https://dc.lft.to/lastmile_qr_scan", "ios": "https://dc.lft.to/lastmile_qr_scan"}, "fusion_lon": 0.0, "lat": 38.95088, "bike_id": "1ef2d07d75d813210cfd90c1c6a26c91", "type": "electric_scooter", "is_reserved": 0, "lon": -77.0312065}, {"fusion_lat": 0.0, "name": "899412abd467b4683438a48ce85a9c6a", "is_disabled": 0, "rental_uris": {"android": "https://dc.lft.to/lastmile_qr_scan", "ios": "https://dc.lft.to/lastmile_qr_scan"}, "fusion_lon": 0.0, "lat": 38.941841333333336, "bike_id": "899412abd467b4683438a48ce85a9c6a", "type": "electric_scooter", "is_reserved": 0, "lon": -77.0261545}, {"fusion_lat": 0.0, "name": "3ed8d4ca46ac985738cccf9d1028ab43", "is_disabled": 0, "rental_uris": {"android": "https://dc.lft.to/lastmile_qr_scan", "ios": "https://dc.lft.to/lastmile_qr_scan"}, "fusion_lon": 0.0, "lat": 38.912645833333336, "bike_id": "3ed8d4ca46ac985738cccf9d1028ab43", "type": "electric_scooter", "is_reserved": 0, "lon": -77.03841816666667}, {"fusion_lat": 0.0, "name": "5388d9350342225b7fabc404308b67a3", "is_disabled": 0, "rental_uris": {"android": "https://dc.lft.to/lastmile_qr_scan", "ios": "https://dc.lft.to/lastmile_qr_scan"}, "fusion_lon": 0.0, "lat": 38.9054985, "bike_id": "5388d9350342225b7fabc404308b67a3", "type": "electric_scooter", "is_reserved": 0, "lon": -77.046697}, {"fusion_lat": 0.0, "name": "abbe480aac282eb848c6d03e38d470c6", "is_disabled": 0, "rental_uris": {"android": "https://dc.lft.to/lastmile_qr_scan", "ios": "https://dc.lft.to/lastmile_qr_scan"}, "fusion_lon": 0.0, "lat": 38.9068225, "bike_id": "abbe480aac282eb848c6d03e38d470c6", "type": "electric_scooter", "is_reserved": 0, "lon": -77.026974}, {"fusion_lat": 0.0, "name": "9ed9836b00bbba70527452bf536fe715", "is_disabled": 0, "rental_uris": {"android": "https://dc.lft.to/lastmile_qr_scan", "ios": "https://dc.lft.to/lastmile_qr_scan"}, "fusion_lon": 0.0, "lat": 38.847584833333336, "bike_id": "9ed9836b00bbba70527452bf536fe715", "type": "electric_scooter", "is_reserved": 0, "lon": -76.995008}, {"fusion_lat": 0.0, "name": "6a53707597fdd89065a51ecc670a21f0", "is_disabled": 0, "rental_uris": {"android": "https://dc.lft.to/lastmile_qr_scan", "ios": "https://dc.lft.to/lastmile_qr_scan"}, "fusion_lon": 0.0, "lat": 38.919795, "bike_id": "6a53707597fdd89065a51ecc670a21f0", "type": "electric_scooter", "is_reserved": 0, "lon": -77.0260505}, {"fusion_lat": 0.0, "name": "e930eb43cac768e06ec7c3782af4fcec", "is_disabled": 0, "rental_uris": {"android": "https://dc.lft.to/lastmile_qr_scan", "ios": "https://dc.lft.to/lastmile_qr_scan"}, "fusion_lon": 0.0, "lat": 38.92252966666667, "bike_id": "e930eb43cac768e06ec7c3782af4fcec", "type": "electric_scooter", "is_reserved": 0, "lon": -77.02808033333334}, {"fusion_lat": 0.0, "name": "017f6a54cef0a96bf4ddfbb14e525b65", "is_disabled": 0, "rental_uris": {"android": "https://dc.lft.to/lastmile_qr_scan", "ios": "https://dc.lft.to/lastmile_qr_scan"}, "fusion_lon": 0.0, "lat": 38.935735333333334, "bike_id": "017f6a54cef0a96bf4ddfbb14e525b65", "type": "electric_scooter", "is_reserved": 0, "lon": -77.0365885}, {"fusion_lat": 0.0, "name": "94f212b739fe1a8f33e979776ef66217", "is_disabled": 0, "rental_uris": {"android": "https://dc.lft.to/lastmile_qr_scan", "ios": "https://dc.lft.to/lastmile_qr_scan"}, "fusion_lon": 0.0, "lat": 38.901775, "bike_id": "94f212b739fe1a8f33e979776ef66217", "type": "electric_scooter", "is_reserved": 0, "lon": -76.99268233333333}, {"fusion_lat": 0.0, "name": "06e529b10babe6e3e3c7552181b112a4", "is_disabled": 0, "rental_uris": {"android": "https://dc.lft.to/lastmile_qr_scan", "ios": "https://dc.lft.to/lastmile_qr_scan"}, "fusion_lon": 0.0, "lat": 38.90869383333333, "bike_id": "06e529b10babe6e3e3c7552181b112a4", "type": "electric_scooter", "is_reserved": 0, "lon": -77.07165366666666}, {"fusion_lat": 0.0, "name": "a343065c16e89187a3d74a2894ee8e57", "is_disabled": 0, "rental_uris": {"android": "https://dc.lft.to/lastmile_qr_scan", "ios": "https://dc.lft.to/lastmile_qr_scan"}, "fusion_lon": 0.0, "lat": 38.907092666666664, "bike_id": "a343065c16e89187a3d74a2894ee8e57", "type": "electric_scooter", "is_reserved": 0, "lon": -77.02715683333334}, {"fusion_lat": 0.0, "name": "78250597a70f1400e33a0593bfaef29f", "is_disabled": 0, "rental_uris": {"android": "https://dc.lft.to/lastmile_qr_scan", "ios": "https://dc.lft.to/lastmile_qr_scan"}, "fusion_lon": 0.0, "lat": 38.8834465, "bike_id": "78250597a70f1400e33a0593bfaef29f", "type": "electric_scooter", "is_reserved": 0, "lon": -77.03163933333333}, {"fusion_lat": 0.0, "name": "0b5b7f9710653c1d044922ad56f97811", "is_disabled": 0, "rental_uris": {"android": "https://dc.lft.to/lastmile_qr_scan", "ios": "https://dc.lft.to/lastmile_qr_scan"}, "fusion_lon": 0.0, "lat": 38.923102166666666, "bike_id": "0b5b7f9710653c1d044922ad56f97811", "type": "electric_scooter", "is_reserved": 0, "lon": -77.03969366666666}, {"fusion_lat": 0.0, "name": "3ceeaa43d60d48a463c0a83dd2fc2732", "is_disabled": 0, "rental_uris": {"android": "https://dc.lft.to/lastmile_qr_scan", "ios": "https://dc.lft.to/lastmile_qr_scan"}, "fusion_lon": 0.0, "lat": 38.88374816666666, "bike_id": "3ceeaa43d60d48a463c0a83dd2fc2732", "type": "electric_scooter", "is_reserved": 0, "lon": -76.99515983333333}, {"fusion_lat": 0.0, "name": "d430accfbe2dd74f2c91b2ed839bb6d4", "is_disabled": 0, "rental_uris": {"android": "https://dc.lft.to/lastmile_qr_scan", "ios": "https://dc.lft.to/lastmile_qr_scan"}, "fusion_lon": 0.0, "lat": 38.89228716666667, "bike_id": "d430accfbe2dd74f2c91b2ed839bb6d4", "type": "electric_scooter", "is_reserved": 0, "lon": -77.02657266666667}, {"fusion_lat": 0.0, "name": "cf0d8088361729a8abf7e7d7d3f66182", "is_disabled": 0, "rental_uris": {"android": "https://dc.lft.to/lastmile_qr_scan", "ios": "https://dc.lft.to/lastmile_qr_scan"}, "fusion_lon": 0.0, "lat": 38.917232, "bike_id": "cf0d8088361729a8abf7e7d7d3f66182", "type": "electric_scooter", "is_reserved": 0, "lon": -77.02303983333333}, {"fusion_lat": 0.0, "name": "e242b640f4461336293fc5977fd89c67", "is_disabled": 0, "rental_uris": {"android": "https://dc.lft.to/lastmile_qr_scan", "ios": "https://dc.lft.to/lastmile_qr_scan"}, "fusion_lon": 0.0, "lat": 38.941872000000004, "bike_id": "e242b640f4461336293fc5977fd89c67", "type": "electric_scooter", "is_reserved": 0, "lon": -77.0261415}, {"fusion_lat": 0.0, "name": "317f7b9df0b247f9a95649f8425f3352", "is_disabled": 0, "rental_uris": {"android": "https://dc.lft.to/lastmile_qr_scan", "ios": "https://dc.lft.to/lastmile_qr_scan"}, "fusion_lon": 0.0, "lat": 38.91418733333333, "bike_id": "317f7b9df0b247f9a95649f8425f3352", "type": "electric_scooter", "is_reserved": 0, "lon": -77.02191316666666}, {"fusion_lat": 0.0, "name": "8349847810e447ec2078f8171897ba6d", "is_disabled": 0, "rental_uris": {"android": "https://dc.lft.to/lastmile_qr_scan", "ios": "https://dc.lft.to/lastmile_qr_scan"}, "fusion_lon": 0.0, "lat": 38.9286665, "bike_id": "8349847810e447ec2078f8171897ba6d", "type": "electric_scooter", "is_reserved": 0, "lon": -77.03306416666666}, {"fusion_lat": 0.0, "name": "24388fde2bbb105f9e0aeddc9edc0e69", "is_disabled": 0, "rental_uris": {"android": "https://dc.lft.to/lastmile_qr_scan", "ios": "https://dc.lft.to/lastmile_qr_scan"}, "fusion_lon": 0.0, "lat": 38.905586, "bike_id": "24388fde2bbb105f9e0aeddc9edc0e69", "type": "electric_scooter", "is_reserved": 0, "lon": -76.9946365}, {"fusion_lat": 0.0, "name": "2b905c87a1a826b076e06290d5514d02", "is_disabled": 0, "rental_uris": {"android": "https://dc.lft.to/lastmile_qr_scan", "ios": "https://dc.lft.to/lastmile_qr_scan"}, "fusion_lon": 0.0, "lat": 38.9218935, "bike_id": "2b905c87a1a826b076e06290d5514d02", "type": "electric_scooter", "is_reserved": 0, "lon": -77.03978183333334}, {"fusion_lat": 0.0, "name": "47e284e2d15a8c0dabf18299ae242b4b", "is_disabled": 0, "rental_uris": {"android": "https://dc.lft.to/lastmile_qr_scan", "ios": "https://dc.lft.to/lastmile_qr_scan"}, "fusion_lon": 0.0, "lat": 38.900013333333334, "bike_id": "47e284e2d15a8c0dabf18299ae242b4b", "type": "electric_scooter", "is_reserved": 0, "lon": -77.04495466666667}, {"fusion_lat": 0.0, "name": "7e791317586bdcf89f44779a4e5de2c5", "is_disabled": 0, "rental_uris": {"android": "https://dc.lft.to/lastmile_qr_scan", "ios": "https://dc.lft.to/lastmile_qr_scan"}, "fusion_lon": 0.0, "lat": 38.9241055, "bike_id": "7e791317586bdcf89f44779a4e5de2c5", "type": "electric_scooter", "is_reserved": 0, "lon": -77.027182}, {"fusion_lat": 0.0, "name": "55f483324833724e153133921ab0a7d4", "is_disabled": 0, "rental_uris": {"android": "https://dc.lft.to/lastmile_qr_scan", "ios": "https://dc.lft.to/lastmile_qr_scan"}, "fusion_lon": 0.0, "lat": 38.900403, "bike_id": "55f483324833724e153133921ab0a7d4", "type": "electric_scooter", "is_reserved": 0, "lon": -77.00205566666666}, {"fusion_lat": 0.0, "name": "cdc0ba98cc01c294d119f6b9e9c375dd", "is_disabled": 0, "rental_uris": {"android": "https://dc.lft.to/lastmile_qr_scan", "ios": "https://dc.lft.to/lastmile_qr_scan"}, "fusion_lon": 0.0, "lat": 38.92131283333333, "bike_id": "cdc0ba98cc01c294d119f6b9e9c375dd", "type": "electric_scooter", "is_reserved": 0, "lon": -77.02526}, {"fusion_lat": 0.0, "name": "ec4dd862695a35103162915d7848b551", "is_disabled": 0, "rental_uris": {"android": "https://dc.lft.to/lastmile_qr_scan", "ios": "https://dc.lft.to/lastmile_qr_scan"}, "fusion_lon": 0.0, "lat": 38.91457116666667, "bike_id": "ec4dd862695a35103162915d7848b551", "type": "electric_scooter", "is_reserved": 0, "lon": -77.002129}, {"fusion_lat": 0.0, "name": "434da01c809fda416ff45917a10de1f0", "is_disabled": 0, "rental_uris": {"android": "https://dc.lft.to/lastmile_qr_scan", "ios": "https://dc.lft.to/lastmile_qr_scan"}, "fusion_lon": 0.0, "lat": 38.950139, "bike_id": "434da01c809fda416ff45917a10de1f0", "type": "electric_scooter", "is_reserved": 0, "lon": -77.080455}, {"fusion_lat": 0.0, "name": "7b50a42ae6ec66e520e07dcb9b58d925", "is_disabled": 0, "rental_uris": {"android": "https://dc.lft.to/lastmile_qr_scan", "ios": "https://dc.lft.to/lastmile_qr_scan"}, "fusion_lon": 0.0, "lat": 38.903628499999996, "bike_id": "7b50a42ae6ec66e520e07dcb9b58d925", "type": "electric_scooter", "is_reserved": 0, "lon": -77.00982666666667}, {"fusion_lat": 0.0, "name": "8c9d732a526fdbc0f977d03a68d1cd24", "is_disabled": 0, "rental_uris": {"android": "https://dc.lft.to/lastmile_qr_scan", "ios": "https://dc.lft.to/lastmile_qr_scan"}, "fusion_lon": 0.0, "lat": 38.9074045, "bike_id": "8c9d732a526fdbc0f977d03a68d1cd24", "type": "electric_scooter", "is_reserved": 0, "lon": -77.04343766666666}, {"fusion_lat": 0.0, "name": "5d464f33f7c676b4a2d8f27a5e1dc912", "is_disabled": 0, "rental_uris": {"android": "https://dc.lft.to/lastmile_qr_scan", "ios": "https://dc.lft.to/lastmile_qr_scan"}, "fusion_lon": 0.0, "lat": 38.93061633333333, "bike_id": "5d464f33f7c676b4a2d8f27a5e1dc912", "type": "electric_scooter", "is_reserved": 0, "lon": -77.03217383333333}, {"fusion_lat": 0.0, "name": "305aa7ddb3890690aa2319858b80f89c", "is_disabled": 0, "rental_uris": {"android": "https://dc.lft.to/lastmile_qr_scan", "ios": "https://dc.lft.to/lastmile_qr_scan"}, "fusion_lon": 0.0, "lat": 38.91711316666667, "bike_id": "305aa7ddb3890690aa2319858b80f89c", "type": "electric_scooter", "is_reserved": 0, "lon": -77.03107783333333}, {"fusion_lat": 0.0, "name": "536158fdb478309a7f519f2411757d70", "is_disabled": 0, "rental_uris": {"android": "https://dc.lft.to/lastmile_qr_scan", "ios": "https://dc.lft.to/lastmile_qr_scan"}, "fusion_lon": 0.0, "lat": 38.887448, "bike_id": "536158fdb478309a7f519f2411757d70", "type": "electric_scooter", "is_reserved": 0, "lon": -77.01779633333334}, {"fusion_lat": 0.0, "name": "3537a4033be5ee5b9d60c27345d878ae", "is_disabled": 0, "rental_uris": {"android": "https://dc.lft.to/lastmile_qr_scan", "ios": "https://dc.lft.to/lastmile_qr_scan"}, "fusion_lon": 0.0, "lat": 38.920858833333334, "bike_id": "3537a4033be5ee5b9d60c27345d878ae", "type": "electric_scooter", "is_reserved": 0, "lon": -77.02401966666666}, {"fusion_lat": 0.0, "name": "6132f0191b947459795b75c22ba23fc4", "is_disabled": 0, "rental_uris": {"android": "https://dc.lft.to/lastmile_qr_scan", "ios": "https://dc.lft.to/lastmile_qr_scan"}, "fusion_lon": 0.0, "lat": 38.907607166666665, "bike_id": "6132f0191b947459795b75c22ba23fc4", "type": "electric_scooter", "is_reserved": 0, "lon": -77.03588366666666}, {"fusion_lat": 0.0, "name": "ed000275128ba497c5135f6156d9f544", "is_disabled": 0, "rental_uris": {"android": "https://dc.lft.to/lastmile_qr_scan", "ios": "https://dc.lft.to/lastmile_qr_scan"}, "fusion_lon": 0.0, "lat": 38.915284, "bike_id": "ed000275128ba497c5135f6156d9f544", "type": "electric_scooter", "is_reserved": 0, "lon": -77.0748125}, {"fusion_lat": 0.0, "name": "bc96c031c61d81e64914ada8cb3a9bfb", "is_disabled": 0, "rental_uris": {"android": "https://dc.lft.to/lastmile_qr_scan", "ios": "https://dc.lft.to/lastmile_qr_scan"}, "fusion_lon": 0.0, "lat": 38.8872975, "bike_id": "bc96c031c61d81e64914ada8cb3a9bfb", "type": "electric_scooter", "is_reserved": 0, "lon": -76.983584}, {"fusion_lat": 0.0, "name": "5fabd8bcbf8850aa71bcd393483bd588", "is_disabled": 0, "rental_uris": {"android": "https://dc.lft.to/lastmile_qr_scan", "ios": "https://dc.lft.to/lastmile_qr_scan"}, "fusion_lon": 0.0, "lat": 38.907198666666666, "bike_id": "5fabd8bcbf8850aa71bcd393483bd588", "type": "electric_scooter", "is_reserved": 0, "lon": -77.04331}, {"fusion_lat": 0.0, "name": "88666607f61523fe19fbcf82de307507", "is_disabled": 0, "rental_uris": {"android": "https://dc.lft.to/lastmile_qr_scan", "ios": "https://dc.lft.to/lastmile_qr_scan"}, "fusion_lon": 0.0, "lat": 38.91594583333333, "bike_id": "88666607f61523fe19fbcf82de307507", "type": "electric_scooter", "is_reserved": 0, "lon": -77.014831}, {"fusion_lat": 0.0, "name": "25e18ac0267e56d08dd0a31eee8b70b9", "is_disabled": 0, "rental_uris": {"android": "https://dc.lft.to/lastmile_qr_scan", "ios": "https://dc.lft.to/lastmile_qr_scan"}, "fusion_lon": 0.0, "lat": 38.91678866666667, "bike_id": "25e18ac0267e56d08dd0a31eee8b70b9", "type": "electric_scooter", "is_reserved": 0, "lon": -77.036872}, {"fusion_lat": 0.0, "name": "8ce0df8678eba2550c36525db828e8ae", "is_disabled": 0, "rental_uris": {"android": "https://dc.lft.to/lastmile_qr_scan", "ios": "https://dc.lft.to/lastmile_qr_scan"}, "fusion_lon": 0.0, "lat": 38.901419833333335, "bike_id": "8ce0df8678eba2550c36525db828e8ae", "type": "electric_scooter", "is_reserved": 0, "lon": -76.97419666666667}, {"fusion_lat": 0.0, "name": "a63db34a533b4ea3d80d0318d9d37da1", "is_disabled": 0, "rental_uris": {"android": "https://dc.lft.to/lastmile_qr_scan", "ios": "https://dc.lft.to/lastmile_qr_scan"}, "fusion_lon": 0.0, "lat": 38.911951333333334, "bike_id": "a63db34a533b4ea3d80d0318d9d37da1", "type": "electric_scooter", "is_reserved": 0, "lon": -77.04506483333333}, {"fusion_lat": 0.0, "name": "2c6bc7cabe06be68ce6886894c497cdd", "is_disabled": 0, "rental_uris": {"android": "https://dc.lft.to/lastmile_qr_scan", "ios": "https://dc.lft.to/lastmile_qr_scan"}, "fusion_lon": 0.0, "lat": 38.907144333333335, "bike_id": "2c6bc7cabe06be68ce6886894c497cdd", "type": "electric_scooter", "is_reserved": 0, "lon": -77.02713833333334}, {"fusion_lat": 0.0, "name": "071691c37e344a29444867e474e0a67e", "is_disabled": 0, "rental_uris": {"android": "https://dc.lft.to/lastmile_qr_scan", "ios": "https://dc.lft.to/lastmile_qr_scan"}, "fusion_lon": 0.0, "lat": 38.89723516666667, "bike_id": "071691c37e344a29444867e474e0a67e", "type": "electric_scooter", "is_reserved": 0, "lon": -77.0473895}, {"fusion_lat": 0.0, "name": "4c701cbc492567fb547812446f1fc221", "is_disabled": 0, "rental_uris": {"android": "https://dc.lft.to/lastmile_qr_scan", "ios": "https://dc.lft.to/lastmile_qr_scan"}, "fusion_lon": 0.0, "lat": 38.9212505, "bike_id": "4c701cbc492567fb547812446f1fc221", "type": "electric_scooter", "is_reserved": 0, "lon": -77.04232716666667}, {"fusion_lat": 0.0, "name": "444d2d38132daa263b7be7237a11188f", "is_disabled": 0, "rental_uris": {"android": "https://dc.lft.to/lastmile_qr_scan", "ios": "https://dc.lft.to/lastmile_qr_scan"}, "fusion_lon": 0.0, "lat": 38.91853183333333, "bike_id": "444d2d38132daa263b7be7237a11188f", "type": "electric_bike", "is_reserved": 0, "lon": -76.96090333333333}, {"fusion_lat": 0.0, "name": "e02070346e5b514b82497a9c3a2cc558", "is_disabled": 0, "rental_uris": {"android": "https://dc.lft.to/lastmile_qr_scan", "ios": "https://dc.lft.to/lastmile_qr_scan"}, "fusion_lon": 0.0, "lat": 38.907093833333334, "bike_id": "e02070346e5b514b82497a9c3a2cc558", "type": "electric_scooter", "is_reserved": 0, "lon": -77.02391833333333}, {"fusion_lat": 0.0, "name": "6c9dccf330f2f982bf4e69a5bf51d967", "is_disabled": 0, "rental_uris": {"android": "https://dc.lft.to/lastmile_qr_scan", "ios": "https://dc.lft.to/lastmile_qr_scan"}, "fusion_lon": 0.0, "lat": 38.918076, "bike_id": "6c9dccf330f2f982bf4e69a5bf51d967", "type": "electric_scooter", "is_reserved": 0, "lon": -77.034367}, {"fusion_lat": 0.0, "name": "7eafd24f02bf4ee0ac9fac25c1d2b2f8", "is_disabled": 0, "rental_uris": {"android": "https://dc.lft.to/lastmile_qr_scan", "ios": "https://dc.lft.to/lastmile_qr_scan"}, "fusion_lon": 0.0, "lat": 38.92020933333333, "bike_id": "7eafd24f02bf4ee0ac9fac25c1d2b2f8", "type": "electric_scooter", "is_reserved": 0, "lon": -77.04403983333333}, {"fusion_lat": 0.0, "name": "58b55229fab8fe36a505d6595be5f77a", "is_disabled": 0, "rental_uris": {"android": "https://dc.lft.to/lastmile_qr_scan", "ios": "https://dc.lft.to/lastmile_qr_scan"}, "fusion_lon": 0.0, "lat": 38.88741783333333, "bike_id": "58b55229fab8fe36a505d6595be5f77a", "type": "electric_scooter", "is_reserved": 0, "lon": -77.02571266666666}, {"fusion_lat": 0.0, "name": "376a41bfc1c486fb099fcd96aca2b61d", "is_disabled": 0, "rental_uris": {"android": "https://dc.lft.to/lastmile_qr_scan", "ios": "https://dc.lft.to/lastmile_qr_scan"}, "fusion_lon": 0.0, "lat": 38.924837, "bike_id": "376a41bfc1c486fb099fcd96aca2b61d", "type": "electric_scooter", "is_reserved": 0, "lon": -77.02134616666666}, {"fusion_lat": 0.0, "name": "f3c2869952a3479f8142ba8ab6961135", "is_disabled": 0, "rental_uris": {"android": "https://dc.lft.to/lastmile_qr_scan", "ios": "https://dc.lft.to/lastmile_qr_scan"}, "fusion_lon": 0.0, "lat": 38.934784666666665, "bike_id": "f3c2869952a3479f8142ba8ab6961135", "type": "electric_scooter", "is_reserved": 0, "lon": -77.072752}, {"fusion_lat": 0.0, "name": "60b42c901cce99343504f8cfc80c4d73", "is_disabled": 0, "rental_uris": {"android": "https://dc.lft.to/lastmile_qr_scan", "ios": "https://dc.lft.to/lastmile_qr_scan"}, "fusion_lon": 0.0, "lat": 38.905586166666666, "bike_id": "60b42c901cce99343504f8cfc80c4d73", "type": "electric_scooter", "is_reserved": 0, "lon": -77.0209375}, {"fusion_lat": 0.0, "name": "8ce3efe1b6670f644ffead93c7580c6f", "is_disabled": 0, "rental_uris": {"android": "https://dc.lft.to/lastmile_qr_scan", "ios": "https://dc.lft.to/lastmile_qr_scan"}, "fusion_lon": 0.0, "lat": 38.872142333333336, "bike_id": "8ce3efe1b6670f644ffead93c7580c6f", "type": "electric_scooter", "is_reserved": 0, "lon": -77.0176245}, {"fusion_lat": 0.0, "name": "797594dc243e650ff9f90eb36ed2c6fd", "is_disabled": 0, "rental_uris": {"android": "https://dc.lft.to/lastmile_qr_scan", "ios": "https://dc.lft.to/lastmile_qr_scan"}, "fusion_lon": 0.0, "lat": 38.8718185, "bike_id": "797594dc243e650ff9f90eb36ed2c6fd", "type": "electric_scooter", "is_reserved": 0, "lon": -77.0057255}, {"fusion_lat": 0.0, "name": "3d808c0c3ff804dd3bdbd73e9e8462e4", "is_disabled": 0, "rental_uris": {"android": "https://dc.lft.to/lastmile_qr_scan", "ios": "https://dc.lft.to/lastmile_qr_scan"}, "fusion_lon": 0.0, "lat": 38.836270999999996, "bike_id": "3d808c0c3ff804dd3bdbd73e9e8462e4", "type": "electric_bike", "is_reserved": 0, "lon": -77.06954883333333}, {"fusion_lat": 0.0, "name": "ddd5674e7e3e6b19f29416923efaf491", "is_disabled": 0, "rental_uris": {"android": "https://dc.lft.to/lastmile_qr_scan", "ios": "https://dc.lft.to/lastmile_qr_scan"}, "fusion_lon": 0.0, "lat": 38.9065985, "bike_id": "ddd5674e7e3e6b19f29416923efaf491", "type": "electric_scooter", "is_reserved": 0, "lon": -77.009744}, {"fusion_lat": 0.0, "name": "fc61db052b029f1e1ebbd6573c812c78", "is_disabled": 0, "rental_uris": {"android": "https://dc.lft.to/lastmile_qr_scan", "ios": "https://dc.lft.to/lastmile_qr_scan"}, "fusion_lon": 0.0, "lat": 38.906861, "bike_id": "fc61db052b029f1e1ebbd6573c812c78", "type": "electric_scooter", "is_reserved": 0, "lon": -76.95195833333334}, {"fusion_lat": 0.0, "name": "cac847c0d923cb90121213a554162689", "is_disabled": 0, "rental_uris": {"android": "https://dc.lft.to/lastmile_qr_scan", "ios": "https://dc.lft.to/lastmile_qr_scan"}, "fusion_lon": 0.0, "lat": 38.950948, "bike_id": "cac847c0d923cb90121213a554162689", "type": "electric_scooter", "is_reserved": 0, "lon": -77.02960066666667}, {"fusion_lat": 0.0, "name": "5289c4bb3f7bc92aef2a745b5e0f0454", "is_disabled": 0, "rental_uris": {"android": "https://dc.lft.to/lastmile_qr_scan", "ios": "https://dc.lft.to/lastmile_qr_scan"}, "fusion_lon": 0.0, "lat": 38.91823083333333, "bike_id": "5289c4bb3f7bc92aef2a745b5e0f0454", "type": "electric_scooter", "is_reserved": 0, "lon": -77.04004316666666}, {"fusion_lat": 0.0, "name": "d86b3611029e8f26c49098c15b75209f", "is_disabled": 0, "rental_uris": {"android": "https://dc.lft.to/lastmile_qr_scan", "ios": "https://dc.lft.to/lastmile_qr_scan"}, "fusion_lon": 0.0, "lat": 38.9560535, "bike_id": "d86b3611029e8f26c49098c15b75209f", "type": "electric_scooter", "is_reserved": 0, "lon": -77.03354316666666}, {"fusion_lat": 0.0, "name": "73dec242f53be994287220fc84a51d49", "is_disabled": 0, "rental_uris": {"android": "https://dc.lft.to/lastmile_qr_scan", "ios": "https://dc.lft.to/lastmile_qr_scan"}, "fusion_lon": 0.0, "lat": 38.912656166666665, "bike_id": "73dec242f53be994287220fc84a51d49", "type": "electric_scooter", "is_reserved": 0, "lon": -77.02825883333334}, {"fusion_lat": 0.0, "name": "7c16028de07bce1164d2e1b106708fd2", "is_disabled": 0, "rental_uris": {"android": "https://dc.lft.to/lastmile_qr_scan", "ios": "https://dc.lft.to/lastmile_qr_scan"}, "fusion_lon": 0.0, "lat": 38.898221166666666, "bike_id": "7c16028de07bce1164d2e1b106708fd2", "type": "electric_scooter", "is_reserved": 0, "lon": -77.02976866666667}, {"fusion_lat": 0.0, "name": "7589b359e49fc17a82d00e53a13d641d", "is_disabled": 0, "rental_uris": {"android": "https://dc.lft.to/lastmile_qr_scan", "ios": "https://dc.lft.to/lastmile_qr_scan"}, "fusion_lon": 0.0, "lat": 38.937809, "bike_id": "7589b359e49fc17a82d00e53a13d641d", "type": "electric_scooter", "is_reserved": 0, "lon": -77.032636}, {"fusion_lat": 0.0, "name": "e7507cbd637a6c8ba9548ed6645ae278", "is_disabled": 0, "rental_uris": {"android": "https://dc.lft.to/lastmile_qr_scan", "ios": "https://dc.lft.to/lastmile_qr_scan"}, "fusion_lon": 0.0, "lat": 38.9119565, "bike_id": "e7507cbd637a6c8ba9548ed6645ae278", "type": "electric_scooter", "is_reserved": 0, "lon": -77.03756183333333}, {"fusion_lat": 0.0, "name": "1684fd53fbc7d8ba0de44e4fc886704c", "is_disabled": 0, "rental_uris": {"android": "https://dc.lft.to/lastmile_qr_scan", "ios": "https://dc.lft.to/lastmile_qr_scan"}, "fusion_lon": 0.0, "lat": 38.89215683333333, "bike_id": "1684fd53fbc7d8ba0de44e4fc886704c", "type": "electric_scooter", "is_reserved": 0, "lon": -76.9957435}, {"fusion_lat": 0.0, "name": "9ca60ad2d77c42a722b7af381aa0b482", "is_disabled": 0, "rental_uris": {"android": "https://dc.lft.to/lastmile_qr_scan", "ios": "https://dc.lft.to/lastmile_qr_scan"}, "fusion_lon": 0.0, "lat": 38.930947, "bike_id": "9ca60ad2d77c42a722b7af381aa0b482", "type": "electric_scooter", "is_reserved": 0, "lon": -77.023776}, {"fusion_lat": 0.0, "name": "d814485bc37b91f312764b0a3b66ca62", "is_disabled": 0, "rental_uris": {"android": "https://dc.lft.to/lastmile_qr_scan", "ios": "https://dc.lft.to/lastmile_qr_scan"}, "fusion_lon": 0.0, "lat": 38.93560083333333, "bike_id": "d814485bc37b91f312764b0a3b66ca62", "type": "electric_bike", "is_reserved": 0, "lon": -77.03706033333333}, {"fusion_lat": 0.0, "name": "400981ca8b3e6818b56d9beecbb36ca3", "is_disabled": 0, "rental_uris": {"android": "https://dc.lft.to/lastmile_qr_scan", "ios": "https://dc.lft.to/lastmile_qr_scan"}, "fusion_lon": 0.0, "lat": 38.90499583333333, "bike_id": "400981ca8b3e6818b56d9beecbb36ca3", "type": "electric_scooter", "is_reserved": 0, "lon": -77.04879166666667}, {"fusion_lat": 0.0, "name": "a9aeb05124c5198b32cdb36f46c26278", "is_disabled": 0, "rental_uris": {"android": "https://dc.lft.to/lastmile_qr_scan", "ios": "https://dc.lft.to/lastmile_qr_scan"}, "fusion_lon": 0.0, "lat": 38.904008833333336, "bike_id": "a9aeb05124c5198b32cdb36f46c26278", "type": "electric_scooter", "is_reserved": 0, "lon": -77.0384515}, {"fusion_lat": 0.0, "name": "1eb115a030ce63df2128deb1498e9b0a", "is_disabled": 0, "rental_uris": {"android": "https://dc.lft.to/lastmile_qr_scan", "ios": "https://dc.lft.to/lastmile_qr_scan"}, "fusion_lon": 0.0, "lat": 38.91104133333333, "bike_id": "1eb115a030ce63df2128deb1498e9b0a", "type": "electric_scooter", "is_reserved": 0, "lon": -77.00213833333333}, {"fusion_lat": 0.0, "name": "a02649f99739100c12dde2d87af96d60", "is_disabled": 0, "rental_uris": {"android": "https://dc.lft.to/lastmile_qr_scan", "ios": "https://dc.lft.to/lastmile_qr_scan"}, "fusion_lon": 0.0, "lat": 38.90773816666667, "bike_id": "a02649f99739100c12dde2d87af96d60", "type": "electric_scooter", "is_reserved": 0, "lon": -77.03513233333334}, {"fusion_lat": 0.0, "name": "c9136f764d8f31538955eff7e504f4ee", "is_disabled": 0, "rental_uris": {"android": "https://dc.lft.to/lastmile_qr_scan", "ios": "https://dc.lft.to/lastmile_qr_scan"}, "fusion_lon": 0.0, "lat": 38.900257, "bike_id": "c9136f764d8f31538955eff7e504f4ee", "type": "electric_scooter", "is_reserved": 0, "lon": -77.00208166666667}, {"fusion_lat": 0.0, "name": "c4a7940439c9028c6bc5349f64010f00", "is_disabled": 0, "rental_uris": {"android": "https://dc.lft.to/lastmile_qr_scan", "ios": "https://dc.lft.to/lastmile_qr_scan"}, "fusion_lon": 0.0, "lat": 38.9047175, "bike_id": "c4a7940439c9028c6bc5349f64010f00", "type": "electric_scooter", "is_reserved": 0, "lon": -77.0260795}, {"fusion_lat": 0.0, "name": "bdcd1237dc7deea75164e62096ec9ada", "is_disabled": 0, "rental_uris": {"android": "https://dc.lft.to/lastmile_qr_scan", "ios": "https://dc.lft.to/lastmile_qr_scan"}, "fusion_lon": 0.0, "lat": 38.889919666666664, "bike_id": "bdcd1237dc7deea75164e62096ec9ada", "type": "electric_bike", "is_reserved": 0, "lon": -77.07130866666667}, {"fusion_lat": 0.0, "name": "cd3928df78c1222bb92d3a8048c82744", "is_disabled": 0, "rental_uris": {"android": "https://dc.lft.to/lastmile_qr_scan", "ios": "https://dc.lft.to/lastmile_qr_scan"}, "fusion_lon": 0.0, "lat": 38.911053333333335, "bike_id": "cd3928df78c1222bb92d3a8048c82744", "type": "electric_bike", "is_reserved": 0, "lon": -77.00264366666667}, {"fusion_lat": 0.0, "name": "36eb0ea4dbc0e6a9e9ca8f0c0a012d7a", "is_disabled": 0, "rental_uris": {"android": "https://dc.lft.to/lastmile_qr_scan", "ios": "https://dc.lft.to/lastmile_qr_scan"}, "fusion_lon": 0.0, "lat": 38.9172395, "bike_id": "36eb0ea4dbc0e6a9e9ca8f0c0a012d7a", "type": "electric_scooter", "is_reserved": 0, "lon": -77.0270365}, {"fusion_lat": 0.0, "name": "ada5507f06c063bd2b96bbfef6a2a598", "is_disabled": 0, "rental_uris": {"android": "https://dc.lft.to/lastmile_qr_scan", "ios": "https://dc.lft.to/lastmile_qr_scan"}, "fusion_lon": 0.0, "lat": 38.90913716666667, "bike_id": "ada5507f06c063bd2b96bbfef6a2a598", "type": "electric_scooter", "is_reserved": 0, "lon": -77.04212883333334}, {"fusion_lat": 0.0, "name": "cf8f13080902fe6ed254022dc03a595a", "is_disabled": 0, "rental_uris": {"android": "https://dc.lft.to/lastmile_qr_scan", "ios": "https://dc.lft.to/lastmile_qr_scan"}, "fusion_lon": 0.0, "lat": 38.90674466666667, "bike_id": "cf8f13080902fe6ed254022dc03a595a", "type": "electric_bike", "is_reserved": 0, "lon": -77.03656183333334}, {"fusion_lat": 0.0, "name": "71e1189aeb44558a11cac09313f6fb85", "is_disabled": 0, "rental_uris": {"android": "https://dc.lft.to/lastmile_qr_scan", "ios": "https://dc.lft.to/lastmile_qr_scan"}, "fusion_lon": 0.0, "lat": 38.93830233333333, "bike_id": "71e1189aeb44558a11cac09313f6fb85", "type": "electric_scooter", "is_reserved": 0, "lon": -76.9919415}, {"fusion_lat": 0.0, "name": "12de4ae2318549765b877fb52b9d5e5f", "is_disabled": 0, "rental_uris": {"android": "https://dc.lft.to/lastmile_qr_scan", "ios": "https://dc.lft.to/lastmile_qr_scan"}, "fusion_lon": 0.0, "lat": 38.909246833333334, "bike_id": "12de4ae2318549765b877fb52b9d5e5f", "type": "electric_scooter", "is_reserved": 0, "lon": -76.99971733333334}, {"fusion_lat": 0.0, "name": "16f23bd8aa6c93a6b4d2cef614654354", "is_disabled": 0, "rental_uris": {"android": "https://dc.lft.to/lastmile_qr_scan", "ios": "https://dc.lft.to/lastmile_qr_scan"}, "fusion_lon": 0.0, "lat": 38.9593135, "bike_id": "16f23bd8aa6c93a6b4d2cef614654354", "type": "electric_bike", "is_reserved": 0, "lon": -76.92843983333333}, {"fusion_lat": 0.0, "name": "8cd55dbc33b613cb7de6e149566260c2", "is_disabled": 0, "rental_uris": {"android": "https://dc.lft.to/lastmile_qr_scan", "ios": "https://dc.lft.to/lastmile_qr_scan"}, "fusion_lon": 0.0, "lat": 38.88768783333333, "bike_id": "8cd55dbc33b613cb7de6e149566260c2", "type": "electric_scooter", "is_reserved": 0, "lon": -76.991621}, {"fusion_lat": 0.0, "name": "ebed7e329afc1c7010b45d9f4702d952", "is_disabled": 0, "rental_uris": {"android": "https://dc.lft.to/lastmile_qr_scan", "ios": "https://dc.lft.to/lastmile_qr_scan"}, "fusion_lon": 0.0, "lat": 38.92056766666666, "bike_id": "ebed7e329afc1c7010b45d9f4702d952", "type": "electric_scooter", "is_reserved": 0, "lon": -77.04379883333333}, {"fusion_lat": 0.0, "name": "99887883f1fcb558e3d0d43ec730bbc0", "is_disabled": 0, "rental_uris": {"android": "https://dc.lft.to/lastmile_qr_scan", "ios": "https://dc.lft.to/lastmile_qr_scan"}, "fusion_lon": 0.0, "lat": 38.918405166666666, "bike_id": "99887883f1fcb558e3d0d43ec730bbc0", "type": "electric_scooter", "is_reserved": 0, "lon": -77.0351785}, {"fusion_lat": 0.0, "name": "50c49753a67de2849af10ba3c9d27f41", "is_disabled": 0, "rental_uris": {"android": "https://dc.lft.to/lastmile_qr_scan", "ios": "https://dc.lft.to/lastmile_qr_scan"}, "fusion_lon": 0.0, "lat": 38.916965166666664, "bike_id": "50c49753a67de2849af10ba3c9d27f41", "type": "electric_scooter", "is_reserved": 0, "lon": -77.042715}, {"fusion_lat": 0.0, "name": "782964b9b2b5fe630408ff961b7f251f", "is_disabled": 0, "rental_uris": {"android": "https://dc.lft.to/lastmile_qr_scan", "ios": "https://dc.lft.to/lastmile_qr_scan"}, "fusion_lon": 0.0, "lat": 38.9253735, "bike_id": "782964b9b2b5fe630408ff961b7f251f", "type": "electric_scooter", "is_reserved": 0, "lon": -77.05255666666666}, {"fusion_lat": 0.0, "name": "2e43b67180bbb2b6d0e0af10034f79c5", "is_disabled": 0, "rental_uris": {"android": "https://dc.lft.to/lastmile_qr_scan", "ios": "https://dc.lft.to/lastmile_qr_scan"}, "fusion_lon": 0.0, "lat": 38.86004616666666, "bike_id": "2e43b67180bbb2b6d0e0af10034f79c5", "type": "electric_scooter", "is_reserved": 0, "lon": -76.98519633333333}, {"fusion_lat": 0.0, "name": "866bb329e34721c10a82e97e4762a53e", "is_disabled": 0, "rental_uris": {"android": "https://dc.lft.to/lastmile_qr_scan", "ios": "https://dc.lft.to/lastmile_qr_scan"}, "fusion_lon": 0.0, "lat": 38.9266965, "bike_id": "866bb329e34721c10a82e97e4762a53e", "type": "electric_scooter", "is_reserved": 0, "lon": -77.03025483333333}, {"fusion_lat": 0.0, "name": "85c9d5d5be8ca7b7d300dc8740b97851", "is_disabled": 0, "rental_uris": {"android": "https://dc.lft.to/lastmile_qr_scan", "ios": "https://dc.lft.to/lastmile_qr_scan"}, "fusion_lon": 0.0, "lat": 38.904515333333336, "bike_id": "85c9d5d5be8ca7b7d300dc8740b97851", "type": "electric_scooter", "is_reserved": 0, "lon": -77.02821483333334}, {"fusion_lat": 0.0, "name": "82eb2adf899270ec5ab1365e1e260344", "is_disabled": 0, "rental_uris": {"android": "https://dc.lft.to/lastmile_qr_scan", "ios": "https://dc.lft.to/lastmile_qr_scan"}, "fusion_lon": 0.0, "lat": 38.925997, "bike_id": "82eb2adf899270ec5ab1365e1e260344", "type": "electric_scooter", "is_reserved": 0, "lon": -77.02155133333333}, {"fusion_lat": 0.0, "name": "566cef76d69fc8edc03740bfea879e9d", "is_disabled": 0, "rental_uris": {"android": "https://dc.lft.to/lastmile_qr_scan", "ios": "https://dc.lft.to/lastmile_qr_scan"}, "fusion_lon": 0.0, "lat": 38.895724666666666, "bike_id": "566cef76d69fc8edc03740bfea879e9d", "type": "electric_scooter", "is_reserved": 0, "lon": -76.983254}, {"fusion_lat": 0.0, "name": "5b2680166bb837f7dba371032418e642", "is_disabled": 0, "rental_uris": {"android": "https://dc.lft.to/lastmile_qr_scan", "ios": "https://dc.lft.to/lastmile_qr_scan"}, "fusion_lon": 0.0, "lat": 38.909066833333334, "bike_id": "5b2680166bb837f7dba371032418e642", "type": "electric_scooter", "is_reserved": 0, "lon": -77.044246}, {"fusion_lat": 0.0, "name": "e06440a0dba71d1255050c8e0582ae36", "is_disabled": 0, "rental_uris": {"android": "https://dc.lft.to/lastmile_qr_scan", "ios": "https://dc.lft.to/lastmile_qr_scan"}, "fusion_lon": 0.0, "lat": 38.908077666666664, "bike_id": "e06440a0dba71d1255050c8e0582ae36", "type": "electric_scooter", "is_reserved": 0, "lon": -77.0427975}, {"fusion_lat": 0.0, "name": "154a458ba7edb57888e403d20cbc9d11", "is_disabled": 0, "rental_uris": {"android": "https://dc.lft.to/lastmile_qr_scan", "ios": "https://dc.lft.to/lastmile_qr_scan"}, "fusion_lon": 0.0, "lat": 38.943069, "bike_id": "154a458ba7edb57888e403d20cbc9d11", "type": "electric_scooter", "is_reserved": 0, "lon": -77.06139683333333}, {"fusion_lat": 0.0, "name": "32c3d528c3351bfecb76bb0dcba00875", "is_disabled": 0, "rental_uris": {"android": "https://dc.lft.to/lastmile_qr_scan", "ios": "https://dc.lft.to/lastmile_qr_scan"}, "fusion_lon": 0.0, "lat": 38.842869, "bike_id": "32c3d528c3351bfecb76bb0dcba00875", "type": "electric_bike", "is_reserved": 0, "lon": -77.044948}, {"fusion_lat": 0.0, "name": "1a2120e2cae10ee5f87c406fb86ff364", "is_disabled": 0, "rental_uris": {"android": "https://dc.lft.to/lastmile_qr_scan", "ios": "https://dc.lft.to/lastmile_qr_scan"}, "fusion_lon": 0.0, "lat": 38.92006333333333, "bike_id": "1a2120e2cae10ee5f87c406fb86ff364", "type": "electric_scooter", "is_reserved": 0, "lon": -77.032049}, {"fusion_lat": 0.0, "name": "eeb4b4da93780ad9877dda1d20cf742b", "is_disabled": 0, "rental_uris": {"android": "https://dc.lft.to/lastmile_qr_scan", "ios": "https://dc.lft.to/lastmile_qr_scan"}, "fusion_lon": 0.0, "lat": 38.927517333333334, "bike_id": "eeb4b4da93780ad9877dda1d20cf742b", "type": "electric_scooter", "is_reserved": 0, "lon": -77.02455233333333}, {"fusion_lat": 0.0, "name": "d0d0a46d285652ba204ff9bc48163f7e", "is_disabled": 0, "rental_uris": {"android": "https://dc.lft.to/lastmile_qr_scan", "ios": "https://dc.lft.to/lastmile_qr_scan"}, "fusion_lon": 0.0, "lat": 38.956075166666665, "bike_id": "d0d0a46d285652ba204ff9bc48163f7e", "type": "electric_scooter", "is_reserved": 0, "lon": -77.03354116666667}, {"fusion_lat": 0.0, "name": "f92bef785d3c11bb0ee9962dbddab3b5", "is_disabled": 0, "rental_uris": {"android": "https://dc.lft.to/lastmile_qr_scan", "ios": "https://dc.lft.to/lastmile_qr_scan"}, "fusion_lon": 0.0, "lat": 38.903314, "bike_id": "f92bef785d3c11bb0ee9962dbddab3b5", "type": "electric_bike", "is_reserved": 0, "lon": -76.9752865}, {"fusion_lat": 0.0, "name": "2511479460a5d8adf979640c3643b195", "is_disabled": 0, "rental_uris": {"android": "https://dc.lft.to/lastmile_qr_scan", "ios": "https://dc.lft.to/lastmile_qr_scan"}, "fusion_lon": 0.0, "lat": 38.91026133333333, "bike_id": "2511479460a5d8adf979640c3643b195", "type": "electric_scooter", "is_reserved": 0, "lon": -77.03310933333333}, {"fusion_lat": 0.0, "name": "7192c261b9fe9980adce1df6a8a12cb7", "is_disabled": 0, "rental_uris": {"android": "https://dc.lft.to/lastmile_qr_scan", "ios": "https://dc.lft.to/lastmile_qr_scan"}, "fusion_lon": 0.0, "lat": 38.91548683333333, "bike_id": "7192c261b9fe9980adce1df6a8a12cb7", "type": "electric_scooter", "is_reserved": 0, "lon": -77.02206783333334}, {"fusion_lat": 0.0, "name": "d4e1103a71e3dcc568c1f3a4176de4e1", "is_disabled": 0, "rental_uris": {"android": "https://dc.lft.to/lastmile_qr_scan", "ios": "https://dc.lft.to/lastmile_qr_scan"}, "fusion_lon": 0.0, "lat": 38.857919833333334, "bike_id": "d4e1103a71e3dcc568c1f3a4176de4e1", "type": "electric_bike", "is_reserved": 0, "lon": -77.05141966666666}, {"fusion_lat": 0.0, "name": "c020669a3e56ce61f06f5825bf6fb73a", "is_disabled": 0, "rental_uris": {"android": "https://dc.lft.to/lastmile_qr_scan", "ios": "https://dc.lft.to/lastmile_qr_scan"}, "fusion_lon": 0.0, "lat": 38.952254333333336, "bike_id": "c020669a3e56ce61f06f5825bf6fb73a", "type": "electric_scooter", "is_reserved": 0, "lon": -77.067992}, {"fusion_lat": 0.0, "name": "f0368da21262ca85a78cc20df55ffe6d", "is_disabled": 0, "rental_uris": {"android": "https://dc.lft.to/lastmile_qr_scan", "ios": "https://dc.lft.to/lastmile_qr_scan"}, "fusion_lon": 0.0, "lat": 38.9068115, "bike_id": "f0368da21262ca85a78cc20df55ffe6d", "type": "electric_scooter", "is_reserved": 0, "lon": -77.03589416666667}, {"fusion_lat": 0.0, "name": "72cef397c6ec404ef3f509f83f768a5f", "is_disabled": 0, "rental_uris": {"android": "https://dc.lft.to/lastmile_qr_scan", "ios": "https://dc.lft.to/lastmile_qr_scan"}, "fusion_lon": 0.0, "lat": 38.901428333333335, "bike_id": "72cef397c6ec404ef3f509f83f768a5f", "type": "electric_scooter", "is_reserved": 0, "lon": -76.98415983333334}, {"fusion_lat": 0.0, "name": "91489888c14341d1d1a1f40ac8414159", "is_disabled": 0, "rental_uris": {"android": "https://dc.lft.to/lastmile_qr_scan", "ios": "https://dc.lft.to/lastmile_qr_scan"}, "fusion_lon": 0.0, "lat": 38.91100266666667, "bike_id": "91489888c14341d1d1a1f40ac8414159", "type": "electric_scooter", "is_reserved": 0, "lon": -77.048384}, {"fusion_lat": 0.0, "name": "c2245ee6e7321b09fc51d110550ac02f", "is_disabled": 0, "rental_uris": {"android": "https://dc.lft.to/lastmile_qr_scan", "ios": "https://dc.lft.to/lastmile_qr_scan"}, "fusion_lon": 0.0, "lat": 38.89212366666667, "bike_id": "c2245ee6e7321b09fc51d110550ac02f", "type": "electric_scooter", "is_reserved": 0, "lon": -77.02632133333333}, {"fusion_lat": 0.0, "name": "a26c4e45481edbeeb627bad1ef8b6a00", "is_disabled": 0, "rental_uris": {"android": "https://dc.lft.to/lastmile_qr_scan", "ios": "https://dc.lft.to/lastmile_qr_scan"}, "fusion_lon": 0.0, "lat": 38.943387666666666, "bike_id": "a26c4e45481edbeeb627bad1ef8b6a00", "type": "electric_scooter", "is_reserved": 0, "lon": -77.032471}, {"fusion_lat": 0.0, "name": "036f50ce7d384ec19da88d8824c5b228", "is_disabled": 0, "rental_uris": {"android": "https://dc.lft.to/lastmile_qr_scan", "ios": "https://dc.lft.to/lastmile_qr_scan"}, "fusion_lon": 0.0, "lat": 38.900231, "bike_id": "036f50ce7d384ec19da88d8824c5b228", "type": "electric_scooter", "is_reserved": 0, "lon": -76.99349933333333}, {"fusion_lat": 0.0, "name": "ec04e0fd059c1c46a44ea004d0a08a94", "is_disabled": 0, "rental_uris": {"android": "https://dc.lft.to/lastmile_qr_scan", "ios": "https://dc.lft.to/lastmile_qr_scan"}, "fusion_lon": 0.0, "lat": 38.90567933333333, "bike_id": "ec04e0fd059c1c46a44ea004d0a08a94", "type": "electric_scooter", "is_reserved": 0, "lon": -77.024133}, {"fusion_lat": 0.0, "name": "528432cc87932a315edf696d23a2398f", "is_disabled": 0, "rental_uris": {"android": "https://dc.lft.to/lastmile_qr_scan", "ios": "https://dc.lft.to/lastmile_qr_scan"}, "fusion_lon": 0.0, "lat": 38.9181555, "bike_id": "528432cc87932a315edf696d23a2398f", "type": "electric_scooter", "is_reserved": 0, "lon": -77.026863}, {"fusion_lat": 0.0, "name": "5a77b8c5113ed6827fee454b16fae005", "is_disabled": 0, "rental_uris": {"android": "https://dc.lft.to/lastmile_qr_scan", "ios": "https://dc.lft.to/lastmile_qr_scan"}, "fusion_lon": 0.0, "lat": 38.9181965, "bike_id": "5a77b8c5113ed6827fee454b16fae005", "type": "electric_scooter", "is_reserved": 0, "lon": -77.0375095}, {"fusion_lat": 0.0, "name": "a6dd10b390184ecb2f232efda927446a", "is_disabled": 0, "rental_uris": {"android": "https://dc.lft.to/lastmile_qr_scan", "ios": "https://dc.lft.to/lastmile_qr_scan"}, "fusion_lon": 0.0, "lat": 38.915783166666664, "bike_id": "a6dd10b390184ecb2f232efda927446a", "type": "electric_scooter", "is_reserved": 0, "lon": -77.01231566666667}, {"fusion_lat": 0.0, "name": "c4379a10e3d34f8b1384193d3b56f526", "is_disabled": 0, "rental_uris": {"android": "https://dc.lft.to/lastmile_qr_scan", "ios": "https://dc.lft.to/lastmile_qr_scan"}, "fusion_lon": 0.0, "lat": 38.87739283333333, "bike_id": "c4379a10e3d34f8b1384193d3b56f526", "type": "electric_scooter", "is_reserved": 0, "lon": -77.00755}, {"fusion_lat": 0.0, "name": "6293ad55cb4ea9b4ce947d2ff3bf2666", "is_disabled": 0, "rental_uris": {"android": "https://dc.lft.to/lastmile_qr_scan", "ios": "https://dc.lft.to/lastmile_qr_scan"}, "fusion_lon": 0.0, "lat": 38.9174385, "bike_id": "6293ad55cb4ea9b4ce947d2ff3bf2666", "type": "electric_scooter", "is_reserved": 0, "lon": -77.02814633333334}, {"fusion_lat": 0.0, "name": "ec95c208a8c6733ac19b488ed2c2951b", "is_disabled": 0, "rental_uris": {"android": "https://dc.lft.to/lastmile_qr_scan", "ios": "https://dc.lft.to/lastmile_qr_scan"}, "fusion_lon": 0.0, "lat": 38.9231125, "bike_id": "ec95c208a8c6733ac19b488ed2c2951b", "type": "electric_scooter", "is_reserved": 0, "lon": -77.04029033333333}, {"fusion_lat": 0.0, "name": "45ce6baca6174b7c73b767eede3d5b70", "is_disabled": 0, "rental_uris": {"android": "https://dc.lft.to/lastmile_qr_scan", "ios": "https://dc.lft.to/lastmile_qr_scan"}, "fusion_lon": 0.0, "lat": 38.91993033333333, "bike_id": "45ce6baca6174b7c73b767eede3d5b70", "type": "electric_scooter", "is_reserved": 0, "lon": -77.03227783333334}, {"fusion_lat": 0.0, "name": "f84973087331e6a2126c9666e8b554fa", "is_disabled": 0, "rental_uris": {"android": "https://dc.lft.to/lastmile_qr_scan", "ios": "https://dc.lft.to/lastmile_qr_scan"}, "fusion_lon": 0.0, "lat": 38.925566, "bike_id": "f84973087331e6a2126c9666e8b554fa", "type": "electric_scooter", "is_reserved": 0, "lon": -77.0429575}, {"fusion_lat": 0.0, "name": "c09c3e05f94b8b42e8ce764519a79283", "is_disabled": 0, "rental_uris": {"android": "https://dc.lft.to/lastmile_qr_scan", "ios": "https://dc.lft.to/lastmile_qr_scan"}, "fusion_lon": 0.0, "lat": 38.90080316666667, "bike_id": "c09c3e05f94b8b42e8ce764519a79283", "type": "electric_scooter", "is_reserved": 0, "lon": -77.04911716666666}, {"fusion_lat": 0.0, "name": "36e9602effce712eddef2f340f6eb3b2", "is_disabled": 0, "rental_uris": {"android": "https://dc.lft.to/lastmile_qr_scan", "ios": "https://dc.lft.to/lastmile_qr_scan"}, "fusion_lon": 0.0, "lat": 38.9941775, "bike_id": "36e9602effce712eddef2f340f6eb3b2", "type": "electric_bike", "is_reserved": 0, "lon": -77.0311885}, {"fusion_lat": 0.0, "name": "4232fbdff5ee91f9fbc5978a79b37bb7", "is_disabled": 0, "rental_uris": {"android": "https://dc.lft.to/lastmile_qr_scan", "ios": "https://dc.lft.to/lastmile_qr_scan"}, "fusion_lon": 0.0, "lat": 38.90568316666667, "bike_id": "4232fbdff5ee91f9fbc5978a79b37bb7", "type": "electric_scooter", "is_reserved": 0, "lon": -77.0446205}, {"fusion_lat": 0.0, "name": "491614309ca111e3bfbb860f8283cdcc", "is_disabled": 0, "rental_uris": {"android": "https://dc.lft.to/lastmile_qr_scan", "ios": "https://dc.lft.to/lastmile_qr_scan"}, "fusion_lon": 0.0, "lat": 38.914025333333335, "bike_id": "491614309ca111e3bfbb860f8283cdcc", "type": "electric_scooter", "is_reserved": 0, "lon": -77.02211166666666}, {"fusion_lat": 0.0, "name": "f21e1bd7acd01a9e0aecf38cbc36d238", "is_disabled": 0, "rental_uris": {"android": "https://dc.lft.to/lastmile_qr_scan", "ios": "https://dc.lft.to/lastmile_qr_scan"}, "fusion_lon": 0.0, "lat": 38.87646383333333, "bike_id": "f21e1bd7acd01a9e0aecf38cbc36d238", "type": "electric_scooter", "is_reserved": 0, "lon": -77.001142}, {"fusion_lat": 0.0, "name": "fbabcc8d47086b4b131fffd781fd558d", "is_disabled": 0, "rental_uris": {"android": "https://dc.lft.to/lastmile_qr_scan", "ios": "https://dc.lft.to/lastmile_qr_scan"}, "fusion_lon": 0.0, "lat": 38.86662483333333, "bike_id": "fbabcc8d47086b4b131fffd781fd558d", "type": "electric_scooter", "is_reserved": 0, "lon": -76.9890915}, {"fusion_lat": 0.0, "name": "d92e86de22d01f0b30d9c0e994b7848d", "is_disabled": 0, "rental_uris": {"android": "https://dc.lft.to/lastmile_qr_scan", "ios": "https://dc.lft.to/lastmile_qr_scan"}, "fusion_lon": 0.0, "lat": 38.929903333333336, "bike_id": "d92e86de22d01f0b30d9c0e994b7848d", "type": "electric_scooter", "is_reserved": 0, "lon": -77.03233466666667}, {"fusion_lat": 0.0, "name": "d76ba3bab5c29c6a20372353eacf2a2e", "is_disabled": 0, "rental_uris": {"android": "https://dc.lft.to/lastmile_qr_scan", "ios": "https://dc.lft.to/lastmile_qr_scan"}, "fusion_lon": 0.0, "lat": 38.90302583333333, "bike_id": "d76ba3bab5c29c6a20372353eacf2a2e", "type": "electric_scooter", "is_reserved": 0, "lon": -77.04955183333334}, {"fusion_lat": 0.0, "name": "a74527c2d8119b1bff84febf0880b588", "is_disabled": 0, "rental_uris": {"android": "https://dc.lft.to/lastmile_qr_scan", "ios": "https://dc.lft.to/lastmile_qr_scan"}, "fusion_lon": 0.0, "lat": 38.86207133333333, "bike_id": "a74527c2d8119b1bff84febf0880b588", "type": "electric_bike", "is_reserved": 0, "lon": -77.0596635}, {"fusion_lat": 0.0, "name": "3f1aa37d6a67ece339a41bf8c08e5339", "is_disabled": 0, "rental_uris": {"android": "https://dc.lft.to/lastmile_qr_scan", "ios": "https://dc.lft.to/lastmile_qr_scan"}, "fusion_lon": 0.0, "lat": 38.89795783333334, "bike_id": "3f1aa37d6a67ece339a41bf8c08e5339", "type": "electric_scooter", "is_reserved": 0, "lon": -76.98458766666667}, {"fusion_lat": 0.0, "name": "eda9128b517940abbbeeee268d5595b4", "is_disabled": 0, "rental_uris": {"android": "https://dc.lft.to/lastmile_qr_scan", "ios": "https://dc.lft.to/lastmile_qr_scan"}, "fusion_lon": 0.0, "lat": 38.91691016666667, "bike_id": "eda9128b517940abbbeeee268d5595b4", "type": "electric_scooter", "is_reserved": 0, "lon": -77.038578}, {"fusion_lat": 0.0, "name": "905d6cf744bbd1a4b981fcaa31b018ee", "is_disabled": 0, "rental_uris": {"android": "https://dc.lft.to/lastmile_qr_scan", "ios": "https://dc.lft.to/lastmile_qr_scan"}, "fusion_lon": 0.0, "lat": 38.921457833333335, "bike_id": "905d6cf744bbd1a4b981fcaa31b018ee", "type": "electric_scooter", "is_reserved": 0, "lon": -77.038661}, {"fusion_lat": 0.0, "name": "ee51c044d8d2bab888aa9471873c91fd", "is_disabled": 0, "rental_uris": {"android": "https://dc.lft.to/lastmile_qr_scan", "ios": "https://dc.lft.to/lastmile_qr_scan"}, "fusion_lon": 0.0, "lat": 38.85882866666667, "bike_id": "ee51c044d8d2bab888aa9471873c91fd", "type": "electric_bike", "is_reserved": 0, "lon": -77.095604}, {"fusion_lat": 0.0, "name": "3d030553ed112e93fd828da1ea30bd30", "is_disabled": 0, "rental_uris": {"android": "https://dc.lft.to/lastmile_qr_scan", "ios": "https://dc.lft.to/lastmile_qr_scan"}, "fusion_lon": 0.0, "lat": 38.900105, "bike_id": "3d030553ed112e93fd828da1ea30bd30", "type": "electric_scooter", "is_reserved": 0, "lon": -76.98808533333333}, {"fusion_lat": 0.0, "name": "54f5851092a295394d93c6d65d36a58a", "is_disabled": 0, "rental_uris": {"android": "https://dc.lft.to/lastmile_qr_scan", "ios": "https://dc.lft.to/lastmile_qr_scan"}, "fusion_lon": 0.0, "lat": 38.91799183333333, "bike_id": "54f5851092a295394d93c6d65d36a58a", "type": "electric_scooter", "is_reserved": 0, "lon": -77.03448233333333}, {"fusion_lat": 0.0, "name": "bfb1c1708a5625ead8cf1f169e33b141", "is_disabled": 0, "rental_uris": {"android": "https://dc.lft.to/lastmile_qr_scan", "ios": "https://dc.lft.to/lastmile_qr_scan"}, "fusion_lon": 0.0, "lat": 38.8979475, "bike_id": "bfb1c1708a5625ead8cf1f169e33b141", "type": "electric_scooter", "is_reserved": 0, "lon": -77.0305025}, {"fusion_lat": 0.0, "name": "d2633f7266bd64fa9dd68e2650798ef1", "is_disabled": 0, "rental_uris": {"android": "https://dc.lft.to/lastmile_qr_scan", "ios": "https://dc.lft.to/lastmile_qr_scan"}, "fusion_lon": 0.0, "lat": 38.90224966666667, "bike_id": "d2633f7266bd64fa9dd68e2650798ef1", "type": "electric_scooter", "is_reserved": 0, "lon": -77.05316016666667}, {"fusion_lat": 0.0, "name": "69f4d52c940884a686e74f8011c900c3", "is_disabled": 0, "rental_uris": {"android": "https://dc.lft.to/lastmile_qr_scan", "ios": "https://dc.lft.to/lastmile_qr_scan"}, "fusion_lon": 0.0, "lat": 38.892822, "bike_id": "69f4d52c940884a686e74f8011c900c3", "type": "electric_scooter", "is_reserved": 0, "lon": -77.01237583333334}, {"fusion_lat": 0.0, "name": "be84a4684c9c9ebed86294a18511e69b", "is_disabled": 0, "rental_uris": {"android": "https://dc.lft.to/lastmile_qr_scan", "ios": "https://dc.lft.to/lastmile_qr_scan"}, "fusion_lon": 0.0, "lat": 38.928609333333334, "bike_id": "be84a4684c9c9ebed86294a18511e69b", "type": "electric_scooter", "is_reserved": 0, "lon": -77.03220933333333}, {"fusion_lat": 0.0, "name": "e2a13d0e62219978655183a678f9fb16", "is_disabled": 0, "rental_uris": {"android": "https://dc.lft.to/lastmile_qr_scan", "ios": "https://dc.lft.to/lastmile_qr_scan"}, "fusion_lon": 0.0, "lat": 38.91773416666667, "bike_id": "e2a13d0e62219978655183a678f9fb16", "type": "electric_scooter", "is_reserved": 0, "lon": -77.03224966666667}, {"fusion_lat": 0.0, "name": "4adbd156b9b7d9257bf0973cb7c79fab", "is_disabled": 0, "rental_uris": {"android": "https://dc.lft.to/lastmile_qr_scan", "ios": "https://dc.lft.to/lastmile_qr_scan"}, "fusion_lon": 0.0, "lat": 38.90404983333333, "bike_id": "4adbd156b9b7d9257bf0973cb7c79fab", "type": "electric_scooter", "is_reserved": 0, "lon": -77.02585566666667}, {"fusion_lat": 0.0, "name": "6f24b0f20973308de24b435b48471865", "is_disabled": 0, "rental_uris": {"android": "https://dc.lft.to/lastmile_qr_scan", "ios": "https://dc.lft.to/lastmile_qr_scan"}, "fusion_lon": 0.0, "lat": 38.87163916666667, "bike_id": "6f24b0f20973308de24b435b48471865", "type": "electric_scooter", "is_reserved": 0, "lon": -77.005694}, {"fusion_lat": 0.0, "name": "9c929ca12304a5e77f27bc41d6258910", "is_disabled": 0, "rental_uris": {"android": "https://dc.lft.to/lastmile_qr_scan", "ios": "https://dc.lft.to/lastmile_qr_scan"}, "fusion_lon": 0.0, "lat": 38.8927765, "bike_id": "9c929ca12304a5e77f27bc41d6258910", "type": "electric_scooter", "is_reserved": 0, "lon": -77.03176}, {"fusion_lat": 0.0, "name": "d0b5c3d6fe8cc57df56114229f6d5d9c", "is_disabled": 0, "rental_uris": {"android": "https://dc.lft.to/lastmile_qr_scan", "ios": "https://dc.lft.to/lastmile_qr_scan"}, "fusion_lon": 0.0, "lat": 38.877652833333336, "bike_id": "d0b5c3d6fe8cc57df56114229f6d5d9c", "type": "electric_scooter", "is_reserved": 0, "lon": -77.00346833333333}, {"fusion_lat": 0.0, "name": "f3ee5716ea6497458b6d53799995b15a", "is_disabled": 0, "rental_uris": {"android": "https://dc.lft.to/lastmile_qr_scan", "ios": "https://dc.lft.to/lastmile_qr_scan"}, "fusion_lon": 0.0, "lat": 38.881848166666664, "bike_id": "f3ee5716ea6497458b6d53799995b15a", "type": "electric_scooter", "is_reserved": 0, "lon": -76.99030233333333}, {"fusion_lat": 0.0, "name": "b6241ac64ebf7eb772afff25360128a3", "is_disabled": 0, "rental_uris": {"android": "https://dc.lft.to/lastmile_qr_scan", "ios": "https://dc.lft.to/lastmile_qr_scan"}, "fusion_lon": 0.0, "lat": 38.9055055, "bike_id": "b6241ac64ebf7eb772afff25360128a3", "type": "electric_scooter", "is_reserved": 0, "lon": -77.00605716666666}, {"fusion_lat": 0.0, "name": "96cf0f099e9f08ad7ae3caffb9a186f9", "is_disabled": 0, "rental_uris": {"android": "https://dc.lft.to/lastmile_qr_scan", "ios": "https://dc.lft.to/lastmile_qr_scan"}, "fusion_lon": 0.0, "lat": 38.85605916666667, "bike_id": "96cf0f099e9f08ad7ae3caffb9a186f9", "type": "electric_bike", "is_reserved": 0, "lon": -77.10792766666667}, {"fusion_lat": 0.0, "name": "99dd41adbb26e6f91aba06a865aa0db9", "is_disabled": 0, "rental_uris": {"android": "https://dc.lft.to/lastmile_qr_scan", "ios": "https://dc.lft.to/lastmile_qr_scan"}, "fusion_lon": 0.0, "lat": 38.912112, "bike_id": "99dd41adbb26e6f91aba06a865aa0db9", "type": "electric_scooter", "is_reserved": 0, "lon": -77.01985933333333}, {"fusion_lat": 0.0, "name": "0708b43e0ad72028d3f1d3db400372c0", "is_disabled": 0, "rental_uris": {"android": "https://dc.lft.to/lastmile_qr_scan", "ios": "https://dc.lft.to/lastmile_qr_scan"}, "fusion_lon": 0.0, "lat": 38.895918333333334, "bike_id": "0708b43e0ad72028d3f1d3db400372c0", "type": "electric_scooter", "is_reserved": 0, "lon": -77.0216355}, {"fusion_lat": 0.0, "name": "9166589fecb07f701ccc0aa2b7ccce5f", "is_disabled": 0, "rental_uris": {"android": "https://dc.lft.to/lastmile_qr_scan", "ios": "https://dc.lft.to/lastmile_qr_scan"}, "fusion_lon": 0.0, "lat": 38.899209666666664, "bike_id": "9166589fecb07f701ccc0aa2b7ccce5f", "type": "electric_scooter", "is_reserved": 0, "lon": -77.05125}, {"fusion_lat": 0.0, "name": "67a5cb70d9288569fe9aff1d91910ad6", "is_disabled": 0, "rental_uris": {"android": "https://dc.lft.to/lastmile_qr_scan", "ios": "https://dc.lft.to/lastmile_qr_scan"}, "fusion_lon": 0.0, "lat": 38.9055765, "bike_id": "67a5cb70d9288569fe9aff1d91910ad6", "type": "electric_scooter", "is_reserved": 0, "lon": -77.04648633333333}, {"fusion_lat": 0.0, "name": "53eb96ca238f0e7b7aa16fdda321c84f", "is_disabled": 0, "rental_uris": {"android": "https://dc.lft.to/lastmile_qr_scan", "ios": "https://dc.lft.to/lastmile_qr_scan"}, "fusion_lon": 0.0, "lat": 38.914684333333334, "bike_id": "53eb96ca238f0e7b7aa16fdda321c84f", "type": "electric_scooter", "is_reserved": 0, "lon": -77.01556083333334}, {"fusion_lat": 0.0, "name": "0706b084259b2e7d9805e0fc82ad966b", "is_disabled": 0, "rental_uris": {"android": "https://dc.lft.to/lastmile_qr_scan", "ios": "https://dc.lft.to/lastmile_qr_scan"}, "fusion_lon": 0.0, "lat": 38.9002235, "bike_id": "0706b084259b2e7d9805e0fc82ad966b", "type": "electric_scooter", "is_reserved": 0, "lon": -77.02963316666667}, {"fusion_lat": 0.0, "name": "3bca0ceecaa4cf22431adc8def55eb54", "is_disabled": 0, "rental_uris": {"android": "https://dc.lft.to/lastmile_qr_scan", "ios": "https://dc.lft.to/lastmile_qr_scan"}, "fusion_lon": 0.0, "lat": 38.9122885, "bike_id": "3bca0ceecaa4cf22431adc8def55eb54", "type": "electric_scooter", "is_reserved": 0, "lon": -77.04782333333333}, {"fusion_lat": 0.0, "name": "4d36af9e38d380c600d537e23c1d0c1a", "is_disabled": 0, "rental_uris": {"android": "https://dc.lft.to/lastmile_qr_scan", "ios": "https://dc.lft.to/lastmile_qr_scan"}, "fusion_lon": 0.0, "lat": 38.924149, "bike_id": "4d36af9e38d380c600d537e23c1d0c1a", "type": "electric_scooter", "is_reserved": 0, "lon": -77.05750766666667}, {"fusion_lat": 0.0, "name": "b23930738779e6b34565e9b8bc739e6e", "is_disabled": 0, "rental_uris": {"android": "https://dc.lft.to/lastmile_qr_scan", "ios": "https://dc.lft.to/lastmile_qr_scan"}, "fusion_lon": 0.0, "lat": 38.9002835, "bike_id": "b23930738779e6b34565e9b8bc739e6e", "type": "electric_scooter", "is_reserved": 0, "lon": -77.01184716666667}, {"fusion_lat": 0.0, "name": "e59a4c71f46403d40c46ab1b251468f4", "is_disabled": 0, "rental_uris": {"android": "https://dc.lft.to/lastmile_qr_scan", "ios": "https://dc.lft.to/lastmile_qr_scan"}, "fusion_lon": 0.0, "lat": 38.8982775, "bike_id": "e59a4c71f46403d40c46ab1b251468f4", "type": "electric_scooter", "is_reserved": 0, "lon": -77.03040133333333}, {"fusion_lat": 0.0, "name": "03c7a3d7aa5a4a6a88257f1c8e066402", "is_disabled": 0, "rental_uris": {"android": "https://dc.lft.to/lastmile_qr_scan", "ios": "https://dc.lft.to/lastmile_qr_scan"}, "fusion_lon": 0.0, "lat": 38.917256333333334, "bike_id": "03c7a3d7aa5a4a6a88257f1c8e066402", "type": "electric_scooter", "is_reserved": 0, "lon": -77.02711333333333}, {"fusion_lat": 0.0, "name": "2a3cfe5168d75469b02cd94af3b5c693", "is_disabled": 0, "rental_uris": {"android": "https://dc.lft.to/lastmile_qr_scan", "ios": "https://dc.lft.to/lastmile_qr_scan"}, "fusion_lon": 0.0, "lat": 38.88603033333333, "bike_id": "2a3cfe5168d75469b02cd94af3b5c693", "type": "electric_scooter", "is_reserved": 0, "lon": -76.99540166666667}, {"fusion_lat": 0.0, "name": "760b91f3e248f37fe29ed5d7328f4701", "is_disabled": 0, "rental_uris": {"android": "https://dc.lft.to/lastmile_qr_scan", "ios": "https://dc.lft.to/lastmile_qr_scan"}, "fusion_lon": 0.0, "lat": 38.926802, "bike_id": "760b91f3e248f37fe29ed5d7328f4701", "type": "electric_scooter", "is_reserved": 0, "lon": -77.02890083333334}, {"fusion_lat": 0.0, "name": "54e4d3dd4ac930a9c66c470a7758dc2a", "is_disabled": 0, "rental_uris": {"android": "https://dc.lft.to/lastmile_qr_scan", "ios": "https://dc.lft.to/lastmile_qr_scan"}, "fusion_lon": 0.0, "lat": 38.883682, "bike_id": "54e4d3dd4ac930a9c66c470a7758dc2a", "type": "electric_scooter", "is_reserved": 0, "lon": -76.995187}, {"fusion_lat": 0.0, "name": "54bb22632b7539bcbe774c40ca2f091d", "is_disabled": 0, "rental_uris": {"android": "https://dc.lft.to/lastmile_qr_scan", "ios": "https://dc.lft.to/lastmile_qr_scan"}, "fusion_lon": 0.0, "lat": 38.9370765, "bike_id": "54bb22632b7539bcbe774c40ca2f091d", "type": "electric_scooter", "is_reserved": 0, "lon": -77.02383116666667}, {"fusion_lat": 0.0, "name": "c92db4e7593e43215d2658a4b328878a", "is_disabled": 0, "rental_uris": {"android": "https://dc.lft.to/lastmile_qr_scan", "ios": "https://dc.lft.to/lastmile_qr_scan"}, "fusion_lon": 0.0, "lat": 38.9657465, "bike_id": "c92db4e7593e43215d2658a4b328878a", "type": "electric_scooter", "is_reserved": 0, "lon": -77.0026625}, {"fusion_lat": 0.0, "name": "7f9b668215760797bc61192d90b14cc0", "is_disabled": 0, "rental_uris": {"android": "https://dc.lft.to/lastmile_qr_scan", "ios": "https://dc.lft.to/lastmile_qr_scan"}, "fusion_lon": 0.0, "lat": 38.92424966666667, "bike_id": "7f9b668215760797bc61192d90b14cc0", "type": "electric_scooter", "is_reserved": 0, "lon": -77.0447305}, {"fusion_lat": 0.0, "name": "e2354e564dbbc5805eeb390f0edc29c9", "is_disabled": 0, "rental_uris": {"android": "https://dc.lft.to/lastmile_qr_scan", "ios": "https://dc.lft.to/lastmile_qr_scan"}, "fusion_lon": 0.0, "lat": 38.86729866666667, "bike_id": "e2354e564dbbc5805eeb390f0edc29c9", "type": "electric_scooter", "is_reserved": 0, "lon": -76.98792283333333}, {"fusion_lat": 0.0, "name": "2fbf54b591c1bd445be4d510bb15efb8", "is_disabled": 0, "rental_uris": {"android": "https://dc.lft.to/lastmile_qr_scan", "ios": "https://dc.lft.to/lastmile_qr_scan"}, "fusion_lon": 0.0, "lat": 38.89716383333333, "bike_id": "2fbf54b591c1bd445be4d510bb15efb8", "type": "electric_scooter", "is_reserved": 0, "lon": -77.01307883333334}, {"fusion_lat": 0.0, "name": "714860e6a02bcdb960b3b76b1fd9e8cb", "is_disabled": 0, "rental_uris": {"android": "https://dc.lft.to/lastmile_qr_scan", "ios": "https://dc.lft.to/lastmile_qr_scan"}, "fusion_lon": 0.0, "lat": 38.89234233333333, "bike_id": "714860e6a02bcdb960b3b76b1fd9e8cb", "type": "electric_scooter", "is_reserved": 0, "lon": -77.0238225}, {"fusion_lat": 0.0, "name": "4c726bcfd4af6c26d60fa48b45418dde", "is_disabled": 0, "rental_uris": {"android": "https://dc.lft.to/lastmile_qr_scan", "ios": "https://dc.lft.to/lastmile_qr_scan"}, "fusion_lon": 0.0, "lat": 38.87376, "bike_id": "4c726bcfd4af6c26d60fa48b45418dde", "type": "electric_scooter", "is_reserved": 0, "lon": -77.0012985}, {"fusion_lat": 0.0, "name": "1f813d87ecfa7db0217bf03bb83ce46d", "is_disabled": 0, "rental_uris": {"android": "https://dc.lft.to/lastmile_qr_scan", "ios": "https://dc.lft.to/lastmile_qr_scan"}, "fusion_lon": 0.0, "lat": 38.90209883333333, "bike_id": "1f813d87ecfa7db0217bf03bb83ce46d", "type": "electric_scooter", "is_reserved": 0, "lon": -77.02758133333333}, {"fusion_lat": 0.0, "name": "1fd05e0219ea5174e80edca592718653", "is_disabled": 0, "rental_uris": {"android": "https://dc.lft.to/lastmile_qr_scan", "ios": "https://dc.lft.to/lastmile_qr_scan"}, "fusion_lon": 0.0, "lat": 38.920298, "bike_id": "1fd05e0219ea5174e80edca592718653", "type": "electric_scooter", "is_reserved": 0, "lon": -77.01027683333334}, {"fusion_lat": 0.0, "name": "2d9c1bbd5bac64a65157e4193f3d34bc", "is_disabled": 0, "rental_uris": {"android": "https://dc.lft.to/lastmile_qr_scan", "ios": "https://dc.lft.to/lastmile_qr_scan"}, "fusion_lon": 0.0, "lat": 38.911870666666665, "bike_id": "2d9c1bbd5bac64a65157e4193f3d34bc", "type": "electric_scooter", "is_reserved": 0, "lon": -77.03048033333333}, {"fusion_lat": 0.0, "name": "eb9ef6c9145e471b8b77fe0ed774872d", "is_disabled": 0, "rental_uris": {"android": "https://dc.lft.to/lastmile_qr_scan", "ios": "https://dc.lft.to/lastmile_qr_scan"}, "fusion_lon": 0.0, "lat": 38.96184383333333, "bike_id": "eb9ef6c9145e471b8b77fe0ed774872d", "type": "electric_bike", "is_reserved": 0, "lon": -77.05266983333334}, {"fusion_lat": 0.0, "name": "ebed6a640877da04c956ff46bc0ecf59", "is_disabled": 0, "rental_uris": {"android": "https://dc.lft.to/lastmile_qr_scan", "ios": "https://dc.lft.to/lastmile_qr_scan"}, "fusion_lon": 0.0, "lat": 38.90156533333333, "bike_id": "ebed6a640877da04c956ff46bc0ecf59", "type": "electric_scooter", "is_reserved": 0, "lon": -77.02483366666667}, {"fusion_lat": 0.0, "name": "a5dbb7140c4df900f2e0930a3d395c61", "is_disabled": 0, "rental_uris": {"android": "https://dc.lft.to/lastmile_qr_scan", "ios": "https://dc.lft.to/lastmile_qr_scan"}, "fusion_lon": 0.0, "lat": 38.906989333333335, "bike_id": "a5dbb7140c4df900f2e0930a3d395c61", "type": "electric_scooter", "is_reserved": 0, "lon": -76.98855383333333}, {"fusion_lat": 0.0, "name": "5d59e0ad64002875574e822eff2713ab", "is_disabled": 0, "rental_uris": {"android": "https://dc.lft.to/lastmile_qr_scan", "ios": "https://dc.lft.to/lastmile_qr_scan"}, "fusion_lon": 0.0, "lat": 38.92457433333333, "bike_id": "5d59e0ad64002875574e822eff2713ab", "type": "electric_scooter", "is_reserved": 0, "lon": -76.971049}, {"fusion_lat": 0.0, "name": "ab5efb342a8e60e3b0e95a55a7b6d8ca", "is_disabled": 0, "rental_uris": {"android": "https://dc.lft.to/lastmile_qr_scan", "ios": "https://dc.lft.to/lastmile_qr_scan"}, "fusion_lon": 0.0, "lat": 38.932263166666665, "bike_id": "ab5efb342a8e60e3b0e95a55a7b6d8ca", "type": "electric_scooter", "is_reserved": 0, "lon": -76.99491466666667}, {"fusion_lat": 0.0, "name": "16993808a510730e14f52814c12b2247", "is_disabled": 0, "rental_uris": {"android": "https://dc.lft.to/lastmile_qr_scan", "ios": "https://dc.lft.to/lastmile_qr_scan"}, "fusion_lon": 0.0, "lat": 38.923626666666664, "bike_id": "16993808a510730e14f52814c12b2247", "type": "electric_scooter", "is_reserved": 0, "lon": -77.05192333333333}, {"fusion_lat": 0.0, "name": "53452f43b9fd11a355f612b088e9f045", "is_disabled": 0, "rental_uris": {"android": "https://dc.lft.to/lastmile_qr_scan", "ios": "https://dc.lft.to/lastmile_qr_scan"}, "fusion_lon": 0.0, "lat": 38.9002625, "bike_id": "53452f43b9fd11a355f612b088e9f045", "type": "electric_scooter", "is_reserved": 0, "lon": -77.01203966666667}, {"fusion_lat": 0.0, "name": "3317575e155f365a89279339ea50e6e2", "is_disabled": 0, "rental_uris": {"android": "https://dc.lft.to/lastmile_qr_scan", "ios": "https://dc.lft.to/lastmile_qr_scan"}, "fusion_lon": 0.0, "lat": 38.924683333333334, "bike_id": "3317575e155f365a89279339ea50e6e2", "type": "electric_scooter", "is_reserved": 0, "lon": -77.03092183333334}, {"fusion_lat": 0.0, "name": "bec6c612713759806df7b419d658f505", "is_disabled": 0, "rental_uris": {"android": "https://dc.lft.to/lastmile_qr_scan", "ios": "https://dc.lft.to/lastmile_qr_scan"}, "fusion_lon": 0.0, "lat": 38.914952666666665, "bike_id": "bec6c612713759806df7b419d658f505", "type": "electric_scooter", "is_reserved": 0, "lon": -77.0122425}, {"fusion_lat": 0.0, "name": "4cd786c03726fe7612e4807d84a4b032", "is_disabled": 0, "rental_uris": {"android": "https://dc.lft.to/lastmile_qr_scan", "ios": "https://dc.lft.to/lastmile_qr_scan"}, "fusion_lon": 0.0, "lat": 38.91810816666667, "bike_id": "4cd786c03726fe7612e4807d84a4b032", "type": "electric_scooter", "is_reserved": 0, "lon": -77.040318}, {"fusion_lat": 0.0, "name": "4be7cba72da2441a6b322f611fb14583", "is_disabled": 0, "rental_uris": {"android": "https://dc.lft.to/lastmile_qr_scan", "ios": "https://dc.lft.to/lastmile_qr_scan"}, "fusion_lon": 0.0, "lat": 38.96119633333333, "bike_id": "4be7cba72da2441a6b322f611fb14583", "type": "electric_scooter", "is_reserved": 0, "lon": -77.02797783333334}, {"fusion_lat": 0.0, "name": "5b50cb412bdde22c4378921142d3a638", "is_disabled": 0, "rental_uris": {"android": "https://dc.lft.to/lastmile_qr_scan", "ios": "https://dc.lft.to/lastmile_qr_scan"}, "fusion_lon": 0.0, "lat": 38.901515833333335, "bike_id": "5b50cb412bdde22c4378921142d3a638", "type": "electric_scooter", "is_reserved": 0, "lon": -77.04175616666667}, {"fusion_lat": 0.0, "name": "e999ee15000e6eebed8ff844b30eb361", "is_disabled": 0, "rental_uris": {"android": "https://dc.lft.to/lastmile_qr_scan", "ios": "https://dc.lft.to/lastmile_qr_scan"}, "fusion_lon": 0.0, "lat": 38.90730666666666, "bike_id": "e999ee15000e6eebed8ff844b30eb361", "type": "electric_scooter", "is_reserved": 0, "lon": -77.01091416666667}, {"fusion_lat": 0.0, "name": "6e153d41ad6f298efa9c510c15087616", "is_disabled": 0, "rental_uris": {"android": "https://dc.lft.to/lastmile_qr_scan", "ios": "https://dc.lft.to/lastmile_qr_scan"}, "fusion_lon": 0.0, "lat": 38.93446133333333, "bike_id": "6e153d41ad6f298efa9c510c15087616", "type": "electric_scooter", "is_reserved": 0, "lon": -77.05772716666667}, {"fusion_lat": 0.0, "name": "b48911fec999d57911f127ddc084fe88", "is_disabled": 0, "rental_uris": {"android": "https://dc.lft.to/lastmile_qr_scan", "ios": "https://dc.lft.to/lastmile_qr_scan"}, "fusion_lon": 0.0, "lat": 38.91671816666667, "bike_id": "b48911fec999d57911f127ddc084fe88", "type": "electric_scooter", "is_reserved": 0, "lon": -77.028969}, {"fusion_lat": 0.0, "name": "f1b2607b97ce1f9f30ee8c954cf8f1ae", "is_disabled": 0, "rental_uris": {"android": "https://dc.lft.to/lastmile_qr_scan", "ios": "https://dc.lft.to/lastmile_qr_scan"}, "fusion_lon": 0.0, "lat": 38.9210895, "bike_id": "f1b2607b97ce1f9f30ee8c954cf8f1ae", "type": "electric_scooter", "is_reserved": 0, "lon": -77.01772133333333}, {"fusion_lat": 0.0, "name": "810eed799bf943b70260f948b1fd31f1", "is_disabled": 0, "rental_uris": {"android": "https://dc.lft.to/lastmile_qr_scan", "ios": "https://dc.lft.to/lastmile_qr_scan"}, "fusion_lon": 0.0, "lat": 38.92481983333333, "bike_id": "810eed799bf943b70260f948b1fd31f1", "type": "electric_scooter", "is_reserved": 0, "lon": -77.05215866666667}, {"fusion_lat": 0.0, "name": "a487d7b9b1b66ba95af9d7503b4131f3", "is_disabled": 0, "rental_uris": {"android": "https://dc.lft.to/lastmile_qr_scan", "ios": "https://dc.lft.to/lastmile_qr_scan"}, "fusion_lon": 0.0, "lat": 38.8521095, "bike_id": "a487d7b9b1b66ba95af9d7503b4131f3", "type": "electric_bike", "is_reserved": 0, "lon": -76.96287883333333}, {"fusion_lat": 0.0, "name": "d56133386ab0e02740ff65955b6561fb", "is_disabled": 0, "rental_uris": {"android": "https://dc.lft.to/lastmile_qr_scan", "ios": "https://dc.lft.to/lastmile_qr_scan"}, "fusion_lon": 0.0, "lat": 38.886795166666666, "bike_id": "d56133386ab0e02740ff65955b6561fb", "type": "electric_scooter", "is_reserved": 0, "lon": -77.00197383333334}, {"fusion_lat": 0.0, "name": "15eac5acfdf96707d2b89b18af5fdf25", "is_disabled": 0, "rental_uris": {"android": "https://dc.lft.to/lastmile_qr_scan", "ios": "https://dc.lft.to/lastmile_qr_scan"},