{"data": {"bikes": [{"fusion_lat": 0.0, "name": "6c351e51a2a1b3249c52ce6f9466d6c3", "is_disabled": 0, "rental_uris": {"android": "https://dc.lft.to/lastmile_qr_scan", "ios": "https://dc.lft.to/lastmile_qr_scan"}, "fusion_lon": 0.0, "lat": 38.898758666666666, "bike_id": "6c351e51a2a1b3249c52ce6f9466d6c3", "type": "electric_scooter", "is_reserved": 0, "lon": -77.04876516666667}, {"fusion_lat": 0.0, "name": "bbb095afa698aa52950b117c4b70f4e7", "is_disabled": 0, "rental_uris": {"android": "https://dc.lft.to/lastmile_qr_scan", "ios": "https://dc.lft.to/lastmile_qr_scan"}, "fusion_lon": 0.0, "lat": 38.92227583333333, "bike_id": "bbb095afa698aa52950b117c4b70f4e7", "type": "electric_scooter", "is_reserved": 0, "lon": -77.03425916666667}, {"fusion_lat": 0.0, "name": "2bf4c16700e4dc02098ae2b5243e5f9f", "is_disabled": 0, "rental_uris": {"android": "https://dc.lft.to/lastmile_qr_scan", "ios": "https://dc.lft.to/lastmile_qr_scan"}, "fusion_lon": 0.0, "lat": 38.904763, "bike_id": "2bf4c16700e4dc02098ae2b5243e5f9f", "type": "electric_scooter", "is_reserved": 0, "lon": -77.04349566666667}, {"fusion_lat": 0.0, "name": "2c866fbd7c1e5bab52673aa27fb9b7d7", "is_disabled": 0, "rental_uris": {"android": "https://dc.lft.to/lastmile_qr_scan", "ios": "https://dc.lft.to/lastmile_qr_scan"}, "fusion_lon": 0.0, "lat": 38.864478166666665, "bike_id": "2c866fbd7c1e5bab52673aa27fb9b7d7", "type": "electric_scooter", "is_reserved": 0, "lon": -76.97999483333334}, {"fusion_lat": 0.0, "name": "e4a0b874359863f559b987bc1d04eef5", "is_disabled": 0, "rental_uris": {"android": "https://dc.lft.to/lastmile_qr_scan", "ios": "https://dc.lft.to/lastmile_qr_scan"}, "fusion_lon": 0.0, "lat": 38.892258166666664, "bike_id": "e4a0b874359863f559b987bc1d04eef5", "type": "electric_scooter", "is_reserved": 0, "lon": -77.02665883333333}, {"fusion_lat": 0.0, "name": "0bacf295a45cebfd62b7d1f59f3784d2", "is_disabled": 0, "rental_uris": {"android": "https://dc.lft.to/lastmile_qr_scan", "ios": "https://dc.lft.to/lastmile_qr_scan"}, "fusion_lon": 0.0, "lat": 38.9028025, "bike_id": "0bacf295a45cebfd62b7d1f59f3784d2", "type": "electric_scooter", "is_reserved": 0, "lon": -77.03843916666666}, {"fusion_lat": 0.0, "name": "be435c0be0b94e6d1948cd4a165ea5cb", "is_disabled": 0, "rental_uris": {"android": "https://dc.lft.to/lastmile_qr_scan", "ios": "https://dc.lft.to/lastmile_qr_scan"}, "fusion_lon": 0.0, "lat": 38.84726783333333, "bike_id": "be435c0be0b94e6d1948cd4a165ea5cb", "type": "electric_scooter", "is_reserved": 0, "lon": -76.9824835}, {"fusion_lat": 0.0, "name": "bd5a68899e77c0b0e703c62e2b64702d", "is_disabled": 0, "rental_uris": {"android": "https://dc.lft.to/lastmile_qr_scan", "ios": "https://dc.lft.to/lastmile_qr_scan"}, "fusion_lon": 0.0, "lat": 38.9155525, "bike_id": "bd5a68899e77c0b0e703c62e2b64702d", "type": "electric_scooter", "is_reserved": 0, "lon": -77.03171983333333}, {"fusion_lat": 0.0, "name": "3312f61dfe671c50ecb7a6000088d151", "is_disabled": 0, "rental_uris": {"android": "https://dc.lft.to/lastmile_qr_scan", "ios": "https://dc.lft.to/lastmile_qr_scan"}, "fusion_lon": 0.0, "lat": 38.8788755, "bike_id": "3312f61dfe671c50ecb7a6000088d151", "type": "electric_scooter", "is_reserved": 0, "lon": -77.02311166666667}, {"fusion_lat": 0.0, "name": "44e6e223c4bea7fd1daffe5b6e04fa91", "is_disabled": 0, "rental_uris": {"android": "https://dc.lft.to/lastmile_qr_scan", "ios": "https://dc.lft.to/lastmile_qr_scan"}, "fusion_lon": 0.0, "lat": 38.911046666666664, "bike_id": "44e6e223c4bea7fd1daffe5b6e04fa91", "type": "electric_scooter", "is_reserved": 0, "lon": -77.04481116666666}, {"fusion_lat": 0.0, "name": "abc77f85f5629370bc52f3f5eb584456", "is_disabled": 0, "rental_uris": {"android": "https://dc.lft.to/lastmile_qr_scan", "ios": "https://dc.lft.to/lastmile_qr_scan"}, "fusion_lon": 0.0, "lat": 38.91640866666667, "bike_id": "abc77f85f5629370bc52f3f5eb584456", "type": "electric_scooter", "is_reserved": 0, "lon": -77.03210083333333}, {"fusion_lat": 0.0, "name": "15c76d2cb6838603f41178ff5d00cc52", "is_disabled": 0, "rental_uris": {"android": "https://dc.lft.to/lastmile_qr_scan", "ios": "https://dc.lft.to/lastmile_qr_scan"}, "fusion_lon": 0.0, "lat": 38.915547333333336, "bike_id": "15c76d2cb6838603f41178ff5d00cc52", "type": "electric_scooter", "is_reserved": 0, "lon": -77.03255633333333}, {"fusion_lat": 0.0, "name": "97d4ee9b95bc74f48bc02cda8fe850ac", "is_disabled": 0, "rental_uris": {"android": "https://dc.lft.to/lastmile_qr_scan", "ios": "https://dc.lft.to/lastmile_qr_scan"}, "fusion_lon": 0.0, "lat": 38.90980666666667, "bike_id": "97d4ee9b95bc74f48bc02cda8fe850ac", "type": "electric_scooter", "is_reserved": 0, "lon": -77.03299416666667}, {"fusion_lat": 0.0, "name": "b4dbc09fa06c9c84d9d206f07e80aaa2", "is_disabled": 0, "rental_uris": {"android": "https://dc.lft.to/lastmile_qr_scan", "ios": "https://dc.lft.to/lastmile_qr_scan"}, "fusion_lon": 0.0, "lat": 38.9308905, "bike_id": "b4dbc09fa06c9c84d9d206f07e80aaa2", "type": "electric_scooter", "is_reserved": 0, "lon": -77.03736216666667}, {"fusion_lat": 0.0, "name": "b8c39e0642c5391de7f4a7142bd98c65", "is_disabled": 0, "rental_uris": {"android": "https://dc.lft.to/lastmile_qr_scan", "ios": "https://dc.lft.to/lastmile_qr_scan"}, "fusion_lon": 0.0, "lat": 38.800160166666664, "bike_id": "b8c39e0642c5391de7f4a7142bd98c65", "type": "electric_bike", "is_reserved": 0, "lon": -77.05479916666667}, {"fusion_lat": 0.0, "name": "6da737f1974363722cec4a3542da84ac", "is_disabled": 0, "rental_uris": {"android": "https://dc.lft.to/lastmile_qr_scan", "ios": "https://dc.lft.to/lastmile_qr_scan"}, "fusion_lon": 0.0, "lat": 38.907774, "bike_id": "6da737f1974363722cec4a3542da84ac", "type": "electric_scooter", "is_reserved": 0, "lon": -77.03542416666667}, {"fusion_lat": 0.0, "name": "0a387cb5f956165d8053305e4d2ff8a6", "is_disabled": 0, "rental_uris": {"android": "https://dc.lft.to/lastmile_qr_scan", "ios": "https://dc.lft.to/lastmile_qr_scan"}, "fusion_lon": 0.0, "lat": 38.926902, "bike_id": "0a387cb5f956165d8053305e4d2ff8a6", "type": "electric_scooter", "is_reserved": 0, "lon": -77.02301266666667}, {"fusion_lat": 0.0, "name": "a3cb19f0bdbc48b5c69e0d55c324236d", "is_disabled": 0, "rental_uris": {"android": "https://dc.lft.to/lastmile_qr_scan", "ios": "https://dc.lft.to/lastmile_qr_scan"}, "fusion_lon": 0.0, "lat": 38.915466333333335, "bike_id": "a3cb19f0bdbc48b5c69e0d55c324236d", "type": "electric_scooter", "is_reserved": 0, "lon": -77.00552116666667}, {"fusion_lat": 0.0, "name": "e480da489bf748dba7ec08692a24d858", "is_disabled": 0, "rental_uris": {"android": "https://dc.lft.to/lastmile_qr_scan", "ios": "https://dc.lft.to/lastmile_qr_scan"}, "fusion_lon": 0.0, "lat": 38.89740233333333, "bike_id": "e480da489bf748dba7ec08692a24d858", "type": "electric_scooter", "is_reserved": 0, "lon": -77.03339016666666}, {"fusion_lat": 0.0, "name": "610dec5b03f63caf1e5f46fa125baed3", "is_disabled": 0, "rental_uris": {"android": "https://dc.lft.to/lastmile_qr_scan", "ios": "https://dc.lft.to/lastmile_qr_scan"}, "fusion_lon": 0.0, "lat": 38.88734483333333, "bike_id": "610dec5b03f63caf1e5f46fa125baed3", "type": "electric_scooter", "is_reserved": 0, "lon": -77.0258105}, {"fusion_lat": 0.0, "name": "ecee9f8e51bf8d165a6f59b99ec7eb2a", "is_disabled": 0, "rental_uris": {"android": "https://dc.lft.to/lastmile_qr_scan", "ios": "https://dc.lft.to/lastmile_qr_scan"}, "fusion_lon": 0.0, "lat": 38.89860433333333, "bike_id": "ecee9f8e51bf8d165a6f59b99ec7eb2a", "type": "electric_scooter", "is_reserved": 0, "lon": -76.94646466666667}, {"fusion_lat": 0.0, "name": "346540b3e896cd1fa3f55946cf03b52c", "is_disabled": 0, "rental_uris": {"android": "https://dc.lft.to/lastmile_qr_scan", "ios": "https://dc.lft.to/lastmile_qr_scan"}, "fusion_lon": 0.0, "lat": 38.90474066666667, "bike_id": "346540b3e896cd1fa3f55946cf03b52c", "type": "electric_scooter", "is_reserved": 0, "lon": -77.03588033333334}, {"fusion_lat": 0.0, "name": "3acf1046f3ccd5eab18dc3dd5ea97d19", "is_disabled": 0, "rental_uris": {"android": "https://dc.lft.to/lastmile_qr_scan", "ios": "https://dc.lft.to/lastmile_qr_scan"}, "fusion_lon": 0.0, "lat": 38.92120883333333, "bike_id": "3acf1046f3ccd5eab18dc3dd5ea97d19", "type": "electric_scooter", "is_reserved": 0, "lon": -77.01211033333334}, {"fusion_lat": 0.0, "name": "de23740eafd4f646320afb46e93cdb91", "is_disabled": 0, "rental_uris": {"android": "https://dc.lft.to/lastmile_qr_scan", "ios": "https://dc.lft.to/lastmile_qr_scan"}, "fusion_lon": 0.0, "lat": 38.9563925, "bike_id": "de23740eafd4f646320afb46e93cdb91", "type": "electric_scooter", "is_reserved": 0, "lon": -77.03304083333333}, {"fusion_lat": 0.0, "name": "09003c3a70e1b1638947e775a5eb8b8f", "is_disabled": 0, "rental_uris": {"android": "https://dc.lft.to/lastmile_qr_scan", "ios": "https://dc.lft.to/lastmile_qr_scan"}, "fusion_lon": 0.0, "lat": 38.930921166666664, "bike_id": "09003c3a70e1b1638947e775a5eb8b8f", "type": "electric_scooter", "is_reserved": 0, "lon": -77.02555433333333}, {"fusion_lat": 0.0, "name": "8f41ef21305356144059ce911d6440bb", "is_disabled": 0, "rental_uris": {"android": "https://dc.lft.to/lastmile_qr_scan", "ios": "https://dc.lft.to/lastmile_qr_scan"}, "fusion_lon": 0.0, "lat": 38.917727166666666, "bike_id": "8f41ef21305356144059ce911d6440bb", "type": "electric_scooter", "is_reserved": 0, "lon": -77.04104016666666}, {"fusion_lat": 0.0, "name": "4daac7bf3af226e372023be254b25950", "is_disabled": 0, "rental_uris": {"android": "https://dc.lft.to/lastmile_qr_scan", "ios": "https://dc.lft.to/lastmile_qr_scan"}, "fusion_lon": 0.0, "lat": 38.898212666666666, "bike_id": "4daac7bf3af226e372023be254b25950", "type": "electric_scooter", "is_reserved": 0, "lon": -77.03160916666667}, {"fusion_lat": 0.0, "name": "449bf1143f3caf9730f3b60639b27ca9", "is_disabled": 0, "rental_uris": {"android": "https://dc.lft.to/lastmile_qr_scan", "ios": "https://dc.lft.to/lastmile_qr_scan"}, "fusion_lon": 0.0, "lat": 38.895841, "bike_id": "449bf1143f3caf9730f3b60639b27ca9", "type": "electric_scooter", "is_reserved": 0, "lon": -77.02991516666667}, {"fusion_lat": 0.0, "name": "b8a84d9425d6188fc80700145173ed0f", "is_disabled": 0, "rental_uris": {"android": "https://dc.lft.to/lastmile_qr_scan", "ios": "https://dc.lft.to/lastmile_qr_scan"}, "fusion_lon": 0.0, "lat": 38.920966166666666, "bike_id": "b8a84d9425d6188fc80700145173ed0f", "type": "electric_scooter", "is_reserved": 0, "lon": -77.0231075}, {"fusion_lat": 0.0, "name": "4699c2623324500852255d8004bd74f2", "is_disabled": 0, "rental_uris": {"android": "https://dc.lft.to/lastmile_qr_scan", "ios": "https://dc.lft.to/lastmile_qr_scan"}, "fusion_lon": 0.0, "lat": 38.90042166666667, "bike_id": "4699c2623324500852255d8004bd74f2", "type": "electric_scooter", "is_reserved": 0, "lon": -77.01186116666666}, {"fusion_lat": 0.0, "name": "c59411dc03453586930a9facc0c487a2", "is_disabled": 0, "rental_uris": {"android": "https://dc.lft.to/lastmile_qr_scan", "ios": "https://dc.lft.to/lastmile_qr_scan"}, "fusion_lon": 0.0, "lat": 38.887292, "bike_id": "c59411dc03453586930a9facc0c487a2", "type": "electric_scooter", "is_reserved": 0, "lon": -77.02587816666667}, {"fusion_lat": 0.0, "name": "097607b106aaa04ada77c96196aecce0", "is_disabled": 0, "rental_uris": {"android": "https://dc.lft.to/lastmile_qr_scan", "ios": "https://dc.lft.to/lastmile_qr_scan"}, "fusion_lon": 0.0, "lat": 38.884967333333336, "bike_id": "097607b106aaa04ada77c96196aecce0", "type": "electric_scooter", "is_reserved": 0, "lon": -77.02093983333333}, {"fusion_lat": 0.0, "name": "a264b6f2eb6f075d0616aaaf84ad5b4b", "is_disabled": 0, "rental_uris": {"android": "https://dc.lft.to/lastmile_qr_scan", "ios": "https://dc.lft.to/lastmile_qr_scan"}, "fusion_lon": 0.0, "lat": 38.88327016666667, "bike_id": "a264b6f2eb6f075d0616aaaf84ad5b4b", "type": "electric_scooter", "is_reserved": 0, "lon": -77.01773233333333}, {"fusion_lat": 0.0, "name": "1f699304e3ab552b28c446fda3a38e5c", "is_disabled": 0, "rental_uris": {"android": "https://dc.lft.to/lastmile_qr_scan", "ios": "https://dc.lft.to/lastmile_qr_scan"}, "fusion_lon": 0.0, "lat": 38.9237915, "bike_id": "1f699304e3ab552b28c446fda3a38e5c", "type": "electric_scooter", "is_reserved": 0, "lon": -77.03128883333333}, {"fusion_lat": 0.0, "name": "faf4bcbcc3e5bc23b943b03c50dcbdf8", "is_disabled": 0, "rental_uris": {"android": "https://dc.lft.to/lastmile_qr_scan", "ios": "https://dc.lft.to/lastmile_qr_scan"}, "fusion_lon": 0.0, "lat": 38.9169075, "bike_id": "faf4bcbcc3e5bc23b943b03c50dcbdf8", "type": "electric_scooter", "is_reserved": 0, "lon": -77.03335866666667}, {"fusion_lat": 0.0, "name": "4504700395af8449ac2313e778c228d7", "is_disabled": 0, "rental_uris": {"android": "https://dc.lft.to/lastmile_qr_scan", "ios": "https://dc.lft.to/lastmile_qr_scan"}, "fusion_lon": 0.0, "lat": 38.89864033333333, "bike_id": "4504700395af8449ac2313e778c228d7", "type": "electric_scooter", "is_reserved": 0, "lon": -77.03959966666666}, {"fusion_lat": 0.0, "name": "bba00bacfc99e5f6c4afc8a438fa834f", "is_disabled": 0, "rental_uris": {"android": "https://dc.lft.to/lastmile_qr_scan", "ios": "https://dc.lft.to/lastmile_qr_scan"}, "fusion_lon": 0.0, "lat": 38.892510333333334, "bike_id": "bba00bacfc99e5f6c4afc8a438fa834f", "type": "electric_scooter", "is_reserved": 0, "lon": -77.04659583333333}, {"fusion_lat": 0.0, "name": "7a4e37d787d5d44f497b7ce62cbcbd79", "is_disabled": 0, "rental_uris": {"android": "https://dc.lft.to/lastmile_qr_scan", "ios": "https://dc.lft.to/lastmile_qr_scan"}, "fusion_lon": 0.0, "lat": 38.9148335, "bike_id": "7a4e37d787d5d44f497b7ce62cbcbd79", "type": "electric_scooter", "is_reserved": 0, "lon": -77.02304733333334}, {"fusion_lat": 0.0, "name": "40d4fcb7f968b2656cf177a3834665d1", "is_disabled": 0, "rental_uris": {"android": "https://dc.lft.to/lastmile_qr_scan", "ios": "https://dc.lft.to/lastmile_qr_scan"}, "fusion_lon": 0.0, "lat": 38.892399166666664, "bike_id": "40d4fcb7f968b2656cf177a3834665d1", "type": "electric_scooter", "is_reserved": 0, "lon": -77.0487575}, {"fusion_lat": 0.0, "name": "e7722752078d5665bc9601ffcff364cd", "is_disabled": 0, "rental_uris": {"android": "https://dc.lft.to/lastmile_qr_scan", "ios": "https://dc.lft.to/lastmile_qr_scan"}, "fusion_lon": 0.0, "lat": 38.905153, "bike_id": "e7722752078d5665bc9601ffcff364cd", "type": "electric_scooter", "is_reserved": 0, "lon": -77.0514345}, {"fusion_lat": 0.0, "name": "0312266ef8b9bab0df9012f36b0762e6", "is_disabled": 0, "rental_uris": {"android": "https://dc.lft.to/lastmile_qr_scan", "ios": "https://dc.lft.to/lastmile_qr_scan"}, "fusion_lon": 0.0, "lat": 38.921432333333335, "bike_id": "0312266ef8b9bab0df9012f36b0762e6", "type": "electric_scooter", "is_reserved": 0, "lon": -77.02520116666666}, {"fusion_lat": 0.0, "name": "899e65b632096b9f9a0a2805bfce4a09", "is_disabled": 0, "rental_uris": {"android": "https://dc.lft.to/lastmile_qr_scan", "ios": "https://dc.lft.to/lastmile_qr_scan"}, "fusion_lon": 0.0, "lat": 38.8560345, "bike_id": "899e65b632096b9f9a0a2805bfce4a09", "type": "electric_scooter", "is_reserved": 0, "lon": -76.97275466666666}, {"fusion_lat": 0.0, "name": "3155eab64957b7f20d8e0acea0864aeb", "is_disabled": 0, "rental_uris": {"android": "https://dc.lft.to/lastmile_qr_scan", "ios": "https://dc.lft.to/lastmile_qr_scan"}, "fusion_lon": 0.0, "lat": 38.899011, "bike_id": "3155eab64957b7f20d8e0acea0864aeb", "type": "electric_bike", "is_reserved": 0, "lon": -77.096211}, {"fusion_lat": 0.0, "name": "4eadf69587535a2a2e1ac548ebd0a5d5", "is_disabled": 0, "rental_uris": {"android": "https://dc.lft.to/lastmile_qr_scan", "ios": "https://dc.lft.to/lastmile_qr_scan"}, "fusion_lon": 0.0, "lat": 38.90979166666666, "bike_id": "4eadf69587535a2a2e1ac548ebd0a5d5", "type": "electric_scooter", "is_reserved": 0, "lon": -77.0487045}, {"fusion_lat": 0.0, "name": "9426fe53d22deeb82cae0ff3f9bf3318", "is_disabled": 0, "rental_uris": {"android": "https://dc.lft.to/lastmile_qr_scan", "ios": "https://dc.lft.to/lastmile_qr_scan"}, "fusion_lon": 0.0, "lat": 38.871798166666665, "bike_id": "9426fe53d22deeb82cae0ff3f9bf3318", "type": "electric_scooter", "is_reserved": 0, "lon": -77.0061205}, {"fusion_lat": 0.0, "name": "729547bbf926b7d3fae65c1a7b4634d0", "is_disabled": 0, "rental_uris": {"android": "https://dc.lft.to/lastmile_qr_scan", "ios": "https://dc.lft.to/lastmile_qr_scan"}, "fusion_lon": 0.0, "lat": 38.91560533333333, "bike_id": "729547bbf926b7d3fae65c1a7b4634d0", "type": "electric_scooter", "is_reserved": 0, "lon": -77.02175683333333}, {"fusion_lat": 0.0, "name": "ed6df578c1ace9f9df4deb65069f9d0c", "is_disabled": 0, "rental_uris": {"android": "https://dc.lft.to/lastmile_qr_scan", "ios": "https://dc.lft.to/lastmile_qr_scan"}, "fusion_lon": 0.0, "lat": 38.90683466666667, "bike_id": "ed6df578c1ace9f9df4deb65069f9d0c", "type": "electric_scooter", "is_reserved": 0, "lon": -77.01091433333333}, {"fusion_lat": 0.0, "name": "ca4b8b3f75247994b280c74a3617a3f7", "is_disabled": 0, "rental_uris": {"android": "https://dc.lft.to/lastmile_qr_scan", "ios": "https://dc.lft.to/lastmile_qr_scan"}, "fusion_lon": 0.0, "lat": 38.99098266666667, "bike_id": "ca4b8b3f75247994b280c74a3617a3f7", "type": "electric_bike", "is_reserved": 0, "lon": -76.99362716666667}, {"fusion_lat": 0.0, "name": "68eabcaadc25d8d0d4024d580da5cb80", "is_disabled": 0, "rental_uris": {"android": "https://dc.lft.to/lastmile_qr_scan", "ios": "https://dc.lft.to/lastmile_qr_scan"}, "fusion_lon": 0.0, "lat": 38.862630333333335, "bike_id": "68eabcaadc25d8d0d4024d580da5cb80", "type": "electric_bike", "is_reserved": 0, "lon": -76.9835135}, {"fusion_lat": 0.0, "name": "c9b73741e7d760b1f76de7a0adfc3f55", "is_disabled": 0, "rental_uris": {"android": "https://dc.lft.to/lastmile_qr_scan", "ios": "https://dc.lft.to/lastmile_qr_scan"}, "fusion_lon": 0.0, "lat": 38.9466415, "bike_id": "c9b73741e7d760b1f76de7a0adfc3f55", "type": "electric_bike", "is_reserved": 0, "lon": -77.00694383333334}, {"fusion_lat": 0.0, "name": "1afb87043269e7ab0f3baf18e036d5bb", "is_disabled": 0, "rental_uris": {"android": "https://dc.lft.to/lastmile_qr_scan", "ios": "https://dc.lft.to/lastmile_qr_scan"}, "fusion_lon": 0.0, "lat": 38.9367575, "bike_id": "1afb87043269e7ab0f3baf18e036d5bb", "type": "electric_scooter", "is_reserved": 0, "lon": -77.0359485}, {"fusion_lat": 0.0, "name": "a2b1a49bf257c9406911f93aa633c8d5", "is_disabled": 0, "rental_uris": {"android": "https://dc.lft.to/lastmile_qr_scan", "ios": "https://dc.lft.to/lastmile_qr_scan"}, "fusion_lon": 0.0, "lat": 38.897128, "bike_id": "a2b1a49bf257c9406911f93aa633c8d5", "type": "electric_scooter", "is_reserved": 0, "lon": -77.008425}, {"fusion_lat": 0.0, "name": "a4d4f2616c9f557a75a269e654918ffb", "is_disabled": 0, "rental_uris": {"android": "https://dc.lft.to/lastmile_qr_scan", "ios": "https://dc.lft.to/lastmile_qr_scan"}, "fusion_lon": 0.0, "lat": 38.996073833333334, "bike_id": "a4d4f2616c9f557a75a269e654918ffb", "type": "electric_bike", "is_reserved": 0, "lon": -77.07806983333333}, {"fusion_lat": 0.0, "name": "e9ecc068cfe3d824fc8fc79bff7b47c6", "is_disabled": 0, "rental_uris": {"android": "https://dc.lft.to/lastmile_qr_scan", "ios": "https://dc.lft.to/lastmile_qr_scan"}, "fusion_lon": 0.0, "lat": 38.91816816666667, "bike_id": "e9ecc068cfe3d824fc8fc79bff7b47c6", "type": "electric_scooter", "is_reserved": 0, "lon": -77.02705016666667}, {"fusion_lat": 0.0, "name": "a822ae238c8cf62b83c73b29d35943aa", "is_disabled": 0, "rental_uris": {"android": "https://dc.lft.to/lastmile_qr_scan", "ios": "https://dc.lft.to/lastmile_qr_scan"}, "fusion_lon": 0.0, "lat": 38.86509016666667, "bike_id": "a822ae238c8cf62b83c73b29d35943aa", "type": "electric_scooter", "is_reserved": 0, "lon": -76.99003116666667}, {"fusion_lat": 0.0, "name": "9d8a4ca098baf3dcece40d11f41e1392", "is_disabled": 0, "rental_uris": {"android": "https://dc.lft.to/lastmile_qr_scan", "ios": "https://dc.lft.to/lastmile_qr_scan"}, "fusion_lon": 0.0, "lat": 38.91263933333333, "bike_id": "9d8a4ca098baf3dcece40d11f41e1392", "type": "electric_scooter", "is_reserved": 0, "lon": -77.03147716666666}, {"fusion_lat": 0.0, "name": "b721d215273ff9dfc8c472553e066eed", "is_disabled": 0, "rental_uris": {"android": "https://dc.lft.to/lastmile_qr_scan", "ios": "https://dc.lft.to/lastmile_qr_scan"}, "fusion_lon": 0.0, "lat": 38.95376666666667, "bike_id": "b721d215273ff9dfc8c472553e066eed", "type": "electric_scooter", "is_reserved": 0, "lon": -77.025544}, {"fusion_lat": 0.0, "name": "83db2889d95e46b08c2a0c7d268f2489", "is_disabled": 0, "rental_uris": {"android": "https://dc.lft.to/lastmile_qr_scan", "ios": "https://dc.lft.to/lastmile_qr_scan"}, "fusion_lon": 0.0, "lat": 38.90492583333333, "bike_id": "83db2889d95e46b08c2a0c7d268f2489", "type": "electric_bike", "is_reserved": 0, "lon": -76.97425816666667}, {"fusion_lat": 0.0, "name": "69858528ba8ef4a25e301eac348b6dbe", "is_disabled": 0, "rental_uris": {"android": "https://dc.lft.to/lastmile_qr_scan", "ios": "https://dc.lft.to/lastmile_qr_scan"}, "fusion_lon": 0.0, "lat": 38.88725, "bike_id": "69858528ba8ef4a25e301eac348b6dbe", "type": "electric_scooter", "is_reserved": 0, "lon": -77.013302}, {"fusion_lat": 0.0, "name": "c6772bbc33da5abec1dcb1bc6a0505d8", "is_disabled": 0, "rental_uris": {"android": "https://dc.lft.to/lastmile_qr_scan", "ios": "https://dc.lft.to/lastmile_qr_scan"}, "fusion_lon": 0.0, "lat": 38.911921, "bike_id": "c6772bbc33da5abec1dcb1bc6a0505d8", "type": "electric_scooter", "is_reserved": 0, "lon": -77.00479483333334}, {"fusion_lat": 0.0, "name": "adc1512c7cc0adfad0a5efb7bd8059ce", "is_disabled": 0, "rental_uris": {"android": "https://dc.lft.to/lastmile_qr_scan", "ios": "https://dc.lft.to/lastmile_qr_scan"}, "fusion_lon": 0.0, "lat": 38.878899, "bike_id": "adc1512c7cc0adfad0a5efb7bd8059ce", "type": "electric_scooter", "is_reserved": 0, "lon": -77.02272816666667}, {"fusion_lat": 0.0, "name": "f36f36f82735c866b4dcbfb88ebd0a16", "is_disabled": 0, "rental_uris": {"android": "https://dc.lft.to/lastmile_qr_scan", "ios": "https://dc.lft.to/lastmile_qr_scan"}, "fusion_lon": 0.0, "lat": 38.88361616666667, "bike_id": "f36f36f82735c866b4dcbfb88ebd0a16", "type": "electric_scooter", "is_reserved": 0, "lon": -76.98215316666666}, {"fusion_lat": 0.0, "name": "148514b64228e532db44b6f6a63297f2", "is_disabled": 0, "rental_uris": {"android": "https://dc.lft.to/lastmile_qr_scan", "ios": "https://dc.lft.to/lastmile_qr_scan"}, "fusion_lon": 0.0, "lat": 38.9224965, "bike_id": "148514b64228e532db44b6f6a63297f2", "type": "electric_scooter", "is_reserved": 0, "lon": -77.02991233333333}, {"fusion_lat": 0.0, "name": "f807c238a459d9626d47941f69363e21", "is_disabled": 0, "rental_uris": {"android": "https://dc.lft.to/lastmile_qr_scan", "ios": "https://dc.lft.to/lastmile_qr_scan"}, "fusion_lon": 0.0, "lat": 38.884113666666664, "bike_id": "f807c238a459d9626d47941f69363e21", "type": "electric_scooter", "is_reserved": 0, "lon": -77.02630683333334}, {"fusion_lat": 0.0, "name": "8d603dfc61fc7573a4adb03501671160", "is_disabled": 0, "rental_uris": {"android": "https://dc.lft.to/lastmile_qr_scan", "ios": "https://dc.lft.to/lastmile_qr_scan"}, "fusion_lon": 0.0, "lat": 38.9209665, "bike_id": "8d603dfc61fc7573a4adb03501671160", "type": "electric_scooter", "is_reserved": 0, "lon": -77.0231485}, {"fusion_lat": 0.0, "name": "f2613fd2bd08c27ba3d78f8717cfa6a1", "is_disabled": 0, "rental_uris": {"android": "https://dc.lft.to/lastmile_qr_scan", "ios": "https://dc.lft.to/lastmile_qr_scan"}, "fusion_lon": 0.0, "lat": 38.95882983333333, "bike_id": "f2613fd2bd08c27ba3d78f8717cfa6a1", "type": "electric_scooter", "is_reserved": 0, "lon": -77.01169016666667}, {"fusion_lat": 0.0, "name": "f21c61e336f0c98c9374063ac3591d0e", "is_disabled": 0, "rental_uris": {"android": "https://dc.lft.to/lastmile_qr_scan", "ios": "https://dc.lft.to/lastmile_qr_scan"}, "fusion_lon": 0.0, "lat": 38.912688, "bike_id": "f21c61e336f0c98c9374063ac3591d0e", "type": "electric_scooter", "is_reserved": 0, "lon": -77.0131205}, {"fusion_lat": 0.0, "name": "9e67fbd2492fb9d8c650875344b96ebc", "is_disabled": 0, "rental_uris": {"android": "https://dc.lft.to/lastmile_qr_scan", "ios": "https://dc.lft.to/lastmile_qr_scan"}, "fusion_lon": 0.0, "lat": 38.87658166666667, "bike_id": "9e67fbd2492fb9d8c650875344b96ebc", "type": "electric_scooter", "is_reserved": 0, "lon": -77.00918483333334}, {"fusion_lat": 0.0, "name": "16b3b7364419eed8e41b7a859ffab0c8", "is_disabled": 0, "rental_uris": {"android": "https://dc.lft.to/lastmile_qr_scan", "ios": "https://dc.lft.to/lastmile_qr_scan"}, "fusion_lon": 0.0, "lat": 38.918132, "bike_id": "16b3b7364419eed8e41b7a859ffab0c8", "type": "electric_scooter", "is_reserved": 0, "lon": -77.03167783333333}, {"fusion_lat": 0.0, "name": "0aa084d8aa174ec357a6e3c8a1695e19", "is_disabled": 0, "rental_uris": {"android": "https://dc.lft.to/lastmile_qr_scan", "ios": "https://dc.lft.to/lastmile_qr_scan"}, "fusion_lon": 0.0, "lat": 38.916167, "bike_id": "0aa084d8aa174ec357a6e3c8a1695e19", "type": "electric_scooter", "is_reserved": 0, "lon": -77.0488635}, {"fusion_lat": 0.0, "name": "f7c38409fc77021ae53fe8f0ea51456c", "is_disabled": 0, "rental_uris": {"android": "https://dc.lft.to/lastmile_qr_scan", "ios": "https://dc.lft.to/lastmile_qr_scan"}, "fusion_lon": 0.0, "lat": 38.898284333333336, "bike_id": "f7c38409fc77021ae53fe8f0ea51456c", "type": "electric_scooter", "is_reserved": 0, "lon": -77.0074915}, {"fusion_lat": 0.0, "name": "5753cfde2b0647d410cad3b067db427b", "is_disabled": 0, "rental_uris": {"android": "https://dc.lft.to/lastmile_qr_scan", "ios": "https://dc.lft.to/lastmile_qr_scan"}, "fusion_lon": 0.0, "lat": 38.88494266666667, "bike_id": "5753cfde2b0647d410cad3b067db427b", "type": "electric_scooter", "is_reserved": 0, "lon": -76.9565185}, {"fusion_lat": 0.0, "name": "bfc71f8075cc789c50ae5c3fd8de487f", "is_disabled": 0, "rental_uris": {"android": "https://dc.lft.to/lastmile_qr_scan", "ios": "https://dc.lft.to/lastmile_qr_scan"}, "fusion_lon": 0.0, "lat": 38.913365, "bike_id": "bfc71f8075cc789c50ae5c3fd8de487f", "type": "electric_scooter", "is_reserved": 0, "lon": -77.03174566666667}, {"fusion_lat": 0.0, "name": "3c12cc7309dd73a5dfce67acfc0df97d", "is_disabled": 0, "rental_uris": {"android": "https://dc.lft.to/lastmile_qr_scan", "ios": "https://dc.lft.to/lastmile_qr_scan"}, "fusion_lon": 0.0, "lat": 38.9141585, "bike_id": "3c12cc7309dd73a5dfce67acfc0df97d", "type": "electric_scooter", "is_reserved": 0, "lon": -77.0314585}, {"fusion_lat": 0.0, "name": "150a08c31ca58b099a0b1063d197a73a", "is_disabled": 0, "rental_uris": {"android": "https://dc.lft.to/lastmile_qr_scan", "ios": "https://dc.lft.to/lastmile_qr_scan"}, "fusion_lon": 0.0, "lat": 38.8395, "bike_id": "150a08c31ca58b099a0b1063d197a73a", "type": "electric_bike", "is_reserved": 0, "lon": -77.08756483333333}, {"fusion_lat": 0.0, "name": "2a279290eccdfbd2d2e54297819e92d8", "is_disabled": 0, "rental_uris": {"android": "https://dc.lft.to/lastmile_qr_scan", "ios": "https://dc.lft.to/lastmile_qr_scan"}, "fusion_lon": 0.0, "lat": 38.9039755, "bike_id": "2a279290eccdfbd2d2e54297819e92d8", "type": "electric_scooter", "is_reserved": 0, "lon": -76.98941483333333}, {"fusion_lat": 0.0, "name": "7fa9edd7b2b1e8bd26c306a7a7772dfc", "is_disabled": 0, "rental_uris": {"android": "https://dc.lft.to/lastmile_qr_scan", "ios": "https://dc.lft.to/lastmile_qr_scan"}, "fusion_lon": 0.0, "lat": 38.930575166666664, "bike_id": "7fa9edd7b2b1e8bd26c306a7a7772dfc", "type": "electric_scooter", "is_reserved": 0, "lon": -77.0232285}, {"fusion_lat": 0.0, "name": "d002c13b135ccc1a6f0b7eef904fefc1", "is_disabled": 0, "rental_uris": {"android": "https://dc.lft.to/lastmile_qr_scan", "ios": "https://dc.lft.to/lastmile_qr_scan"}, "fusion_lon": 0.0, "lat": 38.935346, "bike_id": "d002c13b135ccc1a6f0b7eef904fefc1", "type": "electric_scooter", "is_reserved": 0, "lon": -77.02345266666667}, {"fusion_lat": 0.0, "name": "fc8c27f3a41cc18ec515bae92205fd40", "is_disabled": 0, "rental_uris": {"android": "https://dc.lft.to/lastmile_qr_scan", "ios": "https://dc.lft.to/lastmile_qr_scan"}, "fusion_lon": 0.0, "lat": 38.9182135, "bike_id": "fc8c27f3a41cc18ec515bae92205fd40", "type": "electric_scooter", "is_reserved": 0, "lon": -77.02713133333333}, {"fusion_lat": 0.0, "name": "af806fa3a0ff80db576e0b18b96a1fc7", "is_disabled": 0, "rental_uris": {"android": "https://dc.lft.to/lastmile_qr_scan", "ios": "https://dc.lft.to/lastmile_qr_scan"}, "fusion_lon": 0.0, "lat": 38.9171145, "bike_id": "af806fa3a0ff80db576e0b18b96a1fc7", "type": "electric_scooter", "is_reserved": 0, "lon": -77.04034566666667}, {"fusion_lat": 0.0, "name": "1512ab44dedafb2764c253f85108f1df", "is_disabled": 0, "rental_uris": {"android": "https://dc.lft.to/lastmile_qr_scan", "ios": "https://dc.lft.to/lastmile_qr_scan"}, "fusion_lon": 0.0, "lat": 38.8780175, "bike_id": "1512ab44dedafb2764c253f85108f1df", "type": "electric_scooter", "is_reserved": 0, "lon": -76.99011233333333}, {"fusion_lat": 0.0, "name": "71178753ac7d2f85e0784202e63200e9", "is_disabled": 0, "rental_uris": {"android": "https://dc.lft.to/lastmile_qr_scan", "ios": "https://dc.lft.to/lastmile_qr_scan"}, "fusion_lon": 0.0, "lat": 38.927076166666666, "bike_id": "71178753ac7d2f85e0784202e63200e9", "type": "electric_scooter", "is_reserved": 0, "lon": -77.024359}, {"fusion_lat": 0.0, "name": "9393d83e33a53e2e9d22caaa26954907", "is_disabled": 0, "rental_uris": {"android": "https://dc.lft.to/lastmile_qr_scan", "ios": "https://dc.lft.to/lastmile_qr_scan"}, "fusion_lon": 0.0, "lat": 38.921290666666664, "bike_id": "9393d83e33a53e2e9d22caaa26954907", "type": "electric_scooter", "is_reserved": 0, "lon": -77.04110983333334}, {"fusion_lat": 0.0, "name": "024d8656b53147b990f0d444ab26b9af", "is_disabled": 0, "rental_uris": {"android": "https://dc.lft.to/lastmile_qr_scan", "ios": "https://dc.lft.to/lastmile_qr_scan"}, "fusion_lon": 0.0, "lat": 38.91706583333333, "bike_id": "024d8656b53147b990f0d444ab26b9af", "type": "electric_scooter", "is_reserved": 0, "lon": -77.02292316666667}, {"fusion_lat": 0.0, "name": "53a6ab592387cddea5b38c5800258d4c", "is_disabled": 0, "rental_uris": {"android": "https://dc.lft.to/lastmile_qr_scan", "ios": "https://dc.lft.to/lastmile_qr_scan"}, "fusion_lon": 0.0, "lat": 38.838645666666665, "bike_id": "53a6ab592387cddea5b38c5800258d4c", "type": "electric_scooter", "is_reserved": 0, "lon": -76.996973}, {"fusion_lat": 0.0, "name": "61dadb884dce255f468d744669bcdddb", "is_disabled": 0, "rental_uris": {"android": "https://dc.lft.to/lastmile_qr_scan", "ios": "https://dc.lft.to/lastmile_qr_scan"}, "fusion_lon": 0.0, "lat": 38.895126, "bike_id": "61dadb884dce255f468d744669bcdddb", "type": "electric_scooter", "is_reserved": 0, "lon": -77.04163283333334}, {"fusion_lat": 0.0, "name": "6985bf6b57fcd4ae23501e6438b1a434", "is_disabled": 0, "rental_uris": {"android": "https://dc.lft.to/lastmile_qr_scan", "ios": "https://dc.lft.to/lastmile_qr_scan"}, "fusion_lon": 0.0, "lat": 38.89713066666667, "bike_id": "6985bf6b57fcd4ae23501e6438b1a434", "type": "electric_scooter", "is_reserved": 0, "lon": -77.03206116666667}, {"fusion_lat": 0.0, "name": "fa472799d333e840fb37eab89e0553e1", "is_disabled": 0, "rental_uris": {"android": "https://dc.lft.to/lastmile_qr_scan", "ios": "https://dc.lft.to/lastmile_qr_scan"}, "fusion_lon": 0.0, "lat": 38.92289433333333, "bike_id": "fa472799d333e840fb37eab89e0553e1", "type": "electric_scooter", "is_reserved": 0, "lon": -77.029652}, {"fusion_lat": 0.0, "name": "9aaa797660768af45c2b054d2da2c244", "is_disabled": 0, "rental_uris": {"android": "https://dc.lft.to/lastmile_qr_scan", "ios": "https://dc.lft.to/lastmile_qr_scan"}, "fusion_lon": 0.0, "lat": 38.904335833333334, "bike_id": "9aaa797660768af45c2b054d2da2c244", "type": "electric_scooter", "is_reserved": 0, "lon": -77.04345866666667}, {"fusion_lat": 0.0, "name": "28cb0e2c5d7667d5e29370267f8798b5", "is_disabled": 0, "rental_uris": {"android": "https://dc.lft.to/lastmile_qr_scan", "ios": "https://dc.lft.to/lastmile_qr_scan"}, "fusion_lon": 0.0, "lat": 38.940532, "bike_id": "28cb0e2c5d7667d5e29370267f8798b5", "type": "electric_bike", "is_reserved": 0, "lon": -76.90422}, {"fusion_lat": 0.0, "name": "a3bcb30c76a24a6c158be015cee5f217", "is_disabled": 0, "rental_uris": {"android": "https://dc.lft.to/lastmile_qr_scan", "ios": "https://dc.lft.to/lastmile_qr_scan"}, "fusion_lon": 0.0, "lat": 38.915747833333334, "bike_id": "a3bcb30c76a24a6c158be015cee5f217", "type": "electric_scooter", "is_reserved": 0, "lon": -77.01245}, {"fusion_lat": 0.0, "name": "ca5e33296563f9a66a3fb4ff77be119d", "is_disabled": 0, "rental_uris": {"android": "https://dc.lft.to/lastmile_qr_scan", "ios": "https://dc.lft.to/lastmile_qr_scan"}, "fusion_lon": 0.0, "lat": 38.915328, "bike_id": "ca5e33296563f9a66a3fb4ff77be119d", "type": "electric_scooter", "is_reserved": 0, "lon": -77.0319685}, {"fusion_lat": 0.0, "name": "a8c7f20b8ebcd02c908034cc99f07ec0", "is_disabled": 0, "rental_uris": {"android": "https://dc.lft.to/lastmile_qr_scan", "ios": "https://dc.lft.to/lastmile_qr_scan"}, "fusion_lon": 0.0, "lat": 38.9228805, "bike_id": "a8c7f20b8ebcd02c908034cc99f07ec0", "type": "electric_scooter", "is_reserved": 0, "lon": -77.032095}, {"fusion_lat": 0.0, "name": "3a169bb47d2803e0e0b5712f57b44033", "is_disabled": 0, "rental_uris": {"android": "https://dc.lft.to/lastmile_qr_scan", "ios": "https://dc.lft.to/lastmile_qr_scan"}, "fusion_lon": 0.0, "lat": 38.902338, "bike_id": "3a169bb47d2803e0e0b5712f57b44033", "type": "electric_scooter", "is_reserved": 0, "lon": -77.04452116666667}, {"fusion_lat": 0.0, "name": "fb3e83d92681e433c72960cba2f2c9e3", "is_disabled": 0, "rental_uris": {"android": "https://dc.lft.to/lastmile_qr_scan", "ios": "https://dc.lft.to/lastmile_qr_scan"}, "fusion_lon": 0.0, "lat": 38.906841, "bike_id": "fb3e83d92681e433c72960cba2f2c9e3", "type": "electric_scooter", "is_reserved": 0, "lon": -77.01090983333333}, {"fusion_lat": 0.0, "name": "937b18bcf0257435880239c4d117231c", "is_disabled": 0, "rental_uris": {"android": "https://dc.lft.to/lastmile_qr_scan", "ios": "https://dc.lft.to/lastmile_qr_scan"}, "fusion_lon": 0.0, "lat": 38.9166875, "bike_id": "937b18bcf0257435880239c4d117231c", "type": "electric_scooter", "is_reserved": 0, "lon": -77.03460066666666}, {"fusion_lat": 0.0, "name": "fa0053e5282a795b5cafe32cc0a6d142", "is_disabled": 0, "rental_uris": {"android": "https://dc.lft.to/lastmile_qr_scan", "ios": "https://dc.lft.to/lastmile_qr_scan"}, "fusion_lon": 0.0, "lat": 38.975222333333335, "bike_id": "fa0053e5282a795b5cafe32cc0a6d142", "type": "electric_bike", "is_reserved": 0, "lon": -77.01685366666666}, {"fusion_lat": 0.0, "name": "87efcce0778018302d8fa69eb6dff151", "is_disabled": 0, "rental_uris": {"android": "https://dc.lft.to/lastmile_qr_scan", "ios": "https://dc.lft.to/lastmile_qr_scan"}, "fusion_lon": 0.0, "lat": 38.90407483333333, "bike_id": "87efcce0778018302d8fa69eb6dff151", "type": "electric_scooter", "is_reserved": 0, "lon": -77.00139316666667}, {"fusion_lat": 0.0, "name": "ba80a753a7885f5bc8b2b01235cad2ca", "is_disabled": 0, "rental_uris": {"android": "https://dc.lft.to/lastmile_qr_scan", "ios": "https://dc.lft.to/lastmile_qr_scan"}, "fusion_lon": 0.0, "lat": 38.99446733333333, "bike_id": "ba80a753a7885f5bc8b2b01235cad2ca", "type": "electric_bike", "is_reserved": 0, "lon": -76.9958755}, {"fusion_lat": 0.0, "name": "3d745d31683dcb369595a4495923fc2d", "is_disabled": 0, "rental_uris": {"android": "https://dc.lft.to/lastmile_qr_scan", "ios": "https://dc.lft.to/lastmile_qr_scan"}, "fusion_lon": 0.0, "lat": 38.89261416666667, "bike_id": "3d745d31683dcb369595a4495923fc2d", "type": "electric_scooter", "is_reserved": 0, "lon": -77.0465365}, {"fusion_lat": 0.0, "name": "dfbd43c21b4c78787ec2e399590b4689", "is_disabled": 0, "rental_uris": {"android": "https://dc.lft.to/lastmile_qr_scan", "ios": "https://dc.lft.to/lastmile_qr_scan"}, "fusion_lon": 0.0, "lat": 38.91828183333333, "bike_id": "dfbd43c21b4c78787ec2e399590b4689", "type": "electric_scooter", "is_reserved": 0, "lon": -77.0402515}, {"fusion_lat": 0.0, "name": "4a88e201dfce303f38045095e36dd4e1", "is_disabled": 0, "rental_uris": {"android": "https://dc.lft.to/lastmile_qr_scan", "ios": "https://dc.lft.to/lastmile_qr_scan"}, "fusion_lon": 0.0, "lat": 38.929163333333335, "bike_id": "4a88e201dfce303f38045095e36dd4e1", "type": "electric_scooter", "is_reserved": 0, "lon": -77.032599}, {"fusion_lat": 0.0, "name": "f41f15460a186e4cfdd0b453af7b6a13", "is_disabled": 0, "rental_uris": {"android": "https://dc.lft.to/lastmile_qr_scan", "ios": "https://dc.lft.to/lastmile_qr_scan"}, "fusion_lon": 0.0, "lat": 38.9370605, "bike_id": "f41f15460a186e4cfdd0b453af7b6a13", "type": "electric_scooter", "is_reserved": 0, "lon": -77.0239845}, {"fusion_lat": 0.0, "name": "4eed2cc3fd7ab214b48fdd22df6e9e6f", "is_disabled": 0, "rental_uris": {"android": "https://dc.lft.to/lastmile_qr_scan", "ios": "https://dc.lft.to/lastmile_qr_scan"}, "fusion_lon": 0.0, "lat": 38.92605016666667, "bike_id": "4eed2cc3fd7ab214b48fdd22df6e9e6f", "type": "electric_scooter", "is_reserved": 0, "lon": -77.02588566666667}, {"fusion_lat": 0.0, "name": "0af739aff90950e1fdeaae06e65647bb", "is_disabled": 0, "rental_uris": {"android": "https://dc.lft.to/lastmile_qr_scan", "ios": "https://dc.lft.to/lastmile_qr_scan"}, "fusion_lon": 0.0, "lat": 38.93655866666667, "bike_id": "0af739aff90950e1fdeaae06e65647bb", "type": "electric_scooter", "is_reserved": 0, "lon": -77.03653666666666}, {"fusion_lat": 0.0, "name": "5094dbe85a77a4109d171b43b2a73001", "is_disabled": 0, "rental_uris": {"android": "https://dc.lft.to/lastmile_qr_scan", "ios": "https://dc.lft.to/lastmile_qr_scan"}, "fusion_lon": 0.0, "lat": 38.8955695, "bike_id": "5094dbe85a77a4109d171b43b2a73001", "type": "electric_scooter", "is_reserved": 0, "lon": -77.03954466666667}, {"fusion_lat": 0.0, "name": "d3e3e0636a97a59ff93f2ecd08ebae33", "is_disabled": 0, "rental_uris": {"android": "https://dc.lft.to/lastmile_qr_scan", "ios": "https://dc.lft.to/lastmile_qr_scan"}, "fusion_lon": 0.0, "lat": 38.927388, "bike_id": "d3e3e0636a97a59ff93f2ecd08ebae33", "type": "electric_scooter", "is_reserved": 0, "lon": -77.02127783333333}, {"fusion_lat": 0.0, "name": "a0ecd8eb1133a22d2ce236cd2a85a7c2", "is_disabled": 0, "rental_uris": {"android": "https://dc.lft.to/lastmile_qr_scan", "ios": "https://dc.lft.to/lastmile_qr_scan"}, "fusion_lon": 0.0, "lat": 38.89526433333333, "bike_id": "a0ecd8eb1133a22d2ce236cd2a85a7c2", "type": "electric_scooter", "is_reserved": 0, "lon": -77.028142}, {"fusion_lat": 0.0, "name": "780f7f553ac7b9625a44ffa80b28d588", "is_disabled": 0, "rental_uris": {"android": "https://dc.lft.to/lastmile_qr_scan", "ios": "https://dc.lft.to/lastmile_qr_scan"}, "fusion_lon": 0.0, "lat": 38.980608, "bike_id": "780f7f553ac7b9625a44ffa80b28d588", "type": "electric_scooter", "is_reserved": 0, "lon": -77.0263615}, {"fusion_lat": 0.0, "name": "e60d66eb088b9bc05a2ab6a0077536f4", "is_disabled": 0, "rental_uris": {"android": "https://dc.lft.to/lastmile_qr_scan", "ios": "https://dc.lft.to/lastmile_qr_scan"}, "fusion_lon": 0.0, "lat": 38.90715933333333, "bike_id": "e60d66eb088b9bc05a2ab6a0077536f4", "type": "electric_scooter", "is_reserved": 0, "lon": -77.068982}, {"fusion_lat": 0.0, "name": "782c5f3fd2a485eb0ec4134b9c02a285", "is_disabled": 0, "rental_uris": {"android": "https://dc.lft.to/lastmile_qr_scan", "ios": "https://dc.lft.to/lastmile_qr_scan"}, "fusion_lon": 0.0, "lat": 38.90953916666667, "bike_id": "782c5f3fd2a485eb0ec4134b9c02a285", "type": "electric_scooter", "is_reserved": 0, "lon": -76.99889466666667}, {"fusion_lat": 0.0, "name": "fbd088d6f46e16a69782005759b8b646", "is_disabled": 0, "rental_uris": {"android": "https://dc.lft.to/lastmile_qr_scan", "ios": "https://dc.lft.to/lastmile_qr_scan"}, "fusion_lon": 0.0, "lat": 38.897344333333336, "bike_id": "fbd088d6f46e16a69782005759b8b646", "type": "electric_scooter", "is_reserved": 0, "lon": -77.05472133333333}, {"fusion_lat": 0.0, "name": "bf4632d114a153751e4990d29c95c2f4", "is_disabled": 0, "rental_uris": {"android": "https://dc.lft.to/lastmile_qr_scan", "ios": "https://dc.lft.to/lastmile_qr_scan"}, "fusion_lon": 0.0, "lat": 38.91131983333333, "bike_id": "bf4632d114a153751e4990d29c95c2f4", "type": "electric_scooter", "is_reserved": 0, "lon": -77.04415566666667}, {"fusion_lat": 0.0, "name": "ad2f975c65857b6e311e6b01f1b5fd94", "is_disabled": 0, "rental_uris": {"android": "https://dc.lft.to/lastmile_qr_scan", "ios": "https://dc.lft.to/lastmile_qr_scan"}, "fusion_lon": 0.0, "lat": 38.9231835, "bike_id": "ad2f975c65857b6e311e6b01f1b5fd94", "type": "electric_scooter", "is_reserved": 0, "lon": -77.02984116666667}, {"fusion_lat": 0.0, "name": "bd6bdaf162e301c702bc1f66fa81e04d", "is_disabled": 0, "rental_uris": {"android": "https://dc.lft.to/lastmile_qr_scan", "ios": "https://dc.lft.to/lastmile_qr_scan"}, "fusion_lon": 0.0, "lat": 38.8876855, "bike_id": "bd6bdaf162e301c702bc1f66fa81e04d", "type": "electric_scooter", "is_reserved": 0, "lon": -76.99464483333334}, {"fusion_lat": 0.0, "name": "beef773542c1e42add633cb84fc3df79", "is_disabled": 0, "rental_uris": {"android": "https://dc.lft.to/lastmile_qr_scan", "ios": "https://dc.lft.to/lastmile_qr_scan"}, "fusion_lon": 0.0, "lat": 38.9240985, "bike_id": "beef773542c1e42add633cb84fc3df79", "type": "electric_scooter", "is_reserved": 0, "lon": -77.029756}, {"fusion_lat": 0.0, "name": "ef558bf9e8c1a03e7a560636043f7547", "is_disabled": 0, "rental_uris": {"android": "https://dc.lft.to/lastmile_qr_scan", "ios": "https://dc.lft.to/lastmile_qr_scan"}, "fusion_lon": 0.0, "lat": 38.892777, "bike_id": "ef558bf9e8c1a03e7a560636043f7547", "type": "electric_scooter", "is_reserved": 0, "lon": -77.0503955}, {"fusion_lat": 0.0, "name": "3b24d111d47c7af10ae2e328d86b630f", "is_disabled": 0, "rental_uris": {"android": "https://dc.lft.to/lastmile_qr_scan", "ios": "https://dc.lft.to/lastmile_qr_scan"}, "fusion_lon": 0.0, "lat": 38.904271666666666, "bike_id": "3b24d111d47c7af10ae2e328d86b630f", "type": "electric_bike", "is_reserved": 0, "lon": -77.00513983333333}, {"fusion_lat": 0.0, "name": "15996980184e497a14a5d7b5434f5a9b", "is_disabled": 0, "rental_uris": {"android": "https://dc.lft.to/lastmile_qr_scan", "ios": "https://dc.lft.to/lastmile_qr_scan"}, "fusion_lon": 0.0, "lat": 38.907843166666666, "bike_id": "15996980184e497a14a5d7b5434f5a9b", "type": "electric_scooter", "is_reserved": 0, "lon": -77.04362416666666}, {"fusion_lat": 0.0, "name": "57a515d971c8f26fb83e1f2fac7625bd", "is_disabled": 0, "rental_uris": {"android": "https://dc.lft.to/lastmile_qr_scan", "ios": "https://dc.lft.to/lastmile_qr_scan"}, "fusion_lon": 0.0, "lat": 38.896067, "bike_id": "57a515d971c8f26fb83e1f2fac7625bd", "type": "electric_scooter", "is_reserved": 0, "lon": -77.02618416666667}, {"fusion_lat": 0.0, "name": "8fe1f71a7db56b5da7ec1da9795953f9", "is_disabled": 0, "rental_uris": {"android": "https://dc.lft.to/lastmile_qr_scan", "ios": "https://dc.lft.to/lastmile_qr_scan"}, "fusion_lon": 0.0, "lat": 38.89994566666667, "bike_id": "8fe1f71a7db56b5da7ec1da9795953f9", "type": "electric_scooter", "is_reserved": 0, "lon": -77.0224475}, {"fusion_lat": 0.0, "name": "57f1aac48be8911b290981f568a25976", "is_disabled": 0, "rental_uris": {"android": "https://dc.lft.to/lastmile_qr_scan", "ios": "https://dc.lft.to/lastmile_qr_scan"}, "fusion_lon": 0.0, "lat": 38.93176283333333, "bike_id": "57f1aac48be8911b290981f568a25976", "type": "electric_scooter", "is_reserved": 0, "lon": -77.02816383333334}, {"fusion_lat": 0.0, "name": "df5b19d5365d93a48bbe3a00cba2fa33", "is_disabled": 0, "rental_uris": {"android": "https://dc.lft.to/lastmile_qr_scan", "ios": "https://dc.lft.to/lastmile_qr_scan"}, "fusion_lon": 0.0, "lat": 38.916058166666666, "bike_id": "df5b19d5365d93a48bbe3a00cba2fa33", "type": "electric_scooter", "is_reserved": 0, "lon": -77.03120633333333}, {"fusion_lat": 0.0, "name": "0f6abff86348be3e7e0ff5afeea5142f", "is_disabled": 0, "rental_uris": {"android": "https://dc.lft.to/lastmile_qr_scan", "ios": "https://dc.lft.to/lastmile_qr_scan"}, "fusion_lon": 0.0, "lat": 38.90032766666667, "bike_id": "0f6abff86348be3e7e0ff5afeea5142f", "type": "electric_scooter", "is_reserved": 0, "lon": -77.03500866666667}, {"fusion_lat": 0.0, "name": "cbe06b22b38a1ef411c97edd61116a96", "is_disabled": 0, "rental_uris": {"android": "https://dc.lft.to/lastmile_qr_scan", "ios": "https://dc.lft.to/lastmile_qr_scan"}, "fusion_lon": 0.0, "lat": 38.885276166666664, "bike_id": "cbe06b22b38a1ef411c97edd61116a96", "type": "electric_scooter", "is_reserved": 0, "lon": -76.92919883333333}, {"fusion_lat": 0.0, "name": "2d15724fd46bb3037432c1c471ea7845", "is_disabled": 0, "rental_uris": {"android": "https://dc.lft.to/lastmile_qr_scan", "ios": "https://dc.lft.to/lastmile_qr_scan"}, "fusion_lon": 0.0, "lat": 38.875796666666666, "bike_id": "2d15724fd46bb3037432c1c471ea7845", "type": "electric_bike", "is_reserved": 0, "lon": -77.23412166666667}, {"fusion_lat": 0.0, "name": "559307b7a4cacfb466a6dfd471025a95", "is_disabled": 0, "rental_uris": {"android": "https://dc.lft.to/lastmile_qr_scan", "ios": "https://dc.lft.to/lastmile_qr_scan"}, "fusion_lon": 0.0, "lat": 38.89842466666666, "bike_id": "559307b7a4cacfb466a6dfd471025a95", "type": "electric_scooter", "is_reserved": 0, "lon": -77.00750333333333}, {"fusion_lat": 0.0, "name": "02977c0c7f29242308705ec5788b8542", "is_disabled": 0, "rental_uris": {"android": "https://dc.lft.to/lastmile_qr_scan", "ios": "https://dc.lft.to/lastmile_qr_scan"}, "fusion_lon": 0.0, "lat": 38.95062083333333, "bike_id": "02977c0c7f29242308705ec5788b8542", "type": "electric_scooter", "is_reserved": 0, "lon": -77.0801975}, {"fusion_lat": 0.0, "name": "7ad0c2b28dfe899cf27d5ce9a6de3430", "is_disabled": 0, "rental_uris": {"android": "https://dc.lft.to/lastmile_qr_scan", "ios": "https://dc.lft.to/lastmile_qr_scan"}, "fusion_lon": 0.0, "lat": 38.91820083333333, "bike_id": "7ad0c2b28dfe899cf27d5ce9a6de3430", "type": "electric_scooter", "is_reserved": 0, "lon": -77.03999716666667}, {"fusion_lat": 0.0, "name": "36eb55a404a71405f84259eb082174cf", "is_disabled": 0, "rental_uris": {"android": "https://dc.lft.to/lastmile_qr_scan", "ios": "https://dc.lft.to/lastmile_qr_scan"}, "fusion_lon": 0.0, "lat": 38.918862, "bike_id": "36eb55a404a71405f84259eb082174cf", "type": "electric_scooter", "is_reserved": 0, "lon": -77.04833766666667}, {"fusion_lat": 0.0, "name": "975341f8607a03ad6adcaad52f5522cc", "is_disabled": 0, "rental_uris": {"android": "https://dc.lft.to/lastmile_qr_scan", "ios": "https://dc.lft.to/lastmile_qr_scan"}, "fusion_lon": 0.0, "lat": 38.95631766666666, "bike_id": "975341f8607a03ad6adcaad52f5522cc", "type": "electric_scooter", "is_reserved": 0, "lon": -77.0913375}, {"fusion_lat": 0.0, "name": "2cdac809f8f3b3adeabdae8982320e0d", "is_disabled": 0, "rental_uris": {"android": "https://dc.lft.to/lastmile_qr_scan", "ios": "https://dc.lft.to/lastmile_qr_scan"}, "fusion_lon": 0.0, "lat": 38.9094915, "bike_id": "2cdac809f8f3b3adeabdae8982320e0d", "type": "electric_scooter", "is_reserved": 0, "lon": -77.03391066666667}, {"fusion_lat": 0.0, "name": "8855fcebcd624258fa09b7567ee0a8c4", "is_disabled": 0, "rental_uris": {"android": "https://dc.lft.to/lastmile_qr_scan", "ios": "https://dc.lft.to/lastmile_qr_scan"}, "fusion_lon": 0.0, "lat": 38.876228166666664, "bike_id": "8855fcebcd624258fa09b7567ee0a8c4", "type": "electric_scooter", "is_reserved": 0, "lon": -77.015629}, {"fusion_lat": 0.0, "name": "c21f636c576eab23a555a695273654b4", "is_disabled": 0, "rental_uris": {"android": "https://dc.lft.to/lastmile_qr_scan", "ios": "https://dc.lft.to/lastmile_qr_scan"}, "fusion_lon": 0.0, "lat": 38.906533, "bike_id": "c21f636c576eab23a555a695273654b4", "type": "electric_scooter", "is_reserved": 0, "lon": -77.010268}, {"fusion_lat": 0.0, "name": "01cd54bb847a9a757b037d59171015f0", "is_disabled": 0, "rental_uris": {"android": "https://dc.lft.to/lastmile_qr_scan", "ios": "https://dc.lft.to/lastmile_qr_scan"}, "fusion_lon": 0.0, "lat": 38.89729083333334, "bike_id": "01cd54bb847a9a757b037d59171015f0", "type": "electric_scooter", "is_reserved": 0, "lon": -77.049935}, {"fusion_lat": 0.0, "name": "91cb6c500bb930625bbbde105f21c27e", "is_disabled": 0, "rental_uris": {"android": "https://dc.lft.to/lastmile_qr_scan", "ios": "https://dc.lft.to/lastmile_qr_scan"}, "fusion_lon": 0.0, "lat": 38.9037625, "bike_id": "91cb6c500bb930625bbbde105f21c27e", "type": "electric_scooter", "is_reserved": 0, "lon": -77.04444616666666}, {"fusion_lat": 0.0, "name": "3b035411238dc29ecaee5bffdbbcdbb7", "is_disabled": 0, "rental_uris": {"android": "https://dc.lft.to/lastmile_qr_scan", "ios": "https://dc.lft.to/lastmile_qr_scan"}, "fusion_lon": 0.0, "lat": 38.90966933333333, "bike_id": "3b035411238dc29ecaee5bffdbbcdbb7", "type": "electric_scooter", "is_reserved": 0, "lon": -77.04777333333334}, {"fusion_lat": 0.0, "name": "f0ca37074c3db796c808f199219c83a9", "is_disabled": 0, "rental_uris": {"android": "https://dc.lft.to/lastmile_qr_scan", "ios": "https://dc.lft.to/lastmile_qr_scan"}, "fusion_lon": 0.0, "lat": 38.86450383333333, "bike_id": "f0ca37074c3db796c808f199219c83a9", "type": "electric_bike", "is_reserved": 0, "lon": -77.1068595}, {"fusion_lat": 0.0, "name": "e33234817d8e2b437599f0671315c51e", "is_disabled": 0, "rental_uris": {"android": "https://dc.lft.to/lastmile_qr_scan", "ios": "https://dc.lft.to/lastmile_qr_scan"}, "fusion_lon": 0.0, "lat": 38.876593, "bike_id": "e33234817d8e2b437599f0671315c51e", "type": "electric_scooter", "is_reserved": 0, "lon": -77.01612516666667}, {"fusion_lat": 0.0, "name": "b885fde449790066e3e98e4cd09e6000", "is_disabled": 0, "rental_uris": {"android": "https://dc.lft.to/lastmile_qr_scan", "ios": "https://dc.lft.to/lastmile_qr_scan"}, "fusion_lon": 0.0, "lat": 38.873048833333335, "bike_id": "b885fde449790066e3e98e4cd09e6000", "type": "electric_scooter", "is_reserved": 0, "lon": -77.00032216666666}, {"fusion_lat": 0.0, "name": "c4a864e92b9a05b3f7a02b138d865489", "is_disabled": 0, "rental_uris": {"android": "https://dc.lft.to/lastmile_qr_scan", "ios": "https://dc.lft.to/lastmile_qr_scan"}, "fusion_lon": 0.0, "lat": 38.902556, "bike_id": "c4a864e92b9a05b3f7a02b138d865489", "type": "electric_scooter", "is_reserved": 0, "lon": -77.04373666666666}, {"fusion_lat": 0.0, "name": "7a1caab4dbcca5275a48c826fba87471", "is_disabled": 0, "rental_uris": {"android": "https://dc.lft.to/lastmile_qr_scan", "ios": "https://dc.lft.to/lastmile_qr_scan"}, "fusion_lon": 0.0, "lat": 38.919262833333335, "bike_id": "7a1caab4dbcca5275a48c826fba87471", "type": "electric_scooter", "is_reserved": 0, "lon": -77.00981966666667}, {"fusion_lat": 0.0, "name": "921fd87ba4e87f2ce950a72d97e70894", "is_disabled": 0, "rental_uris": {"android": "https://dc.lft.to/lastmile_qr_scan", "ios": "https://dc.lft.to/lastmile_qr_scan"}, "fusion_lon": 0.0, "lat": 38.880322, "bike_id": "921fd87ba4e87f2ce950a72d97e70894", "type": "electric_scooter", "is_reserved": 0, "lon": -77.02456466666666}, {"fusion_lat": 0.0, "name": "87594162b3885fcc66b6437bc3c75682", "is_disabled": 0, "rental_uris": {"android": "https://dc.lft.to/lastmile_qr_scan", "ios": "https://dc.lft.to/lastmile_qr_scan"}, "fusion_lon": 0.0, "lat": 38.88299816666667, "bike_id": "87594162b3885fcc66b6437bc3c75682", "type": "electric_bike", "is_reserved": 0, "lon": -77.0302115}, {"fusion_lat": 0.0, "name": "6bea9ce21f604634749d86563f315950", "is_disabled": 0, "rental_uris": {"android": "https://dc.lft.to/lastmile_qr_scan", "ios": "https://dc.lft.to/lastmile_qr_scan"}, "fusion_lon": 0.0, "lat": 38.900245, "bike_id": "6bea9ce21f604634749d86563f315950", "type": "electric_scooter", "is_reserved": 0, "lon": -76.99443866666667}, {"fusion_lat": 0.0, "name": "8b3a4b19e58b87e1c005cb1b689dc14f", "is_disabled": 0, "rental_uris": {"android": "https://dc.lft.to/lastmile_qr_scan", "ios": "https://dc.lft.to/lastmile_qr_scan"}, "fusion_lon": 0.0, "lat": 38.95636116666667, "bike_id": "8b3a4b19e58b87e1c005cb1b689dc14f", "type": "electric_scooter", "is_reserved": 0, "lon": -77.03302333333333}, {"fusion_lat": 0.0, "name": "7a41667a52245888103ed3d1cd19631f", "is_disabled": 0, "rental_uris": {"android": "https://dc.lft.to/lastmile_qr_scan", "ios": "https://dc.lft.to/lastmile_qr_scan"}, "fusion_lon": 0.0, "lat": 38.8957175, "bike_id": "7a41667a52245888103ed3d1cd19631f", "type": "electric_scooter", "is_reserved": 0, "lon": -77.02004666666667}, {"fusion_lat": 0.0, "name": "5596eabaed006fb0ee9d2b2016b99330", "is_disabled": 0, "rental_uris": {"android": "https://dc.lft.to/lastmile_qr_scan", "ios": "https://dc.lft.to/lastmile_qr_scan"}, "fusion_lon": 0.0, "lat": 38.93906116666667, "bike_id": "5596eabaed006fb0ee9d2b2016b99330", "type": "electric_scooter", "is_reserved": 0, "lon": -77.03326816666667}, {"fusion_lat": 0.0, "name": "14bc728b8a35cbf4880862139b5fa316", "is_disabled": 0, "rental_uris": {"android": "https://dc.lft.to/lastmile_qr_scan", "ios": "https://dc.lft.to/lastmile_qr_scan"}, "fusion_lon": 0.0, "lat": 38.9164425, "bike_id": "14bc728b8a35cbf4880862139b5fa316", "type": "electric_scooter", "is_reserved": 0, "lon": -77.01739183333333}, {"fusion_lat": 0.0, "name": "68ceab9e39ea4f7138416af2b717dca3", "is_disabled": 0, "rental_uris": {"android": "https://dc.lft.to/lastmile_qr_scan", "ios": "https://dc.lft.to/lastmile_qr_scan"}, "fusion_lon": 0.0, "lat": 38.9167115, "bike_id": "68ceab9e39ea4f7138416af2b717dca3", "type": "electric_scooter", "is_reserved": 0, "lon": -77.036634}, {"fusion_lat": 0.0, "name": "ca73cdfdbb058483aa34e34250651644", "is_disabled": 0, "rental_uris": {"android": "https://dc.lft.to/lastmile_qr_scan", "ios": "https://dc.lft.to/lastmile_qr_scan"}, "fusion_lon": 0.0, "lat": 38.94133016666667, "bike_id": "ca73cdfdbb058483aa34e34250651644", "type": "electric_scooter", "is_reserved": 0, "lon": -77.01544516666667}, {"fusion_lat": 0.0, "name": "9ea8e7b95dac38a866b6223213b65ad1", "is_disabled": 0, "rental_uris": {"android": "https://dc.lft.to/lastmile_qr_scan", "ios": "https://dc.lft.to/lastmile_qr_scan"}, "fusion_lon": 0.0, "lat": 38.89617483333333, "bike_id": "9ea8e7b95dac38a866b6223213b65ad1", "type": "electric_scooter", "is_reserved": 0, "lon": -77.02586233333334}, {"fusion_lat": 0.0, "name": "8bcf0d304a8992f53b59b06d22c18e29", "is_disabled": 0, "rental_uris": {"android": "https://dc.lft.to/lastmile_qr_scan", "ios": "https://dc.lft.to/lastmile_qr_scan"}, "fusion_lon": 0.0, "lat": 38.950183333333335, "bike_id": "8bcf0d304a8992f53b59b06d22c18e29", "type": "electric_scooter", "is_reserved": 0, "lon": -77.0334955}, {"fusion_lat": 0.0, "name": "c5b42da926c80ff4b99df9ed610d8506", "is_disabled": 0, "rental_uris": {"android": "https://dc.lft.to/lastmile_qr_scan", "ios": "https://dc.lft.to/lastmile_qr_scan"}, "fusion_lon": 0.0, "lat": 38.922393166666666, "bike_id": "c5b42da926c80ff4b99df9ed610d8506", "type": "electric_scooter", "is_reserved": 0, "lon": -77.0424485}, {"fusion_lat": 0.0, "name": "b59ecd8679b02fb5e60d309f7011eace", "is_disabled": 0, "rental_uris": {"android": "https://dc.lft.to/lastmile_qr_scan", "ios": "https://dc.lft.to/lastmile_qr_scan"}, "fusion_lon": 0.0, "lat": 38.927182, "bike_id": "b59ecd8679b02fb5e60d309f7011eace", "type": "electric_scooter", "is_reserved": 0, "lon": -77.0232205}, {"fusion_lat": 0.0, "name": "98698a830dc0e7443759fb6f8c8850fc", "is_disabled": 0, "rental_uris": {"android": "https://dc.lft.to/lastmile_qr_scan", "ios": "https://dc.lft.to/lastmile_qr_scan"}, "fusion_lon": 0.0, "lat": 38.89984233333333, "bike_id": "98698a830dc0e7443759fb6f8c8850fc", "type": "electric_scooter", "is_reserved": 0, "lon": -77.05555216666667}, {"fusion_lat": 0.0, "name": "aa9c5eed0199986f3258cd5d6c6dddbc", "is_disabled": 0, "rental_uris": {"android": "https://dc.lft.to/lastmile_qr_scan", "ios": "https://dc.lft.to/lastmile_qr_scan"}, "fusion_lon": 0.0, "lat": 38.892233833333336, "bike_id": "aa9c5eed0199986f3258cd5d6c6dddbc", "type": "electric_scooter", "is_reserved": 0, "lon": -77.04310133333334}, {"fusion_lat": 0.0, "name": "eb0061f3d3fdfc2b9506b34eae14388c", "is_disabled": 0, "rental_uris": {"android": "https://dc.lft.to/lastmile_qr_scan", "ios": "https://dc.lft.to/lastmile_qr_scan"}, "fusion_lon": 0.0, "lat": 38.911516666666664, "bike_id": "eb0061f3d3fdfc2b9506b34eae14388c", "type": "electric_bike", "is_reserved": 0, "lon": -77.00281383333333}, {"fusion_lat": 0.0, "name": "cfa25d0fc20f1e961430a1301a601abc", "is_disabled": 0, "rental_uris": {"android": "https://dc.lft.to/lastmile_qr_scan", "ios": "https://dc.lft.to/lastmile_qr_scan"}, "fusion_lon": 0.0, "lat": 38.934298, "bike_id": "cfa25d0fc20f1e961430a1301a601abc", "type": "electric_scooter", "is_reserved": 0, "lon": -77.04425083333334}, {"fusion_lat": 0.0, "name": "784430ab8dae0659b4a7e74c1df687a8", "is_disabled": 0, "rental_uris": {"android": "https://dc.lft.to/lastmile_qr_scan", "ios": "https://dc.lft.to/lastmile_qr_scan"}, "fusion_lon": 0.0, "lat": 38.93182933333333, "bike_id": "784430ab8dae0659b4a7e74c1df687a8", "type": "electric_scooter", "is_reserved": 0, "lon": -77.042953}, {"fusion_lat": 0.0, "name": "ef22d17ba29beddae0951bfafaafddfe", "is_disabled": 0, "rental_uris": {"android": "https://dc.lft.to/lastmile_qr_scan", "ios": "https://dc.lft.to/lastmile_qr_scan"}, "fusion_lon": 0.0, "lat": 38.89225733333333, "bike_id": "ef22d17ba29beddae0951bfafaafddfe", "type": "electric_scooter", "is_reserved": 0, "lon": -77.043332}, {"fusion_lat": 0.0, "name": "731684ff4b331d271766b3360507c8a5", "is_disabled": 0, "rental_uris": {"android": "https://dc.lft.to/lastmile_qr_scan", "ios": "https://dc.lft.to/lastmile_qr_scan"}, "fusion_lon": 0.0, "lat": 38.9056025, "bike_id": "731684ff4b331d271766b3360507c8a5", "type": "electric_scooter", "is_reserved": 0, "lon": -77.013105}, {"fusion_lat": 0.0, "name": "8f79b2338af84c6bbcd185c389f243c7", "is_disabled": 0, "rental_uris": {"android": "https://dc.lft.to/lastmile_qr_scan", "ios": "https://dc.lft.to/lastmile_qr_scan"}, "fusion_lon": 0.0, "lat": 38.903302333333336, "bike_id": "8f79b2338af84c6bbcd185c389f243c7", "type": "electric_scooter", "is_reserved": 0, "lon": -77.06515483333334}, {"fusion_lat": 0.0, "name": "009307123d3d7662338a37afa9a24a4d", "is_disabled": 0, "rental_uris": {"android": "https://dc.lft.to/lastmile_qr_scan", "ios": "https://dc.lft.to/lastmile_qr_scan"}, "fusion_lon": 0.0, "lat": 38.896463, "bike_id": "009307123d3d7662338a37afa9a24a4d", "type": "electric_scooter", "is_reserved": 0, "lon": -77.04662866666666}, {"fusion_lat": 0.0, "name": "94accaf11340e5775bd65b80ebace2c6", "is_disabled": 0, "rental_uris": {"android": "https://dc.lft.to/lastmile_qr_scan", "ios": "https://dc.lft.to/lastmile_qr_scan"}, "fusion_lon": 0.0, "lat": 38.917965333333335, "bike_id": "94accaf11340e5775bd65b80ebace2c6", "type": "electric_scooter", "is_reserved": 0, "lon": -77.03450966666666}, {"fusion_lat": 0.0, "name": "84726130423542326d18c63f23e46bbb", "is_disabled": 0, "rental_uris": {"android": "https://dc.lft.to/lastmile_qr_scan", "ios": "https://dc.lft.to/lastmile_qr_scan"}, "fusion_lon": 0.0, "lat": 38.930669333333334, "bike_id": "84726130423542326d18c63f23e46bbb", "type": "electric_scooter", "is_reserved": 0, "lon": -77.02973616666667}, {"fusion_lat": 0.0, "name": "b17a2d2e307649e1cb2f0d96373220eb", "is_disabled": 0, "rental_uris": {"android": "https://dc.lft.to/lastmile_qr_scan", "ios": "https://dc.lft.to/lastmile_qr_scan"}, "fusion_lon": 0.0, "lat": 38.88489383333334, "bike_id": "b17a2d2e307649e1cb2f0d96373220eb", "type": "electric_scooter", "is_reserved": 0, "lon": -77.007122}, {"fusion_lat": 0.0, "name": "94527f041f9edb9dd671c593c66f0d59", "is_disabled": 0, "rental_uris": {"android": "https://dc.lft.to/lastmile_qr_scan", "ios": "https://dc.lft.to/lastmile_qr_scan"}, "fusion_lon": 0.0, "lat": 38.867638, "bike_id": "94527f041f9edb9dd671c593c66f0d59", "type": "electric_scooter", "is_reserved": 0, "lon": -76.98276633333333}, {"fusion_lat": 0.0, "name": "aad200c4807332d550ca2d728e431454", "is_disabled": 0, "rental_uris": {"android": "https://dc.lft.to/lastmile_qr_scan", "ios": "https://dc.lft.to/lastmile_qr_scan"}, "fusion_lon": 0.0, "lat": 38.88902083333333, "bike_id": "aad200c4807332d550ca2d728e431454", "type": "electric_scooter", "is_reserved": 0, "lon": -76.97719866666667}, {"fusion_lat": 0.0, "name": "6c3471b933302bc8b2ec51071b1f30f3", "is_disabled": 0, "rental_uris": {"android": "https://dc.lft.to/lastmile_qr_scan", "ios": "https://dc.lft.to/lastmile_qr_scan"}, "fusion_lon": 0.0, "lat": 38.896427, "bike_id": "6c3471b933302bc8b2ec51071b1f30f3", "type": "electric_scooter", "is_reserved": 0, "lon": -77.00913483333333}, {"fusion_lat": 0.0, "name": "d498115d09921af6bc4e10041a43a5af", "is_disabled": 0, "rental_uris": {"android": "https://dc.lft.to/lastmile_qr_scan", "ios": "https://dc.lft.to/lastmile_qr_scan"}, "fusion_lon": 0.0, "lat": 38.901291666666665, "bike_id": "d498115d09921af6bc4e10041a43a5af", "type": "electric_scooter", "is_reserved": 0, "lon": -77.04893816666667}, {"fusion_lat": 0.0, "name": "b2d1cd36bda6f555bb02fef8c30c7c6d", "is_disabled": 0, "rental_uris": {"android": "https://dc.lft.to/lastmile_qr_scan", "ios": "https://dc.lft.to/lastmile_qr_scan"}, "fusion_lon": 0.0, "lat": 38.915370833333334, "bike_id": "b2d1cd36bda6f555bb02fef8c30c7c6d", "type": "electric_scooter", "is_reserved": 0, "lon": -77.012255}, {"fusion_lat": 0.0, "name": "e2f490adddaa4738f2f75f430cfd35c9", "is_disabled": 0, "rental_uris": {"android": "https://dc.lft.to/lastmile_qr_scan", "ios": "https://dc.lft.to/lastmile_qr_scan"}, "fusion_lon": 0.0, "lat": 38.92114616666667, "bike_id": "e2f490adddaa4738f2f75f430cfd35c9", "type": "electric_scooter", "is_reserved": 0, "lon": -77.04390933333333}, {"fusion_lat": 0.0, "name": "af7a1f88edfda36eb24c879f5fb9f9e8", "is_disabled": 0, "rental_uris": {"android": "https://dc.lft.to/lastmile_qr_scan", "ios": "https://dc.lft.to/lastmile_qr_scan"}, "fusion_lon": 0.0, "lat": 38.919199166666665, "bike_id": "af7a1f88edfda36eb24c879f5fb9f9e8", "type": "electric_scooter", "is_reserved": 0, "lon": -77.03174266666667}, {"fusion_lat": 0.0, "name": "376bcda32cfa789db6076e7f0823956c", "is_disabled": 0, "rental_uris": {"android": "https://dc.lft.to/lastmile_qr_scan", "ios": "https://dc.lft.to/lastmile_qr_scan"}, "fusion_lon": 0.0, "lat": 38.91512316666667, "bike_id": "376bcda32cfa789db6076e7f0823956c", "type": "electric_scooter", "is_reserved": 0, "lon": -77.01990583333334}, {"fusion_lat": 0.0, "name": "8ec2b39d7154af77ef2786711c4c49c8", "is_disabled": 0, "rental_uris": {"android": "https://dc.lft.to/lastmile_qr_scan", "ios": "https://dc.lft.to/lastmile_qr_scan"}, "fusion_lon": 0.0, "lat": 38.928200833333335, "bike_id": "8ec2b39d7154af77ef2786711c4c49c8", "type": "electric_scooter", "is_reserved": 0, "lon": -77.0545185}, {"fusion_lat": 0.0, "name": "6dfde9981c6b8873322f46890541adcc", "is_disabled": 0, "rental_uris": {"android": "https://dc.lft.to/lastmile_qr_scan", "ios": "https://dc.lft.to/lastmile_qr_scan"}, "fusion_lon": 0.0, "lat": 38.9141475, "bike_id": "6dfde9981c6b8873322f46890541adcc", "type": "electric_scooter", "is_reserved": 0, "lon": -77.04501633333334}, {"fusion_lat": 0.0, "name": "bd67fc4547d4591d9a9d05f472be6a2f", "is_disabled": 0, "rental_uris": {"android": "https://dc.lft.to/lastmile_qr_scan", "ios": "https://dc.lft.to/lastmile_qr_scan"}, "fusion_lon": 0.0, "lat": 38.886243, "bike_id": "bd67fc4547d4591d9a9d05f472be6a2f", "type": "electric_scooter", "is_reserved": 0, "lon": -77.01537783333333}, {"fusion_lat": 0.0, "name": "2ea72680cf1c161f206c12ea63c338cb", "is_disabled": 0, "rental_uris": {"android": "https://dc.lft.to/lastmile_qr_scan", "ios": "https://dc.lft.to/lastmile_qr_scan"}, "fusion_lon": 0.0, "lat": 39.0320605, "bike_id": "2ea72680cf1c161f206c12ea63c338cb", "type": "electric_bike", "is_reserved": 0, "lon": -77.04726666666667}, {"fusion_lat": 0.0, "name": "c94f8c39a81ee2e82a9bd35a51df634c", "is_disabled": 0, "rental_uris": {"android": "https://dc.lft.to/lastmile_qr_scan", "ios": "https://dc.lft.to/lastmile_qr_scan"}, "fusion_lon": 0.0, "lat": 38.9068725, "bike_id": "c94f8c39a81ee2e82a9bd35a51df634c", "type": "electric_scooter", "is_reserved": 0, "lon": -76.9849785}, {"fusion_lat": 0.0, "name": "4c494717fd5f68559878e6b98e2206c8", "is_disabled": 0, "rental_uris": {"android": "https://dc.lft.to/lastmile_qr_scan", "ios": "https://dc.lft.to/lastmile_qr_scan"}, "fusion_lon": 0.0, "lat": 38.887681666666666, "bike_id": "4c494717fd5f68559878e6b98e2206c8", "type": "electric_scooter", "is_reserved": 0, "lon": -76.9775055}, {"fusion_lat": 0.0, "name": "38e784111c6626bc6f2e809fd7d0f763", "is_disabled": 0, "rental_uris": {"android": "https://dc.lft.to/lastmile_qr_scan", "ios": "https://dc.lft.to/lastmile_qr_scan"}, "fusion_lon": 0.0, "lat": 38.892339666666665, "bike_id": "38e784111c6626bc6f2e809fd7d0f763", "type": "electric_scooter", "is_reserved": 0, "lon": -77.01708}, {"fusion_lat": 0.0, "name": "d79edf707aae4d8265aba101b2e4dc63", "is_disabled": 0, "rental_uris": {"android": "https://dc.lft.to/lastmile_qr_scan", "ios": "https://dc.lft.to/lastmile_qr_scan"}, "fusion_lon": 0.0, "lat": 38.934085, "bike_id": "d79edf707aae4d8265aba101b2e4dc63", "type": "electric_scooter", "is_reserved": 0, "lon": -77.0326415}, {"fusion_lat": 0.0, "name": "18a027de988a7781d29f0788dc70cd12", "is_disabled": 0, "rental_uris": {"android": "https://dc.lft.to/lastmile_qr_scan", "ios": "https://dc.lft.to/lastmile_qr_scan"}, "fusion_lon": 0.0, "lat": 38.854614, "bike_id": "18a027de988a7781d29f0788dc70cd12", "type": "electric_scooter", "is_reserved": 0, "lon": -76.97233266666667}, {"fusion_lat": 0.0, "name": "d7045097238194ad8cc879a442e09300", "is_disabled": 0, "rental_uris": {"android": "https://dc.lft.to/lastmile_qr_scan", "ios": "https://dc.lft.to/lastmile_qr_scan"}, "fusion_lon": 0.0, "lat": 38.916156, "bike_id": "d7045097238194ad8cc879a442e09300", "type": "electric_scooter", "is_reserved": 0, "lon": -77.02287833333334}, {"fusion_lat": 0.0, "name": "5653ce13cb56b3b843c783dd4a0a327b", "is_disabled": 0, "rental_uris": {"android": "https://dc.lft.to/lastmile_qr_scan", "ios": "https://dc.lft.to/lastmile_qr_scan"}, "fusion_lon": 0.0, "lat": 38.857001333333336, "bike_id": "5653ce13cb56b3b843c783dd4a0a327b", "type": "electric_scooter", "is_reserved": 0, "lon": -76.99594433333333}, {"fusion_lat": 0.0, "name": "6b93661179e8e2c9f4e4689756f2620d", "is_disabled": 0, "rental_uris": {"android": "https://dc.lft.to/lastmile_qr_scan", "ios": "https://dc.lft.to/lastmile_qr_scan"}, "fusion_lon": 0.0, "lat": 38.89630066666667, "bike_id": "6b93661179e8e2c9f4e4689756f2620d", "type": "electric_scooter", "is_reserved": 0, "lon": -76.9883435}, {"fusion_lat": 0.0, "name": "7557af43459b3cb6b14b3f9a4349aa6b", "is_disabled": 0, "rental_uris": {"android": "https://dc.lft.to/lastmile_qr_scan", "ios": "https://dc.lft.to/lastmile_qr_scan"}, "fusion_lon": 0.0, "lat": 38.89639566666666, "bike_id": "7557af43459b3cb6b14b3f9a4349aa6b", "type": "electric_scooter", "is_reserved": 0, "lon": -77.00923133333333}, {"fusion_lat": 0.0, "name": "0b17830cc7f760ac6bba37d479967de0", "is_disabled": 0, "rental_uris": {"android": "https://dc.lft.to/lastmile_qr_scan", "ios": "https://dc.lft.to/lastmile_qr_scan"}, "fusion_lon": 0.0, "lat": 38.915931, "bike_id": "0b17830cc7f760ac6bba37d479967de0", "type": "electric_scooter", "is_reserved": 0, "lon": -76.9798105}, {"fusion_lat": 0.0, "name": "f90086eb5dafdf571e1c0aae0d993349", "is_disabled": 0, "rental_uris": {"android": "https://dc.lft.to/lastmile_qr_scan", "ios": "https://dc.lft.to/lastmile_qr_scan"}, "fusion_lon": 0.0, "lat": 38.91705666666667, "bike_id": "f90086eb5dafdf571e1c0aae0d993349", "type": "electric_scooter", "is_reserved": 0, "lon": -77.02892016666667}, {"fusion_lat": 0.0, "name": "4cff8f7b75c89cb1489f79e9c9b8f669", "is_disabled": 0, "rental_uris": {"android": "https://dc.lft.to/lastmile_qr_scan", "ios": "https://dc.lft.to/lastmile_qr_scan"}, "fusion_lon": 0.0, "lat": 38.89858266666667, "bike_id": "4cff8f7b75c89cb1489f79e9c9b8f669", "type": "electric_scooter", "is_reserved": 0, "lon": -77.0287105}, {"fusion_lat": 0.0, "name": "00133ca7042b09a33257537f07a76832", "is_disabled": 0, "rental_uris": {"android": "https://dc.lft.to/lastmile_qr_scan", "ios": "https://dc.lft.to/lastmile_qr_scan"}, "fusion_lon": 0.0, "lat": 38.902401833333336, "bike_id": "00133ca7042b09a33257537f07a76832", "type": "electric_scooter", "is_reserved": 0, "lon": -77.00200216666667}, {"fusion_lat": 0.0, "name": "1f9ed0f99e822acd4670cb921bcedd89", "is_disabled": 0, "rental_uris": {"android": "https://dc.lft.to/lastmile_qr_scan", "ios": "https://dc.lft.to/lastmile_qr_scan"}, "fusion_lon": 0.0, "lat": 38.89101133333333, "bike_id": "1f9ed0f99e822acd4670cb921bcedd89", "type": "electric_bike", "is_reserved": 0, "lon": -77.1841455}, {"fusion_lat": 0.0, "name": "68496606fea556f8f3a193690fba47c6", "is_disabled": 0, "rental_uris": {"android": "https://dc.lft.to/lastmile_qr_scan", "ios": "https://dc.lft.to/lastmile_qr_scan"}, "fusion_lon": 0.0, "lat": 38.92850033333333, "bike_id": "68496606fea556f8f3a193690fba47c6", "type": "electric_scooter", "is_reserved": 0, "lon": -77.0351565}, {"fusion_lat": 0.0, "name": "555eca7702b4370677298221526c2893", "is_disabled": 0, "rental_uris": {"android": "https://dc.lft.to/lastmile_qr_scan", "ios": "https://dc.lft.to/lastmile_qr_scan"}, "fusion_lon": 0.0, "lat": 38.8895555, "bike_id": "555eca7702b4370677298221526c2893", "type": "electric_bike", "is_reserved": 0, "lon": -77.076428}, {"fusion_lat": 0.0, "name": "9d5f9d720a6e10037d1401c3feccdded", "is_disabled": 0, "rental_uris": {"android": "https://dc.lft.to/lastmile_qr_scan", "ios": "https://dc.lft.to/lastmile_qr_scan"}, "fusion_lon": 0.0, "lat": 38.91461966666667, "bike_id": "9d5f9d720a6e10037d1401c3feccdded", "type": "electric_scooter", "is_reserved": 0, "lon": -76.98422583333334}, {"fusion_lat": 0.0, "name": "8d2681d272a56626fe00ef3286689a77", "is_disabled": 0, "rental_uris": {"android": "https://dc.lft.to/lastmile_qr_scan", "ios": "https://dc.lft.to/lastmile_qr_scan"}, "fusion_lon": 0.0, "lat": 38.896097833333336, "bike_id": "8d2681d272a56626fe00ef3286689a77", "type": "electric_scooter", "is_reserved": 0, "lon": -76.9927905}, {"fusion_lat": 0.0, "name": "a5b70a1435099c62b54867815811db78", "is_disabled": 0, "rental_uris": {"android": "https://dc.lft.to/lastmile_qr_scan", "ios": "https://dc.lft.to/lastmile_qr_scan"}, "fusion_lon": 0.0, "lat": 38.904495, "bike_id": "a5b70a1435099c62b54867815811db78", "type": "electric_scooter", "is_reserved": 0, "lon": -76.9742695}, {"fusion_lat": 0.0, "name": "03d1ed288ecc287b17e19e38b07256e9", "is_disabled": 0, "rental_uris": {"android": "https://dc.lft.to/lastmile_qr_scan", "ios": "https://dc.lft.to/lastmile_qr_scan"}, "fusion_lon": 0.0, "lat": 38.908426666666664, "bike_id": "03d1ed288ecc287b17e19e38b07256e9", "type": "electric_scooter", "is_reserved": 0, "lon": -76.99987583333333}, {"fusion_lat": 0.0, "name": "6441b26ec2b2a19eb74443a7c2f11526", "is_disabled": 0, "rental_uris": {"android": "https://dc.lft.to/lastmile_qr_scan", "ios": "https://dc.lft.to/lastmile_qr_scan"}, "fusion_lon": 0.0, "lat": 38.90149533333334, "bike_id": "6441b26ec2b2a19eb74443a7c2f11526", "type": "electric_scooter", "is_reserved": 0, "lon": -77.00921216666667}, {"fusion_lat": 0.0, "name": "782ac09c7252350541969904e6852813", "is_disabled": 0, "rental_uris": {"android": "https://dc.lft.to/lastmile_qr_scan", "ios": "https://dc.lft.to/lastmile_qr_scan"}, "fusion_lon": 0.0, "lat": 38.932562833333336, "bike_id": "782ac09c7252350541969904e6852813", "type": "electric_scooter", "is_reserved": 0, "lon": -77.03103433333334}, {"fusion_lat": 0.0, "name": "391bc1ec6a52d21688d0b404f2e87f4f", "is_disabled": 0, "rental_uris": {"android": "https://dc.lft.to/lastmile_qr_scan", "ios": "https://dc.lft.to/lastmile_qr_scan"}, "fusion_lon": 0.0, "lat": 38.898997333333334, "bike_id": "391bc1ec6a52d21688d0b404f2e87f4f", "type": "electric_scooter", "is_reserved": 0, "lon": -77.0395085}, {"fusion_lat": 0.0, "name": "4fa5553a9a5739d6c944166e477dbeed", "is_disabled": 0, "rental_uris": {"android": "https://dc.lft.to/lastmile_qr_scan", "ios": "https://dc.lft.to/lastmile_qr_scan"}, "fusion_lon": 0.0, "lat": 38.91717083333333, "bike_id": "4fa5553a9a5739d6c944166e477dbeed", "type": "electric_scooter", "is_reserved": 0, "lon": -77.02813566666667}, {"fusion_lat": 0.0, "name": "ede45ca7495a6ee2e99683b53f4d0a6e", "is_disabled": 0, "rental_uris": {"android": "https://dc.lft.to/lastmile_qr_scan", "ios": "https://dc.lft.to/lastmile_qr_scan"}, "fusion_lon": 0.0, "lat": 38.928712833333336, "bike_id": "ede45ca7495a6ee2e99683b53f4d0a6e", "type": "electric_scooter", "is_reserved": 0, "lon": -77.03218166666667}, {"fusion_lat": 0.0, "name": "2805c6aba35b770f522d143260e81b2a", "is_disabled": 0, "rental_uris": {"android": "https://dc.lft.to/lastmile_qr_scan", "ios": "https://dc.lft.to/lastmile_qr_scan"}, "fusion_lon": 0.0, "lat": 38.91826366666667, "bike_id": "2805c6aba35b770f522d143260e81b2a", "type": "electric_scooter", "is_reserved": 0, "lon": -77.04171633333333}, {"fusion_lat": 0.0, "name": "dae9b5786d8fe089d183321b68e0ab5e", "is_disabled": 0, "rental_uris": {"android": "https://dc.lft.to/lastmile_qr_scan", "ios": "https://dc.lft.to/lastmile_qr_scan"}, "fusion_lon": 0.0, "lat": 38.933970333333335, "bike_id": "dae9b5786d8fe089d183321b68e0ab5e", "type": "electric_scooter", "is_reserved": 0, "lon": -77.0577295}, {"fusion_lat": 0.0, "name": "47d0c9212dd58fc2f5d09ce029fee0f2", "is_disabled": 0, "rental_uris": {"android": "https://dc.lft.to/lastmile_qr_scan", "ios": "https://dc.lft.to/lastmile_qr_scan"}, "fusion_lon": 0.0, "lat": 38.92497783333334, "bike_id": "47d0c9212dd58fc2f5d09ce029fee0f2", "type": "electric_scooter", "is_reserved": 0, "lon": -77.05105566666667}, {"fusion_lat": 0.0, "name": "6bbcbb4453a0696ff0d87cde85d11986", "is_disabled": 0, "rental_uris": {"android": "https://dc.lft.to/lastmile_qr_scan", "ios": "https://dc.lft.to/lastmile_qr_scan"}, "fusion_lon": 0.0, "lat": 38.9026845, "bike_id": "6bbcbb4453a0696ff0d87cde85d11986", "type": "electric_scooter", "is_reserved": 0, "lon": -77.03338783333334}, {"fusion_lat": 0.0, "name": "11ac3bb594ef0b00382728b2fb69b5c3", "is_disabled": 0, "rental_uris": {"android": "https://dc.lft.to/lastmile_qr_scan", "ios": "https://dc.lft.to/lastmile_qr_scan"}, "fusion_lon": 0.0, "lat": 38.92095883333333, "bike_id": "11ac3bb594ef0b00382728b2fb69b5c3", "type": "electric_scooter", "is_reserved": 0, "lon": -77.02215583333333}, {"fusion_lat": 0.0, "name": "275a364047e6dcabb15cc2d494874214", "is_disabled": 0, "rental_uris": {"android": "https://dc.lft.to/lastmile_qr_scan", "ios": "https://dc.lft.to/lastmile_qr_scan"}, "fusion_lon": 0.0, "lat": 38.92731, "bike_id": "275a364047e6dcabb15cc2d494874214", "type": "electric_scooter", "is_reserved": 0, "lon": -77.03464366666667}, {"fusion_lat": 0.0, "name": "bc23a39f8303520d7e358036484451fd", "is_disabled": 0, "rental_uris": {"android": "https://dc.lft.to/lastmile_qr_scan", "ios": "https://dc.lft.to/lastmile_qr_scan"}, "fusion_lon": 0.0, "lat": 38.89387033333333, "bike_id": "bc23a39f8303520d7e358036484451fd", "type": "electric_scooter", "is_reserved": 0, "lon": -76.92307733333334}, {"fusion_lat": 0.0, "name": "624e210cd77665e83f182c7439a307e5", "is_disabled": 0, "rental_uris": {"android": "https://dc.lft.to/lastmile_qr_scan", "ios": "https://dc.lft.to/lastmile_qr_scan"}, "fusion_lon": 0.0, "lat": 38.8986645, "bike_id": "624e210cd77665e83f182c7439a307e5", "type": "electric_scooter", "is_reserved": 0, "lon": -77.02829333333334}, {"fusion_lat": 0.0, "name": "5618b929139a62f70a544800a8e7e725", "is_disabled": 0, "rental_uris": {"android": "https://dc.lft.to/lastmile_qr_scan", "ios": "https://dc.lft.to/lastmile_qr_scan"}, "fusion_lon": 0.0, "lat": 38.9072395, "bike_id": "5618b929139a62f70a544800a8e7e725", "type": "electric_scooter", "is_reserved": 0, "lon": -77.02979}, {"fusion_lat": 0.0, "name": "5eee98de4de8d2b494bb98a96b989b8c", "is_disabled": 0, "rental_uris": {"android": "https://dc.lft.to/lastmile_qr_scan", "ios": "https://dc.lft.to/lastmile_qr_scan"}, "fusion_lon": 0.0, "lat": 38.89968983333333, "bike_id": "5eee98de4de8d2b494bb98a96b989b8c", "type": "electric_scooter", "is_reserved": 0, "lon": -77.01525166666667}, {"fusion_lat": 0.0, "name": "2658411e1c8f0c6894cfd98bb91d3d30", "is_disabled": 0, "rental_uris": {"android": "https://dc.lft.to/lastmile_qr_scan", "ios": "https://dc.lft.to/lastmile_qr_scan"}, "fusion_lon": 0.0, "lat": 38.90779066666666, "bike_id": "2658411e1c8f0c6894cfd98bb91d3d30", "type": "electric_scooter", "is_reserved": 0, "lon": -77.064672}, {"fusion_lat": 0.0, "name": "3af1cb0dd20c7207d4d338601638223f", "is_disabled": 0, "rental_uris": {"android": "https://dc.lft.to/lastmile_qr_scan", "ios": "https://dc.lft.to/lastmile_qr_scan"}, "fusion_lon": 0.0, "lat": 38.90527866666667, "bike_id": "3af1cb0dd20c7207d4d338601638223f", "type": "electric_scooter", "is_reserved": 0, "lon": -77.05141333333333}, {"fusion_lat": 0.0, "name": "52c87f96f8d1c57b5e87a12107079ba6", "is_disabled": 0, "rental_uris": {"android": "https://dc.lft.to/lastmile_qr_scan", "ios": "https://dc.lft.to/lastmile_qr_scan"}, "fusion_lon": 0.0, "lat": 38.89861333333333, "bike_id": "52c87f96f8d1c57b5e87a12107079ba6", "type": "electric_scooter", "is_reserved": 0, "lon": -76.9464155}, {"fusion_lat": 0.0, "name": "6a5ccad6396ed4e0d274ab45dc518b64", "is_disabled": 0, "rental_uris": {"android": "https://dc.lft.to/lastmile_qr_scan", "ios": "https://dc.lft.to/lastmile_qr_scan"}, "fusion_lon": 0.0, "lat": 38.92823883333333, "bike_id": "6a5ccad6396ed4e0d274ab45dc518b64", "type": "electric_scooter", "is_reserved": 0, "lon": -77.02258016666667}, {"fusion_lat": 0.0, "name": "16b18d599e10b4e3b755429d70671376", "is_disabled": 0, "rental_uris": {"android": "https://dc.lft.to/lastmile_qr_scan", "ios": "https://dc.lft.to/lastmile_qr_scan"}, "fusion_lon": 0.0, "lat": 38.933865, "bike_id": "16b18d599e10b4e3b755429d70671376", "type": "electric_scooter", "is_reserved": 0, "lon": -77.02677116666666}, {"fusion_lat": 0.0, "name": "0e34e3c5cdb1ad594807341d84349bb4", "is_disabled": 0, "rental_uris": {"android": "https://dc.lft.to/lastmile_qr_scan", "ios": "https://dc.lft.to/lastmile_qr_scan"}, "fusion_lon": 0.0, "lat": 38.90480983333333, "bike_id": "0e34e3c5cdb1ad594807341d84349bb4", "type": "electric_scooter", "is_reserved": 0, "lon": -77.05144133333333}, {"fusion_lat": 0.0, "name": "db330a48c9ed19f10883764ed56031a8", "is_disabled": 0, "rental_uris": {"android": "https://dc.lft.to/lastmile_qr_scan", "ios": "https://dc.lft.to/lastmile_qr_scan"}, "fusion_lon": 0.0, "lat": 38.912582, "bike_id": "db330a48c9ed19f10883764ed56031a8", "type": "electric_scooter", "is_reserved": 0, "lon": -77.04923933333333}, {"fusion_lat": 0.0, "name": "0e96f589a57a21986eb12c1cb3fb1c96", "is_disabled": 0, "rental_uris": {"android": "https://dc.lft.to/lastmile_qr_scan", "ios": "https://dc.lft.to/lastmile_qr_scan"}, "fusion_lon": 0.0, "lat": 38.939611, "bike_id": "0e96f589a57a21986eb12c1cb3fb1c96", "type": "electric_scooter", "is_reserved": 0, "lon": -77.02498083333333}, {"fusion_lat": 0.0, "name": "45f25c114ba8e5d57c71c281ec3e6143", "is_disabled": 0, "rental_uris": {"android": "https://dc.lft.to/lastmile_qr_scan", "ios": "https://dc.lft.to/lastmile_qr_scan"}, "fusion_lon": 0.0, "lat": 38.860586, "bike_id": "45f25c114ba8e5d57c71c281ec3e6143", "type": "electric_scooter", "is_reserved": 0, "lon": -76.985109}, {"fusion_lat": 0.0, "name": "0b2db7a3c3ca68d715fe403a1e5a3f44", "is_disabled": 0, "rental_uris": {"android": "https://dc.lft.to/lastmile_qr_scan", "ios": "https://dc.lft.to/lastmile_qr_scan"}, "fusion_lon": 0.0, "lat": 38.884273, "bike_id": "0b2db7a3c3ca68d715fe403a1e5a3f44", "type": "electric_scooter", "is_reserved": 0, "lon": -77.025623}, {"fusion_lat": 0.0, "name": "4d29336a59febe96d5466da858fe6492", "is_disabled": 0, "rental_uris": {"android": "https://dc.lft.to/lastmile_qr_scan", "ios": "https://dc.lft.to/lastmile_qr_scan"}, "fusion_lon": 0.0, "lat": 39.05636066666667, "bike_id": "4d29336a59febe96d5466da858fe6492", "type": "electric_bike", "is_reserved": 0, "lon": -77.12527316666667}, {"fusion_lat": 0.0, "name": "b09fd93d9af15eb9915ba07a52f5d83b", "is_disabled": 0, "rental_uris": {"android": "https://dc.lft.to/lastmile_qr_scan", "ios": "https://dc.lft.to/lastmile_qr_scan"}, "fusion_lon": 0.0, "lat": 38.90410933333333, "bike_id": "b09fd93d9af15eb9915ba07a52f5d83b", "type": "electric_scooter", "is_reserved": 0, "lon": -76.9732885}, {"fusion_lat": 0.0, "name": "416d9a2f6957ae79f9bbcc6bd4ffb73b", "is_disabled": 0, "rental_uris": {"android": "https://dc.lft.to/lastmile_qr_scan", "ios": "https://dc.lft.to/lastmile_qr_scan"}, "fusion_lon": 0.0, "lat": 38.902560333333334, "bike_id": "416d9a2f6957ae79f9bbcc6bd4ffb73b", "type": "electric_scooter", "is_reserved": 0, "lon": -76.97456216666667}, {"fusion_lat": 0.0, "name": "070a034b21b150721589f6b9c6fa0688", "is_disabled": 0, "rental_uris": {"android": "https://dc.lft.to/lastmile_qr_scan", "ios": "https://dc.lft.to/lastmile_qr_scan"}, "fusion_lon": 0.0, "lat": 38.90797383333334, "bike_id": "070a034b21b150721589f6b9c6fa0688", "type": "electric_scooter", "is_reserved": 0, "lon": -76.99701883333333}, {"fusion_lat": 0.0, "name": "cc7b78ed34b400477c8919e2d335c3e5", "is_disabled": 0, "rental_uris": {"android": "https://dc.lft.to/lastmile_qr_scan", "ios": "https://dc.lft.to/lastmile_qr_scan"}, "fusion_lon": 0.0, "lat": 38.892525, "bike_id": "cc7b78ed34b400477c8919e2d335c3e5", "type": "electric_scooter", "is_reserved": 0, "lon": -77.04654316666667}, {"fusion_lat": 0.0, "name": "4ddf9dc1d2708985f6f138f4024d1ff1", "is_disabled": 0, "rental_uris": {"android": "https://dc.lft.to/lastmile_qr_scan", "ios": "https://dc.lft.to/lastmile_qr_scan"}, "fusion_lon": 0.0, "lat": 38.91314066666666, "bike_id": "4ddf9dc1d2708985f6f138f4024d1ff1", "type": "electric_scooter", "is_reserved": 0, "lon": -77.0151425}, {"fusion_lat": 0.0, "name": "794ad00651a4b42aaa461de87104ed6d", "is_disabled": 0, "rental_uris": {"android": "https://dc.lft.to/lastmile_qr_scan", "ios": "https://dc.lft.to/lastmile_qr_scan"}, "fusion_lon": 0.0, "lat": 38.9183765, "bike_id": "794ad00651a4b42aaa461de87104ed6d", "type": "electric_scooter", "is_reserved": 0, "lon": -77.03493466666667}, {"fusion_lat": 0.0, "name": "896bacbe50ebfd674e352289cff7cb68", "is_disabled": 0, "rental_uris": {"android": "https://dc.lft.to/lastmile_qr_scan", "ios": "https://dc.lft.to/lastmile_qr_scan"}, "fusion_lon": 0.0, "lat": 38.93021616666667, "bike_id": "896bacbe50ebfd674e352289cff7cb68", "type": "electric_scooter", "is_reserved": 0, "lon": -77.03297816666667}, {"fusion_lat": 0.0, "name": "2a51f7fa61f037c8ed39414697396d0a", "is_disabled": 0, "rental_uris": {"android": "https://dc.lft.to/lastmile_qr_scan", "ios": "https://dc.lft.to/lastmile_qr_scan"}, "fusion_lon": 0.0, "lat": 38.915470666666664, "bike_id": "2a51f7fa61f037c8ed39414697396d0a", "type": "electric_scooter", "is_reserved": 0, "lon": -77.04177133333333}, {"fusion_lat": 0.0, "name": "e2663aba2ca5683ed0aa3dfdb7c3c70d", "is_disabled": 0, "rental_uris": {"android": "https://dc.lft.to/lastmile_qr_scan", "ios": "https://dc.lft.to/lastmile_qr_scan"}, "fusion_lon": 0.0, "lat": 38.9058225, "bike_id": "e2663aba2ca5683ed0aa3dfdb7c3c70d", "type": "electric_scooter", "is_reserved": 0, "lon": -77.00602933333333}, {"fusion_lat": 0.0, "name": "62bfe7422d4394ce4146841a8318451f", "is_disabled": 0, "rental_uris": {"android": "https://dc.lft.to/lastmile_qr_scan", "ios": "https://dc.lft.to/lastmile_qr_scan"}, "fusion_lon": 0.0, "lat": 38.91701333333334, "bike_id": "62bfe7422d4394ce4146841a8318451f", "type": "electric_scooter", "is_reserved": 0, "lon": -77.022971}, {"fusion_lat": 0.0, "name": "a809813c1bedea4f469ed48f2f1efc5e", "is_disabled": 0, "rental_uris": {"android": "https://dc.lft.to/lastmile_qr_scan", "ios": "https://dc.lft.to/lastmile_qr_scan"}, "fusion_lon": 0.0, "lat": 38.85780316666666, "bike_id": "a809813c1bedea4f469ed48f2f1efc5e", "type": "electric_scooter", "is_reserved": 0, "lon": -76.97298166666667}, {"fusion_lat": 0.0, "name": "31de5d0c58d9a913954df189af0c7f3e", "is_disabled": 0, "rental_uris": {"android": "https://dc.lft.to/lastmile_qr_scan", "ios": "https://dc.lft.to/lastmile_qr_scan"}, "fusion_lon": 0.0, "lat": 38.945994, "bike_id": "31de5d0c58d9a913954df189af0c7f3e", "type": "electric_scooter", "is_reserved": 0, "lon": -77.029804}, {"fusion_lat": 0.0, "name": "19c40352af1b8fb6d32329bbbbf2c7bc", "is_disabled": 0, "rental_uris": {"android": "https://dc.lft.to/lastmile_qr_scan", "ios": "https://dc.lft.to/lastmile_qr_scan"}, "fusion_lon": 0.0, "lat": 38.8450765, "bike_id": "19c40352af1b8fb6d32329bbbbf2c7bc", "type": "electric_bike", "is_reserved": 0, "lon": -76.99352016666667}, {"fusion_lat": 0.0, "name": "589e507d518ce66483b18d3c93ab1d1b", "is_disabled": 0, "rental_uris": {"android": "https://dc.lft.to/lastmile_qr_scan", "ios": "https://dc.lft.to/lastmile_qr_scan"}, "fusion_lon": 0.0, "lat": 38.90029, "bike_id": "589e507d518ce66483b18d3c93ab1d1b", "type": "electric_scooter", "is_reserved": 0, "lon": -77.0384685}, {"fusion_lat": 0.0, "name": "fdef2f7c7bbcba7a09dc7049622de1d8", "is_disabled": 0, "rental_uris": {"android": "https://dc.lft.to/lastmile_qr_scan", "ios": "https://dc.lft.to/lastmile_qr_scan"}, "fusion_lon": 0.0, "lat": 38.886764166666666, "bike_id": "fdef2f7c7bbcba7a09dc7049622de1d8", "type": "electric_bike", "is_reserved": 0, "lon": -77.16244283333333}, {"fusion_lat": 0.0, "name": "4b9863af61c64bfa5a2f345d943dd900", "is_disabled": 0, "rental_uris": {"android": "https://dc.lft.to/lastmile_qr_scan", "ios": "https://dc.lft.to/lastmile_qr_scan"}, "fusion_lon": 0.0, "lat": 38.90389583333334, "bike_id": "4b9863af61c64bfa5a2f345d943dd900", "type": "electric_scooter", "is_reserved": 0, "lon": -77.06137266666667}, {"fusion_lat": 0.0, "name": "1afaab9310a761b8f2cac4b5eaf5ae7d", "is_disabled": 0, "rental_uris": {"android": "https://dc.lft.to/lastmile_qr_scan", "ios": "https://dc.lft.to/lastmile_qr_scan"}, "fusion_lon": 0.0, "lat": 38.925359, "bike_id": "1afaab9310a761b8f2cac4b5eaf5ae7d", "type": "electric_scooter", "is_reserved": 0, "lon": -77.0555345}, {"fusion_lat": 0.0, "name": "eb3700722c9e47d5332d83abf19e75fa", "is_disabled": 0, "rental_uris": {"android": "https://dc.lft.to/lastmile_qr_scan", "ios": "https://dc.lft.to/lastmile_qr_scan"}, "fusion_lon": 0.0, "lat": 38.8846075, "bike_id": "eb3700722c9e47d5332d83abf19e75fa", "type": "electric_scooter", "is_reserved": 0, "lon": -76.9262285}, {"fusion_lat": 0.0, "name": "6974f5208615cbd4213c9898af34178f", "is_disabled": 0, "rental_uris": {"android": "https://dc.lft.to/lastmile_qr_scan", "ios": "https://dc.lft.to/lastmile_qr_scan"}, "fusion_lon": 0.0, "lat": 38.9208385, "bike_id": "6974f5208615cbd4213c9898af34178f", "type": "electric_scooter", "is_reserved": 0, "lon": -77.02506533333333}, {"fusion_lat": 0.0, "name": "9d8e6bb6e04a93bdd68d6ad345019fa1", "is_disabled": 0, "rental_uris": {"android": "https://dc.lft.to/lastmile_qr_scan", "ios": "https://dc.lft.to/lastmile_qr_scan"}, "fusion_lon": 0.0, "lat": 38.91188133333333, "bike_id": "9d8e6bb6e04a93bdd68d6ad345019fa1", "type": "electric_scooter", "is_reserved": 0, "lon": -77.03958433333334}, {"fusion_lat": 0.0, "name": "227351c54f2b741f6ec34e490dca5a8d", "is_disabled": 0, "rental_uris": {"android": "https://dc.lft.to/lastmile_qr_scan", "ios": "https://dc.lft.to/lastmile_qr_scan"}, "fusion_lon": 0.0, "lat": 38.957942, "bike_id": "227351c54f2b741f6ec34e490dca5a8d", "type": "electric_bike", "is_reserved": 0, "lon": -76.9996915}, {"fusion_lat": 0.0, "name": "07166b0827072425522e6970e4c0f247", "is_disabled": 0, "rental_uris": {"android": "https://dc.lft.to/lastmile_qr_scan", "ios": "https://dc.lft.to/lastmile_qr_scan"}, "fusion_lon": 0.0, "lat": 38.912920666666665, "bike_id": "07166b0827072425522e6970e4c0f247", "type": "electric_scooter", "is_reserved": 0, "lon": -77.04750333333334}, {"fusion_lat": 0.0, "name": "76012eb966d4c41752ade9e10e236b83", "is_disabled": 0, "rental_uris": {"android": "https://dc.lft.to/lastmile_qr_scan", "ios": "https://dc.lft.to/lastmile_qr_scan"}, "fusion_lon": 0.0, "lat": 38.89612283333334, "bike_id": "76012eb966d4c41752ade9e10e236b83", "type": "electric_scooter", "is_reserved": 0, "lon": -77.04482133333333}, {"fusion_lat": 0.0, "name": "b557ae498dfdce326fc6eb618412cdad", "is_disabled": 0, "rental_uris": {"android": "https://dc.lft.to/lastmile_qr_scan", "ios": "https://dc.lft.to/lastmile_qr_scan"}, "fusion_lon": 0.0, "lat": 38.9004065, "bike_id": "b557ae498dfdce326fc6eb618412cdad", "type": "electric_scooter", "is_reserved": 0, "lon": -76.98829316666667}, {"fusion_lat": 0.0, "name": "1f12ece66f35c161998810491132c4d6", "is_disabled": 0, "rental_uris": {"android": "https://dc.lft.to/lastmile_qr_scan", "ios": "https://dc.lft.to/lastmile_qr_scan"}, "fusion_lon": 0.0, "lat": 38.92974133333333, "bike_id": "1f12ece66f35c161998810491132c4d6", "type": "electric_scooter", "is_reserved": 0, "lon": -77.02824183333334}, {"fusion_lat": 0.0, "name": "c0d85b46eca958b5cb3c9411c8fe2e7f", "is_disabled": 0, "rental_uris": {"android": "https://dc.lft.to/lastmile_qr_scan", "ios": "https://dc.lft.to/lastmile_qr_scan"}, "fusion_lon": 0.0, "lat": 38.993900333333336, "bike_id": "c0d85b46eca958b5cb3c9411c8fe2e7f", "type": "electric_bike", "is_reserved": 0, "lon": -77.031062}, {"fusion_lat": 0.0, "name": "e56014de0ebf4bbed5f3916e31fddd11", "is_disabled": 0, "rental_uris": {"android": "https://dc.lft.to/lastmile_qr_scan", "ios": "https://dc.lft.to/lastmile_qr_scan"}, "fusion_lon": 0.0, "lat": 38.929019833333335, "bike_id": "e56014de0ebf4bbed5f3916e31fddd11", "type": "electric_scooter", "is_reserved": 0, "lon": -77.03290233333334}, {"fusion_lat": 0.0, "name": "a90ef2466b68c5b08c034383c98e5fe5", "is_disabled": 0, "rental_uris": {"android": "https://dc.lft.to/lastmile_qr_scan", "ios": "https://dc.lft.to/lastmile_qr_scan"}, "fusion_lon": 0.0, "lat": 38.919369, "bike_id": "a90ef2466b68c5b08c034383c98e5fe5", "type": "electric_scooter", "is_reserved": 0, "lon": -77.04169783333333}, {"fusion_lat": 0.0, "name": "a0e90e021ba547c0a3416f37b9670397", "is_disabled": 0, "rental_uris": {"android": "https://dc.lft.to/lastmile_qr_scan", "ios": "https://dc.lft.to/lastmile_qr_scan"}, "fusion_lon": 0.0, "lat": 38.9010975, "bike_id": "a0e90e021ba547c0a3416f37b9670397", "type": "electric_scooter", "is_reserved": 0, "lon": -77.0256965}, {"fusion_lat": 0.0, "name": "3faf4255476891ff46d88393a9b5749d", "is_disabled": 0, "rental_uris": {"android": "https://dc.lft.to/lastmile_qr_scan", "ios": "https://dc.lft.to/lastmile_qr_scan"}, "fusion_lon": 0.0, "lat": 38.92446233333333, "bike_id": "3faf4255476891ff46d88393a9b5749d", "type": "electric_scooter", "is_reserved": 0, "lon": -77.05254016666666}, {"fusion_lat": 0.0, "name": "926b12d008b4dd9ede55d01fe12e2bca", "is_disabled": 0, "rental_uris": {"android": "https://dc.lft.to/lastmile_qr_scan", "ios": "https://dc.lft.to/lastmile_qr_scan"}, "fusion_lon": 0.0, "lat": 38.94921266666667, "bike_id": "926b12d008b4dd9ede55d01fe12e2bca", "type": "electric_scooter", "is_reserved": 0, "lon": -77.01851933333333}, {"fusion_lat": 0.0, "name": "eb1467591bacedc67c76b19bdf256efe", "is_disabled": 0, "rental_uris": {"android": "https://dc.lft.to/lastmile_qr_scan", "ios": "https://dc.lft.to/lastmile_qr_scan"}, "fusion_lon": 0.0, "lat": 38.91675333333333, "bike_id": "eb1467591bacedc67c76b19bdf256efe", "type": "electric_scooter", "is_reserved": 0, "lon": -77.03659116666667}, {"fusion_lat": 0.0, "name": "282ff3a00e233bb89b0284468fc7bd9c", "is_disabled": 0, "rental_uris": {"android": "https://dc.lft.to/lastmile_qr_scan", "ios": "https://dc.lft.to/lastmile_qr_scan"}, "fusion_lon": 0.0, "lat": 38.875752166666665, "bike_id": "282ff3a00e233bb89b0284468fc7bd9c", "type": "electric_scooter", "is_reserved": 0, "lon": -77.0093625}, {"fusion_lat": 0.0, "name": "c094f5cb4109c8fef020aa70df5f2579", "is_disabled": 0, "rental_uris": {"android": "https://dc.lft.to/lastmile_qr_scan", "ios": "https://dc.lft.to/lastmile_qr_scan"}, "fusion_lon": 0.0, "lat": 38.914659, "bike_id": "c094f5cb4109c8fef020aa70df5f2579", "type": "electric_scooter", "is_reserved": 0, "lon": -77.0217405}, {"fusion_lat": 0.0, "name": "0eedbabd8c6100fd5b34cc8649bde9af", "is_disabled": 0, "rental_uris": {"android": "https://dc.lft.to/lastmile_qr_scan", "ios": "https://dc.lft.to/lastmile_qr_scan"}, "fusion_lon": 0.0, "lat": 38.904871, "bike_id": "0eedbabd8c6100fd5b34cc8649bde9af", "type": "electric_scooter", "is_reserved": 0, "lon": -76.94960333333333}, {"fusion_lat": 0.0, "name": "ca47bd8211649468a08f01b1e98f05c5", "is_disabled": 0, "rental_uris": {"android": "https://dc.lft.to/lastmile_qr_scan", "ios": "https://dc.lft.to/lastmile_qr_scan"}, "fusion_lon": 0.0, "lat": 38.92232333333333, "bike_id": "ca47bd8211649468a08f01b1e98f05c5", "type": "electric_scooter", "is_reserved": 0, "lon": -77.04314216666667}, {"fusion_lat": 0.0, "name": "a05698106d9604c841e842c0b1bc1312", "is_disabled": 0, "rental_uris": {"android": "https://dc.lft.to/lastmile_qr_scan", "ios": "https://dc.lft.to/lastmile_qr_scan"}, "fusion_lon": 0.0, "lat": 38.9148055, "bike_id": "a05698106d9604c841e842c0b1bc1312", "type": "electric_scooter", "is_reserved": 0, "lon": -77.02962516666666}, {"fusion_lat": 0.0, "name": "08cd84ad9099dba2e13f293ba404f49e", "is_disabled": 0, "rental_uris": {"android": "https://dc.lft.to/lastmile_qr_scan", "ios": "https://dc.lft.to/lastmile_qr_scan"}, "fusion_lon": 0.0, "lat": 38.92793183333333, "bike_id": "08cd84ad9099dba2e13f293ba404f49e", "type": "electric_scooter", "is_reserved": 0, "lon": -76.95562066666666}, {"fusion_lat": 0.0, "name": "cde9485213e8fbcd843e15d42b0e7da5", "is_disabled": 0, "rental_uris": {"android": "https://dc.lft.to/lastmile_qr_scan", "ios": "https://dc.lft.to/lastmile_qr_scan"}, "fusion_lon": 0.0, "lat": 38.90161233333333, "bike_id": "cde9485213e8fbcd843e15d42b0e7da5", "type": "electric_scooter", "is_reserved": 0, "lon": -76.97625766666667}, {"fusion_lat": 0.0, "name": "bdc6cb9d4ebf6e388e74253f73499502", "is_disabled": 0, "rental_uris": {"android": "https://dc.lft.to/lastmile_qr_scan", "ios": "https://dc.lft.to/lastmile_qr_scan"}, "fusion_lon": 0.0, "lat": 38.8824805, "bike_id": "bdc6cb9d4ebf6e388e74253f73499502", "type": "electric_bike", "is_reserved": 0, "lon": -76.96261433333333}, {"fusion_lat": 0.0, "name": "783935b8b1d4acb42d850ccb0b10cf61", "is_disabled": 0, "rental_uris": {"android": "https://dc.lft.to/lastmile_qr_scan", "ios": "https://dc.lft.to/lastmile_qr_scan"}, "fusion_lon": 0.0, "lat": 38.9204265, "bike_id": "783935b8b1d4acb42d850ccb0b10cf61", "type": "electric_scooter", "is_reserved": 0, "lon": -77.079811}, {"fusion_lat": 0.0, "name": "4bb9907229c9972baea2d56bf239465f", "is_disabled": 0, "rental_uris": {"android": "https://dc.lft.to/lastmile_qr_scan", "ios": "https://dc.lft.to/lastmile_qr_scan"}, "fusion_lon": 0.0, "lat": 38.905252, "bike_id": "4bb9907229c9972baea2d56bf239465f", "type": "electric_scooter", "is_reserved": 0, "lon": -77.06131}, {"fusion_lat": 0.0, "name": "f9565dbfb4885d2c6e5f7fc57139972d", "is_disabled": 0, "rental_uris": {"android": "https://dc.lft.to/lastmile_qr_scan", "ios": "https://dc.lft.to/lastmile_qr_scan"}, "fusion_lon": 0.0, "lat": 38.878366166666666, "bike_id": "f9565dbfb4885d2c6e5f7fc57139972d", "type": "electric_scooter", "is_reserved": 0, "lon": -77.0228015}, {"fusion_lat": 0.0, "name": "49089837e9ad6112b8ce6dd12c2b17a2", "is_disabled": 0, "rental_uris": {"android": "https://dc.lft.to/lastmile_qr_scan", "ios": "https://dc.lft.to/lastmile_qr_scan"}, "fusion_lon": 0.0, "lat": 38.820966, "bike_id": "49089837e9ad6112b8ce6dd12c2b17a2", "type": "electric_bike", "is_reserved": 0, "lon": -77.05301416666667}, {"fusion_lat": 0.0, "name": "7f18978004cda57a9f7de7a0e99b5f02", "is_disabled": 0, "rental_uris": {"android": "https://dc.lft.to/lastmile_qr_scan", "ios": "https://dc.lft.to/lastmile_qr_scan"}, "fusion_lon": 0.0, "lat": 38.944400333333334, "bike_id": "7f18978004cda57a9f7de7a0e99b5f02", "type": "electric_scooter", "is_reserved": 0, "lon": -77.0635165}, {"fusion_lat": 0.0, "name": "260a9cd01daa54c10e0db07895f3ac96", "is_disabled": 0, "rental_uris": {"android": "https://dc.lft.to/lastmile_qr_scan", "ios": "https://dc.lft.to/lastmile_qr_scan"}, "fusion_lon": 0.0, "lat": 38.898584666666665, "bike_id": "260a9cd01daa54c10e0db07895f3ac96", "type": "electric_scooter", "is_reserved": 0, "lon": -77.028643}, {"fusion_lat": 0.0, "name": "7bb9b02de50c93ad410e702fb33ac00b", "is_disabled": 0, "rental_uris": {"android": "https://dc.lft.to/lastmile_qr_scan", "ios": "https://dc.lft.to/lastmile_qr_scan"}, "fusion_lon": 0.0, "lat": 38.8558055, "bike_id": "7bb9b02de50c93ad410e702fb33ac00b", "type": "electric_scooter", "is_reserved": 0, "lon": -76.96658466666666}, {"fusion_lat": 0.0, "name": "122217fe6e9888ce8df0e2c51b8b4ec5", "is_disabled": 0, "rental_uris": {"android": "https://dc.lft.to/lastmile_qr_scan", "ios": "https://dc.lft.to/lastmile_qr_scan"}, "fusion_lon": 0.0, "lat": 38.89229733333333, "bike_id": "122217fe6e9888ce8df0e2c51b8b4ec5", "type": "electric_scooter", "is_reserved": 0, "lon": -77.02115116666667}, {"fusion_lat": 0.0, "name": "4849d1067b69b13ce64fea798911237f", "is_disabled": 0, "rental_uris": {"android": "https://dc.lft.to/lastmile_qr_scan", "ios": "https://dc.lft.to/lastmile_qr_scan"}, "fusion_lon": 0.0, "lat": 38.9032155, "bike_id": "4849d1067b69b13ce64fea798911237f", "type": "electric_scooter", "is_reserved": 0, "lon": -77.04494433333333}, {"fusion_lat": 0.0, "name": "1e62dfe03f065a0a599e6adec8a0a612", "is_disabled": 0, "rental_uris": {"android": "https://dc.lft.to/lastmile_qr_scan", "ios": "https://dc.lft.to/lastmile_qr_scan"}, "fusion_lon": 0.0, "lat": 38.89921066666667, "bike_id": "1e62dfe03f065a0a599e6adec8a0a612", "type": "electric_scooter", "is_reserved": 0, "lon": -76.9853555}, {"fusion_lat": 0.0, "name": "cf44da86da260c8bf9fce9f657af3163", "is_disabled": 0, "rental_uris": {"android": "https://dc.lft.to/lastmile_qr_scan", "ios": "https://dc.lft.to/lastmile_qr_scan"}, "fusion_lon": 0.0, "lat": 38.9002725, "bike_id": "cf44da86da260c8bf9fce9f657af3163", "type": "electric_scooter", "is_reserved": 0, "lon": -77.011783}, {"fusion_lat": 0.0, "name": "7741d75fa0b101a47abd928fa5e45198", "is_disabled": 0, "rental_uris": {"android": "https://dc.lft.to/lastmile_qr_scan", "ios": "https://dc.lft.to/lastmile_qr_scan"}, "fusion_lon": 0.0, "lat": 38.904555333333334, "bike_id": "7741d75fa0b101a47abd928fa5e45198", "type": "electric_scooter", "is_reserved": 0, "lon": -77.04071733333333}, {"fusion_lat": 0.0, "name": "01904e13bce03642de071de74aa65098", "is_disabled": 0, "rental_uris": {"android": "https://dc.lft.to/lastmile_qr_scan", "ios": "https://dc.lft.to/lastmile_qr_scan"}, "fusion_lon": 0.0, "lat": 38.83158183333333, "bike_id": "01904e13bce03642de071de74aa65098", "type": "electric_bike", "is_reserved": 0, "lon": -76.99542816666667}, {"fusion_lat": 0.0, "name": "c404569c0659d34d0632de00f532cf79", "is_disabled": 0, "rental_uris": {"android": "https://dc.lft.to/lastmile_qr_scan", "ios": "https://dc.lft.to/lastmile_qr_scan"}, "fusion_lon": 0.0, "lat": 38.938687, "bike_id": "c404569c0659d34d0632de00f532cf79", "type": "electric_scooter", "is_reserved": 0, "lon": -77.0255765}, {"fusion_lat": 0.0, "name": "0113ac608605055952385f99017db833", "is_disabled": 0, "rental_uris": {"android": "https://dc.lft.to/lastmile_qr_scan", "ios": "https://dc.lft.to/lastmile_qr_scan"}, "fusion_lon": 0.0, "lat": 38.899591, "bike_id": "0113ac608605055952385f99017db833", "type": "electric_scooter", "is_reserved": 0, "lon": -77.0117195}, {"fusion_lat": 0.0, "name": "74919cdd46003c7403df7155bb977656", "is_disabled": 0, "rental_uris": {"android": "https://dc.lft.to/lastmile_qr_scan", "ios": "https://dc.lft.to/lastmile_qr_scan"}, "fusion_lon": 0.0, "lat": 38.8923175, "bike_id": "74919cdd46003c7403df7155bb977656", "type": "electric_scooter", "is_reserved": 0, "lon": -77.04875866666667}, {"fusion_lat": 0.0, "name": "9f12fd9d353f4a5722829363241043d5", "is_disabled": 0, "rental_uris": {"android": "https://dc.lft.to/lastmile_qr_scan", "ios": "https://dc.lft.to/lastmile_qr_scan"}, "fusion_lon": 0.0, "lat": 38.9208085, "bike_id": "9f12fd9d353f4a5722829363241043d5", "type": "electric_scooter", "is_reserved": 0, "lon": -77.02406566666667}, {"fusion_lat": 0.0, "name": "343f931e302669c55dd319865c4f6691", "is_disabled": 0, "rental_uris": {"android": "https://dc.lft.to/lastmile_qr_scan", "ios": "https://dc.lft.to/lastmile_qr_scan"},