{"data": {"bikes": [{"lat": 38.900156333333335, "is_disabled": 0, "type": "electric_scooter", "lon": -76.99506733333334, "bike_id": "135078289f10590e6473013ef54d804f", "fusion_lat": 0.0, "name": "135078289f10590e6473013ef54d804f", "is_reserved": 0, "rental_uris": {"android": "https://dc.lft.to/lastmile_qr_scan", "ios": "https://dc.lft.to/lastmile_qr_scan"}, "fusion_lon": 0.0}, {"lat": 38.91986083333333, "is_disabled": 0, "type": "electric_scooter", "lon": -77.04168333333334, "bike_id": "cd84ffceafd95bd91e8cbf3845d9ef6d", "fusion_lat": 0.0, "name": "cd84ffceafd95bd91e8cbf3845d9ef6d", "is_reserved": 0, "rental_uris": {"android": "https://dc.lft.to/lastmile_qr_scan", "ios": "https://dc.lft.to/lastmile_qr_scan"}, "fusion_lon": 0.0}, {"lat": 38.9140625, "is_disabled": 0, "type": "electric_scooter", "lon": -77.04570816666667, "bike_id": "ba7f26ec1e9952e977262da6727faa92", "fusion_lat": 0.0, "name": "ba7f26ec1e9952e977262da6727faa92", "is_reserved": 0, "rental_uris": {"android": "https://dc.lft.to/lastmile_qr_scan", "ios": "https://dc.lft.to/lastmile_qr_scan"}, "fusion_lon": 0.0}, {"lat": 38.96489616666667, "is_disabled": 0, "type": "electric_scooter", "lon": -77.02788366666667, "bike_id": "8803be27559bcaa1adfd25553713e013", "fusion_lat": 0.0, "name": "8803be27559bcaa1adfd25553713e013", "is_reserved": 0, "rental_uris": {"android": "https://dc.lft.to/lastmile_qr_scan", "ios": "https://dc.lft.to/lastmile_qr_scan"}, "fusion_lon": 0.0}, {"lat": 38.920358666666665, "is_disabled": 0, "type": "electric_scooter", "lon": -77.030445, "bike_id": "0a901b8a3b836ce6807863aaba7237a0", "fusion_lat": 0.0, "name": "0a901b8a3b836ce6807863aaba7237a0", "is_reserved": 0, "rental_uris": {"android": "https://dc.lft.to/lastmile_qr_scan", "ios": "https://dc.lft.to/lastmile_qr_scan"}, "fusion_lon": 0.0}, {"lat": 38.90520766666667, "is_disabled": 0, "type": "electric_scooter", "lon": -77.0318685, "bike_id": "641c89999693df4ceeb07c063f1fdcff", "fusion_lat": 0.0, "name": "641c89999693df4ceeb07c063f1fdcff", "is_reserved": 0, "rental_uris": {"android": "https://dc.lft.to/lastmile_qr_scan", "ios": "https://dc.lft.to/lastmile_qr_scan"}, "fusion_lon": 0.0}, {"lat": 38.985094, "is_disabled": 0, "type": "electric_bike", "lon": -76.98195366666667, "bike_id": "deca040d4aad9877537223740d4ef81c", "fusion_lat": 0.0, "name": "deca040d4aad9877537223740d4ef81c", "is_reserved": 0, "rental_uris": {"android": "https://dc.lft.to/lastmile_qr_scan", "ios": "https://dc.lft.to/lastmile_qr_scan"}, "fusion_lon": 0.0}, {"lat": 38.920097166666665, "is_disabled": 0, "type": "electric_scooter", "lon": -77.03232333333334, "bike_id": "ee2e6d5174de5ee2ad6caf915fb04e2d", "fusion_lat": 0.0, "name": "ee2e6d5174de5ee2ad6caf915fb04e2d", "is_reserved": 0, "rental_uris": {"android": "https://dc.lft.to/lastmile_qr_scan", "ios": "https://dc.lft.to/lastmile_qr_scan"}, "fusion_lon": 0.0}, {"lat": 38.943241, "is_disabled": 0, "type": "electric_bike", "lon": -76.9500795, "bike_id": "9b8117c7e555960602fd40ee25597d37", "fusion_lat": 0.0, "name": "9b8117c7e555960602fd40ee25597d37", "is_reserved": 0, "rental_uris": {"android": "https://dc.lft.to/lastmile_qr_scan", "ios": "https://dc.lft.to/lastmile_qr_scan"}, "fusion_lon": 0.0}, {"lat": 38.928318166666664, "is_disabled": 0, "type": "electric_scooter", "lon": -77.02181716666666, "bike_id": "75666fdb82af6ff9c5558843e1576834", "fusion_lat": 0.0, "name": "75666fdb82af6ff9c5558843e1576834", "is_reserved": 0, "rental_uris": {"android": "https://dc.lft.to/lastmile_qr_scan", "ios": "https://dc.lft.to/lastmile_qr_scan"}, "fusion_lon": 0.0}, {"lat": 38.80577016666667, "is_disabled": 0, "type": "electric_bike", "lon": -77.06858333333334, "bike_id": "300af69d70b4d3032416d8ee533bcb3a", "fusion_lat": 0.0, "name": "300af69d70b4d3032416d8ee533bcb3a", "is_reserved": 0, "rental_uris": {"android": "https://dc.lft.to/lastmile_qr_scan", "ios": "https://dc.lft.to/lastmile_qr_scan"}, "fusion_lon": 0.0}, {"lat": 38.89825866666666, "is_disabled": 0, "type": "electric_scooter", "lon": -77.03130633333333, "bike_id": "3d005dc5c8b83f15f8f8be9424d3fe26", "fusion_lat": 0.0, "name": "3d005dc5c8b83f15f8f8be9424d3fe26", "is_reserved": 0, "rental_uris": {"android": "https://dc.lft.to/lastmile_qr_scan", "ios": "https://dc.lft.to/lastmile_qr_scan"}, "fusion_lon": 0.0}, {"lat": 38.9182145, "is_disabled": 0, "type": "electric_scooter", "lon": -77.03194183333333, "bike_id": "ba934c44ba697640760423238b732dab", "fusion_lat": 0.0, "name": "ba934c44ba697640760423238b732dab", "is_reserved": 0, "rental_uris": {"android": "https://dc.lft.to/lastmile_qr_scan", "ios": "https://dc.lft.to/lastmile_qr_scan"}, "fusion_lon": 0.0}, {"lat": 38.91795233333333, "is_disabled": 0, "type": "electric_scooter", "lon": -77.04441583333333, "bike_id": "280b08a982477f190043f80e799a18d5", "fusion_lat": 0.0, "name": "280b08a982477f190043f80e799a18d5", "is_reserved": 0, "rental_uris": {"android": "https://dc.lft.to/lastmile_qr_scan", "ios": "https://dc.lft.to/lastmile_qr_scan"}, "fusion_lon": 0.0}, {"lat": 38.9026855, "is_disabled": 0, "type": "electric_scooter", "lon": -77.03667616666667, "bike_id": "d0783d461ffd382ecd517753b425cd14", "fusion_lat": 0.0, "name": "d0783d461ffd382ecd517753b425cd14", "is_reserved": 0, "rental_uris": {"android": "https://dc.lft.to/lastmile_qr_scan", "ios": "https://dc.lft.to/lastmile_qr_scan"}, "fusion_lon": 0.0}, {"lat": 38.92109216666667, "is_disabled": 0, "type": "electric_bike", "lon": -76.98574466666666, "bike_id": "d60dfb54155d2b32fd5370a1de4986f7", "fusion_lat": 0.0, "name": "d60dfb54155d2b32fd5370a1de4986f7", "is_reserved": 0, "rental_uris": {"android": "https://dc.lft.to/lastmile_qr_scan", "ios": "https://dc.lft.to/lastmile_qr_scan"}, "fusion_lon": 0.0}, {"lat": 38.858534, "is_disabled": 0, "type": "electric_bike", "lon": -77.09756366666667, "bike_id": "4f5ec566c5ae4317dc5995a031718ad4", "fusion_lat": 0.0, "name": "4f5ec566c5ae4317dc5995a031718ad4", "is_reserved": 0, "rental_uris": {"android": "https://dc.lft.to/lastmile_qr_scan", "ios": "https://dc.lft.to/lastmile_qr_scan"}, "fusion_lon": 0.0}, {"lat": 38.95894916666666, "is_disabled": 0, "type": "electric_bike", "lon": -76.92480183333333, "bike_id": "8e84a5ee203cec5ea6420a756869930c", "fusion_lat": 0.0, "name": "8e84a5ee203cec5ea6420a756869930c", "is_reserved": 0, "rental_uris": {"android": "https://dc.lft.to/lastmile_qr_scan", "ios": "https://dc.lft.to/lastmile_qr_scan"}, "fusion_lon": 0.0}, {"lat": 38.9291035, "is_disabled": 0, "type": "electric_scooter", "lon": -77.031887, "bike_id": "a1f9970d716064f96a2b23b56fd3e51a", "fusion_lat": 0.0, "name": "a1f9970d716064f96a2b23b56fd3e51a", "is_reserved": 0, "rental_uris": {"android": "https://dc.lft.to/lastmile_qr_scan", "ios": "https://dc.lft.to/lastmile_qr_scan"}, "fusion_lon": 0.0}, {"lat": 38.940419166666665, "is_disabled": 0, "type": "electric_bike", "lon": -77.0515965, "bike_id": "b299041f8e3eecf1d64534af7f4495dd", "fusion_lat": 0.0, "name": "b299041f8e3eecf1d64534af7f4495dd", "is_reserved": 0, "rental_uris": {"android": "https://dc.lft.to/lastmile_qr_scan", "ios": "https://dc.lft.to/lastmile_qr_scan"}, "fusion_lon": 0.0}, {"lat": 38.9206595, "is_disabled": 0, "type": "electric_scooter", "lon": -77.02499366666666, "bike_id": "b94bf6957d6c9784793ad0ece9f5dd69", "fusion_lat": 0.0, "name": "b94bf6957d6c9784793ad0ece9f5dd69", "is_reserved": 0, "rental_uris": {"android": "https://dc.lft.to/lastmile_qr_scan", "ios": "https://dc.lft.to/lastmile_qr_scan"}, "fusion_lon": 0.0}, {"lat": 38.89004766666667, "is_disabled": 0, "type": "electric_scooter", "lon": -77.04889366666667, "bike_id": "39db6559bad59f56c112aa4d16213c82", "fusion_lat": 0.0, "name": "39db6559bad59f56c112aa4d16213c82", "is_reserved": 0, "rental_uris": {"android": "https://dc.lft.to/lastmile_qr_scan", "ios": "https://dc.lft.to/lastmile_qr_scan"}, "fusion_lon": 0.0}, {"lat": 38.89042466666667, "is_disabled": 0, "type": "electric_scooter", "lon": -76.94073066666667, "bike_id": "454a790492b711a3d85f7b892796ea9d", "fusion_lat": 0.0, "name": "454a790492b711a3d85f7b892796ea9d", "is_reserved": 0, "rental_uris": {"android": "https://dc.lft.to/lastmile_qr_scan", "ios": "https://dc.lft.to/lastmile_qr_scan"}, "fusion_lon": 0.0}, {"lat": 38.93198366666667, "is_disabled": 0, "type": "electric_scooter", "lon": -77.02356283333333, "bike_id": "85030c0ed96c2da986b8ecd27f914ce7", "fusion_lat": 0.0, "name": "85030c0ed96c2da986b8ecd27f914ce7", "is_reserved": 0, "rental_uris": {"android": "https://dc.lft.to/lastmile_qr_scan", "ios": "https://dc.lft.to/lastmile_qr_scan"}, "fusion_lon": 0.0}, {"lat": 38.954051666666665, "is_disabled": 0, "type": "electric_scooter", "lon": -77.027481, "bike_id": "445fa1189bc177679d0f6bdbcf557086", "fusion_lat": 0.0, "name": "445fa1189bc177679d0f6bdbcf557086", "is_reserved": 0, "rental_uris": {"android": "https://dc.lft.to/lastmile_qr_scan", "ios": "https://dc.lft.to/lastmile_qr_scan"}, "fusion_lon": 0.0}, {"lat": 38.916826, "is_disabled": 0, "type": "electric_scooter", "lon": -77.03213083333333, "bike_id": "ddc4a288d6ab4c1cb64e2d77514f4dc0", "fusion_lat": 0.0, "name": "ddc4a288d6ab4c1cb64e2d77514f4dc0", "is_reserved": 0, "rental_uris": {"android": "https://dc.lft.to/lastmile_qr_scan", "ios": "https://dc.lft.to/lastmile_qr_scan"}, "fusion_lon": 0.0}, {"lat": 38.91711733333333, "is_disabled": 0, "type": "electric_scooter", "lon": -77.03503266666667, "bike_id": "e15689e1688b2d3ea68cdbe17eeea6ea", "fusion_lat": 0.0, "name": "e15689e1688b2d3ea68cdbe17eeea6ea", "is_reserved": 0, "rental_uris": {"android": "https://dc.lft.to/lastmile_qr_scan", "ios": "https://dc.lft.to/lastmile_qr_scan"}, "fusion_lon": 0.0}, {"lat": 38.92872533333333, "is_disabled": 0, "type": "electric_scooter", "lon": -77.03221466666666, "bike_id": "8ba6b0371ac79054a4d1b322b972542d", "fusion_lat": 0.0, "name": "8ba6b0371ac79054a4d1b322b972542d", "is_reserved": 0, "rental_uris": {"android": "https://dc.lft.to/lastmile_qr_scan", "ios": "https://dc.lft.to/lastmile_qr_scan"}, "fusion_lon": 0.0}, {"lat": 38.9303465, "is_disabled": 0, "type": "electric_scooter", "lon": -77.02642216666666, "bike_id": "23483d38ff5e4adc94864d01fd32e791", "fusion_lat": 0.0, "name": "23483d38ff5e4adc94864d01fd32e791", "is_reserved": 0, "rental_uris": {"android": "https://dc.lft.to/lastmile_qr_scan", "ios": "https://dc.lft.to/lastmile_qr_scan"}, "fusion_lon": 0.0}, {"lat": 38.90962366666667, "is_disabled": 0, "type": "electric_scooter", "lon": -77.04048466666667, "bike_id": "fea503db4e16a8c23d7d49734090a361", "fusion_lat": 0.0, "name": "fea503db4e16a8c23d7d49734090a361", "is_reserved": 0, "rental_uris": {"android": "https://dc.lft.to/lastmile_qr_scan", "ios": "https://dc.lft.to/lastmile_qr_scan"}, "fusion_lon": 0.0}, {"lat": 38.917010833333336, "is_disabled": 0, "type": "electric_scooter", "lon": -77.01138016666667, "bike_id": "935545035eef605bdd14e6f64cf8553f", "fusion_lat": 0.0, "name": "935545035eef605bdd14e6f64cf8553f", "is_reserved": 0, "rental_uris": {"android": "https://dc.lft.to/lastmile_qr_scan", "ios": "https://dc.lft.to/lastmile_qr_scan"}, "fusion_lon": 0.0}, {"lat": 38.907856833333334, "is_disabled": 0, "type": "electric_scooter", "lon": -77.06401066666666, "bike_id": "dac133e00a6a25c04edfc54bdd2fb3ea", "fusion_lat": 0.0, "name": "dac133e00a6a25c04edfc54bdd2fb3ea", "is_reserved": 0, "rental_uris": {"android": "https://dc.lft.to/lastmile_qr_scan", "ios": "https://dc.lft.to/lastmile_qr_scan"}, "fusion_lon": 0.0}, {"lat": 38.802695166666666, "is_disabled": 0, "type": "electric_bike", "lon": -77.08114333333333, "bike_id": "16d29ce273e0f4ac67baf8296a52ddc4", "fusion_lat": 0.0, "name": "16d29ce273e0f4ac67baf8296a52ddc4", "is_reserved": 0, "rental_uris": {"android": "https://dc.lft.to/lastmile_qr_scan", "ios": "https://dc.lft.to/lastmile_qr_scan"}, "fusion_lon": 0.0}, {"lat": 38.93378533333333, "is_disabled": 0, "type": "electric_scooter", "lon": -77.02386133333333, "bike_id": "a6e2eb32b9dae62380a4587f86ab3b35", "fusion_lat": 0.0, "name": "a6e2eb32b9dae62380a4587f86ab3b35", "is_reserved": 0, "rental_uris": {"android": "https://dc.lft.to/lastmile_qr_scan", "ios": "https://dc.lft.to/lastmile_qr_scan"}, "fusion_lon": 0.0}, {"lat": 38.96225066666667, "is_disabled": 0, "type": "electric_bike", "lon": -77.02625966666666, "bike_id": "b46571150d022b3110e651b294059ecb", "fusion_lat": 0.0, "name": "b46571150d022b3110e651b294059ecb", "is_reserved": 0, "rental_uris": {"android": "https://dc.lft.to/lastmile_qr_scan", "ios": "https://dc.lft.to/lastmile_qr_scan"}, "fusion_lon": 0.0}, {"lat": 38.891454833333334, "is_disabled": 0, "type": "electric_bike", "lon": -77.11305283333333, "bike_id": "f9d2b61c0e1ac60b497dabdbd6e1892d", "fusion_lat": 0.0, "name": "f9d2b61c0e1ac60b497dabdbd6e1892d", "is_reserved": 0, "rental_uris": {"android": "https://dc.lft.to/lastmile_qr_scan", "ios": "https://dc.lft.to/lastmile_qr_scan"}, "fusion_lon": 0.0}, {"lat": 38.9375525, "is_disabled": 0, "type": "electric_scooter", "lon": -77.03261266666667, "bike_id": "03cf03dad17cd447f5e0262b8d66de9f", "fusion_lat": 0.0, "name": "03cf03dad17cd447f5e0262b8d66de9f", "is_reserved": 0, "rental_uris": {"android": "https://dc.lft.to/lastmile_qr_scan", "ios": "https://dc.lft.to/lastmile_qr_scan"}, "fusion_lon": 0.0}, {"lat": 38.884970833333334, "is_disabled": 0, "type": "electric_scooter", "lon": -77.0091655, "bike_id": "ac2621cc9d43f72d61323ada78b4783e", "fusion_lat": 0.0, "name": "ac2621cc9d43f72d61323ada78b4783e", "is_reserved": 0, "rental_uris": {"android": "https://dc.lft.to/lastmile_qr_scan", "ios": "https://dc.lft.to/lastmile_qr_scan"}, "fusion_lon": 0.0}, {"lat": 38.9133785, "is_disabled": 0, "type": "electric_scooter", "lon": -77.0126435, "bike_id": "e04306c7b7d56e438d3e79da68c0818f", "fusion_lat": 0.0, "name": "e04306c7b7d56e438d3e79da68c0818f", "is_reserved": 0, "rental_uris": {"android": "https://dc.lft.to/lastmile_qr_scan", "ios": "https://dc.lft.to/lastmile_qr_scan"}, "fusion_lon": 0.0}, {"lat": 38.894974833333336, "is_disabled": 0, "type": "electric_scooter", "lon": -77.0021175, "bike_id": "eac2f11af9d5cfef0bcc2bd7c4d9150f", "fusion_lat": 0.0, "name": "eac2f11af9d5cfef0bcc2bd7c4d9150f", "is_reserved": 0, "rental_uris": {"android": "https://dc.lft.to/lastmile_qr_scan", "ios": "https://dc.lft.to/lastmile_qr_scan"}, "fusion_lon": 0.0}, {"lat": 38.926828, "is_disabled": 0, "type": "electric_scooter", "lon": -77.0073515, "bike_id": "242ad41bc465c53c26dbcf79414371ed", "fusion_lat": 0.0, "name": "242ad41bc465c53c26dbcf79414371ed", "is_reserved": 0, "rental_uris": {"android": "https://dc.lft.to/lastmile_qr_scan", "ios": "https://dc.lft.to/lastmile_qr_scan"}, "fusion_lon": 0.0}, {"lat": 38.900677333333334, "is_disabled": 0, "type": "electric_scooter", "lon": -77.00194516666667, "bike_id": "bd4b3c7be8084de68ea36826fec44c81", "fusion_lat": 0.0, "name": "bd4b3c7be8084de68ea36826fec44c81", "is_reserved": 0, "rental_uris": {"android": "https://dc.lft.to/lastmile_qr_scan", "ios": "https://dc.lft.to/lastmile_qr_scan"}, "fusion_lon": 0.0}, {"lat": 38.90040283333333, "is_disabled": 0, "type": "electric_scooter", "lon": -77.00538483333334, "bike_id": "d8030f8f5c5f86f9b6c05dfd34ee8294", "fusion_lat": 0.0, "name": "d8030f8f5c5f86f9b6c05dfd34ee8294", "is_reserved": 0, "rental_uris": {"android": "https://dc.lft.to/lastmile_qr_scan", "ios": "https://dc.lft.to/lastmile_qr_scan"}, "fusion_lon": 0.0}, {"lat": 38.88694666666667, "is_disabled": 0, "type": "electric_scooter", "lon": -77.01767366666667, "bike_id": "811be316dc628dcf386596b3b41188d3", "fusion_lat": 0.0, "name": "811be316dc628dcf386596b3b41188d3", "is_reserved": 0, "rental_uris": {"android": "https://dc.lft.to/lastmile_qr_scan", "ios": "https://dc.lft.to/lastmile_qr_scan"}, "fusion_lon": 0.0}, {"lat": 38.89221033333333, "is_disabled": 0, "type": "electric_bike", "lon": -77.10782233333333, "bike_id": "f9cf33f6660d2c000115dad635490950", "fusion_lat": 0.0, "name": "f9cf33f6660d2c000115dad635490950", "is_reserved": 0, "rental_uris": {"android": "https://dc.lft.to/lastmile_qr_scan", "ios": "https://dc.lft.to/lastmile_qr_scan"}, "fusion_lon": 0.0}, {"lat": 38.907635166666665, "is_disabled": 0, "type": "electric_scooter", "lon": -77.04153716666667, "bike_id": "69f414c67df63ee4775331adb23478c5", "fusion_lat": 0.0, "name": "69f414c67df63ee4775331adb23478c5", "is_reserved": 0, "rental_uris": {"android": "https://dc.lft.to/lastmile_qr_scan", "ios": "https://dc.lft.to/lastmile_qr_scan"}, "fusion_lon": 0.0}, {"lat": 38.919765, "is_disabled": 0, "type": "electric_scooter", "lon": -77.02399466666667, "bike_id": "5843ba538e7df93c345a1411fdb3689a", "fusion_lat": 0.0, "name": "5843ba538e7df93c345a1411fdb3689a", "is_reserved": 0, "rental_uris": {"android": "https://dc.lft.to/lastmile_qr_scan", "ios": "https://dc.lft.to/lastmile_qr_scan"}, "fusion_lon": 0.0}, {"lat": 38.88434733333333, "is_disabled": 0, "type": "electric_scooter", "lon": -77.01766166666667, "bike_id": "bc4faf7c2b3ecaab7a8a445ed633dbf2", "fusion_lat": 0.0, "name": "bc4faf7c2b3ecaab7a8a445ed633dbf2", "is_reserved": 0, "rental_uris": {"android": "https://dc.lft.to/lastmile_qr_scan", "ios": "https://dc.lft.to/lastmile_qr_scan"}, "fusion_lon": 0.0}, {"lat": 38.881468, "is_disabled": 0, "type": "electric_scooter", "lon": -77.02708616666666, "bike_id": "83433bd3418f5d97b7734c7be17e8f3d", "fusion_lat": 0.0, "name": "83433bd3418f5d97b7734c7be17e8f3d", "is_reserved": 0, "rental_uris": {"android": "https://dc.lft.to/lastmile_qr_scan", "ios": "https://dc.lft.to/lastmile_qr_scan"}, "fusion_lon": 0.0}, {"lat": 38.919229, "is_disabled": 0, "type": "electric_scooter", "lon": -77.02486883333333, "bike_id": "64b72393a4e9a9cbd6fc78999e72420b", "fusion_lat": 0.0, "name": "64b72393a4e9a9cbd6fc78999e72420b", "is_reserved": 0, "rental_uris": {"android": "https://dc.lft.to/lastmile_qr_scan", "ios": "https://dc.lft.to/lastmile_qr_scan"}, "fusion_lon": 0.0}, {"lat": 38.91891966666667, "is_disabled": 0, "type": "electric_scooter", "lon": -77.0412365, "bike_id": "eba6e919927af58a13472746669541a0", "fusion_lat": 0.0, "name": "eba6e919927af58a13472746669541a0", "is_reserved": 0, "rental_uris": {"android": "https://dc.lft.to/lastmile_qr_scan", "ios": "https://dc.lft.to/lastmile_qr_scan"}, "fusion_lon": 0.0}, {"lat": 38.927355, "is_disabled": 0, "type": "electric_scooter", "lon": -77.022645, "bike_id": "584cd892dc0ae2ba6d23abc7b5245f81", "fusion_lat": 0.0, "name": "584cd892dc0ae2ba6d23abc7b5245f81", "is_reserved": 0, "rental_uris": {"android": "https://dc.lft.to/lastmile_qr_scan", "ios": "https://dc.lft.to/lastmile_qr_scan"}, "fusion_lon": 0.0}, {"lat": 38.956173166666666, "is_disabled": 0, "type": "electric_scooter", "lon": -77.02780016666667, "bike_id": "ad0d4513db307b71d8fb860304067570", "fusion_lat": 0.0, "name": "ad0d4513db307b71d8fb860304067570", "is_reserved": 0, "rental_uris": {"android": "https://dc.lft.to/lastmile_qr_scan", "ios": "https://dc.lft.to/lastmile_qr_scan"}, "fusion_lon": 0.0}, {"lat": 38.89782916666667, "is_disabled": 0, "type": "electric_scooter", "lon": -77.04352916666667, "bike_id": "4a808404e8db96c02b5fdc2352537bf2", "fusion_lat": 0.0, "name": "4a808404e8db96c02b5fdc2352537bf2", "is_reserved": 0, "rental_uris": {"android": "https://dc.lft.to/lastmile_qr_scan", "ios": "https://dc.lft.to/lastmile_qr_scan"}, "fusion_lon": 0.0}, {"lat": 38.93013066666666, "is_disabled": 0, "type": "electric_bike", "lon": -77.21647583333333, "bike_id": "ea99b1998a7d797c7f2dff5c53d77e1c", "fusion_lat": 0.0, "name": "ea99b1998a7d797c7f2dff5c53d77e1c", "is_reserved": 0, "rental_uris": {"android": "https://dc.lft.to/lastmile_qr_scan", "ios": "https://dc.lft.to/lastmile_qr_scan"}, "fusion_lon": 0.0}, {"lat": 38.902148833333335, "is_disabled": 0, "type": "electric_scooter", "lon": -76.94591283333334, "bike_id": "02cffca378ae46e928354e78b186a7a6", "fusion_lat": 0.0, "name": "02cffca378ae46e928354e78b186a7a6", "is_reserved": 0, "rental_uris": {"android": "https://dc.lft.to/lastmile_qr_scan", "ios": "https://dc.lft.to/lastmile_qr_scan"}, "fusion_lon": 0.0}, {"lat": 38.9337535, "is_disabled": 0, "type": "electric_scooter", "lon": -77.03797116666667, "bike_id": "2b9afdb033dc4b1b1edca8736f9f6861", "fusion_lat": 0.0, "name": "2b9afdb033dc4b1b1edca8736f9f6861", "is_reserved": 0, "rental_uris": {"android": "https://dc.lft.to/lastmile_qr_scan", "ios": "https://dc.lft.to/lastmile_qr_scan"}, "fusion_lon": 0.0}, {"lat": 38.957699166666664, "is_disabled": 0, "type": "electric_bike", "lon": -77.011566, "bike_id": "ac43cdc6b85712701702ab1a53bf02b1", "fusion_lat": 0.0, "name": "ac43cdc6b85712701702ab1a53bf02b1", "is_reserved": 0, "rental_uris": {"android": "https://dc.lft.to/lastmile_qr_scan", "ios": "https://dc.lft.to/lastmile_qr_scan"}, "fusion_lon": 0.0}, {"lat": 38.96274016666667, "is_disabled": 0, "type": "electric_bike", "lon": -77.03249266666667, "bike_id": "fc86fb103a3a70b3eac25b3777bde4f8", "fusion_lat": 0.0, "name": "fc86fb103a3a70b3eac25b3777bde4f8", "is_reserved": 0, "rental_uris": {"android": "https://dc.lft.to/lastmile_qr_scan", "ios": "https://dc.lft.to/lastmile_qr_scan"}, "fusion_lon": 0.0}, {"lat": 38.91965583333333, "is_disabled": 0, "type": "electric_bike", "lon": -76.97264433333333, "bike_id": "b8535a2a7a30a851787212d146bf0d94", "fusion_lat": 0.0, "name": "b8535a2a7a30a851787212d146bf0d94", "is_reserved": 0, "rental_uris": {"android": "https://dc.lft.to/lastmile_qr_scan", "ios": "https://dc.lft.to/lastmile_qr_scan"}, "fusion_lon": 0.0}, {"lat": 38.8982565, "is_disabled": 0, "type": "electric_scooter", "lon": -77.04333866666667, "bike_id": "2318e816dc2113838abbfdcfae05893d", "fusion_lat": 0.0, "name": "2318e816dc2113838abbfdcfae05893d", "is_reserved": 0, "rental_uris": {"android": "https://dc.lft.to/lastmile_qr_scan", "ios": "https://dc.lft.to/lastmile_qr_scan"}, "fusion_lon": 0.0}, {"lat": 38.917131, "is_disabled": 0, "type": "electric_scooter", "lon": -77.03500366666667, "bike_id": "cb3ce8bf82abb6f8aff8137767cdd5ab", "fusion_lat": 0.0, "name": "cb3ce8bf82abb6f8aff8137767cdd5ab", "is_reserved": 0, "rental_uris": {"android": "https://dc.lft.to/lastmile_qr_scan", "ios": "https://dc.lft.to/lastmile_qr_scan"}, "fusion_lon": 0.0}, {"lat": 38.876326, "is_disabled": 0, "type": "electric_scooter", "lon": -76.96525466666667, "bike_id": "746f7babd77bd06902c7b8843a6f86be", "fusion_lat": 0.0, "name": "746f7babd77bd06902c7b8843a6f86be", "is_reserved": 0, "rental_uris": {"android": "https://dc.lft.to/lastmile_qr_scan", "ios": "https://dc.lft.to/lastmile_qr_scan"}, "fusion_lon": 0.0}, {"lat": 38.89624516666667, "is_disabled": 0, "type": "electric_scooter", "lon": -76.99850116666667, "bike_id": "1483baf9039a09b2826dd1e55000aef1", "fusion_lat": 0.0, "name": "1483baf9039a09b2826dd1e55000aef1", "is_reserved": 0, "rental_uris": {"android": "https://dc.lft.to/lastmile_qr_scan", "ios": "https://dc.lft.to/lastmile_qr_scan"}, "fusion_lon": 0.0}, {"lat": 38.89905866666667, "is_disabled": 0, "type": "electric_scooter", "lon": -77.03328433333333, "bike_id": "e4e3f76cf44f70ce9635472a6b12c3ac", "fusion_lat": 0.0, "name": "e4e3f76cf44f70ce9635472a6b12c3ac", "is_reserved": 0, "rental_uris": {"android": "https://dc.lft.to/lastmile_qr_scan", "ios": "https://dc.lft.to/lastmile_qr_scan"}, "fusion_lon": 0.0}, {"lat": 39.03408866666667, "is_disabled": 0, "type": "electric_bike", "lon": -77.042124, "bike_id": "bee825aead19370fd40da03a198d0360", "fusion_lat": 0.0, "name": "bee825aead19370fd40da03a198d0360", "is_reserved": 0, "rental_uris": {"android": "https://dc.lft.to/lastmile_qr_scan", "ios": "https://dc.lft.to/lastmile_qr_scan"}, "fusion_lon": 0.0}, {"lat": 38.9235225, "is_disabled": 0, "type": "electric_scooter", "lon": -77.04122616666666, "bike_id": "ce8cada2df7c8d84ddc9ec2c35a8b6d9", "fusion_lat": 0.0, "name": "ce8cada2df7c8d84ddc9ec2c35a8b6d9", "is_reserved": 0, "rental_uris": {"android": "https://dc.lft.to/lastmile_qr_scan", "ios": "https://dc.lft.to/lastmile_qr_scan"}, "fusion_lon": 0.0}, {"lat": 38.938624833333336, "is_disabled": 0, "type": "electric_scooter", "lon": -77.02652666666667, "bike_id": "4c354d0bbd0972c53af2ff4714ad36ad", "fusion_lat": 0.0, "name": "4c354d0bbd0972c53af2ff4714ad36ad", "is_reserved": 0, "rental_uris": {"android": "https://dc.lft.to/lastmile_qr_scan", "ios": "https://dc.lft.to/lastmile_qr_scan"}, "fusion_lon": 0.0}, {"lat": 38.89328033333334, "is_disabled": 0, "type": "electric_scooter", "lon": -76.92989683333333, "bike_id": "86d6aa32d97b44d7152f822b009e8322", "fusion_lat": 0.0, "name": "86d6aa32d97b44d7152f822b009e8322", "is_reserved": 0, "rental_uris": {"android": "https://dc.lft.to/lastmile_qr_scan", "ios": "https://dc.lft.to/lastmile_qr_scan"}, "fusion_lon": 0.0}, {"lat": 38.907702666666665, "is_disabled": 0, "type": "electric_scooter", "lon": -77.00388016666666, "bike_id": "d59a0ece56919310e6537c960814c7d8", "fusion_lat": 0.0, "name": "d59a0ece56919310e6537c960814c7d8", "is_reserved": 0, "rental_uris": {"android": "https://dc.lft.to/lastmile_qr_scan", "ios": "https://dc.lft.to/lastmile_qr_scan"}, "fusion_lon": 0.0}, {"lat": 38.918115666666665, "is_disabled": 0, "type": "electric_scooter", "lon": -77.0316705, "bike_id": "ade370f5ef5714447c673192e8faaedd", "fusion_lat": 0.0, "name": "ade370f5ef5714447c673192e8faaedd", "is_reserved": 0, "rental_uris": {"android": "https://dc.lft.to/lastmile_qr_scan", "ios": "https://dc.lft.to/lastmile_qr_scan"}, "fusion_lon": 0.0}, {"lat": 38.897388166666666, "is_disabled": 0, "type": "electric_scooter", "lon": -77.02631766666667, "bike_id": "69f99628b3b4598a91d01a59b46876ed", "fusion_lat": 0.0, "name": "69f99628b3b4598a91d01a59b46876ed", "is_reserved": 0, "rental_uris": {"android": "https://dc.lft.to/lastmile_qr_scan", "ios": "https://dc.lft.to/lastmile_qr_scan"}, "fusion_lon": 0.0}, {"lat": 38.905751, "is_disabled": 0, "type": "electric_scooter", "lon": -77.02797133333333, "bike_id": "5e03b3c16a7d6924647f91eef1bae240", "fusion_lat": 0.0, "name": "5e03b3c16a7d6924647f91eef1bae240", "is_reserved": 0, "rental_uris": {"android": "https://dc.lft.to/lastmile_qr_scan", "ios": "https://dc.lft.to/lastmile_qr_scan"}, "fusion_lon": 0.0}, {"lat": 38.92368466666667, "is_disabled": 0, "type": "electric_scooter", "lon": -77.040327, "bike_id": "11accc412beacdaaa66c3e8127e8d3e9", "fusion_lat": 0.0, "name": "11accc412beacdaaa66c3e8127e8d3e9", "is_reserved": 0, "rental_uris": {"android": "https://dc.lft.to/lastmile_qr_scan", "ios": "https://dc.lft.to/lastmile_qr_scan"}, "fusion_lon": 0.0}, {"lat": 38.8848785, "is_disabled": 0, "type": "electric_scooter", "lon": -77.007125, "bike_id": "9923d2c6184cef763f6cdb14f14cd974", "fusion_lat": 0.0, "name": "9923d2c6184cef763f6cdb14f14cd974", "is_reserved": 0, "rental_uris": {"android": "https://dc.lft.to/lastmile_qr_scan", "ios": "https://dc.lft.to/lastmile_qr_scan"}, "fusion_lon": 0.0}, {"lat": 38.91199483333333, "is_disabled": 0, "type": "electric_scooter", "lon": -77.00205966666667, "bike_id": "e27f1138d00c89b12fe25661aeaff622", "fusion_lat": 0.0, "name": "e27f1138d00c89b12fe25661aeaff622", "is_reserved": 0, "rental_uris": {"android": "https://dc.lft.to/lastmile_qr_scan", "ios": "https://dc.lft.to/lastmile_qr_scan"}, "fusion_lon": 0.0}, {"lat": 38.84935733333333, "is_disabled": 0, "type": "electric_bike", "lon": -77.10015266666667, "bike_id": "47b331009541c5de9e518592021f1160", "fusion_lat": 0.0, "name": "47b331009541c5de9e518592021f1160", "is_reserved": 0, "rental_uris": {"android": "https://dc.lft.to/lastmile_qr_scan", "ios": "https://dc.lft.to/lastmile_qr_scan"}, "fusion_lon": 0.0}, {"lat": 38.92135666666667, "is_disabled": 0, "type": "electric_scooter", "lon": -77.01040116666667, "bike_id": "12bdd5ecfb435fc81b5181e42a9bd09e", "fusion_lat": 0.0, "name": "12bdd5ecfb435fc81b5181e42a9bd09e", "is_reserved": 0, "rental_uris": {"android": "https://dc.lft.to/lastmile_qr_scan", "ios": "https://dc.lft.to/lastmile_qr_scan"}, "fusion_lon": 0.0}, {"lat": 38.86629283333333, "is_disabled": 0, "type": "electric_scooter", "lon": -76.986968, "bike_id": "762e6c6d762286e7f8249fc69c8dfc2f", "fusion_lat": 0.0, "name": "762e6c6d762286e7f8249fc69c8dfc2f", "is_reserved": 0, "rental_uris": {"android": "https://dc.lft.to/lastmile_qr_scan", "ios": "https://dc.lft.to/lastmile_qr_scan"}, "fusion_lon": 0.0}, {"lat": 38.88765733333334, "is_disabled": 0, "type": "electric_scooter", "lon": -76.95600483333334, "bike_id": "2af3502b53557e0a34aa54de3b80990d", "fusion_lat": 0.0, "name": "2af3502b53557e0a34aa54de3b80990d", "is_reserved": 0, "rental_uris": {"android": "https://dc.lft.to/lastmile_qr_scan", "ios": "https://dc.lft.to/lastmile_qr_scan"}, "fusion_lon": 0.0}, {"lat": 38.842837, "is_disabled": 0, "type": "electric_bike", "lon": -76.98838433333333, "bike_id": "c3d6e62a54223c83fbde7b8f9dd608b3", "fusion_lat": 0.0, "name": "c3d6e62a54223c83fbde7b8f9dd608b3", "is_reserved": 0, "rental_uris": {"android": "https://dc.lft.to/lastmile_qr_scan", "ios": "https://dc.lft.to/lastmile_qr_scan"}, "fusion_lon": 0.0}, {"lat": 38.84296, "is_disabled": 0, "type": "electric_scooter", "lon": -76.99944966666666, "bike_id": "67090212b64b911550b8b81f474a7606", "fusion_lat": 0.0, "name": "67090212b64b911550b8b81f474a7606", "is_reserved": 0, "rental_uris": {"android": "https://dc.lft.to/lastmile_qr_scan", "ios": "https://dc.lft.to/lastmile_qr_scan"}, "fusion_lon": 0.0}, {"lat": 38.902401166666664, "is_disabled": 0, "type": "electric_scooter", "lon": -77.0019985, "bike_id": "5061b1324353251d6364a05d260a13ca", "fusion_lat": 0.0, "name": "5061b1324353251d6364a05d260a13ca", "is_reserved": 0, "rental_uris": {"android": "https://dc.lft.to/lastmile_qr_scan", "ios": "https://dc.lft.to/lastmile_qr_scan"}, "fusion_lon": 0.0}, {"lat": 38.9719425, "is_disabled": 0, "type": "electric_bike", "lon": -77.027187, "bike_id": "c86de608a1578f03473e6b115f5e73bd", "fusion_lat": 0.0, "name": "c86de608a1578f03473e6b115f5e73bd", "is_reserved": 0, "rental_uris": {"android": "https://dc.lft.to/lastmile_qr_scan", "ios": "https://dc.lft.to/lastmile_qr_scan"}, "fusion_lon": 0.0}, {"lat": 38.90974416666667, "is_disabled": 0, "type": "electric_scooter", "lon": -77.03250516666667, "bike_id": "b02ed2a74549a639f20eaaa9a39bf163", "fusion_lat": 0.0, "name": "b02ed2a74549a639f20eaaa9a39bf163", "is_reserved": 0, "rental_uris": {"android": "https://dc.lft.to/lastmile_qr_scan", "ios": "https://dc.lft.to/lastmile_qr_scan"}, "fusion_lon": 0.0}, {"lat": 38.90969583333333, "is_disabled": 0, "type": "electric_scooter", "lon": -77.00920683333334, "bike_id": "9a8dffdbba18ecbaef220f20a2545270", "fusion_lat": 0.0, "name": "9a8dffdbba18ecbaef220f20a2545270", "is_reserved": 0, "rental_uris": {"android": "https://dc.lft.to/lastmile_qr_scan", "ios": "https://dc.lft.to/lastmile_qr_scan"}, "fusion_lon": 0.0}, {"lat": 38.9224645, "is_disabled": 0, "type": "electric_scooter", "lon": -77.042689, "bike_id": "b26520c0399d95627dc286539dc2872c", "fusion_lat": 0.0, "name": "b26520c0399d95627dc286539dc2872c", "is_reserved": 0, "rental_uris": {"android": "https://dc.lft.to/lastmile_qr_scan", "ios": "https://dc.lft.to/lastmile_qr_scan"}, "fusion_lon": 0.0}, {"lat": 38.90108883333333, "is_disabled": 0, "type": "electric_scooter", "lon": -77.05902166666667, "bike_id": "357acc684130464e216881d53f1cd728", "fusion_lat": 0.0, "name": "357acc684130464e216881d53f1cd728", "is_reserved": 0, "rental_uris": {"android": "https://dc.lft.to/lastmile_qr_scan", "ios": "https://dc.lft.to/lastmile_qr_scan"}, "fusion_lon": 0.0}, {"lat": 38.907925166666665, "is_disabled": 0, "type": "electric_scooter", "lon": -77.043376, "bike_id": "54aaa003e3e4e15daa9043283bc9144c", "fusion_lat": 0.0, "name": "54aaa003e3e4e15daa9043283bc9144c", "is_reserved": 0, "rental_uris": {"android": "https://dc.lft.to/lastmile_qr_scan", "ios": "https://dc.lft.to/lastmile_qr_scan"}, "fusion_lon": 0.0}, {"lat": 38.905470666666666, "is_disabled": 0, "type": "electric_scooter", "lon": -77.03406966666667, "bike_id": "8ef7c2e829d944798d14cf707dafcedf", "fusion_lat": 0.0, "name": "8ef7c2e829d944798d14cf707dafcedf", "is_reserved": 0, "rental_uris": {"android": "https://dc.lft.to/lastmile_qr_scan", "ios": "https://dc.lft.to/lastmile_qr_scan"}, "fusion_lon": 0.0}, {"lat": 38.9080355, "is_disabled": 0, "type": "electric_scooter", "lon": -77.04336233333333, "bike_id": "a82e2bbe7f9bfd673a767a878f8a8601", "fusion_lat": 0.0, "name": "a82e2bbe7f9bfd673a767a878f8a8601", "is_reserved": 0, "rental_uris": {"android": "https://dc.lft.to/lastmile_qr_scan", "ios": "https://dc.lft.to/lastmile_qr_scan"}, "fusion_lon": 0.0}, {"lat": 38.90978883333333, "is_disabled": 0, "type": "electric_bike", "lon": -76.9851345, "bike_id": "962081c0c676bcdbdb16113293559096", "fusion_lat": 0.0, "name": "962081c0c676bcdbdb16113293559096", "is_reserved": 0, "rental_uris": {"android": "https://dc.lft.to/lastmile_qr_scan", "ios": "https://dc.lft.to/lastmile_qr_scan"}, "fusion_lon": 0.0}, {"lat": 38.9244695, "is_disabled": 0, "type": "electric_scooter", "lon": -77.05195166666667, "bike_id": "d312d9b2aa179c4cbb08d3f02035c689", "fusion_lat": 0.0, "name": "d312d9b2aa179c4cbb08d3f02035c689", "is_reserved": 0, "rental_uris": {"android": "https://dc.lft.to/lastmile_qr_scan", "ios": "https://dc.lft.to/lastmile_qr_scan"}, "fusion_lon": 0.0}, {"lat": 38.893468, "is_disabled": 0, "type": "electric_scooter", "lon": -76.9493355, "bike_id": "882fd6bf9774a02bff4d24e96c774bbd", "fusion_lat": 0.0, "name": "882fd6bf9774a02bff4d24e96c774bbd", "is_reserved": 0, "rental_uris": {"android": "https://dc.lft.to/lastmile_qr_scan", "ios": "https://dc.lft.to/lastmile_qr_scan"}, "fusion_lon": 0.0}, {"lat": 38.86255366666666, "is_disabled": 0, "type": "electric_scooter", "lon": -76.98696266666667, "bike_id": "c58df76ae4b4fdf7c527b58889dcbcc2", "fusion_lat": 0.0, "name": "c58df76ae4b4fdf7c527b58889dcbcc2", "is_reserved": 0, "rental_uris": {"android": "https://dc.lft.to/lastmile_qr_scan", "ios": "https://dc.lft.to/lastmile_qr_scan"}, "fusion_lon": 0.0}, {"lat": 38.951848, "is_disabled": 0, "type": "electric_bike", "lon": -76.93544983333334, "bike_id": "7190e172b172618e1c52d77e48da7e15", "fusion_lat": 0.0, "name": "7190e172b172618e1c52d77e48da7e15", "is_reserved": 0, "rental_uris": {"android": "https://dc.lft.to/lastmile_qr_scan", "ios": "https://dc.lft.to/lastmile_qr_scan"}, "fusion_lon": 0.0}, {"lat": 38.91108666666667, "is_disabled": 0, "type": "electric_scooter", "lon": -77.036239, "bike_id": "e5ef60dc4f30da7384e11d222710d5ce", "fusion_lat": 0.0, "name": "e5ef60dc4f30da7384e11d222710d5ce", "is_reserved": 0, "rental_uris": {"android": "https://dc.lft.to/lastmile_qr_scan", "ios": "https://dc.lft.to/lastmile_qr_scan"}, "fusion_lon": 0.0}, {"lat": 38.920455, "is_disabled": 0, "type": "electric_scooter", "lon": -77.0419545, "bike_id": "40290eec349b7d9ace5c59564e0b96d4", "fusion_lat": 0.0, "name": "40290eec349b7d9ace5c59564e0b96d4", "is_reserved": 0, "rental_uris": {"android": "https://dc.lft.to/lastmile_qr_scan", "ios": "https://dc.lft.to/lastmile_qr_scan"}, "fusion_lon": 0.0}, {"lat": 38.91696966666667, "is_disabled": 0, "type": "electric_scooter", "lon": -77.03184766666666, "bike_id": "43883a2c7096f9b6e2e43f1a6f4e91e2", "fusion_lat": 0.0, "name": "43883a2c7096f9b6e2e43f1a6f4e91e2", "is_reserved": 0, "rental_uris": {"android": "https://dc.lft.to/lastmile_qr_scan", "ios": "https://dc.lft.to/lastmile_qr_scan"}, "fusion_lon": 0.0}, {"lat": 38.87077466666667, "is_disabled": 0, "type": "electric_scooter", "lon": -77.01188233333333, "bike_id": "274a174f2ab70ec66c0073ecd8e2462b", "fusion_lat": 0.0, "name": "274a174f2ab70ec66c0073ecd8e2462b", "is_reserved": 0, "rental_uris": {"android": "https://dc.lft.to/lastmile_qr_scan", "ios": "https://dc.lft.to/lastmile_qr_scan"}, "fusion_lon": 0.0}, {"lat": 38.920631166666666, "is_disabled": 0, "type": "electric_scooter", "lon": -77.0436935, "bike_id": "f71f79c8b404bd8db3ebacb7d59f4eaf", "fusion_lat": 0.0, "name": "f71f79c8b404bd8db3ebacb7d59f4eaf", "is_reserved": 0, "rental_uris": {"android": "https://dc.lft.to/lastmile_qr_scan", "ios": "https://dc.lft.to/lastmile_qr_scan"}, "fusion_lon": 0.0}, {"lat": 38.9135195, "is_disabled": 0, "type": "electric_scooter", "lon": -77.03181833333333, "bike_id": "446a01fd5d4ee0e61b89234253cde789", "fusion_lat": 0.0, "name": "446a01fd5d4ee0e61b89234253cde789", "is_reserved": 0, "rental_uris": {"android": "https://dc.lft.to/lastmile_qr_scan", "ios": "https://dc.lft.to/lastmile_qr_scan"}, "fusion_lon": 0.0}, {"lat": 38.87730616666666, "is_disabled": 0, "type": "electric_bike", "lon": -77.11852333333333, "bike_id": "6c851d5d5722bea7f7664e2574a308ab", "fusion_lat": 0.0, "name": "6c851d5d5722bea7f7664e2574a308ab", "is_reserved": 0, "rental_uris": {"android": "https://dc.lft.to/lastmile_qr_scan", "ios": "https://dc.lft.to/lastmile_qr_scan"}, "fusion_lon": 0.0}, {"lat": 38.924659166666665, "is_disabled": 0, "type": "electric_bike", "lon": -77.208376, "bike_id": "261865413160f14f258c4e6f63a93378", "fusion_lat": 0.0, "name": "261865413160f14f258c4e6f63a93378", "is_reserved": 0, "rental_uris": {"android": "https://dc.lft.to/lastmile_qr_scan", "ios": "https://dc.lft.to/lastmile_qr_scan"}, "fusion_lon": 0.0}, {"lat": 38.94453, "is_disabled": 0, "type": "electric_scooter", "lon": -77.0603215, "bike_id": "9618a652ff72c05a45c71d98e4aa861a", "fusion_lat": 0.0, "name": "9618a652ff72c05a45c71d98e4aa861a", "is_reserved": 0, "rental_uris": {"android": "https://dc.lft.to/lastmile_qr_scan", "ios": "https://dc.lft.to/lastmile_qr_scan"}, "fusion_lon": 0.0}, {"lat": 38.85811866666667, "is_disabled": 0, "type": "electric_scooter", "lon": -76.986537, "bike_id": "e74297ec59c6a9f5b9828d462fd3ca4a", "fusion_lat": 0.0, "name": "e74297ec59c6a9f5b9828d462fd3ca4a", "is_reserved": 0, "rental_uris": {"android": "https://dc.lft.to/lastmile_qr_scan", "ios": "https://dc.lft.to/lastmile_qr_scan"}, "fusion_lon": 0.0}, {"lat": 38.922507, "is_disabled": 0, "type": "electric_scooter", "lon": -76.99389733333334, "bike_id": "eb865b4ad85bdaf9ca271801cc77f12e", "fusion_lat": 0.0, "name": "eb865b4ad85bdaf9ca271801cc77f12e", "is_reserved": 0, "rental_uris": {"android": "https://dc.lft.to/lastmile_qr_scan", "ios": "https://dc.lft.to/lastmile_qr_scan"}, "fusion_lon": 0.0}, {"lat": 38.918079666666664, "is_disabled": 0, "type": "electric_scooter", "lon": -77.02876833333333, "bike_id": "f45726a648b531fa02ca244b0a125915", "fusion_lat": 0.0, "name": "f45726a648b531fa02ca244b0a125915", "is_reserved": 0, "rental_uris": {"android": "https://dc.lft.to/lastmile_qr_scan", "ios": "https://dc.lft.to/lastmile_qr_scan"}, "fusion_lon": 0.0}, {"lat": 38.87423033333334, "is_disabled": 0, "type": "electric_bike", "lon": -77.0857525, "bike_id": "49b8bd3464cbc66ffd0a0fccf75161d8", "fusion_lat": 0.0, "name": "49b8bd3464cbc66ffd0a0fccf75161d8", "is_reserved": 0, "rental_uris": {"android": "https://dc.lft.to/lastmile_qr_scan", "ios": "https://dc.lft.to/lastmile_qr_scan"}, "fusion_lon": 0.0}, {"lat": 38.91697383333333, "is_disabled": 0, "type": "electric_scooter", "lon": -77.02472166666666, "bike_id": "57d1141f274dd4d04ca25c077460e79d", "fusion_lat": 0.0, "name": "57d1141f274dd4d04ca25c077460e79d", "is_reserved": 0, "rental_uris": {"android": "https://dc.lft.to/lastmile_qr_scan", "ios": "https://dc.lft.to/lastmile_qr_scan"}, "fusion_lon": 0.0}, {"lat": 38.92941883333334, "is_disabled": 0, "type": "electric_scooter", "lon": -77.032574, "bike_id": "76a68f44eda2e3ab68a3157f1fc3f239", "fusion_lat": 0.0, "name": "76a68f44eda2e3ab68a3157f1fc3f239", "is_reserved": 0, "rental_uris": {"android": "https://dc.lft.to/lastmile_qr_scan", "ios": "https://dc.lft.to/lastmile_qr_scan"}, "fusion_lon": 0.0}, {"lat": 38.90900633333333, "is_disabled": 0, "type": "electric_scooter", "lon": -77.03198766666667, "bike_id": "f7039e15609384e43b766ee364313851", "fusion_lat": 0.0, "name": "f7039e15609384e43b766ee364313851", "is_reserved": 0, "rental_uris": {"android": "https://dc.lft.to/lastmile_qr_scan", "ios": "https://dc.lft.to/lastmile_qr_scan"}, "fusion_lon": 0.0}, {"lat": 38.91066433333334, "is_disabled": 0, "type": "electric_scooter", "lon": -77.04338733333333, "bike_id": "7d726ffd942bbaa6240da0e796698bc0", "fusion_lat": 0.0, "name": "7d726ffd942bbaa6240da0e796698bc0", "is_reserved": 0, "rental_uris": {"android": "https://dc.lft.to/lastmile_qr_scan", "ios": "https://dc.lft.to/lastmile_qr_scan"}, "fusion_lon": 0.0}, {"lat": 38.8988795, "is_disabled": 0, "type": "electric_scooter", "lon": -77.0396525, "bike_id": "6f759ab85c7ca3d643d3460fd19f540c", "fusion_lat": 0.0, "name": "6f759ab85c7ca3d643d3460fd19f540c", "is_reserved": 0, "rental_uris": {"android": "https://dc.lft.to/lastmile_qr_scan", "ios": "https://dc.lft.to/lastmile_qr_scan"}, "fusion_lon": 0.0}, {"lat": 38.89231233333334, "is_disabled": 0, "type": "electric_scooter", "lon": -77.05000366666667, "bike_id": "f70b9b4d7b5265aaf75915680ba715e1", "fusion_lat": 0.0, "name": "f70b9b4d7b5265aaf75915680ba715e1", "is_reserved": 0, "rental_uris": {"android": "https://dc.lft.to/lastmile_qr_scan", "ios": "https://dc.lft.to/lastmile_qr_scan"}, "fusion_lon": 0.0}, {"lat": 38.900382666666665, "is_disabled": 0, "type": "electric_scooter", "lon": -77.005794, "bike_id": "f44ce88e74cf1961e1b90effd8e6a7cc", "fusion_lat": 0.0, "name": "f44ce88e74cf1961e1b90effd8e6a7cc", "is_reserved": 0, "rental_uris": {"android": "https://dc.lft.to/lastmile_qr_scan", "ios": "https://dc.lft.to/lastmile_qr_scan"}, "fusion_lon": 0.0}, {"lat": 38.917012166666666, "is_disabled": 0, "type": "electric_scooter", "lon": -77.04270183333334, "bike_id": "cf7b3463908def54dc26ab5e407f40ca", "fusion_lat": 0.0, "name": "cf7b3463908def54dc26ab5e407f40ca", "is_reserved": 0, "rental_uris": {"android": "https://dc.lft.to/lastmile_qr_scan", "ios": "https://dc.lft.to/lastmile_qr_scan"}, "fusion_lon": 0.0}, {"lat": 38.95275516666667, "is_disabled": 0, "type": "electric_scooter", "lon": -77.03664166666667, "bike_id": "7a69fd2dcfc5f56f20a7cdbcb9f1f424", "fusion_lat": 0.0, "name": "7a69fd2dcfc5f56f20a7cdbcb9f1f424", "is_reserved": 0, "rental_uris": {"android": "https://dc.lft.to/lastmile_qr_scan", "ios": "https://dc.lft.to/lastmile_qr_scan"}, "fusion_lon": 0.0}, {"lat": 38.954049, "is_disabled": 0, "type": "electric_scooter", "lon": -77.027975, "bike_id": "854d162586c6a5ea6ef7171193d333d3", "fusion_lat": 0.0, "name": "854d162586c6a5ea6ef7171193d333d3", "is_reserved": 0, "rental_uris": {"android": "https://dc.lft.to/lastmile_qr_scan", "ios": "https://dc.lft.to/lastmile_qr_scan"}, "fusion_lon": 0.0}, {"lat": 38.90973533333333, "is_disabled": 0, "type": "electric_scooter", "lon": -77.04518533333334, "bike_id": "817f88e8b2dcd0b9fbb26a076f434d8b", "fusion_lat": 0.0, "name": "817f88e8b2dcd0b9fbb26a076f434d8b", "is_reserved": 0, "rental_uris": {"android": "https://dc.lft.to/lastmile_qr_scan", "ios": "https://dc.lft.to/lastmile_qr_scan"}, "fusion_lon": 0.0}, {"lat": 38.99616416666667, "is_disabled": 0, "type": "electric_scooter", "lon": -77.03216266666666, "bike_id": "2848e87994b77d0431704138d36772b8", "fusion_lat": 0.0, "name": "2848e87994b77d0431704138d36772b8", "is_reserved": 0, "rental_uris": {"android": "https://dc.lft.to/lastmile_qr_scan", "ios": "https://dc.lft.to/lastmile_qr_scan"}, "fusion_lon": 0.0}, {"lat": 38.902539166666664, "is_disabled": 0, "type": "electric_scooter", "lon": -77.04606166666667, "bike_id": "3feaf6d3e4b6772de1989e0d7424522d", "fusion_lat": 0.0, "name": "3feaf6d3e4b6772de1989e0d7424522d", "is_reserved": 0, "rental_uris": {"android": "https://dc.lft.to/lastmile_qr_scan", "ios": "https://dc.lft.to/lastmile_qr_scan"}, "fusion_lon": 0.0}, {"lat": 38.888109166666666, "is_disabled": 0, "type": "electric_scooter", "lon": -77.04426833333333, "bike_id": "0ba778e691926bd010695daf744bf36a", "fusion_lat": 0.0, "name": "0ba778e691926bd010695daf744bf36a", "is_reserved": 0, "rental_uris": {"android": "https://dc.lft.to/lastmile_qr_scan", "ios": "https://dc.lft.to/lastmile_qr_scan"}, "fusion_lon": 0.0}, {"lat": 38.90414716666667, "is_disabled": 0, "type": "electric_scooter", "lon": -76.99282816666667, "bike_id": "8d717a71adfe43be91e8eef82d9c51f6", "fusion_lat": 0.0, "name": "8d717a71adfe43be91e8eef82d9c51f6", "is_reserved": 0, "rental_uris": {"android": "https://dc.lft.to/lastmile_qr_scan", "ios": "https://dc.lft.to/lastmile_qr_scan"}, "fusion_lon": 0.0}, {"lat": 38.877136, "is_disabled": 0, "type": "electric_scooter", "lon": -77.007571, "bike_id": "48e9936de80010d580f32fd1c3e6ae70", "fusion_lat": 0.0, "name": "48e9936de80010d580f32fd1c3e6ae70", "is_reserved": 0, "rental_uris": {"android": "https://dc.lft.to/lastmile_qr_scan", "ios": "https://dc.lft.to/lastmile_qr_scan"}, "fusion_lon": 0.0}, {"lat": 38.90141833333333, "is_disabled": 0, "type": "electric_scooter", "lon": -76.9805505, "bike_id": "4539afe6accded3e0d655b25d5528949", "fusion_lat": 0.0, "name": "4539afe6accded3e0d655b25d5528949", "is_reserved": 0, "rental_uris": {"android": "https://dc.lft.to/lastmile_qr_scan", "ios": "https://dc.lft.to/lastmile_qr_scan"}, "fusion_lon": 0.0}, {"lat": 38.823364166666664, "is_disabled": 0, "type": "electric_bike", "lon": -77.05821516666667, "bike_id": "37c535d2e28d05e05313c12898abcec7", "fusion_lat": 0.0, "name": "37c535d2e28d05e05313c12898abcec7", "is_reserved": 0, "rental_uris": {"android": "https://dc.lft.to/lastmile_qr_scan", "ios": "https://dc.lft.to/lastmile_qr_scan"}, "fusion_lon": 0.0}, {"lat": 38.8460865, "is_disabled": 0, "type": "electric_bike", "lon": -76.96906866666667, "bike_id": "e71871ad1860431b6f4a15f51e388787", "fusion_lat": 0.0, "name": "e71871ad1860431b6f4a15f51e388787", "is_reserved": 0, "rental_uris": {"android": "https://dc.lft.to/lastmile_qr_scan", "ios": "https://dc.lft.to/lastmile_qr_scan"}, "fusion_lon": 0.0}, {"lat": 38.922216166666665, "is_disabled": 0, "type": "electric_scooter", "lon": -77.04249066666667, "bike_id": "c282a8f987d4482ac7936ddba4deaa00", "fusion_lat": 0.0, "name": "c282a8f987d4482ac7936ddba4deaa00", "is_reserved": 0, "rental_uris": {"android": "https://dc.lft.to/lastmile_qr_scan", "ios": "https://dc.lft.to/lastmile_qr_scan"}, "fusion_lon": 0.0}, {"lat": 38.89819766666667, "is_disabled": 0, "type": "electric_scooter", "lon": -76.97426133333333, "bike_id": "9b4ed63e423fe0e171e0ef0ec4c3adba", "fusion_lat": 0.0, "name": "9b4ed63e423fe0e171e0ef0ec4c3adba", "is_reserved": 0, "rental_uris": {"android": "https://dc.lft.to/lastmile_qr_scan", "ios": "https://dc.lft.to/lastmile_qr_scan"}, "fusion_lon": 0.0}, {"lat": 38.903695166666665, "is_disabled": 0, "type": "electric_scooter", "lon": -77.062838, "bike_id": "fd5062a705fe1e7aa571cd2c01f26dea", "fusion_lat": 0.0, "name": "fd5062a705fe1e7aa571cd2c01f26dea", "is_reserved": 0, "rental_uris": {"android": "https://dc.lft.to/lastmile_qr_scan", "ios": "https://dc.lft.to/lastmile_qr_scan"}, "fusion_lon": 0.0}, {"lat": 38.9162275, "is_disabled": 0, "type": "electric_scooter", "lon": -77.02388633333334, "bike_id": "b12556a12d2beb5b8e98189e0a5f6ffd", "fusion_lat": 0.0, "name": "b12556a12d2beb5b8e98189e0a5f6ffd", "is_reserved": 0, "rental_uris": {"android": "https://dc.lft.to/lastmile_qr_scan", "ios": "https://dc.lft.to/lastmile_qr_scan"}, "fusion_lon": 0.0}, {"lat": 38.92760233333333, "is_disabled": 0, "type": "electric_scooter", "lon": -77.03690033333334, "bike_id": "814e0c1d79a940a97f227901baaa36e6", "fusion_lat": 0.0, "name": "814e0c1d79a940a97f227901baaa36e6", "is_reserved": 0, "rental_uris": {"android": "https://dc.lft.to/lastmile_qr_scan", "ios": "https://dc.lft.to/lastmile_qr_scan"}, "fusion_lon": 0.0}, {"lat": 38.93116116666667, "is_disabled": 0, "type": "electric_scooter", "lon": -77.0302965, "bike_id": "232b944488eeedc8fd87e21f0aaf9132", "fusion_lat": 0.0, "name": "232b944488eeedc8fd87e21f0aaf9132", "is_reserved": 0, "rental_uris": {"android": "https://dc.lft.to/lastmile_qr_scan", "ios": "https://dc.lft.to/lastmile_qr_scan"}, "fusion_lon": 0.0}, {"lat": 38.90423883333333, "is_disabled": 0, "type": "electric_scooter", "lon": -76.99073016666667, "bike_id": "e2edc56f14af4e4c31dda481730bb4af", "fusion_lat": 0.0, "name": "e2edc56f14af4e4c31dda481730bb4af", "is_reserved": 0, "rental_uris": {"android": "https://dc.lft.to/lastmile_qr_scan", "ios": "https://dc.lft.to/lastmile_qr_scan"}, "fusion_lon": 0.0}, {"lat": 38.904052666666665, "is_disabled": 0, "type": "electric_scooter", "lon": -77.043421, "bike_id": "8876d0261f5b367c04bd961224eb42d7", "fusion_lat": 0.0, "name": "8876d0261f5b367c04bd961224eb42d7", "is_reserved": 0, "rental_uris": {"android": "https://dc.lft.to/lastmile_qr_scan", "ios": "https://dc.lft.to/lastmile_qr_scan"}, "fusion_lon": 0.0}, {"lat": 38.91971383333333, "is_disabled": 0, "type": "electric_scooter", "lon": -76.99229283333334, "bike_id": "156e3bd03d553495f7ad0d3b587ae25c", "fusion_lat": 0.0, "name": "156e3bd03d553495f7ad0d3b587ae25c", "is_reserved": 0, "rental_uris": {"android": "https://dc.lft.to/lastmile_qr_scan", "ios": "https://dc.lft.to/lastmile_qr_scan"}, "fusion_lon": 0.0}, {"lat": 38.908530999999996, "is_disabled": 0, "type": "electric_scooter", "lon": -77.00624366666666, "bike_id": "614557b6b02a6ddc45c19d622804e4dc", "fusion_lat": 0.0, "name": "614557b6b02a6ddc45c19d622804e4dc", "is_reserved": 0, "rental_uris": {"android": "https://dc.lft.to/lastmile_qr_scan", "ios": "https://dc.lft.to/lastmile_qr_scan"}, "fusion_lon": 0.0}, {"lat": 38.97347166666667, "is_disabled": 0, "type": "electric_scooter", "lon": -77.01791566666667, "bike_id": "ab842cf41dfae8f29bbe90a48ad7d527", "fusion_lat": 0.0, "name": "ab842cf41dfae8f29bbe90a48ad7d527", "is_reserved": 0, "rental_uris": {"android": "https://dc.lft.to/lastmile_qr_scan", "ios": "https://dc.lft.to/lastmile_qr_scan"}, "fusion_lon": 0.0}, {"lat": 38.876339, "is_disabled": 0, "type": "electric_scooter", "lon": -77.00952433333333, "bike_id": "8bec18a96401727fe608e1262ddf341d", "fusion_lat": 0.0, "name": "8bec18a96401727fe608e1262ddf341d", "is_reserved": 0, "rental_uris": {"android": "https://dc.lft.to/lastmile_qr_scan", "ios": "https://dc.lft.to/lastmile_qr_scan"}, "fusion_lon": 0.0}, {"lat": 38.960217166666666, "is_disabled": 0, "type": "electric_bike", "lon": -77.01727083333333, "bike_id": "1dbbca2375b314c218a438292999ded8", "fusion_lat": 0.0, "name": "1dbbca2375b314c218a438292999ded8", "is_reserved": 0, "rental_uris": {"android": "https://dc.lft.to/lastmile_qr_scan", "ios": "https://dc.lft.to/lastmile_qr_scan"}, "fusion_lon": 0.0}, {"lat": 38.807533666666664, "is_disabled": 0, "type": "electric_bike", "lon": -77.09479066666667, "bike_id": "e1c92414b626e32c4163ef54598aaf24", "fusion_lat": 0.0, "name": "e1c92414b626e32c4163ef54598aaf24", "is_reserved": 0, "rental_uris": {"android": "https://dc.lft.to/lastmile_qr_scan", "ios": "https://dc.lft.to/lastmile_qr_scan"}, "fusion_lon": 0.0}, {"lat": 38.89232416666667, "is_disabled": 0, "type": "electric_scooter", "lon": -77.05001383333334, "bike_id": "1f1f08ecdd830011faa0da80fa6be995", "fusion_lat": 0.0, "name": "1f1f08ecdd830011faa0da80fa6be995", "is_reserved": 0, "rental_uris": {"android": "https://dc.lft.to/lastmile_qr_scan", "ios": "https://dc.lft.to/lastmile_qr_scan"}, "fusion_lon": 0.0}, {"lat": 38.884693166666665, "is_disabled": 0, "type": "electric_scooter", "lon": -76.99262516666667, "bike_id": "c6d39fcfb4606933a52ec3ecde07b7f2", "fusion_lat": 0.0, "name": "c6d39fcfb4606933a52ec3ecde07b7f2", "is_reserved": 0, "rental_uris": {"android": "https://dc.lft.to/lastmile_qr_scan", "ios": "https://dc.lft.to/lastmile_qr_scan"}, "fusion_lon": 0.0}, {"lat": 38.926019, "is_disabled": 0, "type": "electric_scooter", "lon": -77.0215485, "bike_id": "29407637662ad6899257656d0e02c45e", "fusion_lat": 0.0, "name": "29407637662ad6899257656d0e02c45e", "is_reserved": 0, "rental_uris": {"android": "https://dc.lft.to/lastmile_qr_scan", "ios": "https://dc.lft.to/lastmile_qr_scan"}, "fusion_lon": 0.0}, {"lat": 39.029349833333335, "is_disabled": 0, "type": "electric_bike", "lon": -77.0492585, "bike_id": "3f5616847ffd0c5145f1095322c3a899", "fusion_lat": 0.0, "name": "3f5616847ffd0c5145f1095322c3a899", "is_reserved": 0, "rental_uris": {"android": "https://dc.lft.to/lastmile_qr_scan", "ios": "https://dc.lft.to/lastmile_qr_scan"}, "fusion_lon": 0.0}, {"lat": 38.95328933333333, "is_disabled": 0, "type": "electric_scooter", "lon": -77.02748766666667, "bike_id": "1b25e59e2ba98cbeb2c86803533a7b1f", "fusion_lat": 0.0, "name": "1b25e59e2ba98cbeb2c86803533a7b1f", "is_reserved": 0, "rental_uris": {"android": "https://dc.lft.to/lastmile_qr_scan", "ios": "https://dc.lft.to/lastmile_qr_scan"}, "fusion_lon": 0.0}, {"lat": 38.91985666666667, "is_disabled": 0, "type": "electric_scooter", "lon": -76.97309266666667, "bike_id": "ecbd4d2ddc3096196871a770c3ec9673", "fusion_lat": 0.0, "name": "ecbd4d2ddc3096196871a770c3ec9673", "is_reserved": 0, "rental_uris": {"android": "https://dc.lft.to/lastmile_qr_scan", "ios": "https://dc.lft.to/lastmile_qr_scan"}, "fusion_lon": 0.0}, {"lat": 38.88490383333333, "is_disabled": 0, "type": "electric_scooter", "lon": -77.0071415, "bike_id": "ccdf0051e9dc8c4eed5e84a0e4b75d75", "fusion_lat": 0.0, "name": "ccdf0051e9dc8c4eed5e84a0e4b75d75", "is_reserved": 0, "rental_uris": {"android": "https://dc.lft.to/lastmile_qr_scan", "ios": "https://dc.lft.to/lastmile_qr_scan"}, "fusion_lon": 0.0}, {"lat": 38.91802916666666, "is_disabled": 0, "type": "electric_scooter", "lon": -77.03197433333334, "bike_id": "9b50b14802cd1528533ba4d7b11a32b1", "fusion_lat": 0.0, "name": "9b50b14802cd1528533ba4d7b11a32b1", "is_reserved": 0, "rental_uris": {"android": "https://dc.lft.to/lastmile_qr_scan", "ios": "https://dc.lft.to/lastmile_qr_scan"}, "fusion_lon": 0.0}, {"lat": 38.915859, "is_disabled": 0, "type": "electric_scooter", "lon": -77.03195566666666, "bike_id": "01eb6aba58928d15a4c8a015d288c4ef", "fusion_lat": 0.0, "name": "01eb6aba58928d15a4c8a015d288c4ef", "is_reserved": 0, "rental_uris": {"android": "https://dc.lft.to/lastmile_qr_scan", "ios": "https://dc.lft.to/lastmile_qr_scan"}, "fusion_lon": 0.0}, {"lat": 38.91952066666666, "is_disabled": 0, "type": "electric_scooter", "lon": -76.98078833333334, "bike_id": "ebd6020d4275970c5fd258d658adb3e4", "fusion_lat": 0.0, "name": "ebd6020d4275970c5fd258d658adb3e4", "is_reserved": 0, "rental_uris": {"android": "https://dc.lft.to/lastmile_qr_scan", "ios": "https://dc.lft.to/lastmile_qr_scan"}, "fusion_lon": 0.0}, {"lat": 38.9337595, "is_disabled": 0, "type": "electric_scooter", "lon": -77.0379585, "bike_id": "fcaa71255d187dd969fc8295b8bb5fb2", "fusion_lat": 0.0, "name": "fcaa71255d187dd969fc8295b8bb5fb2", "is_reserved": 0, "rental_uris": {"android": "https://dc.lft.to/lastmile_qr_scan", "ios": "https://dc.lft.to/lastmile_qr_scan"}, "fusion_lon": 0.0}, {"lat": 38.91166283333333, "is_disabled": 0, "type": "electric_scooter", "lon": -77.04493866666667, "bike_id": "dbce77c1a44cf2b79b7c442dee115d02", "fusion_lat": 0.0, "name": "dbce77c1a44cf2b79b7c442dee115d02", "is_reserved": 0, "rental_uris": {"android": "https://dc.lft.to/lastmile_qr_scan", "ios": "https://dc.lft.to/lastmile_qr_scan"}, "fusion_lon": 0.0}, {"lat": 38.903270166666665, "is_disabled": 0, "type": "electric_scooter", "lon": -77.0376775, "bike_id": "d7329eae86e1b8891abf9c2d613fd437", "fusion_lat": 0.0, "name": "d7329eae86e1b8891abf9c2d613fd437", "is_reserved": 0, "rental_uris": {"android": "https://dc.lft.to/lastmile_qr_scan", "ios": "https://dc.lft.to/lastmile_qr_scan"}, "fusion_lon": 0.0}, {"lat": 38.860552166666665, "is_disabled": 0, "type": "electric_scooter", "lon": -77.057398, "bike_id": "1b57c1471f017615b6b025ac57bec6a6", "fusion_lat": 0.0, "name": "1b57c1471f017615b6b025ac57bec6a6", "is_reserved": 0, "rental_uris": {"android": "https://dc.lft.to/lastmile_qr_scan", "ios": "https://dc.lft.to/lastmile_qr_scan"}, "fusion_lon": 0.0}, {"lat": 38.97231416666666, "is_disabled": 0, "type": "electric_bike", "lon": -76.99342533333333, "bike_id": "ecc1e6138f55baf329634b065ef523b9", "fusion_lat": 0.0, "name": "ecc1e6138f55baf329634b065ef523b9", "is_reserved": 0, "rental_uris": {"android": "https://dc.lft.to/lastmile_qr_scan", "ios": "https://dc.lft.to/lastmile_qr_scan"}, "fusion_lon": 0.0}, {"lat": 38.922408833333336, "is_disabled": 0, "type": "electric_scooter", "lon": -77.04569133333334, "bike_id": "c383b7ec0b54a201842724770a1b97eb", "fusion_lat": 0.0, "name": "c383b7ec0b54a201842724770a1b97eb", "is_reserved": 0, "rental_uris": {"android": "https://dc.lft.to/lastmile_qr_scan", "ios": "https://dc.lft.to/lastmile_qr_scan"}, "fusion_lon": 0.0}, {"lat": 38.91687366666667, "is_disabled": 0, "type": "electric_scooter", "lon": -77.03064016666667, "bike_id": "8f7087cfe682cb5aebb4acc5cb240cad", "fusion_lat": 0.0, "name": "8f7087cfe682cb5aebb4acc5cb240cad", "is_reserved": 0, "rental_uris": {"android": "https://dc.lft.to/lastmile_qr_scan", "ios": "https://dc.lft.to/lastmile_qr_scan"}, "fusion_lon": 0.0}, {"lat": 38.85687216666667, "is_disabled": 0, "type": "electric_scooter", "lon": -76.98162433333333, "bike_id": "c696657fff78e37bddc619400b3a47e8", "fusion_lat": 0.0, "name": "c696657fff78e37bddc619400b3a47e8", "is_reserved": 0, "rental_uris": {"android": "https://dc.lft.to/lastmile_qr_scan", "ios": "https://dc.lft.to/lastmile_qr_scan"}, "fusion_lon": 0.0}, {"lat": 38.911107666666666, "is_disabled": 0, "type": "electric_scooter", "lon": -77.0450335, "bike_id": "8391316058e11d623a4afbc034b87e4c", "fusion_lat": 0.0, "name": "8391316058e11d623a4afbc034b87e4c", "is_reserved": 0, "rental_uris": {"android": "https://dc.lft.to/lastmile_qr_scan", "ios": "https://dc.lft.to/lastmile_qr_scan"}, "fusion_lon": 0.0}, {"lat": 38.9199975, "is_disabled": 0, "type": "electric_scooter", "lon": -76.99293633333333, "bike_id": "2af8b5878e73711a024e24a45b196de3", "fusion_lat": 0.0, "name": "2af8b5878e73711a024e24a45b196de3", "is_reserved": 0, "rental_uris": {"android": "https://dc.lft.to/lastmile_qr_scan", "ios": "https://dc.lft.to/lastmile_qr_scan"}, "fusion_lon": 0.0}, {"lat": 38.842735, "is_disabled": 0, "type": "electric_bike", "lon": -76.988424, "bike_id": "3c50173ea80a7834b6d8821af0ddf8dc", "fusion_lat": 0.0, "name": "3c50173ea80a7834b6d8821af0ddf8dc", "is_reserved": 0, "rental_uris": {"android": "https://dc.lft.to/lastmile_qr_scan", "ios": "https://dc.lft.to/lastmile_qr_scan"}, "fusion_lon": 0.0}, {"lat": 38.91881266666667, "is_disabled": 0, "type": "electric_scooter", "lon": -77.044699, "bike_id": "13380a8fb520010da02956d4fcf96737", "fusion_lat": 0.0, "name": "13380a8fb520010da02956d4fcf96737", "is_reserved": 0, "rental_uris": {"android": "https://dc.lft.to/lastmile_qr_scan", "ios": "https://dc.lft.to/lastmile_qr_scan"}, "fusion_lon": 0.0}, {"lat": 38.892254333333334, "is_disabled": 0, "type": "electric_scooter", "lon": -77.0480155, "bike_id": "25b67089f18173b530aec60fa648c85e", "fusion_lat": 0.0, "name": "25b67089f18173b530aec60fa648c85e", "is_reserved": 0, "rental_uris": {"android": "https://dc.lft.to/lastmile_qr_scan", "ios": "https://dc.lft.to/lastmile_qr_scan"}, "fusion_lon": 0.0}, {"lat": 38.889924666666666, "is_disabled": 0, "type": "electric_scooter", "lon": -76.9556805, "bike_id": "59cda40201ee20bccf86fef0644196e4", "fusion_lat": 0.0, "name": "59cda40201ee20bccf86fef0644196e4", "is_reserved": 0, "rental_uris": {"android": "https://dc.lft.to/lastmile_qr_scan", "ios": "https://dc.lft.to/lastmile_qr_scan"}, "fusion_lon": 0.0}, {"lat": 38.982327833333336, "is_disabled": 0, "type": "electric_bike", "lon": -77.0259805, "bike_id": "a070a124de3fe63cd379a33a0a733580", "fusion_lat": 0.0, "name": "a070a124de3fe63cd379a33a0a733580", "is_reserved": 0, "rental_uris": {"android": "https://dc.lft.to/lastmile_qr_scan", "ios": "https://dc.lft.to/lastmile_qr_scan"}, "fusion_lon": 0.0}, {"lat": 38.93411016666667, "is_disabled": 0, "type": "electric_scooter", "lon": -77.02461133333334, "bike_id": "8221d0ca75ca02d046ec7169b2598165", "fusion_lat": 0.0, "name": "8221d0ca75ca02d046ec7169b2598165", "is_reserved": 0, "rental_uris": {"android": "https://dc.lft.to/lastmile_qr_scan", "ios": "https://dc.lft.to/lastmile_qr_scan"}, "fusion_lon": 0.0}, {"lat": 38.8869475, "is_disabled": 0, "type": "electric_scooter", "lon": -77.017684, "bike_id": "bbe8436fa3d870337ca1573cf290bbd1", "fusion_lat": 0.0, "name": "bbe8436fa3d870337ca1573cf290bbd1", "is_reserved": 0, "rental_uris": {"android": "https://dc.lft.to/lastmile_qr_scan", "ios": "https://dc.lft.to/lastmile_qr_scan"}, "fusion_lon": 0.0}, {"lat": 38.90246283333333, "is_disabled": 0, "type": "electric_scooter", "lon": -77.0019775, "bike_id": "139cbdb23a5c0084abec5206351aeb99", "fusion_lat": 0.0, "name": "139cbdb23a5c0084abec5206351aeb99", "is_reserved": 0, "rental_uris": {"android": "https://dc.lft.to/lastmile_qr_scan", "ios": "https://dc.lft.to/lastmile_qr_scan"}, "fusion_lon": 0.0}, {"lat": 38.8996115, "is_disabled": 0, "type": "electric_scooter", "lon": -77.024906, "bike_id": "ab2769fb75caa8c43919ed7621901aff", "fusion_lat": 0.0, "name": "ab2769fb75caa8c43919ed7621901aff", "is_reserved": 0, "rental_uris": {"android": "https://dc.lft.to/lastmile_qr_scan", "ios": "https://dc.lft.to/lastmile_qr_scan"}, "fusion_lon": 0.0}, {"lat": 38.8372705, "is_disabled": 0, "type": "electric_bike", "lon": -76.99758983333334, "bike_id": "fb2ab270b35cd766f5038a7135f83e6d", "fusion_lat": 0.0, "name": "fb2ab270b35cd766f5038a7135f83e6d", "is_reserved": 0, "rental_uris": {"android": "https://dc.lft.to/lastmile_qr_scan", "ios": "https://dc.lft.to/lastmile_qr_scan"}, "fusion_lon": 0.0}, {"lat": 38.910161333333335, "is_disabled": 0, "type": "electric_scooter", "lon": -77.03849183333334, "bike_id": "cf1864419752914dd55c868312ec6ae3", "fusion_lat": 0.0, "name": "cf1864419752914dd55c868312ec6ae3", "is_reserved": 0, "rental_uris": {"android": "https://dc.lft.to/lastmile_qr_scan", "ios": "https://dc.lft.to/lastmile_qr_scan"}, "fusion_lon": 0.0}, {"lat": 38.9218765, "is_disabled": 0, "type": "electric_scooter", "lon": -77.04131133333334, "bike_id": "01a27cd7d10640fba36317c7414e72de", "fusion_lat": 0.0, "name": "01a27cd7d10640fba36317c7414e72de", "is_reserved": 0, "rental_uris": {"android": "https://dc.lft.to/lastmile_qr_scan", "ios": "https://dc.lft.to/lastmile_qr_scan"}, "fusion_lon": 0.0}, {"lat": 38.91491233333333, "is_disabled": 0, "type": "electric_scooter", "lon": -77.03257016666667, "bike_id": "5b69b0b05c008ec039e4a0157af58677", "fusion_lat": 0.0, "name": "5b69b0b05c008ec039e4a0157af58677", "is_reserved": 0, "rental_uris": {"android": "https://dc.lft.to/lastmile_qr_scan", "ios": "https://dc.lft.to/lastmile_qr_scan"}, "fusion_lon": 0.0}, {"lat": 38.90807866666667, "is_disabled": 0, "type": "electric_scooter", "lon": -77.063556, "bike_id": "170642f11053e33e252b5c6caddf785b", "fusion_lat": 0.0, "name": "170642f11053e33e252b5c6caddf785b", "is_reserved": 0, "rental_uris": {"android": "https://dc.lft.to/lastmile_qr_scan", "ios": "https://dc.lft.to/lastmile_qr_scan"}, "fusion_lon": 0.0}, {"lat": 38.92853016666667, "is_disabled": 0, "type": "electric_bike", "lon": -77.10678133333333, "bike_id": "66bc4258fb151e067ddfff40174c1e75", "fusion_lat": 0.0, "name": "66bc4258fb151e067ddfff40174c1e75", "is_reserved": 0, "rental_uris": {"android": "https://dc.lft.to/lastmile_qr_scan", "ios": "https://dc.lft.to/lastmile_qr_scan"}, "fusion_lon": 0.0}, {"lat": 38.938754833333334, "is_disabled": 0, "type": "electric_scooter", "lon": -77.02441916666666, "bike_id": "b021624d8ba301b410673b8add82d78f", "fusion_lat": 0.0, "name": "b021624d8ba301b410673b8add82d78f", "is_reserved": 0, "rental_uris": {"android": "https://dc.lft.to/lastmile_qr_scan", "ios": "https://dc.lft.to/lastmile_qr_scan"}, "fusion_lon": 0.0}, {"lat": 38.8074585, "is_disabled": 0, "type": "electric_bike", "lon": -77.09426183333333, "bike_id": "32743ca00407f1c0140da0c526b16553", "fusion_lat": 0.0, "name": "32743ca00407f1c0140da0c526b16553", "is_reserved": 0, "rental_uris": {"android": "https://dc.lft.to/lastmile_qr_scan", "ios": "https://dc.lft.to/lastmile_qr_scan"}, "fusion_lon": 0.0}, {"lat": 38.937564333333334, "is_disabled": 0, "type": "electric_scooter", "lon": -77.031419, "bike_id": "38891905f2e3a885d36626f4bd083047", "fusion_lat": 0.0, "name": "38891905f2e3a885d36626f4bd083047", "is_reserved": 0, "rental_uris": {"android": "https://dc.lft.to/lastmile_qr_scan", "ios": "https://dc.lft.to/lastmile_qr_scan"}, "fusion_lon": 0.0}, {"lat": 38.90885216666667, "is_disabled": 0, "type": "electric_scooter", "lon": -77.06437116666666, "bike_id": "13845d07b9b317687f32342116ffaa67", "fusion_lat": 0.0, "name": "13845d07b9b317687f32342116ffaa67", "is_reserved": 0, "rental_uris": {"android": "https://dc.lft.to/lastmile_qr_scan", "ios": "https://dc.lft.to/lastmile_qr_scan"}, "fusion_lon": 0.0}, {"lat": 38.92445933333333, "is_disabled": 0, "type": "electric_scooter", "lon": -77.05191666666667, "bike_id": "142fafc0a43ead68500ddcc1958a3f72", "fusion_lat": 0.0, "name": "142fafc0a43ead68500ddcc1958a3f72", "is_reserved": 0, "rental_uris": {"android": "https://dc.lft.to/lastmile_qr_scan", "ios": "https://dc.lft.to/lastmile_qr_scan"}, "fusion_lon": 0.0}, {"lat": 38.911168, "is_disabled": 0, "type": "electric_scooter", "lon": -77.032475, "bike_id": "76fc3ee0840be96516dbbb29851ca1b0", "fusion_lat": 0.0, "name": "76fc3ee0840be96516dbbb29851ca1b0", "is_reserved": 0, "rental_uris": {"android": "https://dc.lft.to/lastmile_qr_scan", "ios": "https://dc.lft.to/lastmile_qr_scan"}, "fusion_lon": 0.0}, {"lat": 38.9004475, "is_disabled": 0, "type": "electric_scooter", "lon": -76.99362116666667, "bike_id": "f33e9f6e8bcd41de30cee75de269a609", "fusion_lat": 0.0, "name": "f33e9f6e8bcd41de30cee75de269a609", "is_reserved": 0, "rental_uris": {"android": "https://dc.lft.to/lastmile_qr_scan", "ios": "https://dc.lft.to/lastmile_qr_scan"}, "fusion_lon": 0.0}, {"lat": 38.916965166666664, "is_disabled": 0, "type": "electric_scooter", "lon": -77.031453, "bike_id": "bb3dea471ce7c2a44dc7acf801311e26", "fusion_lat": 0.0, "name": "bb3dea471ce7c2a44dc7acf801311e26", "is_reserved": 0, "rental_uris": {"android": "https://dc.lft.to/lastmile_qr_scan", "ios": "https://dc.lft.to/lastmile_qr_scan"}, "fusion_lon": 0.0}, {"lat": 38.870634, "is_disabled": 0, "type": "electric_scooter", "lon": -77.0083995, "bike_id": "d9a0d77e31bc41fa5795c96341b6978a", "fusion_lat": 0.0, "name": "d9a0d77e31bc41fa5795c96341b6978a", "is_reserved": 0, "rental_uris": {"android": "https://dc.lft.to/lastmile_qr_scan", "ios": "https://dc.lft.to/lastmile_qr_scan"}, "fusion_lon": 0.0}, {"lat": 38.901594833333334, "is_disabled": 0, "type": "electric_scooter", "lon": -77.04831966666667, "bike_id": "f5a10b92a97c8a9f2f2aa8af8e5b09c2", "fusion_lat": 0.0, "name": "f5a10b92a97c8a9f2f2aa8af8e5b09c2", "is_reserved": 0, "rental_uris": {"android": "https://dc.lft.to/lastmile_qr_scan", "ios": "https://dc.lft.to/lastmile_qr_scan"}, "fusion_lon": 0.0}, {"lat": 38.9170935, "is_disabled": 0, "type": "electric_scooter", "lon": -77.001136, "bike_id": "440db81a39a7cfe7b7fb3a14fa231e3d", "fusion_lat": 0.0, "name": "440db81a39a7cfe7b7fb3a14fa231e3d", "is_reserved": 0, "rental_uris": {"android": "https://dc.lft.to/lastmile_qr_scan", "ios": "https://dc.lft.to/lastmile_qr_scan"}, "fusion_lon": 0.0}, {"lat": 38.86213166666667, "is_disabled": 0, "type": "electric_bike", "lon": -76.99777033333334, "bike_id": "d0dedcc0d0c0ed57d7d99618855dc9d8", "fusion_lat": 0.0, "name": "d0dedcc0d0c0ed57d7d99618855dc9d8", "is_reserved": 0, "rental_uris": {"android": "https://dc.lft.to/lastmile_qr_scan", "ios": "https://dc.lft.to/lastmile_qr_scan"}, "fusion_lon": 0.0}, {"lat": 38.91818133333334, "is_disabled": 0, "type": "electric_scooter", "lon": -77.0255005, "bike_id": "7365a44307fdffaab3792530e6c6dafa", "fusion_lat": 0.0, "name": "7365a44307fdffaab3792530e6c6dafa", "is_reserved": 0, "rental_uris": {"android": "https://dc.lft.to/lastmile_qr_scan", "ios": "https://dc.lft.to/lastmile_qr_scan"}, "fusion_lon": 0.0}, {"lat": 38.904093833333334, "is_disabled": 0, "type": "electric_scooter", "lon": -76.99290533333334, "bike_id": "ddbe026ed80312b42ccaaa974b427557", "fusion_lat": 0.0, "name": "ddbe026ed80312b42ccaaa974b427557", "is_reserved": 0, "rental_uris": {"android": "https://dc.lft.to/lastmile_qr_scan", "ios": "https://dc.lft.to/lastmile_qr_scan"}, "fusion_lon": 0.0}, {"lat": 38.89738233333333, "is_disabled": 0, "type": "electric_scooter", "lon": -76.94719166666667, "bike_id": "79874f0b6f5ac54b070731143cdc0cf3", "fusion_lat": 0.0, "name": "79874f0b6f5ac54b070731143cdc0cf3", "is_reserved": 0, "rental_uris": {"android": "https://dc.lft.to/lastmile_qr_scan", "ios": "https://dc.lft.to/lastmile_qr_scan"}, "fusion_lon": 0.0}, {"lat": 38.89898016666667, "is_disabled": 0, "type": "electric_scooter", "lon": -76.9842265, "bike_id": "4ee0be90f0af5cadbce5449058d4f235", "fusion_lat": 0.0, "name": "4ee0be90f0af5cadbce5449058d4f235", "is_reserved": 0, "rental_uris": {"android": "https://dc.lft.to/lastmile_qr_scan", "ios": "https://dc.lft.to/lastmile_qr_scan"}, "fusion_lon": 0.0}, {"lat": 38.9074945, "is_disabled": 0, "type": "electric_scooter", "lon": -76.9997125, "bike_id": "7faa9774606fdad3701d0530736c15be", "fusion_lat": 0.0, "name": "7faa9774606fdad3701d0530736c15be", "is_reserved": 0, "rental_uris": {"android": "https://dc.lft.to/lastmile_qr_scan", "ios": "https://dc.lft.to/lastmile_qr_scan"}, "fusion_lon": 0.0}, {"lat": 38.91708933333334, "is_disabled": 0, "type": "electric_scooter", "lon": -77.0294175, "bike_id": "64406d62dcfb85bdb6ea34d156560f6c", "fusion_lat": 0.0, "name": "64406d62dcfb85bdb6ea34d156560f6c", "is_reserved": 0, "rental_uris": {"android": "https://dc.lft.to/lastmile_qr_scan", "ios": "https://dc.lft.to/lastmile_qr_scan"}, "fusion_lon": 0.0}, {"lat": 38.90884, "is_disabled": 0, "type": "electric_scooter", "lon": -77.04442066666667, "bike_id": "778b4afed9cff1b554d8f6d23fa00679", "fusion_lat": 0.0, "name": "778b4afed9cff1b554d8f6d23fa00679", "is_reserved": 0, "rental_uris": {"android": "https://dc.lft.to/lastmile_qr_scan", "ios": "https://dc.lft.to/lastmile_qr_scan"}, "fusion_lon": 0.0}, {"lat": 38.919671, "is_disabled": 0, "type": "electric_scooter", "lon": -77.024881, "bike_id": "f6371fcf03fa1792b025d90262ecdb4d", "fusion_lat": 0.0, "name": "f6371fcf03fa1792b025d90262ecdb4d", "is_reserved": 0, "rental_uris": {"android": "https://dc.lft.to/lastmile_qr_scan", "ios": "https://dc.lft.to/lastmile_qr_scan"}, "fusion_lon": 0.0}, {"lat": 38.882166166666664, "is_disabled": 0, "type": "electric_scooter", "lon": -76.9903875, "bike_id": "4999aa4dc49ef8647f42a122bea19488", "fusion_lat": 0.0, "name": "4999aa4dc49ef8647f42a122bea19488", "is_reserved": 0, "rental_uris": {"android": "https://dc.lft.to/lastmile_qr_scan", "ios": "https://dc.lft.to/lastmile_qr_scan"}, "fusion_lon": 0.0}, {"lat": 38.907338, "is_disabled": 0, "type": "electric_scooter", "lon": -77.03447366666667, "bike_id": "26f7da70e38b4055ac0619e6ad41d9b0", "fusion_lat": 0.0, "name": "26f7da70e38b4055ac0619e6ad41d9b0", "is_reserved": 0, "rental_uris": {"android": "https://dc.lft.to/lastmile_qr_scan", "ios": "https://dc.lft.to/lastmile_qr_scan"}, "fusion_lon": 0.0}, {"lat": 38.9111965, "is_disabled": 0, "type": "electric_scooter", "lon": -77.0436755, "bike_id": "280960ced87127c9b9ce64675c8d9110", "fusion_lat": 0.0, "name": "280960ced87127c9b9ce64675c8d9110", "is_reserved": 0, "rental_uris": {"android": "https://dc.lft.to/lastmile_qr_scan", "ios": "https://dc.lft.to/lastmile_qr_scan"}, "fusion_lon": 0.0}, {"lat": 38.914074, "is_disabled": 0, "type": "electric_scooter", "lon": -77.03555233333333, "bike_id": "0559eb65b3db3ac33704e1e2ed15132b", "fusion_lat": 0.0, "name": "0559eb65b3db3ac33704e1e2ed15132b", "is_reserved": 0, "rental_uris": {"android": "https://dc.lft.to/lastmile_qr_scan", "ios": "https://dc.lft.to/lastmile_qr_scan"}, "fusion_lon": 0.0}, {"lat": 38.901095, "is_disabled": 0, "type": "electric_scooter", "lon": -77.01808916666667, "bike_id": "c0291b0ca59c1bbaa459af69e5ba4da5", "fusion_lat": 0.0, "name": "c0291b0ca59c1bbaa459af69e5ba4da5", "is_reserved": 0, "rental_uris": {"android": "https://dc.lft.to/lastmile_qr_scan", "ios": "https://dc.lft.to/lastmile_qr_scan"}, "fusion_lon": 0.0}, {"lat": 38.89675483333333, "is_disabled": 0, "type": "electric_scooter", "lon": -77.0051665, "bike_id": "c71f4d04b915f1a26627e3c26de088a3", "fusion_lat": 0.0, "name": "c71f4d04b915f1a26627e3c26de088a3", "is_reserved": 0, "rental_uris": {"android": "https://dc.lft.to/lastmile_qr_scan", "ios": "https://dc.lft.to/lastmile_qr_scan"}, "fusion_lon": 0.0}, {"lat": 39.015959333333335, "is_disabled": 0, "type": "electric_bike", "lon": -77.0442775, "bike_id": "5fd9f0d94d65ef4c7ec6932cbd554149", "fusion_lat": 0.0, "name": "5fd9f0d94d65ef4c7ec6932cbd554149", "is_reserved": 0, "rental_uris": {"android": "https://dc.lft.to/lastmile_qr_scan", "ios": "https://dc.lft.to/lastmile_qr_scan"}, "fusion_lon": 0.0}, {"lat": 38.89833133333333, "is_disabled": 0, "type": "electric_scooter", "lon": -77.04021266666666, "bike_id": "35d5ec421fa2742a763b6940ffd18cf9", "fusion_lat": 0.0, "name": "35d5ec421fa2742a763b6940ffd18cf9", "is_reserved": 0, "rental_uris": {"android": "https://dc.lft.to/lastmile_qr_scan", "ios": "https://dc.lft.to/lastmile_qr_scan"}, "fusion_lon": 0.0}, {"lat": 38.960955, "is_disabled": 0, "type": "electric_scooter", "lon": -77.08283983333334, "bike_id": "a81aea166265c09a51ecc495ed5e6e90", "fusion_lat": 0.0, "name": "a81aea166265c09a51ecc495ed5e6e90", "is_reserved": 0, "rental_uris": {"android": "https://dc.lft.to/lastmile_qr_scan", "ios": "https://dc.lft.to/lastmile_qr_scan"}, "fusion_lon": 0.0}, {"lat": 38.89223966666667, "is_disabled": 0, "type": "electric_scooter", "lon": -77.02796133333334, "bike_id": "c1d18e53480b3c24dce76eca0c7707ec", "fusion_lat": 0.0, "name": "c1d18e53480b3c24dce76eca0c7707ec", "is_reserved": 0, "rental_uris": {"android": "https://dc.lft.to/lastmile_qr_scan", "ios": "https://dc.lft.to/lastmile_qr_scan"}, "fusion_lon": 0.0}, {"lat": 38.91695966666666, "is_disabled": 0, "type": "electric_scooter", "lon": -77.03479383333334, "bike_id": "7ddbd330890b7f2c52be4aad6c2b513c", "fusion_lat": 0.0, "name": "7ddbd330890b7f2c52be4aad6c2b513c", "is_reserved": 0, "rental_uris": {"android": "https://dc.lft.to/lastmile_qr_scan", "ios": "https://dc.lft.to/lastmile_qr_scan"}, "fusion_lon": 0.0}, {"lat": 38.900099833333336, "is_disabled": 0, "type": "electric_scooter", "lon": -76.99851283333334, "bike_id": "49798f2aac028c90ee3f9aebe8f2de95", "fusion_lat": 0.0, "name": "49798f2aac028c90ee3f9aebe8f2de95", "is_reserved": 0, "rental_uris": {"android": "https://dc.lft.to/lastmile_qr_scan", "ios": "https://dc.lft.to/lastmile_qr_scan"}, "fusion_lon": 0.0}, {"lat": 38.9119215, "is_disabled": 0, "type": "electric_scooter", "lon": -77.03154866666667, "bike_id": "0966ebb507818ae51e18610e3151f2e6", "fusion_lat": 0.0, "name": "0966ebb507818ae51e18610e3151f2e6", "is_reserved": 0, "rental_uris": {"android": "https://dc.lft.to/lastmile_qr_scan", "ios": "https://dc.lft.to/lastmile_qr_scan"}, "fusion_lon": 0.0}, {"lat": 38.904633, "is_disabled": 0, "type": "electric_scooter", "lon": -77.03279016666667, "bike_id": "de95609d344bde10b3e7488446cf93c8", "fusion_lat": 0.0, "name": "de95609d344bde10b3e7488446cf93c8", "is_reserved": 0, "rental_uris": {"android": "https://dc.lft.to/lastmile_qr_scan", "ios": "https://dc.lft.to/lastmile_qr_scan"}, "fusion_lon": 0.0}, {"lat": 38.8912555, "is_disabled": 0, "type": "electric_scooter", "lon": -76.9409075, "bike_id": "63135a54f4af382cc4fab93a0ff2c23f", "fusion_lat": 0.0, "name": "63135a54f4af382cc4fab93a0ff2c23f", "is_reserved": 0, "rental_uris": {"android": "https://dc.lft.to/lastmile_qr_scan", "ios": "https://dc.lft.to/lastmile_qr_scan"}, "fusion_lon": 0.0}, {"lat": 38.93555416666667, "is_disabled": 0, "type": "electric_scooter", "lon": -77.058673, "bike_id": "028b5b317f5a8994694bf064de4118e1", "fusion_lat": 0.0, "name": "028b5b317f5a8994694bf064de4118e1", "is_reserved": 0, "rental_uris": {"android": "https://dc.lft.to/lastmile_qr_scan", "ios": "https://dc.lft.to/lastmile_qr_scan"}, "fusion_lon": 0.0}, {"lat": 38.897782, "is_disabled": 0, "type": "electric_scooter", "lon": -77.00926566666666, "bike_id": "386239ee98cae1a09affb02fd9797db9", "fusion_lat": 0.0, "name": "386239ee98cae1a09affb02fd9797db9", "is_reserved": 0, "rental_uris": {"android": "https://dc.lft.to/lastmile_qr_scan", "ios": "https://dc.lft.to/lastmile_qr_scan"}, "fusion_lon": 0.0}, {"lat": 38.90401116666666, "is_disabled": 0, "type": "electric_scooter", "lon": -77.02486383333333, "bike_id": "c3ab0255a94d4c274bf6e46e3d8f7d40", "fusion_lat": 0.0, "name": "c3ab0255a94d4c274bf6e46e3d8f7d40", "is_reserved": 0, "rental_uris": {"android": "https://dc.lft.to/lastmile_qr_scan", "ios": "https://dc.lft.to/lastmile_qr_scan"}, "fusion_lon": 0.0}, {"lat": 38.91680083333333, "is_disabled": 0, "type": "electric_scooter", "lon": -77.0238505, "bike_id": "ffd34cc8623b9c485be44dd669ee46b0", "fusion_lat": 0.0, "name": "ffd34cc8623b9c485be44dd669ee46b0", "is_reserved": 0, "rental_uris": {"android": "https://dc.lft.to/lastmile_qr_scan", "ios": "https://dc.lft.to/lastmile_qr_scan"}, "fusion_lon": 0.0}, {"lat": 38.887662666666664, "is_disabled": 0, "type": "electric_scooter", "lon": -76.95597633333334, "bike_id": "95450b0febc4932356bcdaffe058cbec", "fusion_lat": 0.0, "name": "95450b0febc4932356bcdaffe058cbec", "is_reserved": 0, "rental_uris": {"android": "https://dc.lft.to/lastmile_qr_scan", "ios": "https://dc.lft.to/lastmile_qr_scan"}, "fusion_lon": 0.0}, {"lat": 38.920662, "is_disabled": 0, "type": "electric_scooter", "lon": -77.04372616666667, "bike_id": "4abe5bef82d60f39bc8972467a298c34", "fusion_lat": 0.0, "name": "4abe5bef82d60f39bc8972467a298c34", "is_reserved": 0, "rental_uris": {"android": "https://dc.lft.to/lastmile_qr_scan", "ios": "https://dc.lft.to/lastmile_qr_scan"}, "fusion_lon": 0.0}, {"lat": 38.9527235, "is_disabled": 0, "type": "electric_bike", "lon": -77.0697995, "bike_id": "10ddf012d4a65a06c96b19c04ecd4179", "fusion_lat": 0.0, "name": "10ddf012d4a65a06c96b19c04ecd4179", "is_reserved": 0, "rental_uris": {"android": "https://dc.lft.to/lastmile_qr_scan", "ios": "https://dc.lft.to/lastmile_qr_scan"}, "fusion_lon": 0.0}, {"lat": 38.93896133333333, "is_disabled": 0, "type": "electric_scooter", "lon": -77.08486683333334, "bike_id": "2ca964ada93609f3e345d58f4e0d9ea1", "fusion_lat": 0.0, "name": "2ca964ada93609f3e345d58f4e0d9ea1", "is_reserved": 0, "rental_uris": {"android": "https://dc.lft.to/lastmile_qr_scan", "ios": "https://dc.lft.to/lastmile_qr_scan"}, "fusion_lon": 0.0}, {"lat": 38.91995433333334, "is_disabled": 0, "type": "electric_scooter", "lon": -77.01749183333334, "bike_id": "3e37a60304bb57387e2662ded5aa951d", "fusion_lat": 0.0, "name": "3e37a60304bb57387e2662ded5aa951d", "is_reserved": 0, "rental_uris": {"android": "https://dc.lft.to/lastmile_qr_scan", "ios": "https://dc.lft.to/lastmile_qr_scan"}, "fusion_lon": 0.0}, {"lat": 38.900468000000004, "is_disabled": 0, "type": "electric_scooter", "lon": -76.99015516666667, "bike_id": "c2e335cc417f7338460d584e5a00c705", "fusion_lat": 0.0, "name": "c2e335cc417f7338460d584e5a00c705", "is_reserved": 0, "rental_uris": {"android": "https://dc.lft.to/lastmile_qr_scan", "ios": "https://dc.lft.to/lastmile_qr_scan"}, "fusion_lon": 0.0}, {"lat": 38.8689445, "is_disabled": 0, "type": "electric_scooter", "lon": -76.98308, "bike_id": "cc6031b71fbb7fe25b3c7719d3e195fe", "fusion_lat": 0.0, "name": "cc6031b71fbb7fe25b3c7719d3e195fe", "is_reserved": 0, "rental_uris": {"android": "https://dc.lft.to/lastmile_qr_scan", "ios": "https://dc.lft.to/lastmile_qr_scan"}, "fusion_lon": 0.0}, {"lat": 38.917059, "is_disabled": 0, "type": "electric_scooter", "lon": -77.02493866666667, "bike_id": "1e61820e84694e412b0ee889dd7d9446", "fusion_lat": 0.0, "name": "1e61820e84694e412b0ee889dd7d9446", "is_reserved": 0, "rental_uris": {"android": "https://dc.lft.to/lastmile_qr_scan", "ios": "https://dc.lft.to/lastmile_qr_scan"}, "fusion_lon": 0.0}, {"lat": 38.900205166666666, "is_disabled": 0, "type": "electric_scooter", "lon": -77.03984383333334, "bike_id": "132c2d3d00bf282da8e0699ce397a944", "fusion_lat": 0.0, "name": "132c2d3d00bf282da8e0699ce397a944", "is_reserved": 0, "rental_uris": {"android": "https://dc.lft.to/lastmile_qr_scan", "ios": "https://dc.lft.to/lastmile_qr_scan"}, "fusion_lon": 0.0}, {"lat": 38.886930166666666, "is_disabled": 0, "type": "electric_scooter", "lon": -77.01764216666666, "bike_id": "c57479ac6819b31906b8f2baeda6d566", "fusion_lat": 0.0, "name": "c57479ac6819b31906b8f2baeda6d566", "is_reserved": 0, "rental_uris": {"android": "https://dc.lft.to/lastmile_qr_scan", "ios": "https://dc.lft.to/lastmile_qr_scan"}, "fusion_lon": 0.0}, {"lat": 38.88124466666667, "is_disabled": 0, "type": "electric_scooter", "lon": -76.99513516666667, "bike_id": "1e164cf47e5ec77bd2cff6254b4144f7", "fusion_lat": 0.0, "name": "1e164cf47e5ec77bd2cff6254b4144f7", "is_reserved": 0, "rental_uris": {"android": "https://dc.lft.to/lastmile_qr_scan", "ios": "https://dc.lft.to/lastmile_qr_scan"}, "fusion_lon": 0.0}, {"lat": 38.883927166666666, "is_disabled": 0, "type": "electric_scooter", "lon": -77.01897866666667, "bike_id": "058fd96e84fc70615f02b12eab31dcc8", "fusion_lat": 0.0, "name": "058fd96e84fc70615f02b12eab31dcc8", "is_reserved": 0, "rental_uris": {"android": "https://dc.lft.to/lastmile_qr_scan", "ios": "https://dc.lft.to/lastmile_qr_scan"}, "fusion_lon": 0.0}, {"lat": 38.903650166666665, "is_disabled": 0, "type": "electric_scooter", "lon": -77.022052, "bike_id": "31d416b3d8847beb3bf722ab9c89c03c", "fusion_lat": 0.0, "name": "31d416b3d8847beb3bf722ab9c89c03c", "is_reserved": 0, "rental_uris": {"android": "https://dc.lft.to/lastmile_qr_scan", "ios": "https://dc.lft.to/lastmile_qr_scan"}, "fusion_lon": 0.0}, {"lat": 38.92244866666667, "is_disabled": 0, "type": "electric_scooter", "lon": -77.02184966666667, "bike_id": "cc048bd96bf0114b45a3c50ba60ce163", "fusion_lat": 0.0, "name": "cc048bd96bf0114b45a3c50ba60ce163", "is_reserved": 0, "rental_uris": {"android": "https://dc.lft.to/lastmile_qr_scan", "ios": "https://dc.lft.to/lastmile_qr_scan"}, "fusion_lon": 0.0}, {"lat": 38.8734515, "is_disabled": 0, "type": "electric_scooter", "lon": -77.01853566666666, "bike_id": "b215dd035c75caba03adc02d2fc2e779", "fusion_lat": 0.0, "name": "b215dd035c75caba03adc02d2fc2e779", "is_reserved": 0, "rental_uris": {"android": "https://dc.lft.to/lastmile_qr_scan", "ios": "https://dc.lft.to/lastmile_qr_scan"}, "fusion_lon": 0.0}, {"lat": 38.90272816666667, "is_disabled": 0, "type": "electric_scooter", "lon": -77.03668483333334, "bike_id": "7e17f2320e9196858e28e2e03cffd10d", "fusion_lat": 0.0, "name": "7e17f2320e9196858e28e2e03cffd10d", "is_reserved": 0, "rental_uris": {"android": "https://dc.lft.to/lastmile_qr_scan", "ios": "https://dc.lft.to/lastmile_qr_scan"}, "fusion_lon": 0.0}, {"lat": 38.88142466666667, "is_disabled": 0, "type": "electric_bike", "lon": -77.02773, "bike_id": "a5f2a92ddad8fe838a02a6c0f17d6c24", "fusion_lat": 0.0, "name": "a5f2a92ddad8fe838a02a6c0f17d6c24", "is_reserved": 0, "rental_uris": {"android": "https://dc.lft.to/lastmile_qr_scan", "ios": "https://dc.lft.to/lastmile_qr_scan"}, "fusion_lon": 0.0}, {"lat": 38.903112666666665, "is_disabled": 0, "type": "electric_scooter", "lon": -76.97803, "bike_id": "936745abc630057680b94bfc96b61872", "fusion_lat": 0.0, "name": "936745abc630057680b94bfc96b61872", "is_reserved": 0, "rental_uris": {"android": "https://dc.lft.to/lastmile_qr_scan", "ios": "https://dc.lft.to/lastmile_qr_scan"}, "fusion_lon": 0.0}, {"lat": 38.92071833333333, "is_disabled": 0, "type": "electric_scooter", "lon": -77.0420035, "bike_id": "cca104d2bdfa765afd8bab51edf60117", "fusion_lat": 0.0, "name": "cca104d2bdfa765afd8bab51edf60117", "is_reserved": 0, "rental_uris": {"android": "https://dc.lft.to/lastmile_qr_scan", "ios": "https://dc.lft.to/lastmile_qr_scan"}, "fusion_lon": 0.0}, {"lat": 38.97094333333333, "is_disabled": 0, "type": "electric_bike", "lon": -77.06965166666667, "bike_id": "f308b11f902ab2cb662da903d4f86bc4", "fusion_lat": 0.0, "name": "f308b11f902ab2cb662da903d4f86bc4", "is_reserved": 0, "rental_uris": {"android": "https://dc.lft.to/lastmile_qr_scan", "ios": "https://dc.lft.to/lastmile_qr_scan"}, "fusion_lon": 0.0}, {"lat": 38.895175, "is_disabled": 0, "type": "electric_scooter", "lon": -76.94894566666666, "bike_id": "b14c04cbcab5cd4024ad87733ad643d6", "fusion_lat": 0.0, "name": "b14c04cbcab5cd4024ad87733ad643d6", "is_reserved": 0, "rental_uris": {"android": "https://dc.lft.to/lastmile_qr_scan", "ios": "https://dc.lft.to/lastmile_qr_scan"}, "fusion_lon": 0.0}, {"lat": 38.876850166666664, "is_disabled": 0, "type": "electric_scooter", "lon": -77.01787716666666, "bike_id": "4b932498fe025d5cdae18f1d894333c6", "fusion_lat": 0.0, "name": "4b932498fe025d5cdae18f1d894333c6", "is_reserved": 0, "rental_uris": {"android": "https://dc.lft.to/lastmile_qr_scan", "ios": "https://dc.lft.to/lastmile_qr_scan"}, "fusion_lon": 0.0}, {"lat": 38.91787266666667, "is_disabled": 0, "type": "electric_scooter", "lon": -77.04073916666667, "bike_id": "052ccf07e73fa5eb9bc3a0ce5c202cdf", "fusion_lat": 0.0, "name": "052ccf07e73fa5eb9bc3a0ce5c202cdf", "is_reserved": 0, "rental_uris": {"android": "https://dc.lft.to/lastmile_qr_scan", "ios": "https://dc.lft.to/lastmile_qr_scan"}, "fusion_lon": 0.0}, {"lat": 38.87545133333333, "is_disabled": 0, "type": "electric_scooter", "lon": -77.00542033333333, "bike_id": "77716197573a8de46a65f965fe74d72c", "fusion_lat": 0.0, "name": "77716197573a8de46a65f965fe74d72c", "is_reserved": 0, "rental_uris": {"android": "https://dc.lft.to/lastmile_qr_scan", "ios": "https://dc.lft.to/lastmile_qr_scan"}, "fusion_lon": 0.0}, {"lat": 38.931793, "is_disabled": 0, "type": "electric_scooter", "lon": -77.02358683333334, "bike_id": "11c01d11f3c23a46f7d7bd0e90d734c3", "fusion_lat": 0.0, "name": "11c01d11f3c23a46f7d7bd0e90d734c3", "is_reserved": 0, "rental_uris": {"android": "https://dc.lft.to/lastmile_qr_scan", "ios": "https://dc.lft.to/lastmile_qr_scan"}, "fusion_lon": 0.0}, {"lat": 38.8860555, "is_disabled": 0, "type": "electric_scooter", "lon": -77.01892383333333, "bike_id": "134aa4841643cb46ce0a00c4237f995e", "fusion_lat": 0.0, "name": "134aa4841643cb46ce0a00c4237f995e", "is_reserved": 0, "rental_uris": {"android": "https://dc.lft.to/lastmile_qr_scan", "ios": "https://dc.lft.to/lastmile_qr_scan"}, "fusion_lon": 0.0}, {"lat": 38.8854935, "is_disabled": 0, "type": "electric_bike", "lon": -77.11787516666666, "bike_id": "2202ced8b2f23af17782a1b2d779c99b", "fusion_lat": 0.0, "name": "2202ced8b2f23af17782a1b2d779c99b", "is_reserved": 0, "rental_uris": {"android": "https://dc.lft.to/lastmile_qr_scan", "ios": "https://dc.lft.to/lastmile_qr_scan"}, "fusion_lon": 0.0}, {"lat": 38.919621666666664, "is_disabled": 0, "type": "electric_scooter", "lon": -77.01442683333333, "bike_id": "cab8fb123236e4ac2205cf072b4f9ea6", "fusion_lat": 0.0, "name": "cab8fb123236e4ac2205cf072b4f9ea6", "is_reserved": 0, "rental_uris": {"android": "https://dc.lft.to/lastmile_qr_scan", "ios": "https://dc.lft.to/lastmile_qr_scan"}, "fusion_lon": 0.0}, {"lat": 38.902348833333335, "is_disabled": 0, "type": "electric_scooter", "lon": -77.02902033333334, "bike_id": "757b0ed3c02937d19576546dbb9d2e1a", "fusion_lat": 0.0, "name": "757b0ed3c02937d19576546dbb9d2e1a", "is_reserved": 0, "rental_uris": {"android": "https://dc.lft.to/lastmile_qr_scan", "ios": "https://dc.lft.to/lastmile_qr_scan"}, "fusion_lon": 0.0}, {"lat": 38.899074, "is_disabled": 0, "type": "electric_scooter", "lon": -77.03936983333334, "bike_id": "c2e484f5c127125070911c07059b30f0", "fusion_lat": 0.0, "name": "c2e484f5c127125070911c07059b30f0", "is_reserved": 0, "rental_uris": {"android": "https://dc.lft.to/lastmile_qr_scan", "ios": "https://dc.lft.to/lastmile_qr_scan"}, "fusion_lon": 0.0}, {"lat": 38.886683833333336, "is_disabled": 0, "type": "electric_bike", "lon": -77.16253733333333, "bike_id": "aad8e3fbd72cc32344209afc073bd8e8", "fusion_lat": 0.0, "name": "aad8e3fbd72cc32344209afc073bd8e8", "is_reserved": 0, "rental_uris": {"android": "https://dc.lft.to/lastmile_qr_scan", "ios": "https://dc.lft.to/lastmile_qr_scan"}, "fusion_lon": 0.0}, {"lat": 38.957063166666664, "is_disabled": 0, "type": "electric_scooter", "lon": -77.024075, "bike_id": "a13a7232c29dc3fd1c114343bdc7d218", "fusion_lat": 0.0, "name": "a13a7232c29dc3fd1c114343bdc7d218", "is_reserved": 0, "rental_uris": {"android": "https://dc.lft.to/lastmile_qr_scan", "ios": "https://dc.lft.to/lastmile_qr_scan"}, "fusion_lon": 0.0}, {"lat": 38.9342705, "is_disabled": 0, "type": "electric_scooter", "lon": -76.96506183333334, "bike_id": "344c4bf7446713f5b4ee1fbce5501503", "fusion_lat": 0.0, "name": "344c4bf7446713f5b4ee1fbce5501503", "is_reserved": 0, "rental_uris": {"android": "https://dc.lft.to/lastmile_qr_scan", "ios": "https://dc.lft.to/lastmile_qr_scan"}, "fusion_lon": 0.0}, {"lat": 38.915566166666665, "is_disabled": 0, "type": "electric_scooter", "lon": -77.031329, "bike_id": "9413e1f3abbd91440bd142f0101ed557", "fusion_lat": 0.0, "name": "9413e1f3abbd91440bd142f0101ed557", "is_reserved": 0, "rental_uris": {"android": "https://dc.lft.to/lastmile_qr_scan", "ios": "https://dc.lft.to/lastmile_qr_scan"}, "fusion_lon": 0.0}, {"lat": 38.90018166666667, "is_disabled": 0, "type": "electric_scooter", "lon": -77.0021595, "bike_id": "1db55046300052b7822b64545fa5994b", "fusion_lat": 0.0, "name": "1db55046300052b7822b64545fa5994b", "is_reserved": 0, "rental_uris": {"android": "https://dc.lft.to/lastmile_qr_scan", "ios": "https://dc.lft.to/lastmile_qr_scan"}, "fusion_lon": 0.0}, {"lat": 38.9337525, "is_disabled": 0, "type": "electric_scooter", "lon": -77.035579, "bike_id": "c3119107e4f5add9fb5cf105eb8ef21c", "fusion_lat": 0.0, "name": "c3119107e4f5add9fb5cf105eb8ef21c", "is_reserved": 0, "rental_uris": {"android": "https://dc.lft.to/lastmile_qr_scan", "ios": "https://dc.lft.to/lastmile_qr_scan"}, "fusion_lon": 0.0}, {"lat": 38.884679, "is_disabled": 0, "type": "electric_scooter", "lon": -76.92955666666667, "bike_id": "f1e77b4e97364c28add726705737d90d", "fusion_lat": 0.0, "name": "f1e77b4e97364c28add726705737d90d", "is_reserved": 0, "rental_uris": {"android": "https://dc.lft.to/lastmile_qr_scan", "ios": "https://dc.lft.to/lastmile_qr_scan"}, "fusion_lon": 0.0}, {"lat": 38.86249866666667, "is_disabled": 0, "type": "electric_scooter", "lon": -76.99262866666666, "bike_id": "12108749184088213858c229fb360dca", "fusion_lat": 0.0, "name": "12108749184088213858c229fb360dca", "is_reserved": 0, "rental_uris": {"android": "https://dc.lft.to/lastmile_qr_scan", "ios": "https://dc.lft.to/lastmile_qr_scan"}, "fusion_lon": 0.0}, {"lat": 38.95785383333333, "is_disabled": 0, "type": "electric_scooter", "lon": -77.027576, "bike_id": "15a21b1a8b4bfc5b74eac838798a10e1", "fusion_lat": 0.0, "name": "15a21b1a8b4bfc5b74eac838798a10e1", "is_reserved": 0, "rental_uris": {"android": "https://dc.lft.to/lastmile_qr_scan", "ios": "https://dc.lft.to/lastmile_qr_scan"}, "fusion_lon": 0.0}, {"lat": 38.93974633333333, "is_disabled": 0, "type": "electric_scooter", "lon": -77.0358725, "bike_id": "4650001cb024f33f60a1c7398a3b609e", "fusion_lat": 0.0, "name": "4650001cb024f33f60a1c7398a3b609e", "is_reserved": 0, "rental_uris": {"android": "https://dc.lft.to/lastmile_qr_scan", "ios": "https://dc.lft.to/lastmile_qr_scan"}, "fusion_lon": 0.0}, {"lat": 38.908814, "is_disabled": 0, "type": "electric_scooter", "lon": -77.03668, "bike_id": "279ada75b1b3eee8fd4948848db2b632", "fusion_lat": 0.0, "name": "279ada75b1b3eee8fd4948848db2b632", "is_reserved": 0, "rental_uris": {"android": "https://dc.lft.to/lastmile_qr_scan", "ios": "https://dc.lft.to/lastmile_qr_scan"}, "fusion_lon": 0.0}, {"lat": 38.920539833333336, "is_disabled": 0, "type": "electric_scooter", "lon": -77.03284416666666, "bike_id": "190f8e4aa4fbc699f381dab401e3d525", "fusion_lat": 0.0, "name": "190f8e4aa4fbc699f381dab401e3d525", "is_reserved": 0, "rental_uris": {"android": "https://dc.lft.to/lastmile_qr_scan", "ios": "https://dc.lft.to/lastmile_qr_scan"}, "fusion_lon": 0.0}, {"lat": 38.89792766666667, "is_disabled": 0, "type": "electric_scooter", "lon": -77.03195233333334, "bike_id": "8bcca958cdb2a5f7952e6204d083737e", "fusion_lat": 0.0, "name": "8bcca958cdb2a5f7952e6204d083737e", "is_reserved": 0, "rental_uris": {"android": "https://dc.lft.to/lastmile_qr_scan", "ios": "https://dc.lft.to/lastmile_qr_scan"}, "fusion_lon": 0.0}, {"lat": 38.925902666666666, "is_disabled": 0, "type": "electric_scooter", "lon": -77.0226275, "bike_id": "0edf4df171c0673c7a0312a379b57693", "fusion_lat": 0.0, "name": "0edf4df171c0673c7a0312a379b57693", "is_reserved": 0, "rental_uris": {"android": "https://dc.lft.to/lastmile_qr_scan", "ios": "https://dc.lft.to/lastmile_qr_scan"}, "fusion_lon": 0.0}, {"lat": 38.91707983333333, "is_disabled": 0, "type": "electric_scooter", "lon": -77.03471183333333, "bike_id": "2ebf273bf42b9f3170c4da26bca4d12c", "fusion_lat": 0.0, "name": "2ebf273bf42b9f3170c4da26bca4d12c", "is_reserved": 0, "rental_uris": {"android": "https://dc.lft.to/lastmile_qr_scan", "ios": "https://dc.lft.to/lastmile_qr_scan"}, "fusion_lon": 0.0}, {"lat": 38.918262666666664, "is_disabled": 0, "type": "electric_scooter", "lon": -77.01213283333334, "bike_id": "fef93320574c13a29c5590036badc84c", "fusion_lat": 0.0, "name": "fef93320574c13a29c5590036badc84c", "is_reserved": 0, "rental_uris": {"android": "https://dc.lft.to/lastmile_qr_scan", "ios": "https://dc.lft.to/lastmile_qr_scan"}, "fusion_lon": 0.0}, {"lat": 38.864448333333335, "is_disabled": 0, "type": "electric_bike", "lon": -76.94538183333333, "bike_id": "86304126b83a75cdc25a93f03c770a08", "fusion_lat": 0.0, "name": "86304126b83a75cdc25a93f03c770a08", "is_reserved": 0, "rental_uris": {"android": "https://dc.lft.to/lastmile_qr_scan", "ios": "https://dc.lft.to/lastmile_qr_scan"}, "fusion_lon": 0.0}, {"lat": 38.90039816666667, "is_disabled": 0, "type": "electric_scooter", "lon": -77.01982483333333, "bike_id": "ebb7f546f67f8f51c5acc50e12efe7c0", "fusion_lat": 0.0, "name": "ebb7f546f67f8f51c5acc50e12efe7c0", "is_reserved": 0, "rental_uris": {"android": "https://dc.lft.to/lastmile_qr_scan", "ios": "https://dc.lft.to/lastmile_qr_scan"}, "fusion_lon": 0.0}, {"lat": 38.961392000000004, "is_disabled": 0, "type": "electric_scooter", "lon": -77.02232316666667, "bike_id": "a79648e885d9e764c0cc856184f07871", "fusion_lat": 0.0, "name": "a79648e885d9e764c0cc856184f07871", "is_reserved": 0, "rental_uris": {"android": "https://dc.lft.to/lastmile_qr_scan", "ios": "https://dc.lft.to/lastmile_qr_scan"}, "fusion_lon": 0.0}, {"lat": 38.871455, "is_disabled": 0, "type": "electric_bike", "lon": -76.937036, "bike_id": "853963959aaf863b3025ee6e57a8e25e", "fusion_lat": 0.0, "name": "853963959aaf863b3025ee6e57a8e25e", "is_reserved": 0, "rental_uris": {"android": "https://dc.lft.to/lastmile_qr_scan", "ios": "https://dc.lft.to/lastmile_qr_scan"}, "fusion_lon": 0.0}, {"lat": 38.86216666666667, "is_disabled": 0, "type": "electric_scooter", "lon": -76.99483266666667, "bike_id": "762dc642cdbe3e68920da5191907dc19", "fusion_lat": 0.0, "name": "762dc642cdbe3e68920da5191907dc19", "is_reserved": 0, "rental_uris": {"android": "https://dc.lft.to/lastmile_qr_scan", "ios": "https://dc.lft.to/lastmile_qr_scan"}, "fusion_lon": 0.0}, {"lat": 38.89984783333333, "is_disabled": 0, "type": "electric_scooter", "lon": -77.02206283333334, "bike_id": "a128c7a5ffa8f11f1200415bd781f244", "fusion_lat": 0.0, "name": "a128c7a5ffa8f11f1200415bd781f244", "is_reserved": 0, "rental_uris": {"android": "https://dc.lft.to/lastmile_qr_scan", "ios": "https://dc.lft.to/lastmile_qr_scan"}, "fusion_lon": 0.0}, {"lat": 38.9225285, "is_disabled": 0, "type": "electric_scooter", "lon": -77.02725883333333, "bike_id": "8dbb90ce8580d4edb2b7b0128a890a5c", "fusion_lat": 0.0, "name": "8dbb90ce8580d4edb2b7b0128a890a5c", "is_reserved": 0, "rental_uris": {"android": "https://dc.lft.to/lastmile_qr_scan", "ios": "https://dc.lft.to/lastmile_qr_scan"}, "fusion_lon": 0.0}, {"lat": 38.92978266666667, "is_disabled": 0, "type": "electric_scooter", "lon": -77.01301116666667, "bike_id": "572b66d37481299c36f7b5a98c1f46d3", "fusion_lat": 0.0, "name": "572b66d37481299c36f7b5a98c1f46d3", "is_reserved": 0, "rental_uris": {"android": "https://dc.lft.to/lastmile_qr_scan", "ios": "https://dc.lft.to/lastmile_qr_scan"}, "fusion_lon": 0.0}, {"lat": 38.914872, "is_disabled": 0, "type": "electric_scooter", "lon": -77.04153033333333, "bike_id": "cd145d97e7952a3bb0383f00ae912e6f", "fusion_lat": 0.0, "name": "cd145d97e7952a3bb0383f00ae912e6f", "is_reserved": 0, "rental_uris": {"android": "https://dc.lft.to/lastmile_qr_scan", "ios": "https://dc.lft.to/lastmile_qr_scan"}, "fusion_lon": 0.0}, {"lat": 38.93361, "is_disabled": 0, "type": "electric_bike", "lon": -77.09960866666667, "bike_id": "88f35881b1848a04fe3b7bd8f209d9a8", "fusion_lat": 0.0, "name": "88f35881b1848a04fe3b7bd8f209d9a8", "is_reserved": 0, "rental_uris": {"android": "https://dc.lft.to/lastmile_qr_scan", "ios": "https://dc.lft.to/lastmile_qr_scan"}, "fusion_lon": 0.0}, {"lat": 38.92721516666667, "is_disabled": 0, "type": "electric_scooter", "lon": -77.02087883333333, "bike_id": "f3bc56b2bc1b1b2db192c7c32dccbbb2", "fusion_lat": 0.0, "name": "f3bc56b2bc1b1b2db192c7c32dccbbb2", "is_reserved": 0, "rental_uris": {"android": "https://dc.lft.to/lastmile_qr_scan", "ios": "https://dc.lft.to/lastmile_qr_scan"}, "fusion_lon": 0.0}, {"lat": 38.897435333333334, "is_disabled": 0, "type": "electric_scooter", "lon": -77.00942316666666, "bike_id": "e3ef612f063e0a6037f2881e947dd09a", "fusion_lat": 0.0, "name": "e3ef612f063e0a6037f2881e947dd09a", "is_reserved": 0, "rental_uris": {"android": "https://dc.lft.to/lastmile_qr_scan", "ios": "https://dc.lft.to/lastmile_qr_scan"}, "fusion_lon": 0.0}, {"lat": 38.918185, "is_disabled": 0, "type": "electric_scooter", "lon": -76.999997, "bike_id": "7d195d3b5e311c6f93e7ea9ece517713", "fusion_lat": 0.0, "name": "7d195d3b5e311c6f93e7ea9ece517713", "is_reserved": 0, "rental_uris": {"android": "https://dc.lft.to/lastmile_qr_scan", "ios": "https://dc.lft.to/lastmile_qr_scan"}, "fusion_lon": 0.0}, {"lat": 38.98898333333333, "is_disabled": 0, "type": "electric_bike", "lon": -76.93015316666667, "bike_id": "7431fd6f538ee81d98197dc128eb4394", "fusion_lat": 0.0, "name": "7431fd6f538ee81d98197dc128eb4394", "is_reserved": 0, "rental_uris": {"android": "https://dc.lft.to/lastmile_qr_scan", "ios": "https://dc.lft.to/lastmile_qr_scan"}, "fusion_lon": 0.0}, {"lat": 38.902868166666664, "is_disabled": 0, "type": "electric_scooter", "lon": -77.038408, "bike_id": "f28cc7046de0a74f94508f7c0c4a3e42", "fusion_lat": 0.0, "name": "f28cc7046de0a74f94508f7c0c4a3e42", "is_reserved": 0, "rental_uris": {"android": "https://dc.lft.to/lastmile_qr_scan", "ios": "https://dc.lft.to/lastmile_qr_scan"}, "fusion_lon": 0.0}, {"lat": 38.91977083333333, "is_disabled": 0, "type": "electric_scooter", "lon": -77.02398016666666, "bike_id": "d0b59644345181edfa8216be9db7aa93", "fusion_lat": 0.0, "name": "d0b59644345181edfa8216be9db7aa93", "is_reserved": 0, "rental_uris": {"android": "https://dc.lft.to/lastmile_qr_scan", "ios": "https://dc.lft.to/lastmile_qr_scan"}, "fusion_lon": 0.0}, {"lat": 38.810522666666664, "is_disabled": 0, "type": "electric_bike", "lon": -77.08507966666667, "bike_id": "3c241b47e36537e1bc99c227cfe75077", "fusion_lat": 0.0, "name": "3c241b47e36537e1bc99c227cfe75077", "is_reserved": 0, "rental_uris": {"android": "https://dc.lft.to/lastmile_qr_scan", "ios": "https://dc.lft.to/lastmile_qr_scan"}, "fusion_lon": 0.0}, {"lat": 38.91554933333333, "is_disabled": 0, "type": "electric_scooter", "lon": -77.00974416666666, "bike_id": "758a5196d95887297eaa95c073f1269e", "fusion_lat": 0.0, "name": "758a5196d95887297eaa95c073f1269e", "is_reserved": 0, "rental_uris": {"android": "https://dc.lft.to/lastmile_qr_scan", "ios": "https://dc.lft.to/lastmile_qr_scan"}, "fusion_lon": 0.0}, {"lat": 38.899917, "is_disabled": 0, "type": "electric_scooter", "lon": -77.01905716666667, "bike_id": "906ea14d3ab17e51e9c74092f8a1e03a", "fusion_lat": 0.0, "name": "906ea14d3ab17e51e9c74092f8a1e03a", "is_reserved": 0, "rental_uris": {"android": "https://dc.lft.to/lastmile_qr_scan", "ios": "https://dc.lft.to/lastmile_qr_scan"}, "fusion_lon": 0.0}, {"lat": 38.854398, "is_disabled": 0, "type": "electric_bike", "lon": -76.90970733333333, "bike_id": "13914b2e30109a00942bd1621702cf77", "fusion_lat": 0.0, "name": "13914b2e30109a00942bd1621702cf77", "is_reserved": 0, "rental_uris": {"android": "https://dc.lft.to/lastmile_qr_scan", "ios": "https://dc.lft.to/lastmile_qr_scan"}, "fusion_lon": 0.0},