{"data": {"bikes": [{"rental_uris": {"android": "https://dc.lft.to/lastmile_qr_scan", "ios": "https://dc.lft.to/lastmile_qr_scan"}, "type": "electric_scooter", "lon": -76.99842433333333, "name": "be0f0613ebbe41f2d23f8e5017ed643f", "bike_id": "be0f0613ebbe41f2d23f8e5017ed643f", "fusion_lat": 0.0, "is_reserved": 0, "lat": 38.9536925, "fusion_lon": 0.0, "is_disabled": 0}, {"rental_uris": {"android": "https://dc.lft.to/lastmile_qr_scan", "ios": "https://dc.lft.to/lastmile_qr_scan"}, "type": "electric_scooter", "lon": -77.06844516666666, "name": "c71840477c0efd28ea004a3224594d4a", "bike_id": "c71840477c0efd28ea004a3224594d4a", "fusion_lat": 0.0, "is_reserved": 0, "lat": 38.952069333333334, "fusion_lon": 0.0, "is_disabled": 0}, {"rental_uris": {"android": "https://dc.lft.to/lastmile_qr_scan", "ios": "https://dc.lft.to/lastmile_qr_scan"}, "type": "electric_scooter", "lon": -77.04377883333333, "name": "25ad974a44fa20d249a065c0f54ea1e5", "bike_id": "25ad974a44fa20d249a065c0f54ea1e5", "fusion_lat": 0.0, "is_reserved": 0, "lat": 38.92068, "fusion_lon": 0.0, "is_disabled": 0}, {"rental_uris": {"android": "https://dc.lft.to/lastmile_qr_scan", "ios": "https://dc.lft.to/lastmile_qr_scan"}, "type": "electric_scooter", "lon": -77.01170566666667, "name": "32edb1846a1f41c32e17db635069f5c2", "bike_id": "32edb1846a1f41c32e17db635069f5c2", "fusion_lat": 0.0, "is_reserved": 0, "lat": 38.896469333333336, "fusion_lon": 0.0, "is_disabled": 0}, {"rental_uris": {"android": "https://dc.lft.to/lastmile_qr_scan", "ios": "https://dc.lft.to/lastmile_qr_scan"}, "type": "electric_scooter", "lon": -77.02353616666667, "name": "cb73ef461757ced892dba17f91ddebb7", "bike_id": "cb73ef461757ced892dba17f91ddebb7", "fusion_lat": 0.0, "is_reserved": 0, "lat": 38.925073, "fusion_lon": 0.0, "is_disabled": 0}, {"rental_uris": {"android": "https://dc.lft.to/lastmile_qr_scan", "ios": "https://dc.lft.to/lastmile_qr_scan"}, "type": "electric_scooter", "lon": -76.991405, "name": "7be28096a40f2c75aba3743a081b0ee3", "bike_id": "7be28096a40f2c75aba3743a081b0ee3", "fusion_lat": 0.0, "is_reserved": 0, "lat": 38.897307166666664, "fusion_lon": 0.0, "is_disabled": 0}, {"rental_uris": {"android": "https://dc.lft.to/lastmile_qr_scan", "ios": "https://dc.lft.to/lastmile_qr_scan"}, "type": "electric_scooter", "lon": -77.02625216666667, "name": "3e61b9642b4b4de19ce71d86bb54a763", "bike_id": "3e61b9642b4b4de19ce71d86bb54a763", "fusion_lat": 0.0, "is_reserved": 0, "lat": 38.91709916666667, "fusion_lon": 0.0, "is_disabled": 0}, {"rental_uris": {"android": "https://dc.lft.to/lastmile_qr_scan", "ios": "https://dc.lft.to/lastmile_qr_scan"}, "type": "electric_scooter", "lon": -77.02207383333334, "name": "6b2096c7c3cfecd09d6c86ffcbeb5e4c", "bike_id": "6b2096c7c3cfecd09d6c86ffcbeb5e4c", "fusion_lat": 0.0, "is_reserved": 0, "lat": 38.89496283333333, "fusion_lon": 0.0, "is_disabled": 0}, {"rental_uris": {"android": "https://dc.lft.to/lastmile_qr_scan", "ios": "https://dc.lft.to/lastmile_qr_scan"}, "type": "electric_scooter", "lon": -77.026224, "name": "7ec76dd6a0cd8a5b105ef1c32a4a386a", "bike_id": "7ec76dd6a0cd8a5b105ef1c32a4a386a", "fusion_lat": 0.0, "is_reserved": 0, "lat": 38.88739066666667, "fusion_lon": 0.0, "is_disabled": 0}, {"rental_uris": {"android": "https://dc.lft.to/lastmile_qr_scan", "ios": "https://dc.lft.to/lastmile_qr_scan"}, "type": "electric_scooter", "lon": -77.02705, "name": "082e86e3fc5b69d11d45d506bf85c506", "bike_id": "082e86e3fc5b69d11d45d506bf85c506", "fusion_lat": 0.0, "is_reserved": 0, "lat": 38.95001533333333, "fusion_lon": 0.0, "is_disabled": 0}, {"rental_uris": {"android": "https://dc.lft.to/lastmile_qr_scan", "ios": "https://dc.lft.to/lastmile_qr_scan"}, "type": "electric_scooter", "lon": -77.02984116666667, "name": "2dcd1b26f495d2fbcf31a69b47a5d6b4", "bike_id": "2dcd1b26f495d2fbcf31a69b47a5d6b4", "fusion_lat": 0.0, "is_reserved": 0, "lat": 38.9563115, "fusion_lon": 0.0, "is_disabled": 0}, {"rental_uris": {"android": "https://dc.lft.to/lastmile_qr_scan", "ios": "https://dc.lft.to/lastmile_qr_scan"}, "type": "electric_scooter", "lon": -77.02600583333333, "name": "4a58ce9fe725cc1e270fd5561bfbc4a9", "bike_id": "4a58ce9fe725cc1e270fd5561bfbc4a9", "fusion_lat": 0.0, "is_reserved": 0, "lat": 38.90500766666667, "fusion_lon": 0.0, "is_disabled": 0}, {"rental_uris": {"android": "https://dc.lft.to/lastmile_qr_scan", "ios": "https://dc.lft.to/lastmile_qr_scan"}, "type": "electric_bike", "lon": -77.04074566666667, "name": "de00231fd6c123a3727ec58329640209", "bike_id": "de00231fd6c123a3727ec58329640209", "fusion_lat": 0.0, "is_reserved": 0, "lat": 38.81236533333333, "fusion_lon": 0.0, "is_disabled": 0}, {"rental_uris": {"android": "https://dc.lft.to/lastmile_qr_scan", "ios": "https://dc.lft.to/lastmile_qr_scan"}, "type": "electric_scooter", "lon": -77.02713, "name": "8c90f96d36d0a244b446c5baf76aba0d", "bike_id": "8c90f96d36d0a244b446c5baf76aba0d", "fusion_lat": 0.0, "is_reserved": 0, "lat": 38.9154685, "fusion_lon": 0.0, "is_disabled": 0}, {"rental_uris": {"android": "https://dc.lft.to/lastmile_qr_scan", "ios": "https://dc.lft.to/lastmile_qr_scan"}, "type": "electric_bike", "lon": -76.93197733333334, "name": "69c9025010d112549e3548929d2adfd5", "bike_id": "69c9025010d112549e3548929d2adfd5", "fusion_lat": 0.0, "is_reserved": 0, "lat": 38.872352666666664, "fusion_lon": 0.0, "is_disabled": 0}, {"rental_uris": {"android": "https://dc.lft.to/lastmile_qr_scan", "ios": "https://dc.lft.to/lastmile_qr_scan"}, "type": "electric_scooter", "lon": -77.03343366666667, "name": "eb50f6a07445a9937cec73a8fd17024c", "bike_id": "eb50f6a07445a9937cec73a8fd17024c", "fusion_lat": 0.0, "is_reserved": 0, "lat": 38.9287345, "fusion_lon": 0.0, "is_disabled": 0}, {"rental_uris": {"android": "https://dc.lft.to/lastmile_qr_scan", "ios": "https://dc.lft.to/lastmile_qr_scan"}, "type": "electric_bike", "lon": -77.0996065, "name": "9b046a4ea91b1765748527731ed9e631", "bike_id": "9b046a4ea91b1765748527731ed9e631", "fusion_lat": 0.0, "is_reserved": 0, "lat": 38.85795616666667, "fusion_lon": 0.0, "is_disabled": 0}, {"rental_uris": {"android": "https://dc.lft.to/lastmile_qr_scan", "ios": "https://dc.lft.to/lastmile_qr_scan"}, "type": "electric_scooter", "lon": -77.022057, "name": "a8167de960dcf11b3f08dcd342500959", "bike_id": "a8167de960dcf11b3f08dcd342500959", "fusion_lat": 0.0, "is_reserved": 0, "lat": 38.92109266666667, "fusion_lon": 0.0, "is_disabled": 0}, {"rental_uris": {"android": "https://dc.lft.to/lastmile_qr_scan", "ios": "https://dc.lft.to/lastmile_qr_scan"}, "type": "electric_scooter", "lon": -77.03504366666667, "name": "775bc594eebf36d799e838f31f15aeec", "bike_id": "775bc594eebf36d799e838f31f15aeec", "fusion_lat": 0.0, "is_reserved": 0, "lat": 38.918845166666664, "fusion_lon": 0.0, "is_disabled": 0}, {"rental_uris": {"android": "https://dc.lft.to/lastmile_qr_scan", "ios": "https://dc.lft.to/lastmile_qr_scan"}, "type": "electric_scooter", "lon": -77.0260155, "name": "38c5a5d4519560d9a01f1a4a24477995", "bike_id": "38c5a5d4519560d9a01f1a4a24477995", "fusion_lat": 0.0, "is_reserved": 0, "lat": 38.9161865, "fusion_lon": 0.0, "is_disabled": 0}, {"rental_uris": {"android": "https://dc.lft.to/lastmile_qr_scan", "ios": "https://dc.lft.to/lastmile_qr_scan"}, "type": "electric_scooter", "lon": -77.03439566666667, "name": "6b55af366f6ab721e3d024aeedce821e", "bike_id": "6b55af366f6ab721e3d024aeedce821e", "fusion_lat": 0.0, "is_reserved": 0, "lat": 38.92052783333333, "fusion_lon": 0.0, "is_disabled": 0}, {"rental_uris": {"android": "https://dc.lft.to/lastmile_qr_scan", "ios": "https://dc.lft.to/lastmile_qr_scan"}, "type": "electric_scooter", "lon": -76.95215966666666, "name": "e396824341f012540b1c9b397ba20226", "bike_id": "e396824341f012540b1c9b397ba20226", "fusion_lat": 0.0, "is_reserved": 0, "lat": 38.88675833333333, "fusion_lon": 0.0, "is_disabled": 0}, {"rental_uris": {"android": "https://dc.lft.to/lastmile_qr_scan", "ios": "https://dc.lft.to/lastmile_qr_scan"}, "type": "electric_scooter", "lon": -77.04327983333333, "name": "24f4eeafa7d551fd00a349ce9240b42d", "bike_id": "24f4eeafa7d551fd00a349ce9240b42d", "fusion_lat": 0.0, "is_reserved": 0, "lat": 38.904923, "fusion_lon": 0.0, "is_disabled": 0}, {"rental_uris": {"android": "https://dc.lft.to/lastmile_qr_scan", "ios": "https://dc.lft.to/lastmile_qr_scan"}, "type": "electric_scooter", "lon": -77.03356016666666, "name": "7f09dde7ce3b0259b731c923cb43e336", "bike_id": "7f09dde7ce3b0259b731c923cb43e336", "fusion_lat": 0.0, "is_reserved": 0, "lat": 38.91192683333333, "fusion_lon": 0.0, "is_disabled": 0}, {"rental_uris": {"android": "https://dc.lft.to/lastmile_qr_scan", "ios": "https://dc.lft.to/lastmile_qr_scan"}, "type": "electric_scooter", "lon": -76.94734833333334, "name": "111d90ebd2d35ffa773b10fe74c18d9b", "bike_id": "111d90ebd2d35ffa773b10fe74c18d9b", "fusion_lat": 0.0, "is_reserved": 0, "lat": 38.8968735, "fusion_lon": 0.0, "is_disabled": 0}, {"rental_uris": {"android": "https://dc.lft.to/lastmile_qr_scan", "ios": "https://dc.lft.to/lastmile_qr_scan"}, "type": "electric_scooter", "lon": -76.99944016666667, "name": "632ac3b6bbb6a56811c92dd2681bd25b", "bike_id": "632ac3b6bbb6a56811c92dd2681bd25b", "fusion_lat": 0.0, "is_reserved": 0, "lat": 38.842959666666665, "fusion_lon": 0.0, "is_disabled": 0}, {"rental_uris": {"android": "https://dc.lft.to/lastmile_qr_scan", "ios": "https://dc.lft.to/lastmile_qr_scan"}, "type": "electric_bike", "lon": -77.08574283333333, "name": "32f8ecfe5baba4bb4e6eb571d8df3952", "bike_id": "32f8ecfe5baba4bb4e6eb571d8df3952", "fusion_lat": 0.0, "is_reserved": 0, "lat": 38.874241, "fusion_lon": 0.0, "is_disabled": 0}, {"rental_uris": {"android": "https://dc.lft.to/lastmile_qr_scan", "ios": "https://dc.lft.to/lastmile_qr_scan"}, "type": "electric_scooter", "lon": -77.02188016666666, "name": "c77b510c7e5c8ebf23bb09beb3fe18f1", "bike_id": "c77b510c7e5c8ebf23bb09beb3fe18f1", "fusion_lat": 0.0, "is_reserved": 0, "lat": 38.91087316666667, "fusion_lon": 0.0, "is_disabled": 0}, {"rental_uris": {"android": "https://dc.lft.to/lastmile_qr_scan", "ios": "https://dc.lft.to/lastmile_qr_scan"}, "type": "electric_scooter", "lon": -77.03438, "name": "8c772c74cb15c5fcf04c40650fd7fe7a", "bike_id": "8c772c74cb15c5fcf04c40650fd7fe7a", "fusion_lat": 0.0, "is_reserved": 0, "lat": 38.90569633333333, "fusion_lon": 0.0, "is_disabled": 0}, {"rental_uris": {"android": "https://dc.lft.to/lastmile_qr_scan", "ios": "https://dc.lft.to/lastmile_qr_scan"}, "type": "electric_scooter", "lon": -77.030227, "name": "6996dc3225f2b533614bfaea94680d02", "bike_id": "6996dc3225f2b533614bfaea94680d02", "fusion_lat": 0.0, "is_reserved": 0, "lat": 38.926800166666666, "fusion_lon": 0.0, "is_disabled": 0}, {"rental_uris": {"android": "https://dc.lft.to/lastmile_qr_scan", "ios": "https://dc.lft.to/lastmile_qr_scan"}, "type": "electric_scooter", "lon": -77.02973566666667, "name": "fb4d48cd9ae281452a5b99df0289ce80", "bike_id": "fb4d48cd9ae281452a5b99df0289ce80", "fusion_lat": 0.0, "is_reserved": 0, "lat": 38.90731433333333, "fusion_lon": 0.0, "is_disabled": 0}, {"rental_uris": {"android": "https://dc.lft.to/lastmile_qr_scan", "ios": "https://dc.lft.to/lastmile_qr_scan"}, "type": "electric_scooter", "lon": -76.98072533333334, "name": "6f143ef6afc17bde5afa2ffc3ef453e3", "bike_id": "6f143ef6afc17bde5afa2ffc3ef453e3", "fusion_lat": 0.0, "is_reserved": 0, "lat": 38.9017475, "fusion_lon": 0.0, "is_disabled": 0}, {"rental_uris": {"android": "https://dc.lft.to/lastmile_qr_scan", "ios": "https://dc.lft.to/lastmile_qr_scan"}, "type": "electric_scooter", "lon": -77.026848, "name": "2554ea8cd1d5391f2180982faa61bc93", "bike_id": "2554ea8cd1d5391f2180982faa61bc93", "fusion_lat": 0.0, "is_reserved": 0, "lat": 38.89998666666666, "fusion_lon": 0.0, "is_disabled": 0}, {"rental_uris": {"android": "https://dc.lft.to/lastmile_qr_scan", "ios": "https://dc.lft.to/lastmile_qr_scan"}, "type": "electric_bike", "lon": -77.02489233333333, "name": "7c0958b781212ee95fc947c49754243e", "bike_id": "7c0958b781212ee95fc947c49754243e", "fusion_lat": 0.0, "is_reserved": 0, "lat": 38.974118, "fusion_lon": 0.0, "is_disabled": 0}, {"rental_uris": {"android": "https://dc.lft.to/lastmile_qr_scan", "ios": "https://dc.lft.to/lastmile_qr_scan"}, "type": "electric_scooter", "lon": -76.9867185, "name": "eba1e1bb379f83a0792bf35c6b76141c", "bike_id": "eba1e1bb379f83a0792bf35c6b76141c", "fusion_lat": 0.0, "is_reserved": 0, "lat": 38.900117333333334, "fusion_lon": 0.0, "is_disabled": 0}, {"rental_uris": {"android": "https://dc.lft.to/lastmile_qr_scan", "ios": "https://dc.lft.to/lastmile_qr_scan"}, "type": "electric_scooter", "lon": -77.02291483333333, "name": "434f96716b804ac99481709b27544e2a", "bike_id": "434f96716b804ac99481709b27544e2a", "fusion_lat": 0.0, "is_reserved": 0, "lat": 38.91737416666667, "fusion_lon": 0.0, "is_disabled": 0}, {"rental_uris": {"android": "https://dc.lft.to/lastmile_qr_scan", "ios": "https://dc.lft.to/lastmile_qr_scan"}, "type": "electric_scooter", "lon": -77.025109, "name": "427b76f3ef79c92d93a0f48812a61868", "bike_id": "427b76f3ef79c92d93a0f48812a61868", "fusion_lat": 0.0, "is_reserved": 0, "lat": 38.9417655, "fusion_lon": 0.0, "is_disabled": 0}, {"rental_uris": {"android": "https://dc.lft.to/lastmile_qr_scan", "ios": "https://dc.lft.to/lastmile_qr_scan"}, "type": "electric_scooter", "lon": -77.00576716666667, "name": "2ae2244d225cf00dd15ef5528feb6c18", "bike_id": "2ae2244d225cf00dd15ef5528feb6c18", "fusion_lat": 0.0, "is_reserved": 0, "lat": 38.905522500000004, "fusion_lon": 0.0, "is_disabled": 0}, {"rental_uris": {"android": "https://dc.lft.to/lastmile_qr_scan", "ios": "https://dc.lft.to/lastmile_qr_scan"}, "type": "electric_scooter", "lon": -76.98039583333333, "name": "71fe00110e724d52cae4fe4bd5dbf9da", "bike_id": "71fe00110e724d52cae4fe4bd5dbf9da", "fusion_lat": 0.0, "is_reserved": 0, "lat": 38.91685483333333, "fusion_lon": 0.0, "is_disabled": 0}, {"rental_uris": {"android": "https://dc.lft.to/lastmile_qr_scan", "ios": "https://dc.lft.to/lastmile_qr_scan"}, "type": "electric_scooter", "lon": -77.05438733333334, "name": "2496edc986796d4a211b7b7f22a1d575", "bike_id": "2496edc986796d4a211b7b7f22a1d575", "fusion_lat": 0.0, "is_reserved": 0, "lat": 38.8960335, "fusion_lon": 0.0, "is_disabled": 0}, {"rental_uris": {"android": "https://dc.lft.to/lastmile_qr_scan", "ios": "https://dc.lft.to/lastmile_qr_scan"}, "type": "electric_bike", "lon": -77.17842666666667, "name": "0a514b7fddad43067118e2bf34253203", "bike_id": "0a514b7fddad43067118e2bf34253203", "fusion_lat": 0.0, "is_reserved": 0, "lat": 39.08906533333333, "fusion_lon": 0.0, "is_disabled": 0}, {"rental_uris": {"android": "https://dc.lft.to/lastmile_qr_scan", "ios": "https://dc.lft.to/lastmile_qr_scan"}, "type": "electric_scooter", "lon": -77.02279183333333, "name": "57f590c691c46c7cc025fab3106ea5ef", "bike_id": "57f590c691c46c7cc025fab3106ea5ef", "fusion_lat": 0.0, "is_reserved": 0, "lat": 38.92418683333333, "fusion_lon": 0.0, "is_disabled": 0}, {"rental_uris": {"android": "https://dc.lft.to/lastmile_qr_scan", "ios": "https://dc.lft.to/lastmile_qr_scan"}, "type": "electric_scooter", "lon": -77.02404516666667, "name": "5cb52044a3511bed592a481586f373c1", "bike_id": "5cb52044a3511bed592a481586f373c1", "fusion_lat": 0.0, "is_reserved": 0, "lat": 38.91343883333333, "fusion_lon": 0.0, "is_disabled": 0}, {"rental_uris": {"android": "https://dc.lft.to/lastmile_qr_scan", "ios": "https://dc.lft.to/lastmile_qr_scan"}, "type": "electric_scooter", "lon": -76.99478633333334, "name": "e5cda67614427e635648ac0f886bc2e1", "bike_id": "e5cda67614427e635648ac0f886bc2e1", "fusion_lat": 0.0, "is_reserved": 0, "lat": 38.888649, "fusion_lon": 0.0, "is_disabled": 0}, {"rental_uris": {"android": "https://dc.lft.to/lastmile_qr_scan", "ios": "https://dc.lft.to/lastmile_qr_scan"}, "type": "electric_scooter", "lon": -77.02712333333334, "name": "96ce0c2a9c0b2620cfa2d7350a4c2bbd", "bike_id": "96ce0c2a9c0b2620cfa2d7350a4c2bbd", "fusion_lat": 0.0, "is_reserved": 0, "lat": 38.906682333333336, "fusion_lon": 0.0, "is_disabled": 0}, {"rental_uris": {"android": "https://dc.lft.to/lastmile_qr_scan", "ios": "https://dc.lft.to/lastmile_qr_scan"}, "type": "electric_bike", "lon": -77.043063, "name": "2710eeb7c0cda628bf03c514faba792a", "bike_id": "2710eeb7c0cda628bf03c514faba792a", "fusion_lat": 0.0, "is_reserved": 0, "lat": 39.054470333333335, "fusion_lon": 0.0, "is_disabled": 0}, {"rental_uris": {"android": "https://dc.lft.to/lastmile_qr_scan", "ios": "https://dc.lft.to/lastmile_qr_scan"}, "type": "electric_scooter", "lon": -77.0271195, "name": "a179f3a355866d51369bdbcd49b45a71", "bike_id": "a179f3a355866d51369bdbcd49b45a71", "fusion_lat": 0.0, "is_reserved": 0, "lat": 38.949989, "fusion_lon": 0.0, "is_disabled": 0}, {"rental_uris": {"android": "https://dc.lft.to/lastmile_qr_scan", "ios": "https://dc.lft.to/lastmile_qr_scan"}, "type": "electric_scooter", "lon": -77.0321505, "name": "fcdfec86b01d0eabe744df0fe4584b37", "bike_id": "fcdfec86b01d0eabe744df0fe4584b37", "fusion_lat": 0.0, "is_reserved": 0, "lat": 38.90278383333333, "fusion_lon": 0.0, "is_disabled": 0}, {"rental_uris": {"android": "https://dc.lft.to/lastmile_qr_scan", "ios": "https://dc.lft.to/lastmile_qr_scan"}, "type": "electric_scooter", "lon": -77.0821195, "name": "5bf53f7dd496ec6f2790ff5064ee62df", "bike_id": "5bf53f7dd496ec6f2790ff5064ee62df", "fusion_lat": 0.0, "is_reserved": 0, "lat": 38.935558, "fusion_lon": 0.0, "is_disabled": 0}, {"rental_uris": {"android": "https://dc.lft.to/lastmile_qr_scan", "ios": "https://dc.lft.to/lastmile_qr_scan"}, "type": "electric_scooter", "lon": -77.01526116666666, "name": "4ecd22ed08eecf139a37b8a2ecdbd9b1", "bike_id": "4ecd22ed08eecf139a37b8a2ecdbd9b1", "fusion_lat": 0.0, "is_reserved": 0, "lat": 38.91355266666667, "fusion_lon": 0.0, "is_disabled": 0}, {"rental_uris": {"android": "https://dc.lft.to/lastmile_qr_scan", "ios": "https://dc.lft.to/lastmile_qr_scan"}, "type": "electric_scooter", "lon": -77.04985816666667, "name": "b0dd4b9722c2472ee9fd449adc856f1f", "bike_id": "b0dd4b9722c2472ee9fd449adc856f1f", "fusion_lat": 0.0, "is_reserved": 0, "lat": 38.898981, "fusion_lon": 0.0, "is_disabled": 0}, {"rental_uris": {"android": "https://dc.lft.to/lastmile_qr_scan", "ios": "https://dc.lft.to/lastmile_qr_scan"}, "type": "electric_scooter", "lon": -77.05259683333334, "name": "a6de84a08051cf6cb73d2b25163170e6", "bike_id": "a6de84a08051cf6cb73d2b25163170e6", "fusion_lat": 0.0, "is_reserved": 0, "lat": 38.92752316666667, "fusion_lon": 0.0, "is_disabled": 0}, {"rental_uris": {"android": "https://dc.lft.to/lastmile_qr_scan", "ios": "https://dc.lft.to/lastmile_qr_scan"}, "type": "electric_scooter", "lon": -76.99009, "name": "c0ba37d1a4e1d26d447a3c1073cbebba", "bike_id": "c0ba37d1a4e1d26d447a3c1073cbebba", "fusion_lat": 0.0, "is_reserved": 0, "lat": 38.911392166666666, "fusion_lon": 0.0, "is_disabled": 0}, {"rental_uris": {"android": "https://dc.lft.to/lastmile_qr_scan", "ios": "https://dc.lft.to/lastmile_qr_scan"}, "type": "electric_scooter", "lon": -77.01038383333334, "name": "7fc35ed34517b5c7726b890c5b9cb468", "bike_id": "7fc35ed34517b5c7726b890c5b9cb468", "fusion_lat": 0.0, "is_reserved": 0, "lat": 38.884517, "fusion_lon": 0.0, "is_disabled": 0}, {"rental_uris": {"android": "https://dc.lft.to/lastmile_qr_scan", "ios": "https://dc.lft.to/lastmile_qr_scan"}, "type": "electric_scooter", "lon": -77.0385625, "name": "b45bafd45e72f075c620ba92a1999c48", "bike_id": "b45bafd45e72f075c620ba92a1999c48", "fusion_lat": 0.0, "is_reserved": 0, "lat": 38.917081833333334, "fusion_lon": 0.0, "is_disabled": 0}, {"rental_uris": {"android": "https://dc.lft.to/lastmile_qr_scan", "ios": "https://dc.lft.to/lastmile_qr_scan"}, "type": "electric_scooter", "lon": -77.0256585, "name": "58b2b0fa8c89cd5092dfa98b9b1c217c", "bike_id": "58b2b0fa8c89cd5092dfa98b9b1c217c", "fusion_lat": 0.0, "is_reserved": 0, "lat": 38.925768166666664, "fusion_lon": 0.0, "is_disabled": 0}, {"rental_uris": {"android": "https://dc.lft.to/lastmile_qr_scan", "ios": "https://dc.lft.to/lastmile_qr_scan"}, "type": "electric_bike", "lon": -76.91122583333333, "name": "1196c98ebca1fc57dba30d4f8f27cb00", "bike_id": "1196c98ebca1fc57dba30d4f8f27cb00", "fusion_lat": 0.0, "is_reserved": 0, "lat": 39.01036083333333, "fusion_lon": 0.0, "is_disabled": 0}, {"rental_uris": {"android": "https://dc.lft.to/lastmile_qr_scan", "ios": "https://dc.lft.to/lastmile_qr_scan"}, "type": "electric_scooter", "lon": -76.9414515, "name": "0391017777feaf9daefe155c5ee2445f", "bike_id": "0391017777feaf9daefe155c5ee2445f", "fusion_lat": 0.0, "is_reserved": 0, "lat": 38.89113616666667, "fusion_lon": 0.0, "is_disabled": 0}, {"rental_uris": {"android": "https://dc.lft.to/lastmile_qr_scan", "ios": "https://dc.lft.to/lastmile_qr_scan"}, "type": "electric_scooter", "lon": -76.97906516666667, "name": "3a2a4a3caf201af74e2771aa38da420a", "bike_id": "3a2a4a3caf201af74e2771aa38da420a", "fusion_lat": 0.0, "is_reserved": 0, "lat": 38.903892, "fusion_lon": 0.0, "is_disabled": 0}, {"rental_uris": {"android": "https://dc.lft.to/lastmile_qr_scan", "ios": "https://dc.lft.to/lastmile_qr_scan"}, "type": "electric_scooter", "lon": -76.98589566666666, "name": "2d48c66599c721e6b22d4827a4576de4", "bike_id": "2d48c66599c721e6b22d4827a4576de4", "fusion_lat": 0.0, "is_reserved": 0, "lat": 38.8897125, "fusion_lon": 0.0, "is_disabled": 0}, {"rental_uris": {"android": "https://dc.lft.to/lastmile_qr_scan", "ios": "https://dc.lft.to/lastmile_qr_scan"}, "type": "electric_scooter", "lon": -77.04022616666667, "name": "771800124bc666b004a97a941e379d1d", "bike_id": "771800124bc666b004a97a941e379d1d", "fusion_lat": 0.0, "is_reserved": 0, "lat": 38.92458333333333, "fusion_lon": 0.0, "is_disabled": 0}, {"rental_uris": {"android": "https://dc.lft.to/lastmile_qr_scan", "ios": "https://dc.lft.to/lastmile_qr_scan"}, "type": "electric_scooter", "lon": -77.03197816666666, "name": "f915285d90e6c0ade26a16639d83cfcb", "bike_id": "f915285d90e6c0ade26a16639d83cfcb", "fusion_lat": 0.0, "is_reserved": 0, "lat": 38.9190595, "fusion_lon": 0.0, "is_disabled": 0}, {"rental_uris": {"android": "https://dc.lft.to/lastmile_qr_scan", "ios": "https://dc.lft.to/lastmile_qr_scan"}, "type": "electric_bike", "lon": -77.02418083333333, "name": "021bed0592e544060aed5a92da678fac", "bike_id": "021bed0592e544060aed5a92da678fac", "fusion_lat": 0.0, "is_reserved": 0, "lat": 38.94913433333333, "fusion_lon": 0.0, "is_disabled": 0}, {"rental_uris": {"android": "https://dc.lft.to/lastmile_qr_scan", "ios": "https://dc.lft.to/lastmile_qr_scan"}, "type": "electric_scooter", "lon": -77.01355, "name": "8db9ee5048a2509413510f8129ce9aa0", "bike_id": "8db9ee5048a2509413510f8129ce9aa0", "fusion_lat": 0.0, "is_reserved": 0, "lat": 38.903863, "fusion_lon": 0.0, "is_disabled": 0}, {"rental_uris": {"android": "https://dc.lft.to/lastmile_qr_scan", "ios": "https://dc.lft.to/lastmile_qr_scan"}, "type": "electric_scooter", "lon": -77.04345933333333, "name": "4770aea94d830f8cb8b2753a1be3f6db", "bike_id": "4770aea94d830f8cb8b2753a1be3f6db", "fusion_lat": 0.0, "is_reserved": 0, "lat": 38.91378383333333, "fusion_lon": 0.0, "is_disabled": 0}, {"rental_uris": {"android": "https://dc.lft.to/lastmile_qr_scan", "ios": "https://dc.lft.to/lastmile_qr_scan"}, "type": "electric_scooter", "lon": -77.03834866666666, "name": "027d9bc6fd51da60bd2ad4d361f5e29f", "bike_id": "027d9bc6fd51da60bd2ad4d361f5e29f", "fusion_lat": 0.0, "is_reserved": 0, "lat": 38.9119055, "fusion_lon": 0.0, "is_disabled": 0}, {"rental_uris": {"android": "https://dc.lft.to/lastmile_qr_scan", "ios": "https://dc.lft.to/lastmile_qr_scan"}, "type": "electric_scooter", "lon": -76.924003, "name": "b07739019f1ded76572e83ccef01e73e", "bike_id": "b07739019f1ded76572e83ccef01e73e", "fusion_lat": 0.0, "is_reserved": 0, "lat": 38.88988233333333, "fusion_lon": 0.0, "is_disabled": 0}, {"rental_uris": {"android": "https://dc.lft.to/lastmile_qr_scan", "ios": "https://dc.lft.to/lastmile_qr_scan"}, "type": "electric_scooter", "lon": -77.02708, "name": "cd52c4f8734e319e4e3adbd1e76c14e9", "bike_id": "cd52c4f8734e319e4e3adbd1e76c14e9", "fusion_lat": 0.0, "is_reserved": 0, "lat": 38.90899866666667, "fusion_lon": 0.0, "is_disabled": 0}, {"rental_uris": {"android": "https://dc.lft.to/lastmile_qr_scan", "ios": "https://dc.lft.to/lastmile_qr_scan"}, "type": "electric_bike", "lon": -76.9341295, "name": "41d04badca39f142f5e8d3d1d0a73cc2", "bike_id": "41d04badca39f142f5e8d3d1d0a73cc2", "fusion_lat": 0.0, "is_reserved": 0, "lat": 38.946288333333335, "fusion_lon": 0.0, "is_disabled": 0}, {"rental_uris": {"android": "https://dc.lft.to/lastmile_qr_scan", "ios": "https://dc.lft.to/lastmile_qr_scan"}, "type": "electric_scooter", "lon": -77.047066, "name": "584f01c39b0624af1ca9913b53d49a5d", "bike_id": "584f01c39b0624af1ca9913b53d49a5d", "fusion_lat": 0.0, "is_reserved": 0, "lat": 38.9125745, "fusion_lon": 0.0, "is_disabled": 0}, {"rental_uris": {"android": "https://dc.lft.to/lastmile_qr_scan", "ios": "https://dc.lft.to/lastmile_qr_scan"}, "type": "electric_scooter", "lon": -76.99156533333333, "name": "b637f6115bd8b5b38b5234339edf0823", "bike_id": "b637f6115bd8b5b38b5234339edf0823", "fusion_lat": 0.0, "is_reserved": 0, "lat": 38.879173, "fusion_lon": 0.0, "is_disabled": 0}, {"rental_uris": {"android": "https://dc.lft.to/lastmile_qr_scan", "ios": "https://dc.lft.to/lastmile_qr_scan"}, "type": "electric_scooter", "lon": -77.02979766666667, "name": "1f941b16637da79ed2562fcb66087ccf", "bike_id": "1f941b16637da79ed2562fcb66087ccf", "fusion_lat": 0.0, "is_reserved": 0, "lat": 38.89323066666667, "fusion_lon": 0.0, "is_disabled": 0}, {"rental_uris": {"android": "https://dc.lft.to/lastmile_qr_scan", "ios": "https://dc.lft.to/lastmile_qr_scan"}, "type": "electric_scooter", "lon": -76.973418, "name": "d5cb10df39c941637c2e8f0a12d111ca", "bike_id": "d5cb10df39c941637c2e8f0a12d111ca", "fusion_lat": 0.0, "is_reserved": 0, "lat": 38.865098833333334, "fusion_lon": 0.0, "is_disabled": 0}, {"rental_uris": {"android": "https://dc.lft.to/lastmile_qr_scan", "ios": "https://dc.lft.to/lastmile_qr_scan"}, "type": "electric_scooter", "lon": -77.0325005, "name": "fae91058dc1ec782f653bb71a9380ad3", "bike_id": "fae91058dc1ec782f653bb71a9380ad3", "fusion_lat": 0.0, "is_reserved": 0, "lat": 38.930937666666665, "fusion_lon": 0.0, "is_disabled": 0}, {"rental_uris": {"android": "https://dc.lft.to/lastmile_qr_scan", "ios": "https://dc.lft.to/lastmile_qr_scan"}, "type": "electric_scooter", "lon": -77.029654, "name": "23fc8a2082421cfb4cef8d569a7287cc", "bike_id": "23fc8a2082421cfb4cef8d569a7287cc", "fusion_lat": 0.0, "is_reserved": 0, "lat": 38.8922105, "fusion_lon": 0.0, "is_disabled": 0}, {"rental_uris": {"android": "https://dc.lft.to/lastmile_qr_scan", "ios": "https://dc.lft.to/lastmile_qr_scan"}, "type": "electric_scooter", "lon": -77.03873183333333, "name": "58256b3a0a2da54d7fd38e32af83614f", "bike_id": "58256b3a0a2da54d7fd38e32af83614f", "fusion_lat": 0.0, "is_reserved": 0, "lat": 38.932445333333334, "fusion_lon": 0.0, "is_disabled": 0}, {"rental_uris": {"android": "https://dc.lft.to/lastmile_qr_scan", "ios": "https://dc.lft.to/lastmile_qr_scan"}, "type": "electric_scooter", "lon": -77.01731433333333, "name": "7ab44c5aee6596dded09fd0e98443bc1", "bike_id": "7ab44c5aee6596dded09fd0e98443bc1", "fusion_lat": 0.0, "is_reserved": 0, "lat": 38.942041, "fusion_lon": 0.0, "is_disabled": 0}, {"rental_uris": {"android": "https://dc.lft.to/lastmile_qr_scan", "ios": "https://dc.lft.to/lastmile_qr_scan"}, "type": "electric_scooter", "lon": -77.02210833333334, "name": "61c05f74b9e1921f22fb50efb246a83d", "bike_id": "61c05f74b9e1921f22fb50efb246a83d", "fusion_lat": 0.0, "is_reserved": 0, "lat": 38.915650166666666, "fusion_lon": 0.0, "is_disabled": 0}, {"rental_uris": {"android": "https://dc.lft.to/lastmile_qr_scan", "ios": "https://dc.lft.to/lastmile_qr_scan"}, "type": "electric_scooter", "lon": -77.04806633333334, "name": "168244deb11788677c94411f44837f93", "bike_id": "168244deb11788677c94411f44837f93", "fusion_lat": 0.0, "is_reserved": 0, "lat": 38.919189, "fusion_lon": 0.0, "is_disabled": 0}, {"rental_uris": {"android": "https://dc.lft.to/lastmile_qr_scan", "ios": "https://dc.lft.to/lastmile_qr_scan"}, "type": "electric_scooter", "lon": -77.026155, "name": "9f695fbb02dddecdc2290f660e10d6e0", "bike_id": "9f695fbb02dddecdc2290f660e10d6e0", "fusion_lat": 0.0, "is_reserved": 0, "lat": 38.88594616666666, "fusion_lon": 0.0, "is_disabled": 0}, {"rental_uris": {"android": "https://dc.lft.to/lastmile_qr_scan", "ios": "https://dc.lft.to/lastmile_qr_scan"}, "type": "electric_scooter", "lon": -77.03347633333334, "name": "b9e8bba0bf76e78698b4ab28363dca5e", "bike_id": "b9e8bba0bf76e78698b4ab28363dca5e", "fusion_lat": 0.0, "is_reserved": 0, "lat": 38.922403833333334, "fusion_lon": 0.0, "is_disabled": 0}, {"rental_uris": {"android": "https://dc.lft.to/lastmile_qr_scan", "ios": "https://dc.lft.to/lastmile_qr_scan"}, "type": "electric_scooter", "lon": -77.02171983333334, "name": "ffcebe4159e6b18ca867053b8423b884", "bike_id": "ffcebe4159e6b18ca867053b8423b884", "fusion_lat": 0.0, "is_reserved": 0, "lat": 38.89740583333333, "fusion_lon": 0.0, "is_disabled": 0}, {"rental_uris": {"android": "https://dc.lft.to/lastmile_qr_scan", "ios": "https://dc.lft.to/lastmile_qr_scan"}, "type": "electric_bike", "lon": -77.12624416666667, "name": "d75cb6308290cc38859c950052d6db13", "bike_id": "d75cb6308290cc38859c950052d6db13", "fusion_lat": 0.0, "is_reserved": 0, "lat": 39.0581245, "fusion_lon": 0.0, "is_disabled": 0}, {"rental_uris": {"android": "https://dc.lft.to/lastmile_qr_scan", "ios": "https://dc.lft.to/lastmile_qr_scan"}, "type": "electric_bike", "lon": -76.98742233333333, "name": "58a58fd1f635062e23514354676bf864", "bike_id": "58a58fd1f635062e23514354676bf864", "fusion_lat": 0.0, "is_reserved": 0, "lat": 38.857927, "fusion_lon": 0.0, "is_disabled": 0}, {"rental_uris": {"android": "https://dc.lft.to/lastmile_qr_scan", "ios": "https://dc.lft.to/lastmile_qr_scan"}, "type": "electric_scooter", "lon": -77.0329115, "name": "1a2351499493b2c011035c16af9cb1e1", "bike_id": "1a2351499493b2c011035c16af9cb1e1", "fusion_lat": 0.0, "is_reserved": 0, "lat": 38.92072483333333, "fusion_lon": 0.0, "is_disabled": 0}, {"rental_uris": {"android": "https://dc.lft.to/lastmile_qr_scan", "ios": "https://dc.lft.to/lastmile_qr_scan"}, "type": "electric_bike", "lon": -76.98088583333333, "name": "8eb5fd5196784f5ee78fa939db5da975", "bike_id": "8eb5fd5196784f5ee78fa939db5da975", "fusion_lat": 0.0, "is_reserved": 0, "lat": 38.95356966666667, "fusion_lon": 0.0, "is_disabled": 0}, {"rental_uris": {"android": "https://dc.lft.to/lastmile_qr_scan", "ios": "https://dc.lft.to/lastmile_qr_scan"}, "type": "electric_bike", "lon": -76.9733055, "name": "a53ac47a7c89bfb9c5c7708e25fa0f6c", "bike_id": "a53ac47a7c89bfb9c5c7708e25fa0f6c", "fusion_lat": 0.0, "is_reserved": 0, "lat": 38.85066466666667, "fusion_lon": 0.0, "is_disabled": 0}, {"rental_uris": {"android": "https://dc.lft.to/lastmile_qr_scan", "ios": "https://dc.lft.to/lastmile_qr_scan"}, "type": "electric_scooter", "lon": -77.04646233333334, "name": "6d6a2f1768a48c98bd9aa3c71dd780f0", "bike_id": "6d6a2f1768a48c98bd9aa3c71dd780f0", "fusion_lat": 0.0, "is_reserved": 0, "lat": 38.90509016666667, "fusion_lon": 0.0, "is_disabled": 0}, {"rental_uris": {"android": "https://dc.lft.to/lastmile_qr_scan", "ios": "https://dc.lft.to/lastmile_qr_scan"}, "type": "electric_scooter", "lon": -77.03272733333333, "name": "1a0be2f903807820cf3d99034ab70c55", "bike_id": "1a0be2f903807820cf3d99034ab70c55", "fusion_lat": 0.0, "is_reserved": 0, "lat": 38.93252416666667, "fusion_lon": 0.0, "is_disabled": 0}, {"rental_uris": {"android": "https://dc.lft.to/lastmile_qr_scan", "ios": "https://dc.lft.to/lastmile_qr_scan"}, "type": "electric_scooter", "lon": -77.03441, "name": "9f3f285adf925eb6ca17432b22586710", "bike_id": "9f3f285adf925eb6ca17432b22586710", "fusion_lat": 0.0, "is_reserved": 0, "lat": 38.928847833333336, "fusion_lon": 0.0, "is_disabled": 0}, {"rental_uris": {"android": "https://dc.lft.to/lastmile_qr_scan", "ios": "https://dc.lft.to/lastmile_qr_scan"}, "type": "electric_scooter", "lon": -77.02521683333333, "name": "7e986dafa8edc3ff9f66d49775d69a84", "bike_id": "7e986dafa8edc3ff9f66d49775d69a84", "fusion_lat": 0.0, "is_reserved": 0, "lat": 38.91956, "fusion_lon": 0.0, "is_disabled": 0}, {"rental_uris": {"android": "https://dc.lft.to/lastmile_qr_scan", "ios": "https://dc.lft.to/lastmile_qr_scan"}, "type": "electric_scooter", "lon": -77.04003283333333, "name": "e0fd2bf5450180a42fbc742a11b30244", "bike_id": "e0fd2bf5450180a42fbc742a11b30244", "fusion_lat": 0.0, "is_reserved": 0, "lat": 38.918124166666665, "fusion_lon": 0.0, "is_disabled": 0}, {"rental_uris": {"android": "https://dc.lft.to/lastmile_qr_scan", "ios": "https://dc.lft.to/lastmile_qr_scan"}, "type": "electric_scooter", "lon": -76.97730183333333, "name": "052ebb4e8044f3069f2938e5345b6b88", "bike_id": "052ebb4e8044f3069f2938e5345b6b88", "fusion_lat": 0.0, "is_reserved": 0, "lat": 38.87247933333333, "fusion_lon": 0.0, "is_disabled": 0}, {"rental_uris": {"android": "https://dc.lft.to/lastmile_qr_scan", "ios": "https://dc.lft.to/lastmile_qr_scan"}, "type": "electric_scooter", "lon": -77.03320533333333, "name": "0ae363982508d27bf60932913ce550f4", "bike_id": "0ae363982508d27bf60932913ce550f4", "fusion_lat": 0.0, "is_reserved": 0, "lat": 38.90363, "fusion_lon": 0.0, "is_disabled": 0}, {"rental_uris": {"android": "https://dc.lft.to/lastmile_qr_scan", "ios": "https://dc.lft.to/lastmile_qr_scan"}, "type": "electric_scooter", "lon": -77.0250035, "name": "76fd61091a4a2856760525683117ad7f", "bike_id": "76fd61091a4a2856760525683117ad7f", "fusion_lat": 0.0, "is_reserved": 0, "lat": 38.94201533333333, "fusion_lon": 0.0, "is_disabled": 0}, {"rental_uris": {"android": "https://dc.lft.to/lastmile_qr_scan", "ios": "https://dc.lft.to/lastmile_qr_scan"}, "type": "electric_scooter", "lon": -77.07995566666666, "name": "23125856ac27cb693774efbcae66c99e", "bike_id": "23125856ac27cb693774efbcae66c99e", "fusion_lat": 0.0, "is_reserved": 0, "lat": 38.9237585, "fusion_lon": 0.0, "is_disabled": 0}, {"rental_uris": {"android": "https://dc.lft.to/lastmile_qr_scan", "ios": "https://dc.lft.to/lastmile_qr_scan"}, "type": "electric_scooter", "lon": -77.04034466666667, "name": "d012cc0fbb83419a4a1a72f544019f05", "bike_id": "d012cc0fbb83419a4a1a72f544019f05", "fusion_lat": 0.0, "is_reserved": 0, "lat": 38.92448133333333, "fusion_lon": 0.0, "is_disabled": 0}, {"rental_uris": {"android": "https://dc.lft.to/lastmile_qr_scan", "ios": "https://dc.lft.to/lastmile_qr_scan"}, "type": "electric_scooter", "lon": -77.03961783333334, "name": "b35dcdee586184f67df8007f3c709b85", "bike_id": "b35dcdee586184f67df8007f3c709b85", "fusion_lat": 0.0, "is_reserved": 0, "lat": 38.906218, "fusion_lon": 0.0, "is_disabled": 0}, {"rental_uris": {"android": "https://dc.lft.to/lastmile_qr_scan", "ios": "https://dc.lft.to/lastmile_qr_scan"}, "type": "electric_scooter", "lon": -77.02425233333334, "name": "d9dbb2f05d8aa29e431e9f3b53a748a1", "bike_id": "d9dbb2f05d8aa29e431e9f3b53a748a1", "fusion_lat": 0.0, "is_reserved": 0, "lat": 38.9096105, "fusion_lon": 0.0, "is_disabled": 0}, {"rental_uris": {"android": "https://dc.lft.to/lastmile_qr_scan", "ios": "https://dc.lft.to/lastmile_qr_scan"}, "type": "electric_scooter", "lon": -77.00864233333333, "name": "bf07911e8d9497731638c94e6ba79c9f", "bike_id": "bf07911e8d9497731638c94e6ba79c9f", "fusion_lat": 0.0, "is_reserved": 0, "lat": 38.90640283333333, "fusion_lon": 0.0, "is_disabled": 0}, {"rental_uris": {"android": "https://dc.lft.to/lastmile_qr_scan", "ios": "https://dc.lft.to/lastmile_qr_scan"}, "type": "electric_scooter", "lon": -77.02168116666667, "name": "a45a69175902b69f14e98da6a9909131", "bike_id": "a45a69175902b69f14e98da6a9909131", "fusion_lat": 0.0, "is_reserved": 0, "lat": 38.8874645, "fusion_lon": 0.0, "is_disabled": 0}, {"rental_uris": {"android": "https://dc.lft.to/lastmile_qr_scan", "ios": "https://dc.lft.to/lastmile_qr_scan"}, "type": "electric_scooter", "lon": -77.0195515, "name": "6ae922ec4b26e7cd83769ecd7311bf75", "bike_id": "6ae922ec4b26e7cd83769ecd7311bf75", "fusion_lat": 0.0, "is_reserved": 0, "lat": 38.93581066666667, "fusion_lon": 0.0, "is_disabled": 0}, {"rental_uris": {"android": "https://dc.lft.to/lastmile_qr_scan", "ios": "https://dc.lft.to/lastmile_qr_scan"}, "type": "electric_scooter", "lon": -77.044904, "name": "1f6923d66ac3d501f3071b71313fe587", "bike_id": "1f6923d66ac3d501f3071b71313fe587", "fusion_lat": 0.0, "is_reserved": 0, "lat": 38.89612416666667, "fusion_lon": 0.0, "is_disabled": 0}, {"rental_uris": {"android": "https://dc.lft.to/lastmile_qr_scan", "ios": "https://dc.lft.to/lastmile_qr_scan"}, "type": "electric_bike", "lon": -76.94783283333334, "name": "58d65dbd1be30c3ef6b2c6713ae37a8c", "bike_id": "58d65dbd1be30c3ef6b2c6713ae37a8c", "fusion_lat": 0.0, "is_reserved": 0, "lat": 38.89641733333333, "fusion_lon": 0.0, "is_disabled": 0}, {"rental_uris": {"android": "https://dc.lft.to/lastmile_qr_scan", "ios": "https://dc.lft.to/lastmile_qr_scan"}, "type": "electric_scooter", "lon": -77.03193516666667, "name": "aab45080a6d7334ca94842e3f450c167", "bike_id": "aab45080a6d7334ca94842e3f450c167", "fusion_lat": 0.0, "is_reserved": 0, "lat": 38.918953333333334, "fusion_lon": 0.0, "is_disabled": 0}, {"rental_uris": {"android": "https://dc.lft.to/lastmile_qr_scan", "ios": "https://dc.lft.to/lastmile_qr_scan"}, "type": "electric_scooter", "lon": -77.03896066666667, "name": "77a5306a75d9a1ca128e2810389cbcd9", "bike_id": "77a5306a75d9a1ca128e2810389cbcd9", "fusion_lat": 0.0, "is_reserved": 0, "lat": 38.9026735, "fusion_lon": 0.0, "is_disabled": 0}, {"rental_uris": {"android": "https://dc.lft.to/lastmile_qr_scan", "ios": "https://dc.lft.to/lastmile_qr_scan"}, "type": "electric_scooter", "lon": -76.97020616666667, "name": "81528d25143f90f81921e583d9b8e066", "bike_id": "81528d25143f90f81921e583d9b8e066", "fusion_lat": 0.0, "is_reserved": 0, "lat": 38.92034266666667, "fusion_lon": 0.0, "is_disabled": 0}, {"rental_uris": {"android": "https://dc.lft.to/lastmile_qr_scan", "ios": "https://dc.lft.to/lastmile_qr_scan"}, "type": "electric_scooter", "lon": -77.0499405, "name": "892b78427e3e4a074de11241c6fb0513", "bike_id": "892b78427e3e4a074de11241c6fb0513", "fusion_lat": 0.0, "is_reserved": 0, "lat": 38.900969333333336, "fusion_lon": 0.0, "is_disabled": 0}, {"rental_uris": {"android": "https://dc.lft.to/lastmile_qr_scan", "ios": "https://dc.lft.to/lastmile_qr_scan"}, "type": "electric_scooter", "lon": -77.02156166666667, "name": "93b6066e4a815d30d20c4e43f07bdf1a", "bike_id": "93b6066e4a815d30d20c4e43f07bdf1a", "fusion_lat": 0.0, "is_reserved": 0, "lat": 38.87955766666666, "fusion_lon": 0.0, "is_disabled": 0}, {"rental_uris": {"android": "https://dc.lft.to/lastmile_qr_scan", "ios": "https://dc.lft.to/lastmile_qr_scan"}, "type": "electric_scooter", "lon": -77.018927, "name": "76245d523c626e34c58512e8accbd84d", "bike_id": "76245d523c626e34c58512e8accbd84d", "fusion_lat": 0.0, "is_reserved": 0, "lat": 38.939126, "fusion_lon": 0.0, "is_disabled": 0}, {"rental_uris": {"android": "https://dc.lft.to/lastmile_qr_scan", "ios": "https://dc.lft.to/lastmile_qr_scan"}, "type": "electric_scooter", "lon": -76.98462366666666, "name": "51d807012c50866adeeeb3099c9268cb", "bike_id": "51d807012c50866adeeeb3099c9268cb", "fusion_lat": 0.0, "is_reserved": 0, "lat": 38.893677833333335, "fusion_lon": 0.0, "is_disabled": 0}, {"rental_uris": {"android": "https://dc.lft.to/lastmile_qr_scan", "ios": "https://dc.lft.to/lastmile_qr_scan"}, "type": "electric_scooter", "lon": -77.03860333333333, "name": "0aab846d13803e32996b1d9e8f116ac7", "bike_id": "0aab846d13803e32996b1d9e8f116ac7", "fusion_lat": 0.0, "is_reserved": 0, "lat": 38.9170655, "fusion_lon": 0.0, "is_disabled": 0}, {"rental_uris": {"android": "https://dc.lft.to/lastmile_qr_scan", "ios": "https://dc.lft.to/lastmile_qr_scan"}, "type": "electric_scooter", "lon": -76.99077033333333, "name": "cbc8bc2bcf2d5223187965d323b44eff", "bike_id": "cbc8bc2bcf2d5223187965d323b44eff", "fusion_lat": 0.0, "is_reserved": 0, "lat": 38.84287466666667, "fusion_lon": 0.0, "is_disabled": 0}, {"rental_uris": {"android": "https://dc.lft.to/lastmile_qr_scan", "ios": "https://dc.lft.to/lastmile_qr_scan"}, "type": "electric_bike", "lon": -76.9910215, "name": "8e883410fe4efbd2451009718a8bf008", "bike_id": "8e883410fe4efbd2451009718a8bf008", "fusion_lat": 0.0, "is_reserved": 0, "lat": 38.9337275, "fusion_lon": 0.0, "is_disabled": 0}, {"rental_uris": {"android": "https://dc.lft.to/lastmile_qr_scan", "ios": "https://dc.lft.to/lastmile_qr_scan"}, "type": "electric_scooter", "lon": -77.03195483333333, "name": "727cb6a5fe5f0c7389a837266b4affc0", "bike_id": "727cb6a5fe5f0c7389a837266b4affc0", "fusion_lat": 0.0, "is_reserved": 0, "lat": 38.9161845, "fusion_lon": 0.0, "is_disabled": 0}, {"rental_uris": {"android": "https://dc.lft.to/lastmile_qr_scan", "ios": "https://dc.lft.to/lastmile_qr_scan"}, "type": "electric_scooter", "lon": -77.01206833333333, "name": "bf6d9ae4856f01aa2e3d72a8b5930f5b", "bike_id": "bf6d9ae4856f01aa2e3d72a8b5930f5b", "fusion_lat": 0.0, "is_reserved": 0, "lat": 38.9182285, "fusion_lon": 0.0, "is_disabled": 0}, {"rental_uris": {"android": "https://dc.lft.to/lastmile_qr_scan", "ios": "https://dc.lft.to/lastmile_qr_scan"}, "type": "electric_bike", "lon": -77.0028165, "name": "20d0cde5e08a950943302e2cb61afb45", "bike_id": "20d0cde5e08a950943302e2cb61afb45", "fusion_lat": 0.0, "is_reserved": 0, "lat": 38.911008833333334, "fusion_lon": 0.0, "is_disabled": 0}, {"rental_uris": {"android": "https://dc.lft.to/lastmile_qr_scan", "ios": "https://dc.lft.to/lastmile_qr_scan"}, "type": "electric_scooter", "lon": -77.0498715, "name": "9d79ebcb1a20df7b21b2983641a76fd9", "bike_id": "9d79ebcb1a20df7b21b2983641a76fd9", "fusion_lat": 0.0, "is_reserved": 0, "lat": 38.8972915, "fusion_lon": 0.0, "is_disabled": 0}, {"rental_uris": {"android": "https://dc.lft.to/lastmile_qr_scan", "ios": "https://dc.lft.to/lastmile_qr_scan"}, "type": "electric_scooter", "lon": -77.0014465, "name": "3f0032b14b1190da366ea1f43e58e157", "bike_id": "3f0032b14b1190da366ea1f43e58e157", "fusion_lat": 0.0, "is_reserved": 0, "lat": 38.900068833333336, "fusion_lon": 0.0, "is_disabled": 0}, {"rental_uris": {"android": "https://dc.lft.to/lastmile_qr_scan", "ios": "https://dc.lft.to/lastmile_qr_scan"}, "type": "electric_scooter", "lon": -76.97462416666667, "name": "a9ffa9a3453995a0d3eec780a24e1628", "bike_id": "a9ffa9a3453995a0d3eec780a24e1628", "fusion_lat": 0.0, "is_reserved": 0, "lat": 38.883931, "fusion_lon": 0.0, "is_disabled": 0}, {"rental_uris": {"android": "https://dc.lft.to/lastmile_qr_scan", "ios": "https://dc.lft.to/lastmile_qr_scan"}, "type": "electric_scooter", "lon": -77.03434133333333, "name": "bc7fe01d7ff42c396e3409c8546143ad", "bike_id": "bc7fe01d7ff42c396e3409c8546143ad", "fusion_lat": 0.0, "is_reserved": 0, "lat": 38.9027115, "fusion_lon": 0.0, "is_disabled": 0}, {"rental_uris": {"android": "https://dc.lft.to/lastmile_qr_scan", "ios": "https://dc.lft.to/lastmile_qr_scan"}, "type": "electric_scooter", "lon": -76.9471935, "name": "63f72bbae991c8d1da00d8d0b3111e14", "bike_id": "63f72bbae991c8d1da00d8d0b3111e14", "fusion_lat": 0.0, "is_reserved": 0, "lat": 38.89735916666667, "fusion_lon": 0.0, "is_disabled": 0}, {"rental_uris": {"android": "https://dc.lft.to/lastmile_qr_scan", "ios": "https://dc.lft.to/lastmile_qr_scan"}, "type": "electric_scooter", "lon": -77.02398483333333, "name": "7b2a052cad26015e54ce764d0cc776d2", "bike_id": "7b2a052cad26015e54ce764d0cc776d2", "fusion_lat": 0.0, "is_reserved": 0, "lat": 38.92088783333333, "fusion_lon": 0.0, "is_disabled": 0}, {"rental_uris": {"android": "https://dc.lft.to/lastmile_qr_scan", "ios": "https://dc.lft.to/lastmile_qr_scan"}, "type": "electric_scooter", "lon": -77.02693716666667, "name": "9dc55cb3a892deef3521c218dbb4d710", "bike_id": "9dc55cb3a892deef3521c218dbb4d710", "fusion_lat": 0.0, "is_reserved": 0, "lat": 38.90845016666667, "fusion_lon": 0.0, "is_disabled": 0}, {"rental_uris": {"android": "https://dc.lft.to/lastmile_qr_scan", "ios": "https://dc.lft.to/lastmile_qr_scan"}, "type": "electric_scooter", "lon": -77.0432075, "name": "fa228adfe505c2e1c2cf52eadc7a4207", "bike_id": "fa228adfe505c2e1c2cf52eadc7a4207", "fusion_lat": 0.0, "is_reserved": 0, "lat": 38.89224316666667, "fusion_lon": 0.0, "is_disabled": 0}, {"rental_uris": {"android": "https://dc.lft.to/lastmile_qr_scan", "ios": "https://dc.lft.to/lastmile_qr_scan"}, "type": "electric_bike", "lon": -77.00505266666667, "name": "c74c4b6e108435d779cd0139d5068420", "bike_id": "c74c4b6e108435d779cd0139d5068420", "fusion_lat": 0.0, "is_reserved": 0, "lat": 38.875337333333334, "fusion_lon": 0.0, "is_disabled": 0}, {"rental_uris": {"android": "https://dc.lft.to/lastmile_qr_scan", "ios": "https://dc.lft.to/lastmile_qr_scan"}, "type": "electric_scooter", "lon": -77.03770433333334, "name": "65f51900dfcfb69ee227fc6bce0b40a4", "bike_id": "65f51900dfcfb69ee227fc6bce0b40a4", "fusion_lat": 0.0, "is_reserved": 0, "lat": 38.90694366666666, "fusion_lon": 0.0, "is_disabled": 0}, {"rental_uris": {"android": "https://dc.lft.to/lastmile_qr_scan", "ios": "https://dc.lft.to/lastmile_qr_scan"}, "type": "electric_scooter", "lon": -76.996094, "name": "4194cdcd00a6937ef353bf896e0a19f2", "bike_id": "4194cdcd00a6937ef353bf896e0a19f2", "fusion_lat": 0.0, "is_reserved": 0, "lat": 38.89763, "fusion_lon": 0.0, "is_disabled": 0}, {"rental_uris": {"android": "https://dc.lft.to/lastmile_qr_scan", "ios": "https://dc.lft.to/lastmile_qr_scan"}, "type": "electric_scooter", "lon": -77.01839766666667, "name": "968d57d19bf6d2ceffb21cd3c52820d1", "bike_id": "968d57d19bf6d2ceffb21cd3c52820d1", "fusion_lat": 0.0, "is_reserved": 0, "lat": 38.909613666666665, "fusion_lon": 0.0, "is_disabled": 0}, {"rental_uris": {"android": "https://dc.lft.to/lastmile_qr_scan", "ios": "https://dc.lft.to/lastmile_qr_scan"}, "type": "electric_scooter", "lon": -77.06885866666667, "name": "a77a06a4191af1f7286181b63e85d09d", "bike_id": "a77a06a4191af1f7286181b63e85d09d", "fusion_lat": 0.0, "is_reserved": 0, "lat": 38.905174833333334, "fusion_lon": 0.0, "is_disabled": 0}, {"rental_uris": {"android": "https://dc.lft.to/lastmile_qr_scan", "ios": "https://dc.lft.to/lastmile_qr_scan"}, "type": "electric_scooter", "lon": -77.02172116666667, "name": "4232203a31513513cf4cf1341c0afbbe", "bike_id": "4232203a31513513cf4cf1341c0afbbe", "fusion_lat": 0.0, "is_reserved": 0, "lat": 38.887434999999996, "fusion_lon": 0.0, "is_disabled": 0}, {"rental_uris": {"android": "https://dc.lft.to/lastmile_qr_scan", "ios": "https://dc.lft.to/lastmile_qr_scan"}, "type": "electric_bike", "lon": -76.94570083333333, "name": "f890e6fb6b4904cf81cfff713f9d02fc", "bike_id": "f890e6fb6b4904cf81cfff713f9d02fc", "fusion_lat": 0.0, "is_reserved": 0, "lat": 38.866256, "fusion_lon": 0.0, "is_disabled": 0}, {"rental_uris": {"android": "https://dc.lft.to/lastmile_qr_scan", "ios": "https://dc.lft.to/lastmile_qr_scan"}, "type": "electric_scooter", "lon": -77.02197416666667, "name": "07f8a492247b595620f48f5794fd83a0", "bike_id": "07f8a492247b595620f48f5794fd83a0", "fusion_lat": 0.0, "is_reserved": 0, "lat": 38.896308166666664, "fusion_lon": 0.0, "is_disabled": 0}, {"rental_uris": {"android": "https://dc.lft.to/lastmile_qr_scan", "ios": "https://dc.lft.to/lastmile_qr_scan"}, "type": "electric_scooter", "lon": -77.03074766666667, "name": "9d1594dce57d41499bebb0d4bfa6bc32", "bike_id": "9d1594dce57d41499bebb0d4bfa6bc32", "fusion_lat": 0.0, "is_reserved": 0, "lat": 38.92730066666667, "fusion_lon": 0.0, "is_disabled": 0}, {"rental_uris": {"android": "https://dc.lft.to/lastmile_qr_scan", "ios": "https://dc.lft.to/lastmile_qr_scan"}, "type": "electric_scooter", "lon": -77.02383866666666, "name": "deadb582550c94318d68ee7fdeb40975", "bike_id": "deadb582550c94318d68ee7fdeb40975", "fusion_lat": 0.0, "is_reserved": 0, "lat": 38.907082833333334, "fusion_lon": 0.0, "is_disabled": 0}, {"rental_uris": {"android": "https://dc.lft.to/lastmile_qr_scan", "ios": "https://dc.lft.to/lastmile_qr_scan"}, "type": "electric_scooter", "lon": -76.9968265, "name": "600ae4c799db47c40fa062769580d4bb", "bike_id": "600ae4c799db47c40fa062769580d4bb", "fusion_lat": 0.0, "is_reserved": 0, "lat": 38.887057166666665, "fusion_lon": 0.0, "is_disabled": 0}, {"rental_uris": {"android": "https://dc.lft.to/lastmile_qr_scan", "ios": "https://dc.lft.to/lastmile_qr_scan"}, "type": "electric_scooter", "lon": -77.03849166666667, "name": "b5815bc3b11d8420833f0c93b0204e3c", "bike_id": "b5815bc3b11d8420833f0c93b0204e3c", "fusion_lat": 0.0, "is_reserved": 0, "lat": 38.91541816666667, "fusion_lon": 0.0, "is_disabled": 0}, {"rental_uris": {"android": "https://dc.lft.to/lastmile_qr_scan", "ios": "https://dc.lft.to/lastmile_qr_scan"}, "type": "electric_scooter", "lon": -77.03394333333334, "name": "42fa41a34776e316d86b32d39801b172", "bike_id": "42fa41a34776e316d86b32d39801b172", "fusion_lat": 0.0, "is_reserved": 0, "lat": 38.92343666666667, "fusion_lon": 0.0, "is_disabled": 0}, {"rental_uris": {"android": "https://dc.lft.to/lastmile_qr_scan", "ios": "https://dc.lft.to/lastmile_qr_scan"}, "type": "electric_scooter", "lon": -76.9870205, "name": "e39fb091d6e6d12b440a73ad697c942d", "bike_id": "e39fb091d6e6d12b440a73ad697c942d", "fusion_lat": 0.0, "is_reserved": 0, "lat": 38.9020915, "fusion_lon": 0.0, "is_disabled": 0}, {"rental_uris": {"android": "https://dc.lft.to/lastmile_qr_scan", "ios": "https://dc.lft.to/lastmile_qr_scan"}, "type": "electric_scooter", "lon": -77.02526683333333, "name": "39bd6499438c1aaa5df5ce5a3dacb7aa", "bike_id": "39bd6499438c1aaa5df5ce5a3dacb7aa", "fusion_lat": 0.0, "is_reserved": 0, "lat": 38.92099533333333, "fusion_lon": 0.0, "is_disabled": 0}, {"rental_uris": {"android": "https://dc.lft.to/lastmile_qr_scan", "ios": "https://dc.lft.to/lastmile_qr_scan"}, "type": "electric_scooter", "lon": -77.03836666666666, "name": "98caa2fd12ed6917a51e019a1ffbb0e2", "bike_id": "98caa2fd12ed6917a51e019a1ffbb0e2", "fusion_lat": 0.0, "is_reserved": 0, "lat": 38.91289, "fusion_lon": 0.0, "is_disabled": 0}, {"rental_uris": {"android": "https://dc.lft.to/lastmile_qr_scan", "ios": "https://dc.lft.to/lastmile_qr_scan"}, "type": "electric_scooter", "lon": -76.988894, "name": "f58a073de7bb900d26abda6a115d79dc", "bike_id": "f58a073de7bb900d26abda6a115d79dc", "fusion_lat": 0.0, "is_reserved": 0, "lat": 38.866774166666666, "fusion_lon": 0.0, "is_disabled": 0}, {"rental_uris": {"android": "https://dc.lft.to/lastmile_qr_scan", "ios": "https://dc.lft.to/lastmile_qr_scan"}, "type": "electric_scooter", "lon": -76.99401033333334, "name": "412dcf6e6404803244b9f71344cd9cae", "bike_id": "412dcf6e6404803244b9f71344cd9cae", "fusion_lat": 0.0, "is_reserved": 0, "lat": 38.88593633333333, "fusion_lon": 0.0, "is_disabled": 0}, {"rental_uris": {"android": "https://dc.lft.to/lastmile_qr_scan", "ios": "https://dc.lft.to/lastmile_qr_scan"}, "type": "electric_scooter", "lon": -76.98743416666667, "name": "d0cd281b338ea11cfe695efcd4a1ae60", "bike_id": "d0cd281b338ea11cfe695efcd4a1ae60", "fusion_lat": 0.0, "is_reserved": 0, "lat": 38.84452666666667, "fusion_lon": 0.0, "is_disabled": 0}, {"rental_uris": {"android": "https://dc.lft.to/lastmile_qr_scan", "ios": "https://dc.lft.to/lastmile_qr_scan"}, "type": "electric_bike", "lon": -77.17799566666666, "name": "42f0fcf1f864991f5ea5b4c8e83d2001", "bike_id": "42f0fcf1f864991f5ea5b4c8e83d2001", "fusion_lat": 0.0, "is_reserved": 0, "lat": 39.088458333333335, "fusion_lon": 0.0, "is_disabled": 0}, {"rental_uris": {"android": "https://dc.lft.to/lastmile_qr_scan", "ios": "https://dc.lft.to/lastmile_qr_scan"}, "type": "electric_bike", "lon": -77.08536966666667, "name": "9fa07666728533759de6b7cee76cae8d", "bike_id": "9fa07666728533759de6b7cee76cae8d", "fusion_lat": 0.0, "is_reserved": 0, "lat": 38.856220666666665, "fusion_lon": 0.0, "is_disabled": 0}, {"rental_uris": {"android": "https://dc.lft.to/lastmile_qr_scan", "ios": "https://dc.lft.to/lastmile_qr_scan"}, "type": "electric_scooter", "lon": -77.02040283333334, "name": "3800b89485b09e37253fd7ea2daf3604", "bike_id": "3800b89485b09e37253fd7ea2daf3604", "fusion_lat": 0.0, "is_reserved": 0, "lat": 38.892728166666664, "fusion_lon": 0.0, "is_disabled": 0}, {"rental_uris": {"android": "https://dc.lft.to/lastmile_qr_scan", "ios": "https://dc.lft.to/lastmile_qr_scan"}, "type": "electric_scooter", "lon": -77.02421333333334, "name": "c1921935f91fb8f7652fca704de13aa7", "bike_id": "c1921935f91fb8f7652fca704de13aa7", "fusion_lat": 0.0, "is_reserved": 0, "lat": 38.89224433333333, "fusion_lon": 0.0, "is_disabled": 0}, {"rental_uris": {"android": "https://dc.lft.to/lastmile_qr_scan", "ios": "https://dc.lft.to/lastmile_qr_scan"}, "type": "electric_scooter", "lon": -76.970327, "name": "f6125f322b054274b0bf8d52fa603e17", "bike_id": "f6125f322b054274b0bf8d52fa603e17", "fusion_lat": 0.0, "is_reserved": 0, "lat": 38.867816833333336, "fusion_lon": 0.0, "is_disabled": 0}, {"rental_uris": {"android": "https://dc.lft.to/lastmile_qr_scan", "ios": "https://dc.lft.to/lastmile_qr_scan"}, "type": "electric_scooter", "lon": -77.06536, "name": "89d0ee64cdbf1291d5e1ab7d6622f8c9", "bike_id": "89d0ee64cdbf1291d5e1ab7d6622f8c9", "fusion_lat": 0.0, "is_reserved": 0, "lat": 38.9507075, "fusion_lon": 0.0, "is_disabled": 0}, {"rental_uris": {"android": "https://dc.lft.to/lastmile_qr_scan", "ios": "https://dc.lft.to/lastmile_qr_scan"}, "type": "electric_scooter", "lon": -77.0500105, "name": "6fe2282e3d08417d3daa66567ce605f4", "bike_id": "6fe2282e3d08417d3daa66567ce605f4", "fusion_lat": 0.0, "is_reserved": 0, "lat": 38.89231, "fusion_lon": 0.0, "is_disabled": 0}, {"rental_uris": {"android": "https://dc.lft.to/lastmile_qr_scan", "ios": "https://dc.lft.to/lastmile_qr_scan"}, "type": "electric_scooter", "lon": -77.023654, "name": "da657913efe2454afd288ceb2d82a326", "bike_id": "da657913efe2454afd288ceb2d82a326", "fusion_lat": 0.0, "is_reserved": 0, "lat": 38.907303666666664, "fusion_lon": 0.0, "is_disabled": 0}, {"rental_uris": {"android": "https://dc.lft.to/lastmile_qr_scan", "ios": "https://dc.lft.to/lastmile_qr_scan"}, "type": "electric_scooter", "lon": -77.01628616666666, "name": "125c4e077b4522c1d48f71b016bd3f53", "bike_id": "125c4e077b4522c1d48f71b016bd3f53", "fusion_lat": 0.0, "is_reserved": 0, "lat": 38.903369166666664, "fusion_lon": 0.0, "is_disabled": 0}, {"rental_uris": {"android": "https://dc.lft.to/lastmile_qr_scan", "ios": "https://dc.lft.to/lastmile_qr_scan"}, "type": "electric_scooter", "lon": -77.02179133333334, "name": "72bac46768fa19e82be1308d139faccb", "bike_id": "72bac46768fa19e82be1308d139faccb", "fusion_lat": 0.0, "is_reserved": 0, "lat": 38.920118, "fusion_lon": 0.0, "is_disabled": 0}, {"rental_uris": {"android": "https://dc.lft.to/lastmile_qr_scan", "ios": "https://dc.lft.to/lastmile_qr_scan"}, "type": "electric_scooter", "lon": -77.023787, "name": "70ead9b6879eaf4321cecd0c6e643df5", "bike_id": "70ead9b6879eaf4321cecd0c6e643df5", "fusion_lat": 0.0, "is_reserved": 0, "lat": 38.91955883333333, "fusion_lon": 0.0, "is_disabled": 0}, {"rental_uris": {"android": "https://dc.lft.to/lastmile_qr_scan", "ios": "https://dc.lft.to/lastmile_qr_scan"}, "type": "electric_scooter", "lon": -77.02283633333333, "name": "0419ff36f2103a467023f4a3d3d257f9", "bike_id": "0419ff36f2103a467023f4a3d3d257f9", "fusion_lat": 0.0, "is_reserved": 0, "lat": 38.916025833333336, "fusion_lon": 0.0, "is_disabled": 0}, {"rental_uris": {"android": "https://dc.lft.to/lastmile_qr_scan", "ios": "https://dc.lft.to/lastmile_qr_scan"}, "type": "electric_scooter", "lon": -77.028189, "name": "81cd60bba142ff478ff7833c74a21f86", "bike_id": "81cd60bba142ff478ff7833c74a21f86", "fusion_lat": 0.0, "is_reserved": 0, "lat": 38.892508666666664, "fusion_lon": 0.0, "is_disabled": 0}, {"rental_uris": {"android": "https://dc.lft.to/lastmile_qr_scan", "ios": "https://dc.lft.to/lastmile_qr_scan"}, "type": "electric_scooter", "lon": -77.03686083333334, "name": "c8042409bf3f31eda9592aef30defd6e", "bike_id": "c8042409bf3f31eda9592aef30defd6e", "fusion_lat": 0.0, "is_reserved": 0, "lat": 38.9065865, "fusion_lon": 0.0, "is_disabled": 0}, {"rental_uris": {"android": "https://dc.lft.to/lastmile_qr_scan", "ios": "https://dc.lft.to/lastmile_qr_scan"}, "type": "electric_scooter", "lon": -77.0027, "name": "65d6ae0eba0ae094d82dc81330ff9dd1", "bike_id": "65d6ae0eba0ae094d82dc81330ff9dd1", "fusion_lat": 0.0, "is_reserved": 0, "lat": 38.9037965, "fusion_lon": 0.0, "is_disabled": 0}, {"rental_uris": {"android": "https://dc.lft.to/lastmile_qr_scan", "ios": "https://dc.lft.to/lastmile_qr_scan"}, "type": "electric_scooter", "lon": -77.00542833333333, "name": "344e4c49c177a724c996c7441602ca83", "bike_id": "344e4c49c177a724c996c7441602ca83", "fusion_lat": 0.0, "is_reserved": 0, "lat": 38.8745905, "fusion_lon": 0.0, "is_disabled": 0}, {"rental_uris": {"android": "https://dc.lft.to/lastmile_qr_scan", "ios": "https://dc.lft.to/lastmile_qr_scan"}, "type": "electric_scooter", "lon": -77.027219, "name": "5cbe2023f955692031ae0e1c0fbf0e5c", "bike_id": "5cbe2023f955692031ae0e1c0fbf0e5c", "fusion_lat": 0.0, "is_reserved": 0, "lat": 38.951317, "fusion_lon": 0.0, "is_disabled": 0}, {"rental_uris": {"android": "https://dc.lft.to/lastmile_qr_scan", "ios": "https://dc.lft.to/lastmile_qr_scan"}, "type": "electric_bike", "lon": -77.079987, "name": "c7fbf890ee616bf2c5384648c26ada0a", "bike_id": "c7fbf890ee616bf2c5384648c26ada0a", "fusion_lat": 0.0, "is_reserved": 0, "lat": 38.922532333333336, "fusion_lon": 0.0, "is_disabled": 0}, {"rental_uris": {"android": "https://dc.lft.to/lastmile_qr_scan", "ios": "https://dc.lft.to/lastmile_qr_scan"}, "type": "electric_scooter", "lon": -77.043558, "name": "c0a76f2e5c9c8a52278a96b8d4c2f3a1", "bike_id": "c0a76f2e5c9c8a52278a96b8d4c2f3a1", "fusion_lat": 0.0, "is_reserved": 0, "lat": 38.89232533333333, "fusion_lon": 0.0, "is_disabled": 0}, {"rental_uris": {"android": "https://dc.lft.to/lastmile_qr_scan", "ios": "https://dc.lft.to/lastmile_qr_scan"}, "type": "electric_scooter", "lon": -77.027165, "name": "b20e03d98969cdffab7488a43b238b31", "bike_id": "b20e03d98969cdffab7488a43b238b31", "fusion_lat": 0.0, "is_reserved": 0, "lat": 38.907476, "fusion_lon": 0.0, "is_disabled": 0}, {"rental_uris": {"android": "https://dc.lft.to/lastmile_qr_scan", "ios": "https://dc.lft.to/lastmile_qr_scan"}, "type": "electric_scooter", "lon": -77.0623945, "name": "d614bff866c58f2af7fd2ed94bae1c8a", "bike_id": "d614bff866c58f2af7fd2ed94bae1c8a", "fusion_lat": 0.0, "is_reserved": 0, "lat": 38.905299666666664, "fusion_lon": 0.0, "is_disabled": 0}, {"rental_uris": {"android": "https://dc.lft.to/lastmile_qr_scan", "ios": "https://dc.lft.to/lastmile_qr_scan"}, "type": "electric_scooter", "lon": -77.03184633333333, "name": "10d35d7ee093f94415f6e8b28693eee6", "bike_id": "10d35d7ee093f94415f6e8b28693eee6", "fusion_lat": 0.0, "is_reserved": 0, "lat": 38.91125616666667, "fusion_lon": 0.0, "is_disabled": 0}, {"rental_uris": {"android": "https://dc.lft.to/lastmile_qr_scan", "ios": "https://dc.lft.to/lastmile_qr_scan"}, "type": "electric_bike", "lon": -76.91594166666667, "name": "be5a3f0c4c912fd785f4a68045bbde7e", "bike_id": "be5a3f0c4c912fd785f4a68045bbde7e", "fusion_lat": 0.0, "is_reserved": 0, "lat": 38.8801225, "fusion_lon": 0.0, "is_disabled": 0}, {"rental_uris": {"android": "https://dc.lft.to/lastmile_qr_scan", "ios": "https://dc.lft.to/lastmile_qr_scan"}, "type": "electric_bike", "lon": -76.97817183333333, "name": "c20b204d15c53821ea63aec92a7b7876", "bike_id": "c20b204d15c53821ea63aec92a7b7876", "fusion_lat": 0.0, "is_reserved": 0, "lat": 38.846089166666665, "fusion_lon": 0.0, "is_disabled": 0}, {"rental_uris": {"android": "https://dc.lft.to/lastmile_qr_scan", "ios": "https://dc.lft.to/lastmile_qr_scan"}, "type": "electric_scooter", "lon": -77.101739, "name": "0a392c3bb508d0cf3ca634f78ff961e0", "bike_id": "0a392c3bb508d0cf3ca634f78ff961e0", "fusion_lat": 0.0, "is_reserved": 0, "lat": 38.925484166666664, "fusion_lon": 0.0, "is_disabled": 0}, {"rental_uris": {"android": "https://dc.lft.to/lastmile_qr_scan", "ios": "https://dc.lft.to/lastmile_qr_scan"}, "type": "electric_scooter", "lon": -76.99456433333333, "name": "b668d56c11dcabbc03fc842e5c22cdf1", "bike_id": "b668d56c11dcabbc03fc842e5c22cdf1", "fusion_lat": 0.0, "is_reserved": 0, "lat": 38.8622605, "fusion_lon": 0.0, "is_disabled": 0}, {"rental_uris": {"android": "https://dc.lft.to/lastmile_qr_scan", "ios": "https://dc.lft.to/lastmile_qr_scan"}, "type": "electric_scooter", "lon": -77.06528233333333, "name": "ffd9601f65df0aeb942c2d21d71e3411", "bike_id": "ffd9601f65df0aeb942c2d21d71e3411", "fusion_lat": 0.0, "is_reserved": 0, "lat": 38.934762166666665, "fusion_lon": 0.0, "is_disabled": 0}, {"rental_uris": {"android": "https://dc.lft.to/lastmile_qr_scan", "ios": "https://dc.lft.to/lastmile_qr_scan"}, "type": "electric_scooter", "lon": -76.98713033333334, "name": "1779852df40edc8a242be08a41f334f7", "bike_id": "1779852df40edc8a242be08a41f334f7", "fusion_lat": 0.0, "is_reserved": 0, "lat": 38.89925366666667, "fusion_lon": 0.0, "is_disabled": 0}, {"rental_uris": {"android": "https://dc.lft.to/lastmile_qr_scan", "ios": "https://dc.lft.to/lastmile_qr_scan"}, "type": "electric_bike", "lon": -76.90817083333333, "name": "5a686ca8fd616d746bc4a44efeb0719d", "bike_id": "5a686ca8fd616d746bc4a44efeb0719d", "fusion_lat": 0.0, "is_reserved": 0, "lat": 38.994545333333335, "fusion_lon": 0.0, "is_disabled": 0}, {"rental_uris": {"android": "https://dc.lft.to/lastmile_qr_scan", "ios": "https://dc.lft.to/lastmile_qr_scan"}, "type": "electric_bike", "lon": -76.9798395, "name": "4bc3b515739bff05ff32aa7431962cbc", "bike_id": "4bc3b515739bff05ff32aa7431962cbc", "fusion_lat": 0.0, "is_reserved": 0, "lat": 38.95779733333333, "fusion_lon": 0.0, "is_disabled": 0}, {"rental_uris": {"android": "https://dc.lft.to/lastmile_qr_scan", "ios": "https://dc.lft.to/lastmile_qr_scan"}, "type": "electric_scooter", "lon": -77.03835516666666, "name": "5879758f9a8d7b7aafc68cbb0a6fea3a", "bike_id": "5879758f9a8d7b7aafc68cbb0a6fea3a", "fusion_lat": 0.0, "is_reserved": 0, "lat": 38.908507666666665, "fusion_lon": 0.0, "is_disabled": 0}, {"rental_uris": {"android": "https://dc.lft.to/lastmile_qr_scan", "ios": "https://dc.lft.to/lastmile_qr_scan"}, "type": "electric_scooter", "lon": -77.02473433333333, "name": "d8a58e3670715ff7e204c1455507b464", "bike_id": "d8a58e3670715ff7e204c1455507b464", "fusion_lat": 0.0, "is_reserved": 0, "lat": 38.92654983333333, "fusion_lon": 0.0, "is_disabled": 0}, {"rental_uris": {"android": "https://dc.lft.to/lastmile_qr_scan", "ios": "https://dc.lft.to/lastmile_qr_scan"}, "type": "electric_scooter", "lon": -77.03640433333334, "name": "d50453e94ad03aa781f6a01ad412ff21", "bike_id": "d50453e94ad03aa781f6a01ad412ff21", "fusion_lat": 0.0, "is_reserved": 0, "lat": 38.92743983333333, "fusion_lon": 0.0, "is_disabled": 0}, {"rental_uris": {"android": "https://dc.lft.to/lastmile_qr_scan", "ios": "https://dc.lft.to/lastmile_qr_scan"}, "type": "electric_scooter", "lon": -77.007352, "name": "f0cb24583f6150618b81064005446aec", "bike_id": "f0cb24583f6150618b81064005446aec", "fusion_lat": 0.0, "is_reserved": 0, "lat": 38.87655016666667, "fusion_lon": 0.0, "is_disabled": 0}, {"rental_uris": {"android": "https://dc.lft.to/lastmile_qr_scan", "ios": "https://dc.lft.to/lastmile_qr_scan"}, "type": "electric_scooter", "lon": -77.021439, "name": "a3ea5b842bad2c49d145a3623b976dbd", "bike_id": "a3ea5b842bad2c49d145a3623b976dbd", "fusion_lat": 0.0, "is_reserved": 0, "lat": 38.89613033333333, "fusion_lon": 0.0, "is_disabled": 0}, {"rental_uris": {"android": "https://dc.lft.to/lastmile_qr_scan", "ios": "https://dc.lft.to/lastmile_qr_scan"}, "type": "electric_scooter", "lon": -77.01991933333333, "name": "4bb57cc2d7a83df4e6d48c0eeda320c1", "bike_id": "4bb57cc2d7a83df4e6d48c0eeda320c1", "fusion_lat": 0.0, "is_reserved": 0, "lat": 38.91330416666667, "fusion_lon": 0.0, "is_disabled": 0}, {"rental_uris": {"android": "https://dc.lft.to/lastmile_qr_scan", "ios": "https://dc.lft.to/lastmile_qr_scan"}, "type": "electric_scooter", "lon": -77.03146416666667, "name": "5a67ec42fdd2c6b9d4fd15eb006d5d6d", "bike_id": "5a67ec42fdd2c6b9d4fd15eb006d5d6d", "fusion_lat": 0.0, "is_reserved": 0, "lat": 38.927252, "fusion_lon": 0.0, "is_disabled": 0}, {"rental_uris": {"android": "https://dc.lft.to/lastmile_qr_scan", "ios": "https://dc.lft.to/lastmile_qr_scan"}, "type": "electric_scooter", "lon": -76.990035, "name": "acbc0bf33dae9432f90655f22fb7d8e0", "bike_id": "acbc0bf33dae9432f90655f22fb7d8e0", "fusion_lat": 0.0, "is_reserved": 0, "lat": 38.865040666666665, "fusion_lon": 0.0, "is_disabled": 0}, {"rental_uris": {"android": "https://dc.lft.to/lastmile_qr_scan", "ios": "https://dc.lft.to/lastmile_qr_scan"}, "type": "electric_scooter", "lon": -77.05144983333334, "name": "67514919638c9178793a6d968257cde2", "bike_id": "67514919638c9178793a6d968257cde2", "fusion_lat": 0.0, "is_reserved": 0, "lat": 38.90799033333333, "fusion_lon": 0.0, "is_disabled": 0}, {"rental_uris": {"android": "https://dc.lft.to/lastmile_qr_scan", "ios": "https://dc.lft.to/lastmile_qr_scan"}, "type": "electric_scooter", "lon": -77.052936, "name": "3e4583087295bd0c026f74862f1993b2", "bike_id": "3e4583087295bd0c026f74862f1993b2", "fusion_lat": 0.0, "is_reserved": 0, "lat": 38.92792133333333, "fusion_lon": 0.0, "is_disabled": 0}, {"rental_uris": {"android": "https://dc.lft.to/lastmile_qr_scan", "ios": "https://dc.lft.to/lastmile_qr_scan"}, "type": "electric_scooter", "lon": -77.038968, "name": "b3c330a9965335479ef47f83267ac7fa", "bike_id": "b3c330a9965335479ef47f83267ac7fa", "fusion_lat": 0.0, "is_reserved": 0, "lat": 38.92236466666667, "fusion_lon": 0.0, "is_disabled": 0}, {"rental_uris": {"android": "https://dc.lft.to/lastmile_qr_scan", "ios": "https://dc.lft.to/lastmile_qr_scan"}, "type": "electric_scooter", "lon": -77.0285735, "name": "aadeed0b0257f1c8af3381b9dce97703", "bike_id": "aadeed0b0257f1c8af3381b9dce97703", "fusion_lat": 0.0, "is_reserved": 0, "lat": 38.9222725, "fusion_lon": 0.0, "is_disabled": 0}, {"rental_uris": {"android": "https://dc.lft.to/lastmile_qr_scan", "ios": "https://dc.lft.to/lastmile_qr_scan"}, "type": "electric_scooter", "lon": -77.00203666666667, "name": "1f3d9548855a1780bc13060e055897a0", "bike_id": "1f3d9548855a1780bc13060e055897a0", "fusion_lat": 0.0, "is_reserved": 0, "lat": 38.90849466666667, "fusion_lon": 0.0, "is_disabled": 0}, {"rental_uris": {"android": "https://dc.lft.to/lastmile_qr_scan", "ios": "https://dc.lft.to/lastmile_qr_scan"}, "type": "electric_scooter", "lon": -76.94850133333334, "name": "e4eff68d0e9dd4b1ffa7c0bdae59ab42", "bike_id": "e4eff68d0e9dd4b1ffa7c0bdae59ab42", "fusion_lat": 0.0, "is_reserved": 0, "lat": 38.893464, "fusion_lon": 0.0, "is_disabled": 0}, {"rental_uris": {"android": "https://dc.lft.to/lastmile_qr_scan", "ios": "https://dc.lft.to/lastmile_qr_scan"}, "type": "electric_scooter", "lon": -76.9342655, "name": "83c5368b0687ee72a4d00eddf4923956", "bike_id": "83c5368b0687ee72a4d00eddf4923956", "fusion_lat": 0.0, "is_reserved": 0, "lat": 38.899623, "fusion_lon": 0.0, "is_disabled": 0}, {"rental_uris": {"android": "https://dc.lft.to/lastmile_qr_scan", "ios": "https://dc.lft.to/lastmile_qr_scan"}, "type": "electric_scooter", "lon": -77.0113175, "name": "558c8fb8926d481aa79d8f4c1b15ade1", "bike_id": "558c8fb8926d481aa79d8f4c1b15ade1", "fusion_lat": 0.0, "is_reserved": 0, "lat": 38.90728433333334, "fusion_lon": 0.0, "is_disabled": 0}, {"rental_uris": {"android": "https://dc.lft.to/lastmile_qr_scan", "ios": "https://dc.lft.to/lastmile_qr_scan"}, "type": "electric_bike", "lon": -76.9790405, "name": "4a3edc607c6cdba1cd5cb271c72eb7d3", "bike_id": "4a3edc607c6cdba1cd5cb271c72eb7d3", "fusion_lat": 0.0, "is_reserved": 0, "lat": 38.88836216666667, "fusion_lon": 0.0, "is_disabled": 0}, {"rental_uris": {"android": "https://dc.lft.to/lastmile_qr_scan", "ios": "https://dc.lft.to/lastmile_qr_scan"}, "type": "electric_scooter", "lon": -77.01766883333333, "name": "dd46625a81eae328c441e79cd74132fd", "bike_id": "dd46625a81eae328c441e79cd74132fd", "fusion_lat": 0.0, "is_reserved": 0, "lat": 38.87296333333333, "fusion_lon": 0.0, "is_disabled": 0}, {"rental_uris": {"android": "https://dc.lft.to/lastmile_qr_scan", "ios": "https://dc.lft.to/lastmile_qr_scan"}, "type": "electric_scooter", "lon": -77.048321, "name": "160b3a319ba9c61e60dced09218ef650", "bike_id": "160b3a319ba9c61e60dced09218ef650", "fusion_lat": 0.0, "is_reserved": 0, "lat": 38.91634966666667, "fusion_lon": 0.0, "is_disabled": 0}, {"rental_uris": {"android": "https://dc.lft.to/lastmile_qr_scan", "ios": "https://dc.lft.to/lastmile_qr_scan"}, "type": "electric_scooter", "lon": -77.0267835, "name": "99c4b487c87dc9a30de17659210f54e8", "bike_id": "99c4b487c87dc9a30de17659210f54e8", "fusion_lat": 0.0, "is_reserved": 0, "lat": 38.899892666666666, "fusion_lon": 0.0, "is_disabled": 0}, {"rental_uris": {"android": "https://dc.lft.to/lastmile_qr_scan", "ios": "https://dc.lft.to/lastmile_qr_scan"}, "type": "electric_scooter", "lon": -77.002885, "name": "027841e5abe20e346d31be41b513c3e1", "bike_id": "027841e5abe20e346d31be41b513c3e1", "fusion_lat": 0.0, "is_reserved": 0, "lat": 38.90894866666667, "fusion_lon": 0.0, "is_disabled": 0}, {"rental_uris": {"android": "https://dc.lft.to/lastmile_qr_scan", "ios": "https://dc.lft.to/lastmile_qr_scan"}, "type": "electric_scooter", "lon": -77.04226333333334, "name": "1bd1e3d584433b22358884712519f1fd", "bike_id": "1bd1e3d584433b22358884712519f1fd", "fusion_lat": 0.0, "is_reserved": 0, "lat": 38.91105683333333, "fusion_lon": 0.0, "is_disabled": 0}, {"rental_uris": {"android": "https://dc.lft.to/lastmile_qr_scan", "ios": "https://dc.lft.to/lastmile_qr_scan"}, "type": "electric_scooter", "lon": -77.02693433333333, "name": "e1106761c69cc87b8394577c0c12739a", "bike_id": "e1106761c69cc87b8394577c0c12739a", "fusion_lat": 0.0, "is_reserved": 0, "lat": 38.90843316666667, "fusion_lon": 0.0, "is_disabled": 0}, {"rental_uris": {"android": "https://dc.lft.to/lastmile_qr_scan", "ios": "https://dc.lft.to/lastmile_qr_scan"}, "type": "electric_scooter", "lon": -76.946391, "name": "44e28531b9f5584774ca5b82063d7f47", "bike_id": "44e28531b9f5584774ca5b82063d7f47", "fusion_lat": 0.0, "is_reserved": 0, "lat": 38.898459, "fusion_lon": 0.0, "is_disabled": 0}, {"rental_uris": {"android": "https://dc.lft.to/lastmile_qr_scan", "ios": "https://dc.lft.to/lastmile_qr_scan"}, "type": "electric_scooter", "lon": -77.021971, "name": "3b415d6dc34ae269f47c2796b75a83d4", "bike_id": "3b415d6dc34ae269f47c2796b75a83d4", "fusion_lat": 0.0, "is_reserved": 0, "lat": 38.91692033333333, "fusion_lon": 0.0, "is_disabled": 0}, {"rental_uris": {"android": "https://dc.lft.to/lastmile_qr_scan", "ios": "https://dc.lft.to/lastmile_qr_scan"}, "type": "electric_scooter", "lon": -77.030906, "name": "520930354b4de83fa17def4759d297ce", "bike_id": "520930354b4de83fa17def4759d297ce", "fusion_lat": 0.0, "is_reserved": 0, "lat": 38.92246633333333, "fusion_lon": 0.0, "is_disabled": 0}, {"rental_uris": {"android": "https://dc.lft.to/lastmile_qr_scan", "ios": "https://dc.lft.to/lastmile_qr_scan"}, "type": "electric_scooter", "lon": -77.01826666666666, "name": "36957e5101f7fb18eff977930d31817a", "bike_id": "36957e5101f7fb18eff977930d31817a", "fusion_lat": 0.0, "is_reserved": 0, "lat": 38.91104633333333, "fusion_lon": 0.0, "is_disabled": 0}, {"rental_uris": {"android": "https://dc.lft.to/lastmile_qr_scan", "ios": "https://dc.lft.to/lastmile_qr_scan"}, "type": "electric_scooter", "lon": -76.94722116666667, "name": "e4160a6d0927ace46a3b86fb93f5a481", "bike_id": "e4160a6d0927ace46a3b86fb93f5a481", "fusion_lat": 0.0, "is_reserved": 0, "lat": 38.897350833333334, "fusion_lon": 0.0, "is_disabled": 0}, {"rental_uris": {"android": "https://dc.lft.to/lastmile_qr_scan", "ios": "https://dc.lft.to/lastmile_qr_scan"}, "type": "electric_scooter", "lon": -77.0649455, "name": "6afb6ceb4d2564be2d78e9a307f5e3be", "bike_id": "6afb6ceb4d2564be2d78e9a307f5e3be", "fusion_lat": 0.0, "is_reserved": 0, "lat": 38.905250333333335, "fusion_lon": 0.0, "is_disabled": 0}, {"rental_uris": {"android": "https://dc.lft.to/lastmile_qr_scan", "ios": "https://dc.lft.to/lastmile_qr_scan"}, "type": "electric_scooter", "lon": -77.03124, "name": "81b5edd1deb868ebb816a2b8c0cd0b3c", "bike_id": "81b5edd1deb868ebb816a2b8c0cd0b3c", "fusion_lat": 0.0, "is_reserved": 0, "lat": 38.904620333333334, "fusion_lon": 0.0, "is_disabled": 0}, {"rental_uris": {"android": "https://dc.lft.to/lastmile_qr_scan", "ios": "https://dc.lft.to/lastmile_qr_scan"}, "type": "electric_scooter", "lon": -77.05919233333333, "name": "03e383fdab3997fd9cd8ac4c13cff705", "bike_id": "03e383fdab3997fd9cd8ac4c13cff705", "fusion_lat": 0.0, "is_reserved": 0, "lat": 38.905371, "fusion_lon": 0.0, "is_disabled": 0}, {"rental_uris": {"android": "https://dc.lft.to/lastmile_qr_scan", "ios": "https://dc.lft.to/lastmile_qr_scan"}, "type": "electric_scooter", "lon": -77.01948833333333, "name": "b7ac410e6112995cf046f185287c5488", "bike_id": "b7ac410e6112995cf046f185287c5488", "fusion_lat": 0.0, "is_reserved": 0, "lat": 38.92227966666667, "fusion_lon": 0.0, "is_disabled": 0}, {"rental_uris": {"android": "https://dc.lft.to/lastmile_qr_scan", "ios": "https://dc.lft.to/lastmile_qr_scan"}, "type": "electric_scooter", "lon": -76.99443216666667, "name": "d8e08db318742fd156a5fa92fb690bfa", "bike_id": "d8e08db318742fd156a5fa92fb690bfa", "fusion_lat": 0.0, "is_reserved": 0, "lat": 38.905054, "fusion_lon": 0.0, "is_disabled": 0}, {"rental_uris": {"android": "https://dc.lft.to/lastmile_qr_scan", "ios": "https://dc.lft.to/lastmile_qr_scan"}, "type": "electric_scooter", "lon": -77.00739483333334, "name": "03a59c596a5556605b2578cb45c75bb0", "bike_id": "03a59c596a5556605b2578cb45c75bb0", "fusion_lat": 0.0, "is_reserved": 0, "lat": 38.87646983333333, "fusion_lon": 0.0, "is_disabled": 0}, {"rental_uris": {"android": "https://dc.lft.to/lastmile_qr_scan", "ios": "https://dc.lft.to/lastmile_qr_scan"}, "type": "electric_scooter", "lon": -77.02980583333333, "name": "6ff7a99a3bbf9e29bf48d39a05e5185d", "bike_id": "6ff7a99a3bbf9e29bf48d39a05e5185d", "fusion_lat": 0.0, "is_reserved": 0, "lat": 38.92314283333333, "fusion_lon": 0.0, "is_disabled": 0}, {"rental_uris": {"android": "https://dc.lft.to/lastmile_qr_scan", "ios": "https://dc.lft.to/lastmile_qr_scan"}, "type": "electric_scooter", "lon": -76.955104, "name": "16f92f77c4be1c53f4f7b796ef1e9ed9", "bike_id": "16f92f77c4be1c53f4f7b796ef1e9ed9", "fusion_lat": 0.0, "is_reserved": 0, "lat": 38.89052916666667, "fusion_lon": 0.0, "is_disabled": 0}, {"rental_uris": {"android": "https://dc.lft.to/lastmile_qr_scan", "ios": "https://dc.lft.to/lastmile_qr_scan"}, "type": "electric_scooter", "lon": -77.02707233333334, "name": "d157da5ab9111253c6bd5bcc4c1f4ec0", "bike_id": "d157da5ab9111253c6bd5bcc4c1f4ec0", "fusion_lat": 0.0, "is_reserved": 0, "lat": 38.906640333333335, "fusion_lon": 0.0, "is_disabled": 0}, {"rental_uris": {"android": "https://dc.lft.to/lastmile_qr_scan", "ios": "https://dc.lft.to/lastmile_qr_scan"}, "type": "electric_scooter", "lon": -76.9812185, "name": "49ee2ccbbdbff007120ecc1d6333701e", "bike_id": "49ee2ccbbdbff007120ecc1d6333701e", "fusion_lat": 0.0, "is_reserved": 0, "lat": 38.89197, "fusion_lon": 0.0, "is_disabled": 0}, {"rental_uris": {"android": "https://dc.lft.to/lastmile_qr_scan", "ios": "https://dc.lft.to/lastmile_qr_scan"}, "type": "electric_bike", "lon": -76.9855885, "name": "0e075d51040028d8f205b7409851b4ea", "bike_id": "0e075d51040028d8f205b7409851b4ea", "fusion_lat": 0.0, "is_reserved": 0, "lat": 38.868893666666665, "fusion_lon": 0.0, "is_disabled": 0}, {"rental_uris": {"android": "https://dc.lft.to/lastmile_qr_scan", "ios": "https://dc.lft.to/lastmile_qr_scan"}, "type": "electric_scooter", "lon": -77.03492, "name": "aa4ee5db3c84d9cce8ae7308d06c0ec2", "bike_id": "aa4ee5db3c84d9cce8ae7308d06c0ec2", "fusion_lat": 0.0, "is_reserved": 0, "lat": 38.935702666666664, "fusion_lon": 0.0, "is_disabled": 0}, {"rental_uris": {"android": "https://dc.lft.to/lastmile_qr_scan", "ios": "https://dc.lft.to/lastmile_qr_scan"}, "type": "electric_scooter", "lon": -77.03654883333333, "name": "2dd1a3c5c1324c6fcdc21f0336ba40ea", "bike_id": "2dd1a3c5c1324c6fcdc21f0336ba40ea", "fusion_lat": 0.0, "is_reserved": 0, "lat": 38.916222833333336, "fusion_lon": 0.0, "is_disabled": 0}, {"rental_uris": {"android": "https://dc.lft.to/lastmile_qr_scan", "ios": "https://dc.lft.to/lastmile_qr_scan"}, "type": "electric_scooter", "lon": -77.017663, "name": "5f41e405c8f101b0001efbf9fedbca4a", "bike_id": "5f41e405c8f101b0001efbf9fedbca4a", "fusion_lat": 0.0, "is_reserved": 0, "lat": 38.87295183333333, "fusion_lon": 0.0, "is_disabled": 0}, {"rental_uris": {"android": "https://dc.lft.to/lastmile_qr_scan", "ios": "https://dc.lft.to/lastmile_qr_scan"}, "type": "electric_scooter", "lon": -77.021639, "name": "f7c1c374e8e843ae08b0a85780cb3750", "bike_id": "f7c1c374e8e843ae08b0a85780cb3750", "fusion_lat": 0.0, "is_reserved": 0, "lat": 38.940854, "fusion_lon": 0.0, "is_disabled": 0}, {"rental_uris": {"android": "https://dc.lft.to/lastmile_qr_scan", "ios": "https://dc.lft.to/lastmile_qr_scan"}, "type": "electric_scooter", "lon": -77.02693466666666, "name": "c943abc205cdc3eb7a896f187dea4ca9", "bike_id": "c943abc205cdc3eb7a896f187dea4ca9", "fusion_lat": 0.0, "is_reserved": 0, "lat": 38.912730333333336, "fusion_lon": 0.0, "is_disabled": 0}, {"rental_uris": {"android": "https://dc.lft.to/lastmile_qr_scan", "ios": "https://dc.lft.to/lastmile_qr_scan"}, "type": "electric_scooter", "lon": -76.999467, "name": "3e067f489bfc933acdf20660b0c50d65", "bike_id": "3e067f489bfc933acdf20660b0c50d65", "fusion_lat": 0.0, "is_reserved": 0, "lat": 38.9086985, "fusion_lon": 0.0, "is_disabled": 0}, {"rental_uris": {"android": "https://dc.lft.to/lastmile_qr_scan", "ios": "https://dc.lft.to/lastmile_qr_scan"}, "type": "electric_bike", "lon": -77.11427083333334, "name": "a8db6ec6187b2f1f1f8e4706d0c6f6aa", "bike_id": "a8db6ec6187b2f1f1f8e4706d0c6f6aa", "fusion_lat": 0.0, "is_reserved": 0, "lat": 38.852495166666664, "fusion_lon": 0.0, "is_disabled": 0}, {"rental_uris": {"android": "https://dc.lft.to/lastmile_qr_scan", "ios": "https://dc.lft.to/lastmile_qr_scan"}, "type": "electric_scooter", "lon": -77.03582933333334, "name": "7273bce2725dd2ad133a017baba2afb1", "bike_id": "7273bce2725dd2ad133a017baba2afb1", "fusion_lat": 0.0, "is_reserved": 0, "lat": 38.91930766666667, "fusion_lon": 0.0, "is_disabled": 0}, {"rental_uris": {"android": "https://dc.lft.to/lastmile_qr_scan", "ios": "https://dc.lft.to/lastmile_qr_scan"}, "type": "electric_scooter", "lon": -76.99487316666666, "name": "1b7dde632d3faaa6c79b72c7ce056de6", "bike_id": "1b7dde632d3faaa6c79b72c7ce056de6", "fusion_lat": 0.0, "is_reserved": 0, "lat": 38.8624555, "fusion_lon": 0.0, "is_disabled": 0}, {"rental_uris": {"android": "https://dc.lft.to/lastmile_qr_scan", "ios": "https://dc.lft.to/lastmile_qr_scan"}, "type": "electric_scooter", "lon": -77.0344595, "name": "e74218295af2161e05368cb070819629", "bike_id": "e74218295af2161e05368cb070819629", "fusion_lat": 0.0, "is_reserved": 0, "lat": 38.90569933333333, "fusion_lon": 0.0, "is_disabled": 0}, {"rental_uris": {"android": "https://dc.lft.to/lastmile_qr_scan", "ios": "https://dc.lft.to/lastmile_qr_scan"}, "type": "electric_scooter", "lon": -76.99149566666667, "name": "98f08a4fb0820bd4ad055976372ba233", "bike_id": "98f08a4fb0820bd4ad055976372ba233", "fusion_lat": 0.0, "is_reserved": 0, "lat": 38.901274, "fusion_lon": 0.0, "is_disabled": 0}, {"rental_uris": {"android": "https://dc.lft.to/lastmile_qr_scan", "ios": "https://dc.lft.to/lastmile_qr_scan"}, "type": "electric_scooter", "lon": -77.03438833333334, "name": "1c782454ae8eefa171beb53c55a52766", "bike_id": "1c782454ae8eefa171beb53c55a52766", "fusion_lat": 0.0, "is_reserved": 0, "lat": 38.91803783333334, "fusion_lon": 0.0, "is_disabled": 0}, {"rental_uris": {"android": "https://dc.lft.to/lastmile_qr_scan", "ios": "https://dc.lft.to/lastmile_qr_scan"}, "type": "electric_scooter", "lon": -76.9972625, "name": "c46daea5dd5130267d13adf3373789ed", "bike_id": "c46daea5dd5130267d13adf3373789ed", "fusion_lat": 0.0, "is_reserved": 0, "lat": 38.907919, "fusion_lon": 0.0, "is_disabled": 0}, {"rental_uris": {"android": "https://dc.lft.to/lastmile_qr_scan", "ios": "https://dc.lft.to/lastmile_qr_scan"}, "type": "electric_bike", "lon": -76.99757733333334, "name": "a86d1b32aa97a0e838d4c96dc7ea338c", "bike_id": "a86d1b32aa97a0e838d4c96dc7ea338c", "fusion_lat": 0.0, "is_reserved": 0, "lat": 39.00592916666667, "fusion_lon": 0.0, "is_disabled": 0}, {"rental_uris": {"android": "https://dc.lft.to/lastmile_qr_scan", "ios": "https://dc.lft.to/lastmile_qr_scan"}, "type": "electric_scooter", "lon": -76.99768433333334, "name": "930aef1512443d6bd566545eff5b1212", "bike_id": "930aef1512443d6bd566545eff5b1212", "fusion_lat": 0.0, "is_reserved": 0, "lat": 38.92247733333333, "fusion_lon": 0.0, "is_disabled": 0}, {"rental_uris": {"android": "https://dc.lft.to/lastmile_qr_scan", "ios": "https://dc.lft.to/lastmile_qr_scan"}, "type": "electric_scooter", "lon": -76.98132116666666, "name": "01c68b0dca8fcb7c33966bdfdd65aa56", "bike_id": "01c68b0dca8fcb7c33966bdfdd65aa56", "fusion_lat": 0.0, "is_reserved": 0, "lat": 38.884155, "fusion_lon": 0.0, "is_disabled": 0}, {"rental_uris": {"android": "https://dc.lft.to/lastmile_qr_scan", "ios": "https://dc.lft.to/lastmile_qr_scan"}, "type": "electric_scooter", "lon": -76.99489033333333, "name": "63b78b3c1beb2e3028f6e0c5a98a27d5", "bike_id": "63b78b3c1beb2e3028f6e0c5a98a27d5", "fusion_lat": 0.0, "is_reserved": 0, "lat": 38.876918833333335, "fusion_lon": 0.0, "is_disabled": 0}, {"rental_uris": {"android": "https://dc.lft.to/lastmile_qr_scan", "ios": "https://dc.lft.to/lastmile_qr_scan"}, "type": "electric_scooter", "lon": -77.02038883333333, "name": "b3b37ae91c8418b91fc121cd579ef715", "bike_id": "b3b37ae91c8418b91fc121cd579ef715", "fusion_lat": 0.0, "is_reserved": 0, "lat": 38.89263016666666, "fusion_lon": 0.0, "is_disabled": 0}, {"rental_uris": {"android": "https://dc.lft.to/lastmile_qr_scan", "ios": "https://dc.lft.to/lastmile_qr_scan"}, "type": "electric_scooter", "lon": -77.06343366666667, "name": "576ac843cb78f9b1d9268e587e47f96f", "bike_id": "576ac843cb78f9b1d9268e587e47f96f", "fusion_lat": 0.0, "is_reserved": 0, "lat": 38.90847, "fusion_lon": 0.0, "is_disabled": 0}, {"rental_uris": {"android": "https://dc.lft.to/lastmile_qr_scan", "ios": "https://dc.lft.to/lastmile_qr_scan"}, "type": "electric_scooter", "lon": -77.01014116666667, "name": "eeb17155b51a853f5aa150ec02513f9c", "bike_id": "eeb17155b51a853f5aa150ec02513f9c", "fusion_lat": 0.0, "is_reserved": 0, "lat": 38.906482, "fusion_lon": 0.0, "is_disabled": 0}, {"rental_uris": {"android": "https://dc.lft.to/lastmile_qr_scan", "ios": "https://dc.lft.to/lastmile_qr_scan"}, "type": "electric_bike", "lon": -76.95204733333334, "name": "41ba2bdd356aca7090a83d75078f7352", "bike_id": "41ba2bdd356aca7090a83d75078f7352", "fusion_lat": 0.0, "is_reserved": 0, "lat": 38.936665, "fusion_lon": 0.0, "is_disabled": 0}, {"rental_uris": {"android": "https://dc.lft.to/lastmile_qr_scan", "ios": "https://dc.lft.to/lastmile_qr_scan"}, "type": "electric_scooter", "lon": -77.0203355, "name": "a36043bdab13850b875480c88ad91963", "bike_id": "a36043bdab13850b875480c88ad91963", "fusion_lat": 0.0, "is_reserved": 0, "lat": 38.8998035, "fusion_lon": 0.0, "is_disabled": 0}, {"rental_uris": {"android": "https://dc.lft.to/lastmile_qr_scan", "ios": "https://dc.lft.to/lastmile_qr_scan"}, "type": "electric_scooter", "lon": -76.99089583333334, "name": "6198f7d2113931eefb27bd46677ee069", "bike_id": "6198f7d2113931eefb27bd46677ee069", "fusion_lat": 0.0, "is_reserved": 0, "lat": 38.86360633333334, "fusion_lon": 0.0, "is_disabled": 0}, {"rental_uris": {"android": "https://dc.lft.to/lastmile_qr_scan", "ios": "https://dc.lft.to/lastmile_qr_scan"}, "type": "electric_scooter", "lon": -77.02723983333334, "name": "5a102b51f80b9154f817bc8c57851b72", "bike_id": "5a102b51f80b9154f817bc8c57851b72", "fusion_lat": 0.0, "is_reserved": 0, "lat": 38.93983683333333, "fusion_lon": 0.0, "is_disabled": 0}, {"rental_uris": {"android": "https://dc.lft.to/lastmile_qr_scan", "ios": "https://dc.lft.to/lastmile_qr_scan"}, "type": "electric_scooter", "lon": -76.98728833333334, "name": "657ace9bdea9fb333b1bb1584d4505dc", "bike_id": "657ace9bdea9fb333b1bb1584d4505dc", "fusion_lat": 0.0, "is_reserved": 0, "lat": 38.867091, "fusion_lon": 0.0, "is_disabled": 0}, {"rental_uris": {"android": "https://dc.lft.to/lastmile_qr_scan", "ios": "https://dc.lft.to/lastmile_qr_scan"}, "type": "electric_scooter", "lon": -77.06452083333333, "name": "4294e8c5d60ef416b3f21fff313eb343", "bike_id": "4294e8c5d60ef416b3f21fff313eb343", "fusion_lat": 0.0, "is_reserved": 0, "lat": 38.90981766666667, "fusion_lon": 0.0, "is_disabled": 0}, {"rental_uris": {"android": "https://dc.lft.to/lastmile_qr_scan", "ios": "https://dc.lft.to/lastmile_qr_scan"}, "type": "electric_scooter", "lon": -77.04866366666667, "name": "32074a34cd3c0d57ea4f0619361e6144", "bike_id": "32074a34cd3c0d57ea4f0619361e6144", "fusion_lat": 0.0, "is_reserved": 0, "lat": 38.903715166666665, "fusion_lon": 0.0, "is_disabled": 0}, {"rental_uris": {"android": "https://dc.lft.to/lastmile_qr_scan", "ios": "https://dc.lft.to/lastmile_qr_scan"}, "type": "electric_scooter", "lon": -77.02758216666666, "name": "ceae8385257211fe8e851f4874bfa9e9", "bike_id": "ceae8385257211fe8e851f4874bfa9e9", "fusion_lat": 0.0, "is_reserved": 0, "lat": 38.953982833333335, "fusion_lon": 0.0, "is_disabled": 0}, {"rental_uris": {"android": "https://dc.lft.to/lastmile_qr_scan", "ios": "https://dc.lft.to/lastmile_qr_scan"}, "type": "electric_scooter", "lon": -77.02344616666667, "name": "a1c396ad11546a39d7d77527045b5971", "bike_id": "a1c396ad11546a39d7d77527045b5971", "fusion_lat": 0.0, "is_reserved": 0, "lat": 38.922661166666664, "fusion_lon": 0.0, "is_disabled": 0}, {"rental_uris": {"android": "https://dc.lft.to/lastmile_qr_scan", "ios": "https://dc.lft.to/lastmile_qr_scan"}, "type": "electric_scooter", "lon": -77.03171166666667, "name": "ecda1c6dc6a375388e439f68659d0e71", "bike_id": "ecda1c6dc6a375388e439f68659d0e71", "fusion_lat": 0.0, "is_reserved": 0, "lat": 38.89329516666667, "fusion_lon": 0.0, "is_disabled": 0}, {"rental_uris": {"android": "https://dc.lft.to/lastmile_qr_scan", "ios": "https://dc.lft.to/lastmile_qr_scan"}, "type": "electric_scooter", "lon": -77.02294566666667, "name": "230a865b7ddf5a1a00c925d8f6c16348", "bike_id": "230a865b7ddf5a1a00c925d8f6c16348", "fusion_lat": 0.0, "is_reserved": 0, "lat": 38.916007666666665, "fusion_lon": 0.0, "is_disabled": 0}, {"rental_uris": {"android": "https://dc.lft.to/lastmile_qr_scan", "ios": "https://dc.lft.to/lastmile_qr_scan"}, "type": "electric_scooter", "lon": -77.016889, "name": "34a90f637f6a00faad844235d5ce208a", "bike_id": "34a90f637f6a00faad844235d5ce208a", "fusion_lat": 0.0, "is_reserved": 0, "lat": 38.91104933333333, "fusion_lon": 0.0, "is_disabled": 0}, {"rental_uris": {"android": "https://dc.lft.to/lastmile_qr_scan", "ios": "https://dc.lft.to/lastmile_qr_scan"}, "type": "electric_bike", "lon": -76.98525683333334, "name": "81be6795794e180a8c671d9013afe533", "bike_id": "81be6795794e180a8c671d9013afe533", "fusion_lat": 0.0, "is_reserved": 0, "lat": 38.920012166666666, "fusion_lon": 0.0, "is_disabled": 0}, {"rental_uris": {"android": "https://dc.lft.to/lastmile_qr_scan", "ios": "https://dc.lft.to/lastmile_qr_scan"}, "type": "electric_bike", "lon": -76.877654, "name": "50b92d8530868122dc2dcdb933374594", "bike_id": "50b92d8530868122dc2dcdb933374594", "fusion_lat": 0.0, "is_reserved": 0, "lat": 38.99226766666666, "fusion_lon": 0.0, "is_disabled": 0}, {"rental_uris": {"android": "https://dc.lft.to/lastmile_qr_scan", "ios": "https://dc.lft.to/lastmile_qr_scan"}, "type": "electric_bike", "lon": -77.10721283333334, "name": "f5484498e615c376787890a1b007bfa0", "bike_id": "f5484498e615c376787890a1b007bfa0", "fusion_lat": 0.0, "is_reserved": 0, "lat": 38.8555055, "fusion_lon": 0.0, "is_disabled": 0}, {"rental_uris": {"android": "https://dc.lft.to/lastmile_qr_scan", "ios": "https://dc.lft.to/lastmile_qr_scan"}, "type": "electric_scooter", "lon": -76.98777983333333, "name": "82624795bd9287dea646168cd5a6527b", "bike_id": "82624795bd9287dea646168cd5a6527b", "fusion_lat": 0.0, "is_reserved": 0, "lat": 38.9002785, "fusion_lon": 0.0, "is_disabled": 0}, {"rental_uris": {"android": "https://dc.lft.to/lastmile_qr_scan", "ios": "https://dc.lft.to/lastmile_qr_scan"}, "type": "electric_scooter", "lon": -76.98777366666667, "name": "2d8fc701931b2f1e592b5c16690d3256", "bike_id": "2d8fc701931b2f1e592b5c16690d3256", "fusion_lat": 0.0, "is_reserved": 0, "lat": 38.90029, "fusion_lon": 0.0, "is_disabled": 0}, {"rental_uris": {"android": "https://dc.lft.to/lastmile_qr_scan", "ios": "https://dc.lft.to/lastmile_qr_scan"}, "type": "electric_bike", "lon": -76.96387016666667, "name": "30eef9e00191ab9316516ff3425cfcae", "bike_id": "30eef9e00191ab9316516ff3425cfcae", "fusion_lat": 0.0, "is_reserved": 0, "lat": 38.975814166666666, "fusion_lon": 0.0, "is_disabled": 0}, {"rental_uris": {"android": "https://dc.lft.to/lastmile_qr_scan", "ios": "https://dc.lft.to/lastmile_qr_scan"}, "type": "electric_scooter", "lon": -77.03785566666667, "name": "dc6c29a46acbca015dc97ffadee545a1", "bike_id": "dc6c29a46acbca015dc97ffadee545a1", "fusion_lat": 0.0, "is_reserved": 0, "lat": 38.92631183333334, "fusion_lon": 0.0, "is_disabled": 0}, {"rental_uris": {"android": "https://dc.lft.to/lastmile_qr_scan", "ios": "https://dc.lft.to/lastmile_qr_scan"}, "type": "electric_scooter", "lon": -77.02952516666667, "name": "e84f2af0852866b9f51f79d968086d7d", "bike_id": "e84f2af0852866b9f51f79d968086d7d", "fusion_lat": 0.0, "is_reserved": 0, "lat": 38.9325445, "fusion_lon": 0.0, "is_disabled": 0}, {"rental_uris": {"android": "https://dc.lft.to/lastmile_qr_scan", "ios": "https://dc.lft.to/lastmile_qr_scan"}, "type": "electric_bike", "lon": -77.02716416666667, "name": "cd5dc13c56e61b33b4807af762f3c516", "bike_id": "cd5dc13c56e61b33b4807af762f3c516", "fusion_lat": 0.0, "is_reserved": 0, "lat": 38.922938333333335, "fusion_lon": 0.0, "is_disabled": 0}, {"rental_uris": {"android": "https://dc.lft.to/lastmile_qr_scan", "ios": "https://dc.lft.to/lastmile_qr_scan"}, "type": "electric_scooter", "lon": -76.94233333333334, "name": "a9033694a0d2ff12b3a66bcd7d780e3d", "bike_id": "a9033694a0d2ff12b3a66bcd7d780e3d", "fusion_lat": 0.0, "is_reserved": 0, "lat": 38.896809, "fusion_lon": 0.0, "is_disabled": 0}, {"rental_uris": {"android": "https://dc.lft.to/lastmile_qr_scan", "ios": "https://dc.lft.to/lastmile_qr_scan"}, "type": "electric_scooter", "lon": -77.0327885, "name": "4d388616d9884fbe229dff27c2c87a89", "bike_id": "4d388616d9884fbe229dff27c2c87a89", "fusion_lat": 0.0, "is_reserved": 0, "lat": 38.899046166666665, "fusion_lon": 0.0, "is_disabled": 0}, {"rental_uris": {"android": "https://dc.lft.to/lastmile_qr_scan", "ios": "https://dc.lft.to/lastmile_qr_scan"}, "type": "electric_scooter", "lon": -77.02361, "name": "d1c473d7f3f7877111e54d19a7a4e3b0", "bike_id": "d1c473d7f3f7877111e54d19a7a4e3b0", "fusion_lat": 0.0, "is_reserved": 0, "lat": 38.904327333333335, "fusion_lon": 0.0, "is_disabled": 0}, {"rental_uris": {"android": "https://dc.lft.to/lastmile_qr_scan", "ios": "https://dc.lft.to/lastmile_qr_scan"}, "type": "electric_bike", "lon": -76.94867316666667, "name": "095c48c2db8cff3cb8a399733f7420ed", "bike_id": "095c48c2db8cff3cb8a399733f7420ed", "fusion_lat": 0.0, "is_reserved": 0, "lat": 38.88969816666667, "fusion_lon": 0.0, "is_disabled": 0}, {"rental_uris": {"android": "https://dc.lft.to/lastmile_qr_scan", "ios": "https://dc.lft.to/lastmile_qr_scan"}, "type": "electric_scooter", "lon": -77.01338233333334, "name": "add91c3d388b8f3158a329505385071f", "bike_id": "add91c3d388b8f3158a329505385071f", "fusion_lat": 0.0, "is_reserved": 0, "lat": 38.8813355, "fusion_lon": 0.0, "is_disabled": 0}, {"rental_uris": {"android": "https://dc.lft.to/lastmile_qr_scan", "ios": "https://dc.lft.to/lastmile_qr_scan"}, "type": "electric_scooter", "lon": -77.0388295, "name": "eb00ea89cbf2dac5c799b8d6fee19a7b", "bike_id": "eb00ea89cbf2dac5c799b8d6fee19a7b", "fusion_lat": 0.0, "is_reserved": 0, "lat": 38.932673, "fusion_lon": 0.0, "is_disabled": 0}, {"rental_uris": {"android": "https://dc.lft.to/lastmile_qr_scan", "ios": "https://dc.lft.to/lastmile_qr_scan"}, "type": "electric_bike", "lon": -77.04900133333334, "name": "d3f3849ea476f966cba13396988737f9", "bike_id": "d3f3849ea476f966cba13396988737f9", "fusion_lat": 0.0, "is_reserved": 0, "lat": 38.87493216666667, "fusion_lon": 0.0, "is_disabled": 0}, {"rental_uris": {"android": "https://dc.lft.to/lastmile_qr_scan", "ios": "https://dc.lft.to/lastmile_qr_scan"}, "type": "electric_scooter", "lon": -77.03851466666667, "name": "25d6b62ea0bd397f37481a9ee3343e86", "bike_id": "25d6b62ea0bd397f37481a9ee3343e86", "fusion_lat": 0.0, "is_reserved": 0, "lat": 38.9154415, "fusion_lon": 0.0, "is_disabled": 0}, {"rental_uris": {"android": "https://dc.lft.to/lastmile_qr_scan", "ios": "https://dc.lft.to/lastmile_qr_scan"}, "type": "electric_scooter", "lon": -77.023892, "name": "89359992e6f00e0eb746ea7c2bb8a410", "bike_id": "89359992e6f00e0eb746ea7c2bb8a410", "fusion_lat": 0.0, "is_reserved": 0, "lat": 38.92074183333333, "fusion_lon": 0.0, "is_disabled": 0}, {"rental_uris": {"android": "https://dc.lft.to/lastmile_qr_scan", "ios": "https://dc.lft.to/lastmile_qr_scan"}, "type": "electric_scooter", "lon": -77.02479816666667, "name": "277bfdfdfeb5ff574794d25ecd8544c5", "bike_id": "277bfdfdfeb5ff574794d25ecd8544c5", "fusion_lat": 0.0, "is_reserved": 0, "lat": 38.93877883333333, "fusion_lon": 0.0, "is_disabled": 0}, {"rental_uris": {"android": "https://dc.lft.to/lastmile_qr_scan", "ios": "https://dc.lft.to/lastmile_qr_scan"}, "type": "electric_scooter", "lon": -77.02248566666667, "name": "552878e4031fe12fe8a001ac7ee3539f", "bike_id": "552878e4031fe12fe8a001ac7ee3539f", "fusion_lat": 0.0, "is_reserved": 0, "lat": 38.878720333333334, "fusion_lon": 0.0, "is_disabled": 0}, {"rental_uris": {"android": "https://dc.lft.to/lastmile_qr_scan", "ios": "https://dc.lft.to/lastmile_qr_scan"}, "type": "electric_scooter", "lon": -77.019064, "name": "b57c4bfab7aaf1d0ba2940f7dd13e915", "bike_id": "b57c4bfab7aaf1d0ba2940f7dd13e915", "fusion_lat": 0.0, "is_reserved": 0, "lat": 38.92333716666667, "fusion_lon": 0.0, "is_disabled": 0}, {"rental_uris": {"android": "https://dc.lft.to/lastmile_qr_scan", "ios": "https://dc.lft.to/lastmile_qr_scan"}, "type": "electric_scooter", "lon": -77.0320845, "name": "d95569a8b9357e86352d73d0f023a260", "bike_id": "d95569a8b9357e86352d73d0f023a260", "fusion_lat": 0.0, "is_reserved": 0, "lat": 38.918857833333334, "fusion_lon": 0.0, "is_disabled": 0}, {"rental_uris": {"android": "https://dc.lft.to/lastmile_qr_scan", "ios": "https://dc.lft.to/lastmile_qr_scan"}, "type": "electric_scooter", "lon": -77.02288216666666, "name": "4faf15a06dec3650a744543bfc385c1b", "bike_id": "4faf15a06dec3650a744543bfc385c1b", "fusion_lat": 0.0, "is_reserved": 0, "lat": 38.91568816666667, "fusion_lon": 0.0, "is_disabled": 0}, {"rental_uris": {"android": "https://dc.lft.to/lastmile_qr_scan", "ios": "https://dc.lft.to/lastmile_qr_scan"}, "type": "electric_scooter", "lon": -77.03192433333334, "name": "71ac1ac7b977dd98d11028d9e129005b", "bike_id": "71ac1ac7b977dd98d11028d9e129005b", "fusion_lat": 0.0, "is_reserved": 0, "lat": 38.9189735, "fusion_lon": 0.0, "is_disabled": 0}, {"rental_uris": {"android": "https://dc.lft.to/lastmile_qr_scan", "ios": "https://dc.lft.to/lastmile_qr_scan"}, "type": "electric_scooter", "lon": -77.03260083333333, "name": "2350c7ad12c11208b9d44e48765ff2c3", "bike_id": "2350c7ad12c11208b9d44e48765ff2c3", "fusion_lat": 0.0, "is_reserved": 0, "lat": 38.932430333333336, "fusion_lon": 0.0, "is_disabled": 0}, {"rental_uris": {"android": "https://dc.lft.to/lastmile_qr_scan", "ios": "https://dc.lft.to/lastmile_qr_scan"}, "type": "electric_bike", "lon": -77.10027333333333, "name": "adf1331d5b857fd36f8e444983512f7d", "bike_id": "adf1331d5b857fd36f8e444983512f7d", "fusion_lat": 0.0, "is_reserved": 0, "lat": 38.990621, "fusion_lon": 0.0, "is_disabled": 0}, {"rental_uris": {"android": "https://dc.lft.to/lastmile_qr_scan", "ios": "https://dc.lft.to/lastmile_qr_scan"}, "type": "electric_scooter", "lon": -77.06787916666667, "name": "67e4a9f55a2f2cdccecf3504127d1188", "bike_id": "67e4a9f55a2f2cdccecf3504127d1188", "fusion_lat": 0.0, "is_reserved": 0, "lat": 38.91077516666667, "fusion_lon": 0.0, "is_disabled": 0}, {"rental_uris": {"android": "https://dc.lft.to/lastmile_qr_scan", "ios": "https://dc.lft.to/lastmile_qr_scan"}, "type": "electric_scooter", "lon": -77.03927133333333, "name": "909fccb293a906c3354509a2d74149b9", "bike_id": "909fccb293a906c3354509a2d74149b9", "fusion_lat": 0.0, "is_reserved": 0, "lat": 38.9139265, "fusion_lon": 0.0, "is_disabled": 0}, {"rental_uris": {"android": "https://dc.lft.to/lastmile_qr_scan", "ios": "https://dc.lft.to/lastmile_qr_scan"}, "type": "electric_scooter", "lon": -77.01607283333334, "name": "b4b8e797d2290239d749d73756e2a854", "bike_id": "b4b8e797d2290239d749d73756e2a854", "fusion_lat": 0.0, "is_reserved": 0, "lat": 38.90588866666667, "fusion_lon": 0.0, "is_disabled": 0}, {"rental_uris": {"android": "https://dc.lft.to/lastmile_qr_scan", "ios": "https://dc.lft.to/lastmile_qr_scan"}, "type": "electric_scooter", "lon": -77.01184816666667, "name": "99fa6685fb0f8e3bcbb27989e8218e11", "bike_id": "99fa6685fb0f8e3bcbb27989e8218e11", "fusion_lat": 0.0, "is_reserved": 0, "lat": 38.89737816666667, "fusion_lon": 0.0, "is_disabled": 0}, {"rental_uris": {"android": "https://dc.lft.to/lastmile_qr_scan", "ios": "https://dc.lft.to/lastmile_qr_scan"}, "type": "electric_scooter", "lon": -77.02474283333333, "name": "2e2c5cdfe7acb0ef1d1cd5c435d3f14e", "bike_id": "2e2c5cdfe7acb0ef1d1cd5c435d3f14e", "fusion_lat": 0.0, "is_reserved": 0, "lat": 38.906487, "fusion_lon": 0.0, "is_disabled": 0}, {"rental_uris": {"android": "https://dc.lft.to/lastmile_qr_scan", "ios": "https://dc.lft.to/lastmile_qr_scan"}, "type": "electric_scooter", "lon": -77.03042616666667, "name": "d5924bc16a1cde71d26eef12ce4c61ca", "bike_id": "d5924bc16a1cde71d26eef12ce4c61ca", "fusion_lat": 0.0, "is_reserved": 0, "lat": 38.884072333333336, "fusion_lon": 0.0, "is_disabled": 0}, {"rental_uris": {"android": "https://dc.lft.to/lastmile_qr_scan", "ios": "https://dc.lft.to/lastmile_qr_scan"}, "type": "electric_scooter", "lon": -77.00265233333333, "name": "71584bc9634255c6b4f5b5ebed3efe24", "bike_id": "71584bc9634255c6b4f5b5ebed3efe24", "fusion_lat": 0.0, "is_reserved": 0, "lat": 38.90122916666667, "fusion_lon": 0.0, "is_disabled": 0}, {"rental_uris": {"android": "https://dc.lft.to/lastmile_qr_scan", "ios": "https://dc.lft.to/lastmile_qr_scan"}, "type": "electric_scooter", "lon": -77.02823133333334, "name": "b63b6687a1657da0f053021d928785d9", "bike_id": "b63b6687a1657da0f053021d928785d9", "fusion_lat": 0.0, "is_reserved": 0, "lat": 38.915497, "fusion_lon": 0.0, "is_disabled": 0}, {"rental_uris": {"android": "https://dc.lft.to/lastmile_qr_scan", "ios": "https://dc.lft.to/lastmile_qr_scan"}, "type": "electric_scooter", "lon": -77.04182783333333, "name": "7ee485d4da5fd8fab7e14ec4fe742735", "bike_id": "7ee485d4da5fd8fab7e14ec4fe742735", "fusion_lat": 0.0, "is_reserved": 0, "lat": 38.895751833333335, "fusion_lon": 0.0, "is_disabled": 0}, {"rental_uris": {"android": "https://dc.lft.to/lastmile_qr_scan", "ios": "https://dc.lft.to/lastmile_qr_scan"}, "type": "electric_bike", "lon": -77.11434066666666, "name": "6be029924ccd459250a0b4b547f41f59", "bike_id": "6be029924ccd459250a0b4b547f41f59", "fusion_lat": 0.0, "is_reserved": 0, "lat": 38.84306566666667, "fusion_lon": 0.0, "is_disabled": 0}, {"rental_uris": {"android": "https://dc.lft.to/lastmile_qr_scan", "ios": "https://dc.lft.to/lastmile_qr_scan"}, "type": "electric_scooter", "lon": -76.98360333333333, "name": "3cabafe2aeca9e4f0558704f81eea4fa", "bike_id": "3cabafe2aeca9e4f0558704f81eea4fa", "fusion_lat": 0.0, "is_reserved": 0, "lat": 38.86103933333333, "fusion_lon": 0.0, "is_disabled": 0}, {"rental_uris": {"android": "https://dc.lft.to/lastmile_qr_scan", "ios": "https://dc.lft.to/lastmile_qr_scan"},