{"data": {"bikes": [{"rental_uris": {"ios": "https://dc.lft.to/lastmile_qr_scan", "android": "https://dc.lft.to/lastmile_qr_scan"}, "lon": -76.9888275, "type": "electric_scooter", "fusion_lat": 0.0, "lat": 38.8666135, "name": "cd4055b8e48768f1135f34f60c0c321c", "fusion_lon": 0.0, "bike_id": "cd4055b8e48768f1135f34f60c0c321c", "is_disabled": 0, "is_reserved": 0}, {"rental_uris": {"ios": "https://dc.lft.to/lastmile_qr_scan", "android": "https://dc.lft.to/lastmile_qr_scan"}, "lon": -76.949938, "type": "electric_scooter", "fusion_lat": 0.0, "lat": 38.89371583333333, "name": "89e586ea8cdf336517c48cbe332f01b4", "fusion_lon": 0.0, "bike_id": "89e586ea8cdf336517c48cbe332f01b4", "is_disabled": 0, "is_reserved": 0}, {"rental_uris": {"ios": "https://dc.lft.to/lastmile_qr_scan", "android": "https://dc.lft.to/lastmile_qr_scan"}, "lon": -77.02004333333333, "type": "electric_scooter", "fusion_lat": 0.0, "lat": 38.919152, "name": "435f91300c5f0329a4292865b2285239", "fusion_lon": 0.0, "bike_id": "435f91300c5f0329a4292865b2285239", "is_disabled": 0, "is_reserved": 0}, {"rental_uris": {"ios": "https://dc.lft.to/lastmile_qr_scan", "android": "https://dc.lft.to/lastmile_qr_scan"}, "lon": -77.032083, "type": "electric_scooter", "fusion_lat": 0.0, "lat": 38.91999533333333, "name": "e72003e79c6820b0de01fe3530ddb252", "fusion_lon": 0.0, "bike_id": "e72003e79c6820b0de01fe3530ddb252", "is_disabled": 0, "is_reserved": 0}, {"rental_uris": {"ios": "https://dc.lft.to/lastmile_qr_scan", "android": "https://dc.lft.to/lastmile_qr_scan"}, "lon": -77.016392, "type": "electric_scooter", "fusion_lat": 0.0, "lat": 38.92938683333333, "name": "259b239a8ed4588d8c9714f6dc7e8530", "fusion_lon": 0.0, "bike_id": "259b239a8ed4588d8c9714f6dc7e8530", "is_disabled": 0, "is_reserved": 0}, {"rental_uris": {"ios": "https://dc.lft.to/lastmile_qr_scan", "android": "https://dc.lft.to/lastmile_qr_scan"}, "lon": -77.03200783333334, "type": "electric_scooter", "fusion_lat": 0.0, "lat": 38.912677, "name": "3a164c04498d64d6938fbdf07aa908c0", "fusion_lon": 0.0, "bike_id": "3a164c04498d64d6938fbdf07aa908c0", "is_disabled": 0, "is_reserved": 0}, {"rental_uris": {"ios": "https://dc.lft.to/lastmile_qr_scan", "android": "https://dc.lft.to/lastmile_qr_scan"}, "lon": -77.03321266666667, "type": "electric_scooter", "fusion_lat": 0.0, "lat": 38.89889866666667, "name": "b2d2c6656079a1afbb45f192a73ee610", "fusion_lon": 0.0, "bike_id": "b2d2c6656079a1afbb45f192a73ee610", "is_disabled": 0, "is_reserved": 0}, {"rental_uris": {"ios": "https://dc.lft.to/lastmile_qr_scan", "android": "https://dc.lft.to/lastmile_qr_scan"}, "lon": -77.03246583333333, "type": "electric_scooter", "fusion_lat": 0.0, "lat": 38.928873, "name": "f2aea75f0f476b3cd2e1046daee5122f", "fusion_lon": 0.0, "bike_id": "f2aea75f0f476b3cd2e1046daee5122f", "is_disabled": 0, "is_reserved": 0}, {"rental_uris": {"ios": "https://dc.lft.to/lastmile_qr_scan", "android": "https://dc.lft.to/lastmile_qr_scan"}, "lon": -77.0179005, "type": "electric_scooter", "fusion_lat": 0.0, "lat": 38.90393316666667, "name": "fc14956eae4123bd30586977bf550b2f", "fusion_lon": 0.0, "bike_id": "fc14956eae4123bd30586977bf550b2f", "is_disabled": 0, "is_reserved": 0}, {"rental_uris": {"ios": "https://dc.lft.to/lastmile_qr_scan", "android": "https://dc.lft.to/lastmile_qr_scan"}, "lon": -77.0412495, "type": "electric_scooter", "fusion_lat": 0.0, "lat": 38.918877, "name": "b1d8a4845f5660fc97161c5b1954b0cd", "fusion_lon": 0.0, "bike_id": "b1d8a4845f5660fc97161c5b1954b0cd", "is_disabled": 0, "is_reserved": 0}, {"rental_uris": {"ios": "https://dc.lft.to/lastmile_qr_scan", "android": "https://dc.lft.to/lastmile_qr_scan"}, "lon": -77.008913, "type": "electric_scooter", "fusion_lat": 0.0, "lat": 38.91234866666667, "name": "55a3c078c170c1016f013a5ec2927b1e", "fusion_lon": 0.0, "bike_id": "55a3c078c170c1016f013a5ec2927b1e", "is_disabled": 0, "is_reserved": 0}, {"rental_uris": {"ios": "https://dc.lft.to/lastmile_qr_scan", "android": "https://dc.lft.to/lastmile_qr_scan"}, "lon": -77.03201583333333, "type": "electric_scooter", "fusion_lat": 0.0, "lat": 38.92485716666667, "name": "12134d6009748245c3e958b67bff794e", "fusion_lon": 0.0, "bike_id": "12134d6009748245c3e958b67bff794e", "is_disabled": 0, "is_reserved": 0}, {"rental_uris": {"ios": "https://dc.lft.to/lastmile_qr_scan", "android": "https://dc.lft.to/lastmile_qr_scan"}, "lon": -77.016097, "type": "electric_scooter", "fusion_lat": 0.0, "lat": 38.9113175, "name": "7d5744e0ad9517f16a962a8c5d860131", "fusion_lon": 0.0, "bike_id": "7d5744e0ad9517f16a962a8c5d860131", "is_disabled": 0, "is_reserved": 0}, {"rental_uris": {"ios": "https://dc.lft.to/lastmile_qr_scan", "android": "https://dc.lft.to/lastmile_qr_scan"}, "lon": -76.93170866666667, "type": "electric_scooter", "fusion_lat": 0.0, "lat": 38.89885483333333, "name": "68d94f3bbf38f732ec7f7704a29ce068", "fusion_lon": 0.0, "bike_id": "68d94f3bbf38f732ec7f7704a29ce068", "is_disabled": 0, "is_reserved": 0}, {"rental_uris": {"ios": "https://dc.lft.to/lastmile_qr_scan", "android": "https://dc.lft.to/lastmile_qr_scan"}, "lon": -76.92711783333333, "type": "electric_scooter", "fusion_lat": 0.0, "lat": 38.88767966666666, "name": "b00a07c0b48cdb951e588578aa6f18ae", "fusion_lon": 0.0, "bike_id": "b00a07c0b48cdb951e588578aa6f18ae", "is_disabled": 0, "is_reserved": 0}, {"rental_uris": {"ios": "https://dc.lft.to/lastmile_qr_scan", "android": "https://dc.lft.to/lastmile_qr_scan"}, "lon": -77.045494, "type": "electric_scooter", "fusion_lat": 0.0, "lat": 38.9126925, "name": "db64a318e855f49fe0d0b207e189a020", "fusion_lon": 0.0, "bike_id": "db64a318e855f49fe0d0b207e189a020", "is_disabled": 0, "is_reserved": 0}, {"rental_uris": {"ios": "https://dc.lft.to/lastmile_qr_scan", "android": "https://dc.lft.to/lastmile_qr_scan"}, "lon": -77.02253983333334, "type": "electric_scooter", "fusion_lat": 0.0, "lat": 38.916652166666665, "name": "adfa03a25de3efda1cbb678e9e27ca16", "fusion_lon": 0.0, "bike_id": "adfa03a25de3efda1cbb678e9e27ca16", "is_disabled": 0, "is_reserved": 0}, {"rental_uris": {"ios": "https://dc.lft.to/lastmile_qr_scan", "android": "https://dc.lft.to/lastmile_qr_scan"}, "lon": -77.0200605, "type": "electric_scooter", "fusion_lat": 0.0, "lat": 38.883606, "name": "600a5063c7c23c708929b83cbf9ab123", "fusion_lon": 0.0, "bike_id": "600a5063c7c23c708929b83cbf9ab123", "is_disabled": 0, "is_reserved": 0}, {"rental_uris": {"ios": "https://dc.lft.to/lastmile_qr_scan", "android": "https://dc.lft.to/lastmile_qr_scan"}, "lon": -77.0781315, "type": "electric_scooter", "fusion_lat": 0.0, "lat": 38.9262565, "name": "e0d1140d5ef62c32cf504524084c6b7b", "fusion_lon": 0.0, "bike_id": "e0d1140d5ef62c32cf504524084c6b7b", "is_disabled": 0, "is_reserved": 0}, {"rental_uris": {"ios": "https://dc.lft.to/lastmile_qr_scan", "android": "https://dc.lft.to/lastmile_qr_scan"}, "lon": -77.021997, "type": "electric_scooter", "fusion_lat": 0.0, "lat": 38.908352666666666, "name": "49b51927725ec495b512a1fd442afd4c", "fusion_lon": 0.0, "bike_id": "49b51927725ec495b512a1fd442afd4c", "is_disabled": 0, "is_reserved": 0}, {"rental_uris": {"ios": "https://dc.lft.to/lastmile_qr_scan", "android": "https://dc.lft.to/lastmile_qr_scan"}, "lon": -77.02321816666667, "type": "electric_scooter", "fusion_lat": 0.0, "lat": 38.89213133333333, "name": "903f09a960bffb7aad74c869d71bca50", "fusion_lon": 0.0, "bike_id": "903f09a960bffb7aad74c869d71bca50", "is_disabled": 0, "is_reserved": 0}, {"rental_uris": {"ios": "https://dc.lft.to/lastmile_qr_scan", "android": "https://dc.lft.to/lastmile_qr_scan"}, "lon": -76.9841145, "type": "electric_scooter", "fusion_lat": 0.0, "lat": 38.9138755, "name": "3c07c7b8c730bbce6826484e8f5cccf7", "fusion_lon": 0.0, "bike_id": "3c07c7b8c730bbce6826484e8f5cccf7", "is_disabled": 0, "is_reserved": 0}, {"rental_uris": {"ios": "https://dc.lft.to/lastmile_qr_scan", "android": "https://dc.lft.to/lastmile_qr_scan"}, "lon": -77.04219183333333, "type": "electric_scooter", "fusion_lat": 0.0, "lat": 38.92132616666667, "name": "be8352e61782099e5ca0d84649b19b29", "fusion_lon": 0.0, "bike_id": "be8352e61782099e5ca0d84649b19b29", "is_disabled": 0, "is_reserved": 0}, {"rental_uris": {"ios": "https://dc.lft.to/lastmile_qr_scan", "android": "https://dc.lft.to/lastmile_qr_scan"}, "lon": -77.03264183333333, "type": "electric_scooter", "fusion_lat": 0.0, "lat": 38.89567783333333, "name": "3aa4a157f23f1cd2b1c537baffdd483e", "fusion_lon": 0.0, "bike_id": "3aa4a157f23f1cd2b1c537baffdd483e", "is_disabled": 0, "is_reserved": 0}, {"rental_uris": {"ios": "https://dc.lft.to/lastmile_qr_scan", "android": "https://dc.lft.to/lastmile_qr_scan"}, "lon": -77.114299, "type": "electric_bike", "fusion_lat": 0.0, "lat": 38.85244816666667, "name": "b942fe132fa24035e7672f6bbbd057c8", "fusion_lon": 0.0, "bike_id": "b942fe132fa24035e7672f6bbbd057c8", "is_disabled": 0, "is_reserved": 0}, {"rental_uris": {"ios": "https://dc.lft.to/lastmile_qr_scan", "android": "https://dc.lft.to/lastmile_qr_scan"}, "lon": -77.03180583333334, "type": "electric_scooter", "fusion_lat": 0.0, "lat": 38.89954083333333, "name": "cd641ca4c476c085de8ab4c618add3b9", "fusion_lon": 0.0, "bike_id": "cd641ca4c476c085de8ab4c618add3b9", "is_disabled": 0, "is_reserved": 0}, {"rental_uris": {"ios": "https://dc.lft.to/lastmile_qr_scan", "android": "https://dc.lft.to/lastmile_qr_scan"}, "lon": -77.0259685, "type": "electric_scooter", "fusion_lat": 0.0, "lat": 38.88359966666667, "name": "079d24b19ee81091bdd0c873427f48da", "fusion_lon": 0.0, "bike_id": "079d24b19ee81091bdd0c873427f48da", "is_disabled": 0, "is_reserved": 0}, {"rental_uris": {"ios": "https://dc.lft.to/lastmile_qr_scan", "android": "https://dc.lft.to/lastmile_qr_scan"}, "lon": -76.9678785, "type": "electric_scooter", "fusion_lat": 0.0, "lat": 38.86142783333333, "name": "c7143a35693e69191473c86360e5068e", "fusion_lon": 0.0, "bike_id": "c7143a35693e69191473c86360e5068e", "is_disabled": 0, "is_reserved": 0}, {"rental_uris": {"ios": "https://dc.lft.to/lastmile_qr_scan", "android": "https://dc.lft.to/lastmile_qr_scan"}, "lon": -76.983667, "type": "electric_scooter", "fusion_lat": 0.0, "lat": 38.9154755, "name": "cf66f0d0bd1691b007653ba259438fbf", "fusion_lon": 0.0, "bike_id": "cf66f0d0bd1691b007653ba259438fbf", "is_disabled": 0, "is_reserved": 0}, {"rental_uris": {"ios": "https://dc.lft.to/lastmile_qr_scan", "android": "https://dc.lft.to/lastmile_qr_scan"}, "lon": -77.04456316666666, "type": "electric_scooter", "fusion_lat": 0.0, "lat": 38.91961366666666, "name": "3aebb6ddcd9db8895b404516ecd24495", "fusion_lon": 0.0, "bike_id": "3aebb6ddcd9db8895b404516ecd24495", "is_disabled": 0, "is_reserved": 0}, {"rental_uris": {"ios": "https://dc.lft.to/lastmile_qr_scan", "android": "https://dc.lft.to/lastmile_qr_scan"}, "lon": -77.03360466666666, "type": "electric_scooter", "fusion_lat": 0.0, "lat": 38.88750566666667, "name": "8daada42cb98784a8baa02d14773f75c", "fusion_lon": 0.0, "bike_id": "8daada42cb98784a8baa02d14773f75c", "is_disabled": 0, "is_reserved": 0}, {"rental_uris": {"ios": "https://dc.lft.to/lastmile_qr_scan", "android": "https://dc.lft.to/lastmile_qr_scan"}, "lon": -77.01990816666667, "type": "electric_scooter", "fusion_lat": 0.0, "lat": 38.87756916666667, "name": "dfb9484fa79070e1fd209f89344962cb", "fusion_lon": 0.0, "bike_id": "dfb9484fa79070e1fd209f89344962cb", "is_disabled": 0, "is_reserved": 0}, {"rental_uris": {"ios": "https://dc.lft.to/lastmile_qr_scan", "android": "https://dc.lft.to/lastmile_qr_scan"}, "lon": -77.02353816666667, "type": "electric_scooter", "fusion_lat": 0.0, "lat": 38.90873666666667, "name": "ffe90178b3869ce4d03ffdfabb591c50", "fusion_lon": 0.0, "bike_id": "ffe90178b3869ce4d03ffdfabb591c50", "is_disabled": 0, "is_reserved": 0}, {"rental_uris": {"ios": "https://dc.lft.to/lastmile_qr_scan", "android": "https://dc.lft.to/lastmile_qr_scan"}, "lon": -77.00262683333334, "type": "electric_scooter", "fusion_lat": 0.0, "lat": 38.898962833333336, "name": "aba44e405c5ed82afc2e7f4f94abc728", "fusion_lon": 0.0, "bike_id": "aba44e405c5ed82afc2e7f4f94abc728", "is_disabled": 0, "is_reserved": 0}, {"rental_uris": {"ios": "https://dc.lft.to/lastmile_qr_scan", "android": "https://dc.lft.to/lastmile_qr_scan"}, "lon": -77.010724, "type": "electric_bike", "fusion_lat": 0.0, "lat": 38.95655416666666, "name": "43aafea1c97c04cf63054ab815daf08b", "fusion_lon": 0.0, "bike_id": "43aafea1c97c04cf63054ab815daf08b", "is_disabled": 0, "is_reserved": 0}, {"rental_uris": {"ios": "https://dc.lft.to/lastmile_qr_scan", "android": "https://dc.lft.to/lastmile_qr_scan"}, "lon": -76.99847866666667, "type": "electric_scooter", "fusion_lat": 0.0, "lat": 38.89489916666667, "name": "0c61effe4a8006aa9a8d187859e6e67d", "fusion_lon": 0.0, "bike_id": "0c61effe4a8006aa9a8d187859e6e67d", "is_disabled": 0, "is_reserved": 0}, {"rental_uris": {"ios": "https://dc.lft.to/lastmile_qr_scan", "android": "https://dc.lft.to/lastmile_qr_scan"}, "lon": -77.044566, "type": "electric_scooter", "fusion_lat": 0.0, "lat": 38.90966783333333, "name": "e313ec81271913edd37378edf3020f67", "fusion_lon": 0.0, "bike_id": "e313ec81271913edd37378edf3020f67", "is_disabled": 0, "is_reserved": 0}, {"rental_uris": {"ios": "https://dc.lft.to/lastmile_qr_scan", "android": "https://dc.lft.to/lastmile_qr_scan"}, "lon": -77.03784333333333, "type": "electric_scooter", "fusion_lat": 0.0, "lat": 38.92634133333333, "name": "412a1adac28d2e6b378875dfd66f83e6", "fusion_lon": 0.0, "bike_id": "412a1adac28d2e6b378875dfd66f83e6", "is_disabled": 0, "is_reserved": 0}, {"rental_uris": {"ios": "https://dc.lft.to/lastmile_qr_scan", "android": "https://dc.lft.to/lastmile_qr_scan"}, "lon": -77.02377316666667, "type": "electric_scooter", "fusion_lat": 0.0, "lat": 38.90938233333333, "name": "701f504bd3940bf3519581e55b9e7114", "fusion_lon": 0.0, "bike_id": "701f504bd3940bf3519581e55b9e7114", "is_disabled": 0, "is_reserved": 0}, {"rental_uris": {"ios": "https://dc.lft.to/lastmile_qr_scan", "android": "https://dc.lft.to/lastmile_qr_scan"}, "lon": -76.98801733333333, "type": "electric_bike", "fusion_lat": 0.0, "lat": 38.863786833333336, "name": "f89715173a109b9d72e18423dce6da7f", "fusion_lon": 0.0, "bike_id": "f89715173a109b9d72e18423dce6da7f", "is_disabled": 0, "is_reserved": 0}, {"rental_uris": {"ios": "https://dc.lft.to/lastmile_qr_scan", "android": "https://dc.lft.to/lastmile_qr_scan"}, "lon": -77.02823883333333, "type": "electric_scooter", "fusion_lat": 0.0, "lat": 38.89234066666667, "name": "3f74fc90cc98c1d61ba6e21ecaf48983", "fusion_lon": 0.0, "bike_id": "3f74fc90cc98c1d61ba6e21ecaf48983", "is_disabled": 0, "is_reserved": 0}, {"rental_uris": {"ios": "https://dc.lft.to/lastmile_qr_scan", "android": "https://dc.lft.to/lastmile_qr_scan"}, "lon": -77.05583316666667, "type": "electric_scooter", "fusion_lat": 0.0, "lat": 38.93611583333333, "name": "c1177a4afb13809d7d9fe1bb3dab0cdb", "fusion_lon": 0.0, "bike_id": "c1177a4afb13809d7d9fe1bb3dab0cdb", "is_disabled": 0, "is_reserved": 0}, {"rental_uris": {"ios": "https://dc.lft.to/lastmile_qr_scan", "android": "https://dc.lft.to/lastmile_qr_scan"}, "lon": -77.02452, "type": "electric_scooter", "fusion_lat": 0.0, "lat": 38.91697966666667, "name": "4c8ccd4557e957ff9472066f2dfd3276", "fusion_lon": 0.0, "bike_id": "4c8ccd4557e957ff9472066f2dfd3276", "is_disabled": 0, "is_reserved": 0}, {"rental_uris": {"ios": "https://dc.lft.to/lastmile_qr_scan", "android": "https://dc.lft.to/lastmile_qr_scan"}, "lon": -77.017829, "type": "electric_scooter", "fusion_lat": 0.0, "lat": 38.919534666666664, "name": "2a2ad06db378450055e6f60ac0cd5f78", "fusion_lon": 0.0, "bike_id": "2a2ad06db378450055e6f60ac0cd5f78", "is_disabled": 0, "is_reserved": 0}, {"rental_uris": {"ios": "https://dc.lft.to/lastmile_qr_scan", "android": "https://dc.lft.to/lastmile_qr_scan"}, "lon": -76.9721425, "type": "electric_bike", "fusion_lat": 0.0, "lat": 38.84481733333333, "name": "1e18affaabbd5abb51a7559b0dcb06e4", "fusion_lon": 0.0, "bike_id": "1e18affaabbd5abb51a7559b0dcb06e4", "is_disabled": 0, "is_reserved": 0}, {"rental_uris": {"ios": "https://dc.lft.to/lastmile_qr_scan", "android": "https://dc.lft.to/lastmile_qr_scan"}, "lon": -77.03303033333333, "type": "electric_scooter", "fusion_lat": 0.0, "lat": 38.900377166666665, "name": "49810b5f9cb5d44b8d524350510ed1bb", "fusion_lon": 0.0, "bike_id": "49810b5f9cb5d44b8d524350510ed1bb", "is_disabled": 0, "is_reserved": 0}, {"rental_uris": {"ios": "https://dc.lft.to/lastmile_qr_scan", "android": "https://dc.lft.to/lastmile_qr_scan"}, "lon": -76.97703483333333, "type": "electric_scooter", "fusion_lat": 0.0, "lat": 38.898953, "name": "9afb187c74898c841ce96f3e411f7840", "fusion_lon": 0.0, "bike_id": "9afb187c74898c841ce96f3e411f7840", "is_disabled": 0, "is_reserved": 0}, {"rental_uris": {"ios": "https://dc.lft.to/lastmile_qr_scan", "android": "https://dc.lft.to/lastmile_qr_scan"}, "lon": -77.0249055, "type": "electric_scooter", "fusion_lat": 0.0, "lat": 38.90319566666667, "name": "bcfaf5e063351b12443cb70848bee1d2", "fusion_lon": 0.0, "bike_id": "bcfaf5e063351b12443cb70848bee1d2", "is_disabled": 0, "is_reserved": 0}, {"rental_uris": {"ios": "https://dc.lft.to/lastmile_qr_scan", "android": "https://dc.lft.to/lastmile_qr_scan"}, "lon": -76.94435933333334, "type": "electric_bike", "fusion_lat": 0.0, "lat": 38.90298833333333, "name": "d0e45236ddc3703dc2718bb48b458e39", "fusion_lon": 0.0, "bike_id": "d0e45236ddc3703dc2718bb48b458e39", "is_disabled": 0, "is_reserved": 0}, {"rental_uris": {"ios": "https://dc.lft.to/lastmile_qr_scan", "android": "https://dc.lft.to/lastmile_qr_scan"}, "lon": -77.03036766666666, "type": "electric_scooter", "fusion_lat": 0.0, "lat": 38.931171, "name": "c53602f19795705eaf875c6f961f7dd0", "fusion_lon": 0.0, "bike_id": "c53602f19795705eaf875c6f961f7dd0", "is_disabled": 0, "is_reserved": 0}, {"rental_uris": {"ios": "https://dc.lft.to/lastmile_qr_scan", "android": "https://dc.lft.to/lastmile_qr_scan"}, "lon": -77.01126166666667, "type": "electric_scooter", "fusion_lat": 0.0, "lat": 38.903682833333335, "name": "b690cd299f55ea9cecb6e82a30cad362", "fusion_lon": 0.0, "bike_id": "b690cd299f55ea9cecb6e82a30cad362", "is_disabled": 0, "is_reserved": 0}, {"rental_uris": {"ios": "https://dc.lft.to/lastmile_qr_scan", "android": "https://dc.lft.to/lastmile_qr_scan"}, "lon": -77.0255025, "type": "electric_scooter", "fusion_lat": 0.0, "lat": 38.89227566666667, "name": "a6cdc775d6b52cdca6d3842ab7439785", "fusion_lon": 0.0, "bike_id": "a6cdc775d6b52cdca6d3842ab7439785", "is_disabled": 0, "is_reserved": 0}, {"rental_uris": {"ios": "https://dc.lft.to/lastmile_qr_scan", "android": "https://dc.lft.to/lastmile_qr_scan"}, "lon": -77.008024, "type": "electric_scooter", "fusion_lat": 0.0, "lat": 38.883332833333334, "name": "c3b879c653e49d45c8c3944a263040c1", "fusion_lon": 0.0, "bike_id": "c3b879c653e49d45c8c3944a263040c1", "is_disabled": 0, "is_reserved": 0}, {"rental_uris": {"ios": "https://dc.lft.to/lastmile_qr_scan", "android": "https://dc.lft.to/lastmile_qr_scan"}, "lon": -77.03929416666666, "type": "electric_scooter", "fusion_lat": 0.0, "lat": 38.92107683333333, "name": "b39d873dd9c350a3109dda573f3e496f", "fusion_lon": 0.0, "bike_id": "b39d873dd9c350a3109dda573f3e496f", "is_disabled": 0, "is_reserved": 0}, {"rental_uris": {"ios": "https://dc.lft.to/lastmile_qr_scan", "android": "https://dc.lft.to/lastmile_qr_scan"}, "lon": -77.00054766666666, "type": "electric_scooter", "fusion_lat": 0.0, "lat": 38.88901216666667, "name": "6536c843f57c959d31a60f86c88aa27a", "fusion_lon": 0.0, "bike_id": "6536c843f57c959d31a60f86c88aa27a", "is_disabled": 0, "is_reserved": 0}, {"rental_uris": {"ios": "https://dc.lft.to/lastmile_qr_scan", "android": "https://dc.lft.to/lastmile_qr_scan"}, "lon": -77.0884335, "type": "electric_bike", "fusion_lat": 0.0, "lat": 38.84083016666666, "name": "6626573a082a1016e7030743f61ee0a0", "fusion_lon": 0.0, "bike_id": "6626573a082a1016e7030743f61ee0a0", "is_disabled": 0, "is_reserved": 0}, {"rental_uris": {"ios": "https://dc.lft.to/lastmile_qr_scan", "android": "https://dc.lft.to/lastmile_qr_scan"}, "lon": -77.013383, "type": "electric_bike", "fusion_lat": 0.0, "lat": 38.99998, "name": "7ce53096c40518ab8234bbb23399d2ac", "fusion_lon": 0.0, "bike_id": "7ce53096c40518ab8234bbb23399d2ac", "is_disabled": 0, "is_reserved": 0}, {"rental_uris": {"ios": "https://dc.lft.to/lastmile_qr_scan", "android": "https://dc.lft.to/lastmile_qr_scan"}, "lon": -77.02203216666666, "type": "electric_scooter", "fusion_lat": 0.0, "lat": 38.8926735, "name": "710dbd79063d9dfbf4d2482732163285", "fusion_lon": 0.0, "bike_id": "710dbd79063d9dfbf4d2482732163285", "is_disabled": 0, "is_reserved": 0}, {"rental_uris": {"ios": "https://dc.lft.to/lastmile_qr_scan", "android": "https://dc.lft.to/lastmile_qr_scan"}, "lon": -77.00749416666666, "type": "electric_scooter", "fusion_lat": 0.0, "lat": 38.8713135, "name": "af7840f6477f3becb184b6968b0df1e6", "fusion_lon": 0.0, "bike_id": "af7840f6477f3becb184b6968b0df1e6", "is_disabled": 0, "is_reserved": 0}, {"rental_uris": {"ios": "https://dc.lft.to/lastmile_qr_scan", "android": "https://dc.lft.to/lastmile_qr_scan"}, "lon": -77.069344, "type": "electric_bike", "fusion_lat": 0.0, "lat": 38.8462745, "name": "347419c74a7ad3531d409c1f5b71cd00", "fusion_lon": 0.0, "bike_id": "347419c74a7ad3531d409c1f5b71cd00", "is_disabled": 0, "is_reserved": 0}, {"rental_uris": {"ios": "https://dc.lft.to/lastmile_qr_scan", "android": "https://dc.lft.to/lastmile_qr_scan"}, "lon": -77.0789965, "type": "electric_bike", "fusion_lat": 0.0, "lat": 38.83936166666667, "name": "c5777ec854962f4b0892c9df19fcb54f", "fusion_lon": 0.0, "bike_id": "c5777ec854962f4b0892c9df19fcb54f", "is_disabled": 0, "is_reserved": 0}, {"rental_uris": {"ios": "https://dc.lft.to/lastmile_qr_scan", "android": "https://dc.lft.to/lastmile_qr_scan"}, "lon": -76.98086533333333, "type": "electric_bike", "fusion_lat": 0.0, "lat": 38.9028875, "name": "d27a94e6e51ae78a5d9c1ef1073df7bd", "fusion_lon": 0.0, "bike_id": "d27a94e6e51ae78a5d9c1ef1073df7bd", "is_disabled": 0, "is_reserved": 0}, {"rental_uris": {"ios": "https://dc.lft.to/lastmile_qr_scan", "android": "https://dc.lft.to/lastmile_qr_scan"}, "lon": -76.93613166666667, "type": "electric_bike", "fusion_lat": 0.0, "lat": 38.9707375, "name": "6ce0e15166d853561d0f84f07fb3e97f", "fusion_lon": 0.0, "bike_id": "6ce0e15166d853561d0f84f07fb3e97f", "is_disabled": 0, "is_reserved": 0}, {"rental_uris": {"ios": "https://dc.lft.to/lastmile_qr_scan", "android": "https://dc.lft.to/lastmile_qr_scan"}, "lon": -77.02345633333333, "type": "electric_scooter", "fusion_lat": 0.0, "lat": 38.9338735, "name": "682ed000f35e2727c5c254712e6961ac", "fusion_lon": 0.0, "bike_id": "682ed000f35e2727c5c254712e6961ac", "is_disabled": 0, "is_reserved": 0}, {"rental_uris": {"ios": "https://dc.lft.to/lastmile_qr_scan", "android": "https://dc.lft.to/lastmile_qr_scan"}, "lon": -77.02709466666667, "type": "electric_scooter", "fusion_lat": 0.0, "lat": 38.881402, "name": "c08324ad3cb426d8753b212f06bd882e", "fusion_lon": 0.0, "bike_id": "c08324ad3cb426d8753b212f06bd882e", "is_disabled": 0, "is_reserved": 0}, {"rental_uris": {"ios": "https://dc.lft.to/lastmile_qr_scan", "android": "https://dc.lft.to/lastmile_qr_scan"}, "lon": -77.11921533333333, "type": "electric_bike", "fusion_lat": 0.0, "lat": 38.8410125, "name": "b39e3bf93e2e50e0ca81ae0456be5396", "fusion_lon": 0.0, "bike_id": "b39e3bf93e2e50e0ca81ae0456be5396", "is_disabled": 0, "is_reserved": 0}, {"rental_uris": {"ios": "https://dc.lft.to/lastmile_qr_scan", "android": "https://dc.lft.to/lastmile_qr_scan"}, "lon": -77.014337, "type": "electric_scooter", "fusion_lat": 0.0, "lat": 38.919628, "name": "91222f18d149c3a93c52920d293e2da4", "fusion_lon": 0.0, "bike_id": "91222f18d149c3a93c52920d293e2da4", "is_disabled": 0, "is_reserved": 0}, {"rental_uris": {"ios": "https://dc.lft.to/lastmile_qr_scan", "android": "https://dc.lft.to/lastmile_qr_scan"}, "lon": -77.02973716666666, "type": "electric_scooter", "fusion_lat": 0.0, "lat": 38.895647333333336, "name": "2118f151116a52ac72c015ea9ecd0f68", "fusion_lon": 0.0, "bike_id": "2118f151116a52ac72c015ea9ecd0f68", "is_disabled": 0, "is_reserved": 0}, {"rental_uris": {"ios": "https://dc.lft.to/lastmile_qr_scan", "android": "https://dc.lft.to/lastmile_qr_scan"}, "lon": -76.99001016666666, "type": "electric_scooter", "fusion_lat": 0.0, "lat": 38.86506416666667, "name": "b39c153926213e2cf79fa4d61c5d0244", "fusion_lon": 0.0, "bike_id": "b39c153926213e2cf79fa4d61c5d0244", "is_disabled": 0, "is_reserved": 0}, {"rental_uris": {"ios": "https://dc.lft.to/lastmile_qr_scan", "android": "https://dc.lft.to/lastmile_qr_scan"}, "lon": -77.032097, "type": "electric_scooter", "fusion_lat": 0.0, "lat": 38.912662166666664, "name": "6936c1ab9d2eeeefea6d2a66579c0889", "fusion_lon": 0.0, "bike_id": "6936c1ab9d2eeeefea6d2a66579c0889", "is_disabled": 0, "is_reserved": 0}, {"rental_uris": {"ios": "https://dc.lft.to/lastmile_qr_scan", "android": "https://dc.lft.to/lastmile_qr_scan"}, "lon": -77.00302433333333, "type": "electric_scooter", "fusion_lat": 0.0, "lat": 38.887722833333335, "name": "266c7266abe9b7abfbc3c516fe4c9727", "fusion_lon": 0.0, "bike_id": "266c7266abe9b7abfbc3c516fe4c9727", "is_disabled": 0, "is_reserved": 0}, {"rental_uris": {"ios": "https://dc.lft.to/lastmile_qr_scan", "android": "https://dc.lft.to/lastmile_qr_scan"}, "lon": -77.00738516666667, "type": "electric_scooter", "fusion_lat": 0.0, "lat": 38.95524566666667, "name": "5084d84d6b3cf099ff972b7f89cbaf97", "fusion_lon": 0.0, "bike_id": "5084d84d6b3cf099ff972b7f89cbaf97", "is_disabled": 0, "is_reserved": 0}, {"rental_uris": {"ios": "https://dc.lft.to/lastmile_qr_scan", "android": "https://dc.lft.to/lastmile_qr_scan"}, "lon": -77.04232716666667, "type": "electric_scooter", "fusion_lat": 0.0, "lat": 38.92154683333333, "name": "a9036388f10fa44541f96c23d2a3f138", "fusion_lon": 0.0, "bike_id": "a9036388f10fa44541f96c23d2a3f138", "is_disabled": 0, "is_reserved": 0}, {"rental_uris": {"ios": "https://dc.lft.to/lastmile_qr_scan", "android": "https://dc.lft.to/lastmile_qr_scan"}, "lon": -77.03988033333333, "type": "electric_scooter", "fusion_lat": 0.0, "lat": 38.90033433333333, "name": "8b033532305dce2beec616e3eba7df09", "fusion_lon": 0.0, "bike_id": "8b033532305dce2beec616e3eba7df09", "is_disabled": 0, "is_reserved": 0}, {"rental_uris": {"ios": "https://dc.lft.to/lastmile_qr_scan", "android": "https://dc.lft.to/lastmile_qr_scan"}, "lon": -76.99032, "type": "electric_scooter", "fusion_lat": 0.0, "lat": 38.85870583333333, "name": "0702e1e9a586dd61e959886fae134208", "fusion_lon": 0.0, "bike_id": "0702e1e9a586dd61e959886fae134208", "is_disabled": 0, "is_reserved": 0}, {"rental_uris": {"ios": "https://dc.lft.to/lastmile_qr_scan", "android": "https://dc.lft.to/lastmile_qr_scan"}, "lon": -77.06251316666666, "type": "electric_scooter", "fusion_lat": 0.0, "lat": 38.90683, "name": "aea505941b3eabcea1c1f4ce80b61357", "fusion_lon": 0.0, "bike_id": "aea505941b3eabcea1c1f4ce80b61357", "is_disabled": 0, "is_reserved": 0}, {"rental_uris": {"ios": "https://dc.lft.to/lastmile_qr_scan", "android": "https://dc.lft.to/lastmile_qr_scan"}, "lon": -77.037411, "type": "electric_scooter", "fusion_lat": 0.0, "lat": 38.91693766666667, "name": "7fcad70a4055329974e77bc32f354770", "fusion_lon": 0.0, "bike_id": "7fcad70a4055329974e77bc32f354770", "is_disabled": 0, "is_reserved": 0}, {"rental_uris": {"ios": "https://dc.lft.to/lastmile_qr_scan", "android": "https://dc.lft.to/lastmile_qr_scan"}, "lon": -77.06689266666666, "type": "electric_scooter", "fusion_lat": 0.0, "lat": 38.90975866666667, "name": "024569704b7ba798eeaf1997ca8d48ac", "fusion_lon": 0.0, "bike_id": "024569704b7ba798eeaf1997ca8d48ac", "is_disabled": 0, "is_reserved": 0}, {"rental_uris": {"ios": "https://dc.lft.to/lastmile_qr_scan", "android": "https://dc.lft.to/lastmile_qr_scan"}, "lon": -77.04380933333333, "type": "electric_scooter", "fusion_lat": 0.0, "lat": 38.92279683333334, "name": "6d42bfc66d119d7e828fec517a775663", "fusion_lon": 0.0, "bike_id": "6d42bfc66d119d7e828fec517a775663", "is_disabled": 0, "is_reserved": 0}, {"rental_uris": {"ios": "https://dc.lft.to/lastmile_qr_scan", "android": "https://dc.lft.to/lastmile_qr_scan"}, "lon": -77.00271366666666, "type": "electric_bike", "fusion_lat": 0.0, "lat": 38.91165083333333, "name": "e3d0f3b49a811143354c0c6c58f92b3a", "fusion_lon": 0.0, "bike_id": "e3d0f3b49a811143354c0c6c58f92b3a", "is_disabled": 0, "is_reserved": 0}, {"rental_uris": {"ios": "https://dc.lft.to/lastmile_qr_scan", "android": "https://dc.lft.to/lastmile_qr_scan"}, "lon": -77.04706333333333, "type": "electric_scooter", "fusion_lat": 0.0, "lat": 38.908607833333335, "name": "25e66d0330eef9443596c847685bff3f", "fusion_lon": 0.0, "bike_id": "25e66d0330eef9443596c847685bff3f", "is_disabled": 0, "is_reserved": 0}, {"rental_uris": {"ios": "https://dc.lft.to/lastmile_qr_scan", "android": "https://dc.lft.to/lastmile_qr_scan"}, "lon": -76.98170716666667, "type": "electric_scooter", "fusion_lat": 0.0, "lat": 38.8770115, "name": "ae1ce7175d2e48176016b4b17327f080", "fusion_lon": 0.0, "bike_id": "ae1ce7175d2e48176016b4b17327f080", "is_disabled": 0, "is_reserved": 0}, {"rental_uris": {"ios": "https://dc.lft.to/lastmile_qr_scan", "android": "https://dc.lft.to/lastmile_qr_scan"}, "lon": -77.040195, "type": "electric_scooter", "fusion_lat": 0.0, "lat": 38.91800383333333, "name": "cbb874cd638e558fb7cbb54591b2acc3", "fusion_lon": 0.0, "bike_id": "cbb874cd638e558fb7cbb54591b2acc3", "is_disabled": 0, "is_reserved": 0}, {"rental_uris": {"ios": "https://dc.lft.to/lastmile_qr_scan", "android": "https://dc.lft.to/lastmile_qr_scan"}, "lon": -77.01665466666667, "type": "electric_bike", "fusion_lat": 0.0, "lat": 38.881168833333334, "name": "70baafb9c0a86c024dc4981a368e0451", "fusion_lon": 0.0, "bike_id": "70baafb9c0a86c024dc4981a368e0451", "is_disabled": 0, "is_reserved": 0}, {"rental_uris": {"ios": "https://dc.lft.to/lastmile_qr_scan", "android": "https://dc.lft.to/lastmile_qr_scan"}, "lon": -77.02491616666667, "type": "electric_scooter", "fusion_lat": 0.0, "lat": 38.91981233333333, "name": "b5507e9ae8c702bb20cd00bd8ea38bfb", "fusion_lon": 0.0, "bike_id": "b5507e9ae8c702bb20cd00bd8ea38bfb", "is_disabled": 0, "is_reserved": 0}, {"rental_uris": {"ios": "https://dc.lft.to/lastmile_qr_scan", "android": "https://dc.lft.to/lastmile_qr_scan"}, "lon": -76.97609716666666, "type": "electric_bike", "fusion_lat": 0.0, "lat": 38.91312966666667, "name": "2787549c2b9428faa6c21339f7f6b5ce", "fusion_lon": 0.0, "bike_id": "2787549c2b9428faa6c21339f7f6b5ce", "is_disabled": 0, "is_reserved": 0}, {"rental_uris": {"ios": "https://dc.lft.to/lastmile_qr_scan", "android": "https://dc.lft.to/lastmile_qr_scan"}, "lon": -77.01754783333334, "type": "electric_scooter", "fusion_lat": 0.0, "lat": 38.938951833333334, "name": "6cd807daf8a602faa70d9124aed60a2e", "fusion_lon": 0.0, "bike_id": "6cd807daf8a602faa70d9124aed60a2e", "is_disabled": 0, "is_reserved": 0}, {"rental_uris": {"ios": "https://dc.lft.to/lastmile_qr_scan", "android": "https://dc.lft.to/lastmile_qr_scan"}, "lon": -76.98768666666666, "type": "electric_scooter", "fusion_lat": 0.0, "lat": 38.911728833333335, "name": "db8728992105ad466e82173adbd228c2", "fusion_lon": 0.0, "bike_id": "db8728992105ad466e82173adbd228c2", "is_disabled": 0, "is_reserved": 0}, {"rental_uris": {"ios": "https://dc.lft.to/lastmile_qr_scan", "android": "https://dc.lft.to/lastmile_qr_scan"}, "lon": -77.03166416666667, "type": "electric_scooter", "fusion_lat": 0.0, "lat": 38.89609816666667, "name": "275391fe4c3173be266681bead4ada7d", "fusion_lon": 0.0, "bike_id": "275391fe4c3173be266681bead4ada7d", "is_disabled": 0, "is_reserved": 0}, {"rental_uris": {"ios": "https://dc.lft.to/lastmile_qr_scan", "android": "https://dc.lft.to/lastmile_qr_scan"}, "lon": -77.06164983333333, "type": "electric_scooter", "fusion_lat": 0.0, "lat": 38.9422195, "name": "6b33fe4fe2812a31315c2acca3b0b58b", "fusion_lon": 0.0, "bike_id": "6b33fe4fe2812a31315c2acca3b0b58b", "is_disabled": 0, "is_reserved": 0}, {"rental_uris": {"ios": "https://dc.lft.to/lastmile_qr_scan", "android": "https://dc.lft.to/lastmile_qr_scan"}, "lon": -76.93808633333333, "type": "electric_scooter", "fusion_lat": 0.0, "lat": 38.9130535, "name": "db22e5aeeb73aa0664141f7c846321a5", "fusion_lon": 0.0, "bike_id": "db22e5aeeb73aa0664141f7c846321a5", "is_disabled": 0, "is_reserved": 0}, {"rental_uris": {"ios": "https://dc.lft.to/lastmile_qr_scan", "android": "https://dc.lft.to/lastmile_qr_scan"}, "lon": -77.03456516666667, "type": "electric_scooter", "fusion_lat": 0.0, "lat": 38.91667433333333, "name": "5656d6ef9db7e469f3e5a910c60e7d1e", "fusion_lon": 0.0, "bike_id": "5656d6ef9db7e469f3e5a910c60e7d1e", "is_disabled": 0, "is_reserved": 0}, {"rental_uris": {"ios": "https://dc.lft.to/lastmile_qr_scan", "android": "https://dc.lft.to/lastmile_qr_scan"}, "lon": -77.06656266666667, "type": "electric_scooter", "fusion_lat": 0.0, "lat": 38.94973733333333, "name": "fc0f7d875561de904d8ba15cb0c700ae", "fusion_lon": 0.0, "bike_id": "fc0f7d875561de904d8ba15cb0c700ae", "is_disabled": 0, "is_reserved": 0}, {"rental_uris": {"ios": "https://dc.lft.to/lastmile_qr_scan", "android": "https://dc.lft.to/lastmile_qr_scan"}, "lon": -77.043163, "type": "electric_scooter", "fusion_lat": 0.0, "lat": 38.89590616666667, "name": "b791afb69ed577f0d9c9504a9839ca70", "fusion_lon": 0.0, "bike_id": "b791afb69ed577f0d9c9504a9839ca70", "is_disabled": 0, "is_reserved": 0}, {"rental_uris": {"ios": "https://dc.lft.to/lastmile_qr_scan", "android": "https://dc.lft.to/lastmile_qr_scan"}, "lon": -77.048132, "type": "electric_scooter", "fusion_lat": 0.0, "lat": 38.896251, "name": "33386aca50248f9e855e13e836369210", "fusion_lon": 0.0, "bike_id": "33386aca50248f9e855e13e836369210", "is_disabled": 0, "is_reserved": 0}, {"rental_uris": {"ios": "https://dc.lft.to/lastmile_qr_scan", "android": "https://dc.lft.to/lastmile_qr_scan"}, "lon": -76.97886316666667, "type": "electric_scooter", "fusion_lat": 0.0, "lat": 38.91674183333333, "name": "849cbada8d90fdba2222dc3861745b2e", "fusion_lon": 0.0, "bike_id": "849cbada8d90fdba2222dc3861745b2e", "is_disabled": 0, "is_reserved": 0}, {"rental_uris": {"ios": "https://dc.lft.to/lastmile_qr_scan", "android": "https://dc.lft.to/lastmile_qr_scan"}, "lon": -77.0325385, "type": "electric_scooter", "fusion_lat": 0.0, "lat": 38.93738116666667, "name": "1b5b5df753f8d776d423ab9b9123fe3b", "fusion_lon": 0.0, "bike_id": "1b5b5df753f8d776d423ab9b9123fe3b", "is_disabled": 0, "is_reserved": 0}, {"rental_uris": {"ios": "https://dc.lft.to/lastmile_qr_scan", "android": "https://dc.lft.to/lastmile_qr_scan"}, "lon": -77.04039633333333, "type": "electric_scooter", "fusion_lat": 0.0, "lat": 38.92569366666667, "name": "a021c2956d2bae4d4f8f5fe996c97c74", "fusion_lon": 0.0, "bike_id": "a021c2956d2bae4d4f8f5fe996c97c74", "is_disabled": 0, "is_reserved": 0}, {"rental_uris": {"ios": "https://dc.lft.to/lastmile_qr_scan", "android": "https://dc.lft.to/lastmile_qr_scan"}, "lon": -77.02380016666666, "type": "electric_scooter", "fusion_lat": 0.0, "lat": 38.90671566666666, "name": "b4bfe15c84563568ca102f2802dcbe26", "fusion_lon": 0.0, "bike_id": "b4bfe15c84563568ca102f2802dcbe26", "is_disabled": 0, "is_reserved": 0}, {"rental_uris": {"ios": "https://dc.lft.to/lastmile_qr_scan", "android": "https://dc.lft.to/lastmile_qr_scan"}, "lon": -77.0492595, "type": "electric_scooter", "fusion_lat": 0.0, "lat": 38.89683333333333, "name": "46667302a78d44d22c69b7b583d087fc", "fusion_lon": 0.0, "bike_id": "46667302a78d44d22c69b7b583d087fc", "is_disabled": 0, "is_reserved": 0}, {"rental_uris": {"ios": "https://dc.lft.to/lastmile_qr_scan", "android": "https://dc.lft.to/lastmile_qr_scan"}, "lon": -77.1273845, "type": "electric_bike", "fusion_lat": 0.0, "lat": 38.88824533333333, "name": "d2290c956d67466fe2cee7ca2df28e7c", "fusion_lon": 0.0, "bike_id": "d2290c956d67466fe2cee7ca2df28e7c", "is_disabled": 0, "is_reserved": 0}, {"rental_uris": {"ios": "https://dc.lft.to/lastmile_qr_scan", "android": "https://dc.lft.to/lastmile_qr_scan"}, "lon": -77.02130183333334, "type": "electric_scooter", "fusion_lat": 0.0, "lat": 38.89716216666667, "name": "27ab2400ebb4efa5e33612d42a64a821", "fusion_lon": 0.0, "bike_id": "27ab2400ebb4efa5e33612d42a64a821", "is_disabled": 0, "is_reserved": 0}, {"rental_uris": {"ios": "https://dc.lft.to/lastmile_qr_scan", "android": "https://dc.lft.to/lastmile_qr_scan"}, "lon": -76.994587, "type": "electric_scooter", "fusion_lat": 0.0, "lat": 38.851630666666665, "name": "68d70f12f5b18e35a0ec8888ff706813", "fusion_lon": 0.0, "bike_id": "68d70f12f5b18e35a0ec8888ff706813", "is_disabled": 0, "is_reserved": 0}, {"rental_uris": {"ios": "https://dc.lft.to/lastmile_qr_scan", "android": "https://dc.lft.to/lastmile_qr_scan"}, "lon": -76.94820783333333, "type": "electric_scooter", "fusion_lat": 0.0, "lat": 38.8841, "name": "18c69387b884a84dfc3675fe66cb1649", "fusion_lon": 0.0, "bike_id": "18c69387b884a84dfc3675fe66cb1649", "is_disabled": 0, "is_reserved": 0}, {"rental_uris": {"ios": "https://dc.lft.to/lastmile_qr_scan", "android": "https://dc.lft.to/lastmile_qr_scan"}, "lon": -77.08047066666667, "type": "electric_bike", "fusion_lat": 0.0, "lat": 38.84843516666667, "name": "881b47219948e160c223d6ec64a3792f", "fusion_lon": 0.0, "bike_id": "881b47219948e160c223d6ec64a3792f", "is_disabled": 0, "is_reserved": 0}, {"rental_uris": {"ios": "https://dc.lft.to/lastmile_qr_scan", "android": "https://dc.lft.to/lastmile_qr_scan"}, "lon": -77.0356295, "type": "electric_scooter", "fusion_lat": 0.0, "lat": 38.93986366666667, "name": "e30f9f460249cd602f46f5d57f74fd2e", "fusion_lon": 0.0, "bike_id": "e30f9f460249cd602f46f5d57f74fd2e", "is_disabled": 0, "is_reserved": 0}, {"rental_uris": {"ios": "https://dc.lft.to/lastmile_qr_scan", "android": "https://dc.lft.to/lastmile_qr_scan"}, "lon": -77.02953266666667, "type": "electric_scooter", "fusion_lat": 0.0, "lat": 38.91725666666667, "name": "424379a84848ae888533b094d456742f", "fusion_lon": 0.0, "bike_id": "424379a84848ae888533b094d456742f", "is_disabled": 0, "is_reserved": 0}, {"rental_uris": {"ios": "https://dc.lft.to/lastmile_qr_scan", "android": "https://dc.lft.to/lastmile_qr_scan"}, "lon": -76.98746866666667, "type": "electric_scooter", "fusion_lat": 0.0, "lat": 38.91015133333333, "name": "71a1c5340c1890ce2068aa59c2db6d29", "fusion_lon": 0.0, "bike_id": "71a1c5340c1890ce2068aa59c2db6d29", "is_disabled": 0, "is_reserved": 0}, {"rental_uris": {"ios": "https://dc.lft.to/lastmile_qr_scan", "android": "https://dc.lft.to/lastmile_qr_scan"}, "lon": -76.93962616666667, "type": "electric_scooter", "fusion_lat": 0.0, "lat": 38.899682, "name": "a2dace417b43b98e7833d8da762f7070", "fusion_lon": 0.0, "bike_id": "a2dace417b43b98e7833d8da762f7070", "is_disabled": 0, "is_reserved": 0}, {"rental_uris": {"ios": "https://dc.lft.to/lastmile_qr_scan", "android": "https://dc.lft.to/lastmile_qr_scan"}, "lon": -76.95677316666666, "type": "electric_bike", "fusion_lat": 0.0, "lat": 38.94729933333333, "name": "09f9ecb0f5bcdd6965210b00a2720d07", "fusion_lon": 0.0, "bike_id": "09f9ecb0f5bcdd6965210b00a2720d07", "is_disabled": 0, "is_reserved": 0}, {"rental_uris": {"ios": "https://dc.lft.to/lastmile_qr_scan", "android": "https://dc.lft.to/lastmile_qr_scan"}, "lon": -76.97412183333333, "type": "electric_scooter", "fusion_lat": 0.0, "lat": 38.9024115, "name": "d3d4eb34838a263fbcc5d53b3dbfe822", "fusion_lon": 0.0, "bike_id": "d3d4eb34838a263fbcc5d53b3dbfe822", "is_disabled": 0, "is_reserved": 0}, {"rental_uris": {"ios": "https://dc.lft.to/lastmile_qr_scan", "android": "https://dc.lft.to/lastmile_qr_scan"}, "lon": -76.98605583333334, "type": "electric_scooter", "fusion_lat": 0.0, "lat": 38.8783815, "name": "3eabb58899cef198ba97194a7b71c1f7", "fusion_lon": 0.0, "bike_id": "3eabb58899cef198ba97194a7b71c1f7", "is_disabled": 0, "is_reserved": 0}, {"rental_uris": {"ios": "https://dc.lft.to/lastmile_qr_scan", "android": "https://dc.lft.to/lastmile_qr_scan"}, "lon": -77.03403816666666, "type": "electric_scooter", "fusion_lat": 0.0, "lat": 38.92430733333333, "name": "6c12512b28e16010f9b5a030f1fe5464", "fusion_lon": 0.0, "bike_id": "6c12512b28e16010f9b5a030f1fe5464", "is_disabled": 0, "is_reserved": 0}, {"rental_uris": {"ios": "https://dc.lft.to/lastmile_qr_scan", "android": "https://dc.lft.to/lastmile_qr_scan"}, "lon": -77.0599185, "type": "electric_scooter", "fusion_lat": 0.0, "lat": 38.905165833333335, "name": "b3a57b8f1c5e45601227a44816b85baa", "fusion_lon": 0.0, "bike_id": "b3a57b8f1c5e45601227a44816b85baa", "is_disabled": 0, "is_reserved": 0}, {"rental_uris": {"ios": "https://dc.lft.to/lastmile_qr_scan", "android": "https://dc.lft.to/lastmile_qr_scan"}, "lon": -77.03950883333333, "type": "electric_scooter", "fusion_lat": 0.0, "lat": 38.90126766666667, "name": "070b0ab87e60ca0f208caf32f6142bf3", "fusion_lon": 0.0, "bike_id": "070b0ab87e60ca0f208caf32f6142bf3", "is_disabled": 0, "is_reserved": 0}, {"rental_uris": {"ios": "https://dc.lft.to/lastmile_qr_scan", "android": "https://dc.lft.to/lastmile_qr_scan"}, "lon": -76.99519533333333, "type": "electric_scooter", "fusion_lat": 0.0, "lat": 38.86263666666667, "name": "0d7d68d514de92db08604b5541a704e1", "fusion_lon": 0.0, "bike_id": "0d7d68d514de92db08604b5541a704e1", "is_disabled": 0, "is_reserved": 0}, {"rental_uris": {"ios": "https://dc.lft.to/lastmile_qr_scan", "android": "https://dc.lft.to/lastmile_qr_scan"}, "lon": -76.93881533333334, "type": "electric_scooter", "fusion_lat": 0.0, "lat": 38.891029, "name": "4861f5155c411097d7d0d7e0550e530e", "fusion_lon": 0.0, "bike_id": "4861f5155c411097d7d0d7e0550e530e", "is_disabled": 0, "is_reserved": 0}, {"rental_uris": {"ios": "https://dc.lft.to/lastmile_qr_scan", "android": "https://dc.lft.to/lastmile_qr_scan"}, "lon": -77.04860683333334, "type": "electric_scooter", "fusion_lat": 0.0, "lat": 38.89226333333333, "name": "408508c37078db2b8a56527f2f28b073", "fusion_lon": 0.0, "bike_id": "408508c37078db2b8a56527f2f28b073", "is_disabled": 0, "is_reserved": 0}, {"rental_uris": {"ios": "https://dc.lft.to/lastmile_qr_scan", "android": "https://dc.lft.to/lastmile_qr_scan"}, "lon": -76.92874466666666, "type": "electric_scooter", "fusion_lat": 0.0, "lat": 38.884411666666665, "name": "e05e29f21e54b7157b41290dd6bcc90a", "fusion_lon": 0.0, "bike_id": "e05e29f21e54b7157b41290dd6bcc90a", "is_disabled": 0, "is_reserved": 0}, {"rental_uris": {"ios": "https://dc.lft.to/lastmile_qr_scan", "android": "https://dc.lft.to/lastmile_qr_scan"}, "lon": -77.05542566666666, "type": "electric_scooter", "fusion_lat": 0.0, "lat": 38.9253165, "name": "2826f405a601a21dc6d0adee903911e2", "fusion_lon": 0.0, "bike_id": "2826f405a601a21dc6d0adee903911e2", "is_disabled": 0, "is_reserved": 0}, {"rental_uris": {"ios": "https://dc.lft.to/lastmile_qr_scan", "android": "https://dc.lft.to/lastmile_qr_scan"}, "lon": -76.95753866666666, "type": "electric_scooter", "fusion_lat": 0.0, "lat": 38.884289, "name": "ed3cec1395f0104e63888238a1d3ac90", "fusion_lon": 0.0, "bike_id": "ed3cec1395f0104e63888238a1d3ac90", "is_disabled": 0, "is_reserved": 0}, {"rental_uris": {"ios": "https://dc.lft.to/lastmile_qr_scan", "android": "https://dc.lft.to/lastmile_qr_scan"}, "lon": -76.99903116666667, "type": "electric_scooter", "fusion_lat": 0.0, "lat": 38.909446333333335, "name": "a0d6a5c0518505f66b25d3a50534c3b2", "fusion_lon": 0.0, "bike_id": "a0d6a5c0518505f66b25d3a50534c3b2", "is_disabled": 0, "is_reserved": 0}, {"rental_uris": {"ios": "https://dc.lft.to/lastmile_qr_scan", "android": "https://dc.lft.to/lastmile_qr_scan"}, "lon": -77.03464333333334, "type": "electric_scooter", "fusion_lat": 0.0, "lat": 38.90859483333333, "name": "9acc5e6376ba380f16d9e5c310e597cd", "fusion_lon": 0.0, "bike_id": "9acc5e6376ba380f16d9e5c310e597cd", "is_disabled": 0, "is_reserved": 0}, {"rental_uris": {"ios": "https://dc.lft.to/lastmile_qr_scan", "android": "https://dc.lft.to/lastmile_qr_scan"}, "lon": -77.031783, "type": "electric_scooter", "fusion_lat": 0.0, "lat": 38.913279833333334, "name": "58b79dc877bdfcd1695e00dafe793c89", "fusion_lon": 0.0, "bike_id": "58b79dc877bdfcd1695e00dafe793c89", "is_disabled": 0, "is_reserved": 0}, {"rental_uris": {"ios": "https://dc.lft.to/lastmile_qr_scan", "android": "https://dc.lft.to/lastmile_qr_scan"}, "lon": -77.03778783333334, "type": "electric_scooter", "fusion_lat": 0.0, "lat": 38.90564083333334, "name": "1a447d1e723991b81f108f7b4b631a5c", "fusion_lon": 0.0, "bike_id": "1a447d1e723991b81f108f7b4b631a5c", "is_disabled": 0, "is_reserved": 0}, {"rental_uris": {"ios": "https://dc.lft.to/lastmile_qr_scan", "android": "https://dc.lft.to/lastmile_qr_scan"}, "lon": -77.02387183333333, "type": "electric_scooter", "fusion_lat": 0.0, "lat": 38.905888833333336, "name": "3edf1ebbb5eaf061e8be5c3953aaa0d5", "fusion_lon": 0.0, "bike_id": "3edf1ebbb5eaf061e8be5c3953aaa0d5", "is_disabled": 0, "is_reserved": 0}, {"rental_uris": {"ios": "https://dc.lft.to/lastmile_qr_scan", "android": "https://dc.lft.to/lastmile_qr_scan"}, "lon": -77.03193533333334, "type": "electric_scooter", "fusion_lat": 0.0, "lat": 38.9148865, "name": "e13bde5b40adf892b3c1e9e478e2ddb7", "fusion_lon": 0.0, "bike_id": "e13bde5b40adf892b3c1e9e478e2ddb7", "is_disabled": 0, "is_reserved": 0}, {"rental_uris": {"ios": "https://dc.lft.to/lastmile_qr_scan", "android": "https://dc.lft.to/lastmile_qr_scan"}, "lon": -77.011994, "type": "electric_scooter", "fusion_lat": 0.0, "lat": 38.915608, "name": "d29d22d0f052528864634df44e3c0b59", "fusion_lon": 0.0, "bike_id": "d29d22d0f052528864634df44e3c0b59", "is_disabled": 0, "is_reserved": 0}, {"rental_uris": {"ios": "https://dc.lft.to/lastmile_qr_scan", "android": "https://dc.lft.to/lastmile_qr_scan"}, "lon": -77.057398, "type": "electric_scooter", "fusion_lat": 0.0, "lat": 38.9339975, "name": "31a5babcb07b2c9b3f7cd7f76e828532", "fusion_lon": 0.0, "bike_id": "31a5babcb07b2c9b3f7cd7f76e828532", "is_disabled": 0, "is_reserved": 0}, {"rental_uris": {"ios": "https://dc.lft.to/lastmile_qr_scan", "android": "https://dc.lft.to/lastmile_qr_scan"}, "lon": -77.11522166666667, "type": "electric_bike", "fusion_lat": 0.0, "lat": 38.85491716666667, "name": "a3b5f1bc8cf6246744f276f80ec4dc08", "fusion_lon": 0.0, "bike_id": "a3b5f1bc8cf6246744f276f80ec4dc08", "is_disabled": 0, "is_reserved": 0}, {"rental_uris": {"ios": "https://dc.lft.to/lastmile_qr_scan", "android": "https://dc.lft.to/lastmile_qr_scan"}, "lon": -77.04799233333334, "type": "electric_scooter", "fusion_lat": 0.0, "lat": 38.91636166666667, "name": "26edba172ccba74eeeedb9c73e680a8b", "fusion_lon": 0.0, "bike_id": "26edba172ccba74eeeedb9c73e680a8b", "is_disabled": 0, "is_reserved": 0}, {"rental_uris": {"ios": "https://dc.lft.to/lastmile_qr_scan", "android": "https://dc.lft.to/lastmile_qr_scan"}, "lon": -77.03847716666667, "type": "electric_scooter", "fusion_lat": 0.0, "lat": 38.90471983333333, "name": "2ab21fc69c8b1c127829997c20762bbe", "fusion_lon": 0.0, "bike_id": "2ab21fc69c8b1c127829997c20762bbe", "is_disabled": 0, "is_reserved": 0}, {"rental_uris": {"ios": "https://dc.lft.to/lastmile_qr_scan", "android": "https://dc.lft.to/lastmile_qr_scan"}, "lon": -76.99373166666666, "type": "electric_scooter", "fusion_lat": 0.0, "lat": 38.89743966666666, "name": "54d63b9156bb34618e670dd4c5a3111e", "fusion_lon": 0.0, "bike_id": "54d63b9156bb34618e670dd4c5a3111e", "is_disabled": 0, "is_reserved": 0}, {"rental_uris": {"ios": "https://dc.lft.to/lastmile_qr_scan", "android": "https://dc.lft.to/lastmile_qr_scan"}, "lon": -77.05438483333333, "type": "electric_scooter", "fusion_lat": 0.0, "lat": 38.89608883333333, "name": "70c9f690b5cb7f4db02476e9376e49e0", "fusion_lon": 0.0, "bike_id": "70c9f690b5cb7f4db02476e9376e49e0", "is_disabled": 0, "is_reserved": 0}, {"rental_uris": {"ios": "https://dc.lft.to/lastmile_qr_scan", "android": "https://dc.lft.to/lastmile_qr_scan"}, "lon": -77.0323095, "type": "electric_scooter", "fusion_lat": 0.0, "lat": 38.91405783333333, "name": "3d9877909f31ee23165348cd269f1ec7", "fusion_lon": 0.0, "bike_id": "3d9877909f31ee23165348cd269f1ec7", "is_disabled": 0, "is_reserved": 0}, {"rental_uris": {"ios": "https://dc.lft.to/lastmile_qr_scan", "android": "https://dc.lft.to/lastmile_qr_scan"}, "lon": -77.04412533333333, "type": "electric_scooter", "fusion_lat": 0.0, "lat": 38.905807333333335, "name": "4a59aad27c2e80a2587045fafea1a5c2", "fusion_lon": 0.0, "bike_id": "4a59aad27c2e80a2587045fafea1a5c2", "is_disabled": 0, "is_reserved": 0}, {"rental_uris": {"ios": "https://dc.lft.to/lastmile_qr_scan", "android": "https://dc.lft.to/lastmile_qr_scan"}, "lon": -77.01109083333333, "type": "electric_scooter", "fusion_lat": 0.0, "lat": 38.900150333333336, "name": "b54fd42e8ed423ed47c50a874ee5294b", "fusion_lon": 0.0, "bike_id": "b54fd42e8ed423ed47c50a874ee5294b", "is_disabled": 0, "is_reserved": 0}, {"rental_uris": {"ios": "https://dc.lft.to/lastmile_qr_scan", "android": "https://dc.lft.to/lastmile_qr_scan"}, "lon": -77.01650866666667, "type": "electric_scooter", "fusion_lat": 0.0, "lat": 38.953298833333335, "name": "23be59eb5361b3d5bdf4069644e76a52", "fusion_lon": 0.0, "bike_id": "23be59eb5361b3d5bdf4069644e76a52", "is_disabled": 0, "is_reserved": 0}, {"rental_uris": {"ios": "https://dc.lft.to/lastmile_qr_scan", "android": "https://dc.lft.to/lastmile_qr_scan"}, "lon": -76.98255316666666, "type": "electric_scooter", "fusion_lat": 0.0, "lat": 38.86352633333333, "name": "38d0d03fce4a35c3fa3d9968d0b7c86e", "fusion_lon": 0.0, "bike_id": "38d0d03fce4a35c3fa3d9968d0b7c86e", "is_disabled": 0, "is_reserved": 0}, {"rental_uris": {"ios": "https://dc.lft.to/lastmile_qr_scan", "android": "https://dc.lft.to/lastmile_qr_scan"}, "lon": -77.04792583333334, "type": "electric_scooter", "fusion_lat": 0.0, "lat": 38.893705833333335, "name": "172b707e93b16c8a1eae9fbd51734b92", "fusion_lon": 0.0, "bike_id": "172b707e93b16c8a1eae9fbd51734b92", "is_disabled": 0, "is_reserved": 0}, {"rental_uris": {"ios": "https://dc.lft.to/lastmile_qr_scan", "android": "https://dc.lft.to/lastmile_qr_scan"}, "lon": -77.027018, "type": "electric_scooter", "fusion_lat": 0.0, "lat": 38.9196085, "name": "c92bb0b951d5da99375ea099c062ba3d", "fusion_lon": 0.0, "bike_id": "c92bb0b951d5da99375ea099c062ba3d", "is_disabled": 0, "is_reserved": 0}, {"rental_uris": {"ios": "https://dc.lft.to/lastmile_qr_scan", "android": "https://dc.lft.to/lastmile_qr_scan"}, "lon": -77.01338716666666, "type": "electric_scooter", "fusion_lat": 0.0, "lat": 38.9273365, "name": "5b4a085e38ccc7c1c9137e3701c71ed1", "fusion_lon": 0.0, "bike_id": "5b4a085e38ccc7c1c9137e3701c71ed1", "is_disabled": 0, "is_reserved": 0}, {"rental_uris": {"ios": "https://dc.lft.to/lastmile_qr_scan", "android": "https://dc.lft.to/lastmile_qr_scan"}, "lon": -77.06981133333333, "type": "electric_bike", "fusion_lat": 0.0, "lat": 38.95273066666667, "name": "24d9dc470862867956723c80121600c5", "fusion_lon": 0.0, "bike_id": "24d9dc470862867956723c80121600c5", "is_disabled": 0, "is_reserved": 0}, {"rental_uris": {"ios": "https://dc.lft.to/lastmile_qr_scan", "android": "https://dc.lft.to/lastmile_qr_scan"}, "lon": -77.05899316666667, "type": "electric_scooter", "fusion_lat": 0.0, "lat": 38.900793666666665, "name": "f8f74e00392d5bdb092006b209539dbc", "fusion_lon": 0.0, "bike_id": "f8f74e00392d5bdb092006b209539dbc", "is_disabled": 0, "is_reserved": 0}, {"rental_uris": {"ios": "https://dc.lft.to/lastmile_qr_scan", "android": "https://dc.lft.to/lastmile_qr_scan"}, "lon": -77.055189, "type": "electric_scooter", "fusion_lat": 0.0, "lat": 38.928366, "name": "a614c0ca5895d3ae860fbd8511a36783", "fusion_lon": 0.0, "bike_id": "a614c0ca5895d3ae860fbd8511a36783", "is_disabled": 0, "is_reserved": 0}, {"rental_uris": {"ios": "https://dc.lft.to/lastmile_qr_scan", "android": "https://dc.lft.to/lastmile_qr_scan"}, "lon": -77.01618733333333, "type": "electric_scooter", "fusion_lat": 0.0, "lat": 38.906585666666665, "name": "83138c9d8768319a6d14b103c12558f7", "fusion_lon": 0.0, "bike_id": "83138c9d8768319a6d14b103c12558f7", "is_disabled": 0, "is_reserved": 0}, {"rental_uris": {"ios": "https://dc.lft.to/lastmile_qr_scan", "android": "https://dc.lft.to/lastmile_qr_scan"}, "lon": -77.07167183333334, "type": "electric_scooter", "fusion_lat": 0.0, "lat": 38.914516666666664, "name": "a2e88428f1ed7b6e7e7700310dc7b9a5", "fusion_lon": 0.0, "bike_id": "a2e88428f1ed7b6e7e7700310dc7b9a5", "is_disabled": 0, "is_reserved": 0}, {"rental_uris": {"ios": "https://dc.lft.to/lastmile_qr_scan", "android": "https://dc.lft.to/lastmile_qr_scan"}, "lon": -77.03262816666667, "type": "electric_scooter", "fusion_lat": 0.0, "lat": 38.9345065, "name": "4dbfad146409dcd7e72c9440ca20d67d", "fusion_lon": 0.0, "bike_id": "4dbfad146409dcd7e72c9440ca20d67d", "is_disabled": 0, "is_reserved": 0}, {"rental_uris": {"ios": "https://dc.lft.to/lastmile_qr_scan", "android": "https://dc.lft.to/lastmile_qr_scan"}, "lon": -77.04490133333333, "type": "electric_scooter", "fusion_lat": 0.0, "lat": 38.91162966666667, "name": "c2b2b4685c425787e3818c1032fa815f", "fusion_lon": 0.0, "bike_id": "c2b2b4685c425787e3818c1032fa815f", "is_disabled": 0, "is_reserved": 0}, {"rental_uris": {"ios": "https://dc.lft.to/lastmile_qr_scan", "android": "https://dc.lft.to/lastmile_qr_scan"}, "lon": -77.03492166666666, "type": "electric_bike", "fusion_lat": 0.0, "lat": 38.9562725, "name": "9cfc0b38f5269816f65e9fe20ad43293", "fusion_lon": 0.0, "bike_id": "9cfc0b38f5269816f65e9fe20ad43293", "is_disabled": 0, "is_reserved": 0}, {"rental_uris": {"ios": "https://dc.lft.to/lastmile_qr_scan", "android": "https://dc.lft.to/lastmile_qr_scan"}, "lon": -77.04430883333333, "type": "electric_scooter", "fusion_lat": 0.0, "lat": 38.905721166666666, "name": "ab5fed284e0ce2b3a7678eb08fd5ebc6", "fusion_lon": 0.0, "bike_id": "ab5fed284e0ce2b3a7678eb08fd5ebc6", "is_disabled": 0, "is_reserved": 0}, {"rental_uris": {"ios": "https://dc.lft.to/lastmile_qr_scan", "android": "https://dc.lft.to/lastmile_qr_scan"}, "lon": -77.02331783333334, "type": "electric_scooter", "fusion_lat": 0.0, "lat": 38.88480966666667, "name": "e3c3f84ac9e27c13811683dbd17b1b63", "fusion_lon": 0.0, "bike_id": "e3c3f84ac9e27c13811683dbd17b1b63", "is_disabled": 0, "is_reserved": 0}, {"rental_uris": {"ios": "https://dc.lft.to/lastmile_qr_scan", "android": "https://dc.lft.to/lastmile_qr_scan"}, "lon": -77.00602016666667, "type": "electric_scooter", "fusion_lat": 0.0, "lat": 38.90562083333333, "name": "b31ae08b37a86860a6568ecb0b0853a6", "fusion_lon": 0.0, "bike_id": "b31ae08b37a86860a6568ecb0b0853a6", "is_disabled": 0, "is_reserved": 0}, {"rental_uris": {"ios": "https://dc.lft.to/lastmile_qr_scan", "android": "https://dc.lft.to/lastmile_qr_scan"}, "lon": -77.017119, "type": "electric_scooter", "fusion_lat": 0.0, "lat": 38.902276666666666, "name": "de9dd34eb354fd1779ccc66bd79f3986", "fusion_lon": 0.0, "bike_id": "de9dd34eb354fd1779ccc66bd79f3986", "is_disabled": 0, "is_reserved": 0}, {"rental_uris": {"ios": "https://dc.lft.to/lastmile_qr_scan", "android": "https://dc.lft.to/lastmile_qr_scan"}, "lon": -77.03196783333334, "type": "electric_scooter", "fusion_lat": 0.0, "lat": 38.917924166666666, "name": "2ad4b281e28b7680522f25d51cc82aa1", "fusion_lon": 0.0, "bike_id": "2ad4b281e28b7680522f25d51cc82aa1", "is_disabled": 0, "is_reserved": 0}, {"rental_uris": {"ios": "https://dc.lft.to/lastmile_qr_scan", "android": "https://dc.lft.to/lastmile_qr_scan"}, "lon": -77.06410566666666, "type": "electric_scooter", "fusion_lat": 0.0, "lat": 38.9090835, "name": "fd855028404a821be31a6619e641e184", "fusion_lon": 0.0, "bike_id": "fd855028404a821be31a6619e641e184", "is_disabled": 0, "is_reserved": 0}, {"rental_uris": {"ios": "https://dc.lft.to/lastmile_qr_scan", "android": "https://dc.lft.to/lastmile_qr_scan"}, "lon": -77.005042, "type": "electric_scooter", "fusion_lat": 0.0, "lat": 38.89591883333333, "name": "d93fc11a4b0c2d4429a2fdaf27fafdce", "fusion_lon": 0.0, "bike_id": "d93fc11a4b0c2d4429a2fdaf27fafdce", "is_disabled": 0, "is_reserved": 0}, {"rental_uris": {"ios": "https://dc.lft.to/lastmile_qr_scan", "android": "https://dc.lft.to/lastmile_qr_scan"}, "lon": -77.072693, "type": "electric_scooter", "fusion_lat": 0.0, "lat": 38.934806, "name": "5551b40316a556168d0ffe4014ebda09", "fusion_lon": 0.0, "bike_id": "5551b40316a556168d0ffe4014ebda09", "is_disabled": 0, "is_reserved": 0}, {"rental_uris": {"ios": "https://dc.lft.to/lastmile_qr_scan", "android": "https://dc.lft.to/lastmile_qr_scan"}, "lon": -77.01379233333333, "type": "electric_scooter", "fusion_lat": 0.0, "lat": 38.9195255, "name": "7503f0234f62af813c11a98aeb959fb3", "fusion_lon": 0.0, "bike_id": "7503f0234f62af813c11a98aeb959fb3", "is_disabled": 0, "is_reserved": 0}, {"rental_uris": {"ios": "https://dc.lft.to/lastmile_qr_scan", "android": "https://dc.lft.to/lastmile_qr_scan"}, "lon": -77.0803065, "type": "electric_scooter", "fusion_lat": 0.0, "lat": 38.95045916666667, "name": "59cab71653d4c00bacd660143b3a807b", "fusion_lon": 0.0, "bike_id": "59cab71653d4c00bacd660143b3a807b", "is_disabled": 0, "is_reserved": 0}, {"rental_uris": {"ios": "https://dc.lft.to/lastmile_qr_scan", "android": "https://dc.lft.to/lastmile_qr_scan"}, "lon": -77.01189283333333, "type": "electric_scooter", "fusion_lat": 0.0, "lat": 38.900213, "name": "1468ab8633bb8a81be31a2ce9b7c37b7", "fusion_lon": 0.0, "bike_id": "1468ab8633bb8a81be31a2ce9b7c37b7", "is_disabled": 0, "is_reserved": 0}, {"rental_uris": {"ios": "https://dc.lft.to/lastmile_qr_scan", "android": "https://dc.lft.to/lastmile_qr_scan"}, "lon": -77.0465345, "type": "electric_scooter", "fusion_lat": 0.0, "lat": 38.912751, "name": "a7a7f6a0232335182de004a2f909cfda", "fusion_lon": 0.0, "bike_id": "a7a7f6a0232335182de004a2f909cfda", "is_disabled": 0, "is_reserved": 0}, {"rental_uris": {"ios": "https://dc.lft.to/lastmile_qr_scan", "android": "https://dc.lft.to/lastmile_qr_scan"}, "lon": -77.00519216666666, "type": "electric_scooter", "fusion_lat": 0.0, "lat": 38.9290345, "name": "0beea828953b4df86cfad7a394750e9e", "fusion_lon": 0.0, "bike_id": "0beea828953b4df86cfad7a394750e9e", "is_disabled": 0, "is_reserved": 0}, {"rental_uris": {"ios": "https://dc.lft.to/lastmile_qr_scan", "android": "https://dc.lft.to/lastmile_qr_scan"}, "lon": -77.04173066666667, "type": "electric_scooter", "fusion_lat": 0.0, "lat": 38.91981366666667, "name": "6b856fe77928007d88104864636f11a0", "fusion_lon": 0.0, "bike_id": "6b856fe77928007d88104864636f11a0", "is_disabled": 0, "is_reserved": 0}, {"rental_uris": {"ios": "https://dc.lft.to/lastmile_qr_scan", "android": "https://dc.lft.to/lastmile_qr_scan"}, "lon": -77.04027133333334, "type": "electric_scooter", "fusion_lat": 0.0, "lat": 38.92445766666667, "name": "78864a3ed964ac7da4b4ca4ea3cfa6ef", "fusion_lon": 0.0, "bike_id": "78864a3ed964ac7da4b4ca4ea3cfa6ef", "is_disabled": 0, "is_reserved": 0}, {"rental_uris": {"ios": "https://dc.lft.to/lastmile_qr_scan", "android": "https://dc.lft.to/lastmile_qr_scan"}, "lon": -77.05635533333333, "type": "electric_scooter", "fusion_lat": 0.0, "lat": 38.927557666666665, "name": "84a9a53cbcadc6a9ccb35b3fa397a022", "fusion_lon": 0.0, "bike_id": "84a9a53cbcadc6a9ccb35b3fa397a022", "is_disabled": 0, "is_reserved": 0}, {"rental_uris": {"ios": "https://dc.lft.to/lastmile_qr_scan", "android": "https://dc.lft.to/lastmile_qr_scan"}, "lon": -77.04681483333333, "type": "electric_scooter", "fusion_lat": 0.0, "lat": 38.90521483333333, "name": "fdff671229cb00e07de9cc22afa54638", "fusion_lon": 0.0, "bike_id": "fdff671229cb00e07de9cc22afa54638", "is_disabled": 0, "is_reserved": 0}, {"rental_uris": {"ios": "https://dc.lft.to/lastmile_qr_scan", "android": "https://dc.lft.to/lastmile_qr_scan"}, "lon": -76.987126, "type": "electric_scooter", "fusion_lat": 0.0, "lat": 38.862602833333334, "name": "bf1cc81e5d952c1f419c15d8709b82f6", "fusion_lon": 0.0, "bike_id": "bf1cc81e5d952c1f419c15d8709b82f6", "is_disabled": 0, "is_reserved": 0}, {"rental_uris": {"ios": "https://dc.lft.to/lastmile_qr_scan", "android": "https://dc.lft.to/lastmile_qr_scan"}, "lon": -76.9473855, "type": "electric_scooter", "fusion_lat": 0.0, "lat": 38.89712133333333, "name": "6a9d63704620e958c0137336c0aeb174", "fusion_lon": 0.0, "bike_id": "6a9d63704620e958c0137336c0aeb174", "is_disabled": 0, "is_reserved": 0}, {"rental_uris": {"ios": "https://dc.lft.to/lastmile_qr_scan", "android": "https://dc.lft.to/lastmile_qr_scan"}, "lon": -77.0465235, "type": "electric_scooter", "fusion_lat": 0.0, "lat": 38.91915733333333, "name": "491dca9b2e25c1bb0e544af00053ffb2", "fusion_lon": 0.0, "bike_id": "491dca9b2e25c1bb0e544af00053ffb2", "is_disabled": 0, "is_reserved": 0}, {"rental_uris": {"ios": "https://dc.lft.to/lastmile_qr_scan", "android": "https://dc.lft.to/lastmile_qr_scan"}, "lon": -77.05473966666666, "type": "electric_scooter", "fusion_lat": 0.0, "lat": 38.92098516666667, "name": "d1d44b87493b67b10882a955d5280396", "fusion_lon": 0.0, "bike_id": "d1d44b87493b67b10882a955d5280396", "is_disabled": 0, "is_reserved": 0}, {"rental_uris": {"ios": "https://dc.lft.to/lastmile_qr_scan", "android": "https://dc.lft.to/lastmile_qr_scan"}, "lon": -77.02018883333334, "type": "electric_scooter", "fusion_lat": 0.0, "lat": 38.949795, "name": "97cf118d60b10ccf640cfc92b61be9b6", "fusion_lon": 0.0, "bike_id": "97cf118d60b10ccf640cfc92b61be9b6", "is_disabled": 0, "is_reserved": 0}, {"rental_uris": {"ios": "https://dc.lft.to/lastmile_qr_scan", "android": "https://dc.lft.to/lastmile_qr_scan"}, "lon": -76.94176616666667, "type": "electric_scooter", "fusion_lat": 0.0, "lat": 38.882243333333335, "name": "fa87551fa440e3f93bca328f0cf94c74", "fusion_lon": 0.0, "bike_id": "fa87551fa440e3f93bca328f0cf94c74", "is_disabled": 0, "is_reserved": 0}, {"rental_uris": {"ios": "https://dc.lft.to/lastmile_qr_scan", "android": "https://dc.lft.to/lastmile_qr_scan"}, "lon": -77.06109083333334, "type": "electric_scooter", "fusion_lat": 0.0, "lat": 38.91283116666666, "name": "c7da6335245c1076402c9bcf3fcd0321", "fusion_lon": 0.0, "bike_id": "c7da6335245c1076402c9bcf3fcd0321", "is_disabled": 0, "is_reserved": 0}, {"rental_uris": {"ios": "https://dc.lft.to/lastmile_qr_scan", "android": "https://dc.lft.to/lastmile_qr_scan"}, "lon": -77.03319583333334, "type": "electric_scooter", "fusion_lat": 0.0, "lat": 38.8901285, "name": "5de6e387351cf63d4874c472a60818d5", "fusion_lon": 0.0, "bike_id": "5de6e387351cf63d4874c472a60818d5", "is_disabled": 0, "is_reserved": 0}, {"rental_uris": {"ios": "https://dc.lft.to/lastmile_qr_scan", "android": "https://dc.lft.to/lastmile_qr_scan"}, "lon": -76.988281, "type": "electric_scooter", "fusion_lat": 0.0, "lat": 38.894737666666664, "name": "b649c4b326c0fcb185c578b10787ea70", "fusion_lon": 0.0, "bike_id": "b649c4b326c0fcb185c578b10787ea70", "is_disabled": 0, "is_reserved": 0}, {"rental_uris": {"ios": "https://dc.lft.to/lastmile_qr_scan", "android": "https://dc.lft.to/lastmile_qr_scan"}, "lon": -77.03217333333333, "type": "electric_scooter", "fusion_lat": 0.0, "lat": 38.9176105, "name": "1e238ddba75376e91ac5125a565fdcac", "fusion_lon": 0.0, "bike_id": "1e238ddba75376e91ac5125a565fdcac", "is_disabled": 0, "is_reserved": 0}, {"rental_uris": {"ios": "https://dc.lft.to/lastmile_qr_scan", "android": "https://dc.lft.to/lastmile_qr_scan"}, "lon": -77.017027, "type": "electric_scooter", "fusion_lat": 0.0, "lat": 38.9203865, "name": "d523f91de0f6c432069b88eb83601a65", "fusion_lon": 0.0, "bike_id": "d523f91de0f6c432069b88eb83601a65", "is_disabled": 0, "is_reserved": 0}, {"rental_uris": {"ios": "https://dc.lft.to/lastmile_qr_scan", "android": "https://dc.lft.to/lastmile_qr_scan"}, "lon": -77.03127833333333, "type": "electric_scooter", "fusion_lat": 0.0, "lat": 38.923762833333335, "name": "8f996e478e0aae7db6f3d827369d9fb8", "fusion_lon": 0.0, "bike_id": "8f996e478e0aae7db6f3d827369d9fb8", "is_disabled": 0, "is_reserved": 0}, {"rental_uris": {"ios": "https://dc.lft.to/lastmile_qr_scan", "android": "https://dc.lft.to/lastmile_qr_scan"}, "lon": -77.02648016666667, "type": "electric_scooter", "fusion_lat": 0.0, "lat": 38.9386665, "name": "6fb2235d37afda8bac88b1d4e7ba972c", "fusion_lon": 0.0, "bike_id": "6fb2235d37afda8bac88b1d4e7ba972c", "is_disabled": 0, "is_reserved": 0}, {"rental_uris": {"ios": "https://dc.lft.to/lastmile_qr_scan", "android": "https://dc.lft.to/lastmile_qr_scan"}, "lon": -77.04542333333333, "type": "electric_scooter", "fusion_lat": 0.0, "lat": 38.917926666666666, "name": "767ccb137842a2a9aa45672883c0ac96", "fusion_lon": 0.0, "bike_id": "767ccb137842a2a9aa45672883c0ac96", "is_disabled": 0, "is_reserved": 0}, {"rental_uris": {"ios": "https://dc.lft.to/lastmile_qr_scan", "android": "https://dc.lft.to/lastmile_qr_scan"}, "lon": -77.01288016666666, "type": "electric_scooter", "fusion_lat": 0.0, "lat": 38.9005395, "name": "8c56e04f768bac900724ce4808489950", "fusion_lon": 0.0, "bike_id": "8c56e04f768bac900724ce4808489950", "is_disabled": 0, "is_reserved": 0}, {"rental_uris": {"ios": "https://dc.lft.to/lastmile_qr_scan", "android": "https://dc.lft.to/lastmile_qr_scan"}, "lon": -77.03634033333333, "type": "electric_scooter", "fusion_lat": 0.0, "lat": 38.92460283333333, "name": "b1e5929e11dbcdc42967301e67d84924", "fusion_lon": 0.0, "bike_id": "b1e5929e11dbcdc42967301e67d84924", "is_disabled": 0, "is_reserved": 0}, {"rental_uris": {"ios": "https://dc.lft.to/lastmile_qr_scan", "android": "https://dc.lft.to/lastmile_qr_scan"}, "lon": -77.0223185, "type": "electric_scooter", "fusion_lat": 0.0, "lat": 38.90225016666667, "name": "53a61380e23d299782b4736562cb4ff2", "fusion_lon": 0.0, "bike_id": "53a61380e23d299782b4736562cb4ff2", "is_disabled": 0, "is_reserved": 0}, {"rental_uris": {"ios": "https://dc.lft.to/lastmile_qr_scan", "android": "https://dc.lft.to/lastmile_qr_scan"}, "lon": -77.03216483333334, "type": "electric_scooter", "fusion_lat": 0.0, "lat": 38.914063666666664, "name": "0c1b837d38e3b4ab2c8b351ed620311a", "fusion_lon": 0.0, "bike_id": "0c1b837d38e3b4ab2c8b351ed620311a", "is_disabled": 0, "is_reserved": 0}, {"rental_uris": {"ios": "https://dc.lft.to/lastmile_qr_scan", "android": "https://dc.lft.to/lastmile_qr_scan"}, "lon": -77.02628266666666, "type": "electric_scooter", "fusion_lat": 0.0, "lat": 38.89705333333333, "name": "78f51548b15fba05e047fa3b5433f9cd", "fusion_lon": 0.0, "bike_id": "78f51548b15fba05e047fa3b5433f9cd", "is_disabled": 0, "is_reserved": 0}, {"rental_uris": {"ios": "https://dc.lft.to/lastmile_qr_scan", "android": "https://dc.lft.to/lastmile_qr_scan"}, "lon": -77.041008, "type": "electric_scooter", "fusion_lat": 0.0, "lat": 38.917808, "name": "bde60f68868f437c06830a08f8c8ce33", "fusion_lon": 0.0, "bike_id": "bde60f68868f437c06830a08f8c8ce33", "is_disabled": 0, "is_reserved": 0}, {"rental_uris": {"ios": "https://dc.lft.to/lastmile_qr_scan", "android": "https://dc.lft.to/lastmile_qr_scan"}, "lon": -76.98900383333333, "type": "electric_scooter", "fusion_lat": 0.0, "lat": 38.86693833333333, "name": "2b5cc3d1011682d71d3927b73a839a3c", "fusion_lon": 0.0, "bike_id": "2b5cc3d1011682d71d3927b73a839a3c", "is_disabled": 0, "is_reserved": 0}, {"rental_uris": {"ios": "https://dc.lft.to/lastmile_qr_scan", "android": "https://dc.lft.to/lastmile_qr_scan"}, "lon": -77.00076183333333, "type": "electric_bike", "fusion_lat": 0.0, "lat": 38.875113999999996, "name": "54af6742851ad8cab36756f71b37ffe1", "fusion_lon": 0.0, "bike_id": "54af6742851ad8cab36756f71b37ffe1", "is_disabled": 0, "is_reserved": 0}, {"rental_uris": {"ios": "https://dc.lft.to/lastmile_qr_scan", "android": "https://dc.lft.to/lastmile_qr_scan"}, "lon": -76.9270985, "type": "electric_scooter", "fusion_lat": 0.0, "lat": 38.88767966666666, "name": "f87888851a9704bcdc080575fc0e2a02", "fusion_lon": 0.0, "bike_id": "f87888851a9704bcdc080575fc0e2a02", "is_disabled": 0, "is_reserved": 0}, {"rental_uris": {"ios": "https://dc.lft.to/lastmile_qr_scan", "android": "https://dc.lft.to/lastmile_qr_scan"}, "lon": -77.01232433333334, "type": "electric_scooter", "fusion_lat": 0.0, "lat": 38.86977233333333, "name": "7cd6221f80bebcd22fb533b435c750c0", "fusion_lon": 0.0, "bike_id": "7cd6221f80bebcd22fb533b435c750c0", "is_disabled": 0, "is_reserved": 0}, {"rental_uris": {"ios": "https://dc.lft.to/lastmile_qr_scan", "android": "https://dc.lft.to/lastmile_qr_scan"}, "lon": -77.1077525, "type": "electric_bike", "fusion_lat": 0.0, "lat": 38.8921865, "name": "146962a58078ce4d1b07644dd39dcbbf", "fusion_lon": 0.0, "bike_id": "146962a58078ce4d1b07644dd39dcbbf", "is_disabled": 0, "is_reserved": 0}, {"rental_uris": {"ios": "https://dc.lft.to/lastmile_qr_scan", "android": "https://dc.lft.to/lastmile_qr_scan"}, "lon": -77.06628966666666, "type": "electric_scooter", "fusion_lat": 0.0, "lat": 38.9279845, "name": "1c676f6b403d7410f9e68078a6d230ed", "fusion_lon": 0.0, "bike_id": "1c676f6b403d7410f9e68078a6d230ed", "is_disabled": 0, "is_reserved": 0}, {"rental_uris": {"ios": "https://dc.lft.to/lastmile_qr_scan", "android": "https://dc.lft.to/lastmile_qr_scan"}, "lon": -77.013926, "type": "electric_scooter", "fusion_lat": 0.0, "lat": 38.97011466666667, "name": "7e892522e181e80883b16fb34a54bcfc", "fusion_lon": 0.0, "bike_id": "7e892522e181e80883b16fb34a54bcfc", "is_disabled": 0, "is_reserved": 0}, {"rental_uris": {"ios": "https://dc.lft.to/lastmile_qr_scan", "android": "https://dc.lft.to/lastmile_qr_scan"}, "lon": -76.98564433333334, "type": "electric_scooter", "fusion_lat": 0.0, "lat": 38.892068333333334, "name": "bf7b7941e197f942bd8d1a106924125a", "fusion_lon": 0.0, "bike_id": "bf7b7941e197f942bd8d1a106924125a", "is_disabled": 0, "is_reserved": 0}, {"rental_uris": {"ios": "https://dc.lft.to/lastmile_qr_scan", "android": "https://dc.lft.to/lastmile_qr_scan"}, "lon": -76.99508883333333, "type": "electric_scooter", "fusion_lat": 0.0, "lat": 38.84474316666667, "name": "266dda87a550d7f6bb0dc3a47123c021", "fusion_lon": 0.0, "bike_id": "266dda87a550d7f6bb0dc3a47123c021", "is_disabled": 0, "is_reserved": 0}, {"rental_uris": {"ios": "https://dc.lft.to/lastmile_qr_scan", "android": "https://dc.lft.to/lastmile_qr_scan"}, "lon": -77.100877, "type": "electric_bike", "fusion_lat": 0.0, "lat": 38.95958233333333, "name": "e62d7cb2bd27dc92915da34735e39d47", "fusion_lon": 0.0, "bike_id": "e62d7cb2bd27dc92915da34735e39d47", "is_disabled": 0, "is_reserved": 0}, {"rental_uris": {"ios": "https://dc.lft.to/lastmile_qr_scan", "android": "https://dc.lft.to/lastmile_qr_scan"}, "lon": -77.022126, "type": "electric_scooter", "fusion_lat": 0.0, "lat": 38.91547416666667, "name": "fb3b3a27f96338fb29676d8d3568fa64", "fusion_lon": 0.0, "bike_id": "fb3b3a27f96338fb29676d8d3568fa64", "is_disabled": 0, "is_reserved": 0}, {"rental_uris": {"ios": "https://dc.lft.to/lastmile_qr_scan", "android": "https://dc.lft.to/lastmile_qr_scan"}, "lon": -76.9849115, "type": "electric_scooter", "fusion_lat": 0.0, "lat": 38.86046266666666, "name": "996562cd2f00932e8a6c9665c898f5dd", "fusion_lon": 0.0, "bike_id": "996562cd2f00932e8a6c9665c898f5dd", "is_disabled": 0, "is_reserved": 0}, {"rental_uris": {"ios": "https://dc.lft.to/lastmile_qr_scan", "android": "https://dc.lft.to/lastmile_qr_scan"}, "lon": -77.05174933333333, "type": "electric_scooter", "fusion_lat": 0.0, "lat": 38.9242275, "name": "139c25c491a3b40eca956041af3ce58f", "fusion_lon": 0.0, "bike_id": "139c25c491a3b40eca956041af3ce58f", "is_disabled": 0, "is_reserved": 0}, {"rental_uris": {"ios": "https://dc.lft.to/lastmile_qr_scan", "android": "https://dc.lft.to/lastmile_qr_scan"}, "lon": -77.04509, "type": "electric_scooter", "fusion_lat": 0.0, "lat": 38.8860675, "name": "b472d6da0090cf573b2fc3fb1da67ff1", "fusion_lon": 0.0, "bike_id": "b472d6da0090cf573b2fc3fb1da67ff1", "is_disabled": 0, "is_reserved": 0}, {"rental_uris": {"ios": "https://dc.lft.to/lastmile_qr_scan", "android": "https://dc.lft.to/lastmile_qr_scan"}, "lon": -77.05002066666667, "type": "electric_scooter", "fusion_lat": 0.0, "lat": 38.89230666666667, "name": "11337be925bdf8b565fd163adb5b233d", "fusion_lon": 0.0, "bike_id": "11337be925bdf8b565fd163adb5b233d", "is_disabled": 0, "is_reserved": 0}, {"rental_uris": {"ios": "https://dc.lft.to/lastmile_qr_scan", "android": "https://dc.lft.to/lastmile_qr_scan"}, "lon": -76.98842033333334, "type": "electric_bike", "fusion_lat": 0.0, "lat": 38.84272083333333, "name": "ba770ff61400c766c8eb1148f2e6344c", "fusion_lon": 0.0, "bike_id": "ba770ff61400c766c8eb1148f2e6344c", "is_disabled": 0, "is_reserved": 0}, {"rental_uris": {"ios": "https://dc.lft.to/lastmile_qr_scan", "android": "https://dc.lft.to/lastmile_qr_scan"}, "lon": -77.03322716666666, "type": "electric_scooter", "fusion_lat": 0.0, "lat": 38.89729766666667, "name": "ac1bc1348c252ff16f8fb833275aa93a", "fusion_lon": 0.0, "bike_id": "ac1bc1348c252ff16f8fb833275aa93a", "is_disabled": 0, "is_reserved": 0}, {"rental_uris": {"ios": "https://dc.lft.to/lastmile_qr_scan", "android": "https://dc.lft.to/lastmile_qr_scan"}, "lon": -76.97888916666666, "type": "electric_scooter", "fusion_lat": 0.0, "lat": 38.9042355, "name": "0aaa5278789fb4daa2d6d7ab8374ea37", "fusion_lon": 0.0, "bike_id": "0aaa5278789fb4daa2d6d7ab8374ea37", "is_disabled": 0, "is_reserved": 0}, {"rental_uris": {"ios": "https://dc.lft.to/lastmile_qr_scan", "android": "https://dc.lft.to/lastmile_qr_scan"}, "lon": -77.03652733333334, "type": "electric_scooter", "fusion_lat": 0.0, "lat": 38.9549865, "name": "931556e6c312ddc5bec2cb6d562c9ee8", "fusion_lon": 0.0, "bike_id": "931556e6c312ddc5bec2cb6d562c9ee8", "is_disabled": 0, "is_reserved": 0}, {"rental_uris": {"ios": "https://dc.lft.to/lastmile_qr_scan", "android": "https://dc.lft.to/lastmile_qr_scan"}, "lon": -77.005776, "type": "electric_scooter", "fusion_lat": 0.0, "lat": 38.87419933333334, "name": "613d69b6c501fb5b30c7ea966dc6646d", "fusion_lon": 0.0, "bike_id": "613d69b6c501fb5b30c7ea966dc6646d", "is_disabled": 0, "is_reserved": 0}, {"rental_uris": {"ios": "https://dc.lft.to/lastmile_qr_scan", "android": "https://dc.lft.to/lastmile_qr_scan"}, "lon": -77.032743, "type": "electric_scooter", "fusion_lat": 0.0, "lat": 38.91915616666667, "name": "a39e007fbdadd81dff71ad38eedc8a30", "fusion_lon": 0.0, "bike_id": "a39e007fbdadd81dff71ad38eedc8a30", "is_disabled": 0, "is_reserved": 0}, {"rental_uris": {"ios": "https://dc.lft.to/lastmile_qr_scan", "android": "https://dc.lft.to/lastmile_qr_scan"}, "lon": -77.14120333333334, "type": "electric_bike", "fusion_lat": 0.0, "lat": 38.81604566666667, "name": "8f526010436051900944b34155be47b8", "fusion_lon": 0.0, "bike_id": "8f526010436051900944b34155be47b8", "is_disabled": 0, "is_reserved": 0}, {"rental_uris": {"ios": "https://dc.lft.to/lastmile_qr_scan", "android": "https://dc.lft.to/lastmile_qr_scan"}, "lon": -77.031981, "type": "electric_scooter", "fusion_lat": 0.0, "lat": 38.91130166666667, "name": "553a0c0375e12beabc3aff466f55f4ac", "fusion_lon": 0.0, "bike_id": "553a0c0375e12beabc3aff466f55f4ac", "is_disabled": 0, "is_reserved": 0}, {"rental_uris": {"ios": "https://dc.lft.to/lastmile_qr_scan", "android": "https://dc.lft.to/lastmile_qr_scan"}, "lon": -77.00848816666667, "type": "electric_bike", "fusion_lat": 0.0, "lat": 38.94912266666667, "name": "5158e70b3388e02d5fe48011e8b1c5c6", "fusion_lon": 0.0, "bike_id": "5158e70b3388e02d5fe48011e8b1c5c6", "is_disabled": 0, "is_reserved": 0}, {"rental_uris": {"ios": "https://dc.lft.to/lastmile_qr_scan", "android": "https://dc.lft.to/lastmile_qr_scan"}, "lon": -77.01366333333333, "type": "electric_scooter", "fusion_lat": 0.0, "lat": 38.86370466666666, "name": "7212893f80fa8965d39713a541dad2b1", "fusion_lon": 0.0, "bike_id": "7212893f80fa8965d39713a541dad2b1", "is_disabled": 0, "is_reserved": 0}, {"rental_uris": {"ios": "https://dc.lft.to/lastmile_qr_scan", "android": "https://dc.lft.to/lastmile_qr_scan"}, "lon": -77.0454105, "type": "electric_scooter", "fusion_lat": 0.0, "lat": 38.91118916666667, "name": "23f40911dd703ec304de3bff750c623a", "fusion_lon": 0.0, "bike_id": "23f40911dd703ec304de3bff750c623a", "is_disabled": 0, "is_reserved": 0}, {"rental_uris": {"ios": "https://dc.lft.to/lastmile_qr_scan", "android": "https://dc.lft.to/lastmile_qr_scan"}, "lon": -77.01883066666667, "type": "electric_scooter", "fusion_lat": 0.0, "lat": 38.90090883333333, "name": "4c5af4c67b316676a5b4ac24a9e14538", "fusion_lon": 0.0, "bike_id": "4c5af4c67b316676a5b4ac24a9e14538", "is_disabled": 0, "is_reserved": 0}, {"rental_uris": {"ios": "https://dc.lft.to/lastmile_qr_scan", "android": "https://dc.lft.to/lastmile_qr_scan"}, "lon": -76.99518483333334, "type": "electric_scooter", "fusion_lat": 0.0, "lat": 38.862662666666665, "name": "8d6e150c6998fb9644111107c5b6703b", "fusion_lon": 0.0, "bike_id": "8d6e150c6998fb9644111107c5b6703b", "is_disabled": 0, "is_reserved": 0}, {"rental_uris": {"ios": "https://dc.lft.to/lastmile_qr_scan", "android": "https://dc.lft.to/lastmile_qr_scan"}, "lon": -77.05342416666667, "type": "electric_scooter", "fusion_lat": 0.0, "lat": 38.9023485, "name": "264c400c243c146d777d965b4eb06d1e", "fusion_lon": 0.0, "bike_id": "264c400c243c146d777d965b4eb06d1e", "is_disabled": 0, "is_reserved": 0}, {"rental_uris": {"ios": "https://dc.lft.to/lastmile_qr_scan", "android": "https://dc.lft.to/lastmile_qr_scan"}, "lon": -77.027568, "type": "electric_scooter", "fusion_lat": 0.0, "lat": 38.89204183333333, "name": "190a07279338da5a58ab2e23d8b4b2be", "fusion_lon": 0.0, "bike_id": "190a07279338da5a58ab2e23d8b4b2be", "is_disabled": 0, "is_reserved": 0}, {"rental_uris": {"ios": "https://dc.lft.to/lastmile_qr_scan", "android": "https://dc.lft.to/lastmile_qr_scan"}, "lon": -77.03394066666667, "type": "electric_scooter", "fusion_lat": 0.0, "lat": 38.91920183333333, "name": "411c2a350f4a84d4821fdd53fc23c1a3", "fusion_lon": 0.0, "bike_id": "411c2a350f4a84d4821fdd53fc23c1a3", "is_disabled": 0, "is_reserved": 0}, {"rental_uris": {"ios": "https://dc.lft.to/lastmile_qr_scan", "android": "https://dc.lft.to/lastmile_qr_scan"}, "lon": -77.06467833333333, "type": "electric_bike", "fusion_lat": 0.0, "lat": 38.97382133333333, "name": "c05fa67f28ec3354ed2161eda2ee07d9", "fusion_lon": 0.0, "bike_id": "c05fa67f28ec3354ed2161eda2ee07d9", "is_disabled": 0, "is_reserved": 0}, {"rental_uris": {"ios": "https://dc.lft.to/lastmile_qr_scan", "android": "https://dc.lft.to/lastmile_qr_scan"}, "lon": -77.03217316666667, "type": "electric_scooter", "fusion_lat": 0.0, "lat": 38.9140925, "name": "eba0f5592671af2e283b741a50f41e28", "fusion_lon": 0.0, "bike_id": "eba0f5592671af2e283b741a50f41e28", "is_disabled": 0, "is_reserved": 0}, {"rental_uris": {"ios": "https://dc.lft.to/lastmile_qr_scan", "android": "https://dc.lft.to/lastmile_qr_scan"}, "lon": -77.0270685, "type": "electric_scooter", "fusion_lat": 0.0, "lat": 38.900084166666666, "name": "dadc84f8deb8fd381e628c6a581cc4d0", "fusion_lon": 0.0, "bike_id": "dadc84f8deb8fd381e628c6a581cc4d0", "is_disabled": 0, "is_reserved": 0}, {"rental_uris": {"ios": "https://dc.lft.to/lastmile_qr_scan", "android": "https://dc.lft.to/lastmile_qr_scan"}, "lon": -76.99165866666667, "type": "electric_scooter", "fusion_lat": 0.0, "lat": 38.879284, "name": "345c59cf2e8a419c207631edd9dda4d2", "fusion_lon": 0.0, "bike_id": "345c59cf2e8a419c207631edd9dda4d2", "is_disabled": 0, "is_reserved": 0}, {"rental_uris": {"ios": "https://dc.lft.to/lastmile_qr_scan", "android": "https://dc.lft.to/lastmile_qr_scan"}, "lon": -77.02388366666666, "type": "electric_scooter", "fusion_lat": 0.0, "lat": 38.933748333333334, "name": "847a209694fbc762ff87af21ea4bf1b4", "fusion_lon": 0.0, "bike_id": "847a209694fbc762ff87af21ea4bf1b4", "is_disabled": 0, "is_reserved": 0}, {"rental_uris": {"ios": "https://dc.lft.to/lastmile_qr_scan", "android": "https://dc.lft.to/lastmile_qr_scan"}, "lon": -77.02395216666666, "type": "electric_scooter", "fusion_lat": 0.0, "lat": 38.907004666666666, "name": "741b8c1a73f96f4ce6c44880a75b3e4c", "fusion_lon": 0.0, "bike_id": "741b8c1a73f96f4ce6c44880a75b3e4c", "is_disabled": 0, "is_reserved": 0}, {"rental_uris": {"ios": "https://dc.lft.to/lastmile_qr_scan", "android": "https://dc.lft.to/lastmile_qr_scan"}, "lon": -77.04618433333333, "type": "electric_bike", "fusion_lat": 0.0, "lat": 38.999125, "name": "ecea5220ecbaa3d278bfeb1ce13a85cd", "fusion_lon": 0.0, "bike_id": "ecea5220ecbaa3d278bfeb1ce13a85cd", "is_disabled": 0, "is_reserved": 0}, {"rental_uris": {"ios": "https://dc.lft.to/lastmile_qr_scan", "android": "https://dc.lft.to/lastmile_qr_scan"}, "lon": -77.00502433333334, "type": "electric_scooter", "fusion_lat": 0.0, "lat": 38.8753575, "name": "29be7b77945a902456ce335035ab2cc6", "fusion_lon": 0.0, "bike_id": "29be7b77945a902456ce335035ab2cc6", "is_disabled": 0, "is_reserved": 0}, {"rental_uris": {"ios": "https://dc.lft.to/lastmile_qr_scan", "android": "https://dc.lft.to/lastmile_qr_scan"}, "lon": -77.04157566666666, "type": "electric_scooter", "fusion_lat": 0.0, "lat": 38.91027783333333, "name": "4abdc1cd4603f3cfd9859caa42e6657f", "fusion_lon": 0.0, "bike_id": "4abdc1cd4603f3cfd9859caa42e6657f", "is_disabled": 0, "is_reserved": 0}, {"rental_uris": {"ios": "https://dc.lft.to/lastmile_qr_scan", "android": "https://dc.lft.to/lastmile_qr_scan"}, "lon": -77.03377516666667, "type": "electric_scooter", "fusion_lat": 0.0, "lat": 38.91035266666667, "name": "0204c538a9aec8ffd8ac4715d17fcd11", "fusion_lon": 0.0, "bike_id": "0204c538a9aec8ffd8ac4715d17fcd11", "is_disabled": 0, "is_reserved": 0}, {"rental_uris": {"ios": "https://dc.lft.to/lastmile_qr_scan", "android": "https://dc.lft.to/lastmile_qr_scan"}, "lon": -77.02495233333333, "type": "electric_scooter", "fusion_lat": 0.0, "lat": 38.94289033333333, "name": "5930d1bd8f270cb3febe658f9034dc0c", "fusion_lon": 0.0, "bike_id": "5930d1bd8f270cb3febe658f9034dc0c", "is_disabled": 0, "is_reserved": 0}, {"rental_uris": {"ios": "https://dc.lft.to/lastmile_qr_scan", "android": "https://dc.lft.to/lastmile_qr_scan"}, "lon": -76.9895865, "type": "electric_scooter", "fusion_lat": 0.0, "lat": 38.92957583333333, "name": "286f1c2d094872cdc52bb8f92df51a62", "fusion_lon": 0.0, "bike_id": "286f1c2d094872cdc52bb8f92df51a62", "is_disabled": 0, "is_reserved": 0}, {"rental_uris": {"ios": "https://dc.lft.to/lastmile_qr_scan", "android": "https://dc.lft.to/lastmile_qr_scan"}, "lon": -77.02278816666667, "type": "electric_scooter", "fusion_lat": 0.0, "lat": 38.91851833333333, "name": "842d19fba1c27b132aefb182b067c1ac", "fusion_lon": 0.0, "bike_id": "842d19fba1c27b132aefb182b067c1ac", "is_disabled": 0, "is_reserved": 0}, {"rental_uris": {"ios": "https://dc.lft.to/lastmile_qr_scan", "android": "https://dc.lft.to/lastmile_qr_scan"}, "lon": -77.03357483333333, "type": "electric_scooter", "fusion_lat": 0.0, "lat": 38.900046, "name": "d8b557aa30428d4abd00378aefc1c47e", "fusion_lon": 0.0, "bike_id": "d8b557aa30428d4abd00378aefc1c47e", "is_disabled": 0, "is_reserved": 0}, {"rental_uris": {"ios": "https://dc.lft.to/lastmile_qr_scan", "android": "https://dc.lft.to/lastmile_qr_scan"}, "lon": -76.979815, "type": "electric_bike", "fusion_lat": 0.0, "lat": 38.877549, "name": "5a547974491ba50383a54882165e5037", "fusion_lon": 0.0, "bike_id": "5a547974491ba50383a54882165e5037", "is_disabled": 0, "is_reserved": 0}, {"rental_uris": {"ios": "https://dc.lft.to/lastmile_qr_scan", "android": "https://dc.lft.to/lastmile_qr_scan"}, "lon": -77.360997, "type": "electric_bike", "fusion_lat": 0.0, "lat": 38.939561, "name": "9de879678e1054a286699cd224c1dde1", "fusion_lon": 0.0, "bike_id": "9de879678e1054a286699cd224c1dde1", "is_disabled": 0, "is_reserved": 0}, {"rental_uris": {"ios": "https://dc.lft.to/lastmile_qr_scan", "android": "https://dc.lft.to/lastmile_qr_scan"}, "lon": -77.02588966666667, "type": "electric_scooter", "fusion_lat": 0.0, "lat": 38.90168833333333, "name": "9faea4e5b9cf0eaa389fc52d26172922", "fusion_lon": 0.0, "bike_id": "9faea4e5b9cf0eaa389fc52d26172922", "is_disabled": 0, "is_reserved": 0}, {"rental_uris": {"ios": "https://dc.lft.to/lastmile_qr_scan", "android": "https://dc.lft.to/lastmile_qr_scan"}, "lon": -77.03290866666667, "type": "electric_scooter", "fusion_lat": 0.0, "lat": 38.922169333333336, "name": "eac33227473cf1515942b604db3aeef0", "fusion_lon": 0.0, "bike_id": "eac33227473cf1515942b604db3aeef0", "is_disabled": 0, "is_reserved": 0}, {"rental_uris": {"ios": "https://dc.lft.to/lastmile_qr_scan", "android": "https://dc.lft.to/lastmile_qr_scan"}, "lon": -77.0208985, "type": "electric_scooter", "fusion_lat": 0.0, "lat": 38.910088333333334, "name": "7017b183b760d8f1520b3f1027a2f128", "fusion_lon": 0.0, "bike_id": "7017b183b760d8f1520b3f1027a2f128", "is_disabled": 0, "is_reserved": 0}, {"rental_uris": {"ios": "https://dc.lft.to/lastmile_qr_scan", "android": "https://dc.lft.to/lastmile_qr_scan"}, "lon": -77.03483016666667, "type": "electric_scooter", "fusion_lat": 0.0, "lat": 38.91891433333333, "name": "2eb87d501cd5e2463faa27c664632a33", "fusion_lon": 0.0, "bike_id": "2eb87d501cd5e2463faa27c664632a33", "is_disabled": 0, "is_reserved": 0}, {"rental_uris": {"ios": "https://dc.lft.to/lastmile_qr_scan", "android": "https://dc.lft.to/lastmile_qr_scan"}, "lon": -77.04998916666666, "type": "electric_scooter", "fusion_lat": 0.0, "lat": 38.8923225, "name": "4351f81a517de692297e5cdb4a3b8a75", "fusion_lon": 0.0, "bike_id": "4351f81a517de692297e5cdb4a3b8a75", "is_disabled": 0, "is_reserved": 0}, {"rental_uris": {"ios": "https://dc.lft.to/lastmile_qr_scan", "android": "https://dc.lft.to/lastmile_qr_scan"}, "lon": -77.04077233333334, "type": "electric_scooter", "fusion_lat": 0.0, "lat": 38.907305666666666, "name": "afb3ceab29c0ceaadc824797fd6c1cae", "fusion_lon": 0.0, "bike_id": "afb3ceab29c0ceaadc824797fd6c1cae", "is_disabled": 0, "is_reserved": 0}, {"rental_uris": {"ios": "https://dc.lft.to/lastmile_qr_scan", "android": "https://dc.lft.to/lastmile_qr_scan"}, "lon": -77.055243, "type": "electric_scooter", "fusion_lat": 0.0, "lat": 38.89936866666667, "name": "6a5d2017bfe76b14f9def07d55eb2603", "fusion_lon": 0.0, "bike_id": "6a5d2017bfe76b14f9def07d55eb2603", "is_disabled": 0, "is_reserved": 0}, {"rental_uris": {"ios": "https://dc.lft.to/lastmile_qr_scan", "android": "https://dc.lft.to/lastmile_qr_scan"}, "lon": -77.05500633333334, "type": "electric_scooter", "fusion_lat": 0.0, "lat": 38.929768, "name": "0efb805ab1eafa0efaa67272666e5af7", "fusion_lon": 0.0, "bike_id": "0efb805ab1eafa0efaa67272666e5af7", "is_disabled": 0, "is_reserved": 0}, {"rental_uris": {"ios": "https://dc.lft.to/lastmile_qr_scan", "android": "https://dc.lft.to/lastmile_qr_scan"}, "lon": -77.02497866666667, "type": "electric_scooter", "fusion_lat": 0.0, "lat": 38.897363166666665, "name": "c806e3162dbe18b49976619e72fb36d7", "fusion_lon": 0.0, "bike_id": "c806e3162dbe18b49976619e72fb36d7", "is_disabled": 0, "is_reserved": 0}, {"rental_uris": {"ios": "https://dc.lft.to/lastmile_qr_scan", "android": "https://dc.lft.to/lastmile_qr_scan"}, "lon": -77.03262383333333, "type": "electric_scooter", "fusion_lat": 0.0, "lat": 38.929217333333334, "name": "05c0b60c34c81ef3536eeab9d7cc43cd", "fusion_lon": 0.0, "bike_id": "05c0b60c34c81ef3536eeab9d7cc43cd", "is_disabled": 0, "is_reserved": 0}, {"rental_uris": {"ios": "https://dc.lft.to/lastmile_qr_scan", "android": "https://dc.lft.to/lastmile_qr_scan"}, "lon": -76.98826883333334, "type": "electric_scooter", "fusion_lat": 0.0, "lat": 38.8802955, "name": "9caad6f928d70e02d0fc8b1656aaf161", "fusion_lon": 0.0, "bike_id": "9caad6f928d70e02d0fc8b1656aaf161", "is_disabled": 0, "is_reserved": 0}, {"rental_uris": {"ios": "https://dc.lft.to/lastmile_qr_scan", "android": "https://dc.lft.to/lastmile_qr_scan"}, "lon": -77.027398, "type": "electric_scooter", "fusion_lat": 0.0, "lat": 38.894937, "name": "4f50a787f0a4ab6d040b0a5f9b7dfeed", "fusion_lon": 0.0, "bike_id": "4f50a787f0a4ab6d040b0a5f9b7dfeed", "is_disabled": 0, "is_reserved": 0}, {"rental_uris": {"ios": "https://dc.lft.to/lastmile_qr_scan", "android": "https://dc.lft.to/lastmile_qr_scan"}, "lon": -77.11314666666667, "type": "electric_bike", "fusion_lat": 0.0, "lat": 38.8556565, "name": "31bf4408c39266215c5cef0b262b56d4", "fusion_lon": 0.0, "bike_id": "31bf4408c39266215c5cef0b262b56d4", "is_disabled": 0, "is_reserved": 0}, {"rental_uris": {"ios": "https://dc.lft.to/lastmile_qr_scan", "android": "https://dc.lft.to/lastmile_qr_scan"}, "lon": -77.024107, "type": "electric_scooter", "fusion_lat": 0.0, "lat": 38.884602666666666, "name": "374ebc0011870b12b5a690ac9e2cb4ab", "fusion_lon": 0.0, "bike_id": "374ebc0011870b12b5a690ac9e2cb4ab", "is_disabled": 0, "is_reserved": 0}, {"rental_uris": {"ios": "https://dc.lft.to/lastmile_qr_scan", "android": "https://dc.lft.to/lastmile_qr_scan"}, "lon": -77.03345533333334, "type": "electric_scooter", "fusion_lat": 0.0, "lat": 38.89971333333333, "name": "7ae6f0bbb6862f272d7894f1a98c482d", "fusion_lon": 0.0, "bike_id": "7ae6f0bbb6862f272d7894f1a98c482d", "is_disabled": 0, "is_reserved": 0}, {"rental_uris": {"ios": "https://dc.lft.to/lastmile_qr_scan", "android": "https://dc.lft.to/lastmile_qr_scan"}, "lon": -77.02884916666666, "type": "electric_scooter", "fusion_lat": 0.0, "lat": 38.916932333333335, "name": "7bad1e8a19b836c6762f4b99942fdd84", "fusion_lon": 0.0, "bike_id": "7bad1e8a19b836c6762f4b99942fdd84", "is_disabled": 0, "is_reserved": 0}, {"rental_uris": {"ios": "https://dc.lft.to/lastmile_qr_scan", "android": "https://dc.lft.to/lastmile_qr_scan"}, "lon": -77.00542666666666, "type": "electric_scooter", "fusion_lat": 0.0, "lat": 38.874582333333336, "name": "de25711e95a73a68c7f88ba75993f0a5", "fusion_lon": 0.0, "bike_id": "de25711e95a73a68c7f88ba75993f0a5", "is_disabled": 0, "is_reserved": 0}, {"rental_uris": {"ios": "https://dc.lft.to/lastmile_qr_scan", "android": "https://dc.lft.to/lastmile_qr_scan"}, "lon": -77.0706235, "type": "electric_scooter", "fusion_lat": 0.0, "lat": 38.90110966666667, "name": "e4844244f12d2d3f7c0359532165f5b2", "fusion_lon": 0.0, "bike_id": "e4844244f12d2d3f7c0359532165f5b2", "is_disabled": 0, "is_reserved": 0}, {"rental_uris": {"ios": "https://dc.lft.to/lastmile_qr_scan", "android": "https://dc.lft.to/lastmile_qr_scan"}, "lon": -77.0447965, "type": "electric_scooter", "fusion_lat": 0.0, "lat": 38.900711666666666, "name": "22ea9d8055aa9e9f130f48f1b7604c99", "fusion_lon": 0.0, "bike_id": "22ea9d8055aa9e9f130f48f1b7604c99", "is_disabled": 0, "is_reserved": 0}, {"rental_uris": {"ios": "https://dc.lft.to/lastmile_qr_scan", "android": "https://dc.lft.to/lastmile_qr_scan"}, "lon": -76.9523995, "type": "electric_bike", "fusion_lat": 0.0, "lat": 38.907052, "name": "d8e2f52235874eaa8f2ea34866226bb9", "fusion_lon": 0.0, "bike_id": "d8e2f52235874eaa8f2ea34866226bb9", "is_disabled": 0, "is_reserved": 0}, {"rental_uris": {"ios": "https://dc.lft.to/lastmile_qr_scan", "android": "https://dc.lft.to/lastmile_qr_scan"}, "lon": -77.04412966666666, "type": "electric_scooter", "fusion_lat": 0.0, "lat": 38.91315483333333, "name": "11386c5723ae80c8e5a51eb68febef88", "fusion_lon": 0.0, "bike_id": "11386c5723ae80c8e5a51eb68febef88", "is_disabled": 0, "is_reserved": 0}, {"rental_uris": {"ios": "https://dc.lft.to/lastmile_qr_scan", "android": "https://dc.lft.to/lastmile_qr_scan"}, "lon": -77.04027866666667, "type": "electric_scooter", "fusion_lat": 0.0, "lat": 38.923759833333335, "name": "3fb6f27cd5b6f06427e430d960c2a2f8", "fusion_lon": 0.0, "bike_id": "3fb6f27cd5b6f06427e430d960c2a2f8", "is_disabled": 0, "is_reserved": 0}, {"rental_uris": {"ios": "https://dc.lft.to/lastmile_qr_scan", "android": "https://dc.lft.to/lastmile_qr_scan"}, "lon": -77.0300435, "type": "electric_scooter", "fusion_lat": 0.0, "lat": 38.89220516666666, "name": "6964a28fa9aed49fd4b28d3fb411d4fb", "fusion_lon": 0.0, "bike_id": "6964a28fa9aed49fd4b28d3fb411d4fb", "is_disabled": 0, "is_reserved": 0}, {"rental_uris": {"ios": "https://dc.lft.to/lastmile_qr_scan", "android": "https://dc.lft.to/lastmile_qr_scan"}, "lon": -76.996764, "type": "electric_scooter", "fusion_lat": 0.0, "lat": 38.921786166666664, "name": "59ea8506082ab8a0a5731f7aa20608a9", "fusion_lon": 0.0, "bike_id": "59ea8506082ab8a0a5731f7aa20608a9", "is_disabled": 0, "is_reserved": 0}, {"rental_uris": {"ios": "https://dc.lft.to/lastmile_qr_scan", "android": "https://dc.lft.to/lastmile_qr_scan"}, "lon": -77.01314133333334, "type": "electric_scooter", "fusion_lat": 0.0, "lat": 38.897400166666664, "name": "c43923656941605d90f4bef6d816d4f9", "fusion_lon": 0.0, "bike_id": "c43923656941605d90f4bef6d816d4f9", "is_disabled": 0, "is_reserved": 0}, {"rental_uris": {"ios": "https://dc.lft.to/lastmile_qr_scan", "android": "https://dc.lft.to/lastmile_qr_scan"}, "lon": -77.02324, "type": "electric_scooter", "fusion_lat": 0.0, "lat": 38.893961833333336, "name": "cfa5513ab9c81fb7655d27d5a1ddb7ce", "fusion_lon": 0.0, "bike_id": "cfa5513ab9c81fb7655d27d5a1ddb7ce", "is_disabled": 0, "is_reserved": 0}, {"rental_uris": {"ios": "https://dc.lft.to/lastmile_qr_scan", "android": "https://dc.lft.to/lastmile_qr_scan"}, "lon": -77.02197966666667, "type": "electric_scooter", "fusion_lat": 0.0, "lat": 38.90967366666667, "name": "41260c5e64c43c751562a29c42fb1493", "fusion_lon": 0.0, "bike_id": "41260c5e64c43c751562a29c42fb1493", "is_disabled": 0, "is_reserved": 0}, {"rental_uris": {"ios": "https://dc.lft.to/lastmile_qr_scan", "android": "https://dc.lft.to/lastmile_qr_scan"}, "lon": -77.00128666666667, "type": "electric_scooter", "fusion_lat": 0.0, "lat": 38.873803833333334, "name": "11dc409bf0768c7a0873275cb33a5150", "fusion_lon": 0.0, "bike_id": "11dc409bf0768c7a0873275cb33a5150", "is_disabled": 0, "is_reserved": 0}, {"rental_uris": {"ios": "https://dc.lft.to/lastmile_qr_scan", "android": "https://dc.lft.to/lastmile_qr_scan"}, "lon": -77.091326, "type": "electric_bike", "fusion_lat": 0.0, "lat": 38.8041965, "name": "b61583f741d3288f8630ea21688a7ab0", "fusion_lon": 0.0, "bike_id": "b61583f741d3288f8630ea21688a7ab0", "is_disabled": 0, "is_reserved": 0}, {"rental_uris": {"ios": "https://dc.lft.to/lastmile_qr_scan", "android": "https://dc.lft.to/lastmile_qr_scan"}, "lon": -77.054048, "type": "electric_scooter", "fusion_lat": 0.0, "lat": 38.935237, "name": "b1defa8f1d34d07fc258ace0ef96d290", "fusion_lon": 0.0, "bike_id": "b1defa8f1d34d07fc258ace0ef96d290", "is_disabled": 0, "is_reserved": 0}, {"rental_uris": {"ios": "https://dc.lft.to/lastmile_qr_scan", "android": "https://dc.lft.to/lastmile_qr_scan"}, "lon": -76.97982583333334, "type": "electric_bike", "fusion_lat": 0.0, "lat": 38.90025883333333, "name": "551f7a1c2e677cc6b7e7cbb53a84c779", "fusion_lon": 0.0, "bike_id": "551f7a1c2e677cc6b7e7cbb53a84c779", "is_disabled": 0, "is_reserved": 0}, {"rental_uris": {"ios": "https://dc.lft.to/lastmile_qr_scan", "android": "https://dc.lft.to/lastmile_qr_scan"}, "lon": -77.01231866666667, "type": "electric_scooter", "fusion_lat": 0.0, "lat": 38.91553916666667, "name": "c0653df866b587ea79971e7b5fb04022", "fusion_lon": 0.0, "bike_id": "c0653df866b587ea79971e7b5fb04022", "is_disabled": 0, "is_reserved": 0}, {"rental_uris": {"ios": "https://dc.lft.to/lastmile_qr_scan", "android": "https://dc.lft.to/lastmile_qr_scan"}, "lon": -77.02640866666667, "type": "electric_scooter", "fusion_lat": 0.0, "lat": 38.915686666666666, "name": "314398c73438135afc3c008dd3b7887c", "fusion_lon": 0.0, "bike_id": "314398c73438135afc3c008dd3b7887c", "is_disabled": 0, "is_reserved": 0}, {"rental_uris": {"ios": "https://dc.lft.to/lastmile_qr_scan", "android": "https://dc.lft.to/lastmile_qr_scan"}, "lon": -77.0637235, "type": "electric_scooter", "fusion_lat": 0.0, "lat": 38.9442225, "name": "45ff019d33dac0b200f83e57228c6f5d", "fusion_lon": 0.0, "bike_id": "45ff019d33dac0b200f83e57228c6f5d", "is_disabled": 0, "is_reserved": 0}, {"rental_uris": {"ios": "https://dc.lft.to/lastmile_qr_scan", "android": "https://dc.lft.to/lastmile_qr_scan"}, "lon": -77.00744533333334, "type": "electric_scooter", "fusion_lat": 0.0, "lat": 38.90375233333334, "name": "de201c51857728b51524972cb007f17f", "fusion_lon": 0.0, "bike_id": "de201c51857728b51524972cb007f17f", "is_disabled": 0, "is_reserved": 0}, {"rental_uris": {"ios": "https://dc.lft.to/lastmile_qr_scan", "android": "https://dc.lft.to/lastmile_qr_scan"}, "lon": -76.99953983333333, "type": "electric_scooter", "fusion_lat": 0.0, "lat": 38.908627833333334, "name": "bca8001336eb9d9adff5f0f9497364cc", "fusion_lon": 0.0, "bike_id": "bca8001336eb9d9adff5f0f9497364cc", "is_disabled": 0, "is_reserved": 0}, {"rental_uris": {"ios": "https://dc.lft.to/lastmile_qr_scan", "android": "https://dc.lft.to/lastmile_qr_scan"}, "lon": -77.00095066666667, "type": "electric_scooter", "fusion_lat": 0.0, "lat": 38.907611333333335, "name": "76db9e09111a58d7b4ee387f4af62b01", "fusion_lon": 0.0, "bike_id": "76db9e09111a58d7b4ee387f4af62b01", "is_disabled": 0, "is_reserved": 0}, {"rental_uris": {"ios": "https://dc.lft.to/lastmile_qr_scan", "android": "https://dc.lft.to/lastmile_qr_scan"}, "lon": -77.03075766666667, "type": "electric_scooter", "fusion_lat": 0.0, "lat": 38.92027983333333, "name": "18bcf79afddc9c6ae50b6fa69fa03018", "fusion_lon": 0.0, "bike_id": "18bcf79afddc9c6ae50b6fa69fa03018", "is_disabled": 0, "is_reserved": 0}, {"rental_uris": {"ios": "https://dc.lft.to/lastmile_qr_scan", "android": "https://dc.lft.to/lastmile_qr_scan"}, "lon": -77.03498866666666, "type": "electric_scooter", "fusion_lat": 0.0, "lat": 38.918099166666664, "name": "34d5f9f8a56a263f4e6b60972ef03855", "fusion_lon": 0.0, "bike_id": "34d5f9f8a56a263f4e6b60972ef03855", "is_disabled": 0, "is_reserved": 0}, {"rental_uris": {"ios": "https://dc.lft.to/lastmile_qr_scan", "android": "https://dc.lft.to/lastmile_qr_scan"}, "lon": -77.02218466666666, "type": "electric_scooter", "fusion_lat": 0.0, "lat": 38.9127025, "name": "0fbaf876321049b4dbfda4e1edbeb922", "fusion_lon": 0.0, "bike_id": "0fbaf876321049b4dbfda4e1edbeb922", "is_disabled": 0, "is_reserved": 0}, {"rental_uris": {"ios": "https://dc.lft.to/lastmile_qr_scan", "android": "https://dc.lft.to/lastmile_qr_scan"}, "lon": -76.99977283333334, "type": "electric_scooter", "fusion_lat": 0.0, "lat": 38.838383, "name": "da90e9e7300061f4c8b08bc37cb54255", "fusion_lon": 0.0, "bike_id": "da90e9e7300061f4c8b08bc37cb54255", "is_disabled": 0, "is_reserved": 0}, {"rental_uris": {"ios": "https://dc.lft.to/lastmile_qr_scan", "android": "https://dc.lft.to/lastmile_qr_scan"}, "lon": -77.05334683333334, "type": "electric_scooter", "fusion_lat": 0.0, "lat": 38.90596166666667, "name": "c956908c6933989995f5c90b19a7e62c", "fusion_lon": 0.0, "bike_id": "c956908c6933989995f5c90b19a7e62c", "is_disabled": 0, "is_reserved": 0}, {"rental_uris": {"ios": "https://dc.lft.to/lastmile_qr_scan", "android": "https://dc.lft.to/lastmile_qr_scan"}, "lon": -77.03536416666667, "type": "electric_scooter", "fusion_lat": 0.0, "lat": 38.903646, "name": "fc6788a46fcdc530afd3c846f2f72eba", "fusion_lon": 0.0, "bike_id": "fc6788a46fcdc530afd3c846f2f72eba", "is_disabled": 0, "is_reserved": 0}, {"rental_uris": {"ios": "https://dc.lft.to/lastmile_qr_scan", "android": "https://dc.lft.to/lastmile_qr_scan"}, "lon": -77.05522433333333, "type": "electric_scooter", "fusion_lat": 0.0, "lat": 38.89733366666667, "name": "dc14f91ac84f96d180d431702a38cb47", "fusion_lon": 0.0, "bike_id": "dc14f91ac84f96d180d431702a38cb47", "is_disabled": 0, "is_reserved": 0}, {"rental_uris": {"ios": "https://dc.lft.to/lastmile_qr_scan", "android": "https://dc.lft.to/lastmile_qr_scan"}, "lon": -77.04824033333334, "type": "electric_scooter", "fusion_lat": 0.0, "lat": 38.90795633333333, "name": "9c6886359d7e330283608f56a036794e", "fusion_lon": 0.0, "bike_id": "9c6886359d7e330283608f56a036794e", "is_disabled": 0, "is_reserved": 0}, {"rental_uris": {"ios": "https://dc.lft.to/lastmile_qr_scan", "android": "https://dc.lft.to/lastmile_qr_scan"}, "lon": -77.05520433333334, "type": "electric_scooter", "fusion_lat": 0.0, "lat": 38.89733583333334, "name": "cc5e5b3ad657ef4fa5e0de03a922e708", "fusion_lon": 0.0, "bike_id": "cc5e5b3ad657ef4fa5e0de03a922e708", "is_disabled": 0, "is_reserved": 0}, {"rental_uris": {"ios": "https://dc.lft.to/lastmile_qr_scan", "android": "https://dc.lft.to/lastmile_qr_scan"}, "lon": -77.04645216666667, "type": "electric_bike", "fusion_lat": 0.0, "lat": 38.852137166666665, "name": "037d01c78432506e70e8837a67ed3619", "fusion_lon": 0.0, "bike_id": "037d01c78432506e70e8837a67ed3619", "is_disabled": 0, "is_reserved": 0}, {"rental_uris": {"ios": "https://dc.lft.to/lastmile_qr_scan", "android": "https://dc.lft.to/lastmile_qr_scan"}, "lon": -77.04637883333334, "type": "electric_scooter", "fusion_lat": 0.0, "lat": 38.9067785, "name": "7b32b6824bf3948c9291c57d5bb9af17", "fusion_lon": 0.0, "bike_id": "7b32b6824bf3948c9291c57d5bb9af17", "is_disabled": 0, "is_reserved": 0},