{"data": {"bikes": [{"is_reserved": 0, "fusion_lon": 0.0, "fusion_lat": 0.0, "name": "2bf3775bc19a2de23bb0d0b5edd7ac0b", "type": "electric_scooter", "is_disabled": 0, "lat": 38.918165, "rental_uris": {"android": "https://dc.lft.to/lastmile_qr_scan", "ios": "https://dc.lft.to/lastmile_qr_scan"}, "bike_id": "2bf3775bc19a2de23bb0d0b5edd7ac0b", "lon": -77.08946516666667}, {"is_reserved": 0, "fusion_lon": 0.0, "fusion_lat": 0.0, "name": "5c134eda8b21442ff00cd73aae492e43", "type": "electric_bike", "is_disabled": 0, "lat": 38.8626215, "rental_uris": {"android": "https://dc.lft.to/lastmile_qr_scan", "ios": "https://dc.lft.to/lastmile_qr_scan"}, "bike_id": "5c134eda8b21442ff00cd73aae492e43", "lon": -76.98346599999999}, {"is_reserved": 0, "fusion_lon": 0.0, "fusion_lat": 0.0, "name": "caaa60a42e5470afd8902ff1bb6bf385", "type": "electric_scooter", "is_disabled": 0, "lat": 38.917354833333334, "rental_uris": {"android": "https://dc.lft.to/lastmile_qr_scan", "ios": "https://dc.lft.to/lastmile_qr_scan"}, "bike_id": "caaa60a42e5470afd8902ff1bb6bf385", "lon": -77.026959}, {"is_reserved": 0, "fusion_lon": 0.0, "fusion_lat": 0.0, "name": "8c001f0fe59ab7ba275f3e9574e8e3b0", "type": "electric_bike", "is_disabled": 0, "lat": 38.969137833333335, "rental_uris": {"android": "https://dc.lft.to/lastmile_qr_scan", "ios": "https://dc.lft.to/lastmile_qr_scan"}, "bike_id": "8c001f0fe59ab7ba275f3e9574e8e3b0", "lon": -76.9949245}, {"is_reserved": 0, "fusion_lon": 0.0, "fusion_lat": 0.0, "name": "98183c272b5bfe659df6f2ccacff4ca8", "type": "electric_scooter", "is_disabled": 0, "lat": 38.93602966666667, "rental_uris": {"android": "https://dc.lft.to/lastmile_qr_scan", "ios": "https://dc.lft.to/lastmile_qr_scan"}, "bike_id": "98183c272b5bfe659df6f2ccacff4ca8", "lon": -77.03790433333333}, {"is_reserved": 0, "fusion_lon": 0.0, "fusion_lat": 0.0, "name": "21d4408d10ab47c326fdd46f8aa48c67", "type": "electric_bike", "is_disabled": 0, "lat": 38.9632785, "rental_uris": {"android": "https://dc.lft.to/lastmile_qr_scan", "ios": "https://dc.lft.to/lastmile_qr_scan"}, "bike_id": "21d4408d10ab47c326fdd46f8aa48c67", "lon": -76.973611}, {"is_reserved": 0, "fusion_lon": 0.0, "fusion_lat": 0.0, "name": "3b28857da5e40b38e10ba8f666905053", "type": "electric_scooter", "is_disabled": 0, "lat": 38.9304285, "rental_uris": {"android": "https://dc.lft.to/lastmile_qr_scan", "ios": "https://dc.lft.to/lastmile_qr_scan"}, "bike_id": "3b28857da5e40b38e10ba8f666905053", "lon": -77.01221833333334}, {"is_reserved": 0, "fusion_lon": 0.0, "fusion_lat": 0.0, "name": "49c5362552e1325ef1c46c9f220d67ac", "type": "electric_scooter", "is_disabled": 0, "lat": 38.923298, "rental_uris": {"android": "https://dc.lft.to/lastmile_qr_scan", "ios": "https://dc.lft.to/lastmile_qr_scan"}, "bike_id": "49c5362552e1325ef1c46c9f220d67ac", "lon": -77.000494}, {"is_reserved": 0, "fusion_lon": 0.0, "fusion_lat": 0.0, "name": "d300494927d36b42f92b053d9b1d28c8", "type": "electric_scooter", "is_disabled": 0, "lat": 38.912641, "rental_uris": {"android": "https://dc.lft.to/lastmile_qr_scan", "ios": "https://dc.lft.to/lastmile_qr_scan"}, "bike_id": "d300494927d36b42f92b053d9b1d28c8", "lon": -77.0311525}, {"is_reserved": 0, "fusion_lon": 0.0, "fusion_lat": 0.0, "name": "3fb4d2030ff93b86dcd010b1c2b49066", "type": "electric_scooter", "is_disabled": 0, "lat": 38.92875016666667, "rental_uris": {"android": "https://dc.lft.to/lastmile_qr_scan", "ios": "https://dc.lft.to/lastmile_qr_scan"}, "bike_id": "3fb4d2030ff93b86dcd010b1c2b49066", "lon": -77.0364825}, {"is_reserved": 0, "fusion_lon": 0.0, "fusion_lat": 0.0, "name": "cb27e18b80457ad3e3a899ea76fbc934", "type": "electric_scooter", "is_disabled": 0, "lat": 38.92494683333334, "rental_uris": {"android": "https://dc.lft.to/lastmile_qr_scan", "ios": "https://dc.lft.to/lastmile_qr_scan"}, "bike_id": "cb27e18b80457ad3e3a899ea76fbc934", "lon": -77.02690933333334}, {"is_reserved": 0, "fusion_lon": 0.0, "fusion_lat": 0.0, "name": "94be77c48d419fce6272731ae4f1aefc", "type": "electric_scooter", "is_disabled": 0, "lat": 38.9086655, "rental_uris": {"android": "https://dc.lft.to/lastmile_qr_scan", "ios": "https://dc.lft.to/lastmile_qr_scan"}, "bike_id": "94be77c48d419fce6272731ae4f1aefc", "lon": -77.08593733333333}, {"is_reserved": 0, "fusion_lon": 0.0, "fusion_lat": 0.0, "name": "470c0ec1845dcc2ea7a8b17fbd07a05a", "type": "electric_scooter", "is_disabled": 0, "lat": 38.88737066666667, "rental_uris": {"android": "https://dc.lft.to/lastmile_qr_scan", "ios": "https://dc.lft.to/lastmile_qr_scan"}, "bike_id": "470c0ec1845dcc2ea7a8b17fbd07a05a", "lon": -77.02143983333333}, {"is_reserved": 0, "fusion_lon": 0.0, "fusion_lat": 0.0, "name": "678c17d5b438aa58fa6c877c90b2544b", "type": "electric_scooter", "is_disabled": 0, "lat": 38.9194275, "rental_uris": {"android": "https://dc.lft.to/lastmile_qr_scan", "ios": "https://dc.lft.to/lastmile_qr_scan"}, "bike_id": "678c17d5b438aa58fa6c877c90b2544b", "lon": -77.07058033333334}, {"is_reserved": 0, "fusion_lon": 0.0, "fusion_lat": 0.0, "name": "b49a400c94da3e3c4df9f86f9e3e354e", "type": "electric_scooter", "is_disabled": 0, "lat": 38.89495133333333, "rental_uris": {"android": "https://dc.lft.to/lastmile_qr_scan", "ios": "https://dc.lft.to/lastmile_qr_scan"}, "bike_id": "b49a400c94da3e3c4df9f86f9e3e354e", "lon": -77.00221516666667}, {"is_reserved": 0, "fusion_lon": 0.0, "fusion_lat": 0.0, "name": "aa5c98ea9214e65ddc151a985d72c7e6", "type": "electric_scooter", "is_disabled": 0, "lat": 38.9086475, "rental_uris": {"android": "https://dc.lft.to/lastmile_qr_scan", "ios": "https://dc.lft.to/lastmile_qr_scan"}, "bike_id": "aa5c98ea9214e65ddc151a985d72c7e6", "lon": -77.00090533333334}, {"is_reserved": 0, "fusion_lon": 0.0, "fusion_lat": 0.0, "name": "bd5e496762340793ed77ae05c206636e", "type": "electric_scooter", "is_disabled": 0, "lat": 38.92479066666667, "rental_uris": {"android": "https://dc.lft.to/lastmile_qr_scan", "ios": "https://dc.lft.to/lastmile_qr_scan"}, "bike_id": "bd5e496762340793ed77ae05c206636e", "lon": -77.034927}, {"is_reserved": 0, "fusion_lon": 0.0, "fusion_lat": 0.0, "name": "6a06e9fcb12b0309ab8210fd5d86253e", "type": "electric_scooter", "is_disabled": 0, "lat": 38.93034016666667, "rental_uris": {"android": "https://dc.lft.to/lastmile_qr_scan", "ios": "https://dc.lft.to/lastmile_qr_scan"}, "bike_id": "6a06e9fcb12b0309ab8210fd5d86253e", "lon": -77.01296616666667}, {"is_reserved": 0, "fusion_lon": 0.0, "fusion_lat": 0.0, "name": "a5609afbef6322bc83ffbb5da692b387", "type": "electric_scooter", "is_disabled": 0, "lat": 38.91817916666667, "rental_uris": {"android": "https://dc.lft.to/lastmile_qr_scan", "ios": "https://dc.lft.to/lastmile_qr_scan"}, "bike_id": "a5609afbef6322bc83ffbb5da692b387", "lon": -77.03568333333334}, {"is_reserved": 0, "fusion_lon": 0.0, "fusion_lat": 0.0, "name": "1076956f7922d2922214c8fefb911357", "type": "electric_scooter", "is_disabled": 0, "lat": 38.90027416666667, "rental_uris": {"android": "https://dc.lft.to/lastmile_qr_scan", "ios": "https://dc.lft.to/lastmile_qr_scan"}, "bike_id": "1076956f7922d2922214c8fefb911357", "lon": -77.01185683333334}, {"is_reserved": 0, "fusion_lon": 0.0, "fusion_lat": 0.0, "name": "5c02d80e4dd456e6b59c0a8f2907a80f", "type": "electric_scooter", "is_disabled": 0, "lat": 38.907227666666664, "rental_uris": {"android": "https://dc.lft.to/lastmile_qr_scan", "ios": "https://dc.lft.to/lastmile_qr_scan"}, "bike_id": "5c02d80e4dd456e6b59c0a8f2907a80f", "lon": -77.0175135}, {"is_reserved": 0, "fusion_lon": 0.0, "fusion_lat": 0.0, "name": "f69c922fd98e3f89a2e5355f3cff58a6", "type": "electric_scooter", "is_disabled": 0, "lat": 38.892209333333334, "rental_uris": {"android": "https://dc.lft.to/lastmile_qr_scan", "ios": "https://dc.lft.to/lastmile_qr_scan"}, "bike_id": "f69c922fd98e3f89a2e5355f3cff58a6", "lon": -77.04502916666667}, {"is_reserved": 0, "fusion_lon": 0.0, "fusion_lat": 0.0, "name": "f2c623328956f27f1ac9a0a6881cb2ff", "type": "electric_scooter", "is_disabled": 0, "lat": 38.92279166666667, "rental_uris": {"android": "https://dc.lft.to/lastmile_qr_scan", "ios": "https://dc.lft.to/lastmile_qr_scan"}, "bike_id": "f2c623328956f27f1ac9a0a6881cb2ff", "lon": -77.03224366666667}, {"is_reserved": 0, "fusion_lon": 0.0, "fusion_lat": 0.0, "name": "47cae4180f286f5c9ecc395b47435820", "type": "electric_scooter", "is_disabled": 0, "lat": 38.878828166666665, "rental_uris": {"android": "https://dc.lft.to/lastmile_qr_scan", "ios": "https://dc.lft.to/lastmile_qr_scan"}, "bike_id": "47cae4180f286f5c9ecc395b47435820", "lon": -77.023142}, {"is_reserved": 0, "fusion_lon": 0.0, "fusion_lat": 0.0, "name": "6fbd10f7fa480910ddf70f74a64fd3db", "type": "electric_bike", "is_disabled": 0, "lat": 38.89800183333333, "rental_uris": {"android": "https://dc.lft.to/lastmile_qr_scan", "ios": "https://dc.lft.to/lastmile_qr_scan"}, "bike_id": "6fbd10f7fa480910ddf70f74a64fd3db", "lon": -77.00607633333334}, {"is_reserved": 0, "fusion_lon": 0.0, "fusion_lat": 0.0, "name": "aba1587cd59c13a967a0e37df81b90cd", "type": "electric_scooter", "is_disabled": 0, "lat": 38.95234716666667, "rental_uris": {"android": "https://dc.lft.to/lastmile_qr_scan", "ios": "https://dc.lft.to/lastmile_qr_scan"}, "bike_id": "aba1587cd59c13a967a0e37df81b90cd", "lon": -77.01429116666667}, {"is_reserved": 0, "fusion_lon": 0.0, "fusion_lat": 0.0, "name": "f303a33c108f007fa2ccd019b5215565", "type": "electric_scooter", "is_disabled": 0, "lat": 38.907187666666665, "rental_uris": {"android": "https://dc.lft.to/lastmile_qr_scan", "ios": "https://dc.lft.to/lastmile_qr_scan"}, "bike_id": "f303a33c108f007fa2ccd019b5215565", "lon": -77.03826633333334}, {"is_reserved": 0, "fusion_lon": 0.0, "fusion_lat": 0.0, "name": "bc17b7e5cc61c586117153c479c27b96", "type": "electric_bike", "is_disabled": 0, "lat": 38.911750833333336, "rental_uris": {"android": "https://dc.lft.to/lastmile_qr_scan", "ios": "https://dc.lft.to/lastmile_qr_scan"}, "bike_id": "bc17b7e5cc61c586117153c479c27b96", "lon": -77.0027005}, {"is_reserved": 0, "fusion_lon": 0.0, "fusion_lat": 0.0, "name": "845907dc267a75866bc1a86989c11f81", "type": "electric_scooter", "is_disabled": 0, "lat": 38.861496833333334, "rental_uris": {"android": "https://dc.lft.to/lastmile_qr_scan", "ios": "https://dc.lft.to/lastmile_qr_scan"}, "bike_id": "845907dc267a75866bc1a86989c11f81", "lon": -76.9836825}, {"is_reserved": 0, "fusion_lon": 0.0, "fusion_lat": 0.0, "name": "602860af15256fc0fbd61ffbcf5263fc", "type": "electric_scooter", "is_disabled": 0, "lat": 38.91712533333333, "rental_uris": {"android": "https://dc.lft.to/lastmile_qr_scan", "ios": "https://dc.lft.to/lastmile_qr_scan"}, "bike_id": "602860af15256fc0fbd61ffbcf5263fc", "lon": -77.03857683333334}, {"is_reserved": 0, "fusion_lon": 0.0, "fusion_lat": 0.0, "name": "bbf242f4796bf8c6ff03ea74b1b245f7", "type": "electric_scooter", "is_disabled": 0, "lat": 38.919517166666665, "rental_uris": {"android": "https://dc.lft.to/lastmile_qr_scan", "ios": "https://dc.lft.to/lastmile_qr_scan"}, "bike_id": "bbf242f4796bf8c6ff03ea74b1b245f7", "lon": -77.02370183333333}, {"is_reserved": 0, "fusion_lon": 0.0, "fusion_lat": 0.0, "name": "d2daaa051fe0fab4d686e2d9f68ebc01", "type": "electric_scooter", "is_disabled": 0, "lat": 38.914153166666665, "rental_uris": {"android": "https://dc.lft.to/lastmile_qr_scan", "ios": "https://dc.lft.to/lastmile_qr_scan"}, "bike_id": "d2daaa051fe0fab4d686e2d9f68ebc01", "lon": -77.02154783333333}, {"is_reserved": 0, "fusion_lon": 0.0, "fusion_lat": 0.0, "name": "11fc6e09b9b90a16a102178fa3a390f2", "type": "electric_scooter", "is_disabled": 0, "lat": 38.89227066666667, "rental_uris": {"android": "https://dc.lft.to/lastmile_qr_scan", "ios": "https://dc.lft.to/lastmile_qr_scan"}, "bike_id": "11fc6e09b9b90a16a102178fa3a390f2", "lon": -77.04332183333334}, {"is_reserved": 0, "fusion_lon": 0.0, "fusion_lat": 0.0, "name": "8e54d2a7a6797ddf1d6ffa4e4f8a6322", "type": "electric_scooter", "is_disabled": 0, "lat": 38.916008, "rental_uris": {"android": "https://dc.lft.to/lastmile_qr_scan", "ios": "https://dc.lft.to/lastmile_qr_scan"}, "bike_id": "8e54d2a7a6797ddf1d6ffa4e4f8a6322", "lon": -77.02398016666666}, {"is_reserved": 0, "fusion_lon": 0.0, "fusion_lat": 0.0, "name": "9bd4f4c283f81784a901b02dbf181a6b", "type": "electric_scooter", "is_disabled": 0, "lat": 38.9395405, "rental_uris": {"android": "https://dc.lft.to/lastmile_qr_scan", "ios": "https://dc.lft.to/lastmile_qr_scan"}, "bike_id": "9bd4f4c283f81784a901b02dbf181a6b", "lon": -77.03673483333333}, {"is_reserved": 0, "fusion_lon": 0.0, "fusion_lat": 0.0, "name": "6a8196ec8fa46983c30d9bf7a3fa3e36", "type": "electric_scooter", "is_disabled": 0, "lat": 38.933431666666664, "rental_uris": {"android": "https://dc.lft.to/lastmile_qr_scan", "ios": "https://dc.lft.to/lastmile_qr_scan"}, "bike_id": "6a8196ec8fa46983c30d9bf7a3fa3e36", "lon": -77.02621733333334}, {"is_reserved": 0, "fusion_lon": 0.0, "fusion_lat": 0.0, "name": "73456e87aef73081336a0ec1f39cb288", "type": "electric_scooter", "is_disabled": 0, "lat": 38.88601533333333, "rental_uris": {"android": "https://dc.lft.to/lastmile_qr_scan", "ios": "https://dc.lft.to/lastmile_qr_scan"}, "bike_id": "73456e87aef73081336a0ec1f39cb288", "lon": -77.0124515}, {"is_reserved": 0, "fusion_lon": 0.0, "fusion_lat": 0.0, "name": "6987047f3a88ec0729963341e1f30776", "type": "electric_scooter", "is_disabled": 0, "lat": 38.887769166666665, "rental_uris": {"android": "https://dc.lft.to/lastmile_qr_scan", "ios": "https://dc.lft.to/lastmile_qr_scan"}, "bike_id": "6987047f3a88ec0729963341e1f30776", "lon": -76.95521283333333}, {"is_reserved": 0, "fusion_lon": 0.0, "fusion_lat": 0.0, "name": "7d8f8598b46e2a99177133e1895d1b08", "type": "electric_scooter", "is_disabled": 0, "lat": 38.843141833333334, "rental_uris": {"android": "https://dc.lft.to/lastmile_qr_scan", "ios": "https://dc.lft.to/lastmile_qr_scan"}, "bike_id": "7d8f8598b46e2a99177133e1895d1b08", "lon": -76.99935533333333}, {"is_reserved": 0, "fusion_lon": 0.0, "fusion_lat": 0.0, "name": "a20d89a75766ac8c56ecf81e99e3678f", "type": "electric_scooter", "is_disabled": 0, "lat": 38.93706183333333, "rental_uris": {"android": "https://dc.lft.to/lastmile_qr_scan", "ios": "https://dc.lft.to/lastmile_qr_scan"}, "bike_id": "a20d89a75766ac8c56ecf81e99e3678f", "lon": -77.024037}, {"is_reserved": 0, "fusion_lon": 0.0, "fusion_lat": 0.0, "name": "f3e3fbd05060de419f0c7855df9d7498", "type": "electric_scooter", "is_disabled": 0, "lat": 38.90002, "rental_uris": {"android": "https://dc.lft.to/lastmile_qr_scan", "ios": "https://dc.lft.to/lastmile_qr_scan"}, "bike_id": "f3e3fbd05060de419f0c7855df9d7498", "lon": -76.998374}, {"is_reserved": 0, "fusion_lon": 0.0, "fusion_lat": 0.0, "name": "e950af5f234681f4cd73a41dd3636330", "type": "electric_bike", "is_disabled": 0, "lat": 39.013691666666666, "rental_uris": {"android": "https://dc.lft.to/lastmile_qr_scan", "ios": "https://dc.lft.to/lastmile_qr_scan"}, "bike_id": "e950af5f234681f4cd73a41dd3636330", "lon": -76.92133033333333}, {"is_reserved": 0, "fusion_lon": 0.0, "fusion_lat": 0.0, "name": "3295b610551f3396a88b747a35c686d8", "type": "electric_scooter", "is_disabled": 0, "lat": 38.892285333333334, "rental_uris": {"android": "https://dc.lft.to/lastmile_qr_scan", "ios": "https://dc.lft.to/lastmile_qr_scan"}, "bike_id": "3295b610551f3396a88b747a35c686d8", "lon": -77.0486765}, {"is_reserved": 0, "fusion_lon": 0.0, "fusion_lat": 0.0, "name": "a9c1781dc28b551c2e71ca8766ae8464", "type": "electric_scooter", "is_disabled": 0, "lat": 38.908937333333334, "rental_uris": {"android": "https://dc.lft.to/lastmile_qr_scan", "ios": "https://dc.lft.to/lastmile_qr_scan"}, "bike_id": "a9c1781dc28b551c2e71ca8766ae8464", "lon": -76.98237366666666}, {"is_reserved": 0, "fusion_lon": 0.0, "fusion_lat": 0.0, "name": "e642310de040e3e8568fb8af29e79b62", "type": "electric_bike", "is_disabled": 0, "lat": 38.89563783333333, "rental_uris": {"android": "https://dc.lft.to/lastmile_qr_scan", "ios": "https://dc.lft.to/lastmile_qr_scan"}, "bike_id": "e642310de040e3e8568fb8af29e79b62", "lon": -77.12728933333334}, {"is_reserved": 0, "fusion_lon": 0.0, "fusion_lat": 0.0, "name": "b0c3ec665f8a5de2bb018c8e81ea8ab5", "type": "electric_scooter", "is_disabled": 0, "lat": 38.91942183333333, "rental_uris": {"android": "https://dc.lft.to/lastmile_qr_scan", "ios": "https://dc.lft.to/lastmile_qr_scan"}, "bike_id": "b0c3ec665f8a5de2bb018c8e81ea8ab5", "lon": -77.02501083333334}, {"is_reserved": 0, "fusion_lon": 0.0, "fusion_lat": 0.0, "name": "39db7b65984011b0069da0f536e7df58", "type": "electric_scooter", "is_disabled": 0, "lat": 38.8666305, "rental_uris": {"android": "https://dc.lft.to/lastmile_qr_scan", "ios": "https://dc.lft.to/lastmile_qr_scan"}, "bike_id": "39db7b65984011b0069da0f536e7df58", "lon": -76.9887925}, {"is_reserved": 0, "fusion_lon": 0.0, "fusion_lat": 0.0, "name": "aab49e22a8f851b4485636a1c3b6554a", "type": "electric_bike", "is_disabled": 0, "lat": 38.988142333333336, "rental_uris": {"android": "https://dc.lft.to/lastmile_qr_scan", "ios": "https://dc.lft.to/lastmile_qr_scan"}, "bike_id": "aab49e22a8f851b4485636a1c3b6554a", "lon": -77.0265665}, {"is_reserved": 0, "fusion_lon": 0.0, "fusion_lat": 0.0, "name": "61221a856816b9ac0a973f3ebc904c9a", "type": "electric_scooter", "is_disabled": 0, "lat": 38.919181, "rental_uris": {"android": "https://dc.lft.to/lastmile_qr_scan", "ios": "https://dc.lft.to/lastmile_qr_scan"}, "bike_id": "61221a856816b9ac0a973f3ebc904c9a", "lon": -77.031832}, {"is_reserved": 0, "fusion_lon": 0.0, "fusion_lat": 0.0, "name": "ac5d97df40382498fc29b8f341ad6a8f", "type": "electric_scooter", "is_disabled": 0, "lat": 38.93280383333333, "rental_uris": {"android": "https://dc.lft.to/lastmile_qr_scan", "ios": "https://dc.lft.to/lastmile_qr_scan"}, "bike_id": "ac5d97df40382498fc29b8f341ad6a8f", "lon": -77.0282795}, {"is_reserved": 0, "fusion_lon": 0.0, "fusion_lat": 0.0, "name": "23534afc9f3a2006ad06926c210e6d5b", "type": "electric_scooter", "is_disabled": 0, "lat": 38.9173715, "rental_uris": {"android": "https://dc.lft.to/lastmile_qr_scan", "ios": "https://dc.lft.to/lastmile_qr_scan"}, "bike_id": "23534afc9f3a2006ad06926c210e6d5b", "lon": -77.02116366666667}, {"is_reserved": 0, "fusion_lon": 0.0, "fusion_lat": 0.0, "name": "93095efe8abce5d16c25316eb11e1598", "type": "electric_scooter", "is_disabled": 0, "lat": 38.896075, "rental_uris": {"android": "https://dc.lft.to/lastmile_qr_scan", "ios": "https://dc.lft.to/lastmile_qr_scan"}, "bike_id": "93095efe8abce5d16c25316eb11e1598", "lon": -77.03173166666667}, {"is_reserved": 0, "fusion_lon": 0.0, "fusion_lat": 0.0, "name": "9b458d7466a80a7f9e8048ea61d8f172", "type": "electric_scooter", "is_disabled": 0, "lat": 38.9067435, "rental_uris": {"android": "https://dc.lft.to/lastmile_qr_scan", "ios": "https://dc.lft.to/lastmile_qr_scan"}, "bike_id": "9b458d7466a80a7f9e8048ea61d8f172", "lon": -77.03843483333333}, {"is_reserved": 0, "fusion_lon": 0.0, "fusion_lat": 0.0, "name": "27c00517d5e133afe961a7dc8566131b", "type": "electric_bike", "is_disabled": 0, "lat": 38.956532333333335, "rental_uris": {"android": "https://dc.lft.to/lastmile_qr_scan", "ios": "https://dc.lft.to/lastmile_qr_scan"}, "bike_id": "27c00517d5e133afe961a7dc8566131b", "lon": -77.01280583333333}, {"is_reserved": 0, "fusion_lon": 0.0, "fusion_lat": 0.0, "name": "d62bd16a05ade720c623c27ccb5a0399", "type": "electric_scooter", "is_disabled": 0, "lat": 38.904726833333335, "rental_uris": {"android": "https://dc.lft.to/lastmile_qr_scan", "ios": "https://dc.lft.to/lastmile_qr_scan"}, "bike_id": "d62bd16a05ade720c623c27ccb5a0399", "lon": -77.03798633333334}, {"is_reserved": 0, "fusion_lon": 0.0, "fusion_lat": 0.0, "name": "bc923f42751d77a421bb872da714bcfb", "type": "electric_scooter", "is_disabled": 0, "lat": 38.87698066666667, "rental_uris": {"android": "https://dc.lft.to/lastmile_qr_scan", "ios": "https://dc.lft.to/lastmile_qr_scan"}, "bike_id": "bc923f42751d77a421bb872da714bcfb", "lon": -77.017583}, {"is_reserved": 0, "fusion_lon": 0.0, "fusion_lat": 0.0, "name": "18fe086e20542d2db1a3cc18da95d72b", "type": "electric_scooter", "is_disabled": 0, "lat": 38.90370433333333, "rental_uris": {"android": "https://dc.lft.to/lastmile_qr_scan", "ios": "https://dc.lft.to/lastmile_qr_scan"}, "bike_id": "18fe086e20542d2db1a3cc18da95d72b", "lon": -77.0486045}, {"is_reserved": 0, "fusion_lon": 0.0, "fusion_lat": 0.0, "name": "0bc4e5bf66db3038b66af1bcf23271ff", "type": "electric_scooter", "is_disabled": 0, "lat": 38.89859916666666, "rental_uris": {"android": "https://dc.lft.to/lastmile_qr_scan", "ios": "https://dc.lft.to/lastmile_qr_scan"}, "bike_id": "0bc4e5bf66db3038b66af1bcf23271ff", "lon": -76.99016966666667}, {"is_reserved": 0, "fusion_lon": 0.0, "fusion_lat": 0.0, "name": "a86d7fdc6cf331e2d1892bb0a98496dd", "type": "electric_scooter", "is_disabled": 0, "lat": 38.910485333333334, "rental_uris": {"android": "https://dc.lft.to/lastmile_qr_scan", "ios": "https://dc.lft.to/lastmile_qr_scan"}, "bike_id": "a86d7fdc6cf331e2d1892bb0a98496dd", "lon": -77.0221245}, {"is_reserved": 0, "fusion_lon": 0.0, "fusion_lat": 0.0, "name": "d9516a5803be737f939fec7b8f951a39", "type": "electric_scooter", "is_disabled": 0, "lat": 38.8922275, "rental_uris": {"android": "https://dc.lft.to/lastmile_qr_scan", "ios": "https://dc.lft.to/lastmile_qr_scan"}, "bike_id": "d9516a5803be737f939fec7b8f951a39", "lon": -77.04311933333334}, {"is_reserved": 0, "fusion_lon": 0.0, "fusion_lat": 0.0, "name": "f5ad2f211b726f91884ef5a88dc92c66", "type": "electric_scooter", "is_disabled": 0, "lat": 38.918943166666665, "rental_uris": {"android": "https://dc.lft.to/lastmile_qr_scan", "ios": "https://dc.lft.to/lastmile_qr_scan"}, "bike_id": "f5ad2f211b726f91884ef5a88dc92c66", "lon": -77.012077}, {"is_reserved": 0, "fusion_lon": 0.0, "fusion_lat": 0.0, "name": "64d937472ffd12d5cda9edccc2f92899", "type": "electric_scooter", "is_disabled": 0, "lat": 38.912690166666664, "rental_uris": {"android": "https://dc.lft.to/lastmile_qr_scan", "ios": "https://dc.lft.to/lastmile_qr_scan"}, "bike_id": "64d937472ffd12d5cda9edccc2f92899", "lon": -77.03073933333333}, {"is_reserved": 0, "fusion_lon": 0.0, "fusion_lat": 0.0, "name": "2a0986e5821a5f956297fe7e796ea281", "type": "electric_scooter", "is_disabled": 0, "lat": 38.902481333333334, "rental_uris": {"android": "https://dc.lft.to/lastmile_qr_scan", "ios": "https://dc.lft.to/lastmile_qr_scan"}, "bike_id": "2a0986e5821a5f956297fe7e796ea281", "lon": -76.98930416666667}, {"is_reserved": 0, "fusion_lon": 0.0, "fusion_lat": 0.0, "name": "d48f38e381f5a98ba4f32bd02dca51d6", "type": "electric_scooter", "is_disabled": 0, "lat": 38.90043933333333, "rental_uris": {"android": "https://dc.lft.to/lastmile_qr_scan", "ios": "https://dc.lft.to/lastmile_qr_scan"}, "bike_id": "d48f38e381f5a98ba4f32bd02dca51d6", "lon": -77.003152}, {"is_reserved": 0, "fusion_lon": 0.0, "fusion_lat": 0.0, "name": "c4fd6cad0b965b367972c4e38f9d8413", "type": "electric_scooter", "is_disabled": 0, "lat": 38.892222833333335, "rental_uris": {"android": "https://dc.lft.to/lastmile_qr_scan", "ios": "https://dc.lft.to/lastmile_qr_scan"}, "bike_id": "c4fd6cad0b965b367972c4e38f9d8413", "lon": -77.04506033333334}, {"is_reserved": 0, "fusion_lon": 0.0, "fusion_lat": 0.0, "name": "b9d839ff3bed623d45b96607b8ef8185", "type": "electric_scooter", "is_disabled": 0, "lat": 38.9126715, "rental_uris": {"android": "https://dc.lft.to/lastmile_qr_scan", "ios": "https://dc.lft.to/lastmile_qr_scan"}, "bike_id": "b9d839ff3bed623d45b96607b8ef8185", "lon": -77.03861416666666}, {"is_reserved": 0, "fusion_lon": 0.0, "fusion_lat": 0.0, "name": "c3c789218f38fc4bf58875a4f28ff1bc", "type": "electric_scooter", "is_disabled": 0, "lat": 38.9140415, "rental_uris": {"android": "https://dc.lft.to/lastmile_qr_scan", "ios": "https://dc.lft.to/lastmile_qr_scan"}, "bike_id": "c3c789218f38fc4bf58875a4f28ff1bc", "lon": -77.03949183333333}, {"is_reserved": 0, "fusion_lon": 0.0, "fusion_lat": 0.0, "name": "6f0d25744cede35289b12413ed21053b", "type": "electric_scooter", "is_disabled": 0, "lat": 38.90745666666667, "rental_uris": {"android": "https://dc.lft.to/lastmile_qr_scan", "ios": "https://dc.lft.to/lastmile_qr_scan"}, "bike_id": "6f0d25744cede35289b12413ed21053b", "lon": -77.04555833333333}, {"is_reserved": 0, "fusion_lon": 0.0, "fusion_lat": 0.0, "name": "4f6128a467dcd66999cefdcf844b49b9", "type": "electric_scooter", "is_disabled": 0, "lat": 38.90262583333333, "rental_uris": {"android": "https://dc.lft.to/lastmile_qr_scan", "ios": "https://dc.lft.to/lastmile_qr_scan"}, "bike_id": "4f6128a467dcd66999cefdcf844b49b9", "lon": -77.03884416666666}, {"is_reserved": 0, "fusion_lon": 0.0, "fusion_lat": 0.0, "name": "1a033ed29a4e6bef8dc5f4f3efc3cefd", "type": "electric_scooter", "is_disabled": 0, "lat": 38.95528516666667, "rental_uris": {"android": "https://dc.lft.to/lastmile_qr_scan", "ios": "https://dc.lft.to/lastmile_qr_scan"}, "bike_id": "1a033ed29a4e6bef8dc5f4f3efc3cefd", "lon": -77.022158}, {"is_reserved": 0, "fusion_lon": 0.0, "fusion_lat": 0.0, "name": "12a0ddd1041c0278d3d52356157fb45b", "type": "electric_scooter", "is_disabled": 0, "lat": 38.898991333333335, "rental_uris": {"android": "https://dc.lft.to/lastmile_qr_scan", "ios": "https://dc.lft.to/lastmile_qr_scan"}, "bike_id": "12a0ddd1041c0278d3d52356157fb45b", "lon": -76.977206}, {"is_reserved": 0, "fusion_lon": 0.0, "fusion_lat": 0.0, "name": "09f76e086d38560a184cb869d080356a", "type": "electric_scooter", "is_disabled": 0, "lat": 38.94991066666667, "rental_uris": {"android": "https://dc.lft.to/lastmile_qr_scan", "ios": "https://dc.lft.to/lastmile_qr_scan"}, "bike_id": "09f76e086d38560a184cb869d080356a", "lon": -77.02699216666667}, {"is_reserved": 0, "fusion_lon": 0.0, "fusion_lat": 0.0, "name": "431b6b5977a38619f343da30e4e755a1", "type": "electric_scooter", "is_disabled": 0, "lat": 38.971268, "rental_uris": {"android": "https://dc.lft.to/lastmile_qr_scan", "ios": "https://dc.lft.to/lastmile_qr_scan"}, "bike_id": "431b6b5977a38619f343da30e4e755a1", "lon": -77.01673683333334}, {"is_reserved": 0, "fusion_lon": 0.0, "fusion_lat": 0.0, "name": "1e99c16d4ef3e6066076a68a3917a642", "type": "electric_bike", "is_disabled": 0, "lat": 38.857694333333335, "rental_uris": {"android": "https://dc.lft.to/lastmile_qr_scan", "ios": "https://dc.lft.to/lastmile_qr_scan"}, "bike_id": "1e99c16d4ef3e6066076a68a3917a642", "lon": -76.987629}, {"is_reserved": 0, "fusion_lon": 0.0, "fusion_lat": 0.0, "name": "4f24da9b25d7fe8432be77c6c6fbbe2a", "type": "electric_bike", "is_disabled": 0, "lat": 38.83810316666667, "rental_uris": {"android": "https://dc.lft.to/lastmile_qr_scan", "ios": "https://dc.lft.to/lastmile_qr_scan"}, "bike_id": "4f24da9b25d7fe8432be77c6c6fbbe2a", "lon": -77.09524116666667}, {"is_reserved": 0, "fusion_lon": 0.0, "fusion_lat": 0.0, "name": "112d2caea6d5ed808dd8db1df3d50274", "type": "electric_scooter", "is_disabled": 0, "lat": 38.930199, "rental_uris": {"android": "https://dc.lft.to/lastmile_qr_scan", "ios": "https://dc.lft.to/lastmile_qr_scan"}, "bike_id": "112d2caea6d5ed808dd8db1df3d50274", "lon": -77.06085633333333}, {"is_reserved": 0, "fusion_lon": 0.0, "fusion_lat": 0.0, "name": "677d0bcc9b5400c8de1af6c64af4533a", "type": "electric_scooter", "is_disabled": 0, "lat": 38.941794, "rental_uris": {"android": "https://dc.lft.to/lastmile_qr_scan", "ios": "https://dc.lft.to/lastmile_qr_scan"}, "bike_id": "677d0bcc9b5400c8de1af6c64af4533a", "lon": -77.02556383333334}, {"is_reserved": 0, "fusion_lon": 0.0, "fusion_lat": 0.0, "name": "b98a0eabe50db9a6fc534ab9f7714b6c", "type": "electric_scooter", "is_disabled": 0, "lat": 38.866676166666664, "rental_uris": {"android": "https://dc.lft.to/lastmile_qr_scan", "ios": "https://dc.lft.to/lastmile_qr_scan"}, "bike_id": "b98a0eabe50db9a6fc534ab9f7714b6c", "lon": -76.9851675}, {"is_reserved": 0, "fusion_lon": 0.0, "fusion_lat": 0.0, "name": "4d2e4e470c626260982cdd4560396245", "type": "electric_scooter", "is_disabled": 0, "lat": 38.9017185, "rental_uris": {"android": "https://dc.lft.to/lastmile_qr_scan", "ios": "https://dc.lft.to/lastmile_qr_scan"}, "bike_id": "4d2e4e470c626260982cdd4560396245", "lon": -77.06000316666666}, {"is_reserved": 0, "fusion_lon": 0.0, "fusion_lat": 0.0, "name": "bc04b35974e2438380898682f2a731ac", "type": "electric_scooter", "is_disabled": 0, "lat": 38.905249, "rental_uris": {"android": "https://dc.lft.to/lastmile_qr_scan", "ios": "https://dc.lft.to/lastmile_qr_scan"}, "bike_id": "bc04b35974e2438380898682f2a731ac", "lon": -77.04864216666667}, {"is_reserved": 0, "fusion_lon": 0.0, "fusion_lat": 0.0, "name": "448b330292ddb985b284ad9b13e618a0", "type": "electric_scooter", "is_disabled": 0, "lat": 38.89552316666666, "rental_uris": {"android": "https://dc.lft.to/lastmile_qr_scan", "ios": "https://dc.lft.to/lastmile_qr_scan"}, "bike_id": "448b330292ddb985b284ad9b13e618a0", "lon": -76.948779}, {"is_reserved": 0, "fusion_lon": 0.0, "fusion_lat": 0.0, "name": "0ac656ce803ecb61d357d2e1613a5122", "type": "electric_scooter", "is_disabled": 0, "lat": 38.9137995, "rental_uris": {"android": "https://dc.lft.to/lastmile_qr_scan", "ios": "https://dc.lft.to/lastmile_qr_scan"}, "bike_id": "0ac656ce803ecb61d357d2e1613a5122", "lon": -77.0413075}, {"is_reserved": 0, "fusion_lon": 0.0, "fusion_lat": 0.0, "name": "900f019ec20221c04af4792c6d0bdbef", "type": "electric_scooter", "is_disabled": 0, "lat": 38.92948066666666, "rental_uris": {"android": "https://dc.lft.to/lastmile_qr_scan", "ios": "https://dc.lft.to/lastmile_qr_scan"}, "bike_id": "900f019ec20221c04af4792c6d0bdbef", "lon": -77.02784216666667}, {"is_reserved": 0, "fusion_lon": 0.0, "fusion_lat": 0.0, "name": "73d184072f86375b3c5bfa1d49604daa", "type": "electric_scooter", "is_disabled": 0, "lat": 38.907121, "rental_uris": {"android": "https://dc.lft.to/lastmile_qr_scan", "ios": "https://dc.lft.to/lastmile_qr_scan"}, "bike_id": "73d184072f86375b3c5bfa1d49604daa", "lon": -77.0820825}, {"is_reserved": 0, "fusion_lon": 0.0, "fusion_lat": 0.0, "name": "255495391b4d006acad32d8a2adb7f1d", "type": "electric_scooter", "is_disabled": 0, "lat": 38.917895666666666, "rental_uris": {"android": "https://dc.lft.to/lastmile_qr_scan", "ios": "https://dc.lft.to/lastmile_qr_scan"}, "bike_id": "255495391b4d006acad32d8a2adb7f1d", "lon": -77.031801}, {"is_reserved": 0, "fusion_lon": 0.0, "fusion_lat": 0.0, "name": "808c1d915aa8ca10e91f871692d90640", "type": "electric_scooter", "is_disabled": 0, "lat": 38.91691816666667, "rental_uris": {"android": "https://dc.lft.to/lastmile_qr_scan", "ios": "https://dc.lft.to/lastmile_qr_scan"}, "bike_id": "808c1d915aa8ca10e91f871692d90640", "lon": -77.0259665}, {"is_reserved": 0, "fusion_lon": 0.0, "fusion_lat": 0.0, "name": "9266e8fa2e1bea9f6e4485072d284fde", "type": "electric_bike", "is_disabled": 0, "lat": 38.872757, "rental_uris": {"android": "https://dc.lft.to/lastmile_qr_scan", "ios": "https://dc.lft.to/lastmile_qr_scan"}, "bike_id": "9266e8fa2e1bea9f6e4485072d284fde", "lon": -77.23327983333333}, {"is_reserved": 0, "fusion_lon": 0.0, "fusion_lat": 0.0, "name": "2bd6c6249c2bec0cbd30c369fb56dfe7", "type": "electric_scooter", "is_disabled": 0, "lat": 38.927248166666665, "rental_uris": {"android": "https://dc.lft.to/lastmile_qr_scan", "ios": "https://dc.lft.to/lastmile_qr_scan"}, "bike_id": "2bd6c6249c2bec0cbd30c369fb56dfe7", "lon": -77.03990483333334}, {"is_reserved": 0, "fusion_lon": 0.0, "fusion_lat": 0.0, "name": "bbca8d79fe90a7be95fff521c349ee76", "type": "electric_scooter", "is_disabled": 0, "lat": 38.90627816666667, "rental_uris": {"android": "https://dc.lft.to/lastmile_qr_scan", "ios": "https://dc.lft.to/lastmile_qr_scan"}, "bike_id": "bbca8d79fe90a7be95fff521c349ee76", "lon": -77.0688745}, {"is_reserved": 0, "fusion_lon": 0.0, "fusion_lat": 0.0, "name": "5023cfa3ea6c9500f162463922d264e0", "type": "electric_scooter", "is_disabled": 0, "lat": 38.9013335, "rental_uris": {"android": "https://dc.lft.to/lastmile_qr_scan", "ios": "https://dc.lft.to/lastmile_qr_scan"}, "bike_id": "5023cfa3ea6c9500f162463922d264e0", "lon": -77.04026933333333}, {"is_reserved": 0, "fusion_lon": 0.0, "fusion_lat": 0.0, "name": "5043c64795620113986767c7a18feba0", "type": "electric_scooter", "is_disabled": 0, "lat": 38.908258333333336, "rental_uris": {"android": "https://dc.lft.to/lastmile_qr_scan", "ios": "https://dc.lft.to/lastmile_qr_scan"}, "bike_id": "5043c64795620113986767c7a18feba0", "lon": -76.941589}, {"is_reserved": 0, "fusion_lon": 0.0, "fusion_lat": 0.0, "name": "dc9fe8c2cdef598b79edcbbd78ac94f8", "type": "electric_scooter", "is_disabled": 0, "lat": 38.905902, "rental_uris": {"android": "https://dc.lft.to/lastmile_qr_scan", "ios": "https://dc.lft.to/lastmile_qr_scan"}, "bike_id": "dc9fe8c2cdef598b79edcbbd78ac94f8", "lon": -76.9930375}, {"is_reserved": 0, "fusion_lon": 0.0, "fusion_lat": 0.0, "name": "2f4b7005cef94a0e1d09aeb031606759", "type": "electric_scooter", "is_disabled": 0, "lat": 38.905726, "rental_uris": {"android": "https://dc.lft.to/lastmile_qr_scan", "ios": "https://dc.lft.to/lastmile_qr_scan"}, "bike_id": "2f4b7005cef94a0e1d09aeb031606759", "lon": -77.00311183333334}, {"is_reserved": 0, "fusion_lon": 0.0, "fusion_lat": 0.0, "name": "06314c880d38011c3e0a9b3bdf757839", "type": "electric_scooter", "is_disabled": 0, "lat": 38.925050166666665, "rental_uris": {"android": "https://dc.lft.to/lastmile_qr_scan", "ios": "https://dc.lft.to/lastmile_qr_scan"}, "bike_id": "06314c880d38011c3e0a9b3bdf757839", "lon": -77.02359483333333}, {"is_reserved": 0, "fusion_lon": 0.0, "fusion_lat": 0.0, "name": "5ca21c64f9758772e7b2984ccc49309c", "type": "electric_scooter", "is_disabled": 0, "lat": 38.9097455, "rental_uris": {"android": "https://dc.lft.to/lastmile_qr_scan", "ios": "https://dc.lft.to/lastmile_qr_scan"}, "bike_id": "5ca21c64f9758772e7b2984ccc49309c", "lon": -77.03855233333333}, {"is_reserved": 0, "fusion_lon": 0.0, "fusion_lat": 0.0, "name": "d08fbdd30026794653f47fee1a85e215", "type": "electric_scooter", "is_disabled": 0, "lat": 38.90781533333333, "rental_uris": {"android": "https://dc.lft.to/lastmile_qr_scan", "ios": "https://dc.lft.to/lastmile_qr_scan"}, "bike_id": "d08fbdd30026794653f47fee1a85e215", "lon": -77.07250166666667}, {"is_reserved": 0, "fusion_lon": 0.0, "fusion_lat": 0.0, "name": "eebd5748b21fff4cf0d20eb18b4302ee", "type": "electric_scooter", "is_disabled": 0, "lat": 38.92327066666667, "rental_uris": {"android": "https://dc.lft.to/lastmile_qr_scan", "ios": "https://dc.lft.to/lastmile_qr_scan"}, "bike_id": "eebd5748b21fff4cf0d20eb18b4302ee", "lon": -77.04180483333333}, {"is_reserved": 0, "fusion_lon": 0.0, "fusion_lat": 0.0, "name": "ed7e88df5890e146f81a4e3d11a5b996", "type": "electric_scooter", "is_disabled": 0, "lat": 38.90437, "rental_uris": {"android": "https://dc.lft.to/lastmile_qr_scan", "ios": "https://dc.lft.to/lastmile_qr_scan"}, "bike_id": "ed7e88df5890e146f81a4e3d11a5b996", "lon": -77.017168}, {"is_reserved": 0, "fusion_lon": 0.0, "fusion_lat": 0.0, "name": "8d57d8b89ba225aa11dc4be78dc0f03a", "type": "electric_scooter", "is_disabled": 0, "lat": 38.918124166666665, "rental_uris": {"android": "https://dc.lft.to/lastmile_qr_scan", "ios": "https://dc.lft.to/lastmile_qr_scan"}, "bike_id": "8d57d8b89ba225aa11dc4be78dc0f03a", "lon": -77.03458116666667}, {"is_reserved": 0, "fusion_lon": 0.0, "fusion_lat": 0.0, "name": "f20fcda34108ac24736df35b8b0600a0", "type": "electric_scooter", "is_disabled": 0, "lat": 38.93101933333333, "rental_uris": {"android": "https://dc.lft.to/lastmile_qr_scan", "ios": "https://dc.lft.to/lastmile_qr_scan"}, "bike_id": "f20fcda34108ac24736df35b8b0600a0", "lon": -77.02662583333333}, {"is_reserved": 0, "fusion_lon": 0.0, "fusion_lat": 0.0, "name": "37ae467d54019d244a91b8989e873496", "type": "electric_scooter", "is_disabled": 0, "lat": 38.903818333333334, "rental_uris": {"android": "https://dc.lft.to/lastmile_qr_scan", "ios": "https://dc.lft.to/lastmile_qr_scan"}, "bike_id": "37ae467d54019d244a91b8989e873496", "lon": -77.030105}, {"is_reserved": 0, "fusion_lon": 0.0, "fusion_lat": 0.0, "name": "44cb249bbf8eb6734115db5a26b70d1f", "type": "electric_scooter", "is_disabled": 0, "lat": 38.8975345, "rental_uris": {"android": "https://dc.lft.to/lastmile_qr_scan", "ios": "https://dc.lft.to/lastmile_qr_scan"}, "bike_id": "44cb249bbf8eb6734115db5a26b70d1f", "lon": -77.03341366666666}, {"is_reserved": 0, "fusion_lon": 0.0, "fusion_lat": 0.0, "name": "6c1d8a66be0abada620139450f8a574a", "type": "electric_scooter", "is_disabled": 0, "lat": 38.904988333333336, "rental_uris": {"android": "https://dc.lft.to/lastmile_qr_scan", "ios": "https://dc.lft.to/lastmile_qr_scan"}, "bike_id": "6c1d8a66be0abada620139450f8a574a", "lon": -76.974256}, {"is_reserved": 0, "fusion_lon": 0.0, "fusion_lat": 0.0, "name": "708351efcad0a7d83b8a71a79f3fb8d9", "type": "electric_bike", "is_disabled": 0, "lat": 38.8961475, "rental_uris": {"android": "https://dc.lft.to/lastmile_qr_scan", "ios": "https://dc.lft.to/lastmile_qr_scan"}, "bike_id": "708351efcad0a7d83b8a71a79f3fb8d9", "lon": -76.90741183333333}, {"is_reserved": 0, "fusion_lon": 0.0, "fusion_lat": 0.0, "name": "ee8464a82ec3dfe4041d48762ea78b83", "type": "electric_scooter", "is_disabled": 0, "lat": 38.9331355, "rental_uris": {"android": "https://dc.lft.to/lastmile_qr_scan", "ios": "https://dc.lft.to/lastmile_qr_scan"}, "bike_id": "ee8464a82ec3dfe4041d48762ea78b83", "lon": -77.03436516666666}, {"is_reserved": 0, "fusion_lon": 0.0, "fusion_lat": 0.0, "name": "caf27cc51eda786b6f57798234d127cd", "type": "electric_scooter", "is_disabled": 0, "lat": 38.89744533333333, "rental_uris": {"android": "https://dc.lft.to/lastmile_qr_scan", "ios": "https://dc.lft.to/lastmile_qr_scan"}, "bike_id": "caf27cc51eda786b6f57798234d127cd", "lon": -77.05573116666666}, {"is_reserved": 0, "fusion_lon": 0.0, "fusion_lat": 0.0, "name": "7091105c03d874ba772aae585b57cbde", "type": "electric_scooter", "is_disabled": 0, "lat": 38.88530383333333, "rental_uris": {"android": "https://dc.lft.to/lastmile_qr_scan", "ios": "https://dc.lft.to/lastmile_qr_scan"}, "bike_id": "7091105c03d874ba772aae585b57cbde", "lon": -76.98272133333333}, {"is_reserved": 0, "fusion_lon": 0.0, "fusion_lat": 0.0, "name": "dccc78fa212a60c0d56448c37d9a7bfe", "type": "electric_scooter", "is_disabled": 0, "lat": 38.879454333333335, "rental_uris": {"android": "https://dc.lft.to/lastmile_qr_scan", "ios": "https://dc.lft.to/lastmile_qr_scan"}, "bike_id": "dccc78fa212a60c0d56448c37d9a7bfe", "lon": -77.00711766666667}, {"is_reserved": 0, "fusion_lon": 0.0, "fusion_lat": 0.0, "name": "1dd7379d7c7fd4c0bffe99d76386621a", "type": "electric_scooter", "is_disabled": 0, "lat": 38.89615333333333, "rental_uris": {"android": "https://dc.lft.to/lastmile_qr_scan", "ios": "https://dc.lft.to/lastmile_qr_scan"}, "bike_id": "1dd7379d7c7fd4c0bffe99d76386621a", "lon": -76.99970633333334}, {"is_reserved": 0, "fusion_lon": 0.0, "fusion_lat": 0.0, "name": "cb5c15a768dc93954743049f882eb0ed", "type": "electric_scooter", "is_disabled": 0, "lat": 38.90012216666667, "rental_uris": {"android": "https://dc.lft.to/lastmile_qr_scan", "ios": "https://dc.lft.to/lastmile_qr_scan"}, "bike_id": "cb5c15a768dc93954743049f882eb0ed", "lon": -76.99618416666667}, {"is_reserved": 0, "fusion_lon": 0.0, "fusion_lat": 0.0, "name": "635d74e5380dbc2baa45c87a5539ce85", "type": "electric_scooter", "is_disabled": 0, "lat": 38.911911333333336, "rental_uris": {"android": "https://dc.lft.to/lastmile_qr_scan", "ios": "https://dc.lft.to/lastmile_qr_scan"}, "bike_id": "635d74e5380dbc2baa45c87a5539ce85", "lon": -77.00506333333334}, {"is_reserved": 0, "fusion_lon": 0.0, "fusion_lat": 0.0, "name": "957eac619c5ccf0e18891f76ac4faa4e", "type": "electric_scooter", "is_disabled": 0, "lat": 38.892271666666666, "rental_uris": {"android": "https://dc.lft.to/lastmile_qr_scan", "ios": "https://dc.lft.to/lastmile_qr_scan"}, "bike_id": "957eac619c5ccf0e18891f76ac4faa4e", "lon": -77.04654733333334}, {"is_reserved": 0, "fusion_lon": 0.0, "fusion_lat": 0.0, "name": "82001dd7fd6cb5865fa6835f427a453f", "type": "electric_scooter", "is_disabled": 0, "lat": 38.88719316666667, "rental_uris": {"android": "https://dc.lft.to/lastmile_qr_scan", "ios": "https://dc.lft.to/lastmile_qr_scan"}, "bike_id": "82001dd7fd6cb5865fa6835f427a453f", "lon": -77.032108}, {"is_reserved": 0, "fusion_lon": 0.0, "fusion_lat": 0.0, "name": "3eaa6b211db516206a3cafd9ec6e6f56", "type": "electric_scooter", "is_disabled": 0, "lat": 38.89887233333334, "rental_uris": {"android": "https://dc.lft.to/lastmile_qr_scan", "ios": "https://dc.lft.to/lastmile_qr_scan"}, "bike_id": "3eaa6b211db516206a3cafd9ec6e6f56", "lon": -77.03278066666667}, {"is_reserved": 0, "fusion_lon": 0.0, "fusion_lat": 0.0, "name": "c82e4641e3b4680e1df2f51fc9cb2ca7", "type": "electric_scooter", "is_disabled": 0, "lat": 38.90599433333333, "rental_uris": {"android": "https://dc.lft.to/lastmile_qr_scan", "ios": "https://dc.lft.to/lastmile_qr_scan"}, "bike_id": "c82e4641e3b4680e1df2f51fc9cb2ca7", "lon": -77.0641975}, {"is_reserved": 0, "fusion_lon": 0.0, "fusion_lat": 0.0, "name": "0f51f01ffa216598159af75a772482e3", "type": "electric_scooter", "is_disabled": 0, "lat": 38.92219083333333, "rental_uris": {"android": "https://dc.lft.to/lastmile_qr_scan", "ios": "https://dc.lft.to/lastmile_qr_scan"}, "bike_id": "0f51f01ffa216598159af75a772482e3", "lon": -77.0433265}, {"is_reserved": 0, "fusion_lon": 0.0, "fusion_lat": 0.0, "name": "5c5ba397bb703679b030a22b3eb58b63", "type": "electric_scooter", "is_disabled": 0, "lat": 38.896094, "rental_uris": {"android": "https://dc.lft.to/lastmile_qr_scan", "ios": "https://dc.lft.to/lastmile_qr_scan"}, "bike_id": "5c5ba397bb703679b030a22b3eb58b63", "lon": -77.01137083333333}, {"is_reserved": 0, "fusion_lon": 0.0, "fusion_lat": 0.0, "name": "1318cf6cdce8b620bc96007a11d909c1", "type": "electric_scooter", "is_disabled": 0, "lat": 38.915332, "rental_uris": {"android": "https://dc.lft.to/lastmile_qr_scan", "ios": "https://dc.lft.to/lastmile_qr_scan"}, "bike_id": "1318cf6cdce8b620bc96007a11d909c1", "lon": -76.9705575}, {"is_reserved": 0, "fusion_lon": 0.0, "fusion_lat": 0.0, "name": "35318ee5037fe8dc73bcc88a7b20c3d4", "type": "electric_bike", "is_disabled": 0, "lat": 38.91561216666667, "rental_uris": {"android": "https://dc.lft.to/lastmile_qr_scan", "ios": "https://dc.lft.to/lastmile_qr_scan"}, "bike_id": "35318ee5037fe8dc73bcc88a7b20c3d4", "lon": -77.03825766666667}, {"is_reserved": 0, "fusion_lon": 0.0, "fusion_lat": 0.0, "name": "9695c16206b3895e783fc6184021c657", "type": "electric_scooter", "is_disabled": 0, "lat": 38.86056266666667, "rental_uris": {"android": "https://dc.lft.to/lastmile_qr_scan", "ios": "https://dc.lft.to/lastmile_qr_scan"}, "bike_id": "9695c16206b3895e783fc6184021c657", "lon": -76.98502183333333}, {"is_reserved": 0, "fusion_lon": 0.0, "fusion_lat": 0.0, "name": "fe9249fc5118242feb37e0317f57efb3", "type": "electric_scooter", "is_disabled": 0, "lat": 38.9073135, "rental_uris": {"android": "https://dc.lft.to/lastmile_qr_scan", "ios": "https://dc.lft.to/lastmile_qr_scan"}, "bike_id": "fe9249fc5118242feb37e0317f57efb3", "lon": -76.98695333333333}, {"is_reserved": 0, "fusion_lon": 0.0, "fusion_lat": 0.0, "name": "cd96c1fcc9c73a619839f581ec9e0dd1", "type": "electric_scooter", "is_disabled": 0, "lat": 38.9171145, "rental_uris": {"android": "https://dc.lft.to/lastmile_qr_scan", "ios": "https://dc.lft.to/lastmile_qr_scan"}, "bike_id": "cd96c1fcc9c73a619839f581ec9e0dd1", "lon": -77.0288675}, {"is_reserved": 0, "fusion_lon": 0.0, "fusion_lat": 0.0, "name": "8ece9c97bfb7eaf057489f6dda5b50a6", "type": "electric_scooter", "is_disabled": 0, "lat": 38.92368233333333, "rental_uris": {"android": "https://dc.lft.to/lastmile_qr_scan", "ios": "https://dc.lft.to/lastmile_qr_scan"}, "bike_id": "8ece9c97bfb7eaf057489f6dda5b50a6", "lon": -77.019196}, {"is_reserved": 0, "fusion_lon": 0.0, "fusion_lat": 0.0, "name": "cd787885024589918e9e38e296ba32f9", "type": "electric_scooter", "is_disabled": 0, "lat": 38.9037395, "rental_uris": {"android": "https://dc.lft.to/lastmile_qr_scan", "ios": "https://dc.lft.to/lastmile_qr_scan"}, "bike_id": "cd787885024589918e9e38e296ba32f9", "lon": -76.9970995}, {"is_reserved": 0, "fusion_lon": 0.0, "fusion_lat": 0.0, "name": "dd3e0216c0e709f55c1fbe60aa8b17c5", "type": "electric_scooter", "is_disabled": 0, "lat": 38.923459, "rental_uris": {"android": "https://dc.lft.to/lastmile_qr_scan", "ios": "https://dc.lft.to/lastmile_qr_scan"}, "bike_id": "dd3e0216c0e709f55c1fbe60aa8b17c5", "lon": -77.05118466666667}, {"is_reserved": 0, "fusion_lon": 0.0, "fusion_lat": 0.0, "name": "64a42e9ebb64015c42dd9604e57dcb0e", "type": "electric_scooter", "is_disabled": 0, "lat": 38.9275035, "rental_uris": {"android": "https://dc.lft.to/lastmile_qr_scan", "ios": "https://dc.lft.to/lastmile_qr_scan"}, "bike_id": "64a42e9ebb64015c42dd9604e57dcb0e", "lon": -77.02422733333333}, {"is_reserved": 0, "fusion_lon": 0.0, "fusion_lat": 0.0, "name": "3a4261488e3b04d80c679edc5381b23f", "type": "electric_scooter", "is_disabled": 0, "lat": 38.9371215, "rental_uris": {"android": "https://dc.lft.to/lastmile_qr_scan", "ios": "https://dc.lft.to/lastmile_qr_scan"}, "bike_id": "3a4261488e3b04d80c679edc5381b23f", "lon": -77.0293445}, {"is_reserved": 0, "fusion_lon": 0.0, "fusion_lat": 0.0, "name": "aa038738d5622b69c590019ff0301009", "type": "electric_scooter", "is_disabled": 0, "lat": 38.90729433333333, "rental_uris": {"android": "https://dc.lft.to/lastmile_qr_scan", "ios": "https://dc.lft.to/lastmile_qr_scan"}, "bike_id": "aa038738d5622b69c590019ff0301009", "lon": -77.01072633333334}, {"is_reserved": 0, "fusion_lon": 0.0, "fusion_lat": 0.0, "name": "96eab2f3576511d4866d6e8ac9030027", "type": "electric_bike", "is_disabled": 0, "lat": 39.0432395, "rental_uris": {"android": "https://dc.lft.to/lastmile_qr_scan", "ios": "https://dc.lft.to/lastmile_qr_scan"}, "bike_id": "96eab2f3576511d4866d6e8ac9030027", "lon": -77.05165066666666}, {"is_reserved": 0, "fusion_lon": 0.0, "fusion_lat": 0.0, "name": "3bcfa4c7a7f8c55d1ef24495c3072d88", "type": "electric_scooter", "is_disabled": 0, "lat": 38.921078666666666, "rental_uris": {"android": "https://dc.lft.to/lastmile_qr_scan", "ios": "https://dc.lft.to/lastmile_qr_scan"}, "bike_id": "3bcfa4c7a7f8c55d1ef24495c3072d88", "lon": -77.03924016666667}, {"is_reserved": 0, "fusion_lon": 0.0, "fusion_lat": 0.0, "name": "d79a8e010dee895a13c027b804f2d706", "type": "electric_scooter", "is_disabled": 0, "lat": 38.93316316666667, "rental_uris": {"android": "https://dc.lft.to/lastmile_qr_scan", "ios": "https://dc.lft.to/lastmile_qr_scan"}, "bike_id": "d79a8e010dee895a13c027b804f2d706", "lon": -77.02969983333334}, {"is_reserved": 0, "fusion_lon": 0.0, "fusion_lat": 0.0, "name": "ac210607c3452277c93485be7da9cdfe", "type": "electric_scooter", "is_disabled": 0, "lat": 38.91683616666667, "rental_uris": {"android": "https://dc.lft.to/lastmile_qr_scan", "ios": "https://dc.lft.to/lastmile_qr_scan"}, "bike_id": "ac210607c3452277c93485be7da9cdfe", "lon": -77.0375035}, {"is_reserved": 0, "fusion_lon": 0.0, "fusion_lat": 0.0, "name": "1ef580d72c62d3780c4e8d56b44ddcd7", "type": "electric_scooter", "is_disabled": 0, "lat": 38.90438566666667, "rental_uris": {"android": "https://dc.lft.to/lastmile_qr_scan", "ios": "https://dc.lft.to/lastmile_qr_scan"}, "bike_id": "1ef580d72c62d3780c4e8d56b44ddcd7", "lon": -76.98490483333333}, {"is_reserved": 0, "fusion_lon": 0.0, "fusion_lat": 0.0, "name": "c897fa57da3b8c328183c13c2dd572cc", "type": "electric_bike", "is_disabled": 0, "lat": 38.96819583333333, "rental_uris": {"android": "https://dc.lft.to/lastmile_qr_scan", "ios": "https://dc.lft.to/lastmile_qr_scan"}, "bike_id": "c897fa57da3b8c328183c13c2dd572cc", "lon": -77.07229316666667}, {"is_reserved": 0, "fusion_lon": 0.0, "fusion_lat": 0.0, "name": "ba2beee81c675213248331a5a5a51091", "type": "electric_scooter", "is_disabled": 0, "lat": 38.8984005, "rental_uris": {"android": "https://dc.lft.to/lastmile_qr_scan", "ios": "https://dc.lft.to/lastmile_qr_scan"}, "bike_id": "ba2beee81c675213248331a5a5a51091", "lon": -77.02423233333333}, {"is_reserved": 0, "fusion_lon": 0.0, "fusion_lat": 0.0, "name": "11a358009c781b60a6262d6574b64d07", "type": "electric_scooter", "is_disabled": 0, "lat": 38.95174083333333, "rental_uris": {"android": "https://dc.lft.to/lastmile_qr_scan", "ios": "https://dc.lft.to/lastmile_qr_scan"}, "bike_id": "11a358009c781b60a6262d6574b64d07", "lon": -77.02728833333333}, {"is_reserved": 0, "fusion_lon": 0.0, "fusion_lat": 0.0, "name": "3fb28a224fc0637d3a41fc2349eabd8f", "type": "electric_scooter", "is_disabled": 0, "lat": 38.8962185, "rental_uris": {"android": "https://dc.lft.to/lastmile_qr_scan", "ios": "https://dc.lft.to/lastmile_qr_scan"}, "bike_id": "3fb28a224fc0637d3a41fc2349eabd8f", "lon": -77.02980666666667}, {"is_reserved": 0, "fusion_lon": 0.0, "fusion_lat": 0.0, "name": "2574925dbc77d4c696fc126bd759c026", "type": "electric_scooter", "is_disabled": 0, "lat": 38.92348116666667, "rental_uris": {"android": "https://dc.lft.to/lastmile_qr_scan", "ios": "https://dc.lft.to/lastmile_qr_scan"}, "bike_id": "2574925dbc77d4c696fc126bd759c026", "lon": -77.05087766666666}, {"is_reserved": 0, "fusion_lon": 0.0, "fusion_lat": 0.0, "name": "3fa343435631a1f3f1563ed1a1c640ad", "type": "electric_scooter", "is_disabled": 0, "lat": 38.915536833333334, "rental_uris": {"android": "https://dc.lft.to/lastmile_qr_scan", "ios": "https://dc.lft.to/lastmile_qr_scan"}, "bike_id": "3fa343435631a1f3f1563ed1a1c640ad", "lon": -77.0220585}, {"is_reserved": 0, "fusion_lon": 0.0, "fusion_lat": 0.0, "name": "57a07852ba9c5f021460c3af0b07552f", "type": "electric_scooter", "is_disabled": 0, "lat": 38.9003195, "rental_uris": {"android": "https://dc.lft.to/lastmile_qr_scan", "ios": "https://dc.lft.to/lastmile_qr_scan"}, "bike_id": "57a07852ba9c5f021460c3af0b07552f", "lon": -76.99621716666667}, {"is_reserved": 0, "fusion_lon": 0.0, "fusion_lat": 0.0, "name": "9d880a37831bf48068eda6995af2eeca", "type": "electric_bike", "is_disabled": 0, "lat": 38.88872683333334, "rental_uris": {"android": "https://dc.lft.to/lastmile_qr_scan", "ios": "https://dc.lft.to/lastmile_qr_scan"}, "bike_id": "9d880a37831bf48068eda6995af2eeca", "lon": -76.97846983333334}, {"is_reserved": 0, "fusion_lon": 0.0, "fusion_lat": 0.0, "name": "464cc66d6627e672c6f269b0cf3563da", "type": "electric_scooter", "is_disabled": 0, "lat": 38.871832833333336, "rental_uris": {"android": "https://dc.lft.to/lastmile_qr_scan", "ios": "https://dc.lft.to/lastmile_qr_scan"}, "bike_id": "464cc66d6627e672c6f269b0cf3563da", "lon": -77.00601966666666}, {"is_reserved": 0, "fusion_lon": 0.0, "fusion_lat": 0.0, "name": "d13cba74259163eb3659ddf233a655fe", "type": "electric_scooter", "is_disabled": 0, "lat": 38.9315735, "rental_uris": {"android": "https://dc.lft.to/lastmile_qr_scan", "ios": "https://dc.lft.to/lastmile_qr_scan"}, "bike_id": "d13cba74259163eb3659ddf233a655fe", "lon": -77.07866966666667}, {"is_reserved": 0, "fusion_lon": 0.0, "fusion_lat": 0.0, "name": "fef3b5ed95708001b9a26d19286d19f0", "type": "electric_scooter", "is_disabled": 0, "lat": 38.9237455, "rental_uris": {"android": "https://dc.lft.to/lastmile_qr_scan", "ios": "https://dc.lft.to/lastmile_qr_scan"}, "bike_id": "fef3b5ed95708001b9a26d19286d19f0", "lon": -77.03017883333334}, {"is_reserved": 0, "fusion_lon": 0.0, "fusion_lat": 0.0, "name": "25646274decce0c705cdb4f109c00de8", "type": "electric_bike", "is_disabled": 0, "lat": 38.94503916666667, "rental_uris": {"android": "https://dc.lft.to/lastmile_qr_scan", "ios": "https://dc.lft.to/lastmile_qr_scan"}, "bike_id": "25646274decce0c705cdb4f109c00de8", "lon": -77.00674766666667}, {"is_reserved": 0, "fusion_lon": 0.0, "fusion_lat": 0.0, "name": "88705872f28ad4151d843b0085423323", "type": "electric_bike", "is_disabled": 0, "lat": 38.79676283333333, "rental_uris": {"android": "https://dc.lft.to/lastmile_qr_scan", "ios": "https://dc.lft.to/lastmile_qr_scan"}, "bike_id": "88705872f28ad4151d843b0085423323", "lon": -76.99331566666666}, {"is_reserved": 0, "fusion_lon": 0.0, "fusion_lat": 0.0, "name": "fd3601707e47e255430b6eace3ad7575", "type": "electric_scooter", "is_disabled": 0, "lat": 38.887386666666664, "rental_uris": {"android": "https://dc.lft.to/lastmile_qr_scan", "ios": "https://dc.lft.to/lastmile_qr_scan"}, "bike_id": "fd3601707e47e255430b6eace3ad7575", "lon": -77.02208583333334}, {"is_reserved": 0, "fusion_lon": 0.0, "fusion_lat": 0.0, "name": "f195e53617cd529f8332ec5b0d4746ae", "type": "electric_scooter", "is_disabled": 0, "lat": 38.89322283333333, "rental_uris": {"android": "https://dc.lft.to/lastmile_qr_scan", "ios": "https://dc.lft.to/lastmile_qr_scan"}, "bike_id": "f195e53617cd529f8332ec5b0d4746ae", "lon": -77.01811083333334}, {"is_reserved": 0, "fusion_lon": 0.0, "fusion_lat": 0.0, "name": "6f06fbff4878fedd1656088146df4caf", "type": "electric_scooter", "is_disabled": 0, "lat": 38.89169283333333, "rental_uris": {"android": "https://dc.lft.to/lastmile_qr_scan", "ios": "https://dc.lft.to/lastmile_qr_scan"}, "bike_id": "6f06fbff4878fedd1656088146df4caf", "lon": -76.9517665}, {"is_reserved": 0, "fusion_lon": 0.0, "fusion_lat": 0.0, "name": "bee1cd09fe306c430ab5323ee5a7a243", "type": "electric_scooter", "is_disabled": 0, "lat": 38.902333, "rental_uris": {"android": "https://dc.lft.to/lastmile_qr_scan", "ios": "https://dc.lft.to/lastmile_qr_scan"}, "bike_id": "bee1cd09fe306c430ab5323ee5a7a243", "lon": -77.05339383333333}, {"is_reserved": 0, "fusion_lon": 0.0, "fusion_lat": 0.0, "name": "8b474d5407f4aa7e5d4b2e93f161f0f3", "type": "electric_bike", "is_disabled": 0, "lat": 38.956539666666664, "rental_uris": {"android": "https://dc.lft.to/lastmile_qr_scan", "ios": "https://dc.lft.to/lastmile_qr_scan"}, "bike_id": "8b474d5407f4aa7e5d4b2e93f161f0f3", "lon": -77.02251483333333}, {"is_reserved": 0, "fusion_lon": 0.0, "fusion_lat": 0.0, "name": "f579cde73ad910f4410fba57b420cdc9", "type": "electric_scooter", "is_disabled": 0, "lat": 38.87783233333333, "rental_uris": {"android": "https://dc.lft.to/lastmile_qr_scan", "ios": "https://dc.lft.to/lastmile_qr_scan"}, "bike_id": "f579cde73ad910f4410fba57b420cdc9", "lon": -76.99410783333333}, {"is_reserved": 0, "fusion_lon": 0.0, "fusion_lat": 0.0, "name": "097f9863eb4880ab4fee0078fe6cd494", "type": "electric_scooter", "is_disabled": 0, "lat": 38.903787666666666, "rental_uris": {"android": "https://dc.lft.to/lastmile_qr_scan", "ios": "https://dc.lft.to/lastmile_qr_scan"}, "bike_id": "097f9863eb4880ab4fee0078fe6cd494", "lon": -77.04179983333333}, {"is_reserved": 0, "fusion_lon": 0.0, "fusion_lat": 0.0, "name": "3e1b2a306c7760858aed8af8d0d33cab", "type": "electric_bike", "is_disabled": 0, "lat": 38.8065705, "rental_uris": {"android": "https://dc.lft.to/lastmile_qr_scan", "ios": "https://dc.lft.to/lastmile_qr_scan"}, "bike_id": "3e1b2a306c7760858aed8af8d0d33cab", "lon": -77.08758366666666}, {"is_reserved": 0, "fusion_lon": 0.0, "fusion_lat": 0.0, "name": "e86d6a9d72f95737484fc2bdb6f93415", "type": "electric_scooter", "is_disabled": 0, "lat": 38.932542, "rental_uris": {"android": "https://dc.lft.to/lastmile_qr_scan", "ios": "https://dc.lft.to/lastmile_qr_scan"}, "bike_id": "e86d6a9d72f95737484fc2bdb6f93415", "lon": -77.03851016666667}, {"is_reserved": 0, "fusion_lon": 0.0, "fusion_lat": 0.0, "name": "b8a143b037d2c35285004ffe6439c167", "type": "electric_scooter", "is_disabled": 0, "lat": 38.917206, "rental_uris": {"android": "https://dc.lft.to/lastmile_qr_scan", "ios": "https://dc.lft.to/lastmile_qr_scan"}, "bike_id": "b8a143b037d2c35285004ffe6439c167", "lon": -77.06831683333333}, {"is_reserved": 0, "fusion_lon": 0.0, "fusion_lat": 0.0, "name": "e9068b2f77053e92270fa389f0c53dc0", "type": "electric_scooter", "is_disabled": 0, "lat": 38.8989985, "rental_uris": {"android": "https://dc.lft.to/lastmile_qr_scan", "ios": "https://dc.lft.to/lastmile_qr_scan"}, "bike_id": "e9068b2f77053e92270fa389f0c53dc0", "lon": -76.991586}, {"is_reserved": 0, "fusion_lon": 0.0, "fusion_lat": 0.0, "name": "db8ccf51d19e77bd87888380dc245cd3", "type": "electric_scooter", "is_disabled": 0, "lat": 38.90498683333333, "rental_uris": {"android": "https://dc.lft.to/lastmile_qr_scan", "ios": "https://dc.lft.to/lastmile_qr_scan"}, "bike_id": "db8ccf51d19e77bd87888380dc245cd3", "lon": -76.97926783333334}, {"is_reserved": 0, "fusion_lon": 0.0, "fusion_lat": 0.0, "name": "ca4ce98399b7b69bc4660794eb9f9de8", "type": "electric_scooter", "is_disabled": 0, "lat": 38.871190666666664, "rental_uris": {"android": "https://dc.lft.to/lastmile_qr_scan", "ios": "https://dc.lft.to/lastmile_qr_scan"}, "bike_id": "ca4ce98399b7b69bc4660794eb9f9de8", "lon": -77.007587}, {"is_reserved": 0, "fusion_lon": 0.0, "fusion_lat": 0.0, "name": "8bbd1493c70a460e2d5ee5b8f7b9f0b2", "type": "electric_scooter", "is_disabled": 0, "lat": 38.89916266666667, "rental_uris": {"android": "https://dc.lft.to/lastmile_qr_scan", "ios": "https://dc.lft.to/lastmile_qr_scan"}, "bike_id": "8bbd1493c70a460e2d5ee5b8f7b9f0b2", "lon": -76.93381283333333}, {"is_reserved": 0, "fusion_lon": 0.0, "fusion_lat": 0.0, "name": "4b0125ce89dea4bd5afa0b1f55bf5ba2", "type": "electric_bike", "is_disabled": 0, "lat": 38.966287, "rental_uris": {"android": "https://dc.lft.to/lastmile_qr_scan", "ios": "https://dc.lft.to/lastmile_qr_scan"}, "bike_id": "4b0125ce89dea4bd5afa0b1f55bf5ba2", "lon": -77.03425216666666}, {"is_reserved": 0, "fusion_lon": 0.0, "fusion_lat": 0.0, "name": "e59774fcaaa3d3c54bfc9a3a38bcc18a", "type": "electric_bike", "is_disabled": 0, "lat": 38.89357416666667, "rental_uris": {"android": "https://dc.lft.to/lastmile_qr_scan", "ios": "https://dc.lft.to/lastmile_qr_scan"}, "bike_id": "e59774fcaaa3d3c54bfc9a3a38bcc18a", "lon": -77.18738083333334}, {"is_reserved": 0, "fusion_lon": 0.0, "fusion_lat": 0.0, "name": "e0caec41b68d146500e928ae1a0516e1", "type": "electric_scooter", "is_disabled": 0, "lat": 38.905817166666665, "rental_uris": {"android": "https://dc.lft.to/lastmile_qr_scan", "ios": "https://dc.lft.to/lastmile_qr_scan"}, "bike_id": "e0caec41b68d146500e928ae1a0516e1", "lon": -77.0237635}, {"is_reserved": 0, "fusion_lon": 0.0, "fusion_lat": 0.0, "name": "c1591bd1ce43654dec73701bdb200a2f", "type": "electric_scooter", "is_disabled": 0, "lat": 38.92157, "rental_uris": {"android": "https://dc.lft.to/lastmile_qr_scan", "ios": "https://dc.lft.to/lastmile_qr_scan"}, "bike_id": "c1591bd1ce43654dec73701bdb200a2f", "lon": -77.0435035}, {"is_reserved": 0, "fusion_lon": 0.0, "fusion_lat": 0.0, "name": "2f8b0ec288978aaf7556b398301f8508", "type": "electric_scooter", "is_disabled": 0, "lat": 38.91709633333333, "rental_uris": {"android": "https://dc.lft.to/lastmile_qr_scan", "ios": "https://dc.lft.to/lastmile_qr_scan"}, "bike_id": "2f8b0ec288978aaf7556b398301f8508", "lon": -77.02280916666666}, {"is_reserved": 0, "fusion_lon": 0.0, "fusion_lat": 0.0, "name": "6efcf2b32ed458210bb30feb98f8b090", "type": "electric_scooter", "is_disabled": 0, "lat": 38.897492, "rental_uris": {"android": "https://dc.lft.to/lastmile_qr_scan", "ios": "https://dc.lft.to/lastmile_qr_scan"}, "bike_id": "6efcf2b32ed458210bb30feb98f8b090", "lon": -77.0471635}, {"is_reserved": 0, "fusion_lon": 0.0, "fusion_lat": 0.0, "name": "d3bc953ad73f5c76796ccf2d205e2727", "type": "electric_scooter", "is_disabled": 0, "lat": 38.89391783333333, "rental_uris": {"android": "https://dc.lft.to/lastmile_qr_scan", "ios": "https://dc.lft.to/lastmile_qr_scan"}, "bike_id": "d3bc953ad73f5c76796ccf2d205e2727", "lon": -77.02250283333333}, {"is_reserved": 0, "fusion_lon": 0.0, "fusion_lat": 0.0, "name": "a7712fddbd7b1d163f5ec91558fc1163", "type": "electric_scooter", "is_disabled": 0, "lat": 38.908101333333335, "rental_uris": {"android": "https://dc.lft.to/lastmile_qr_scan", "ios": "https://dc.lft.to/lastmile_qr_scan"}, "bike_id": "a7712fddbd7b1d163f5ec91558fc1163", "lon": -77.03451783333334}, {"is_reserved": 0, "fusion_lon": 0.0, "fusion_lat": 0.0, "name": "44a20808771fe7a71ce8cd0dc9fc8136", "type": "electric_scooter", "is_disabled": 0, "lat": 38.8993145, "rental_uris": {"android": "https://dc.lft.to/lastmile_qr_scan", "ios": "https://dc.lft.to/lastmile_qr_scan"}, "bike_id": "44a20808771fe7a71ce8cd0dc9fc8136", "lon": -76.945729}, {"is_reserved": 0, "fusion_lon": 0.0, "fusion_lat": 0.0, "name": "0d7bc3aedc46d2d622ec6957e54f0826", "type": "electric_bike", "is_disabled": 0, "lat": 38.854195833333335, "rental_uris": {"android": "https://dc.lft.to/lastmile_qr_scan", "ios": "https://dc.lft.to/lastmile_qr_scan"}, "bike_id": "0d7bc3aedc46d2d622ec6957e54f0826", "lon": -77.1207425}, {"is_reserved": 0, "fusion_lon": 0.0, "fusion_lat": 0.0, "name": "a8e80a4690fd6fb65f42e34ca58be3fe", "type": "electric_scooter", "is_disabled": 0, "lat": 38.912703666666665, "rental_uris": {"android": "https://dc.lft.to/lastmile_qr_scan", "ios": "https://dc.lft.to/lastmile_qr_scan"}, "bike_id": "a8e80a4690fd6fb65f42e34ca58be3fe", "lon": -77.0317885}, {"is_reserved": 0, "fusion_lon": 0.0, "fusion_lat": 0.0, "name": "9b87c77c9daf2a1c60047826b426a544", "type": "electric_scooter", "is_disabled": 0, "lat": 38.912827666666665, "rental_uris": {"android": "https://dc.lft.to/lastmile_qr_scan", "ios": "https://dc.lft.to/lastmile_qr_scan"}, "bike_id": "9b87c77c9daf2a1c60047826b426a544", "lon": -77.04508966666667}, {"is_reserved": 0, "fusion_lon": 0.0, "fusion_lat": 0.0, "name": "42868c510add0e59ab9e0bc43332652a", "type": "electric_scooter", "is_disabled": 0, "lat": 38.91769383333333, "rental_uris": {"android": "https://dc.lft.to/lastmile_qr_scan", "ios": "https://dc.lft.to/lastmile_qr_scan"}, "bike_id": "42868c510add0e59ab9e0bc43332652a", "lon": -77.01942216666667}, {"is_reserved": 0, "fusion_lon": 0.0, "fusion_lat": 0.0, "name": "c10f271305034fffff420f9be34f6835", "type": "electric_scooter", "is_disabled": 0, "lat": 38.91675033333333, "rental_uris": {"android": "https://dc.lft.to/lastmile_qr_scan", "ios": "https://dc.lft.to/lastmile_qr_scan"}, "bike_id": "c10f271305034fffff420f9be34f6835", "lon": -77.029891}, {"is_reserved": 0, "fusion_lon": 0.0, "fusion_lat": 0.0, "name": "4c0b45bceafc659da77238c5c52745e0", "type": "electric_scooter", "is_disabled": 0, "lat": 38.918075, "rental_uris": {"android": "https://dc.lft.to/lastmile_qr_scan", "ios": "https://dc.lft.to/lastmile_qr_scan"}, "bike_id": "4c0b45bceafc659da77238c5c52745e0", "lon": -77.03318016666667}, {"is_reserved": 0, "fusion_lon": 0.0, "fusion_lat": 0.0, "name": "7cab952ea399f308789eb101540f19bc", "type": "electric_scooter", "is_disabled": 0, "lat": 38.90977866666667, "rental_uris": {"android": "https://dc.lft.to/lastmile_qr_scan", "ios": "https://dc.lft.to/lastmile_qr_scan"}, "bike_id": "7cab952ea399f308789eb101540f19bc", "lon": -77.0269185}, {"is_reserved": 0, "fusion_lon": 0.0, "fusion_lat": 0.0, "name": "87156af75493b4248296fa7558584028", "type": "electric_scooter", "is_disabled": 0, "lat": 38.90814366666667, "rental_uris": {"android": "https://dc.lft.to/lastmile_qr_scan", "ios": "https://dc.lft.to/lastmile_qr_scan"}, "bike_id": "87156af75493b4248296fa7558584028", "lon": -77.0344275}, {"is_reserved": 0, "fusion_lon": 0.0, "fusion_lat": 0.0, "name": "9e6fd02eab8a8a8651619e2ea99cd455", "type": "electric_scooter", "is_disabled": 0, "lat": 38.914064333333336, "rental_uris": {"android": "https://dc.lft.to/lastmile_qr_scan", "ios": "https://dc.lft.to/lastmile_qr_scan"}, "bike_id": "9e6fd02eab8a8a8651619e2ea99cd455", "lon": -77.039505}, {"is_reserved": 0, "fusion_lon": 0.0, "fusion_lat": 0.0, "name": "a6806067258f604ae5e483315c813f44", "type": "electric_scooter", "is_disabled": 0, "lat": 38.957347166666665, "rental_uris": {"android": "https://dc.lft.to/lastmile_qr_scan", "ios": "https://dc.lft.to/lastmile_qr_scan"}, "bike_id": "a6806067258f604ae5e483315c813f44", "lon": -77.02406633333334}, {"is_reserved": 0, "fusion_lon": 0.0, "fusion_lat": 0.0, "name": "04b054d1c447f2cb9a56ca4a7d3dd658", "type": "electric_scooter", "is_disabled": 0, "lat": 38.90971416666667, "rental_uris": {"android": "https://dc.lft.to/lastmile_qr_scan", "ios": "https://dc.lft.to/lastmile_qr_scan"}, "bike_id": "04b054d1c447f2cb9a56ca4a7d3dd658", "lon": -77.02691133333333}, {"is_reserved": 0, "fusion_lon": 0.0, "fusion_lat": 0.0, "name": "a4945b5862d508db78f2ac1159ec2c6c", "type": "electric_scooter", "is_disabled": 0, "lat": 38.903495166666666, "rental_uris": {"android": "https://dc.lft.to/lastmile_qr_scan", "ios": "https://dc.lft.to/lastmile_qr_scan"}, "bike_id": "a4945b5862d508db78f2ac1159ec2c6c", "lon": -76.98274466666666}, {"is_reserved": 0, "fusion_lon": 0.0, "fusion_lat": 0.0, "name": "d92454a17fe49940f24186293110b9d1", "type": "electric_scooter", "is_disabled": 0, "lat": 38.914961, "rental_uris": {"android": "https://dc.lft.to/lastmile_qr_scan", "ios": "https://dc.lft.to/lastmile_qr_scan"}, "bike_id": "d92454a17fe49940f24186293110b9d1", "lon": -77.02002183333333}, {"is_reserved": 0, "fusion_lon": 0.0, "fusion_lat": 0.0, "name": "11d28a532f619669035ef0bdc1acf8b1", "type": "electric_scooter", "is_disabled": 0, "lat": 38.9073755, "rental_uris": {"android": "https://dc.lft.to/lastmile_qr_scan", "ios": "https://dc.lft.to/lastmile_qr_scan"}, "bike_id": "11d28a532f619669035ef0bdc1acf8b1", "lon": -76.986362}, {"is_reserved": 0, "fusion_lon": 0.0, "fusion_lat": 0.0, "name": "c24277ce9c0926b76d03e45dc03f2cf5", "type": "electric_scooter", "is_disabled": 0, "lat": 38.903757166666665, "rental_uris": {"android": "https://dc.lft.to/lastmile_qr_scan", "ios": "https://dc.lft.to/lastmile_qr_scan"}, "bike_id": "c24277ce9c0926b76d03e45dc03f2cf5", "lon": -77.04265033333333}, {"is_reserved": 0, "fusion_lon": 0.0, "fusion_lat": 0.0, "name": "f3c3691b29aca09b1d2b27a1d4a0108d", "type": "electric_scooter", "is_disabled": 0, "lat": 38.8770555, "rental_uris": {"android": "https://dc.lft.to/lastmile_qr_scan", "ios": "https://dc.lft.to/lastmile_qr_scan"}, "bike_id": "f3c3691b29aca09b1d2b27a1d4a0108d", "lon": -77.01732666666666}, {"is_reserved": 0, "fusion_lon": 0.0, "fusion_lat": 0.0, "name": "0a311b2ab9e4339f405cc0369199e226", "type": "electric_scooter", "is_disabled": 0, "lat": 38.9191535, "rental_uris": {"android": "https://dc.lft.to/lastmile_qr_scan", "ios": "https://dc.lft.to/lastmile_qr_scan"}, "bike_id": "0a311b2ab9e4339f405cc0369199e226", "lon": -77.03172183333334}, {"is_reserved": 0, "fusion_lon": 0.0, "fusion_lat": 0.0, "name": "289c5a8d4db85b66e8cf0aa4fc5cad92", "type": "electric_scooter", "is_disabled": 0, "lat": 38.90520933333333, "rental_uris": {"android": "https://dc.lft.to/lastmile_qr_scan", "ios": "https://dc.lft.to/lastmile_qr_scan"}, "bike_id": "289c5a8d4db85b66e8cf0aa4fc5cad92", "lon": -77.0476785}, {"is_reserved": 0, "fusion_lon": 0.0, "fusion_lat": 0.0, "name": "49c79b91bc4d24e7e54407aa9f77e8e7", "type": "electric_scooter", "is_disabled": 0, "lat": 38.89370266666667, "rental_uris": {"android": "https://dc.lft.to/lastmile_qr_scan", "ios": "https://dc.lft.to/lastmile_qr_scan"}, "bike_id": "49c79b91bc4d24e7e54407aa9f77e8e7", "lon": -76.98634783333333}, {"is_reserved": 0, "fusion_lon": 0.0, "fusion_lat": 0.0, "name": "83d1a2c0e24d0f2f0f4e25af77a7da71", "type": "electric_scooter", "is_disabled": 0, "lat": 38.93110433333333, "rental_uris": {"android": "https://dc.lft.to/lastmile_qr_scan", "ios": "https://dc.lft.to/lastmile_qr_scan"}, "bike_id": "83d1a2c0e24d0f2f0f4e25af77a7da71", "lon": -77.03031966666667}, {"is_reserved": 0, "fusion_lon": 0.0, "fusion_lat": 0.0, "name": "7a495965f93427f2b2a84715f6e1dc0f", "type": "electric_scooter", "is_disabled": 0, "lat": 38.92850416666667, "rental_uris": {"android": "https://dc.lft.to/lastmile_qr_scan", "ios": "https://dc.lft.to/lastmile_qr_scan"}, "bike_id": "7a495965f93427f2b2a84715f6e1dc0f", "lon": -77.03735283333333}, {"is_reserved": 0, "fusion_lon": 0.0, "fusion_lat": 0.0, "name": "568755699f695e7aecd399d261736bf6", "type": "electric_scooter", "is_disabled": 0, "lat": 38.9060435, "rental_uris": {"android": "https://dc.lft.to/lastmile_qr_scan", "ios": "https://dc.lft.to/lastmile_qr_scan"}, "bike_id": "568755699f695e7aecd399d261736bf6", "lon": -77.03483816666666}, {"is_reserved": 0, "fusion_lon": 0.0, "fusion_lat": 0.0, "name": "ef5117b0cc1cfac1177c92605641b447", "type": "electric_scooter", "is_disabled": 0, "lat": 38.90639016666667, "rental_uris": {"android": "https://dc.lft.to/lastmile_qr_scan", "ios": "https://dc.lft.to/lastmile_qr_scan"}, "bike_id": "ef5117b0cc1cfac1177c92605641b447", "lon": -77.04140233333334}, {"is_reserved": 0, "fusion_lon": 0.0, "fusion_lat": 0.0, "name": "3c74ba3493c929a8065369b0a8558f2e", "type": "electric_scooter", "is_disabled": 0, "lat": 38.90836183333333, "rental_uris": {"android": "https://dc.lft.to/lastmile_qr_scan", "ios": "https://dc.lft.to/lastmile_qr_scan"}, "bike_id": "3c74ba3493c929a8065369b0a8558f2e", "lon": -77.04305566666666}, {"is_reserved": 0, "fusion_lon": 0.0, "fusion_lat": 0.0, "name": "8b9025a2532c626a61472479aeadaa78", "type": "electric_scooter", "is_disabled": 0, "lat": 38.900138166666665, "rental_uris": {"android": "https://dc.lft.to/lastmile_qr_scan", "ios": "https://dc.lft.to/lastmile_qr_scan"}, "bike_id": "8b9025a2532c626a61472479aeadaa78", "lon": -76.93026983333333}, {"is_reserved": 0, "fusion_lon": 0.0, "fusion_lat": 0.0, "name": "95baec520a689597e3276349435fa032", "type": "electric_scooter", "is_disabled": 0, "lat": 38.9181475, "rental_uris": {"android": "https://dc.lft.to/lastmile_qr_scan", "ios": "https://dc.lft.to/lastmile_qr_scan"}, "bike_id": "95baec520a689597e3276349435fa032", "lon": -77.03460883333334}, {"is_reserved": 0, "fusion_lon": 0.0, "fusion_lat": 0.0, "name": "a442ef45f3b597453dc445000597757a", "type": "electric_scooter", "is_disabled": 0, "lat": 38.932526833333334, "rental_uris": {"android": "https://dc.lft.to/lastmile_qr_scan", "ios": "https://dc.lft.to/lastmile_qr_scan"}, "bike_id": "a442ef45f3b597453dc445000597757a", "lon": -77.0327665}, {"is_reserved": 0, "fusion_lon": 0.0, "fusion_lat": 0.0, "name": "558b444d6e03354820cac25cadea6140", "type": "electric_scooter", "is_disabled": 0, "lat": 38.866982, "rental_uris": {"android": "https://dc.lft.to/lastmile_qr_scan", "ios": "https://dc.lft.to/lastmile_qr_scan"}, "bike_id": "558b444d6e03354820cac25cadea6140", "lon": -76.9859025}, {"is_reserved": 0, "fusion_lon": 0.0, "fusion_lat": 0.0, "name": "85b78a5005fa13a5d556aff8f6e41c91", "type": "electric_scooter", "is_disabled": 0, "lat": 38.89237283333333, "rental_uris": {"android": "https://dc.lft.to/lastmile_qr_scan", "ios": "https://dc.lft.to/lastmile_qr_scan"}, "bike_id": "85b78a5005fa13a5d556aff8f6e41c91", "lon": -77.02380016666666}, {"is_reserved": 0, "fusion_lon": 0.0, "fusion_lat": 0.0, "name": "3cc4ff2f51f2c1a13da274b06819cda3", "type": "electric_scooter", "is_disabled": 0, "lat": 38.92539883333333, "rental_uris": {"android": "https://dc.lft.to/lastmile_qr_scan", "ios": "https://dc.lft.to/lastmile_qr_scan"}, "bike_id": "3cc4ff2f51f2c1a13da274b06819cda3", "lon": -76.97220016666667}, {"is_reserved": 0, "fusion_lon": 0.0, "fusion_lat": 0.0, "name": "8bbe52b70f7180c80fa28c95cacce63f", "type": "electric_scooter", "is_disabled": 0, "lat": 38.90982666666667, "rental_uris": {"android": "https://dc.lft.to/lastmile_qr_scan", "ios": "https://dc.lft.to/lastmile_qr_scan"}, "bike_id": "8bbe52b70f7180c80fa28c95cacce63f", "lon": -77.03173383333333}, {"is_reserved": 0, "fusion_lon": 0.0, "fusion_lat": 0.0, "name": "307ef307b5bf18ada2f505005e542b1e", "type": "electric_scooter", "is_disabled": 0, "lat": 38.9217325, "rental_uris": {"android": "https://dc.lft.to/lastmile_qr_scan", "ios": "https://dc.lft.to/lastmile_qr_scan"}, "bike_id": "307ef307b5bf18ada2f505005e542b1e", "lon": -77.0400495}, {"is_reserved": 0, "fusion_lon": 0.0, "fusion_lat": 0.0, "name": "e0ae8487d0225dd11074cf6d6ba0e133", "type": "electric_scooter", "is_disabled": 0, "lat": 38.900663333333334, "rental_uris": {"android": "https://dc.lft.to/lastmile_qr_scan", "ios": "https://dc.lft.to/lastmile_qr_scan"}, "bike_id": "e0ae8487d0225dd11074cf6d6ba0e133", "lon": -76.94687833333333}, {"is_reserved": 0, "fusion_lon": 0.0, "fusion_lat": 0.0, "name": "bbefbb94b2f56981cc0d448dcf89e527", "type": "electric_scooter", "is_disabled": 0, "lat": 38.8922035, "rental_uris": {"android": "https://dc.lft.to/lastmile_qr_scan", "ios": "https://dc.lft.to/lastmile_qr_scan"}, "bike_id": "bbefbb94b2f56981cc0d448dcf89e527", "lon": -77.02627316666667}, {"is_reserved": 0, "fusion_lon": 0.0, "fusion_lat": 0.0, "name": "4219b7e4655b69d3345859b5b9d7341d", "type": "electric_bike", "is_disabled": 0, "lat": 38.9627445, "rental_uris": {"android": "https://dc.lft.to/lastmile_qr_scan", "ios": "https://dc.lft.to/lastmile_qr_scan"}, "bike_id": "4219b7e4655b69d3345859b5b9d7341d", "lon": -77.01455583333333}, {"is_reserved": 0, "fusion_lon": 0.0, "fusion_lat": 0.0, "name": "0f705f28afdfb803b6f47878802dfc22", "type": "electric_bike", "is_disabled": 0, "lat": 38.930866333333334, "rental_uris": {"android": "https://dc.lft.to/lastmile_qr_scan", "ios": "https://dc.lft.to/lastmile_qr_scan"}, "bike_id": "0f705f28afdfb803b6f47878802dfc22", "lon": -77.02597316666666}, {"is_reserved": 0, "fusion_lon": 0.0, "fusion_lat": 0.0, "name": "e67aec4792bdd880589addcc371e4252", "type": "electric_scooter", "is_disabled": 0, "lat": 38.93443416666667, "rental_uris": {"android": "https://dc.lft.to/lastmile_qr_scan", "ios": "https://dc.lft.to/lastmile_qr_scan"}, "bike_id": "e67aec4792bdd880589addcc371e4252", "lon": -76.99884133333333}, {"is_reserved": 0, "fusion_lon": 0.0, "fusion_lat": 0.0, "name": "8da1e7992e01bc4ad767beda6ffe31c7", "type": "electric_scooter", "is_disabled": 0, "lat": 38.92680766666667, "rental_uris": {"android": "https://dc.lft.to/lastmile_qr_scan", "ios": "https://dc.lft.to/lastmile_qr_scan"}, "bike_id": "8da1e7992e01bc4ad767beda6ffe31c7", "lon": -77.02792}, {"is_reserved": 0, "fusion_lon": 0.0, "fusion_lat": 0.0, "name": "539d0aa28c65b4ca37f1bd1c7a1a9a4d", "type": "electric_scooter", "is_disabled": 0, "lat": 38.906619666666664, "rental_uris": {"android": "https://dc.lft.to/lastmile_qr_scan", "ios": "https://dc.lft.to/lastmile_qr_scan"}, "bike_id": "539d0aa28c65b4ca37f1bd1c7a1a9a4d", "lon": -77.0022125}, {"is_reserved": 0, "fusion_lon": 0.0, "fusion_lat": 0.0, "name": "fa8f8b4fcd42daab4e0b556d4d1b2d14", "type": "electric_scooter", "is_disabled": 0, "lat": 38.90551516666667, "rental_uris": {"android": "https://dc.lft.to/lastmile_qr_scan", "ios": "https://dc.lft.to/lastmile_qr_scan"}, "bike_id": "fa8f8b4fcd42daab4e0b556d4d1b2d14", "lon": -77.00595866666667}, {"is_reserved": 0, "fusion_lon": 0.0, "fusion_lat": 0.0, "name": "a51a1078a2083c43f775e9c0fa1c71f0", "type": "electric_scooter", "is_disabled": 0, "lat": 38.904419, "rental_uris": {"android": "https://dc.lft.to/lastmile_qr_scan", "ios": "https://dc.lft.to/lastmile_qr_scan"}, "bike_id": "a51a1078a2083c43f775e9c0fa1c71f0", "lon": -77.02596433333333}, {"is_reserved": 0, "fusion_lon": 0.0, "fusion_lat": 0.0, "name": "56903a71ff89e96f6f307344e66bd34a", "type": "electric_scooter", "is_disabled": 0, "lat": 38.930325, "rental_uris": {"android": "https://dc.lft.to/lastmile_qr_scan", "ios": "https://dc.lft.to/lastmile_qr_scan"}, "bike_id": "56903a71ff89e96f6f307344e66bd34a", "lon": -77.02773566666667}, {"is_reserved": 0, "fusion_lon": 0.0, "fusion_lat": 0.0, "name": "4a4022f93dfc694835bc0e042f25d251", "type": "electric_scooter", "is_disabled": 0, "lat": 38.9073505, "rental_uris": {"android": "https://dc.lft.to/lastmile_qr_scan", "ios": "https://dc.lft.to/lastmile_qr_scan"}, "bike_id": "4a4022f93dfc694835bc0e042f25d251", "lon": -77.029723}, {"is_reserved": 0, "fusion_lon": 0.0, "fusion_lat": 0.0, "name": "6278f3bcd9a4b4fc23db9ad05132f3bb", "type": "electric_scooter", "is_disabled": 0, "lat": 38.9328745, "rental_uris": {"android": "https://dc.lft.to/lastmile_qr_scan", "ios": "https://dc.lft.to/lastmile_qr_scan"}, "bike_id": "6278f3bcd9a4b4fc23db9ad05132f3bb", "lon": -77.02546083333333}, {"is_reserved": 0, "fusion_lon": 0.0, "fusion_lat": 0.0, "name": "35f9237419ee203d6ec4e473c104bd38", "type": "electric_scooter", "is_disabled": 0, "lat": 38.906087, "rental_uris": {"android": "https://dc.lft.to/lastmile_qr_scan", "ios": "https://dc.lft.to/lastmile_qr_scan"}, "bike_id": "35f9237419ee203d6ec4e473c104bd38", "lon": -77.04045966666666}, {"is_reserved": 0, "fusion_lon": 0.0, "fusion_lat": 0.0, "name": "9d02ecd04da848bbe4374bc7ee8ffe79", "type": "electric_scooter", "is_disabled": 0, "lat": 38.8988825, "rental_uris": {"android": "https://dc.lft.to/lastmile_qr_scan", "ios": "https://dc.lft.to/lastmile_qr_scan"}, "bike_id": "9d02ecd04da848bbe4374bc7ee8ffe79", "lon": -77.03253083333334}, {"is_reserved": 0, "fusion_lon": 0.0, "fusion_lat": 0.0, "name": "85b90df2c427682060a7a39ad48152ca", "type": "electric_scooter", "is_disabled": 0, "lat": 38.89969166666667, "rental_uris": {"android": "https://dc.lft.to/lastmile_qr_scan", "ios": "https://dc.lft.to/lastmile_qr_scan"}, "bike_id": "85b90df2c427682060a7a39ad48152ca", "lon": -77.04504216666666}, {"is_reserved": 0, "fusion_lon": 0.0, "fusion_lat": 0.0, "name": "33440fb441dab12dca978f1e89d26351", "type": "electric_scooter", "is_disabled": 0, "lat": 38.948390833333335, "rental_uris": {"android": "https://dc.lft.to/lastmile_qr_scan", "ios": "https://dc.lft.to/lastmile_qr_scan"}, "bike_id": "33440fb441dab12dca978f1e89d26351", "lon": -77.02543216666666}, {"is_reserved": 0, "fusion_lon": 0.0, "fusion_lat": 0.0, "name": "43dff53ede9ba7cbb24a7928e56f83f0", "type": "electric_scooter", "is_disabled": 0, "lat": 38.92104233333333, "rental_uris": {"android": "https://dc.lft.to/lastmile_qr_scan", "ios": "https://dc.lft.to/lastmile_qr_scan"}, "bike_id": "43dff53ede9ba7cbb24a7928e56f83f0", "lon": -76.9938965}, {"is_reserved": 0, "fusion_lon": 0.0, "fusion_lat": 0.0, "name": "804bbd4e6522f1c690db46dac7abc308", "type": "electric_scooter", "is_disabled": 0, "lat": 38.911755, "rental_uris": {"android": "https://dc.lft.to/lastmile_qr_scan", "ios": "https://dc.lft.to/lastmile_qr_scan"}, "bike_id": "804bbd4e6522f1c690db46dac7abc308", "lon": -77.00287616666667}, {"is_reserved": 0, "fusion_lon": 0.0, "fusion_lat": 0.0, "name": "76eecdef7643f11c1a0fdac85764714e", "type": "electric_scooter", "is_disabled": 0, "lat": 38.90011366666667, "rental_uris": {"android": "https://dc.lft.to/lastmile_qr_scan", "ios": "https://dc.lft.to/lastmile_qr_scan"}, "bike_id": "76eecdef7643f11c1a0fdac85764714e", "lon": -77.04392533333333}, {"is_reserved": 0, "fusion_lon": 0.0, "fusion_lat": 0.0, "name": "f64cd0f9ddd3123aa15cc686aaa62f28", "type": "electric_bike", "is_disabled": 0, "lat": 38.8291405, "rental_uris": {"android": "https://dc.lft.to/lastmile_qr_scan", "ios": "https://dc.lft.to/lastmile_qr_scan"}, "bike_id": "f64cd0f9ddd3123aa15cc686aaa62f28", "lon": -76.99783366666666}, {"is_reserved": 0, "fusion_lon": 0.0, "fusion_lat": 0.0, "name": "3dda4a9f1573640baec928889298f384", "type": "electric_scooter", "is_disabled": 0, "lat": 38.904106666666664, "rental_uris": {"android": "https://dc.lft.to/lastmile_qr_scan", "ios": "https://dc.lft.to/lastmile_qr_scan"}, "bike_id": "3dda4a9f1573640baec928889298f384", "lon": -77.0677925}, {"is_reserved": 0, "fusion_lon": 0.0, "fusion_lat": 0.0, "name": "4d33d314ce9c940346e13d42167a821d", "type": "electric_bike", "is_disabled": 0, "lat": 38.91179066666667, "rental_uris": {"android": "https://dc.lft.to/lastmile_qr_scan", "ios": "https://dc.lft.to/lastmile_qr_scan"}, "bike_id": "4d33d314ce9c940346e13d42167a821d", "lon": -77.01149633333333}, {"is_reserved": 0, "fusion_lon": 0.0, "fusion_lat": 0.0, "name": "0d4ed48bf65b69d34e1320fd3bdeab49", "type": "electric_scooter", "is_disabled": 0, "lat": 38.925320666666664, "rental_uris": {"android": "https://dc.lft.to/lastmile_qr_scan", "ios": "https://dc.lft.to/lastmile_qr_scan"}, "bike_id": "0d4ed48bf65b69d34e1320fd3bdeab49", "lon": -77.0442975}, {"is_reserved": 0, "fusion_lon": 0.0, "fusion_lat": 0.0, "name": "5669f4cac45259c6952856c7d71c71bc", "type": "electric_scooter", "is_disabled": 0, "lat": 38.908184166666665, "rental_uris": {"android": "https://dc.lft.to/lastmile_qr_scan", "ios": "https://dc.lft.to/lastmile_qr_scan"}, "bike_id": "5669f4cac45259c6952856c7d71c71bc", "lon": -77.043237}, {"is_reserved": 0, "fusion_lon": 0.0, "fusion_lat": 0.0, "name": "5e4fdda4ca2bf1140aac2a81c4e34f44", "type": "electric_scooter", "is_disabled": 0, "lat": 38.9288485, "rental_uris": {"android": "https://dc.lft.to/lastmile_qr_scan", "ios": "https://dc.lft.to/lastmile_qr_scan"}, "bike_id": "5e4fdda4ca2bf1140aac2a81c4e34f44", "lon": -77.03325366666667}, {"is_reserved": 0, "fusion_lon": 0.0, "fusion_lat": 0.0, "name": "f20f21da81a5d824290f9bcc56786c8d", "type": "electric_scooter", "is_disabled": 0, "lat": 38.91120316666667, "rental_uris": {"android": "https://dc.lft.to/lastmile_qr_scan", "ios": "https://dc.lft.to/lastmile_qr_scan"}, "bike_id": "f20f21da81a5d824290f9bcc56786c8d", "lon": -77.03156183333333}, {"is_reserved": 0, "fusion_lon": 0.0, "fusion_lat": 0.0, "name": "496d33afbfc2f86bd51c287e0b5a0685", "type": "electric_scooter", "is_disabled": 0, "lat": 38.921578333333336, "rental_uris": {"android": "https://dc.lft.to/lastmile_qr_scan", "ios": "https://dc.lft.to/lastmile_qr_scan"}, "bike_id": "496d33afbfc2f86bd51c287e0b5a0685", "lon": -77.03512333333333}, {"is_reserved": 0, "fusion_lon": 0.0, "fusion_lat": 0.0, "name": "899a9745756cb1474bec7abe732b329f", "type": "electric_bike", "is_disabled": 0, "lat": 38.858919, "rental_uris": {"android": "https://dc.lft.to/lastmile_qr_scan", "ios": "https://dc.lft.to/lastmile_qr_scan"}, "bike_id": "899a9745756cb1474bec7abe732b329f", "lon": -77.1186355}, {"is_reserved": 0, "fusion_lon": 0.0, "fusion_lat": 0.0, "name": "cdcf1e082a6da89f30ab6477898c008c", "type": "electric_scooter", "is_disabled": 0, "lat": 38.92163583333333, "rental_uris": {"android": "https://dc.lft.to/lastmile_qr_scan", "ios": "https://dc.lft.to/lastmile_qr_scan"}, "bike_id": "cdcf1e082a6da89f30ab6477898c008c", "lon": -77.03340133333333}, {"is_reserved": 0, "fusion_lon": 0.0, "fusion_lat": 0.0, "name": "3a221171904a98d9b4dddaf6a11f6658", "type": "electric_scooter", "is_disabled": 0, "lat": 38.90823816666666, "rental_uris": {"android": "https://dc.lft.to/lastmile_qr_scan", "ios": "https://dc.lft.to/lastmile_qr_scan"}, "bike_id": "3a221171904a98d9b4dddaf6a11f6658", "lon": -76.99203283333334}, {"is_reserved": 0, "fusion_lon": 0.0, "fusion_lat": 0.0, "name": "d868751f75e84d95efbd5501d441e140", "type": "electric_scooter", "is_disabled": 0, "lat": 38.91773416666667, "rental_uris": {"android": "https://dc.lft.to/lastmile_qr_scan", "ios": "https://dc.lft.to/lastmile_qr_scan"}, "bike_id": "d868751f75e84d95efbd5501d441e140", "lon": -77.0231155}, {"is_reserved": 0, "fusion_lon": 0.0, "fusion_lat": 0.0, "name": "0ea0a2373464728e61316b888c00756d", "type": "electric_scooter", "is_disabled": 0, "lat": 38.90791016666667, "rental_uris": {"android": "https://dc.lft.to/lastmile_qr_scan", "ios": "https://dc.lft.to/lastmile_qr_scan"}, "bike_id": "0ea0a2373464728e61316b888c00756d", "lon": -77.03865433333333}, {"is_reserved": 0, "fusion_lon": 0.0, "fusion_lat": 0.0, "name": "d70a7e1fd18e8e418c32231865eac2a3", "type": "electric_scooter", "is_disabled": 0, "lat": 38.90718283333333, "rental_uris": {"android": "https://dc.lft.to/lastmile_qr_scan", "ios": "https://dc.lft.to/lastmile_qr_scan"}, "bike_id": "d70a7e1fd18e8e418c32231865eac2a3", "lon": -77.03820833333333}, {"is_reserved": 0, "fusion_lon": 0.0, "fusion_lat": 0.0, "name": "1cfc6afed57d12169ac1fd389d65370f", "type": "electric_scooter", "is_disabled": 0, "lat": 38.892368833333336, "rental_uris": {"android": "https://dc.lft.to/lastmile_qr_scan", "ios": "https://dc.lft.to/lastmile_qr_scan"}, "bike_id": "1cfc6afed57d12169ac1fd389d65370f", "lon": -77.031874}, {"is_reserved": 0, "fusion_lon": 0.0, "fusion_lat": 0.0, "name": "c1ea2495b82eae86cb3e3772f3af0f48", "type": "electric_scooter", "is_disabled": 0, "lat": 38.94511516666667, "rental_uris": {"android": "https://dc.lft.to/lastmile_qr_scan", "ios": "https://dc.lft.to/lastmile_qr_scan"}, "bike_id": "c1ea2495b82eae86cb3e3772f3af0f48", "lon": -77.03324283333333}, {"is_reserved": 0, "fusion_lon": 0.0, "fusion_lat": 0.0, "name": "54d9f66b43139d3ed6ceb30f9f86fcb6", "type": "electric_scooter", "is_disabled": 0, "lat": 38.922459, "rental_uris": {"android": "https://dc.lft.to/lastmile_qr_scan", "ios": "https://dc.lft.to/lastmile_qr_scan"}, "bike_id": "54d9f66b43139d3ed6ceb30f9f86fcb6", "lon": -77.030701}, {"is_reserved": 0, "fusion_lon": 0.0, "fusion_lat": 0.0, "name": "72bfe582ae0de258e8db668248bc8eb6", "type": "electric_scooter", "is_disabled": 0, "lat": 38.917674, "rental_uris": {"android": "https://dc.lft.to/lastmile_qr_scan", "ios": "https://dc.lft.to/lastmile_qr_scan"}, "bike_id": "72bfe582ae0de258e8db668248bc8eb6", "lon": -77.0406125}, {"is_reserved": 0, "fusion_lon": 0.0, "fusion_lat": 0.0, "name": "92b475ead78904f809c9642f2877d644", "type": "electric_scooter", "is_disabled": 0, "lat": 38.90541316666667, "rental_uris": {"android": "https://dc.lft.to/lastmile_qr_scan", "ios": "https://dc.lft.to/lastmile_qr_scan"}, "bike_id": "92b475ead78904f809c9642f2877d644", "lon": -77.0216685}, {"is_reserved": 0, "fusion_lon": 0.0, "fusion_lat": 0.0, "name": "3440a42ce2ee1a7a1611055643b34985", "type": "electric_scooter", "is_disabled": 0, "lat": 38.923374833333334, "rental_uris": {"android": "https://dc.lft.to/lastmile_qr_scan", "ios": "https://dc.lft.to/lastmile_qr_scan"}, "bike_id": "3440a42ce2ee1a7a1611055643b34985", "lon": -77.03619983333333}, {"is_reserved": 0, "fusion_lon": 0.0, "fusion_lat": 0.0, "name": "a2b504ac1d906ae391607b0d647f7ee5", "type": "electric_bike", "is_disabled": 0, "lat": 38.967926, "rental_uris": {"android": "https://dc.lft.to/lastmile_qr_scan", "ios": "https://dc.lft.to/lastmile_qr_scan"}, "bike_id": "a2b504ac1d906ae391607b0d647f7ee5", "lon": -77.000548}, {"is_reserved": 0, "fusion_lon": 0.0, "fusion_lat": 0.0, "name": "61cac15745e29d88739ef734a3300ddd", "type": "electric_scooter", "is_disabled": 0, "lat": 38.961155, "rental_uris": {"android": "https://dc.lft.to/lastmile_qr_scan", "ios": "https://dc.lft.to/lastmile_qr_scan"}, "bike_id": "61cac15745e29d88739ef734a3300ddd", "lon": -77.02788033333333}, {"is_reserved": 0, "fusion_lon": 0.0, "fusion_lat": 0.0, "name": "88d3cdd163b9dacbe459446f2a7cfbfa", "type": "electric_scooter", "is_disabled": 0, "lat": 38.89234366666667, "rental_uris": {"android": "https://dc.lft.to/lastmile_qr_scan", "ios": "https://dc.lft.to/lastmile_qr_scan"}, "bike_id": "88d3cdd163b9dacbe459446f2a7cfbfa", "lon": -77.03206633333333}, {"is_reserved": 0, "fusion_lon": 0.0, "fusion_lat": 0.0, "name": "f468198209830e654eb186cb58935290", "type": "electric_scooter", "is_disabled": 0, "lat": 38.935317833333336, "rental_uris": {"android": "https://dc.lft.to/lastmile_qr_scan", "ios": "https://dc.lft.to/lastmile_qr_scan"}, "bike_id": "f468198209830e654eb186cb58935290", "lon": -77.02350716666666}, {"is_reserved": 0, "fusion_lon": 0.0, "fusion_lat": 0.0, "name": "a432e803157f3af4c709567144c26080", "type": "electric_scooter", "is_disabled": 0, "lat": 38.9017555, "rental_uris": {"android": "https://dc.lft.to/lastmile_qr_scan", "ios": "https://dc.lft.to/lastmile_qr_scan"}, "bike_id": "a432e803157f3af4c709567144c26080", "lon": -76.98011783333334}, {"is_reserved": 0, "fusion_lon": 0.0, "fusion_lat": 0.0, "name": "15a38780cb16d876b5ce1664b2b004ba", "type": "electric_scooter", "is_disabled": 0, "lat": 38.9155315, "rental_uris": {"android": "https://dc.lft.to/lastmile_qr_scan", "ios": "https://dc.lft.to/lastmile_qr_scan"}, "bike_id": "15a38780cb16d876b5ce1664b2b004ba", "lon": -77.0036335}, {"is_reserved": 0, "fusion_lon": 0.0, "fusion_lat": 0.0, "name": "23352b692eda70c6095e3fe0ca2de869", "type": "electric_scooter", "is_disabled": 0, "lat": 38.908050833333334, "rental_uris": {"android": "https://dc.lft.to/lastmile_qr_scan", "ios": "https://dc.lft.to/lastmile_qr_scan"}, "bike_id": "23352b692eda70c6095e3fe0ca2de869", "lon": -77.0319785}, {"is_reserved": 0, "fusion_lon": 0.0, "fusion_lat": 0.0, "name": "cdebc0f58d13321102b948ed741aa079", "type": "electric_scooter", "is_disabled": 0, "lat": 38.897456, "rental_uris": {"android": "https://dc.lft.to/lastmile_qr_scan", "ios": "https://dc.lft.to/lastmile_qr_scan"}, "bike_id": "cdebc0f58d13321102b948ed741aa079", "lon": -77.0334195}, {"is_reserved": 0, "fusion_lon": 0.0, "fusion_lat": 0.0, "name": "4743daaa7acfe3da97edd8175095253f", "type": "electric_scooter", "is_disabled": 0, "lat": 38.89731333333334, "rental_uris": {"android": "https://dc.lft.to/lastmile_qr_scan", "ios": "https://dc.lft.to/lastmile_qr_scan"}, "bike_id": "4743daaa7acfe3da97edd8175095253f", "lon": -77.05519866666667}, {"is_reserved": 0, "fusion_lon": 0.0, "fusion_lat": 0.0, "name": "58ca1afafae9308bc8add5acaa925b0f", "type": "electric_scooter", "is_disabled": 0, "lat": 38.926811666666666, "rental_uris": {"android": "https://dc.lft.to/lastmile_qr_scan", "ios": "https://dc.lft.to/lastmile_qr_scan"}, "bike_id": "58ca1afafae9308bc8add5acaa925b0f", "lon": -77.04351683333333}, {"is_reserved": 0, "fusion_lon": 0.0, "fusion_lat": 0.0, "name": "4a698161cd9f1305cb1e60d6a00e2a92", "type": "electric_bike", "is_disabled": 0, "lat": 38.8966045, "rental_uris": {"android": "https://dc.lft.to/lastmile_qr_scan", "ios": "https://dc.lft.to/lastmile_qr_scan"}, "bike_id": "4a698161cd9f1305cb1e60d6a00e2a92", "lon": -76.930078}, {"is_reserved": 0, "fusion_lon": 0.0, "fusion_lat": 0.0, "name": "b02b1b69ec873dc2c9c7408422f9ad56", "type": "electric_bike", "is_disabled": 0, "lat": 38.903321, "rental_uris": {"android": "https://dc.lft.to/lastmile_qr_scan", "ios": "https://dc.lft.to/lastmile_qr_scan"}, "bike_id": "b02b1b69ec873dc2c9c7408422f9ad56", "lon": -76.97535416666666}, {"is_reserved": 0, "fusion_lon": 0.0, "fusion_lat": 0.0, "name": "ce2e63c903294f0f2743776f16e1e0e2", "type": "electric_bike", "is_disabled": 0, "lat": 38.96740833333333, "rental_uris": {"android": "https://dc.lft.to/lastmile_qr_scan", "ios": "https://dc.lft.to/lastmile_qr_scan"}, "bike_id": "ce2e63c903294f0f2743776f16e1e0e2", "lon": -76.96041716666667}, {"is_reserved": 0, "fusion_lon": 0.0, "fusion_lat": 0.0, "name": "f3572304927f19d45e95b36f1f391c29", "type": "electric_scooter", "is_disabled": 0, "lat": 38.917727666666664, "rental_uris": {"android": "https://dc.lft.to/lastmile_qr_scan", "ios": "https://dc.lft.to/lastmile_qr_scan"}, "bike_id": "f3572304927f19d45e95b36f1f391c29", "lon": -77.03628833333333}, {"is_reserved": 0, "fusion_lon": 0.0, "fusion_lat": 0.0, "name": "7472217810af358eb6df69d8a544b959", "type": "electric_scooter", "is_disabled": 0, "lat": 38.920069833333336, "rental_uris": {"android": "https://dc.lft.to/lastmile_qr_scan", "ios": "https://dc.lft.to/lastmile_qr_scan"}, "bike_id": "7472217810af358eb6df69d8a544b959", "lon": -77.04176016666666}, {"is_reserved": 0, "fusion_lon": 0.0, "fusion_lat": 0.0, "name": "deaf5b4ca264e0d29881478e06f78069", "type": "electric_scooter", "is_disabled": 0, "lat": 38.9226505, "rental_uris": {"android": "https://dc.lft.to/lastmile_qr_scan", "ios": "https://dc.lft.to/lastmile_qr_scan"}, "bike_id": "deaf5b4ca264e0d29881478e06f78069", "lon": -77.01825416666667}, {"is_reserved": 0, "fusion_lon": 0.0, "fusion_lat": 0.0, "name": "c64630e3bb4332a8d5b7363555d4eef5", "type": "electric_scooter", "is_disabled": 0, "lat": 38.932969, "rental_uris": {"android": "https://dc.lft.to/lastmile_qr_scan", "ios": "https://dc.lft.to/lastmile_qr_scan"}, "bike_id": "c64630e3bb4332a8d5b7363555d4eef5", "lon": -77.02185333333334}, {"is_reserved": 0, "fusion_lon": 0.0, "fusion_lat": 0.0, "name": "8a5a587bfe82c69a4294279db54afc39", "type": "electric_scooter", "is_disabled": 0, "lat": 38.886071333333334, "rental_uris": {"android": "https://dc.lft.to/lastmile_qr_scan", "ios": "https://dc.lft.to/lastmile_qr_scan"}, "bike_id": "8a5a587bfe82c69a4294279db54afc39", "lon": -76.9951525}, {"is_reserved": 0, "fusion_lon": 0.0, "fusion_lat": 0.0, "name": "fdd45ee194142a61621cf4e4ba3721e1", "type": "electric_scooter", "is_disabled": 0, "lat": 38.9360865, "rental_uris": {"android": "https://dc.lft.to/lastmile_qr_scan", "ios": "https://dc.lft.to/lastmile_qr_scan"}, "bike_id": "fdd45ee194142a61621cf4e4ba3721e1", "lon": -77.029178}, {"is_reserved": 0, "fusion_lon": 0.0, "fusion_lat": 0.0, "name": "59ab081b449c11863d7f704a06eb35a3", "type": "electric_scooter", "is_disabled": 0, "lat": 38.83702366666667, "rental_uris": {"android": "https://dc.lft.to/lastmile_qr_scan", "ios": "https://dc.lft.to/lastmile_qr_scan"}, "bike_id": "59ab081b449c11863d7f704a06eb35a3", "lon": -77.00569583333333}, {"is_reserved": 0, "fusion_lon": 0.0, "fusion_lat": 0.0, "name": "83afe0aaed6d2fe9ed79603fb93d2794", "type": "electric_scooter", "is_disabled": 0, "lat": 38.90119466666667, "rental_uris": {"android": "https://dc.lft.to/lastmile_qr_scan", "ios": "https://dc.lft.to/lastmile_qr_scan"}, "bike_id": "83afe0aaed6d2fe9ed79603fb93d2794", "lon": -77.06001183333333}, {"is_reserved": 0, "fusion_lon": 0.0, "fusion_lat": 0.0, "name": "7616c847c4f83a6cd736d9a760810bb3", "type": "electric_scooter", "is_disabled": 0, "lat": 38.885616166666665, "rental_uris": {"android": "https://dc.lft.to/lastmile_qr_scan", "ios": "https://dc.lft.to/lastmile_qr_scan"}, "bike_id": "7616c847c4f83a6cd736d9a760810bb3", "lon": -77.01977716666667}, {"is_reserved": 0, "fusion_lon": 0.0, "fusion_lat": 0.0, "name": "21ce492c248fbaee6bcf1b2c01008345", "type": "electric_scooter", "is_disabled": 0, "lat": 38.918078, "rental_uris": {"android": "https://dc.lft.to/lastmile_qr_scan", "ios": "https://dc.lft.to/lastmile_qr_scan"}, "bike_id": "21ce492c248fbaee6bcf1b2c01008345", "lon": -77.031922}, {"is_reserved": 0, "fusion_lon": 0.0, "fusion_lat": 0.0, "name": "43248c363f1684ef186c7b698ad42102", "type": "electric_scooter", "is_disabled": 0, "lat": 38.844389166666666, "rental_uris": {"android": "https://dc.lft.to/lastmile_qr_scan", "ios": "https://dc.lft.to/lastmile_qr_scan"}, "bike_id": "43248c363f1684ef186c7b698ad42102", "lon": -76.99713666666666}, {"is_reserved": 0, "fusion_lon": 0.0, "fusion_lat": 0.0, "name": "87abbd7250036bfe1f833347dcdf5f9e", "type": "electric_scooter", "is_disabled": 0, "lat": 38.90650983333333, "rental_uris": {"android": "https://dc.lft.to/lastmile_qr_scan", "ios": "https://dc.lft.to/lastmile_qr_scan"}, "bike_id": "87abbd7250036bfe1f833347dcdf5f9e", "lon": -77.0271535}, {"is_reserved": 0, "fusion_lon": 0.0, "fusion_lat": 0.0, "name": "a30ed028a0e0cc934a334c329a1eab60", "type": "electric_scooter", "is_disabled": 0, "lat": 38.94120516666667, "rental_uris": {"android": "https://dc.lft.to/lastmile_qr_scan", "ios": "https://dc.lft.to/lastmile_qr_scan"}, "bike_id": "a30ed028a0e0cc934a334c329a1eab60", "lon": -77.01544033333333}, {"is_reserved": 0, "fusion_lon": 0.0, "fusion_lat": 0.0, "name": "7d71660af317d2bb64ebeebdf24eb3f2", "type": "electric_scooter", "is_disabled": 0, "lat": 38.908322166666665, "rental_uris": {"android": "https://dc.lft.to/lastmile_qr_scan", "ios": "https://dc.lft.to/lastmile_qr_scan"}, "bike_id": "7d71660af317d2bb64ebeebdf24eb3f2", "lon": -77.03311166666667}, {"is_reserved": 0, "fusion_lon": 0.0, "fusion_lat": 0.0, "name": "e7b83e82a82c7d1ac083fa94867ab0b6", "type": "electric_scooter", "is_disabled": 0, "lat": 38.90906366666667, "rental_uris": {"android": "https://dc.lft.to/lastmile_qr_scan", "ios": "https://dc.lft.to/lastmile_qr_scan"}, "bike_id": "e7b83e82a82c7d1ac083fa94867ab0b6", "lon": -77.04134766666667}, {"is_reserved": 0, "fusion_lon": 0.0, "fusion_lat": 0.0, "name": "34a8c47fc62612c2b50c50021903fb7b", "type": "electric_scooter", "is_disabled": 0, "lat": 38.900331333333334, "rental_uris": {"android": "https://dc.lft.to/lastmile_qr_scan", "ios": "https://dc.lft.to/lastmile_qr_scan"}, "bike_id": "34a8c47fc62612c2b50c50021903fb7b", "lon": -76.9885965}, {"is_reserved": 0, "fusion_lon": 0.0, "fusion_lat": 0.0, "name": "34d0d180a788783ac1b4da62423fd0a8", "type": "electric_scooter", "is_disabled": 0, "lat": 38.9044625, "rental_uris": {"android": "https://dc.lft.to/lastmile_qr_scan", "ios": "https://dc.lft.to/lastmile_qr_scan"}, "bike_id": "34d0d180a788783ac1b4da62423fd0a8", "lon": -76.996216}, {"is_reserved": 0, "fusion_lon": 0.0, "fusion_lat": 0.0, "name": "8ec64eadab75fb502d9da96d270f4e4c", "type": "electric_bike", "is_disabled": 0, "lat": 38.90424816666667, "rental_uris": {"android": "https://dc.lft.to/lastmile_qr_scan", "ios": "https://dc.lft.to/lastmile_qr_scan"}, "bike_id": "8ec64eadab75fb502d9da96d270f4e4c", "lon": -77.0276995}, {"is_reserved": 0, "fusion_lon": 0.0, "fusion_lat": 0.0, "name": "201e5e75e6df66f2ac9b44f9a3edc7c4", "type": "electric_scooter", "is_disabled": 0, "lat": 38.9102485, "rental_uris": {"android": "https://dc.lft.to/lastmile_qr_scan", "ios": "https://dc.lft.to/lastmile_qr_scan"}, "bike_id": "201e5e75e6df66f2ac9b44f9a3edc7c4", "lon": -77.064908}, {"is_reserved": 0, "fusion_lon": 0.0, "fusion_lat": 0.0, "name": "5a0b97300ce94ab8c976879c34bd640e", "type": "electric_scooter", "is_disabled": 0, "lat": 38.924337, "rental_uris": {"android": "https://dc.lft.to/lastmile_qr_scan", "ios": "https://dc.lft.to/lastmile_qr_scan"}, "bike_id": "5a0b97300ce94ab8c976879c34bd640e", "lon": -77.03537933333334}, {"is_reserved": 0, "fusion_lon": 0.0, "fusion_lat": 0.0, "name": "1c891d97cb3ba494743da554b8451f04", "type": "electric_scooter", "is_disabled": 0, "lat": 38.918287, "rental_uris": {"android": "https://dc.lft.to/lastmile_qr_scan", "ios": "https://dc.lft.to/lastmile_qr_scan"}, "bike_id": "1c891d97cb3ba494743da554b8451f04", "lon": -77.02466116666666}, {"is_reserved": 0, "fusion_lon": 0.0, "fusion_lat": 0.0, "name": "34b1232b0d27950b79d245807e4871f2", "type": "electric_scooter", "is_disabled": 0, "lat": 38.914122666666664, "rental_uris": {"android": "https://dc.lft.to/lastmile_qr_scan", "ios": "https://dc.lft.to/lastmile_qr_scan"}, "bike_id": "34b1232b0d27950b79d245807e4871f2", "lon": -77.02157416666667}, {"is_reserved": 0, "fusion_lon": 0.0, "fusion_lat": 0.0, "name": "375ca9f2aed733b49733863cdf9cee97", "type": "electric_scooter", "is_disabled": 0, "lat": 38.89574316666667, "rental_uris": {"android": "https://dc.lft.to/lastmile_qr_scan", "ios": "https://dc.lft.to/lastmile_qr_scan"}, "bike_id": "375ca9f2aed733b49733863cdf9cee97", "lon": -77.0278985}, {"is_reserved": 0, "fusion_lon": 0.0, "fusion_lat": 0.0, "name": "7c47ec1c0ced9fa49057b441430fbebe", "type": "electric_scooter", "is_disabled": 0, "lat": 38.907887333333335, "rental_uris": {"android": "https://dc.lft.to/lastmile_qr_scan", "ios": "https://dc.lft.to/lastmile_qr_scan"}, "bike_id": "7c47ec1c0ced9fa49057b441430fbebe", "lon": -77.03451583333333}, {"is_reserved": 0, "fusion_lon": 0.0, "fusion_lat": 0.0, "name": "74821e4bd21f38b17f8c8e7ffa5691c1", "type": "electric_scooter", "is_disabled": 0, "lat": 38.90008183333333, "rental_uris": {"android": "https://dc.lft.to/lastmile_qr_scan", "ios": "https://dc.lft.to/lastmile_qr_scan"}, "bike_id": "74821e4bd21f38b17f8c8e7ffa5691c1", "lon": -76.99831666666667}, {"is_reserved": 0, "fusion_lon": 0.0, "fusion_lat": 0.0, "name": "d0531e5466682c9fd53bdb5b7d531957", "type": "electric_scooter", "is_disabled": 0, "lat": 38.9257565, "rental_uris": {"android": "https://dc.lft.to/lastmile_qr_scan", "ios": "https://dc.lft.to/lastmile_qr_scan"}, "bike_id": "d0531e5466682c9fd53bdb5b7d531957", "lon": -77.05260016666666}, {"is_reserved": 0, "fusion_lon": 0.0, "fusion_lat": 0.0, "name": "8748193ed68177bb5a741af6ef7222cd", "type": "electric_scooter", "is_disabled": 0, "lat": 38.9082035, "rental_uris": {"android": "https://dc.lft.to/lastmile_qr_scan", "ios": "https://dc.lft.to/lastmile_qr_scan"}, "bike_id": "8748193ed68177bb5a741af6ef7222cd", "lon": -77.0433265}, {"is_reserved": 0, "fusion_lon": 0.0, "fusion_lat": 0.0, "name": "4f39f09c682fca976fe77ae648277eb6", "type": "electric_scooter", "is_disabled": 0, "lat": 38.88618566666667, "rental_uris": {"android": "https://dc.lft.to/lastmile_qr_scan", "ios": "https://dc.lft.to/lastmile_qr_scan"}, "bike_id": "4f39f09c682fca976fe77ae648277eb6", "lon": -77.019801}, {"is_reserved": 0, "fusion_lon": 0.0, "fusion_lat": 0.0, "name": "6992b20908e663d0f425630f68f0b007", "type": "electric_scooter", "is_disabled": 0, "lat": 38.94503483333333, "rental_uris": {"android": "https://dc.lft.to/lastmile_qr_scan", "ios": "https://dc.lft.to/lastmile_qr_scan"}, "bike_id": "6992b20908e663d0f425630f68f0b007", "lon": -77.03497616666667},