{"data": {"bikes": [{"lat": 38.802713833333335, "is_disabled": 0, "type": "electric_bike", "lon": -77.08114083333334, "bike_id": "dc17aa56d61b09df3994fcf41b8dd93b", "fusion_lat": 0.0, "name": "dc17aa56d61b09df3994fcf41b8dd93b", "is_reserved": 0, "rental_uris": {"android": "https://dc.lft.to/lastmile_qr_scan", "ios": "https://dc.lft.to/lastmile_qr_scan"}, "fusion_lon": 0.0}, {"lat": 38.89238833333334, "is_disabled": 0, "type": "electric_scooter", "lon": -77.05032283333334, "bike_id": "2b6853b3495d14fff63e200b95c447d9", "fusion_lat": 0.0, "name": "2b6853b3495d14fff63e200b95c447d9", "is_reserved": 0, "rental_uris": {"android": "https://dc.lft.to/lastmile_qr_scan", "ios": "https://dc.lft.to/lastmile_qr_scan"}, "fusion_lon": 0.0}, {"lat": 38.86255283333333, "is_disabled": 0, "type": "electric_scooter", "lon": -76.9951315, "bike_id": "cc463a8985eb367579d48fe715e82471", "fusion_lat": 0.0, "name": "cc463a8985eb367579d48fe715e82471", "is_reserved": 0, "rental_uris": {"android": "https://dc.lft.to/lastmile_qr_scan", "ios": "https://dc.lft.to/lastmile_qr_scan"}, "fusion_lon": 0.0}, {"lat": 38.93856533333334, "is_disabled": 0, "type": "electric_scooter", "lon": -77.023258, "bike_id": "7ee34a0373c2365a2b2d777867a46e0c", "fusion_lat": 0.0, "name": "7ee34a0373c2365a2b2d777867a46e0c", "is_reserved": 0, "rental_uris": {"android": "https://dc.lft.to/lastmile_qr_scan", "ios": "https://dc.lft.to/lastmile_qr_scan"}, "fusion_lon": 0.0}, {"lat": 38.934576666666665, "is_disabled": 0, "type": "electric_scooter", "lon": -77.02839466666667, "bike_id": "6fbe9ec1258c469c49f0776d53f6aa53", "fusion_lat": 0.0, "name": "6fbe9ec1258c469c49f0776d53f6aa53", "is_reserved": 0, "rental_uris": {"android": "https://dc.lft.to/lastmile_qr_scan", "ios": "https://dc.lft.to/lastmile_qr_scan"}, "fusion_lon": 0.0}, {"lat": 38.919311, "is_disabled": 0, "type": "electric_scooter", "lon": -77.07077, "bike_id": "b528d37362d398c375f57948f8b3663e", "fusion_lat": 0.0, "name": "b528d37362d398c375f57948f8b3663e", "is_reserved": 0, "rental_uris": {"android": "https://dc.lft.to/lastmile_qr_scan", "ios": "https://dc.lft.to/lastmile_qr_scan"}, "fusion_lon": 0.0}, {"lat": 38.933520666666666, "is_disabled": 0, "type": "electric_scooter", "lon": -77.02493316666667, "bike_id": "b2cfe3a03be7e47319270ec2bce7c806", "fusion_lat": 0.0, "name": "b2cfe3a03be7e47319270ec2bce7c806", "is_reserved": 0, "rental_uris": {"android": "https://dc.lft.to/lastmile_qr_scan", "ios": "https://dc.lft.to/lastmile_qr_scan"}, "fusion_lon": 0.0}, {"lat": 38.95401433333333, "is_disabled": 0, "type": "electric_scooter", "lon": -77.0274705, "bike_id": "114745a2695b349b34e9161f6e90d9a1", "fusion_lat": 0.0, "name": "114745a2695b349b34e9161f6e90d9a1", "is_reserved": 0, "rental_uris": {"android": "https://dc.lft.to/lastmile_qr_scan", "ios": "https://dc.lft.to/lastmile_qr_scan"}, "fusion_lon": 0.0}, {"lat": 38.9242365, "is_disabled": 0, "type": "electric_scooter", "lon": -77.0297735, "bike_id": "ff04c280b5d72c42cf7ece799657568b", "fusion_lat": 0.0, "name": "ff04c280b5d72c42cf7ece799657568b", "is_reserved": 0, "rental_uris": {"android": "https://dc.lft.to/lastmile_qr_scan", "ios": "https://dc.lft.to/lastmile_qr_scan"}, "fusion_lon": 0.0}, {"lat": 38.901212, "is_disabled": 0, "type": "electric_scooter", "lon": -77.015831, "bike_id": "ba3eeee4a0bc3aac176a76b3ab9527c8", "fusion_lat": 0.0, "name": "ba3eeee4a0bc3aac176a76b3ab9527c8", "is_reserved": 0, "rental_uris": {"android": "https://dc.lft.to/lastmile_qr_scan", "ios": "https://dc.lft.to/lastmile_qr_scan"}, "fusion_lon": 0.0}, {"lat": 38.9308755, "is_disabled": 0, "type": "electric_scooter", "lon": -77.07745966666667, "bike_id": "6d365afb04dbab390666b8af0d24a600", "fusion_lat": 0.0, "name": "6d365afb04dbab390666b8af0d24a600", "is_reserved": 0, "rental_uris": {"android": "https://dc.lft.to/lastmile_qr_scan", "ios": "https://dc.lft.to/lastmile_qr_scan"}, "fusion_lon": 0.0}, {"lat": 38.93535033333333, "is_disabled": 0, "type": "electric_scooter", "lon": -77.03398316666667, "bike_id": "94bbcb5f38d3e9754c5d6bfbfaeba4d3", "fusion_lat": 0.0, "name": "94bbcb5f38d3e9754c5d6bfbfaeba4d3", "is_reserved": 0, "rental_uris": {"android": "https://dc.lft.to/lastmile_qr_scan", "ios": "https://dc.lft.to/lastmile_qr_scan"}, "fusion_lon": 0.0}, {"lat": 38.867008, "is_disabled": 0, "type": "electric_scooter", "lon": -76.98712083333334, "bike_id": "3de9038dc57897c9b2c184cee5436d71", "fusion_lat": 0.0, "name": "3de9038dc57897c9b2c184cee5436d71", "is_reserved": 0, "rental_uris": {"android": "https://dc.lft.to/lastmile_qr_scan", "ios": "https://dc.lft.to/lastmile_qr_scan"}, "fusion_lon": 0.0}, {"lat": 38.95252933333333, "is_disabled": 0, "type": "electric_bike", "lon": -77.02394433333333, "bike_id": "d2e10f8bbff9a64ac7a9daef21461701", "fusion_lat": 0.0, "name": "d2e10f8bbff9a64ac7a9daef21461701", "is_reserved": 0, "rental_uris": {"android": "https://dc.lft.to/lastmile_qr_scan", "ios": "https://dc.lft.to/lastmile_qr_scan"}, "fusion_lon": 0.0}, {"lat": 38.89433916666667, "is_disabled": 0, "type": "electric_scooter", "lon": -77.0316905, "bike_id": "56d8515d3c26db82c0e829131cb80578", "fusion_lat": 0.0, "name": "56d8515d3c26db82c0e829131cb80578", "is_reserved": 0, "rental_uris": {"android": "https://dc.lft.to/lastmile_qr_scan", "ios": "https://dc.lft.to/lastmile_qr_scan"}, "fusion_lon": 0.0}, {"lat": 38.91003216666667, "is_disabled": 0, "type": "electric_scooter", "lon": -76.98617233333333, "bike_id": "fc195386871ca4e452277dcd48c6892f", "fusion_lat": 0.0, "name": "fc195386871ca4e452277dcd48c6892f", "is_reserved": 0, "rental_uris": {"android": "https://dc.lft.to/lastmile_qr_scan", "ios": "https://dc.lft.to/lastmile_qr_scan"}, "fusion_lon": 0.0}, {"lat": 38.916772, "is_disabled": 0, "type": "electric_scooter", "lon": -77.029743, "bike_id": "3628bf930328c547b0a7778197b3c624", "fusion_lat": 0.0, "name": "3628bf930328c547b0a7778197b3c624", "is_reserved": 0, "rental_uris": {"android": "https://dc.lft.to/lastmile_qr_scan", "ios": "https://dc.lft.to/lastmile_qr_scan"}, "fusion_lon": 0.0}, {"lat": 38.8993715, "is_disabled": 0, "type": "electric_scooter", "lon": -77.03393366666667, "bike_id": "97ddcbf5911b31591763efc9827cec77", "fusion_lat": 0.0, "name": "97ddcbf5911b31591763efc9827cec77", "is_reserved": 0, "rental_uris": {"android": "https://dc.lft.to/lastmile_qr_scan", "ios": "https://dc.lft.to/lastmile_qr_scan"}, "fusion_lon": 0.0}, {"lat": 38.898999833333335, "is_disabled": 0, "type": "electric_scooter", "lon": -76.93357883333333, "bike_id": "42403bf32e5f80ac960bf2a5e27603a9", "fusion_lat": 0.0, "name": "42403bf32e5f80ac960bf2a5e27603a9", "is_reserved": 0, "rental_uris": {"android": "https://dc.lft.to/lastmile_qr_scan", "ios": "https://dc.lft.to/lastmile_qr_scan"}, "fusion_lon": 0.0}, {"lat": 38.9038685, "is_disabled": 0, "type": "electric_scooter", "lon": -77.01761133333333, "bike_id": "feea77b7540ded9d596ddbd2070c3ae9", "fusion_lat": 0.0, "name": "feea77b7540ded9d596ddbd2070c3ae9", "is_reserved": 0, "rental_uris": {"android": "https://dc.lft.to/lastmile_qr_scan", "ios": "https://dc.lft.to/lastmile_qr_scan"}, "fusion_lon": 0.0}, {"lat": 38.866545, "is_disabled": 0, "type": "electric_scooter", "lon": -76.98884466666667, "bike_id": "0dad37d6f3ef7c773a3893349021e7d8", "fusion_lat": 0.0, "name": "0dad37d6f3ef7c773a3893349021e7d8", "is_reserved": 0, "rental_uris": {"android": "https://dc.lft.to/lastmile_qr_scan", "ios": "https://dc.lft.to/lastmile_qr_scan"}, "fusion_lon": 0.0}, {"lat": 38.92585, "is_disabled": 0, "type": "electric_scooter", "lon": -77.05737833333333, "bike_id": "facc0a8c05587e40c9921838c7c5b46e", "fusion_lat": 0.0, "name": "facc0a8c05587e40c9921838c7c5b46e", "is_reserved": 0, "rental_uris": {"android": "https://dc.lft.to/lastmile_qr_scan", "ios": "https://dc.lft.to/lastmile_qr_scan"}, "fusion_lon": 0.0}, {"lat": 38.917728333333336, "is_disabled": 0, "type": "electric_scooter", "lon": -77.04337283333334, "bike_id": "724a2d10f5c0237051c3a3dac07f3d3a", "fusion_lat": 0.0, "name": "724a2d10f5c0237051c3a3dac07f3d3a", "is_reserved": 0, "rental_uris": {"android": "https://dc.lft.to/lastmile_qr_scan", "ios": "https://dc.lft.to/lastmile_qr_scan"}, "fusion_lon": 0.0}, {"lat": 38.921439166666666, "is_disabled": 0, "type": "electric_scooter", "lon": -77.0437205, "bike_id": "ea48e9ea34883d802ee486e5c8c532bf", "fusion_lat": 0.0, "name": "ea48e9ea34883d802ee486e5c8c532bf", "is_reserved": 0, "rental_uris": {"android": "https://dc.lft.to/lastmile_qr_scan", "ios": "https://dc.lft.to/lastmile_qr_scan"}, "fusion_lon": 0.0}, {"lat": 38.9035895, "is_disabled": 0, "type": "electric_scooter", "lon": -77.01755816666666, "bike_id": "560d88fd9de5791ab9514390ca92ca5b", "fusion_lat": 0.0, "name": "560d88fd9de5791ab9514390ca92ca5b", "is_reserved": 0, "rental_uris": {"android": "https://dc.lft.to/lastmile_qr_scan", "ios": "https://dc.lft.to/lastmile_qr_scan"}, "fusion_lon": 0.0}, {"lat": 38.90327833333333, "is_disabled": 0, "type": "electric_scooter", "lon": -76.9759085, "bike_id": "e31cddfea140801e4b41af33d22cad39", "fusion_lat": 0.0, "name": "e31cddfea140801e4b41af33d22cad39", "is_reserved": 0, "rental_uris": {"android": "https://dc.lft.to/lastmile_qr_scan", "ios": "https://dc.lft.to/lastmile_qr_scan"}, "fusion_lon": 0.0}, {"lat": 38.8975045, "is_disabled": 0, "type": "electric_scooter", "lon": -77.04533, "bike_id": "ce108777a4bc53192a40835411ec6e7e", "fusion_lat": 0.0, "name": "ce108777a4bc53192a40835411ec6e7e", "is_reserved": 0, "rental_uris": {"android": "https://dc.lft.to/lastmile_qr_scan", "ios": "https://dc.lft.to/lastmile_qr_scan"}, "fusion_lon": 0.0}, {"lat": 38.80682683333333, "is_disabled": 0, "type": "electric_bike", "lon": -77.08119866666667, "bike_id": "73d007a8f26bf3f0577b5b1606e7fea0", "fusion_lat": 0.0, "name": "73d007a8f26bf3f0577b5b1606e7fea0", "is_reserved": 0, "rental_uris": {"android": "https://dc.lft.to/lastmile_qr_scan", "ios": "https://dc.lft.to/lastmile_qr_scan"}, "fusion_lon": 0.0}, {"lat": 38.91271183333333, "is_disabled": 0, "type": "electric_bike", "lon": -77.01224233333333, "bike_id": "17c8b55d6146d5b41586721b07a65db0", "fusion_lat": 0.0, "name": "17c8b55d6146d5b41586721b07a65db0", "is_reserved": 0, "rental_uris": {"android": "https://dc.lft.to/lastmile_qr_scan", "ios": "https://dc.lft.to/lastmile_qr_scan"}, "fusion_lon": 0.0}, {"lat": 38.92152466666667, "is_disabled": 0, "type": "electric_scooter", "lon": -77.03661616666666, "bike_id": "2e4e9497550ce667adbf737c59a2c13d", "fusion_lat": 0.0, "name": "2e4e9497550ce667adbf737c59a2c13d", "is_reserved": 0, "rental_uris": {"android": "https://dc.lft.to/lastmile_qr_scan", "ios": "https://dc.lft.to/lastmile_qr_scan"}, "fusion_lon": 0.0}, {"lat": 38.89260983333333, "is_disabled": 0, "type": "electric_scooter", "lon": -76.94157616666666, "bike_id": "d184f2609f17a1828cc775077628b3fd", "fusion_lat": 0.0, "name": "d184f2609f17a1828cc775077628b3fd", "is_reserved": 0, "rental_uris": {"android": "https://dc.lft.to/lastmile_qr_scan", "ios": "https://dc.lft.to/lastmile_qr_scan"}, "fusion_lon": 0.0}, {"lat": 38.934150333333335, "is_disabled": 0, "type": "electric_scooter", "lon": -77.03261033333334, "bike_id": "3766ef14210a12737c0703a1f2c909fb", "fusion_lat": 0.0, "name": "3766ef14210a12737c0703a1f2c909fb", "is_reserved": 0, "rental_uris": {"android": "https://dc.lft.to/lastmile_qr_scan", "ios": "https://dc.lft.to/lastmile_qr_scan"}, "fusion_lon": 0.0}, {"lat": 38.87410233333333, "is_disabled": 0, "type": "electric_scooter", "lon": -76.97303433333333, "bike_id": "512ca82fb78a0f54873adef8327e7ab6", "fusion_lat": 0.0, "name": "512ca82fb78a0f54873adef8327e7ab6", "is_reserved": 0, "rental_uris": {"android": "https://dc.lft.to/lastmile_qr_scan", "ios": "https://dc.lft.to/lastmile_qr_scan"}, "fusion_lon": 0.0}, {"lat": 38.931840666666666, "is_disabled": 0, "type": "electric_scooter", "lon": -77.037544, "bike_id": "2068fa4d941f4b789bc8d2c186581ec6", "fusion_lat": 0.0, "name": "2068fa4d941f4b789bc8d2c186581ec6", "is_reserved": 0, "rental_uris": {"android": "https://dc.lft.to/lastmile_qr_scan", "ios": "https://dc.lft.to/lastmile_qr_scan"}, "fusion_lon": 0.0}, {"lat": 38.93991116666667, "is_disabled": 0, "type": "electric_scooter", "lon": -77.07176116666666, "bike_id": "ee416730091616ff43ee9c548bef20d1", "fusion_lat": 0.0, "name": "ee416730091616ff43ee9c548bef20d1", "is_reserved": 0, "rental_uris": {"android": "https://dc.lft.to/lastmile_qr_scan", "ios": "https://dc.lft.to/lastmile_qr_scan"}, "fusion_lon": 0.0}, {"lat": 38.9101435, "is_disabled": 0, "type": "electric_scooter", "lon": -77.04872516666667, "bike_id": "4cb9d7e36a34d0355eabc536e7b6e7ce", "fusion_lat": 0.0, "name": "4cb9d7e36a34d0355eabc536e7b6e7ce", "is_reserved": 0, "rental_uris": {"android": "https://dc.lft.to/lastmile_qr_scan", "ios": "https://dc.lft.to/lastmile_qr_scan"}, "fusion_lon": 0.0}, {"lat": 38.91567583333333, "is_disabled": 0, "type": "electric_scooter", "lon": -77.03846683333333, "bike_id": "4ca873c82ec9f06e714e8626247ce03a", "fusion_lat": 0.0, "name": "4ca873c82ec9f06e714e8626247ce03a", "is_reserved": 0, "rental_uris": {"android": "https://dc.lft.to/lastmile_qr_scan", "ios": "https://dc.lft.to/lastmile_qr_scan"}, "fusion_lon": 0.0}, {"lat": 38.933980166666665, "is_disabled": 0, "type": "electric_scooter", "lon": -77.05742233333334, "bike_id": "18989ed9a7c109ea5282072b3c2dea8c", "fusion_lat": 0.0, "name": "18989ed9a7c109ea5282072b3c2dea8c", "is_reserved": 0, "rental_uris": {"android": "https://dc.lft.to/lastmile_qr_scan", "ios": "https://dc.lft.to/lastmile_qr_scan"}, "fusion_lon": 0.0}, {"lat": 38.9549525, "is_disabled": 0, "type": "electric_scooter", "lon": -77.06562783333334, "bike_id": "de946829cfa9c7d910d054bd448abffe", "fusion_lat": 0.0, "name": "de946829cfa9c7d910d054bd448abffe", "is_reserved": 0, "rental_uris": {"android": "https://dc.lft.to/lastmile_qr_scan", "ios": "https://dc.lft.to/lastmile_qr_scan"}, "fusion_lon": 0.0}, {"lat": 38.91685833333333, "is_disabled": 0, "type": "electric_scooter", "lon": -77.02716033333333, "bike_id": "af3022f320fea9a315599649a6c5027f", "fusion_lat": 0.0, "name": "af3022f320fea9a315599649a6c5027f", "is_reserved": 0, "rental_uris": {"android": "https://dc.lft.to/lastmile_qr_scan", "ios": "https://dc.lft.to/lastmile_qr_scan"}, "fusion_lon": 0.0}, {"lat": 38.8995075, "is_disabled": 0, "type": "electric_scooter", "lon": -77.0161415, "bike_id": "ff0d7ada14793123cca20ed70262bd27", "fusion_lat": 0.0, "name": "ff0d7ada14793123cca20ed70262bd27", "is_reserved": 0, "rental_uris": {"android": "https://dc.lft.to/lastmile_qr_scan", "ios": "https://dc.lft.to/lastmile_qr_scan"}, "fusion_lon": 0.0}, {"lat": 38.906778333333335, "is_disabled": 0, "type": "electric_scooter", "lon": -77.03649866666666, "bike_id": "2766faafb92cfefb3e657fe24405c472", "fusion_lat": 0.0, "name": "2766faafb92cfefb3e657fe24405c472", "is_reserved": 0, "rental_uris": {"android": "https://dc.lft.to/lastmile_qr_scan", "ios": "https://dc.lft.to/lastmile_qr_scan"}, "fusion_lon": 0.0}, {"lat": 38.93531633333333, "is_disabled": 0, "type": "electric_bike", "lon": -77.05696916666666, "bike_id": "81e5ae7eaa917b905ffd789be9b22dc7", "fusion_lat": 0.0, "name": "81e5ae7eaa917b905ffd789be9b22dc7", "is_reserved": 0, "rental_uris": {"android": "https://dc.lft.to/lastmile_qr_scan", "ios": "https://dc.lft.to/lastmile_qr_scan"}, "fusion_lon": 0.0}, {"lat": 38.88471716666667, "is_disabled": 0, "type": "electric_scooter", "lon": -76.992591, "bike_id": "90d62634d3eff1d1691917d76945e070", "fusion_lat": 0.0, "name": "90d62634d3eff1d1691917d76945e070", "is_reserved": 0, "rental_uris": {"android": "https://dc.lft.to/lastmile_qr_scan", "ios": "https://dc.lft.to/lastmile_qr_scan"}, "fusion_lon": 0.0}, {"lat": 38.90308183333333, "is_disabled": 0, "type": "electric_scooter", "lon": -76.99358833333334, "bike_id": "b6711e17441402afd66731eb24704b08", "fusion_lat": 0.0, "name": "b6711e17441402afd66731eb24704b08", "is_reserved": 0, "rental_uris": {"android": "https://dc.lft.to/lastmile_qr_scan", "ios": "https://dc.lft.to/lastmile_qr_scan"}, "fusion_lon": 0.0}, {"lat": 38.88490733333333, "is_disabled": 0, "type": "electric_scooter", "lon": -77.00713833333333, "bike_id": "5924ab32b9b563c7b02d593f77bb3afb", "fusion_lat": 0.0, "name": "5924ab32b9b563c7b02d593f77bb3afb", "is_reserved": 0, "rental_uris": {"android": "https://dc.lft.to/lastmile_qr_scan", "ios": "https://dc.lft.to/lastmile_qr_scan"}, "fusion_lon": 0.0}, {"lat": 38.921536833333334, "is_disabled": 0, "type": "electric_scooter", "lon": -77.035106, "bike_id": "b10a8a33a506f0d16f91887ec5e54e0f", "fusion_lat": 0.0, "name": "b10a8a33a506f0d16f91887ec5e54e0f", "is_reserved": 0, "rental_uris": {"android": "https://dc.lft.to/lastmile_qr_scan", "ios": "https://dc.lft.to/lastmile_qr_scan"}, "fusion_lon": 0.0}, {"lat": 38.87298666666667, "is_disabled": 0, "type": "electric_scooter", "lon": -77.00926383333334, "bike_id": "2b9def12d5147b8a4b591cedf1b542e9", "fusion_lat": 0.0, "name": "2b9def12d5147b8a4b591cedf1b542e9", "is_reserved": 0, "rental_uris": {"android": "https://dc.lft.to/lastmile_qr_scan", "ios": "https://dc.lft.to/lastmile_qr_scan"}, "fusion_lon": 0.0}, {"lat": 38.9532625, "is_disabled": 0, "type": "electric_scooter", "lon": -77.02766466666667, "bike_id": "351267a7de6e27728621c03adf59944c", "fusion_lat": 0.0, "name": "351267a7de6e27728621c03adf59944c", "is_reserved": 0, "rental_uris": {"android": "https://dc.lft.to/lastmile_qr_scan", "ios": "https://dc.lft.to/lastmile_qr_scan"}, "fusion_lon": 0.0}, {"lat": 38.905722, "is_disabled": 0, "type": "electric_scooter", "lon": -77.029814, "bike_id": "4d1e7b72b0b0dcfaac8b538ae18694ad", "fusion_lat": 0.0, "name": "4d1e7b72b0b0dcfaac8b538ae18694ad", "is_reserved": 0, "rental_uris": {"android": "https://dc.lft.to/lastmile_qr_scan", "ios": "https://dc.lft.to/lastmile_qr_scan"}, "fusion_lon": 0.0}, {"lat": 38.807510666666666, "is_disabled": 0, "type": "electric_bike", "lon": -77.0947895, "bike_id": "986ca7423c3a6e930214967012e93091", "fusion_lat": 0.0, "name": "986ca7423c3a6e930214967012e93091", "is_reserved": 0, "rental_uris": {"android": "https://dc.lft.to/lastmile_qr_scan", "ios": "https://dc.lft.to/lastmile_qr_scan"}, "fusion_lon": 0.0}, {"lat": 38.960211, "is_disabled": 0, "type": "electric_bike", "lon": -77.01725333333333, "bike_id": "3a863136c4870e4170f4ffe705bd0540", "fusion_lat": 0.0, "name": "3a863136c4870e4170f4ffe705bd0540", "is_reserved": 0, "rental_uris": {"android": "https://dc.lft.to/lastmile_qr_scan", "ios": "https://dc.lft.to/lastmile_qr_scan"}, "fusion_lon": 0.0}, {"lat": 38.934318, "is_disabled": 0, "type": "electric_scooter", "lon": -77.03444816666666, "bike_id": "c657ba9ebf0fad04f9f9870864e95571", "fusion_lat": 0.0, "name": "c657ba9ebf0fad04f9f9870864e95571", "is_reserved": 0, "rental_uris": {"android": "https://dc.lft.to/lastmile_qr_scan", "ios": "https://dc.lft.to/lastmile_qr_scan"}, "fusion_lon": 0.0}, {"lat": 39.029322, "is_disabled": 0, "type": "electric_bike", "lon": -77.0492775, "bike_id": "8210781b4184b555cfd7ef72341b615b", "fusion_lat": 0.0, "name": "8210781b4184b555cfd7ef72341b615b", "is_reserved": 0, "rental_uris": {"android": "https://dc.lft.to/lastmile_qr_scan", "ios": "https://dc.lft.to/lastmile_qr_scan"}, "fusion_lon": 0.0}, {"lat": 38.879045, "is_disabled": 0, "type": "electric_scooter", "lon": -77.006916, "bike_id": "8cc49e291c0688063e4cc6fc99ba79e6", "fusion_lat": 0.0, "name": "8cc49e291c0688063e4cc6fc99ba79e6", "is_reserved": 0, "rental_uris": {"android": "https://dc.lft.to/lastmile_qr_scan", "ios": "https://dc.lft.to/lastmile_qr_scan"}, "fusion_lon": 0.0}, {"lat": 38.913388833333336, "is_disabled": 0, "type": "electric_scooter", "lon": -77.00222216666667, "bike_id": "575b4383d4f0ed9c31fc71d98e96b941", "fusion_lat": 0.0, "name": "575b4383d4f0ed9c31fc71d98e96b941", "is_reserved": 0, "rental_uris": {"android": "https://dc.lft.to/lastmile_qr_scan", "ios": "https://dc.lft.to/lastmile_qr_scan"}, "fusion_lon": 0.0}, {"lat": 38.92342883333333, "is_disabled": 0, "type": "electric_scooter", "lon": -77.0188615, "bike_id": "4a7a1e28a172f189952c5b7fc23249c7", "fusion_lat": 0.0, "name": "4a7a1e28a172f189952c5b7fc23249c7", "is_reserved": 0, "rental_uris": {"android": "https://dc.lft.to/lastmile_qr_scan", "ios": "https://dc.lft.to/lastmile_qr_scan"}, "fusion_lon": 0.0}, {"lat": 38.9174365, "is_disabled": 0, "type": "electric_scooter", "lon": -77.06884283333333, "bike_id": "e54eddd5e545d32743227766feb37623", "fusion_lat": 0.0, "name": "e54eddd5e545d32743227766feb37623", "is_reserved": 0, "rental_uris": {"android": "https://dc.lft.to/lastmile_qr_scan", "ios": "https://dc.lft.to/lastmile_qr_scan"}, "fusion_lon": 0.0}, {"lat": 38.92244183333333, "is_disabled": 0, "type": "electric_scooter", "lon": -77.042512, "bike_id": "84d63d2fe84d968b614ebdc0d1db1bbd", "fusion_lat": 0.0, "name": "84d63d2fe84d968b614ebdc0d1db1bbd", "is_reserved": 0, "rental_uris": {"android": "https://dc.lft.to/lastmile_qr_scan", "ios": "https://dc.lft.to/lastmile_qr_scan"}, "fusion_lon": 0.0}, {"lat": 38.912214166666665, "is_disabled": 0, "type": "electric_scooter", "lon": -77.04492116666667, "bike_id": "4cd8e97a10f6f773f5e6f36be128778e", "fusion_lat": 0.0, "name": "4cd8e97a10f6f773f5e6f36be128778e", "is_reserved": 0, "rental_uris": {"android": "https://dc.lft.to/lastmile_qr_scan", "ios": "https://dc.lft.to/lastmile_qr_scan"}, "fusion_lon": 0.0}, {"lat": 38.858013166666666, "is_disabled": 0, "type": "electric_scooter", "lon": -76.98716033333334, "bike_id": "91354f16662ae537f74fa3b929ee94fd", "fusion_lat": 0.0, "name": "91354f16662ae537f74fa3b929ee94fd", "is_reserved": 0, "rental_uris": {"android": "https://dc.lft.to/lastmile_qr_scan", "ios": "https://dc.lft.to/lastmile_qr_scan"}, "fusion_lon": 0.0}, {"lat": 38.88329133333333, "is_disabled": 0, "type": "electric_scooter", "lon": -77.0314685, "bike_id": "249dcd9208518830b587606ca6bdf540", "fusion_lat": 0.0, "name": "249dcd9208518830b587606ca6bdf540", "is_reserved": 0, "rental_uris": {"android": "https://dc.lft.to/lastmile_qr_scan", "ios": "https://dc.lft.to/lastmile_qr_scan"}, "fusion_lon": 0.0}, {"lat": 38.923887666666666, "is_disabled": 0, "type": "electric_scooter", "lon": -77.00066933333333, "bike_id": "c7dd7578dc8b4db606dfbbe9a8c81d4e", "fusion_lat": 0.0, "name": "c7dd7578dc8b4db606dfbbe9a8c81d4e", "is_reserved": 0, "rental_uris": {"android": "https://dc.lft.to/lastmile_qr_scan", "ios": "https://dc.lft.to/lastmile_qr_scan"}, "fusion_lon": 0.0}, {"lat": 38.91809416666667, "is_disabled": 0, "type": "electric_scooter", "lon": -77.0343705, "bike_id": "1eac272cfc3e8276e8b90234419a0a31", "fusion_lat": 0.0, "name": "1eac272cfc3e8276e8b90234419a0a31", "is_reserved": 0, "rental_uris": {"android": "https://dc.lft.to/lastmile_qr_scan", "ios": "https://dc.lft.to/lastmile_qr_scan"}, "fusion_lon": 0.0}, {"lat": 38.89888, "is_disabled": 0, "type": "electric_scooter", "lon": -77.02227433333333, "bike_id": "ce678b0e9a96658c23f37fef0bc8f8d9", "fusion_lat": 0.0, "name": "ce678b0e9a96658c23f37fef0bc8f8d9", "is_reserved": 0, "rental_uris": {"android": "https://dc.lft.to/lastmile_qr_scan", "ios": "https://dc.lft.to/lastmile_qr_scan"}, "fusion_lon": 0.0}, {"lat": 38.861127333333336, "is_disabled": 0, "type": "electric_scooter", "lon": -76.96755466666667, "bike_id": "a5f02dc627e904c8a8f0d1461e0623ee", "fusion_lat": 0.0, "name": "a5f02dc627e904c8a8f0d1461e0623ee", "is_reserved": 0, "rental_uris": {"android": "https://dc.lft.to/lastmile_qr_scan", "ios": "https://dc.lft.to/lastmile_qr_scan"}, "fusion_lon": 0.0}, {"lat": 38.9241085, "is_disabled": 0, "type": "electric_scooter", "lon": -77.03547083333333, "bike_id": "f24a3cc97db9b3e65989e11f0b5b9d69", "fusion_lat": 0.0, "name": "f24a3cc97db9b3e65989e11f0b5b9d69", "is_reserved": 0, "rental_uris": {"android": "https://dc.lft.to/lastmile_qr_scan", "ios": "https://dc.lft.to/lastmile_qr_scan"}, "fusion_lon": 0.0}, {"lat": 38.929741666666665, "is_disabled": 0, "type": "electric_scooter", "lon": -77.0320845, "bike_id": "f7a802e22de0fecf03a90617eb95a147", "fusion_lat": 0.0, "name": "f7a802e22de0fecf03a90617eb95a147", "is_reserved": 0, "rental_uris": {"android": "https://dc.lft.to/lastmile_qr_scan", "ios": "https://dc.lft.to/lastmile_qr_scan"}, "fusion_lon": 0.0}, {"lat": 38.8665645, "is_disabled": 0, "type": "electric_scooter", "lon": -76.98903766666666, "bike_id": "8ea40ac5640e8572218778677e125b1b", "fusion_lat": 0.0, "name": "8ea40ac5640e8572218778677e125b1b", "is_reserved": 0, "rental_uris": {"android": "https://dc.lft.to/lastmile_qr_scan", "ios": "https://dc.lft.to/lastmile_qr_scan"}, "fusion_lon": 0.0}, {"lat": 38.92438083333333, "is_disabled": 0, "type": "electric_scooter", "lon": -77.03356616666666, "bike_id": "dd796172f24a8631587d5144ded15fe3", "fusion_lat": 0.0, "name": "dd796172f24a8631587d5144ded15fe3", "is_reserved": 0, "rental_uris": {"android": "https://dc.lft.to/lastmile_qr_scan", "ios": "https://dc.lft.to/lastmile_qr_scan"}, "fusion_lon": 0.0}, {"lat": 38.924293666666664, "is_disabled": 0, "type": "electric_scooter", "lon": -77.03420283333334, "bike_id": "f449097a0e04a8a1fd4817a6e8c919cb", "fusion_lat": 0.0, "name": "f449097a0e04a8a1fd4817a6e8c919cb", "is_reserved": 0, "rental_uris": {"android": "https://dc.lft.to/lastmile_qr_scan", "ios": "https://dc.lft.to/lastmile_qr_scan"}, "fusion_lon": 0.0}, {"lat": 38.91462083333333, "is_disabled": 0, "type": "electric_scooter", "lon": -77.06688183333333, "bike_id": "85f4cccd440c5acc92a09c4d0337df21", "fusion_lat": 0.0, "name": "85f4cccd440c5acc92a09c4d0337df21", "is_reserved": 0, "rental_uris": {"android": "https://dc.lft.to/lastmile_qr_scan", "ios": "https://dc.lft.to/lastmile_qr_scan"}, "fusion_lon": 0.0}, {"lat": 38.909906166666666, "is_disabled": 0, "type": "electric_scooter", "lon": -76.99738383333333, "bike_id": "5fc0b4ebc8070055726737c6458c6203", "fusion_lat": 0.0, "name": "5fc0b4ebc8070055726737c6458c6203", "is_reserved": 0, "rental_uris": {"android": "https://dc.lft.to/lastmile_qr_scan", "ios": "https://dc.lft.to/lastmile_qr_scan"}, "fusion_lon": 0.0}, {"lat": 38.924089333333335, "is_disabled": 0, "type": "electric_scooter", "lon": -77.034139, "bike_id": "ecdd2277d7e8d4d80bab4e6bdbca4d16", "fusion_lat": 0.0, "name": "ecdd2277d7e8d4d80bab4e6bdbca4d16", "is_reserved": 0, "rental_uris": {"android": "https://dc.lft.to/lastmile_qr_scan", "ios": "https://dc.lft.to/lastmile_qr_scan"}, "fusion_lon": 0.0}, {"lat": 38.926522, "is_disabled": 0, "type": "electric_scooter", "lon": -77.02418966666667, "bike_id": "2827255932b6f338e4e963805f460da8", "fusion_lat": 0.0, "name": "2827255932b6f338e4e963805f460da8", "is_reserved": 0, "rental_uris": {"android": "https://dc.lft.to/lastmile_qr_scan", "ios": "https://dc.lft.to/lastmile_qr_scan"}, "fusion_lon": 0.0}, {"lat": 38.930209166666664, "is_disabled": 0, "type": "electric_scooter", "lon": -77.020468, "bike_id": "716ba081cb35a1d5449626b092941b3d", "fusion_lat": 0.0, "name": "716ba081cb35a1d5449626b092941b3d", "is_reserved": 0, "rental_uris": {"android": "https://dc.lft.to/lastmile_qr_scan", "ios": "https://dc.lft.to/lastmile_qr_scan"}, "fusion_lon": 0.0}, {"lat": 38.8655995, "is_disabled": 0, "type": "electric_scooter", "lon": -76.98951083333333, "bike_id": "928ebeda64b5fd4921121e7f7755c092", "fusion_lat": 0.0, "name": "928ebeda64b5fd4921121e7f7755c092", "is_reserved": 0, "rental_uris": {"android": "https://dc.lft.to/lastmile_qr_scan", "ios": "https://dc.lft.to/lastmile_qr_scan"}, "fusion_lon": 0.0}, {"lat": 38.955555, "is_disabled": 0, "type": "electric_scooter", "lon": -77.0224055, "bike_id": "d17bf4bc3a5795130565c3b457b0f48b", "fusion_lat": 0.0, "name": "d17bf4bc3a5795130565c3b457b0f48b", "is_reserved": 0, "rental_uris": {"android": "https://dc.lft.to/lastmile_qr_scan", "ios": "https://dc.lft.to/lastmile_qr_scan"}, "fusion_lon": 0.0}, {"lat": 38.90917483333333, "is_disabled": 0, "type": "electric_scooter", "lon": -77.03645716666666, "bike_id": "2703b4f56ed83e560ec4b28db3eef313", "fusion_lat": 0.0, "name": "2703b4f56ed83e560ec4b28db3eef313", "is_reserved": 0, "rental_uris": {"android": "https://dc.lft.to/lastmile_qr_scan", "ios": "https://dc.lft.to/lastmile_qr_scan"}, "fusion_lon": 0.0}, {"lat": 38.901978, "is_disabled": 0, "type": "electric_scooter", "lon": -77.02474116666667, "bike_id": "cbafe8dff53a96c5b2ddd93d13297a55", "fusion_lat": 0.0, "name": "cbafe8dff53a96c5b2ddd93d13297a55", "is_reserved": 0, "rental_uris": {"android": "https://dc.lft.to/lastmile_qr_scan", "ios": "https://dc.lft.to/lastmile_qr_scan"}, "fusion_lon": 0.0}, {"lat": 38.908085666666665, "is_disabled": 0, "type": "electric_scooter", "lon": -76.982753, "bike_id": "fc6611492f265510b7a2852117219913", "fusion_lat": 0.0, "name": "fc6611492f265510b7a2852117219913", "is_reserved": 0, "rental_uris": {"android": "https://dc.lft.to/lastmile_qr_scan", "ios": "https://dc.lft.to/lastmile_qr_scan"}, "fusion_lon": 0.0}, {"lat": 38.901152333333336, "is_disabled": 0, "type": "electric_scooter", "lon": -77.03300683333333, "bike_id": "efce2abd2b618cb96cb9021bbbb54de1", "fusion_lat": 0.0, "name": "efce2abd2b618cb96cb9021bbbb54de1", "is_reserved": 0, "rental_uris": {"android": "https://dc.lft.to/lastmile_qr_scan", "ios": "https://dc.lft.to/lastmile_qr_scan"}, "fusion_lon": 0.0}, {"lat": 38.87630683333333, "is_disabled": 0, "type": "electric_scooter", "lon": -76.96523983333333, "bike_id": "2cba5fdad4d0a988872943ca0eb69e5f", "fusion_lat": 0.0, "name": "2cba5fdad4d0a988872943ca0eb69e5f", "is_reserved": 0, "rental_uris": {"android": "https://dc.lft.to/lastmile_qr_scan", "ios": "https://dc.lft.to/lastmile_qr_scan"}, "fusion_lon": 0.0}, {"lat": 38.95065183333333, "is_disabled": 0, "type": "electric_scooter", "lon": -77.06654783333333, "bike_id": "467601ba60cbc0b3df99fbad3932fb43", "fusion_lat": 0.0, "name": "467601ba60cbc0b3df99fbad3932fb43", "is_reserved": 0, "rental_uris": {"android": "https://dc.lft.to/lastmile_qr_scan", "ios": "https://dc.lft.to/lastmile_qr_scan"}, "fusion_lon": 0.0}, {"lat": 38.90367916666667, "is_disabled": 0, "type": "electric_scooter", "lon": -77.04348583333334, "bike_id": "c684b68f6376c0e0cd18cfbf68dd021a", "fusion_lat": 0.0, "name": "c684b68f6376c0e0cd18cfbf68dd021a", "is_reserved": 0, "rental_uris": {"android": "https://dc.lft.to/lastmile_qr_scan", "ios": "https://dc.lft.to/lastmile_qr_scan"}, "fusion_lon": 0.0}, {"lat": 38.899989833333336, "is_disabled": 0, "type": "electric_scooter", "lon": -77.04428, "bike_id": "841bcd402a8883525068510a6fefdfde", "fusion_lat": 0.0, "name": "841bcd402a8883525068510a6fefdfde", "is_reserved": 0, "rental_uris": {"android": "https://dc.lft.to/lastmile_qr_scan", "ios": "https://dc.lft.to/lastmile_qr_scan"}, "fusion_lon": 0.0}, {"lat": 38.907246, "is_disabled": 0, "type": "electric_scooter", "lon": -77.0477965, "bike_id": "c67b8a97aeb2c1e599dd5378377a7a5f", "fusion_lat": 0.0, "name": "c67b8a97aeb2c1e599dd5378377a7a5f", "is_reserved": 0, "rental_uris": {"android": "https://dc.lft.to/lastmile_qr_scan", "ios": "https://dc.lft.to/lastmile_qr_scan"}, "fusion_lon": 0.0}, {"lat": 38.911184666666664, "is_disabled": 0, "type": "electric_scooter", "lon": -77.04223916666666, "bike_id": "64f800701a55f07338d2585274f34eb3", "fusion_lat": 0.0, "name": "64f800701a55f07338d2585274f34eb3", "is_reserved": 0, "rental_uris": {"android": "https://dc.lft.to/lastmile_qr_scan", "ios": "https://dc.lft.to/lastmile_qr_scan"}, "fusion_lon": 0.0}, {"lat": 38.92248566666667, "is_disabled": 0, "type": "electric_scooter", "lon": -77.03085833333333, "bike_id": "6a09161fef68eb25d307c7bc9d52fc8f", "fusion_lat": 0.0, "name": "6a09161fef68eb25d307c7bc9d52fc8f", "is_reserved": 0, "rental_uris": {"android": "https://dc.lft.to/lastmile_qr_scan", "ios": "https://dc.lft.to/lastmile_qr_scan"}, "fusion_lon": 0.0}, {"lat": 38.94176316666667, "is_disabled": 0, "type": "electric_scooter", "lon": -77.03279666666667, "bike_id": "b7f6fa17b23685379ddb82e7b638671f", "fusion_lat": 0.0, "name": "b7f6fa17b23685379ddb82e7b638671f", "is_reserved": 0, "rental_uris": {"android": "https://dc.lft.to/lastmile_qr_scan", "ios": "https://dc.lft.to/lastmile_qr_scan"}, "fusion_lon": 0.0}, {"lat": 38.91953733333333, "is_disabled": 0, "type": "electric_scooter", "lon": -77.04879133333333, "bike_id": "7b84eaf16d404002eccb25122966b766", "fusion_lat": 0.0, "name": "7b84eaf16d404002eccb25122966b766", "is_reserved": 0, "rental_uris": {"android": "https://dc.lft.to/lastmile_qr_scan", "ios": "https://dc.lft.to/lastmile_qr_scan"}, "fusion_lon": 0.0}, {"lat": 38.9415895, "is_disabled": 0, "type": "electric_scooter", "lon": -77.0328425, "bike_id": "c88bb8b28c558ec028e3e2602568544c", "fusion_lat": 0.0, "name": "c88bb8b28c558ec028e3e2602568544c", "is_reserved": 0, "rental_uris": {"android": "https://dc.lft.to/lastmile_qr_scan", "ios": "https://dc.lft.to/lastmile_qr_scan"}, "fusion_lon": 0.0}, {"lat": 38.8734065, "is_disabled": 0, "type": "electric_scooter", "lon": -76.9916435, "bike_id": "a9751b81dff80e2469db0484b6048724", "fusion_lat": 0.0, "name": "a9751b81dff80e2469db0484b6048724", "is_reserved": 0, "rental_uris": {"android": "https://dc.lft.to/lastmile_qr_scan", "ios": "https://dc.lft.to/lastmile_qr_scan"}, "fusion_lon": 0.0}, {"lat": 38.902451, "is_disabled": 0, "type": "electric_scooter", "lon": -77.02604516666666, "bike_id": "519e90dbc03e5dfe18b6cdd56d86a898", "fusion_lat": 0.0, "name": "519e90dbc03e5dfe18b6cdd56d86a898", "is_reserved": 0, "rental_uris": {"android": "https://dc.lft.to/lastmile_qr_scan", "ios": "https://dc.lft.to/lastmile_qr_scan"}, "fusion_lon": 0.0}, {"lat": 38.95294033333333, "is_disabled": 0, "type": "electric_scooter", "lon": -77.08152166666666, "bike_id": "37fc3baba715dc31c8fb100013bf08b8", "fusion_lat": 0.0, "name": "37fc3baba715dc31c8fb100013bf08b8", "is_reserved": 0, "rental_uris": {"android": "https://dc.lft.to/lastmile_qr_scan", "ios": "https://dc.lft.to/lastmile_qr_scan"}, "fusion_lon": 0.0}, {"lat": 38.866515, "is_disabled": 0, "type": "electric_scooter", "lon": -76.988851, "bike_id": "eac7ad04ad10233ec5b784bb1ab6c510", "fusion_lat": 0.0, "name": "eac7ad04ad10233ec5b784bb1ab6c510", "is_reserved": 0, "rental_uris": {"android": "https://dc.lft.to/lastmile_qr_scan", "ios": "https://dc.lft.to/lastmile_qr_scan"}, "fusion_lon": 0.0}, {"lat": 38.9206105, "is_disabled": 0, "type": "electric_scooter", "lon": -77.04374333333334, "bike_id": "8333cf6d8df269c60bde1609bc466194", "fusion_lat": 0.0, "name": "8333cf6d8df269c60bde1609bc466194", "is_reserved": 0, "rental_uris": {"android": "https://dc.lft.to/lastmile_qr_scan", "ios": "https://dc.lft.to/lastmile_qr_scan"}, "fusion_lon": 0.0}, {"lat": 38.92299033333333, "is_disabled": 0, "type": "electric_bike", "lon": -77.0355455, "bike_id": "c841ae3f32daa75decb65c7aeb85b343", "fusion_lat": 0.0, "name": "c841ae3f32daa75decb65c7aeb85b343", "is_reserved": 0, "rental_uris": {"android": "https://dc.lft.to/lastmile_qr_scan", "ios": "https://dc.lft.to/lastmile_qr_scan"}, "fusion_lon": 0.0}, {"lat": 38.93871433333333, "is_disabled": 0, "type": "electric_scooter", "lon": -77.0312525, "bike_id": "7bc3363a8f13568fa1fcfd6515f99c26", "fusion_lat": 0.0, "name": "7bc3363a8f13568fa1fcfd6515f99c26", "is_reserved": 0, "rental_uris": {"android": "https://dc.lft.to/lastmile_qr_scan", "ios": "https://dc.lft.to/lastmile_qr_scan"}, "fusion_lon": 0.0}, {"lat": 38.904359, "is_disabled": 0, "type": "electric_scooter", "lon": -77.02173283333333, "bike_id": "8f0874722b94b69b6289f0a02ca44b63", "fusion_lat": 0.0, "name": "8f0874722b94b69b6289f0a02ca44b63", "is_reserved": 0, "rental_uris": {"android": "https://dc.lft.to/lastmile_qr_scan", "ios": "https://dc.lft.to/lastmile_qr_scan"}, "fusion_lon": 0.0}, {"lat": 38.899631166666666, "is_disabled": 0, "type": "electric_bike", "lon": -77.02102333333333, "bike_id": "a806cde9cb1fe945a38bef5ba2e97cdc", "fusion_lat": 0.0, "name": "a806cde9cb1fe945a38bef5ba2e97cdc", "is_reserved": 0, "rental_uris": {"android": "https://dc.lft.to/lastmile_qr_scan", "ios": "https://dc.lft.to/lastmile_qr_scan"}, "fusion_lon": 0.0}, {"lat": 38.897799666666664, "is_disabled": 0, "type": "electric_scooter", "lon": -77.009187, "bike_id": "81e790c3179c98ac1d941d3d9b831ce1", "fusion_lat": 0.0, "name": "81e790c3179c98ac1d941d3d9b831ce1", "is_reserved": 0, "rental_uris": {"android": "https://dc.lft.to/lastmile_qr_scan", "ios": "https://dc.lft.to/lastmile_qr_scan"}, "fusion_lon": 0.0}, {"lat": 38.919148166666666, "is_disabled": 0, "type": "electric_scooter", "lon": -77.024966, "bike_id": "6b8c9b609dcb67579a1a7228cd4983f0", "fusion_lat": 0.0, "name": "6b8c9b609dcb67579a1a7228cd4983f0", "is_reserved": 0, "rental_uris": {"android": "https://dc.lft.to/lastmile_qr_scan", "ios": "https://dc.lft.to/lastmile_qr_scan"}, "fusion_lon": 0.0}, {"lat": 38.887623166666664, "is_disabled": 0, "type": "electric_scooter", "lon": -76.95596316666666, "bike_id": "ada9aa51572178d62f213ca88e576c80", "fusion_lat": 0.0, "name": "ada9aa51572178d62f213ca88e576c80", "is_reserved": 0, "rental_uris": {"android": "https://dc.lft.to/lastmile_qr_scan", "ios": "https://dc.lft.to/lastmile_qr_scan"}, "fusion_lon": 0.0}, {"lat": 38.91337333333333, "is_disabled": 0, "type": "electric_scooter", "lon": -77.0312365, "bike_id": "9c7e3957679c695fd421c30f55642b01", "fusion_lat": 0.0, "name": "9c7e3957679c695fd421c30f55642b01", "is_reserved": 0, "rental_uris": {"android": "https://dc.lft.to/lastmile_qr_scan", "ios": "https://dc.lft.to/lastmile_qr_scan"}, "fusion_lon": 0.0}, {"lat": 38.892846666666664, "is_disabled": 0, "type": "electric_scooter", "lon": -76.95848966666667, "bike_id": "00571b235a02f7c239d9607c0cc422cb", "fusion_lat": 0.0, "name": "00571b235a02f7c239d9607c0cc422cb", "is_reserved": 0, "rental_uris": {"android": "https://dc.lft.to/lastmile_qr_scan", "ios": "https://dc.lft.to/lastmile_qr_scan"}, "fusion_lon": 0.0}, {"lat": 38.899939333333336, "is_disabled": 0, "type": "electric_scooter", "lon": -76.99955283333334, "bike_id": "822c5462f5989755fb66d34edbade44d", "fusion_lat": 0.0, "name": "822c5462f5989755fb66d34edbade44d", "is_reserved": 0, "rental_uris": {"android": "https://dc.lft.to/lastmile_qr_scan", "ios": "https://dc.lft.to/lastmile_qr_scan"}, "fusion_lon": 0.0}, {"lat": 38.892656833333334, "is_disabled": 0, "type": "electric_scooter", "lon": -77.0202765, "bike_id": "c7353dd05efb75f5c2289d64dd17f109", "fusion_lat": 0.0, "name": "c7353dd05efb75f5c2289d64dd17f109", "is_reserved": 0, "rental_uris": {"android": "https://dc.lft.to/lastmile_qr_scan", "ios": "https://dc.lft.to/lastmile_qr_scan"}, "fusion_lon": 0.0}, {"lat": 38.9246225, "is_disabled": 0, "type": "electric_scooter", "lon": -77.080291, "bike_id": "ef56aca43eb09db8f6524a98c6b1a2f6", "fusion_lat": 0.0, "name": "ef56aca43eb09db8f6524a98c6b1a2f6", "is_reserved": 0, "rental_uris": {"android": "https://dc.lft.to/lastmile_qr_scan", "ios": "https://dc.lft.to/lastmile_qr_scan"}, "fusion_lon": 0.0}, {"lat": 38.91509383333333, "is_disabled": 0, "type": "electric_scooter", "lon": -77.03849566666666, "bike_id": "790a7e415e6eb08b4503acceb1cb017a", "fusion_lat": 0.0, "name": "790a7e415e6eb08b4503acceb1cb017a", "is_reserved": 0, "rental_uris": {"android": "https://dc.lft.to/lastmile_qr_scan", "ios": "https://dc.lft.to/lastmile_qr_scan"}, "fusion_lon": 0.0}, {"lat": 38.929533666666664, "is_disabled": 0, "type": "electric_scooter", "lon": -76.99086483333333, "bike_id": "a9dfe9d2cba28a00bfca50637a71b92a", "fusion_lat": 0.0, "name": "a9dfe9d2cba28a00bfca50637a71b92a", "is_reserved": 0, "rental_uris": {"android": "https://dc.lft.to/lastmile_qr_scan", "ios": "https://dc.lft.to/lastmile_qr_scan"}, "fusion_lon": 0.0}, {"lat": 38.879441166666666, "is_disabled": 0, "type": "electric_scooter", "lon": -77.00406283333334, "bike_id": "dfe4236588e5b2d93edb1fb4a6326e1f", "fusion_lat": 0.0, "name": "dfe4236588e5b2d93edb1fb4a6326e1f", "is_reserved": 0, "rental_uris": {"android": "https://dc.lft.to/lastmile_qr_scan", "ios": "https://dc.lft.to/lastmile_qr_scan"}, "fusion_lon": 0.0}, {"lat": 38.901559, "is_disabled": 0, "type": "electric_scooter", "lon": -77.04131816666667, "bike_id": "feaddd23bd58d57ade3df092e7fe9ee6", "fusion_lat": 0.0, "name": "feaddd23bd58d57ade3df092e7fe9ee6", "is_reserved": 0, "rental_uris": {"android": "https://dc.lft.to/lastmile_qr_scan", "ios": "https://dc.lft.to/lastmile_qr_scan"}, "fusion_lon": 0.0}, {"lat": 38.9017195, "is_disabled": 0, "type": "electric_scooter", "lon": -77.02474466666666, "bike_id": "1e87305934dc3bb4433517e261f76981", "fusion_lat": 0.0, "name": "1e87305934dc3bb4433517e261f76981", "is_reserved": 0, "rental_uris": {"android": "https://dc.lft.to/lastmile_qr_scan", "ios": "https://dc.lft.to/lastmile_qr_scan"}, "fusion_lon": 0.0}, {"lat": 38.908585333333335, "is_disabled": 0, "type": "electric_bike", "lon": -77.0015515, "bike_id": "0fbe940577d3c6de5444e2d15f1f149e", "fusion_lat": 0.0, "name": "0fbe940577d3c6de5444e2d15f1f149e", "is_reserved": 0, "rental_uris": {"android": "https://dc.lft.to/lastmile_qr_scan", "ios": "https://dc.lft.to/lastmile_qr_scan"}, "fusion_lon": 0.0}, {"lat": 38.8573435, "is_disabled": 0, "type": "electric_scooter", "lon": -76.994329, "bike_id": "02e879b188168a849f4edb89c3e28dde", "fusion_lat": 0.0, "name": "02e879b188168a849f4edb89c3e28dde", "is_reserved": 0, "rental_uris": {"android": "https://dc.lft.to/lastmile_qr_scan", "ios": "https://dc.lft.to/lastmile_qr_scan"}, "fusion_lon": 0.0}, {"lat": 38.909587, "is_disabled": 0, "type": "electric_scooter", "lon": -77.03423316666667, "bike_id": "319cc8dd6b70b6509318152276f53538", "fusion_lat": 0.0, "name": "319cc8dd6b70b6509318152276f53538", "is_reserved": 0, "rental_uris": {"android": "https://dc.lft.to/lastmile_qr_scan", "ios": "https://dc.lft.to/lastmile_qr_scan"}, "fusion_lon": 0.0}, {"lat": 38.944366, "is_disabled": 0, "type": "electric_scooter", "lon": -77.023401, "bike_id": "b58ab7dbeb50a04dbd7fcd2fe61e05b1", "fusion_lat": 0.0, "name": "b58ab7dbeb50a04dbd7fcd2fe61e05b1", "is_reserved": 0, "rental_uris": {"android": "https://dc.lft.to/lastmile_qr_scan", "ios": "https://dc.lft.to/lastmile_qr_scan"}, "fusion_lon": 0.0}, {"lat": 38.920678833333334, "is_disabled": 0, "type": "electric_scooter", "lon": -77.04234966666667, "bike_id": "b1253f9987d57cebf61c9b00f8638cd2", "fusion_lat": 0.0, "name": "b1253f9987d57cebf61c9b00f8638cd2", "is_reserved": 0, "rental_uris": {"android": "https://dc.lft.to/lastmile_qr_scan", "ios": "https://dc.lft.to/lastmile_qr_scan"}, "fusion_lon": 0.0}, {"lat": 38.917122, "is_disabled": 0, "type": "electric_scooter", "lon": -77.0305655, "bike_id": "15a841a397ea45b6de9d874db714d09d", "fusion_lat": 0.0, "name": "15a841a397ea45b6de9d874db714d09d", "is_reserved": 0, "rental_uris": {"android": "https://dc.lft.to/lastmile_qr_scan", "ios": "https://dc.lft.to/lastmile_qr_scan"}, "fusion_lon": 0.0}, {"lat": 38.9267785, "is_disabled": 0, "type": "electric_scooter", "lon": -77.00737216666667, "bike_id": "a1a9907d55e5e37e37442ee3f1ca5a7d", "fusion_lat": 0.0, "name": "a1a9907d55e5e37e37442ee3f1ca5a7d", "is_reserved": 0, "rental_uris": {"android": "https://dc.lft.to/lastmile_qr_scan", "ios": "https://dc.lft.to/lastmile_qr_scan"}, "fusion_lon": 0.0}, {"lat": 38.893512666666666, "is_disabled": 0, "type": "electric_scooter", "lon": -77.03988166666667, "bike_id": "0233e8d65735fe66b35482237b270657", "fusion_lat": 0.0, "name": "0233e8d65735fe66b35482237b270657", "is_reserved": 0, "rental_uris": {"android": "https://dc.lft.to/lastmile_qr_scan", "ios": "https://dc.lft.to/lastmile_qr_scan"}, "fusion_lon": 0.0}, {"lat": 38.892178, "is_disabled": 0, "type": "electric_bike", "lon": -77.107827, "bike_id": "845b32f0fe2d912d9d0e38d9cf28bdc1", "fusion_lat": 0.0, "name": "845b32f0fe2d912d9d0e38d9cf28bdc1", "is_reserved": 0, "rental_uris": {"android": "https://dc.lft.to/lastmile_qr_scan", "ios": "https://dc.lft.to/lastmile_qr_scan"}, "fusion_lon": 0.0}, {"lat": 38.902369, "is_disabled": 0, "type": "electric_scooter", "lon": -77.028062, "bike_id": "4b4d4a628944b82c33abfaab0ce1c4c5", "fusion_lat": 0.0, "name": "4b4d4a628944b82c33abfaab0ce1c4c5", "is_reserved": 0, "rental_uris": {"android": "https://dc.lft.to/lastmile_qr_scan", "ios": "https://dc.lft.to/lastmile_qr_scan"}, "fusion_lon": 0.0}, {"lat": 38.8869665, "is_disabled": 0, "type": "electric_scooter", "lon": -77.01761583333334, "bike_id": "7ffecceb6c9478f469b5f4b6234494fc", "fusion_lat": 0.0, "name": "7ffecceb6c9478f469b5f4b6234494fc", "is_reserved": 0, "rental_uris": {"android": "https://dc.lft.to/lastmile_qr_scan", "ios": "https://dc.lft.to/lastmile_qr_scan"}, "fusion_lon": 0.0}, {"lat": 38.913414833333334, "is_disabled": 0, "type": "electric_scooter", "lon": -77.01269483333333, "bike_id": "d311e655d60cd369e338e7a2ce03e3f1", "fusion_lat": 0.0, "name": "d311e655d60cd369e338e7a2ce03e3f1", "is_reserved": 0, "rental_uris": {"android": "https://dc.lft.to/lastmile_qr_scan", "ios": "https://dc.lft.to/lastmile_qr_scan"}, "fusion_lon": 0.0}, {"lat": 38.9319955, "is_disabled": 0, "type": "electric_scooter", "lon": -77.023542, "bike_id": "e13b558308107807b6c66670ac232af5", "fusion_lat": 0.0, "name": "e13b558308107807b6c66670ac232af5", "is_reserved": 0, "rental_uris": {"android": "https://dc.lft.to/lastmile_qr_scan", "ios": "https://dc.lft.to/lastmile_qr_scan"}, "fusion_lon": 0.0}, {"lat": 38.894967333333334, "is_disabled": 0, "type": "electric_scooter", "lon": -77.00221366666666, "bike_id": "b70ec03bf7a284dbd3a255d19c08fba6", "fusion_lat": 0.0, "name": "b70ec03bf7a284dbd3a255d19c08fba6", "is_reserved": 0, "rental_uris": {"android": "https://dc.lft.to/lastmile_qr_scan", "ios": "https://dc.lft.to/lastmile_qr_scan"}, "fusion_lon": 0.0}, {"lat": 38.89840916666667, "is_disabled": 0, "type": "electric_scooter", "lon": -76.9949835, "bike_id": "b642ccbb049be425f1358717d5b397e1", "fusion_lat": 0.0, "name": "b642ccbb049be425f1358717d5b397e1", "is_reserved": 0, "rental_uris": {"android": "https://dc.lft.to/lastmile_qr_scan", "ios": "https://dc.lft.to/lastmile_qr_scan"}, "fusion_lon": 0.0}, {"lat": 38.90849516666667, "is_disabled": 0, "type": "electric_scooter", "lon": -77.00381233333333, "bike_id": "dd766959dbecf2baaddb2ccbc083ca9e", "fusion_lat": 0.0, "name": "dd766959dbecf2baaddb2ccbc083ca9e", "is_reserved": 0, "rental_uris": {"android": "https://dc.lft.to/lastmile_qr_scan", "ios": "https://dc.lft.to/lastmile_qr_scan"}, "fusion_lon": 0.0}, {"lat": 38.903958333333335, "is_disabled": 0, "type": "electric_scooter", "lon": -76.98462683333334, "bike_id": "efc750b367b9faa746504cd21c6c4e21", "fusion_lat": 0.0, "name": "efc750b367b9faa746504cd21c6c4e21", "is_reserved": 0, "rental_uris": {"android": "https://dc.lft.to/lastmile_qr_scan", "ios": "https://dc.lft.to/lastmile_qr_scan"}, "fusion_lon": 0.0}, {"lat": 38.917078, "is_disabled": 0, "type": "electric_scooter", "lon": -77.0386175, "bike_id": "9c36065cb79575e8584504b68f8d20b0", "fusion_lat": 0.0, "name": "9c36065cb79575e8584504b68f8d20b0", "is_reserved": 0, "rental_uris": {"android": "https://dc.lft.to/lastmile_qr_scan", "ios": "https://dc.lft.to/lastmile_qr_scan"}, "fusion_lon": 0.0}, {"lat": 38.962202833333336, "is_disabled": 0, "type": "electric_bike", "lon": -77.02625833333333, "bike_id": "d41137ecf07c5016e75c15b677339562", "fusion_lat": 0.0, "name": "d41137ecf07c5016e75c15b677339562", "is_reserved": 0, "rental_uris": {"android": "https://dc.lft.to/lastmile_qr_scan", "ios": "https://dc.lft.to/lastmile_qr_scan"}, "fusion_lon": 0.0}, {"lat": 38.8597215, "is_disabled": 0, "type": "electric_bike", "lon": -77.05670516666666, "bike_id": "594d05977e1438623a44e859e48b2298", "fusion_lat": 0.0, "name": "594d05977e1438623a44e859e48b2298", "is_reserved": 0, "rental_uris": {"android": "https://dc.lft.to/lastmile_qr_scan", "ios": "https://dc.lft.to/lastmile_qr_scan"}, "fusion_lon": 0.0}, {"lat": 38.949146999999996, "is_disabled": 0, "type": "electric_scooter", "lon": -77.0086465, "bike_id": "da2f89e3046fc5535e24e393ab4dbdb5", "fusion_lat": 0.0, "name": "da2f89e3046fc5535e24e393ab4dbdb5", "is_reserved": 0, "rental_uris": {"android": "https://dc.lft.to/lastmile_qr_scan", "ios": "https://dc.lft.to/lastmile_qr_scan"}, "fusion_lon": 0.0}, {"lat": 38.90609633333333, "is_disabled": 0, "type": "electric_scooter", "lon": -77.03403183333333, "bike_id": "b574d82cbd65eac90f7211f73c2d49ae", "fusion_lat": 0.0, "name": "b574d82cbd65eac90f7211f73c2d49ae", "is_reserved": 0, "rental_uris": {"android": "https://dc.lft.to/lastmile_qr_scan", "ios": "https://dc.lft.to/lastmile_qr_scan"}, "fusion_lon": 0.0}, {"lat": 38.91820283333333, "is_disabled": 0, "type": "electric_scooter", "lon": -77.01387333333334, "bike_id": "0c71f2a23510863f6000cb0cbf37fb56", "fusion_lat": 0.0, "name": "0c71f2a23510863f6000cb0cbf37fb56", "is_reserved": 0, "rental_uris": {"android": "https://dc.lft.to/lastmile_qr_scan", "ios": "https://dc.lft.to/lastmile_qr_scan"}, "fusion_lon": 0.0}, {"lat": 38.91117716666667, "is_disabled": 0, "type": "electric_scooter", "lon": -77.0382615, "bike_id": "787146d447c756981a9fb6773e420ac6", "fusion_lat": 0.0, "name": "787146d447c756981a9fb6773e420ac6", "is_reserved": 0, "rental_uris": {"android": "https://dc.lft.to/lastmile_qr_scan", "ios": "https://dc.lft.to/lastmile_qr_scan"}, "fusion_lon": 0.0}, {"lat": 38.9147005, "is_disabled": 0, "type": "electric_scooter", "lon": -77.02801083333334, "bike_id": "e6d2e4158f035c42353b92fcdc485da4", "fusion_lat": 0.0, "name": "e6d2e4158f035c42353b92fcdc485da4", "is_reserved": 0, "rental_uris": {"android": "https://dc.lft.to/lastmile_qr_scan", "ios": "https://dc.lft.to/lastmile_qr_scan"}, "fusion_lon": 0.0}, {"lat": 38.8877035, "is_disabled": 0, "type": "electric_scooter", "lon": -77.04351716666666, "bike_id": "ccc1d1862c9f08b7a93d3318a67c0aa5", "fusion_lat": 0.0, "name": "ccc1d1862c9f08b7a93d3318a67c0aa5", "is_reserved": 0, "rental_uris": {"android": "https://dc.lft.to/lastmile_qr_scan", "ios": "https://dc.lft.to/lastmile_qr_scan"}, "fusion_lon": 0.0}, {"lat": 38.832123833333334, "is_disabled": 0, "type": "electric_bike", "lon": -76.94614983333334, "bike_id": "e653676ea69f7e2b0a07a5b13f02c81a", "fusion_lat": 0.0, "name": "e653676ea69f7e2b0a07a5b13f02c81a", "is_reserved": 0, "rental_uris": {"android": "https://dc.lft.to/lastmile_qr_scan", "ios": "https://dc.lft.to/lastmile_qr_scan"}, "fusion_lon": 0.0}, {"lat": 38.99324766666667, "is_disabled": 0, "type": "electric_bike", "lon": -77.03291216666666, "bike_id": "c223f038b0b401ed9c4d8ad2984a4da9", "fusion_lat": 0.0, "name": "c223f038b0b401ed9c4d8ad2984a4da9", "is_reserved": 0, "rental_uris": {"android": "https://dc.lft.to/lastmile_qr_scan", "ios": "https://dc.lft.to/lastmile_qr_scan"}, "fusion_lon": 0.0}, {"lat": 38.87343166666667, "is_disabled": 0, "type": "electric_bike", "lon": -77.018567, "bike_id": "912a7b4b02538081c2a71685a9a95b97", "fusion_lat": 0.0, "name": "912a7b4b02538081c2a71685a9a95b97", "is_reserved": 0, "rental_uris": {"android": "https://dc.lft.to/lastmile_qr_scan", "ios": "https://dc.lft.to/lastmile_qr_scan"}, "fusion_lon": 0.0}, {"lat": 38.899881666666666, "is_disabled": 0, "type": "electric_scooter", "lon": -77.05253066666667, "bike_id": "5f86ffb62e10cefefe130a9a0eddd3c8", "fusion_lat": 0.0, "name": "5f86ffb62e10cefefe130a9a0eddd3c8", "is_reserved": 0, "rental_uris": {"android": "https://dc.lft.to/lastmile_qr_scan", "ios": "https://dc.lft.to/lastmile_qr_scan"}, "fusion_lon": 0.0}, {"lat": 38.909736, "is_disabled": 0, "type": "electric_scooter", "lon": -77.02694066666666, "bike_id": "1ce244226fa3540f0c1389ae41f24d6b", "fusion_lat": 0.0, "name": "1ce244226fa3540f0c1389ae41f24d6b", "is_reserved": 0, "rental_uris": {"android": "https://dc.lft.to/lastmile_qr_scan", "ios": "https://dc.lft.to/lastmile_qr_scan"}, "fusion_lon": 0.0}, {"lat": 38.9041085, "is_disabled": 0, "type": "electric_scooter", "lon": -76.99286133333334, "bike_id": "744608035183a346858ae4589fea47be", "fusion_lat": 0.0, "name": "744608035183a346858ae4589fea47be", "is_reserved": 0, "rental_uris": {"android": "https://dc.lft.to/lastmile_qr_scan", "ios": "https://dc.lft.to/lastmile_qr_scan"}, "fusion_lon": 0.0}, {"lat": 38.86508116666667, "is_disabled": 0, "type": "electric_scooter", "lon": -76.99005666666666, "bike_id": "cca09ad890c09192fb158fe97c7de948", "fusion_lat": 0.0, "name": "cca09ad890c09192fb158fe97c7de948", "is_reserved": 0, "rental_uris": {"android": "https://dc.lft.to/lastmile_qr_scan", "ios": "https://dc.lft.to/lastmile_qr_scan"}, "fusion_lon": 0.0}, {"lat": 38.93233083333333, "is_disabled": 0, "type": "electric_bike", "lon": -76.97423466666666, "bike_id": "20a1e3ee0b0cb72785208ffe5237f66f", "fusion_lat": 0.0, "name": "20a1e3ee0b0cb72785208ffe5237f66f", "is_reserved": 0, "rental_uris": {"android": "https://dc.lft.to/lastmile_qr_scan", "ios": "https://dc.lft.to/lastmile_qr_scan"}, "fusion_lon": 0.0}, {"lat": 38.913317, "is_disabled": 0, "type": "electric_scooter", "lon": -77.031834, "bike_id": "9acf247cf536f11965c95fc4fb50976f", "fusion_lat": 0.0, "name": "9acf247cf536f11965c95fc4fb50976f", "is_reserved": 0, "rental_uris": {"android": "https://dc.lft.to/lastmile_qr_scan", "ios": "https://dc.lft.to/lastmile_qr_scan"}, "fusion_lon": 0.0}, {"lat": 38.9622425, "is_disabled": 0, "type": "electric_bike", "lon": -77.02621983333333, "bike_id": "91c4a509fb21b222997622e330c6a1a7", "fusion_lat": 0.0, "name": "91c4a509fb21b222997622e330c6a1a7", "is_reserved": 0, "rental_uris": {"android": "https://dc.lft.to/lastmile_qr_scan", "ios": "https://dc.lft.to/lastmile_qr_scan"}, "fusion_lon": 0.0}, {"lat": 38.91698683333333, "is_disabled": 0, "type": "electric_scooter", "lon": -77.03229316666666, "bike_id": "89c907bebf96fd15b7341be3ec3e6161", "fusion_lat": 0.0, "name": "89c907bebf96fd15b7341be3ec3e6161", "is_reserved": 0, "rental_uris": {"android": "https://dc.lft.to/lastmile_qr_scan", "ios": "https://dc.lft.to/lastmile_qr_scan"}, "fusion_lon": 0.0}, {"lat": 38.876346, "is_disabled": 0, "type": "electric_scooter", "lon": -77.00560633333333, "bike_id": "36b0014fac0f355b54464aea13be8cad", "fusion_lat": 0.0, "name": "36b0014fac0f355b54464aea13be8cad", "is_reserved": 0, "rental_uris": {"android": "https://dc.lft.to/lastmile_qr_scan", "ios": "https://dc.lft.to/lastmile_qr_scan"}, "fusion_lon": 0.0}, {"lat": 38.916210666666665, "is_disabled": 0, "type": "electric_scooter", "lon": -77.0373775, "bike_id": "acecce580394e57e1118c1decc7238d2", "fusion_lat": 0.0, "name": "acecce580394e57e1118c1decc7238d2", "is_reserved": 0, "rental_uris": {"android": "https://dc.lft.to/lastmile_qr_scan", "ios": "https://dc.lft.to/lastmile_qr_scan"}, "fusion_lon": 0.0}, {"lat": 38.89674, "is_disabled": 0, "type": "electric_scooter", "lon": -77.00517666666667, "bike_id": "25df2194bf4ef0fbef85c3af7c99d25b", "fusion_lat": 0.0, "name": "25df2194bf4ef0fbef85c3af7c99d25b", "is_reserved": 0, "rental_uris": {"android": "https://dc.lft.to/lastmile_qr_scan", "ios": "https://dc.lft.to/lastmile_qr_scan"}, "fusion_lon": 0.0}, {"lat": 38.920783166666666, "is_disabled": 0, "type": "electric_scooter", "lon": -77.02540716666667, "bike_id": "ad54e338d222f3cc1014dbf8e0315144", "fusion_lat": 0.0, "name": "ad54e338d222f3cc1014dbf8e0315144", "is_reserved": 0, "rental_uris": {"android": "https://dc.lft.to/lastmile_qr_scan", "ios": "https://dc.lft.to/lastmile_qr_scan"}, "fusion_lon": 0.0}, {"lat": 38.94820883333333, "is_disabled": 0, "type": "electric_scooter", "lon": -76.99899316666666, "bike_id": "b18c05d3aa68843576865cbf7a30c112", "fusion_lat": 0.0, "name": "b18c05d3aa68843576865cbf7a30c112", "is_reserved": 0, "rental_uris": {"android": "https://dc.lft.to/lastmile_qr_scan", "ios": "https://dc.lft.to/lastmile_qr_scan"}, "fusion_lon": 0.0}, {"lat": 38.878718666666664, "is_disabled": 0, "type": "electric_bike", "lon": -77.01764116666666, "bike_id": "2159a9407e0696a9f55efdaf59fbcbc4", "fusion_lat": 0.0, "name": "2159a9407e0696a9f55efdaf59fbcbc4", "is_reserved": 0, "rental_uris": {"android": "https://dc.lft.to/lastmile_qr_scan", "ios": "https://dc.lft.to/lastmile_qr_scan"}, "fusion_lon": 0.0}, {"lat": 38.911959, "is_disabled": 0, "type": "electric_scooter", "lon": -77.00490533333334, "bike_id": "c68aa7c9c1fa2bafe132d0a4b5867773", "fusion_lat": 0.0, "name": "c68aa7c9c1fa2bafe132d0a4b5867773", "is_reserved": 0, "rental_uris": {"android": "https://dc.lft.to/lastmile_qr_scan", "ios": "https://dc.lft.to/lastmile_qr_scan"}, "fusion_lon": 0.0}, {"lat": 38.89735483333333, "is_disabled": 0, "type": "electric_scooter", "lon": -76.94718566666667, "bike_id": "1f95e0e704839513782443050dedfdb5", "fusion_lat": 0.0, "name": "1f95e0e704839513782443050dedfdb5", "is_reserved": 0, "rental_uris": {"android": "https://dc.lft.to/lastmile_qr_scan", "ios": "https://dc.lft.to/lastmile_qr_scan"}, "fusion_lon": 0.0}, {"lat": 38.92823416666667, "is_disabled": 0, "type": "electric_scooter", "lon": -77.02622183333334, "bike_id": "62926f0f7a08a1979ec83b4dac4ace1d", "fusion_lat": 0.0, "name": "62926f0f7a08a1979ec83b4dac4ace1d", "is_reserved": 0, "rental_uris": {"android": "https://dc.lft.to/lastmile_qr_scan", "ios": "https://dc.lft.to/lastmile_qr_scan"}, "fusion_lon": 0.0}, {"lat": 38.91922666666667, "is_disabled": 0, "type": "electric_scooter", "lon": -77.03205583333333, "bike_id": "155bab3f50ba06e98cd9e396ccec9524", "fusion_lat": 0.0, "name": "155bab3f50ba06e98cd9e396ccec9524", "is_reserved": 0, "rental_uris": {"android": "https://dc.lft.to/lastmile_qr_scan", "ios": "https://dc.lft.to/lastmile_qr_scan"}, "fusion_lon": 0.0}, {"lat": 38.90275416666667, "is_disabled": 0, "type": "electric_scooter", "lon": -77.03842666666667, "bike_id": "9b0bb1a40937a84372deda4bbcc3bc27", "fusion_lat": 0.0, "name": "9b0bb1a40937a84372deda4bbcc3bc27", "is_reserved": 0, "rental_uris": {"android": "https://dc.lft.to/lastmile_qr_scan", "ios": "https://dc.lft.to/lastmile_qr_scan"}, "fusion_lon": 0.0}, {"lat": 38.939585666666666, "is_disabled": 0, "type": "electric_bike", "lon": -77.3609435, "bike_id": "ae5954a3531981a516185a93b34f93d0", "fusion_lat": 0.0, "name": "ae5954a3531981a516185a93b34f93d0", "is_reserved": 0, "rental_uris": {"android": "https://dc.lft.to/lastmile_qr_scan", "ios": "https://dc.lft.to/lastmile_qr_scan"}, "fusion_lon": 0.0}, {"lat": 38.952894, "is_disabled": 0, "type": "electric_bike", "lon": -76.9460175, "bike_id": "89bb36c0946f1031264df8e9c06c3bfc", "fusion_lat": 0.0, "name": "89bb36c0946f1031264df8e9c06c3bfc", "is_reserved": 0, "rental_uris": {"android": "https://dc.lft.to/lastmile_qr_scan", "ios": "https://dc.lft.to/lastmile_qr_scan"}, "fusion_lon": 0.0}, {"lat": 38.956483, "is_disabled": 0, "type": "electric_bike", "lon": -77.02258466666666, "bike_id": "c9764f4094a2f5aeff841722a62ef360", "fusion_lat": 0.0, "name": "c9764f4094a2f5aeff841722a62ef360", "is_reserved": 0, "rental_uris": {"android": "https://dc.lft.to/lastmile_qr_scan", "ios": "https://dc.lft.to/lastmile_qr_scan"}, "fusion_lon": 0.0}, {"lat": 38.922625333333336, "is_disabled": 0, "type": "electric_scooter", "lon": -77.04150433333334, "bike_id": "ce0521e4fb6cd22427dbbce6cbaf1830", "fusion_lat": 0.0, "name": "ce0521e4fb6cd22427dbbce6cbaf1830", "is_reserved": 0, "rental_uris": {"android": "https://dc.lft.to/lastmile_qr_scan", "ios": "https://dc.lft.to/lastmile_qr_scan"}, "fusion_lon": 0.0}, {"lat": 38.91704633333333, "is_disabled": 0, "type": "electric_scooter", "lon": -77.00112066666667, "bike_id": "1b1e5dbf7507fdc327dc2cd4dd25904d", "fusion_lat": 0.0, "name": "1b1e5dbf7507fdc327dc2cd4dd25904d", "is_reserved": 0, "rental_uris": {"android": "https://dc.lft.to/lastmile_qr_scan", "ios": "https://dc.lft.to/lastmile_qr_scan"}, "fusion_lon": 0.0}, {"lat": 38.88491283333333, "is_disabled": 0, "type": "electric_scooter", "lon": -77.0072365, "bike_id": "0cbf1db3dbb0a70f37f53c013aa355ed", "fusion_lat": 0.0, "name": "0cbf1db3dbb0a70f37f53c013aa355ed", "is_reserved": 0, "rental_uris": {"android": "https://dc.lft.to/lastmile_qr_scan", "ios": "https://dc.lft.to/lastmile_qr_scan"}, "fusion_lon": 0.0}, {"lat": 38.89556533333333, "is_disabled": 0, "type": "electric_scooter", "lon": -76.93077566666666, "bike_id": "22e1700b975ea8ad506679a9f85e2c19", "fusion_lat": 0.0, "name": "22e1700b975ea8ad506679a9f85e2c19", "is_reserved": 0, "rental_uris": {"android": "https://dc.lft.to/lastmile_qr_scan", "ios": "https://dc.lft.to/lastmile_qr_scan"}, "fusion_lon": 0.0}, {"lat": 38.902661333333334, "is_disabled": 0, "type": "electric_scooter", "lon": -77.00323266666666, "bike_id": "cedb8046a9bb3653a7e1dd3c2e2d611e", "fusion_lat": 0.0, "name": "cedb8046a9bb3653a7e1dd3c2e2d611e", "is_reserved": 0, "rental_uris": {"android": "https://dc.lft.to/lastmile_qr_scan", "ios": "https://dc.lft.to/lastmile_qr_scan"}, "fusion_lon": 0.0}, {"lat": 38.905282666666665, "is_disabled": 0, "type": "electric_scooter", "lon": -77.04871183333333, "bike_id": "a7361bf2da6f3fd9c69b8b8da04bdaca", "fusion_lat": 0.0, "name": "a7361bf2da6f3fd9c69b8b8da04bdaca", "is_reserved": 0, "rental_uris": {"android": "https://dc.lft.to/lastmile_qr_scan", "ios": "https://dc.lft.to/lastmile_qr_scan"}, "fusion_lon": 0.0}, {"lat": 38.94913416666667, "is_disabled": 0, "type": "electric_bike", "lon": -77.00801633333333, "bike_id": "64f4a84d0b3a83139ea8b38ee757ce6b", "fusion_lat": 0.0, "name": "64f4a84d0b3a83139ea8b38ee757ce6b", "is_reserved": 0, "rental_uris": {"android": "https://dc.lft.to/lastmile_qr_scan", "ios": "https://dc.lft.to/lastmile_qr_scan"}, "fusion_lon": 0.0}, {"lat": 38.90015133333333, "is_disabled": 0, "type": "electric_scooter", "lon": -77.01198116666667, "bike_id": "1dd0cea49791a993238fc4ec41b5686a", "fusion_lat": 0.0, "name": "1dd0cea49791a993238fc4ec41b5686a", "is_reserved": 0, "rental_uris": {"android": "https://dc.lft.to/lastmile_qr_scan", "ios": "https://dc.lft.to/lastmile_qr_scan"}, "fusion_lon": 0.0}, {"lat": 38.8846915, "is_disabled": 0, "type": "electric_scooter", "lon": -77.02414266666666, "bike_id": "2ebe5a96f6850562ff195ecedf3ce1bc", "fusion_lat": 0.0, "name": "2ebe5a96f6850562ff195ecedf3ce1bc", "is_reserved": 0, "rental_uris": {"android": "https://dc.lft.to/lastmile_qr_scan", "ios": "https://dc.lft.to/lastmile_qr_scan"}, "fusion_lon": 0.0}, {"lat": 38.900686666666665, "is_disabled": 0, "type": "electric_scooter", "lon": -77.05064166666666, "bike_id": "336d3911ebe9cb4a51cd18b924b08f9e", "fusion_lat": 0.0, "name": "336d3911ebe9cb4a51cd18b924b08f9e", "is_reserved": 0, "rental_uris": {"android": "https://dc.lft.to/lastmile_qr_scan", "ios": "https://dc.lft.to/lastmile_qr_scan"}, "fusion_lon": 0.0}, {"lat": 38.881447333333334, "is_disabled": 0, "type": "electric_scooter", "lon": -77.0163185, "bike_id": "10809f8abe793c042113b3e2520cfbd2", "fusion_lat": 0.0, "name": "10809f8abe793c042113b3e2520cfbd2", "is_reserved": 0, "rental_uris": {"android": "https://dc.lft.to/lastmile_qr_scan", "ios": "https://dc.lft.to/lastmile_qr_scan"}, "fusion_lon": 0.0}, {"lat": 38.86707466666667, "is_disabled": 0, "type": "electric_scooter", "lon": -76.9872745, "bike_id": "4b0e6b166dd9c4479708b0ca9491c38b", "fusion_lat": 0.0, "name": "4b0e6b166dd9c4479708b0ca9491c38b", "is_reserved": 0, "rental_uris": {"android": "https://dc.lft.to/lastmile_qr_scan", "ios": "https://dc.lft.to/lastmile_qr_scan"}, "fusion_lon": 0.0}, {"lat": 38.86507266666667, "is_disabled": 0, "type": "electric_scooter", "lon": -76.99005183333334, "bike_id": "20def30c584b25ddf00ecb01b4819682", "fusion_lat": 0.0, "name": "20def30c584b25ddf00ecb01b4819682", "is_reserved": 0, "rental_uris": {"android": "https://dc.lft.to/lastmile_qr_scan", "ios": "https://dc.lft.to/lastmile_qr_scan"}, "fusion_lon": 0.0}, {"lat": 38.92505633333333, "is_disabled": 0, "type": "electric_scooter", "lon": -76.982284, "bike_id": "83bbe93ef405bf469fa64692a5562260", "fusion_lat": 0.0, "name": "83bbe93ef405bf469fa64692a5562260", "is_reserved": 0, "rental_uris": {"android": "https://dc.lft.to/lastmile_qr_scan", "ios": "https://dc.lft.to/lastmile_qr_scan"}, "fusion_lon": 0.0}, {"lat": 38.916669, "is_disabled": 0, "type": "electric_scooter", "lon": -77.02278283333334, "bike_id": "e41ce3a84ec4d482125511c516a4ddef", "fusion_lat": 0.0, "name": "e41ce3a84ec4d482125511c516a4ddef", "is_reserved": 0, "rental_uris": {"android": "https://dc.lft.to/lastmile_qr_scan", "ios": "https://dc.lft.to/lastmile_qr_scan"}, "fusion_lon": 0.0}, {"lat": 38.907393166666665, "is_disabled": 0, "type": "electric_scooter", "lon": -77.00927733333333, "bike_id": "27d1a8b125925d2857e2715d2bef2a20", "fusion_lat": 0.0, "name": "27d1a8b125925d2857e2715d2bef2a20", "is_reserved": 0, "rental_uris": {"android": "https://dc.lft.to/lastmile_qr_scan", "ios": "https://dc.lft.to/lastmile_qr_scan"}, "fusion_lon": 0.0}, {"lat": 38.901877999999996, "is_disabled": 0, "type": "electric_scooter", "lon": -77.0249205, "bike_id": "48f098fcbc94b77908e9fd5e5e05ba69", "fusion_lat": 0.0, "name": "48f098fcbc94b77908e9fd5e5e05ba69", "is_reserved": 0, "rental_uris": {"android": "https://dc.lft.to/lastmile_qr_scan", "ios": "https://dc.lft.to/lastmile_qr_scan"}, "fusion_lon": 0.0}, {"lat": 38.912575333333336, "is_disabled": 0, "type": "electric_scooter", "lon": -77.07107033333334, "bike_id": "b0f8591241ff030154b443288ff3072b", "fusion_lat": 0.0, "name": "b0f8591241ff030154b443288ff3072b", "is_reserved": 0, "rental_uris": {"android": "https://dc.lft.to/lastmile_qr_scan", "ios": "https://dc.lft.to/lastmile_qr_scan"}, "fusion_lon": 0.0}, {"lat": 38.89491, "is_disabled": 0, "type": "electric_scooter", "lon": -77.00213066666667, "bike_id": "a64f4229d13fb32b9b8fddf39b41403c", "fusion_lat": 0.0, "name": "a64f4229d13fb32b9b8fddf39b41403c", "is_reserved": 0, "rental_uris": {"android": "https://dc.lft.to/lastmile_qr_scan", "ios": "https://dc.lft.to/lastmile_qr_scan"}, "fusion_lon": 0.0}, {"lat": 38.920269, "is_disabled": 0, "type": "electric_scooter", "lon": -77.013246, "bike_id": "bad79da649baee5424778d64d0711978", "fusion_lat": 0.0, "name": "bad79da649baee5424778d64d0711978", "is_reserved": 0, "rental_uris": {"android": "https://dc.lft.to/lastmile_qr_scan", "ios": "https://dc.lft.to/lastmile_qr_scan"}, "fusion_lon": 0.0}, {"lat": 38.9263095, "is_disabled": 0, "type": "electric_scooter", "lon": -77.0418835, "bike_id": "3fa9a25fe478a77038b6c677f775f209", "fusion_lat": 0.0, "name": "3fa9a25fe478a77038b6c677f775f209", "is_reserved": 0, "rental_uris": {"android": "https://dc.lft.to/lastmile_qr_scan", "ios": "https://dc.lft.to/lastmile_qr_scan"}, "fusion_lon": 0.0}, {"lat": 38.897257833333335, "is_disabled": 0, "type": "electric_scooter", "lon": -77.02398633333334, "bike_id": "a9b23d9bbe4efc8851f62c5ffc756460", "fusion_lat": 0.0, "name": "a9b23d9bbe4efc8851f62c5ffc756460", "is_reserved": 0, "rental_uris": {"android": "https://dc.lft.to/lastmile_qr_scan", "ios": "https://dc.lft.to/lastmile_qr_scan"}, "fusion_lon": 0.0}, {"lat": 38.911890166666666, "is_disabled": 0, "type": "electric_scooter", "lon": -77.02339583333334, "bike_id": "e67d546dee417a1667cd29f5f9d6b0b8", "fusion_lat": 0.0, "name": "e67d546dee417a1667cd29f5f9d6b0b8", "is_reserved": 0, "rental_uris": {"android": "https://dc.lft.to/lastmile_qr_scan", "ios": "https://dc.lft.to/lastmile_qr_scan"}, "fusion_lon": 0.0}, {"lat": 38.9069235, "is_disabled": 0, "type": "electric_scooter", "lon": -77.02941583333333, "bike_id": "5d116756903b27af990aeb65b75b8bd8", "fusion_lat": 0.0, "name": "5d116756903b27af990aeb65b75b8bd8", "is_reserved": 0, "rental_uris": {"android": "https://dc.lft.to/lastmile_qr_scan", "ios": "https://dc.lft.to/lastmile_qr_scan"}, "fusion_lon": 0.0}, {"lat": 38.86648916666667, "is_disabled": 0, "type": "electric_scooter", "lon": -76.98887983333333, "bike_id": "8f3e9f0490313bbabae292ff8145d38c", "fusion_lat": 0.0, "name": "8f3e9f0490313bbabae292ff8145d38c", "is_reserved": 0, "rental_uris": {"android": "https://dc.lft.to/lastmile_qr_scan", "ios": "https://dc.lft.to/lastmile_qr_scan"}, "fusion_lon": 0.0}, {"lat": 38.88495916666667, "is_disabled": 0, "type": "electric_scooter", "lon": -77.0070965, "bike_id": "4cee7fbe0c928e09312fbfbea2d22474", "fusion_lat": 0.0, "name": "4cee7fbe0c928e09312fbfbea2d22474", "is_reserved": 0, "rental_uris": {"android": "https://dc.lft.to/lastmile_qr_scan", "ios": "https://dc.lft.to/lastmile_qr_scan"}, "fusion_lon": 0.0}, {"lat": 38.909284166666666, "is_disabled": 0, "type": "electric_bike", "lon": -77.06119533333333, "bike_id": "c151ff05f751cfc7e59bd02cd5b45641", "fusion_lat": 0.0, "name": "c151ff05f751cfc7e59bd02cd5b45641", "is_reserved": 0, "rental_uris": {"android": "https://dc.lft.to/lastmile_qr_scan", "ios": "https://dc.lft.to/lastmile_qr_scan"}, "fusion_lon": 0.0}, {"lat": 38.8868335, "is_disabled": 0, "type": "electric_scooter", "lon": -77.01295016666667, "bike_id": "8d68c25396983800d4c9fb123139af14", "fusion_lat": 0.0, "name": "8d68c25396983800d4c9fb123139af14", "is_reserved": 0, "rental_uris": {"android": "https://dc.lft.to/lastmile_qr_scan", "ios": "https://dc.lft.to/lastmile_qr_scan"}, "fusion_lon": 0.0}, {"lat": 38.91909866666666, "is_disabled": 0, "type": "electric_scooter", "lon": -77.04171183333334, "bike_id": "3cf0e59f215fbf8264c2760a06949754", "fusion_lat": 0.0, "name": "3cf0e59f215fbf8264c2760a06949754", "is_reserved": 0, "rental_uris": {"android": "https://dc.lft.to/lastmile_qr_scan", "ios": "https://dc.lft.to/lastmile_qr_scan"}, "fusion_lon": 0.0}, {"lat": 38.8006195, "is_disabled": 0, "type": "electric_bike", "lon": -77.07108916666667, "bike_id": "fa5714f229b55ba5da60f0f278c12fa7", "fusion_lat": 0.0, "name": "fa5714f229b55ba5da60f0f278c12fa7", "is_reserved": 0, "rental_uris": {"android": "https://dc.lft.to/lastmile_qr_scan", "ios": "https://dc.lft.to/lastmile_qr_scan"}, "fusion_lon": 0.0}, {"lat": 38.866154, "is_disabled": 0, "type": "electric_scooter", "lon": -76.9866625, "bike_id": "11510fb6caaaaba479b3bd43ee7f2b07", "fusion_lat": 0.0, "name": "11510fb6caaaaba479b3bd43ee7f2b07", "is_reserved": 0, "rental_uris": {"android": "https://dc.lft.to/lastmile_qr_scan", "ios": "https://dc.lft.to/lastmile_qr_scan"}, "fusion_lon": 0.0}, {"lat": 38.90042583333334, "is_disabled": 0, "type": "electric_scooter", "lon": -76.99492266666667, "bike_id": "c6325ed67e6c4563a07abff72a491b5a", "fusion_lat": 0.0, "name": "c6325ed67e6c4563a07abff72a491b5a", "is_reserved": 0, "rental_uris": {"android": "https://dc.lft.to/lastmile_qr_scan", "ios": "https://dc.lft.to/lastmile_qr_scan"}, "fusion_lon": 0.0}, {"lat": 38.924019666666666, "is_disabled": 0, "type": "electric_scooter", "lon": -77.02556416666667, "bike_id": "ddf5dc443b4f72549ac22a49c3fa71c3", "fusion_lat": 0.0, "name": "ddf5dc443b4f72549ac22a49c3fa71c3", "is_reserved": 0, "rental_uris": {"android": "https://dc.lft.to/lastmile_qr_scan", "ios": "https://dc.lft.to/lastmile_qr_scan"}, "fusion_lon": 0.0}, {"lat": 38.90823683333333, "is_disabled": 0, "type": "electric_scooter", "lon": -76.94148, "bike_id": "de6ad94771389d256ef91124233df230", "fusion_lat": 0.0, "name": "de6ad94771389d256ef91124233df230", "is_reserved": 0, "rental_uris": {"android": "https://dc.lft.to/lastmile_qr_scan", "ios": "https://dc.lft.to/lastmile_qr_scan"}, "fusion_lon": 0.0}, {"lat": 38.9364265, "is_disabled": 0, "type": "electric_scooter", "lon": -77.03657683333333, "bike_id": "f1e3a750dec2588484ffe56931f80244", "fusion_lat": 0.0, "name": "f1e3a750dec2588484ffe56931f80244", "is_reserved": 0, "rental_uris": {"android": "https://dc.lft.to/lastmile_qr_scan", "ios": "https://dc.lft.to/lastmile_qr_scan"}, "fusion_lon": 0.0}, {"lat": 38.884065666666665, "is_disabled": 0, "type": "electric_bike", "lon": -76.96058033333334, "bike_id": "8b5ee440631ac29dcd430e9e884532e4", "fusion_lat": 0.0, "name": "8b5ee440631ac29dcd430e9e884532e4", "is_reserved": 0, "rental_uris": {"android": "https://dc.lft.to/lastmile_qr_scan", "ios": "https://dc.lft.to/lastmile_qr_scan"}, "fusion_lon": 0.0}, {"lat": 38.929368833333335, "is_disabled": 0, "type": "electric_scooter", "lon": -77.01982733333334, "bike_id": "e62dd46734cf0ebd7a7f2bfb52621808", "fusion_lat": 0.0, "name": "e62dd46734cf0ebd7a7f2bfb52621808", "is_reserved": 0, "rental_uris": {"android": "https://dc.lft.to/lastmile_qr_scan", "ios": "https://dc.lft.to/lastmile_qr_scan"}, "fusion_lon": 0.0}, {"lat": 38.903993, "is_disabled": 0, "type": "electric_scooter", "lon": -77.02501616666666, "bike_id": "3d5a066273addc0f674de0fbfc523235", "fusion_lat": 0.0, "name": "3d5a066273addc0f674de0fbfc523235", "is_reserved": 0, "rental_uris": {"android": "https://dc.lft.to/lastmile_qr_scan", "ios": "https://dc.lft.to/lastmile_qr_scan"}, "fusion_lon": 0.0}, {"lat": 38.924027833333334, "is_disabled": 0, "type": "electric_scooter", "lon": -77.05252166666666, "bike_id": "7597bc8d6bc664d27fd32c6f2f2b0d87", "fusion_lat": 0.0, "name": "7597bc8d6bc664d27fd32c6f2f2b0d87", "is_reserved": 0, "rental_uris": {"android": "https://dc.lft.to/lastmile_qr_scan", "ios": "https://dc.lft.to/lastmile_qr_scan"}, "fusion_lon": 0.0}, {"lat": 38.881289, "is_disabled": 0, "type": "electric_scooter", "lon": -77.01652933333334, "bike_id": "a84a61d4ea3e56f6b034025079fded15", "fusion_lat": 0.0, "name": "a84a61d4ea3e56f6b034025079fded15", "is_reserved": 0, "rental_uris": {"android": "https://dc.lft.to/lastmile_qr_scan", "ios": "https://dc.lft.to/lastmile_qr_scan"}, "fusion_lon": 0.0}, {"lat": 38.912593666666666, "is_disabled": 0, "type": "electric_scooter", "lon": -77.03859283333334, "bike_id": "47f65de3a43b95f4b4dd3c2eadd44629", "fusion_lat": 0.0, "name": "47f65de3a43b95f4b4dd3c2eadd44629", "is_reserved": 0, "rental_uris": {"android": "https://dc.lft.to/lastmile_qr_scan", "ios": "https://dc.lft.to/lastmile_qr_scan"}, "fusion_lon": 0.0}, {"lat": 38.839916, "is_disabled": 0, "type": "electric_bike", "lon": -77.00563433333333, "bike_id": "075673f5e3da6c4ef99898107ff15203", "fusion_lat": 0.0, "name": "075673f5e3da6c4ef99898107ff15203", "is_reserved": 0, "rental_uris": {"android": "https://dc.lft.to/lastmile_qr_scan", "ios": "https://dc.lft.to/lastmile_qr_scan"}, "fusion_lon": 0.0}, {"lat": 38.909781, "is_disabled": 0, "type": "electric_scooter", "lon": -76.984709, "bike_id": "0c2a99efd8b059f01e45a7c75a3bc90e", "fusion_lat": 0.0, "name": "0c2a99efd8b059f01e45a7c75a3bc90e", "is_reserved": 0, "rental_uris": {"android": "https://dc.lft.to/lastmile_qr_scan", "ios": "https://dc.lft.to/lastmile_qr_scan"}, "fusion_lon": 0.0}, {"lat": 38.92914566666666, "is_disabled": 0, "type": "electric_scooter", "lon": -77.03629783333334, "bike_id": "67a9a36798bcc232cd09b92ca20cd99f", "fusion_lat": 0.0, "name": "67a9a36798bcc232cd09b92ca20cd99f", "is_reserved": 0, "rental_uris": {"android": "https://dc.lft.to/lastmile_qr_scan", "ios": "https://dc.lft.to/lastmile_qr_scan"}, "fusion_lon": 0.0}, {"lat": 38.800609333333334, "is_disabled": 0, "type": "electric_bike", "lon": -77.07119883333333, "bike_id": "28c920481802040e0621a5aac790ab4d", "fusion_lat": 0.0, "name": "28c920481802040e0621a5aac790ab4d", "is_reserved": 0, "rental_uris": {"android": "https://dc.lft.to/lastmile_qr_scan", "ios": "https://dc.lft.to/lastmile_qr_scan"}, "fusion_lon": 0.0}, {"lat": 38.900407, "is_disabled": 0, "type": "electric_scooter", "lon": -77.00746066666666, "bike_id": "9194af8644cf7b925949c5489cc50851", "fusion_lat": 0.0, "name": "9194af8644cf7b925949c5489cc50851", "is_reserved": 0, "rental_uris": {"android": "https://dc.lft.to/lastmile_qr_scan", "ios": "https://dc.lft.to/lastmile_qr_scan"}, "fusion_lon": 0.0}, {"lat": 38.89895333333333, "is_disabled": 0, "type": "electric_scooter", "lon": -77.003642, "bike_id": "1b530c2b1c48ec9b0fde9802c720d0c7", "fusion_lat": 0.0, "name": "1b530c2b1c48ec9b0fde9802c720d0c7", "is_reserved": 0, "rental_uris": {"android": "https://dc.lft.to/lastmile_qr_scan", "ios": "https://dc.lft.to/lastmile_qr_scan"}, "fusion_lon": 0.0}, {"lat": 38.89600766666667, "is_disabled": 0, "type": "electric_scooter", "lon": -77.0441795, "bike_id": "83cc007445254cb7659a70ad66a74e79", "fusion_lat": 0.0, "name": "83cc007445254cb7659a70ad66a74e79", "is_reserved": 0, "rental_uris": {"android": "https://dc.lft.to/lastmile_qr_scan", "ios": "https://dc.lft.to/lastmile_qr_scan"}, "fusion_lon": 0.0}, {"lat": 38.865943333333334, "is_disabled": 0, "type": "electric_bike", "lon": -76.93230366666667, "bike_id": "29087af0d22dc01502b61be4f07e8ac0", "fusion_lat": 0.0, "name": "29087af0d22dc01502b61be4f07e8ac0", "is_reserved": 0, "rental_uris": {"android": "https://dc.lft.to/lastmile_qr_scan", "ios": "https://dc.lft.to/lastmile_qr_scan"}, "fusion_lon": 0.0}, {"lat": 38.92171316666666, "is_disabled": 0, "type": "electric_scooter", "lon": -77.05135333333334, "bike_id": "e5ff6e9c50bb6416b05e51645ac17fa3", "fusion_lat": 0.0, "name": "e5ff6e9c50bb6416b05e51645ac17fa3", "is_reserved": 0, "rental_uris": {"android": "https://dc.lft.to/lastmile_qr_scan", "ios": "https://dc.lft.to/lastmile_qr_scan"}, "fusion_lon": 0.0}, {"lat": 38.96216316666667, "is_disabled": 0, "type": "electric_bike", "lon": -77.02781883333333, "bike_id": "ab7f139882ffd5f72660a6a4408cf70d", "fusion_lat": 0.0, "name": "ab7f139882ffd5f72660a6a4408cf70d", "is_reserved": 0, "rental_uris": {"android": "https://dc.lft.to/lastmile_qr_scan", "ios": "https://dc.lft.to/lastmile_qr_scan"}, "fusion_lon": 0.0}, {"lat": 38.918176333333335, "is_disabled": 0, "type": "electric_scooter", "lon": -76.999696, "bike_id": "f624466a5078f9a88b9730a7c7fa1950", "fusion_lat": 0.0, "name": "f624466a5078f9a88b9730a7c7fa1950", "is_reserved": 0, "rental_uris": {"android": "https://dc.lft.to/lastmile_qr_scan", "ios": "https://dc.lft.to/lastmile_qr_scan"}, "fusion_lon": 0.0}, {"lat": 38.910039833333336, "is_disabled": 0, "type": "electric_scooter", "lon": -77.04006883333334, "bike_id": "555906787e7bf37ef39fbe6af7b3101e", "fusion_lat": 0.0, "name": "555906787e7bf37ef39fbe6af7b3101e", "is_reserved": 0, "rental_uris": {"android": "https://dc.lft.to/lastmile_qr_scan", "ios": "https://dc.lft.to/lastmile_qr_scan"}, "fusion_lon": 0.0}, {"lat": 38.8853445, "is_disabled": 0, "type": "electric_scooter", "lon": -77.0149965, "bike_id": "db5bbac393bb4bc9f51c4ae4fb099c35", "fusion_lat": 0.0, "name": "db5bbac393bb4bc9f51c4ae4fb099c35", "is_reserved": 0, "rental_uris": {"android": "https://dc.lft.to/lastmile_qr_scan", "ios": "https://dc.lft.to/lastmile_qr_scan"}, "fusion_lon": 0.0}, {"lat": 38.934724, "is_disabled": 0, "type": "electric_scooter", "lon": -77.03234633333334, "bike_id": "4b5cc05fd4d80d71270b6456fe54be9a", "fusion_lat": 0.0, "name": "4b5cc05fd4d80d71270b6456fe54be9a", "is_reserved": 0, "rental_uris": {"android": "https://dc.lft.to/lastmile_qr_scan", "ios": "https://dc.lft.to/lastmile_qr_scan"}, "fusion_lon": 0.0}, {"lat": 38.93225283333334, "is_disabled": 0, "type": "electric_scooter", "lon": -77.0441225, "bike_id": "0da156d3d782675457ce8191679cc864", "fusion_lat": 0.0, "name": "0da156d3d782675457ce8191679cc864", "is_reserved": 0, "rental_uris": {"android": "https://dc.lft.to/lastmile_qr_scan", "ios": "https://dc.lft.to/lastmile_qr_scan"}, "fusion_lon": 0.0}, {"lat": 38.852182166666665, "is_disabled": 0, "type": "electric_bike", "lon": -77.1294855, "bike_id": "0da0c10b526381e367d7f016cc09ae5e", "fusion_lat": 0.0, "name": "0da0c10b526381e367d7f016cc09ae5e", "is_reserved": 0, "rental_uris": {"android": "https://dc.lft.to/lastmile_qr_scan", "ios": "https://dc.lft.to/lastmile_qr_scan"}, "fusion_lon": 0.0}, {"lat": 38.86519066666666, "is_disabled": 0, "type": "electric_scooter", "lon": -76.990314, "bike_id": "1e9500a194e19b6db0a5fa1c8baf1e17", "fusion_lat": 0.0, "name": "1e9500a194e19b6db0a5fa1c8baf1e17", "is_reserved": 0, "rental_uris": {"android": "https://dc.lft.to/lastmile_qr_scan", "ios": "https://dc.lft.to/lastmile_qr_scan"}, "fusion_lon": 0.0}, {"lat": 38.91117366666667, "is_disabled": 0, "type": "electric_scooter", "lon": -77.0373245, "bike_id": "55ada7c83e40b6fc05230e4fedf28877", "fusion_lat": 0.0, "name": "55ada7c83e40b6fc05230e4fedf28877", "is_reserved": 0, "rental_uris": {"android": "https://dc.lft.to/lastmile_qr_scan", "ios": "https://dc.lft.to/lastmile_qr_scan"}, "fusion_lon": 0.0}, {"lat": 38.92018916666667, "is_disabled": 0, "type": "electric_scooter", "lon": -77.04188116666667, "bike_id": "b7ccff7e14336cef4f4789840baf05b0", "fusion_lat": 0.0, "name": "b7ccff7e14336cef4f4789840baf05b0", "is_reserved": 0, "rental_uris": {"android": "https://dc.lft.to/lastmile_qr_scan", "ios": "https://dc.lft.to/lastmile_qr_scan"}, "fusion_lon": 0.0}, {"lat": 38.91760333333333, "is_disabled": 0, "type": "electric_scooter", "lon": -77.00454216666667, "bike_id": "038c400d912148ac2fcb5f30bf2613e2", "fusion_lat": 0.0, "name": "038c400d912148ac2fcb5f30bf2613e2", "is_reserved": 0, "rental_uris": {"android": "https://dc.lft.to/lastmile_qr_scan", "ios": "https://dc.lft.to/lastmile_qr_scan"}, "fusion_lon": 0.0}, {"lat": 38.925068, "is_disabled": 0, "type": "electric_scooter", "lon": -77.07642666666666, "bike_id": "317c105b851cc842f46edf6e8200fdd7", "fusion_lat": 0.0, "name": "317c105b851cc842f46edf6e8200fdd7", "is_reserved": 0, "rental_uris": {"android": "https://dc.lft.to/lastmile_qr_scan", "ios": "https://dc.lft.to/lastmile_qr_scan"}, "fusion_lon": 0.0}, {"lat": 38.9324735, "is_disabled": 0, "type": "electric_scooter", "lon": -77.06652816666667, "bike_id": "f96077766eff8508b47fb5e390e1e4d0", "fusion_lat": 0.0, "name": "f96077766eff8508b47fb5e390e1e4d0", "is_reserved": 0, "rental_uris": {"android": "https://dc.lft.to/lastmile_qr_scan", "ios": "https://dc.lft.to/lastmile_qr_scan"}, "fusion_lon": 0.0}, {"lat": 38.943216666666665, "is_disabled": 0, "type": "electric_scooter", "lon": -77.07381833333334, "bike_id": "43d9bc21e6fafa5f70135d2e81cacb22", "fusion_lat": 0.0, "name": "43d9bc21e6fafa5f70135d2e81cacb22", "is_reserved": 0, "rental_uris": {"android": "https://dc.lft.to/lastmile_qr_scan", "ios": "https://dc.lft.to/lastmile_qr_scan"}, "fusion_lon": 0.0}, {"lat": 38.93625516666667, "is_disabled": 0, "type": "electric_scooter", "lon": -77.05752966666667, "bike_id": "06f07ba75c2d6fdae208a9be83e74dfc", "fusion_lat": 0.0, "name": "06f07ba75c2d6fdae208a9be83e74dfc", "is_reserved": 0, "rental_uris": {"android": "https://dc.lft.to/lastmile_qr_scan", "ios": "https://dc.lft.to/lastmile_qr_scan"}, "fusion_lon": 0.0}, {"lat": 38.879967666666666, "is_disabled": 0, "type": "electric_scooter", "lon": -76.98678, "bike_id": "d226363f539598bed94b12ab65c7da5e", "fusion_lat": 0.0, "name": "d226363f539598bed94b12ab65c7da5e", "is_reserved": 0, "rental_uris": {"android": "https://dc.lft.to/lastmile_qr_scan", "ios": "https://dc.lft.to/lastmile_qr_scan"}, "fusion_lon": 0.0}, {"lat": 38.866986833333335, "is_disabled": 0, "type": "electric_scooter", "lon": -76.98711816666666, "bike_id": "6db8bc269f0fe6dfab940c570cd474d9", "fusion_lat": 0.0, "name": "6db8bc269f0fe6dfab940c570cd474d9", "is_reserved": 0, "rental_uris": {"android": "https://dc.lft.to/lastmile_qr_scan", "ios": "https://dc.lft.to/lastmile_qr_scan"}, "fusion_lon": 0.0}, {"lat": 38.90234616666667, "is_disabled": 0, "type": "electric_scooter", "lon": -77.01752716666667, "bike_id": "52caa827040d59b042a25ee57038ec77", "fusion_lat": 0.0, "name": "52caa827040d59b042a25ee57038ec77", "is_reserved": 0, "rental_uris": {"android": "https://dc.lft.to/lastmile_qr_scan", "ios": "https://dc.lft.to/lastmile_qr_scan"}, "fusion_lon": 0.0}, {"lat": 38.91007883333333, "is_disabled": 0, "type": "electric_scooter", "lon": -77.0400855, "bike_id": "2f36f431f3711754fb10c934b703ef52", "fusion_lat": 0.0, "name": "2f36f431f3711754fb10c934b703ef52", "is_reserved": 0, "rental_uris": {"android": "https://dc.lft.to/lastmile_qr_scan", "ios": "https://dc.lft.to/lastmile_qr_scan"}, "fusion_lon": 0.0}, {"lat": 38.87139466666667, "is_disabled": 0, "type": "electric_bike", "lon": -76.936705, "bike_id": "23b368057b764075b91f19ee4d3d817d", "fusion_lat": 0.0, "name": "23b368057b764075b91f19ee4d3d817d", "is_reserved": 0, "rental_uris": {"android": "https://dc.lft.to/lastmile_qr_scan", "ios": "https://dc.lft.to/lastmile_qr_scan"}, "fusion_lon": 0.0}, {"lat": 38.923402333333335, "is_disabled": 0, "type": "electric_scooter", "lon": -77.03505166666666, "bike_id": "363eee8f6fa1accbfb2bfde6466486b9", "fusion_lat": 0.0, "name": "363eee8f6fa1accbfb2bfde6466486b9", "is_reserved": 0, "rental_uris": {"android": "https://dc.lft.to/lastmile_qr_scan", "ios": "https://dc.lft.to/lastmile_qr_scan"}, "fusion_lon": 0.0}, {"lat": 38.905495333333334, "is_disabled": 0, "type": "electric_scooter", "lon": -77.04322366666666, "bike_id": "fc4057129967a4441081bd12fac64c0f", "fusion_lat": 0.0, "name": "fc4057129967a4441081bd12fac64c0f", "is_reserved": 0, "rental_uris": {"android": "https://dc.lft.to/lastmile_qr_scan", "ios": "https://dc.lft.to/lastmile_qr_scan"}, "fusion_lon": 0.0}, {"lat": 38.90378233333333, "is_disabled": 0, "type": "electric_scooter", "lon": -77.00883916666666, "bike_id": "7dda56260044cd35907f9add6aca0e0f", "fusion_lat": 0.0, "name": "7dda56260044cd35907f9add6aca0e0f", "is_reserved": 0, "rental_uris": {"android": "https://dc.lft.to/lastmile_qr_scan", "ios": "https://dc.lft.to/lastmile_qr_scan"}, "fusion_lon": 0.0}, {"lat": 38.93581566666667, "is_disabled": 0, "type": "electric_bike", "lon": -77.10685016666666, "bike_id": "ef0dfde19c760cc4a747f0b24aeb89f4", "fusion_lat": 0.0, "name": "ef0dfde19c760cc4a747f0b24aeb89f4", "is_reserved": 0, "rental_uris": {"android": "https://dc.lft.to/lastmile_qr_scan", "ios": "https://dc.lft.to/lastmile_qr_scan"}, "fusion_lon": 0.0}, {"lat": 38.94136366666667, "is_disabled": 0, "type": "electric_scooter", "lon": -77.0761585, "bike_id": "5a9fbc513f6111b2167f6b124de68122", "fusion_lat": 0.0, "name": "5a9fbc513f6111b2167f6b124de68122", "is_reserved": 0, "rental_uris": {"android": "https://dc.lft.to/lastmile_qr_scan", "ios": "https://dc.lft.to/lastmile_qr_scan"}, "fusion_lon": 0.0}, {"lat": 38.90011416666667, "is_disabled": 0, "type": "electric_scooter", "lon": -77.03290983333333, "bike_id": "69bcbd466a223428d19bf864a91d6300", "fusion_lat": 0.0, "name": "69bcbd466a223428d19bf864a91d6300", "is_reserved": 0, "rental_uris": {"android": "https://dc.lft.to/lastmile_qr_scan", "ios": "https://dc.lft.to/lastmile_qr_scan"}, "fusion_lon": 0.0}, {"lat": 38.90951416666667, "is_disabled": 0, "type": "electric_scooter", "lon": -77.046617, "bike_id": "8bde71f6d68807ac4798a9785b023ba9", "fusion_lat": 0.0, "name": "8bde71f6d68807ac4798a9785b023ba9", "is_reserved": 0, "rental_uris": {"android": "https://dc.lft.to/lastmile_qr_scan", "ios": "https://dc.lft.to/lastmile_qr_scan"}, "fusion_lon": 0.0}, {"lat": 38.916372833333334, "is_disabled": 0, "type": "electric_scooter", "lon": -77.02694166666667, "bike_id": "6a678161301761c72e751e1ad686b22b", "fusion_lat": 0.0, "name": "6a678161301761c72e751e1ad686b22b", "is_reserved": 0, "rental_uris": {"android": "https://dc.lft.to/lastmile_qr_scan", "ios": "https://dc.lft.to/lastmile_qr_scan"}, "fusion_lon": 0.0}, {"lat": 38.900209, "is_disabled": 0, "type": "electric_scooter", "lon": -77.03329266666667, "bike_id": "e67a476716dff74418dc8cb410a23584", "fusion_lat": 0.0, "name": "e67a476716dff74418dc8cb410a23584", "is_reserved": 0, "rental_uris": {"android": "https://dc.lft.to/lastmile_qr_scan", "ios": "https://dc.lft.to/lastmile_qr_scan"}, "fusion_lon": 0.0}, {"lat": 38.895313333333334, "is_disabled": 0, "type": "electric_scooter", "lon": -77.00066666666666, "bike_id": "414073538717748af4bbc6af3e1f26cd", "fusion_lat": 0.0, "name": "414073538717748af4bbc6af3e1f26cd", "is_reserved": 0, "rental_uris": {"android": "https://dc.lft.to/lastmile_qr_scan", "ios": "https://dc.lft.to/lastmile_qr_scan"}, "fusion_lon": 0.0}, {"lat": 38.95053633333333, "is_disabled": 0, "type": "electric_scooter", "lon": -77.00722416666666, "bike_id": "84ae4df12a0232cb65a35a4e0215135e", "fusion_lat": 0.0, "name": "84ae4df12a0232cb65a35a4e0215135e", "is_reserved": 0, "rental_uris": {"android": "https://dc.lft.to/lastmile_qr_scan", "ios": "https://dc.lft.to/lastmile_qr_scan"}, "fusion_lon": 0.0}, {"lat": 38.948364, "is_disabled": 0, "type": "electric_scooter", "lon": -77.0257335, "bike_id": "d9b8ea3cd732d87b4d2a5e9f980449b7", "fusion_lat": 0.0, "name": "d9b8ea3cd732d87b4d2a5e9f980449b7", "is_reserved": 0, "rental_uris": {"android": "https://dc.lft.to/lastmile_qr_scan", "ios": "https://dc.lft.to/lastmile_qr_scan"}, "fusion_lon": 0.0}, {"lat": 38.9028045, "is_disabled": 0, "type": "electric_scooter", "lon": -77.01159683333333, "bike_id": "0e8480ec50e77b892c7a6562c277e7c5", "fusion_lat": 0.0, "name": "0e8480ec50e77b892c7a6562c277e7c5", "is_reserved": 0, "rental_uris": {"android": "https://dc.lft.to/lastmile_qr_scan", "ios": "https://dc.lft.to/lastmile_qr_scan"}, "fusion_lon": 0.0}, {"lat": 38.94495083333333, "is_disabled": 0, "type": "electric_bike", "lon": -77.00679066666666, "bike_id": "1971ab5788cd00d83764933a2217d647", "fusion_lat": 0.0, "name": "1971ab5788cd00d83764933a2217d647", "is_reserved": 0, "rental_uris": {"android": "https://dc.lft.to/lastmile_qr_scan", "ios": "https://dc.lft.to/lastmile_qr_scan"}, "fusion_lon": 0.0}, {"lat": 38.86365, "is_disabled": 0, "type": "electric_scooter", "lon": -76.99029083333333, "bike_id": "ae84b034b0e06e398f51f6f66e9146d5", "fusion_lat": 0.0, "name": "ae84b034b0e06e398f51f6f66e9146d5", "is_reserved": 0, "rental_uris": {"android": "https://dc.lft.to/lastmile_qr_scan", "ios": "https://dc.lft.to/lastmile_qr_scan"}, "fusion_lon": 0.0}, {"lat": 38.9290835, "is_disabled": 0, "type": "electric_scooter", "lon": -77.03737666666666, "bike_id": "68be215180030b9953a8c92af32d5634", "fusion_lat": 0.0, "name": "68be215180030b9953a8c92af32d5634", "is_reserved": 0, "rental_uris": {"android": "https://dc.lft.to/lastmile_qr_scan", "ios": "https://dc.lft.to/lastmile_qr_scan"}, "fusion_lon": 0.0}, {"lat": 38.966254666666664, "is_disabled": 0, "type": "electric_bike", "lon": -76.97668833333333, "bike_id": "8140164710023cbcde2d99429c602cf7", "fusion_lat": 0.0, "name": "8140164710023cbcde2d99429c602cf7", "is_reserved": 0, "rental_uris": {"android": "https://dc.lft.to/lastmile_qr_scan", "ios": "https://dc.lft.to/lastmile_qr_scan"}, "fusion_lon": 0.0}, {"lat": 38.90852966666667, "is_disabled": 0, "type": "electric_scooter", "lon": -77.03826833333333, "bike_id": "134566f24482a1e0630784622cdd86b6", "fusion_lat": 0.0, "name": "134566f24482a1e0630784622cdd86b6", "is_reserved": 0, "rental_uris": {"android": "https://dc.lft.to/lastmile_qr_scan", "ios": "https://dc.lft.to/lastmile_qr_scan"}, "fusion_lon": 0.0}, {"lat": 38.902652, "is_disabled": 0, "type": "electric_scooter", "lon": -77.05350816666666, "bike_id": "cfc680fbf9e43e2104d6c9489854d29b", "fusion_lat": 0.0, "name": "cfc680fbf9e43e2104d6c9489854d29b", "is_reserved": 0, "rental_uris": {"android": "https://dc.lft.to/lastmile_qr_scan", "ios": "https://dc.lft.to/lastmile_qr_scan"}, "fusion_lon": 0.0}, {"lat": 38.901154166666664, "is_disabled": 0, "type": "electric_scooter", "lon": -77.033142, "bike_id": "dcabbf1952107e07426fd54e48523171", "fusion_lat": 0.0, "name": "dcabbf1952107e07426fd54e48523171", "is_reserved": 0, "rental_uris": {"android": "https://dc.lft.to/lastmile_qr_scan", "ios": "https://dc.lft.to/lastmile_qr_scan"}, "fusion_lon": 0.0}, {"lat": 38.923724, "is_disabled": 0, "type": "electric_scooter", "lon": -77.0291955, "bike_id": "d78f199cc33eba30b6328e13ac58b3ab", "fusion_lat": 0.0, "name": "d78f199cc33eba30b6328e13ac58b3ab", "is_reserved": 0, "rental_uris": {"android": "https://dc.lft.to/lastmile_qr_scan", "ios": "https://dc.lft.to/lastmile_qr_scan"}, "fusion_lon": 0.0}, {"lat": 38.8777885, "is_disabled": 0, "type": "electric_scooter", "lon": -76.99507216666666, "bike_id": "a97b123fc26416ee34b5bfe2b35cf75c", "fusion_lat": 0.0, "name": "a97b123fc26416ee34b5bfe2b35cf75c", "is_reserved": 0, "rental_uris": {"android": "https://dc.lft.to/lastmile_qr_scan", "ios": "https://dc.lft.to/lastmile_qr_scan"}, "fusion_lon": 0.0}, {"lat": 38.897256666666664, "is_disabled": 0, "type": "electric_scooter", "lon": -77.04988733333333, "bike_id": "40e9036a370f51341c2101e1ca431eff", "fusion_lat": 0.0, "name": "40e9036a370f51341c2101e1ca431eff", "is_reserved": 0, "rental_uris": {"android": "https://dc.lft.to/lastmile_qr_scan", "ios": "https://dc.lft.to/lastmile_qr_scan"}, "fusion_lon": 0.0}, {"lat": 38.88488433333333, "is_disabled": 0, "type": "electric_scooter", "lon": -77.00707033333333, "bike_id": "e8e1b9eebea1d47b8530e451b0afb90e", "fusion_lat": 0.0, "name": "e8e1b9eebea1d47b8530e451b0afb90e", "is_reserved": 0, "rental_uris": {"android": "https://dc.lft.to/lastmile_qr_scan", "ios": "https://dc.lft.to/lastmile_qr_scan"}, "fusion_lon": 0.0}, {"lat": 38.9001545, "is_disabled": 0, "type": "electric_scooter", "lon": -77.01194366666667, "bike_id": "c62d688f9d3b4644593f4dc256c03227", "fusion_lat": 0.0, "name": "c62d688f9d3b4644593f4dc256c03227", "is_reserved": 0, "rental_uris": {"android": "https://dc.lft.to/lastmile_qr_scan", "ios": "https://dc.lft.to/lastmile_qr_scan"}, "fusion_lon": 0.0}, {"lat": 38.9257245, "is_disabled": 0, "type": "electric_scooter", "lon": -76.98608366666667, "bike_id": "413806694035d8dbb2abd9937e50da99", "fusion_lat": 0.0, "name": "413806694035d8dbb2abd9937e50da99", "is_reserved": 0, "rental_uris": {"android": "https://dc.lft.to/lastmile_qr_scan", "ios": "https://dc.lft.to/lastmile_qr_scan"}, "fusion_lon": 0.0}, {"lat": 38.993696, "is_disabled": 0, "type": "electric_bike", "lon": -77.03181166666667, "bike_id": "f7eab6e78078e5b5a989911ac3cbff57", "fusion_lat": 0.0, "name": "f7eab6e78078e5b5a989911ac3cbff57", "is_reserved": 0, "rental_uris": {"android": "https://dc.lft.to/lastmile_qr_scan", "ios": "https://dc.lft.to/lastmile_qr_scan"}, "fusion_lon": 0.0}, {"lat": 38.93490666666667, "is_disabled": 0, "type": "electric_scooter", "lon": -77.03617333333334, "bike_id": "a14e44c83eb69a80569e39bf7fe487aa", "fusion_lat": 0.0, "name": "a14e44c83eb69a80569e39bf7fe487aa", "is_reserved": 0, "rental_uris": {"android": "https://dc.lft.to/lastmile_qr_scan", "ios": "https://dc.lft.to/lastmile_qr_scan"}, "fusion_lon": 0.0}, {"lat": 38.84293016666667, "is_disabled": 0, "type": "electric_scooter", "lon": -76.99946966666667, "bike_id": "af89ff3a80446ea850a7e03b28e842ca", "fusion_lat": 0.0, "name": "af89ff3a80446ea850a7e03b28e842ca", "is_reserved": 0, "rental_uris": {"android": "https://dc.lft.to/lastmile_qr_scan", "ios": "https://dc.lft.to/lastmile_qr_scan"}, "fusion_lon": 0.0}, {"lat": 38.940678166666665, "is_disabled": 0, "type": "electric_scooter", "lon": -77.06131066666667, "bike_id": "233ad45d6f2ec645b3e2a30faac615ef", "fusion_lat": 0.0, "name": "233ad45d6f2ec645b3e2a30faac615ef", "is_reserved": 0, "rental_uris": {"android": "https://dc.lft.to/lastmile_qr_scan", "ios": "https://dc.lft.to/lastmile_qr_scan"}, "fusion_lon": 0.0}, {"lat": 38.93251633333333, "is_disabled": 0, "type": "electric_scooter", "lon": -77.03270066666667, "bike_id": "adc79d98721f5091317f556a767de844", "fusion_lat": 0.0, "name": "adc79d98721f5091317f556a767de844", "is_reserved": 0, "rental_uris": {"android": "https://dc.lft.to/lastmile_qr_scan", "ios": "https://dc.lft.to/lastmile_qr_scan"}, "fusion_lon": 0.0}, {"lat": 38.93657983333333, "is_disabled": 0, "type": "electric_scooter", "lon": -77.036545, "bike_id": "0e72b0c65add4c07acf24d0f73bec570", "fusion_lat": 0.0, "name": "0e72b0c65add4c07acf24d0f73bec570", "is_reserved": 0, "rental_uris": {"android": "https://dc.lft.to/lastmile_qr_scan", "ios": "https://dc.lft.to/lastmile_qr_scan"}, "fusion_lon": 0.0}, {"lat": 38.93285983333333, "is_disabled": 0, "type": "electric_scooter", "lon": -77.02821833333333, "bike_id": "61cf374b44008dd68603c139d1eb2a60", "fusion_lat": 0.0, "name": "61cf374b44008dd68603c139d1eb2a60", "is_reserved": 0, "rental_uris": {"android": "https://dc.lft.to/lastmile_qr_scan", "ios": "https://dc.lft.to/lastmile_qr_scan"}, "fusion_lon": 0.0}, {"lat": 38.9310635, "is_disabled": 0, "type": "electric_scooter", "lon": -77.03506733333333, "bike_id": "c32cd4377554bb26e706fb8fc8b77f15", "fusion_lat": 0.0, "name": "c32cd4377554bb26e706fb8fc8b77f15", "is_reserved": 0, "rental_uris": {"android": "https://dc.lft.to/lastmile_qr_scan", "ios": "https://dc.lft.to/lastmile_qr_scan"}, "fusion_lon": 0.0}, {"lat": 38.9148175, "is_disabled": 0, "type": "electric_scooter", "lon": -76.9836155, "bike_id": "5146af11ee5bd4525957b214ab4d1c58", "fusion_lat": 0.0, "name": "5146af11ee5bd4525957b214ab4d1c58", "is_reserved": 0, "rental_uris": {"android": "https://dc.lft.to/lastmile_qr_scan", "ios": "https://dc.lft.to/lastmile_qr_scan"}, "fusion_lon": 0.0}, {"lat": 38.905446833333336, "is_disabled": 0, "type": "electric_scooter", "lon": -77.0053335, "bike_id": "aa43e778a134cc00a6daf7bf0a5779dc", "fusion_lat": 0.0, "name": "aa43e778a134cc00a6daf7bf0a5779dc", "is_reserved": 0, "rental_uris": {"android": "https://dc.lft.to/lastmile_qr_scan", "ios": "https://dc.lft.to/lastmile_qr_scan"}, "fusion_lon": 0.0}, {"lat": 38.876291333333334, "is_disabled": 0, "type": "electric_scooter", "lon": -76.96526833333333, "bike_id": "0f4fd0095619308113d038e1064645ff", "fusion_lat": 0.0, "name": "0f4fd0095619308113d038e1064645ff", "is_reserved": 0, "rental_uris": {"android": "https://dc.lft.to/lastmile_qr_scan", "ios": "https://dc.lft.to/lastmile_qr_scan"}, "fusion_lon": 0.0}, {"lat": 38.89621966666667, "is_disabled": 0, "type": "electric_scooter", "lon": -76.99848133333333, "bike_id": "bc7899917637118d410bbb06ce6edac0", "fusion_lat": 0.0, "name": "bc7899917637118d410bbb06ce6edac0", "is_reserved": 0, "rental_uris": {"android": "https://dc.lft.to/lastmile_qr_scan", "ios": "https://dc.lft.to/lastmile_qr_scan"}, "fusion_lon": 0.0}, {"lat": 38.89328733333333, "is_disabled": 0, "type": "electric_scooter", "lon": -76.929909, "bike_id": "858b866f384d3b1c97654acbbee3fc44", "fusion_lat": 0.0, "name": "858b866f384d3b1c97654acbbee3fc44", "is_reserved": 0, "rental_uris": {"android": "https://dc.lft.to/lastmile_qr_scan", "ios": "https://dc.lft.to/lastmile_qr_scan"}, "fusion_lon": 0.0}, {"lat": 38.93191683333333, "is_disabled": 0, "type": "electric_scooter", "lon": -77.04427783333334, "bike_id": "6d57ca66422287e040c60b75f844f913", "fusion_lat": 0.0, "name": "6d57ca66422287e040c60b75f844f913", "is_reserved": 0, "rental_uris": {"android": "https://dc.lft.to/lastmile_qr_scan", "ios": "https://dc.lft.to/lastmile_qr_scan"}, "fusion_lon": 0.0}, {"lat": 38.914221, "is_disabled": 0, "type": "electric_scooter", "lon": -77.03996383333333, "bike_id": "c849eee25fea11959e2529b7dff9184f", "fusion_lat": 0.0, "name": "c849eee25fea11959e2529b7dff9184f", "is_reserved": 0, "rental_uris": {"android": "https://dc.lft.to/lastmile_qr_scan", "ios": "https://dc.lft.to/lastmile_qr_scan"}, "fusion_lon": 0.0}, {"lat": 38.932295333333336, "is_disabled": 0, "type": "electric_scooter", "lon": -76.99601983333334, "bike_id": "c27505b38f116e33da5b307002740d01", "fusion_lat": 0.0, "name": "c27505b38f116e33da5b307002740d01", "is_reserved": 0, "rental_uris": {"android": "https://dc.lft.to/lastmile_qr_scan", "ios": "https://dc.lft.to/lastmile_qr_scan"}, "fusion_lon": 0.0}, {"lat": 38.91199916666667, "is_disabled": 0, "type": "electric_scooter", "lon": -77.00226033333334, "bike_id": "c606f1090d71ad4244888b4f44255b57", "fusion_lat": 0.0, "name": "c606f1090d71ad4244888b4f44255b57", "is_reserved": 0, "rental_uris": {"android": "https://dc.lft.to/lastmile_qr_scan", "ios": "https://dc.lft.to/lastmile_qr_scan"}, "fusion_lon": 0.0}, {"lat": 38.90953316666667, "is_disabled": 0, "type": "electric_scooter", "lon": -77.02280116666667, "bike_id": "816ff96cd1326c59cdbaaf4748e4a529", "fusion_lat": 0.0, "name": "816ff96cd1326c59cdbaaf4748e4a529", "is_reserved": 0, "rental_uris": {"android": "https://dc.lft.to/lastmile_qr_scan", "ios": "https://dc.lft.to/lastmile_qr_scan"}, "fusion_lon": 0.0}, {"lat": 38.884896499999996, "is_disabled": 0, "type": "electric_scooter", "lon": -77.00710183333334, "bike_id": "03318ac2133909cda915121c9beb0d3e", "fusion_lat": 0.0, "name": "03318ac2133909cda915121c9beb0d3e", "is_reserved": 0, "rental_uris": {"android": "https://dc.lft.to/lastmile_qr_scan", "ios": "https://dc.lft.to/lastmile_qr_scan"}, "fusion_lon": 0.0}, {"lat": 38.86623316666667, "is_disabled": 0, "type": "electric_scooter", "lon": -76.98700816666667, "bike_id": "ee5fa190c71921e36b804e7ac4b0b52b", "fusion_lat": 0.0, "name": "ee5fa190c71921e36b804e7ac4b0b52b", "is_reserved": 0, "rental_uris": {"android": "https://dc.lft.to/lastmile_qr_scan", "ios": "https://dc.lft.to/lastmile_qr_scan"}, "fusion_lon": 0.0}, {"lat": 38.887626833333336, "is_disabled": 0, "type": "electric_scooter", "lon": -76.9559685, "bike_id": "f9b4656c25df25734322a48fc3089898", "fusion_lat": 0.0, "name": "f9b4656c25df25734322a48fc3089898", "is_reserved": 0, "rental_uris": {"android": "https://dc.lft.to/lastmile_qr_scan", "ios": "https://dc.lft.to/lastmile_qr_scan"}, "fusion_lon": 0.0},