{"data": {"bikes": [{"rental_uris": {"android": "https://dc.lft.to/lastmile_qr_scan", "ios": "https://dc.lft.to/lastmile_qr_scan"}, "lon": -76.98543966666666, "name": "90c97d166a78b9b7cba927fcbbd77de1", "lat": 38.86691666666667, "is_reserved": 0, "fusion_lat": 0.0, "bike_id": "90c97d166a78b9b7cba927fcbbd77de1", "type": "electric_scooter", "is_disabled": 0, "fusion_lon": 0.0}, {"rental_uris": {"android": "https://dc.lft.to/lastmile_qr_scan", "ios": "https://dc.lft.to/lastmile_qr_scan"}, "lon": -77.03222133333334, "name": "bda8995a8f3b735b234b8a082c0aeeed", "lat": 38.921357666666665, "is_reserved": 0, "fusion_lat": 0.0, "bike_id": "bda8995a8f3b735b234b8a082c0aeeed", "type": "electric_scooter", "is_disabled": 0, "fusion_lon": 0.0}, {"rental_uris": {"android": "https://dc.lft.to/lastmile_qr_scan", "ios": "https://dc.lft.to/lastmile_qr_scan"}, "lon": -76.99769216666667, "name": "71af1e39078ae8511566a4c148012bff", "lat": 38.908933833333336, "is_reserved": 0, "fusion_lat": 0.0, "bike_id": "71af1e39078ae8511566a4c148012bff", "type": "electric_scooter", "is_disabled": 0, "fusion_lon": 0.0}, {"rental_uris": {"android": "https://dc.lft.to/lastmile_qr_scan", "ios": "https://dc.lft.to/lastmile_qr_scan"}, "lon": -77.04457916666667, "name": "3d1db7666a0120633035457b0279fa6c", "lat": 38.9028475, "is_reserved": 0, "fusion_lat": 0.0, "bike_id": "3d1db7666a0120633035457b0279fa6c", "type": "electric_scooter", "is_disabled": 0, "fusion_lon": 0.0}, {"rental_uris": {"android": "https://dc.lft.to/lastmile_qr_scan", "ios": "https://dc.lft.to/lastmile_qr_scan"}, "lon": -76.991202, "name": "f45bd8627473918cb72c00fa0d980604", "lat": 38.846563333333336, "is_reserved": 0, "fusion_lat": 0.0, "bike_id": "f45bd8627473918cb72c00fa0d980604", "type": "electric_scooter", "is_disabled": 0, "fusion_lon": 0.0}, {"rental_uris": {"android": "https://dc.lft.to/lastmile_qr_scan", "ios": "https://dc.lft.to/lastmile_qr_scan"}, "lon": -76.99514283333333, "name": "48b60d1e05ed12bd4485a8b7b6e39e25", "lat": 38.821756666666666, "is_reserved": 0, "fusion_lat": 0.0, "bike_id": "48b60d1e05ed12bd4485a8b7b6e39e25", "type": "electric_bike", "is_disabled": 0, "fusion_lon": 0.0}, {"rental_uris": {"android": "https://dc.lft.to/lastmile_qr_scan", "ios": "https://dc.lft.to/lastmile_qr_scan"}, "lon": -77.02085483333333, "name": "5f1b88d007e6528c0767cd24a881c189", "lat": 38.9214665, "is_reserved": 0, "fusion_lat": 0.0, "bike_id": "5f1b88d007e6528c0767cd24a881c189", "type": "electric_scooter", "is_disabled": 0, "fusion_lon": 0.0}, {"rental_uris": {"android": "https://dc.lft.to/lastmile_qr_scan", "ios": "https://dc.lft.to/lastmile_qr_scan"}, "lon": -77.1079045, "name": "65d63926a05ab1b96d4113c885293e26", "lat": 38.852538, "is_reserved": 0, "fusion_lat": 0.0, "bike_id": "65d63926a05ab1b96d4113c885293e26", "type": "electric_bike", "is_disabled": 0, "fusion_lon": 0.0}, {"rental_uris": {"android": "https://dc.lft.to/lastmile_qr_scan", "ios": "https://dc.lft.to/lastmile_qr_scan"}, "lon": -77.08156166666667, "name": "457e0dcf107546c2fbe29ee7577596dd", "lat": 38.93482766666666, "is_reserved": 0, "fusion_lat": 0.0, "bike_id": "457e0dcf107546c2fbe29ee7577596dd", "type": "electric_scooter", "is_disabled": 0, "fusion_lon": 0.0}, {"rental_uris": {"android": "https://dc.lft.to/lastmile_qr_scan", "ios": "https://dc.lft.to/lastmile_qr_scan"}, "lon": -77.02524316666667, "name": "36e8d3993af520c942686b0b4ef36a9e", "lat": 38.92489366666667, "is_reserved": 0, "fusion_lat": 0.0, "bike_id": "36e8d3993af520c942686b0b4ef36a9e", "type": "electric_scooter", "is_disabled": 0, "fusion_lon": 0.0}, {"rental_uris": {"android": "https://dc.lft.to/lastmile_qr_scan", "ios": "https://dc.lft.to/lastmile_qr_scan"}, "lon": -76.94636433333334, "name": "e26e1cfafae25656bb0aec3713d749f5", "lat": 38.898338, "is_reserved": 0, "fusion_lat": 0.0, "bike_id": "e26e1cfafae25656bb0aec3713d749f5", "type": "electric_scooter", "is_disabled": 0, "fusion_lon": 0.0}, {"rental_uris": {"android": "https://dc.lft.to/lastmile_qr_scan", "ios": "https://dc.lft.to/lastmile_qr_scan"}, "lon": -77.02640066666666, "name": "2ace94ba89bd4c091eff610140ea3fa6", "lat": 38.881034, "is_reserved": 0, "fusion_lat": 0.0, "bike_id": "2ace94ba89bd4c091eff610140ea3fa6", "type": "electric_scooter", "is_disabled": 0, "fusion_lon": 0.0}, {"rental_uris": {"android": "https://dc.lft.to/lastmile_qr_scan", "ios": "https://dc.lft.to/lastmile_qr_scan"}, "lon": -77.0255755, "name": "7c582b8b40709dbc10a6b85a8f02c4b8", "lat": 38.941651666666665, "is_reserved": 0, "fusion_lat": 0.0, "bike_id": "7c582b8b40709dbc10a6b85a8f02c4b8", "type": "electric_scooter", "is_disabled": 0, "fusion_lon": 0.0}, {"rental_uris": {"android": "https://dc.lft.to/lastmile_qr_scan", "ios": "https://dc.lft.to/lastmile_qr_scan"}, "lon": -77.02381633333333, "name": "f554be2aa65d5d6bf28f70564d8103dc", "lat": 38.919979833333336, "is_reserved": 0, "fusion_lat": 0.0, "bike_id": "f554be2aa65d5d6bf28f70564d8103dc", "type": "electric_scooter", "is_disabled": 0, "fusion_lon": 0.0}, {"rental_uris": {"android": "https://dc.lft.to/lastmile_qr_scan", "ios": "https://dc.lft.to/lastmile_qr_scan"}, "lon": -77.0249805, "name": "5a4c2b7dfa2659ea8a7bd84fb3343d32", "lat": 38.90726516666667, "is_reserved": 0, "fusion_lat": 0.0, "bike_id": "5a4c2b7dfa2659ea8a7bd84fb3343d32", "type": "electric_scooter", "is_disabled": 0, "fusion_lon": 0.0}, {"rental_uris": {"android": "https://dc.lft.to/lastmile_qr_scan", "ios": "https://dc.lft.to/lastmile_qr_scan"}, "lon": -77.00926783333334, "name": "77aaacd745208417f3863881babbb2aa", "lat": 38.90742516666667, "is_reserved": 0, "fusion_lat": 0.0, "bike_id": "77aaacd745208417f3863881babbb2aa", "type": "electric_scooter", "is_disabled": 0, "fusion_lon": 0.0}, {"rental_uris": {"android": "https://dc.lft.to/lastmile_qr_scan", "ios": "https://dc.lft.to/lastmile_qr_scan"}, "lon": -77.036964, "name": "8fe0e90f7027548f0769b78daa121239", "lat": 38.9181805, "is_reserved": 0, "fusion_lat": 0.0, "bike_id": "8fe0e90f7027548f0769b78daa121239", "type": "electric_scooter", "is_disabled": 0, "fusion_lon": 0.0}, {"rental_uris": {"android": "https://dc.lft.to/lastmile_qr_scan", "ios": "https://dc.lft.to/lastmile_qr_scan"}, "lon": -77.01641283333333, "name": "e56320c7d49329284dddca8de07f02e2", "lat": 38.8811725, "is_reserved": 0, "fusion_lat": 0.0, "bike_id": "e56320c7d49329284dddca8de07f02e2", "type": "electric_scooter", "is_disabled": 0, "fusion_lon": 0.0}, {"rental_uris": {"android": "https://dc.lft.to/lastmile_qr_scan", "ios": "https://dc.lft.to/lastmile_qr_scan"}, "lon": -77.02701783333333, "name": "546d0dd3dc583db68be268250b8c49de", "lat": 38.90951783333333, "is_reserved": 0, "fusion_lat": 0.0, "bike_id": "546d0dd3dc583db68be268250b8c49de", "type": "electric_scooter", "is_disabled": 0, "fusion_lon": 0.0}, {"rental_uris": {"android": "https://dc.lft.to/lastmile_qr_scan", "ios": "https://dc.lft.to/lastmile_qr_scan"}, "lon": -77.03127316666667, "name": "b10f258e54a2510855350c5a71003625", "lat": 38.92972066666667, "is_reserved": 1, "fusion_lat": 0.0, "bike_id": "b10f258e54a2510855350c5a71003625", "type": "electric_scooter", "is_disabled": 0, "fusion_lon": 0.0}, {"rental_uris": {"android": "https://dc.lft.to/lastmile_qr_scan", "ios": "https://dc.lft.to/lastmile_qr_scan"}, "lon": -77.030921, "name": "0f03e56464c40d5dd402b8896969e9d3", "lat": 38.935415166666665, "is_reserved": 0, "fusion_lat": 0.0, "bike_id": "0f03e56464c40d5dd402b8896969e9d3", "type": "electric_scooter", "is_disabled": 0, "fusion_lon": 0.0}, {"rental_uris": {"android": "https://dc.lft.to/lastmile_qr_scan", "ios": "https://dc.lft.to/lastmile_qr_scan"}, "lon": -76.997343, "name": "07e0a1f96796836156fdc99fc89bff17", "lat": 38.89935533333333, "is_reserved": 0, "fusion_lat": 0.0, "bike_id": "07e0a1f96796836156fdc99fc89bff17", "type": "electric_scooter", "is_disabled": 0, "fusion_lon": 0.0}, {"rental_uris": {"android": "https://dc.lft.to/lastmile_qr_scan", "ios": "https://dc.lft.to/lastmile_qr_scan"}, "lon": -76.945322, "name": "d009f5191921546404722443da0f0751", "lat": 38.867569333333336, "is_reserved": 0, "fusion_lat": 0.0, "bike_id": "d009f5191921546404722443da0f0751", "type": "electric_bike", "is_disabled": 0, "fusion_lon": 0.0}, {"rental_uris": {"android": "https://dc.lft.to/lastmile_qr_scan", "ios": "https://dc.lft.to/lastmile_qr_scan"}, "lon": -77.00568533333333, "name": "44c1e05f3ad13efe1f88e5f06f86c43c", "lat": 38.905409, "is_reserved": 0, "fusion_lat": 0.0, "bike_id": "44c1e05f3ad13efe1f88e5f06f86c43c", "type": "electric_scooter", "is_disabled": 0, "fusion_lon": 0.0}, {"rental_uris": {"android": "https://dc.lft.to/lastmile_qr_scan", "ios": "https://dc.lft.to/lastmile_qr_scan"}, "lon": -77.04621966666667, "name": "731d9d38ba3e50964a35bf70422ae537", "lat": 38.906657833333334, "is_reserved": 0, "fusion_lat": 0.0, "bike_id": "731d9d38ba3e50964a35bf70422ae537", "type": "electric_scooter", "is_disabled": 0, "fusion_lon": 0.0}, {"rental_uris": {"android": "https://dc.lft.to/lastmile_qr_scan", "ios": "https://dc.lft.to/lastmile_qr_scan"}, "lon": -77.02009033333333, "name": "4591f7da916324cd311dd9f40699115a", "lat": 38.892542166666665, "is_reserved": 0, "fusion_lat": 0.0, "bike_id": "4591f7da916324cd311dd9f40699115a", "type": "electric_scooter", "is_disabled": 0, "fusion_lon": 0.0}, {"rental_uris": {"android": "https://dc.lft.to/lastmile_qr_scan", "ios": "https://dc.lft.to/lastmile_qr_scan"}, "lon": -77.01760683333333, "name": "6b189584da593a4d3784860127516361", "lat": 38.8828435, "is_reserved": 0, "fusion_lat": 0.0, "bike_id": "6b189584da593a4d3784860127516361", "type": "electric_scooter", "is_disabled": 0, "fusion_lon": 0.0}, {"rental_uris": {"android": "https://dc.lft.to/lastmile_qr_scan", "ios": "https://dc.lft.to/lastmile_qr_scan"}, "lon": -77.01745016666666, "name": "15fc572a79d7f2a4023fc14718650543", "lat": 38.939937, "is_reserved": 0, "fusion_lat": 0.0, "bike_id": "15fc572a79d7f2a4023fc14718650543", "type": "electric_scooter", "is_disabled": 0, "fusion_lon": 0.0}, {"rental_uris": {"android": "https://dc.lft.to/lastmile_qr_scan", "ios": "https://dc.lft.to/lastmile_qr_scan"}, "lon": -77.02239016666667, "name": "64bc38009154c935ab1fc83c3ae41035", "lat": 38.92218833333333, "is_reserved": 0, "fusion_lat": 0.0, "bike_id": "64bc38009154c935ab1fc83c3ae41035", "type": "electric_scooter", "is_disabled": 0, "fusion_lon": 0.0}, {"rental_uris": {"android": "https://dc.lft.to/lastmile_qr_scan", "ios": "https://dc.lft.to/lastmile_qr_scan"}, "lon": -76.99031966666666, "name": "a0d418bf5f59ced19a54a4016ad1501b", "lat": 38.898492, "is_reserved": 0, "fusion_lat": 0.0, "bike_id": "a0d418bf5f59ced19a54a4016ad1501b", "type": "electric_scooter", "is_disabled": 0, "fusion_lon": 0.0}, {"rental_uris": {"android": "https://dc.lft.to/lastmile_qr_scan", "ios": "https://dc.lft.to/lastmile_qr_scan"}, "lon": -77.01404633333334, "name": "5c4c4585f35d8473c01b090271c94d74", "lat": 38.914072166666664, "is_reserved": 0, "fusion_lat": 0.0, "bike_id": "5c4c4585f35d8473c01b090271c94d74", "type": "electric_scooter", "is_disabled": 0, "fusion_lon": 0.0}, {"rental_uris": {"android": "https://dc.lft.to/lastmile_qr_scan", "ios": "https://dc.lft.to/lastmile_qr_scan"}, "lon": -77.0442415, "name": "d530909825dd31d2e5cdbedee58d2673", "lat": 38.893929666666665, "is_reserved": 0, "fusion_lat": 0.0, "bike_id": "d530909825dd31d2e5cdbedee58d2673", "type": "electric_scooter", "is_disabled": 0, "fusion_lon": 0.0}, {"rental_uris": {"android": "https://dc.lft.to/lastmile_qr_scan", "ios": "https://dc.lft.to/lastmile_qr_scan"}, "lon": -76.98361616666666, "name": "3bd74bdcf39f8ca6702d4068128bb394", "lat": 38.9150945, "is_reserved": 0, "fusion_lat": 0.0, "bike_id": "3bd74bdcf39f8ca6702d4068128bb394", "type": "electric_scooter", "is_disabled": 0, "fusion_lon": 0.0}, {"rental_uris": {"android": "https://dc.lft.to/lastmile_qr_scan", "ios": "https://dc.lft.to/lastmile_qr_scan"}, "lon": -77.03222033333333, "name": "49cebd92a30f375ecab53e84db6f61d8", "lat": 38.936157, "is_reserved": 0, "fusion_lat": 0.0, "bike_id": "49cebd92a30f375ecab53e84db6f61d8", "type": "electric_scooter", "is_disabled": 0, "fusion_lon": 0.0}, {"rental_uris": {"android": "https://dc.lft.to/lastmile_qr_scan", "ios": "https://dc.lft.to/lastmile_qr_scan"}, "lon": -77.00760333333334, "name": "fcf9ce2315a07efb624dbd1ff712b95d", "lat": 38.92696333333333, "is_reserved": 0, "fusion_lat": 0.0, "bike_id": "fcf9ce2315a07efb624dbd1ff712b95d", "type": "electric_scooter", "is_disabled": 0, "fusion_lon": 0.0}, {"rental_uris": {"android": "https://dc.lft.to/lastmile_qr_scan", "ios": "https://dc.lft.to/lastmile_qr_scan"}, "lon": -77.02086833333334, "name": "44d9b17e9760b29909743ddc7edef01d", "lat": 38.930099166666665, "is_reserved": 0, "fusion_lat": 0.0, "bike_id": "44d9b17e9760b29909743ddc7edef01d", "type": "electric_scooter", "is_disabled": 0, "fusion_lon": 0.0}, {"rental_uris": {"android": "https://dc.lft.to/lastmile_qr_scan", "ios": "https://dc.lft.to/lastmile_qr_scan"}, "lon": -77.0241275, "name": "c76837481ca9992f0c295ac7b5c0e771", "lat": 38.93502816666667, "is_reserved": 0, "fusion_lat": 0.0, "bike_id": "c76837481ca9992f0c295ac7b5c0e771", "type": "electric_scooter", "is_disabled": 0, "fusion_lon": 0.0}, {"rental_uris": {"android": "https://dc.lft.to/lastmile_qr_scan", "ios": "https://dc.lft.to/lastmile_qr_scan"}, "lon": -77.02206516666666, "name": "d4077e93a9757dd42acacf73b628d844", "lat": 38.91992966666667, "is_reserved": 0, "fusion_lat": 0.0, "bike_id": "d4077e93a9757dd42acacf73b628d844", "type": "electric_scooter", "is_disabled": 0, "fusion_lon": 0.0}, {"rental_uris": {"android": "https://dc.lft.to/lastmile_qr_scan", "ios": "https://dc.lft.to/lastmile_qr_scan"}, "lon": -76.98008116666666, "name": "b294eb9e06a86f3d1348a11352b03b5a", "lat": 38.90679983333333, "is_reserved": 0, "fusion_lat": 0.0, "bike_id": "b294eb9e06a86f3d1348a11352b03b5a", "type": "electric_scooter", "is_disabled": 0, "fusion_lon": 0.0}, {"rental_uris": {"android": "https://dc.lft.to/lastmile_qr_scan", "ios": "https://dc.lft.to/lastmile_qr_scan"}, "lon": -76.95665983333333, "name": "f2f4baa8fe11aeae945445addc91341e", "lat": 38.884881, "is_reserved": 0, "fusion_lat": 0.0, "bike_id": "f2f4baa8fe11aeae945445addc91341e", "type": "electric_bike", "is_disabled": 0, "fusion_lon": 0.0}, {"rental_uris": {"android": "https://dc.lft.to/lastmile_qr_scan", "ios": "https://dc.lft.to/lastmile_qr_scan"}, "lon": -77.00197866666667, "name": "301a073e3d0a1d512c150d61dcba4add", "lat": 38.966133, "is_reserved": 0, "fusion_lat": 0.0, "bike_id": "301a073e3d0a1d512c150d61dcba4add", "type": "electric_scooter", "is_disabled": 0, "fusion_lon": 0.0}, {"rental_uris": {"android": "https://dc.lft.to/lastmile_qr_scan", "ios": "https://dc.lft.to/lastmile_qr_scan"}, "lon": -76.9809275, "name": "ed485b0109f7bca3a1c7593413c182b7", "lat": 38.95359883333333, "is_reserved": 0, "fusion_lat": 0.0, "bike_id": "ed485b0109f7bca3a1c7593413c182b7", "type": "electric_bike", "is_disabled": 0, "fusion_lon": 0.0}, {"rental_uris": {"android": "https://dc.lft.to/lastmile_qr_scan", "ios": "https://dc.lft.to/lastmile_qr_scan"}, "lon": -77.038862, "name": "6fc33d642abb3d05d5d0fb79080a869d", "lat": 38.918493833333336, "is_reserved": 0, "fusion_lat": 0.0, "bike_id": "6fc33d642abb3d05d5d0fb79080a869d", "type": "electric_scooter", "is_disabled": 0, "fusion_lon": 0.0}, {"rental_uris": {"android": "https://dc.lft.to/lastmile_qr_scan", "ios": "https://dc.lft.to/lastmile_qr_scan"}, "lon": -77.036363, "name": "08cd628e634765b2edc1019c81762efa", "lat": 38.928164833333334, "is_reserved": 0, "fusion_lat": 0.0, "bike_id": "08cd628e634765b2edc1019c81762efa", "type": "electric_scooter", "is_disabled": 0, "fusion_lon": 0.0}, {"rental_uris": {"android": "https://dc.lft.to/lastmile_qr_scan", "ios": "https://dc.lft.to/lastmile_qr_scan"}, "lon": -77.00602466666666, "name": "c88714c875c8d48f23130e028f488b70", "lat": 38.907817333333334, "is_reserved": 0, "fusion_lat": 0.0, "bike_id": "c88714c875c8d48f23130e028f488b70", "type": "electric_scooter", "is_disabled": 0, "fusion_lon": 0.0}, {"rental_uris": {"android": "https://dc.lft.to/lastmile_qr_scan", "ios": "https://dc.lft.to/lastmile_qr_scan"}, "lon": -77.02547983333334, "name": "4216e9a8ae3bd5e487dc4410eefd89ed", "lat": 38.9037605, "is_reserved": 0, "fusion_lat": 0.0, "bike_id": "4216e9a8ae3bd5e487dc4410eefd89ed", "type": "electric_scooter", "is_disabled": 0, "fusion_lon": 0.0}, {"rental_uris": {"android": "https://dc.lft.to/lastmile_qr_scan", "ios": "https://dc.lft.to/lastmile_qr_scan"}, "lon": -77.038806, "name": "e07d8c2cc3bb999f9bd7f54d1f4355d0", "lat": 38.901409666666666, "is_reserved": 0, "fusion_lat": 0.0, "bike_id": "e07d8c2cc3bb999f9bd7f54d1f4355d0", "type": "electric_scooter", "is_disabled": 0, "fusion_lon": 0.0}, {"rental_uris": {"android": "https://dc.lft.to/lastmile_qr_scan", "ios": "https://dc.lft.to/lastmile_qr_scan"}, "lon": -76.93928983333333, "name": "c6f453579ab78e1fa634d82e25cc4224", "lat": 38.89330616666667, "is_reserved": 0, "fusion_lat": 0.0, "bike_id": "c6f453579ab78e1fa634d82e25cc4224", "type": "electric_scooter", "is_disabled": 0, "fusion_lon": 0.0}, {"rental_uris": {"android": "https://dc.lft.to/lastmile_qr_scan", "ios": "https://dc.lft.to/lastmile_qr_scan"}, "lon": -77.0453005, "name": "d81577b10ff1760231f6474a05557193", "lat": 38.9346, "is_reserved": 0, "fusion_lat": 0.0, "bike_id": "d81577b10ff1760231f6474a05557193", "type": "electric_scooter", "is_disabled": 0, "fusion_lon": 0.0}, {"rental_uris": {"android": "https://dc.lft.to/lastmile_qr_scan", "ios": "https://dc.lft.to/lastmile_qr_scan"}, "lon": -77.0317985, "name": "24c322b3372db5beb013778b8a5e422a", "lat": 38.907295500000004, "is_reserved": 0, "fusion_lat": 0.0, "bike_id": "24c322b3372db5beb013778b8a5e422a", "type": "electric_scooter", "is_disabled": 0, "fusion_lon": 0.0}, {"rental_uris": {"android": "https://dc.lft.to/lastmile_qr_scan", "ios": "https://dc.lft.to/lastmile_qr_scan"}, "lon": -77.01845183333333, "name": "9fec651237c6c082bd1cc7a14b9f9bf4", "lat": 38.915366, "is_reserved": 0, "fusion_lat": 0.0, "bike_id": "9fec651237c6c082bd1cc7a14b9f9bf4", "type": "electric_scooter", "is_disabled": 0, "fusion_lon": 0.0}, {"rental_uris": {"android": "https://dc.lft.to/lastmile_qr_scan", "ios": "https://dc.lft.to/lastmile_qr_scan"}, "lon": -77.023795, "name": "96ae8e11c48f37690ac0368bfaff105e", "lat": 38.919863666666664, "is_reserved": 0, "fusion_lat": 0.0, "bike_id": "96ae8e11c48f37690ac0368bfaff105e", "type": "electric_scooter", "is_disabled": 0, "fusion_lon": 0.0}, {"rental_uris": {"android": "https://dc.lft.to/lastmile_qr_scan", "ios": "https://dc.lft.to/lastmile_qr_scan"}, "lon": -77.0317665, "name": "49545c849d05e1648c4a226c4d1d2b77", "lat": 38.9072515, "is_reserved": 0, "fusion_lat": 0.0, "bike_id": "49545c849d05e1648c4a226c4d1d2b77", "type": "electric_scooter", "is_disabled": 0, "fusion_lon": 0.0}, {"rental_uris": {"android": "https://dc.lft.to/lastmile_qr_scan", "ios": "https://dc.lft.to/lastmile_qr_scan"}, "lon": -77.013603, "name": "72b15aed6521d69f201b0b6a794dba79", "lat": 38.897794166666664, "is_reserved": 0, "fusion_lat": 0.0, "bike_id": "72b15aed6521d69f201b0b6a794dba79", "type": "electric_scooter", "is_disabled": 0, "fusion_lon": 0.0}, {"rental_uris": {"android": "https://dc.lft.to/lastmile_qr_scan", "ios": "https://dc.lft.to/lastmile_qr_scan"}, "lon": -77.03643033333333, "name": "37af404a3b4a0526881590f729dea9e6", "lat": 38.9145915, "is_reserved": 0, "fusion_lat": 0.0, "bike_id": "37af404a3b4a0526881590f729dea9e6", "type": "electric_scooter", "is_disabled": 0, "fusion_lon": 0.0}, {"rental_uris": {"android": "https://dc.lft.to/lastmile_qr_scan", "ios": "https://dc.lft.to/lastmile_qr_scan"}, "lon": -77.02734, "name": "eb68ea598c26c3fccefc14e2acbc6b05", "lat": 38.92874783333333, "is_reserved": 0, "fusion_lat": 0.0, "bike_id": "eb68ea598c26c3fccefc14e2acbc6b05", "type": "electric_scooter", "is_disabled": 0, "fusion_lon": 0.0}, {"rental_uris": {"android": "https://dc.lft.to/lastmile_qr_scan", "ios": "https://dc.lft.to/lastmile_qr_scan"}, "lon": -77.02644416666666, "name": "c4d182f26e7971f35923d03dd4287b82", "lat": 38.904060666666666, "is_reserved": 0, "fusion_lat": 0.0, "bike_id": "c4d182f26e7971f35923d03dd4287b82", "type": "electric_scooter", "is_disabled": 0, "fusion_lon": 0.0}, {"rental_uris": {"android": "https://dc.lft.to/lastmile_qr_scan", "ios": "https://dc.lft.to/lastmile_qr_scan"}, "lon": -77.03409566666667, "name": "cc870877e1950455cba6879b1979af37", "lat": 38.924384333333336, "is_reserved": 0, "fusion_lat": 0.0, "bike_id": "cc870877e1950455cba6879b1979af37", "type": "electric_scooter", "is_disabled": 0, "fusion_lon": 0.0}, {"rental_uris": {"android": "https://dc.lft.to/lastmile_qr_scan", "ios": "https://dc.lft.to/lastmile_qr_scan"}, "lon": -77.02525283333334, "name": "02eb7692ffbd8fc2656b7b821c70ea36", "lat": 38.9375555, "is_reserved": 0, "fusion_lat": 0.0, "bike_id": "02eb7692ffbd8fc2656b7b821c70ea36", "type": "electric_scooter", "is_disabled": 0, "fusion_lon": 0.0}, {"rental_uris": {"android": "https://dc.lft.to/lastmile_qr_scan", "ios": "https://dc.lft.to/lastmile_qr_scan"}, "lon": -76.98885483333333, "name": "60c106f36b757919c93cfd4b3ede80ec", "lat": 38.8666195, "is_reserved": 0, "fusion_lat": 0.0, "bike_id": "60c106f36b757919c93cfd4b3ede80ec", "type": "electric_scooter", "is_disabled": 0, "fusion_lon": 0.0}, {"rental_uris": {"android": "https://dc.lft.to/lastmile_qr_scan", "ios": "https://dc.lft.to/lastmile_qr_scan"}, "lon": -77.0102345, "name": "e249e77f538c6854ec9a47d339a72b03", "lat": 38.9203825, "is_reserved": 0, "fusion_lat": 0.0, "bike_id": "e249e77f538c6854ec9a47d339a72b03", "type": "electric_scooter", "is_disabled": 0, "fusion_lon": 0.0}, {"rental_uris": {"android": "https://dc.lft.to/lastmile_qr_scan", "ios": "https://dc.lft.to/lastmile_qr_scan"}, "lon": -77.02691483333334, "name": "f56588a1c70c6effab742ac4a1330476", "lat": 38.90947883333333, "is_reserved": 0, "fusion_lat": 0.0, "bike_id": "f56588a1c70c6effab742ac4a1330476", "type": "electric_scooter", "is_disabled": 0, "fusion_lon": 0.0}, {"rental_uris": {"android": "https://dc.lft.to/lastmile_qr_scan", "ios": "https://dc.lft.to/lastmile_qr_scan"}, "lon": -77.02138283333333, "name": "a3fba94aede858f95cf34fc493fc6529", "lat": 38.92491483333333, "is_reserved": 0, "fusion_lat": 0.0, "bike_id": "a3fba94aede858f95cf34fc493fc6529", "type": "electric_scooter", "is_disabled": 0, "fusion_lon": 0.0}, {"rental_uris": {"android": "https://dc.lft.to/lastmile_qr_scan", "ios": "https://dc.lft.to/lastmile_qr_scan"}, "lon": -76.9816695, "name": "9eb16eafd4cad6b4ce334b6ea010d3a1", "lat": 38.89944583333333, "is_reserved": 0, "fusion_lat": 0.0, "bike_id": "9eb16eafd4cad6b4ce334b6ea010d3a1", "type": "electric_scooter", "is_disabled": 0, "fusion_lon": 0.0}, {"rental_uris": {"android": "https://dc.lft.to/lastmile_qr_scan", "ios": "https://dc.lft.to/lastmile_qr_scan"}, "lon": -77.036419, "name": "3ddb53d5f1e06d0b19de5c443629c557", "lat": 38.92300266666667, "is_reserved": 0, "fusion_lat": 0.0, "bike_id": "3ddb53d5f1e06d0b19de5c443629c557", "type": "electric_scooter", "is_disabled": 0, "fusion_lon": 0.0}, {"rental_uris": {"android": "https://dc.lft.to/lastmile_qr_scan", "ios": "https://dc.lft.to/lastmile_qr_scan"}, "lon": -76.92658566666667, "name": "db36afc414b70db309cba9d7264f4448", "lat": 38.9016775, "is_reserved": 0, "fusion_lat": 0.0, "bike_id": "db36afc414b70db309cba9d7264f4448", "type": "electric_scooter", "is_disabled": 0, "fusion_lon": 0.0}, {"rental_uris": {"android": "https://dc.lft.to/lastmile_qr_scan", "ios": "https://dc.lft.to/lastmile_qr_scan"}, "lon": -77.02706766666667, "name": "0e41e4123a3f71bd8c60c6f4ae66763b", "lat": 38.90789683333333, "is_reserved": 0, "fusion_lat": 0.0, "bike_id": "0e41e4123a3f71bd8c60c6f4ae66763b", "type": "electric_scooter", "is_disabled": 0, "fusion_lon": 0.0}, {"rental_uris": {"android": "https://dc.lft.to/lastmile_qr_scan", "ios": "https://dc.lft.to/lastmile_qr_scan"}, "lon": -77.02209366666666, "name": "85d65ac6fb8d54920c1470b00b079736", "lat": 38.903030333333334, "is_reserved": 0, "fusion_lat": 0.0, "bike_id": "85d65ac6fb8d54920c1470b00b079736", "type": "electric_scooter", "is_disabled": 0, "fusion_lon": 0.0}, {"rental_uris": {"android": "https://dc.lft.to/lastmile_qr_scan", "ios": "https://dc.lft.to/lastmile_qr_scan"}, "lon": -76.952455, "name": "d19f7960f319c7cb77348bb96ba4ec59", "lat": 38.89042966666667, "is_reserved": 0, "fusion_lat": 0.0, "bike_id": "d19f7960f319c7cb77348bb96ba4ec59", "type": "electric_scooter", "is_disabled": 0, "fusion_lon": 0.0}, {"rental_uris": {"android": "https://dc.lft.to/lastmile_qr_scan", "ios": "https://dc.lft.to/lastmile_qr_scan"}, "lon": -77.03520683333333, "name": "82757c97f09827d50e7bedcaee2e44d0", "lat": 38.922413166666665, "is_reserved": 0, "fusion_lat": 0.0, "bike_id": "82757c97f09827d50e7bedcaee2e44d0", "type": "electric_scooter", "is_disabled": 0, "fusion_lon": 0.0}, {"rental_uris": {"android": "https://dc.lft.to/lastmile_qr_scan", "ios": "https://dc.lft.to/lastmile_qr_scan"}, "lon": -77.023865, "name": "291145fca10832b20e86f013c64bbd4e", "lat": 38.90895, "is_reserved": 0, "fusion_lat": 0.0, "bike_id": "291145fca10832b20e86f013c64bbd4e", "type": "electric_scooter", "is_disabled": 0, "fusion_lon": 0.0}, {"rental_uris": {"android": "https://dc.lft.to/lastmile_qr_scan", "ios": "https://dc.lft.to/lastmile_qr_scan"}, "lon": -77.02797333333334, "name": "ddedb748e0e0c3e61ebcad3accd27a68", "lat": 38.91713716666667, "is_reserved": 0, "fusion_lat": 0.0, "bike_id": "ddedb748e0e0c3e61ebcad3accd27a68", "type": "electric_scooter", "is_disabled": 0, "fusion_lon": 0.0}, {"rental_uris": {"android": "https://dc.lft.to/lastmile_qr_scan", "ios": "https://dc.lft.to/lastmile_qr_scan"}, "lon": -77.06303433333333, "name": "945105a87bc1c449fb5656da6ce1b58e", "lat": 38.94372466666667, "is_reserved": 0, "fusion_lat": 0.0, "bike_id": "945105a87bc1c449fb5656da6ce1b58e", "type": "electric_scooter", "is_disabled": 0, "fusion_lon": 0.0}, {"rental_uris": {"android": "https://dc.lft.to/lastmile_qr_scan", "ios": "https://dc.lft.to/lastmile_qr_scan"}, "lon": -77.028242, "name": "5e930a546a52a6bc9cc0e3caab1c3216", "lat": 38.956174, "is_reserved": 0, "fusion_lat": 0.0, "bike_id": "5e930a546a52a6bc9cc0e3caab1c3216", "type": "electric_scooter", "is_disabled": 0, "fusion_lon": 0.0}, {"rental_uris": {"android": "https://dc.lft.to/lastmile_qr_scan", "ios": "https://dc.lft.to/lastmile_qr_scan"}, "lon": -77.055129, "name": "07fc993369f0da3f8c7676656606aaa4", "lat": 38.929498333333335, "is_reserved": 0, "fusion_lat": 0.0, "bike_id": "07fc993369f0da3f8c7676656606aaa4", "type": "electric_scooter", "is_disabled": 0, "fusion_lon": 0.0}, {"rental_uris": {"android": "https://dc.lft.to/lastmile_qr_scan", "ios": "https://dc.lft.to/lastmile_qr_scan"}, "lon": -77.18741566666667, "name": "f6c727987d41cdcc24d87b4480351e35", "lat": 38.89354, "is_reserved": 0, "fusion_lat": 0.0, "bike_id": "f6c727987d41cdcc24d87b4480351e35", "type": "electric_bike", "is_disabled": 0, "fusion_lon": 0.0}, {"rental_uris": {"android": "https://dc.lft.to/lastmile_qr_scan", "ios": "https://dc.lft.to/lastmile_qr_scan"}, "lon": -76.99780266666667, "name": "0efe762a84c1fd08d8083c499c8cd149", "lat": 38.84438033333333, "is_reserved": 0, "fusion_lat": 0.0, "bike_id": "0efe762a84c1fd08d8083c499c8cd149", "type": "electric_scooter", "is_disabled": 0, "fusion_lon": 0.0}, {"rental_uris": {"android": "https://dc.lft.to/lastmile_qr_scan", "ios": "https://dc.lft.to/lastmile_qr_scan"}, "lon": -77.03965416666666, "name": "087be5890e23f3fe88f379436968b839", "lat": 38.933346666666665, "is_reserved": 0, "fusion_lat": 0.0, "bike_id": "087be5890e23f3fe88f379436968b839", "type": "electric_bike", "is_disabled": 0, "fusion_lon": 0.0}, {"rental_uris": {"android": "https://dc.lft.to/lastmile_qr_scan", "ios": "https://dc.lft.to/lastmile_qr_scan"}, "lon": -77.04445983333333, "name": "67a287354773b5bf56520d341aca81d6", "lat": 38.91101466666667, "is_reserved": 0, "fusion_lat": 0.0, "bike_id": "67a287354773b5bf56520d341aca81d6", "type": "electric_scooter", "is_disabled": 0, "fusion_lon": 0.0}, {"rental_uris": {"android": "https://dc.lft.to/lastmile_qr_scan", "ios": "https://dc.lft.to/lastmile_qr_scan"}, "lon": -77.03844516666666, "name": "7b79cdffdfb093e51b54e891cfe33494", "lat": 38.909753333333335, "is_reserved": 0, "fusion_lat": 0.0, "bike_id": "7b79cdffdfb093e51b54e891cfe33494", "type": "electric_scooter", "is_disabled": 0, "fusion_lon": 0.0}, {"rental_uris": {"android": "https://dc.lft.to/lastmile_qr_scan", "ios": "https://dc.lft.to/lastmile_qr_scan"}, "lon": -77.02400916666667, "name": "ba50effd7b344702b60f5f8a4173d3df", "lat": 38.916598666666665, "is_reserved": 0, "fusion_lat": 0.0, "bike_id": "ba50effd7b344702b60f5f8a4173d3df", "type": "electric_scooter", "is_disabled": 0, "fusion_lon": 0.0}, {"rental_uris": {"android": "https://dc.lft.to/lastmile_qr_scan", "ios": "https://dc.lft.to/lastmile_qr_scan"}, "lon": -77.04310266666667, "name": "4829f0caa82dd3fa82252e18f1e81d13", "lat": 38.9265465, "is_reserved": 0, "fusion_lat": 0.0, "bike_id": "4829f0caa82dd3fa82252e18f1e81d13", "type": "electric_scooter", "is_disabled": 0, "fusion_lon": 0.0}, {"rental_uris": {"android": "https://dc.lft.to/lastmile_qr_scan", "ios": "https://dc.lft.to/lastmile_qr_scan"}, "lon": -76.9518255, "name": "541e659405f8b462fc6948c0f31f7685", "lat": 39.08441633333333, "is_reserved": 0, "fusion_lat": 0.0, "bike_id": "541e659405f8b462fc6948c0f31f7685", "type": "electric_bike", "is_disabled": 0, "fusion_lon": 0.0}, {"rental_uris": {"android": "https://dc.lft.to/lastmile_qr_scan", "ios": "https://dc.lft.to/lastmile_qr_scan"}, "lon": -77.02681683333333, "name": "4578f9832bd881469a3888bb5da4546a", "lat": 38.923911833333335, "is_reserved": 0, "fusion_lat": 0.0, "bike_id": "4578f9832bd881469a3888bb5da4546a", "type": "electric_scooter", "is_disabled": 0, "fusion_lon": 0.0}, {"rental_uris": {"android": "https://dc.lft.to/lastmile_qr_scan", "ios": "https://dc.lft.to/lastmile_qr_scan"}, "lon": -77.04479016666667, "name": "51087375e343f114c87af024d5625e85", "lat": 38.918626833333335, "is_reserved": 0, "fusion_lat": 0.0, "bike_id": "51087375e343f114c87af024d5625e85", "type": "electric_scooter", "is_disabled": 0, "fusion_lon": 0.0}, {"rental_uris": {"android": "https://dc.lft.to/lastmile_qr_scan", "ios": "https://dc.lft.to/lastmile_qr_scan"}, "lon": -77.0027035, "name": "35c71affa28558835cbb4aac5569051f", "lat": 38.952369833333336, "is_reserved": 0, "fusion_lat": 0.0, "bike_id": "35c71affa28558835cbb4aac5569051f", "type": "electric_bike", "is_disabled": 0, "fusion_lon": 0.0}, {"rental_uris": {"android": "https://dc.lft.to/lastmile_qr_scan", "ios": "https://dc.lft.to/lastmile_qr_scan"}, "lon": -76.96704083333333, "name": "68434e65b1f822c9d188228a9d0807d8", "lat": 38.860373, "is_reserved": 0, "fusion_lat": 0.0, "bike_id": "68434e65b1f822c9d188228a9d0807d8", "type": "electric_scooter", "is_disabled": 0, "fusion_lon": 0.0}, {"rental_uris": {"android": "https://dc.lft.to/lastmile_qr_scan", "ios": "https://dc.lft.to/lastmile_qr_scan"}, "lon": -77.04355, "name": "0a6e328181079ec498c2cabbf4051e90", "lat": 38.90713566666667, "is_reserved": 0, "fusion_lat": 0.0, "bike_id": "0a6e328181079ec498c2cabbf4051e90", "type": "electric_scooter", "is_disabled": 0, "fusion_lon": 0.0}, {"rental_uris": {"android": "https://dc.lft.to/lastmile_qr_scan", "ios": "https://dc.lft.to/lastmile_qr_scan"}, "lon": -77.00374366666667, "name": "6478721d6e77b325ab15ab41cda2bab8", "lat": 38.87635316666667, "is_reserved": 0, "fusion_lat": 0.0, "bike_id": "6478721d6e77b325ab15ab41cda2bab8", "type": "electric_scooter", "is_disabled": 0, "fusion_lon": 0.0}, {"rental_uris": {"android": "https://dc.lft.to/lastmile_qr_scan", "ios": "https://dc.lft.to/lastmile_qr_scan"}, "lon": -77.09716016666667, "name": "9405905e7e48c4e0bdace81c793a074e", "lat": 38.950982333333336, "is_reserved": 0, "fusion_lat": 0.0, "bike_id": "9405905e7e48c4e0bdace81c793a074e", "type": "electric_scooter", "is_disabled": 0, "fusion_lon": 0.0}, {"rental_uris": {"android": "https://dc.lft.to/lastmile_qr_scan", "ios": "https://dc.lft.to/lastmile_qr_scan"}, "lon": -77.03183583333333, "name": "78ec1e7e89e4a6aed09fab9e67d08ecc", "lat": 38.90982116666667, "is_reserved": 0, "fusion_lat": 0.0, "bike_id": "78ec1e7e89e4a6aed09fab9e67d08ecc", "type": "electric_scooter", "is_disabled": 0, "fusion_lon": 0.0}, {"rental_uris": {"android": "https://dc.lft.to/lastmile_qr_scan", "ios": "https://dc.lft.to/lastmile_qr_scan"}, "lon": -77.02300283333334, "name": "4f9c7af845e8ceb54790c2c3c46b01a0", "lat": 38.9183035, "is_reserved": 0, "fusion_lat": 0.0, "bike_id": "4f9c7af845e8ceb54790c2c3c46b01a0", "type": "electric_scooter", "is_disabled": 0, "fusion_lon": 0.0}, {"rental_uris": {"android": "https://dc.lft.to/lastmile_qr_scan", "ios": "https://dc.lft.to/lastmile_qr_scan"}, "lon": -77.02385566666666, "name": "9a6cbf1237e688cb6873d10a04cbe2c5", "lat": 38.90700366666667, "is_reserved": 0, "fusion_lat": 0.0, "bike_id": "9a6cbf1237e688cb6873d10a04cbe2c5", "type": "electric_scooter", "is_disabled": 0, "fusion_lon": 0.0}, {"rental_uris": {"android": "https://dc.lft.to/lastmile_qr_scan", "ios": "https://dc.lft.to/lastmile_qr_scan"}, "lon": -77.04966033333334, "name": "6e988b72780ffd8368ae56dffaaf56a3", "lat": 38.9054745, "is_reserved": 0, "fusion_lat": 0.0, "bike_id": "6e988b72780ffd8368ae56dffaaf56a3", "type": "electric_scooter", "is_disabled": 0, "fusion_lon": 0.0}, {"rental_uris": {"android": "https://dc.lft.to/lastmile_qr_scan", "ios": "https://dc.lft.to/lastmile_qr_scan"}, "lon": -77.05605216666666, "name": "a72c88661c60094802842de3a161a0af", "lat": 38.93706316666667, "is_reserved": 0, "fusion_lat": 0.0, "bike_id": "a72c88661c60094802842de3a161a0af", "type": "electric_scooter", "is_disabled": 0, "fusion_lon": 0.0}, {"rental_uris": {"android": "https://dc.lft.to/lastmile_qr_scan", "ios": "https://dc.lft.to/lastmile_qr_scan"}, "lon": -77.01533033333334, "name": "baf19e74a29ad7150f9f1c535fd0ef9c", "lat": 38.88585583333333, "is_reserved": 0, "fusion_lat": 0.0, "bike_id": "baf19e74a29ad7150f9f1c535fd0ef9c", "type": "electric_scooter", "is_disabled": 0, "fusion_lon": 0.0}, {"rental_uris": {"android": "https://dc.lft.to/lastmile_qr_scan", "ios": "https://dc.lft.to/lastmile_qr_scan"}, "lon": -77.0280335, "name": "61b18a10c6060450138fa30be8bfd022", "lat": 38.90907716666667, "is_reserved": 0, "fusion_lat": 0.0, "bike_id": "61b18a10c6060450138fa30be8bfd022", "type": "electric_scooter", "is_disabled": 0, "fusion_lon": 0.0}, {"rental_uris": {"android": "https://dc.lft.to/lastmile_qr_scan", "ios": "https://dc.lft.to/lastmile_qr_scan"}, "lon": -77.02353133333334, "name": "2ac090143b4af717b63f0bb5bf8fa0c9", "lat": 38.902044333333336, "is_reserved": 0, "fusion_lat": 0.0, "bike_id": "2ac090143b4af717b63f0bb5bf8fa0c9", "type": "electric_scooter", "is_disabled": 0, "fusion_lon": 0.0}, {"rental_uris": {"android": "https://dc.lft.to/lastmile_qr_scan", "ios": "https://dc.lft.to/lastmile_qr_scan"}, "lon": -77.00428866666667, "name": "6ba6c63d6bd2518475efec72d86b0ac4", "lat": 38.87702, "is_reserved": 0, "fusion_lat": 0.0, "bike_id": "6ba6c63d6bd2518475efec72d86b0ac4", "type": "electric_scooter", "is_disabled": 0, "fusion_lon": 0.0}, {"rental_uris": {"android": "https://dc.lft.to/lastmile_qr_scan", "ios": "https://dc.lft.to/lastmile_qr_scan"}, "lon": -77.03199583333334, "name": "fc42a1e6838e32005dcf0cafb3273fa5", "lat": 38.90383083333333, "is_reserved": 0, "fusion_lat": 0.0, "bike_id": "fc42a1e6838e32005dcf0cafb3273fa5", "type": "electric_scooter", "is_disabled": 0, "fusion_lon": 0.0}, {"rental_uris": {"android": "https://dc.lft.to/lastmile_qr_scan", "ios": "https://dc.lft.to/lastmile_qr_scan"}, "lon": -77.02977283333334, "name": "a4313ddcc50ebf5ddd2bee53ff40a81d", "lat": 38.91681783333333, "is_reserved": 0, "fusion_lat": 0.0, "bike_id": "a4313ddcc50ebf5ddd2bee53ff40a81d", "type": "electric_scooter", "is_disabled": 0, "fusion_lon": 0.0}, {"rental_uris": {"android": "https://dc.lft.to/lastmile_qr_scan", "ios": "https://dc.lft.to/lastmile_qr_scan"}, "lon": -77.02202033333333, "name": "f692d44a0dae54a3b4acde09cf28c712", "lat": 38.89609466666667, "is_reserved": 0, "fusion_lat": 0.0, "bike_id": "f692d44a0dae54a3b4acde09cf28c712", "type": "electric_scooter", "is_disabled": 0, "fusion_lon": 0.0}, {"rental_uris": {"android": "https://dc.lft.to/lastmile_qr_scan", "ios": "https://dc.lft.to/lastmile_qr_scan"}, "lon": -77.03422666666667, "name": "0041786e503114a7fca8811208f48995", "lat": 38.90963283333333, "is_reserved": 0, "fusion_lat": 0.0, "bike_id": "0041786e503114a7fca8811208f48995", "type": "electric_scooter", "is_disabled": 0, "fusion_lon": 0.0}, {"rental_uris": {"android": "https://dc.lft.to/lastmile_qr_scan", "ios": "https://dc.lft.to/lastmile_qr_scan"}, "lon": -77.00711, "name": "c69b03a79d15e5b3f2f7706346928b96", "lat": 38.88488383333333, "is_reserved": 0, "fusion_lat": 0.0, "bike_id": "c69b03a79d15e5b3f2f7706346928b96", "type": "electric_scooter", "is_disabled": 0, "fusion_lon": 0.0}, {"rental_uris": {"android": "https://dc.lft.to/lastmile_qr_scan", "ios": "https://dc.lft.to/lastmile_qr_scan"}, "lon": -76.982207, "name": "ffe0c5b7b74ad8e479a0c8bab633bd9f", "lat": 38.98507216666667, "is_reserved": 0, "fusion_lat": 0.0, "bike_id": "ffe0c5b7b74ad8e479a0c8bab633bd9f", "type": "electric_bike", "is_disabled": 0, "fusion_lon": 0.0}, {"rental_uris": {"android": "https://dc.lft.to/lastmile_qr_scan", "ios": "https://dc.lft.to/lastmile_qr_scan"}, "lon": -77.0802175, "name": "d80479b9c9f3289262d0601028138f6c", "lat": 38.9478685, "is_reserved": 0, "fusion_lat": 0.0, "bike_id": "d80479b9c9f3289262d0601028138f6c", "type": "electric_scooter", "is_disabled": 0, "fusion_lon": 0.0}, {"rental_uris": {"android": "https://dc.lft.to/lastmile_qr_scan", "ios": "https://dc.lft.to/lastmile_qr_scan"}, "lon": -77.04738733333333, "name": "358111f384d7daef764dc8bd00ba983d", "lat": 38.897290166666664, "is_reserved": 0, "fusion_lat": 0.0, "bike_id": "358111f384d7daef764dc8bd00ba983d", "type": "electric_scooter", "is_disabled": 0, "fusion_lon": 0.0}, {"rental_uris": {"android": "https://dc.lft.to/lastmile_qr_scan", "ios": "https://dc.lft.to/lastmile_qr_scan"}, "lon": -77.0388645, "name": "daab8efb6a7f4ee81963f23656821b7e", "lat": 38.91851533333333, "is_reserved": 0, "fusion_lat": 0.0, "bike_id": "daab8efb6a7f4ee81963f23656821b7e", "type": "electric_scooter", "is_disabled": 0, "fusion_lon": 0.0}, {"rental_uris": {"android": "https://dc.lft.to/lastmile_qr_scan", "ios": "https://dc.lft.to/lastmile_qr_scan"}, "lon": -77.04173783333333, "name": "de95965c670f9f71246e0e696b5387bc", "lat": 38.90115183333333, "is_reserved": 0, "fusion_lat": 0.0, "bike_id": "de95965c670f9f71246e0e696b5387bc", "type": "electric_scooter", "is_disabled": 0, "fusion_lon": 0.0}, {"rental_uris": {"android": "https://dc.lft.to/lastmile_qr_scan", "ios": "https://dc.lft.to/lastmile_qr_scan"}, "lon": -77.0220655, "name": "d7c450dc39ce2d44e40d325fc538b306", "lat": 38.892261166666664, "is_reserved": 0, "fusion_lat": 0.0, "bike_id": "d7c450dc39ce2d44e40d325fc538b306", "type": "electric_scooter", "is_disabled": 0, "fusion_lon": 0.0}, {"rental_uris": {"android": "https://dc.lft.to/lastmile_qr_scan", "ios": "https://dc.lft.to/lastmile_qr_scan"}, "lon": -77.03882466666667, "name": "0a6f84a728265c90abf1415a512c66ac", "lat": 38.9326785, "is_reserved": 0, "fusion_lat": 0.0, "bike_id": "0a6f84a728265c90abf1415a512c66ac", "type": "electric_scooter", "is_disabled": 0, "fusion_lon": 0.0}, {"rental_uris": {"android": "https://dc.lft.to/lastmile_qr_scan", "ios": "https://dc.lft.to/lastmile_qr_scan"}, "lon": -77.07269733333334, "name": "95397aaeab3877c0a865acb8c4b0b228", "lat": 38.90910016666667, "is_reserved": 0, "fusion_lat": 0.0, "bike_id": "95397aaeab3877c0a865acb8c4b0b228", "type": "electric_scooter", "is_disabled": 0, "fusion_lon": 0.0}, {"rental_uris": {"android": "https://dc.lft.to/lastmile_qr_scan", "ios": "https://dc.lft.to/lastmile_qr_scan"}, "lon": -77.03562483333333, "name": "b9cebe7b49b9202265f9313dc220df9a", "lat": 38.901286166666665, "is_reserved": 0, "fusion_lat": 0.0, "bike_id": "b9cebe7b49b9202265f9313dc220df9a", "type": "electric_scooter", "is_disabled": 0, "fusion_lon": 0.0}, {"rental_uris": {"android": "https://dc.lft.to/lastmile_qr_scan", "ios": "https://dc.lft.to/lastmile_qr_scan"}, "lon": -77.02201283333333, "name": "ff96ed844f31fa6437547c778e6b028f", "lat": 38.90985716666667, "is_reserved": 0, "fusion_lat": 0.0, "bike_id": "ff96ed844f31fa6437547c778e6b028f", "type": "electric_scooter", "is_disabled": 0, "fusion_lon": 0.0}, {"rental_uris": {"android": "https://dc.lft.to/lastmile_qr_scan", "ios": "https://dc.lft.to/lastmile_qr_scan"}, "lon": -77.018942, "name": "589680cd3a08ab7ddd9d17a6fa2a1f50", "lat": 38.923577, "is_reserved": 0, "fusion_lat": 0.0, "bike_id": "589680cd3a08ab7ddd9d17a6fa2a1f50", "type": "electric_scooter", "is_disabled": 0, "fusion_lon": 0.0}, {"rental_uris": {"android": "https://dc.lft.to/lastmile_qr_scan", "ios": "https://dc.lft.to/lastmile_qr_scan"}, "lon": -77.02743683333334, "name": "b47277b8259f141546d0ce8ad38740e4", "lat": 38.92765166666667, "is_reserved": 0, "fusion_lat": 0.0, "bike_id": "b47277b8259f141546d0ce8ad38740e4", "type": "electric_scooter", "is_disabled": 0, "fusion_lon": 0.0}, {"rental_uris": {"android": "https://dc.lft.to/lastmile_qr_scan", "ios": "https://dc.lft.to/lastmile_qr_scan"}, "lon": -77.01897216666667, "name": "bcf19d15fdb8a02faf7c5ef6d4d7b89e", "lat": 38.874672, "is_reserved": 0, "fusion_lat": 0.0, "bike_id": "bcf19d15fdb8a02faf7c5ef6d4d7b89e", "type": "electric_scooter", "is_disabled": 0, "fusion_lon": 0.0}, {"rental_uris": {"android": "https://dc.lft.to/lastmile_qr_scan", "ios": "https://dc.lft.to/lastmile_qr_scan"}, "lon": -77.03383266666667, "name": "e41c63c077d3c253d095c035b4cdaf84", "lat": 38.9020175, "is_reserved": 0, "fusion_lat": 0.0, "bike_id": "e41c63c077d3c253d095c035b4cdaf84", "type": "electric_scooter", "is_disabled": 0, "fusion_lon": 0.0}, {"rental_uris": {"android": "https://dc.lft.to/lastmile_qr_scan", "ios": "https://dc.lft.to/lastmile_qr_scan"}, "lon": -77.04323666666667, "name": "01b8606b35fb836f9467d250d35986f5", "lat": 38.90553283333333, "is_reserved": 0, "fusion_lat": 0.0, "bike_id": "01b8606b35fb836f9467d250d35986f5", "type": "electric_scooter", "is_disabled": 0, "fusion_lon": 0.0}, {"rental_uris": {"android": "https://dc.lft.to/lastmile_qr_scan", "ios": "https://dc.lft.to/lastmile_qr_scan"}, "lon": -77.02347483333334, "name": "07de87d6f8b78b9958d8c3ee34501ccb", "lat": 38.935336, "is_reserved": 0, "fusion_lat": 0.0, "bike_id": "07de87d6f8b78b9958d8c3ee34501ccb", "type": "electric_scooter", "is_disabled": 0, "fusion_lon": 0.0}, {"rental_uris": {"android": "https://dc.lft.to/lastmile_qr_scan", "ios": "https://dc.lft.to/lastmile_qr_scan"}, "lon": -77.04196, "name": "619945a6702515b53e793f51b5a80aa4", "lat": 38.8922275, "is_reserved": 0, "fusion_lat": 0.0, "bike_id": "619945a6702515b53e793f51b5a80aa4", "type": "electric_scooter", "is_disabled": 0, "fusion_lon": 0.0}, {"rental_uris": {"android": "https://dc.lft.to/lastmile_qr_scan", "ios": "https://dc.lft.to/lastmile_qr_scan"}, "lon": -77.02303316666666, "name": "aafdef6d2d032f9b04eab5ea50b8d671", "lat": 38.91797316666667, "is_reserved": 0, "fusion_lat": 0.0, "bike_id": "aafdef6d2d032f9b04eab5ea50b8d671", "type": "electric_scooter", "is_disabled": 0, "fusion_lon": 0.0}, {"rental_uris": {"android": "https://dc.lft.to/lastmile_qr_scan", "ios": "https://dc.lft.to/lastmile_qr_scan"}, "lon": -77.02719333333333, "name": "185eaf4e2c4999888c2e2b619691f086", "lat": 38.910660166666666, "is_reserved": 0, "fusion_lat": 0.0, "bike_id": "185eaf4e2c4999888c2e2b619691f086", "type": "electric_scooter", "is_disabled": 0, "fusion_lon": 0.0}, {"rental_uris": {"android": "https://dc.lft.to/lastmile_qr_scan", "ios": "https://dc.lft.to/lastmile_qr_scan"}, "lon": -77.014212, "name": "d8ef511a8fcf0c511576292fbb3d680a", "lat": 38.9288185, "is_reserved": 0, "fusion_lat": 0.0, "bike_id": "d8ef511a8fcf0c511576292fbb3d680a", "type": "electric_scooter", "is_disabled": 0, "fusion_lon": 0.0}, {"rental_uris": {"android": "https://dc.lft.to/lastmile_qr_scan", "ios": "https://dc.lft.to/lastmile_qr_scan"}, "lon": -77.047049, "name": "a77ffb7e18101628bd50c3b150f10dd8", "lat": 38.92171066666667, "is_reserved": 0, "fusion_lat": 0.0, "bike_id": "a77ffb7e18101628bd50c3b150f10dd8", "type": "electric_scooter", "is_disabled": 0, "fusion_lon": 0.0}, {"rental_uris": {"android": "https://dc.lft.to/lastmile_qr_scan", "ios": "https://dc.lft.to/lastmile_qr_scan"}, "lon": -77.023741, "name": "ae6a2eda412aa7f843490ec24afc0e20", "lat": 38.90716233333333, "is_reserved": 0, "fusion_lat": 0.0, "bike_id": "ae6a2eda412aa7f843490ec24afc0e20", "type": "electric_scooter", "is_disabled": 0, "fusion_lon": 0.0}, {"rental_uris": {"android": "https://dc.lft.to/lastmile_qr_scan", "ios": "https://dc.lft.to/lastmile_qr_scan"}, "lon": -77.02723816666666, "name": "dc6882d8920f1517f28ad91e382b8f86", "lat": 38.911079, "is_reserved": 0, "fusion_lat": 0.0, "bike_id": "dc6882d8920f1517f28ad91e382b8f86", "type": "electric_scooter", "is_disabled": 0, "fusion_lon": 0.0}, {"rental_uris": {"android": "https://dc.lft.to/lastmile_qr_scan", "ios": "https://dc.lft.to/lastmile_qr_scan"}, "lon": -76.9998815, "name": "cd59db4982000af08a058f79b06d915d", "lat": 38.87467083333333, "is_reserved": 0, "fusion_lat": 0.0, "bike_id": "cd59db4982000af08a058f79b06d915d", "type": "electric_scooter", "is_disabled": 0, "fusion_lon": 0.0}, {"rental_uris": {"android": "https://dc.lft.to/lastmile_qr_scan", "ios": "https://dc.lft.to/lastmile_qr_scan"}, "lon": -77.04474433333333, "name": "b92debb5db659b028bdb981c5d598fb7", "lat": 38.912786, "is_reserved": 0, "fusion_lat": 0.0, "bike_id": "b92debb5db659b028bdb981c5d598fb7", "type": "electric_scooter", "is_disabled": 0, "fusion_lon": 0.0}, {"rental_uris": {"android": "https://dc.lft.to/lastmile_qr_scan", "ios": "https://dc.lft.to/lastmile_qr_scan"}, "lon": -77.02955083333333, "name": "88dbf0fcfbdd5c02d2711cc9b77505d6", "lat": 38.9225085, "is_reserved": 0, "fusion_lat": 0.0, "bike_id": "88dbf0fcfbdd5c02d2711cc9b77505d6", "type": "electric_scooter", "is_disabled": 0, "fusion_lon": 0.0}, {"rental_uris": {"android": "https://dc.lft.to/lastmile_qr_scan", "ios": "https://dc.lft.to/lastmile_qr_scan"}, "lon": -76.99602566666667, "name": "85b06963655807d43ee93174481f7e1e", "lat": 38.92846566666667, "is_reserved": 0, "fusion_lat": 0.0, "bike_id": "85b06963655807d43ee93174481f7e1e", "type": "electric_scooter", "is_disabled": 0, "fusion_lon": 0.0}, {"rental_uris": {"android": "https://dc.lft.to/lastmile_qr_scan", "ios": "https://dc.lft.to/lastmile_qr_scan"}, "lon": -77.04019666666667, "name": "9f12f5a72d7b55d8e5fe1ef9a4f91a24", "lat": 38.896324166666666, "is_reserved": 0, "fusion_lat": 0.0, "bike_id": "9f12f5a72d7b55d8e5fe1ef9a4f91a24", "type": "electric_scooter", "is_disabled": 0, "fusion_lon": 0.0}, {"rental_uris": {"android": "https://dc.lft.to/lastmile_qr_scan", "ios": "https://dc.lft.to/lastmile_qr_scan"}, "lon": -77.03859083333333, "name": "f066dcf5ac04d07fe6b01d694f3b726c", "lat": 38.9028665, "is_reserved": 0, "fusion_lat": 0.0, "bike_id": "f066dcf5ac04d07fe6b01d694f3b726c", "type": "electric_scooter", "is_disabled": 0, "fusion_lon": 0.0}, {"rental_uris": {"android": "https://dc.lft.to/lastmile_qr_scan", "ios": "https://dc.lft.to/lastmile_qr_scan"}, "lon": -77.0349165, "name": "1d758e3e23dce5d746aab5ab2faf812f", "lat": 38.90973283333334, "is_reserved": 0, "fusion_lat": 0.0, "bike_id": "1d758e3e23dce5d746aab5ab2faf812f", "type": "electric_scooter", "is_disabled": 0, "fusion_lon": 0.0}, {"rental_uris": {"android": "https://dc.lft.to/lastmile_qr_scan", "ios": "https://dc.lft.to/lastmile_qr_scan"}, "lon": -76.990398, "name": "b0aa7c8868ec73db948134f899ae3043", "lat": 38.86394, "is_reserved": 0, "fusion_lat": 0.0, "bike_id": "b0aa7c8868ec73db948134f899ae3043", "type": "electric_scooter", "is_disabled": 0, "fusion_lon": 0.0}, {"rental_uris": {"android": "https://dc.lft.to/lastmile_qr_scan", "ios": "https://dc.lft.to/lastmile_qr_scan"}, "lon": -77.004174, "name": "f78ad92d476207679cc6529649ea60a2", "lat": 38.87582733333333, "is_reserved": 0, "fusion_lat": 0.0, "bike_id": "f78ad92d476207679cc6529649ea60a2", "type": "electric_scooter", "is_disabled": 0, "fusion_lon": 0.0}, {"rental_uris": {"android": "https://dc.lft.to/lastmile_qr_scan", "ios": "https://dc.lft.to/lastmile_qr_scan"}, "lon": -77.0465095, "name": "95281ec75e197d8a53dd59100486f4f7", "lat": 38.9095555, "is_reserved": 0, "fusion_lat": 0.0, "bike_id": "95281ec75e197d8a53dd59100486f4f7", "type": "electric_scooter", "is_disabled": 0, "fusion_lon": 0.0}, {"rental_uris": {"android": "https://dc.lft.to/lastmile_qr_scan", "ios": "https://dc.lft.to/lastmile_qr_scan"}, "lon": -77.01421983333333, "name": "4914007949bffe846012b76e5d1a0ff6", "lat": 38.90648233333334, "is_reserved": 0, "fusion_lat": 0.0, "bike_id": "4914007949bffe846012b76e5d1a0ff6", "type": "electric_scooter", "is_disabled": 0, "fusion_lon": 0.0}, {"rental_uris": {"android": "https://dc.lft.to/lastmile_qr_scan", "ios": "https://dc.lft.to/lastmile_qr_scan"}, "lon": -76.98006483333333, "name": "a400c339886985045514270aa593c593", "lat": 38.86419133333333, "is_reserved": 0, "fusion_lat": 0.0, "bike_id": "a400c339886985045514270aa593c593", "type": "electric_scooter", "is_disabled": 0, "fusion_lon": 0.0}, {"rental_uris": {"android": "https://dc.lft.to/lastmile_qr_scan", "ios": "https://dc.lft.to/lastmile_qr_scan"}, "lon": -77.0387075, "name": "319ab8d76449f93b5f66385964f40949", "lat": 38.9906145, "is_reserved": 0, "fusion_lat": 0.0, "bike_id": "319ab8d76449f93b5f66385964f40949", "type": "electric_bike", "is_disabled": 0, "fusion_lon": 0.0}, {"rental_uris": {"android": "https://dc.lft.to/lastmile_qr_scan", "ios": "https://dc.lft.to/lastmile_qr_scan"}, "lon": -77.02701516666667, "name": "929aec20843dbd9672f94ed46aeec3e8", "lat": 38.94982866666667, "is_reserved": 0, "fusion_lat": 0.0, "bike_id": "929aec20843dbd9672f94ed46aeec3e8", "type": "electric_scooter", "is_disabled": 0, "fusion_lon": 0.0}, {"rental_uris": {"android": "https://dc.lft.to/lastmile_qr_scan", "ios": "https://dc.lft.to/lastmile_qr_scan"}, "lon": -76.98724316666667, "name": "997f10ba550162f0eb3a67e033c20485", "lat": 38.83550366666667, "is_reserved": 0, "fusion_lat": 0.0, "bike_id": "997f10ba550162f0eb3a67e033c20485", "type": "electric_bike", "is_disabled": 0, "fusion_lon": 0.0}, {"rental_uris": {"android": "https://dc.lft.to/lastmile_qr_scan", "ios": "https://dc.lft.to/lastmile_qr_scan"}, "lon": -76.9879465, "name": "b7af619f3720a0f1bcb1964d03bfc92a", "lat": 38.844926, "is_reserved": 0, "fusion_lat": 0.0, "bike_id": "b7af619f3720a0f1bcb1964d03bfc92a", "type": "electric_scooter", "is_disabled": 0, "fusion_lon": 0.0}, {"rental_uris": {"android": "https://dc.lft.to/lastmile_qr_scan", "ios": "https://dc.lft.to/lastmile_qr_scan"}, "lon": -77.0238545, "name": "c5a0a2bc5bd4053d842422b8949cdeb5", "lat": 38.89229733333333, "is_reserved": 0, "fusion_lat": 0.0, "bike_id": "c5a0a2bc5bd4053d842422b8949cdeb5", "type": "electric_scooter", "is_disabled": 0, "fusion_lon": 0.0}, {"rental_uris": {"android": "https://dc.lft.to/lastmile_qr_scan", "ios": "https://dc.lft.to/lastmile_qr_scan"}, "lon": -77.0423135, "name": "d2f957ae0874d0f3faf7a6546e2160bb", "lat": 38.90252383333333, "is_reserved": 0, "fusion_lat": 0.0, "bike_id": "d2f957ae0874d0f3faf7a6546e2160bb", "type": "electric_scooter", "is_disabled": 0, "fusion_lon": 0.0}, {"rental_uris": {"android": "https://dc.lft.to/lastmile_qr_scan", "ios": "https://dc.lft.to/lastmile_qr_scan"}, "lon": -77.01778566666667, "name": "cc6050cc6958537ece5e0bdbc83253a6", "lat": 38.8871345, "is_reserved": 0, "fusion_lat": 0.0, "bike_id": "cc6050cc6958537ece5e0bdbc83253a6", "type": "electric_scooter", "is_disabled": 0, "fusion_lon": 0.0}, {"rental_uris": {"android": "https://dc.lft.to/lastmile_qr_scan", "ios": "https://dc.lft.to/lastmile_qr_scan"}, "lon": -77.041976, "name": "e9daa1eb7eb734faa84754a688c29186", "lat": 38.89224133333333, "is_reserved": 0, "fusion_lat": 0.0, "bike_id": "e9daa1eb7eb734faa84754a688c29186", "type": "electric_scooter", "is_disabled": 0, "fusion_lon": 0.0}, {"rental_uris": {"android": "https://dc.lft.to/lastmile_qr_scan", "ios": "https://dc.lft.to/lastmile_qr_scan"}, "lon": -77.02313933333333, "name": "6acf691b267e6bb01acd47abac92014b", "lat": 38.89585016666667, "is_reserved": 0, "fusion_lat": 0.0, "bike_id": "6acf691b267e6bb01acd47abac92014b", "type": "electric_scooter", "is_disabled": 0, "fusion_lon": 0.0}, {"rental_uris": {"android": "https://dc.lft.to/lastmile_qr_scan", "ios": "https://dc.lft.to/lastmile_qr_scan"}, "lon": -77.01470983333333, "name": "b4973c69cf05c320b8c0ef769ad45adb", "lat": 38.918510833333336, "is_reserved": 0, "fusion_lat": 0.0, "bike_id": "b4973c69cf05c320b8c0ef769ad45adb", "type": "electric_scooter", "is_disabled": 0, "fusion_lon": 0.0}, {"rental_uris": {"android": "https://dc.lft.to/lastmile_qr_scan", "ios": "https://dc.lft.to/lastmile_qr_scan"}, "lon": -77.012127, "name": "5676cabec68e9da9cce082aac8efd7e8", "lat": 38.91820766666667, "is_reserved": 0, "fusion_lat": 0.0, "bike_id": "5676cabec68e9da9cce082aac8efd7e8", "type": "electric_scooter", "is_disabled": 0, "fusion_lon": 0.0}, {"rental_uris": {"android": "https://dc.lft.to/lastmile_qr_scan", "ios": "https://dc.lft.to/lastmile_qr_scan"}, "lon": -77.043388, "name": "f13002c937d4e07dac110194aac75d93", "lat": 38.91319516666667, "is_reserved": 0, "fusion_lat": 0.0, "bike_id": "f13002c937d4e07dac110194aac75d93", "type": "electric_scooter", "is_disabled": 0, "fusion_lon": 0.0}, {"rental_uris": {"android": "https://dc.lft.to/lastmile_qr_scan", "ios": "https://dc.lft.to/lastmile_qr_scan"}, "lon": -77.02214383333333, "name": "e40319913ef70ef18fc6cc412f405e70", "lat": 38.89584116666666, "is_reserved": 0, "fusion_lat": 0.0, "bike_id": "e40319913ef70ef18fc6cc412f405e70", "type": "electric_scooter", "is_disabled": 0, "fusion_lon": 0.0}, {"rental_uris": {"android": "https://dc.lft.to/lastmile_qr_scan", "ios": "https://dc.lft.to/lastmile_qr_scan"}, "lon": -77.04688116666667, "name": "0b3a676428e0f326b2c891d9d3e52fe4", "lat": 38.89223416666667, "is_reserved": 0, "fusion_lat": 0.0, "bike_id": "0b3a676428e0f326b2c891d9d3e52fe4", "type": "electric_scooter", "is_disabled": 0, "fusion_lon": 0.0}, {"rental_uris": {"android": "https://dc.lft.to/lastmile_qr_scan", "ios": "https://dc.lft.to/lastmile_qr_scan"}, "lon": -77.02362516666666, "name": "29e08fe5989e3283171d188cf2f0953e", "lat": 38.9327065, "is_reserved": 0, "fusion_lat": 0.0, "bike_id": "29e08fe5989e3283171d188cf2f0953e", "type": "electric_scooter", "is_disabled": 0, "fusion_lon": 0.0}, {"rental_uris": {"android": "https://dc.lft.to/lastmile_qr_scan", "ios": "https://dc.lft.to/lastmile_qr_scan"}, "lon": -77.031229, "name": "6504f0a6543fca6963895ec78776a8ab", "lat": 38.905224, "is_reserved": 0, "fusion_lat": 0.0, "bike_id": "6504f0a6543fca6963895ec78776a8ab", "type": "electric_scooter", "is_disabled": 0, "fusion_lon": 0.0}, {"rental_uris": {"android": "https://dc.lft.to/lastmile_qr_scan", "ios": "https://dc.lft.to/lastmile_qr_scan"}, "lon": -77.00048416666667, "name": "d487116a65915502753d39a89f1de857", "lat": 38.87430966666667, "is_reserved": 0, "fusion_lat": 0.0, "bike_id": "d487116a65915502753d39a89f1de857", "type": "electric_scooter", "is_disabled": 0, "fusion_lon": 0.0}, {"rental_uris": {"android": "https://dc.lft.to/lastmile_qr_scan", "ios": "https://dc.lft.to/lastmile_qr_scan"}, "lon": -76.98538166666667, "name": "62aee3aa165d874069c7ec5bac33c3d3", "lat": 38.879783, "is_reserved": 0, "fusion_lat": 0.0, "bike_id": "62aee3aa165d874069c7ec5bac33c3d3", "type": "electric_scooter", "is_disabled": 0, "fusion_lon": 0.0}, {"rental_uris": {"android": "https://dc.lft.to/lastmile_qr_scan", "ios": "https://dc.lft.to/lastmile_qr_scan"}, "lon": -77.03776533333334, "name": "960650ebd1a1d57ba3ae0e72a317d28c", "lat": 38.925121, "is_reserved": 0, "fusion_lat": 0.0, "bike_id": "960650ebd1a1d57ba3ae0e72a317d28c", "type": "electric_scooter", "is_disabled": 0, "fusion_lon": 0.0}, {"rental_uris": {"android": "https://dc.lft.to/lastmile_qr_scan", "ios": "https://dc.lft.to/lastmile_qr_scan"}, "lon": -77.025834, "name": "6d2164ca35538667299e79d2ddd75e0a", "lat": 38.8873445, "is_reserved": 0, "fusion_lat": 0.0, "bike_id": "6d2164ca35538667299e79d2ddd75e0a", "type": "electric_scooter", "is_disabled": 0, "fusion_lon": 0.0}, {"rental_uris": {"android": "https://dc.lft.to/lastmile_qr_scan", "ios": "https://dc.lft.to/lastmile_qr_scan"}, "lon": -76.984319, "name": "87607a04549ca5cc84bb42e74ad98abc", "lat": 38.905818833333335, "is_reserved": 0, "fusion_lat": 0.0, "bike_id": "87607a04549ca5cc84bb42e74ad98abc", "type": "electric_scooter", "is_disabled": 0, "fusion_lon": 0.0}, {"rental_uris": {"android": "https://dc.lft.to/lastmile_qr_scan", "ios": "https://dc.lft.to/lastmile_qr_scan"}, "lon": -76.99736816666666, "name": "ff3f97068f70761e3b62645e9e7ed575", "lat": 39.04233683333333, "is_reserved": 0, "fusion_lat": 0.0, "bike_id": "ff3f97068f70761e3b62645e9e7ed575", "type": "electric_bike", "is_disabled": 0, "fusion_lon": 0.0}, {"rental_uris": {"android": "https://dc.lft.to/lastmile_qr_scan", "ios": "https://dc.lft.to/lastmile_qr_scan"}, "lon": -77.05671183333334, "name": "ab97eb52fe4759cf7807e9074ca855ca", "lat": 38.90488916666666, "is_reserved": 0, "fusion_lat": 0.0, "bike_id": "ab97eb52fe4759cf7807e9074ca855ca", "type": "electric_scooter", "is_disabled": 0, "fusion_lon": 0.0}, {"rental_uris": {"android": "https://dc.lft.to/lastmile_qr_scan", "ios": "https://dc.lft.to/lastmile_qr_scan"}, "lon": -77.0059785, "name": "21100ef71d95cb5026ce0a03fbe70d20", "lat": 38.87788883333333, "is_reserved": 0, "fusion_lat": 0.0, "bike_id": "21100ef71d95cb5026ce0a03fbe70d20", "type": "electric_scooter", "is_disabled": 0, "fusion_lon": 0.0}, {"rental_uris": {"android": "https://dc.lft.to/lastmile_qr_scan", "ios": "https://dc.lft.to/lastmile_qr_scan"}, "lon": -76.97345716666666, "name": "b19638514db5495a569f728c11a8fed3", "lat": 38.865143833333335, "is_reserved": 0, "fusion_lat": 0.0, "bike_id": "b19638514db5495a569f728c11a8fed3", "type": "electric_scooter", "is_disabled": 0, "fusion_lon": 0.0}, {"rental_uris": {"android": "https://dc.lft.to/lastmile_qr_scan", "ios": "https://dc.lft.to/lastmile_qr_scan"}, "lon": -77.04253633333333, "name": "74cbfa63d8e0485a2e31a6dd56161a1f", "lat": 38.9243795, "is_reserved": 0, "fusion_lat": 0.0, "bike_id": "74cbfa63d8e0485a2e31a6dd56161a1f", "type": "electric_scooter", "is_disabled": 0, "fusion_lon": 0.0}, {"rental_uris": {"android": "https://dc.lft.to/lastmile_qr_scan", "ios": "https://dc.lft.to/lastmile_qr_scan"}, "lon": -77.02210933333333, "name": "3ba37ab58225a59c9621df8640149f24", "lat": 38.905754333333334, "is_reserved": 0, "fusion_lat": 0.0, "bike_id": "3ba37ab58225a59c9621df8640149f24", "type": "electric_scooter", "is_disabled": 0, "fusion_lon": 0.0}, {"rental_uris": {"android": "https://dc.lft.to/lastmile_qr_scan", "ios": "https://dc.lft.to/lastmile_qr_scan"}, "lon": -77.027534, "name": "1546330be856686788106a1e912cb061", "lat": 38.89986316666667, "is_reserved": 0, "fusion_lat": 0.0, "bike_id": "1546330be856686788106a1e912cb061", "type": "electric_scooter", "is_disabled": 0, "fusion_lon": 0.0}, {"rental_uris": {"android": "https://dc.lft.to/lastmile_qr_scan", "ios": "https://dc.lft.to/lastmile_qr_scan"}, "lon": -77.025342, "name": "4b66ec27a3ae2854c5a79fa9175ac1c5", "lat": 38.920538666666666, "is_reserved": 0, "fusion_lat": 0.0, "bike_id": "4b66ec27a3ae2854c5a79fa9175ac1c5", "type": "electric_scooter", "is_disabled": 0, "fusion_lon": 0.0}, {"rental_uris": {"android": "https://dc.lft.to/lastmile_qr_scan", "ios": "https://dc.lft.to/lastmile_qr_scan"}, "lon": -77.03863766666667, "name": "8d8bb5c4f6d86c0da385420d8dbfcc75", "lat": 38.90283866666667, "is_reserved": 0, "fusion_lat": 0.0, "bike_id": "8d8bb5c4f6d86c0da385420d8dbfcc75", "type": "electric_scooter", "is_disabled": 0, "fusion_lon": 0.0}, {"rental_uris": {"android": "https://dc.lft.to/lastmile_qr_scan", "ios": "https://dc.lft.to/lastmile_qr_scan"}, "lon": -77.03837416666667, "name": "c86fe23709965a451a518ab12dba84ad", "lat": 38.94191683333333, "is_reserved": 0, "fusion_lat": 0.0, "bike_id": "c86fe23709965a451a518ab12dba84ad", "type": "electric_scooter", "is_disabled": 0, "fusion_lon": 0.0}, {"rental_uris": {"android": "https://dc.lft.to/lastmile_qr_scan", "ios": "https://dc.lft.to/lastmile_qr_scan"}, "lon": -77.04732433333334, "name": "91ac77e9717a3b71c9afe7cd63b7b06f", "lat": 38.90871683333334, "is_reserved": 0, "fusion_lat": 0.0, "bike_id": "91ac77e9717a3b71c9afe7cd63b7b06f", "type": "electric_scooter", "is_disabled": 0, "fusion_lon": 0.0}, {"rental_uris": {"android": "https://dc.lft.to/lastmile_qr_scan", "ios": "https://dc.lft.to/lastmile_qr_scan"}, "lon": -77.0275335, "name": "d97982c66674c0d20e74591cbec8a0e8", "lat": 38.90260216666667, "is_reserved": 0, "fusion_lat": 0.0, "bike_id": "d97982c66674c0d20e74591cbec8a0e8", "type": "electric_scooter", "is_disabled": 0, "fusion_lon": 0.0}, {"rental_uris": {"android": "https://dc.lft.to/lastmile_qr_scan", "ios": "https://dc.lft.to/lastmile_qr_scan"}, "lon": -77.00819916666667, "name": "0d30d32e6e83f35cd78b147778ca5c7d", "lat": 38.902545, "is_reserved": 0, "fusion_lat": 0.0, "bike_id": "0d30d32e6e83f35cd78b147778ca5c7d", "type": "electric_scooter", "is_disabled": 0, "fusion_lon": 0.0}, {"rental_uris": {"android": "https://dc.lft.to/lastmile_qr_scan", "ios": "https://dc.lft.to/lastmile_qr_scan"}, "lon": -77.02849166666667, "name": "5be66658f8cba1804098c31457306bab", "lat": 38.893656, "is_reserved": 0, "fusion_lat": 0.0, "bike_id": "5be66658f8cba1804098c31457306bab", "type": "electric_scooter", "is_disabled": 0, "fusion_lon": 0.0}, {"rental_uris": {"android": "https://dc.lft.to/lastmile_qr_scan", "ios": "https://dc.lft.to/lastmile_qr_scan"}, "lon": -77.0154445, "name": "ffff41a6293ec32e83ad2ad9a9393096", "lat": 38.92683233333333, "is_reserved": 0, "fusion_lat": 0.0, "bike_id": "ffff41a6293ec32e83ad2ad9a9393096", "type": "electric_scooter", "is_disabled": 0, "fusion_lon": 0.0}, {"rental_uris": {"android": "https://dc.lft.to/lastmile_qr_scan", "ios": "https://dc.lft.to/lastmile_qr_scan"}, "lon": -77.04706483333334, "name": "7342933894ebd76ed4b974b3fd8eabb5", "lat": 38.92184133333333, "is_reserved": 0, "fusion_lat": 0.0, "bike_id": "7342933894ebd76ed4b974b3fd8eabb5", "type": "electric_scooter", "is_disabled": 0, "fusion_lon": 0.0}, {"rental_uris": {"android": "https://dc.lft.to/lastmile_qr_scan", "ios": "https://dc.lft.to/lastmile_qr_scan"}, "lon": -77.03677216666667, "name": "36b572be8a9ddf7f2f0c0d589d43e2aa", "lat": 38.922933, "is_reserved": 0, "fusion_lat": 0.0, "bike_id": "36b572be8a9ddf7f2f0c0d589d43e2aa", "type": "electric_scooter", "is_disabled": 0, "fusion_lon": 0.0}, {"rental_uris": {"android": "https://dc.lft.to/lastmile_qr_scan", "ios": "https://dc.lft.to/lastmile_qr_scan"}, "lon": -77.0449125, "name": "0592727902a587947c08a4ca87eb00e5", "lat": 38.915927, "is_reserved": 0, "fusion_lat": 0.0, "bike_id": "0592727902a587947c08a4ca87eb00e5", "type": "electric_scooter", "is_disabled": 0, "fusion_lon": 0.0}, {"rental_uris": {"android": "https://dc.lft.to/lastmile_qr_scan", "ios": "https://dc.lft.to/lastmile_qr_scan"}, "lon": -76.97424866666667, "name": "76c90da71415204a276fc9da60056058", "lat": 38.932388333333336, "is_reserved": 0, "fusion_lat": 0.0, "bike_id": "76c90da71415204a276fc9da60056058", "type": "electric_bike", "is_disabled": 0, "fusion_lon": 0.0}, {"rental_uris": {"android": "https://dc.lft.to/lastmile_qr_scan", "ios": "https://dc.lft.to/lastmile_qr_scan"}, "lon": -77.03382166666667, "name": "02d7a75bd08efa6859ef138a6d43e30c", "lat": 38.92536666666667, "is_reserved": 0, "fusion_lat": 0.0, "bike_id": "02d7a75bd08efa6859ef138a6d43e30c", "type": "electric_scooter", "is_disabled": 0, "fusion_lon": 0.0}, {"rental_uris": {"android": "https://dc.lft.to/lastmile_qr_scan", "ios": "https://dc.lft.to/lastmile_qr_scan"}, "lon": -76.99277066666667, "name": "3e9ae6a32f56cabc91aa09d24acd6b71", "lat": 38.972597666666665, "is_reserved": 0, "fusion_lat": 0.0, "bike_id": "3e9ae6a32f56cabc91aa09d24acd6b71", "type": "electric_bike", "is_disabled": 0, "fusion_lon": 0.0}, {"rental_uris": {"android": "https://dc.lft.to/lastmile_qr_scan", "ios": "https://dc.lft.to/lastmile_qr_scan"}, "lon": -77.00753566666667, "name": "a1b3dbc6927192dd400fa9a172f8e845", "lat": 38.871061833333336, "is_reserved": 0, "fusion_lat": 0.0, "bike_id": "a1b3dbc6927192dd400fa9a172f8e845", "type": "electric_scooter", "is_disabled": 0, "fusion_lon": 0.0}, {"rental_uris": {"android": "https://dc.lft.to/lastmile_qr_scan", "ios": "https://dc.lft.to/lastmile_qr_scan"}, "lon": -77.05338633333334, "name": "e07cea39e466720789160cef36e6bc08", "lat": 39.04083, "is_reserved": 0, "fusion_lat": 0.0, "bike_id": "e07cea39e466720789160cef36e6bc08", "type": "electric_bike", "is_disabled": 0, "fusion_lon": 0.0}, {"rental_uris": {"android": "https://dc.lft.to/lastmile_qr_scan", "ios": "https://dc.lft.to/lastmile_qr_scan"}, "lon": -77.03241, "name": "a9458bdb9c3cef1d64daa86535e88207", "lat": 38.9272735, "is_reserved": 0, "fusion_lat": 0.0, "bike_id": "a9458bdb9c3cef1d64daa86535e88207", "type": "electric_scooter", "is_disabled": 0, "fusion_lon": 0.0}, {"rental_uris": {"android": "https://dc.lft.to/lastmile_qr_scan", "ios": "https://dc.lft.to/lastmile_qr_scan"}, "lon": -77.03357583333333, "name": "7bc4ea58acfa0c78d9c16236f08e75cc", "lat": 38.93587516666667, "is_reserved": 0, "fusion_lat": 0.0, "bike_id": "7bc4ea58acfa0c78d9c16236f08e75cc", "type": "electric_scooter", "is_disabled": 0, "fusion_lon": 0.0}, {"rental_uris": {"android": "https://dc.lft.to/lastmile_qr_scan", "ios": "https://dc.lft.to/lastmile_qr_scan"}, "lon": -77.03661116666666, "name": "aebf1073d0a921fb49a02846d0e5af8f", "lat": 38.9228915, "is_reserved": 0, "fusion_lat": 0.0, "bike_id": "aebf1073d0a921fb49a02846d0e5af8f", "type": "electric_scooter", "is_disabled": 0, "fusion_lon": 0.0}, {"rental_uris": {"android": "https://dc.lft.to/lastmile_qr_scan", "ios": "https://dc.lft.to/lastmile_qr_scan"}, "lon": -77.0862845, "name": "bafa167206d55c5a120f86cb8e715b98", "lat": 38.88068283333333, "is_reserved": 0, "fusion_lat": 0.0, "bike_id": "bafa167206d55c5a120f86cb8e715b98", "type": "electric_bike", "is_disabled": 0, "fusion_lon": 0.0}, {"rental_uris": {"android": "https://dc.lft.to/lastmile_qr_scan", "ios": "https://dc.lft.to/lastmile_qr_scan"}, "lon": -77.045632, "name": "dd816bd25cdfe8c3719e0606211e764d", "lat": 38.90867766666667, "is_reserved": 0, "fusion_lat": 0.0, "bike_id": "dd816bd25cdfe8c3719e0606211e764d", "type": "electric_scooter", "is_disabled": 0, "fusion_lon": 0.0}, {"rental_uris": {"android": "https://dc.lft.to/lastmile_qr_scan", "ios": "https://dc.lft.to/lastmile_qr_scan"}, "lon": -77.0427165, "name": "0d88a4028a2ddc387ad425da2f44d37d", "lat": 38.922420333333335, "is_reserved": 0, "fusion_lat": 0.0, "bike_id": "0d88a4028a2ddc387ad425da2f44d37d", "type": "electric_scooter", "is_disabled": 0, "fusion_lon": 0.0}, {"rental_uris": {"android": "https://dc.lft.to/lastmile_qr_scan", "ios": "https://dc.lft.to/lastmile_qr_scan"}, "lon": -77.038568, "name": "3e91bdf7e77049c65753f81d2a363b4f", "lat": 38.902875333333334, "is_reserved": 0, "fusion_lat": 0.0, "bike_id": "3e91bdf7e77049c65753f81d2a363b4f", "type": "electric_scooter", "is_disabled": 0, "fusion_lon": 0.0}, {"rental_uris": {"android": "https://dc.lft.to/lastmile_qr_scan", "ios": "https://dc.lft.to/lastmile_qr_scan"}, "lon": -77.04307066666667, "name": "786573f8e058f9715a42639b19fe04c7", "lat": 38.923302, "is_reserved": 0, "fusion_lat": 0.0, "bike_id": "786573f8e058f9715a42639b19fe04c7", "type": "electric_scooter", "is_disabled": 0, "fusion_lon": 0.0}, {"rental_uris": {"android": "https://dc.lft.to/lastmile_qr_scan", "ios": "https://dc.lft.to/lastmile_qr_scan"}, "lon": -77.05279116666667, "name": "6a6e67b9be5b8303ba66f1b40dae0368", "lat": 38.910111666666666, "is_reserved": 0, "fusion_lat": 0.0, "bike_id": "6a6e67b9be5b8303ba66f1b40dae0368", "type": "electric_scooter", "is_disabled": 0, "fusion_lon": 0.0}, {"rental_uris": {"android": "https://dc.lft.to/lastmile_qr_scan", "ios": "https://dc.lft.to/lastmile_qr_scan"}, "lon": -76.996221, "name": "722175108bd2bec8743e7bd9282a7418", "lat": 38.95073383333333, "is_reserved": 0, "fusion_lat": 0.0, "bike_id": "722175108bd2bec8743e7bd9282a7418", "type": "electric_scooter", "is_disabled": 0, "fusion_lon": 0.0}, {"rental_uris": {"android": "https://dc.lft.to/lastmile_qr_scan", "ios": "https://dc.lft.to/lastmile_qr_scan"}, "lon": -77.044673, "name": "bb66fca7c5d491c7212c41f57fdf4bed", "lat": 38.90277733333333, "is_reserved": 0, "fusion_lat": 0.0, "bike_id": "bb66fca7c5d491c7212c41f57fdf4bed", "type": "electric_scooter", "is_disabled": 0, "fusion_lon": 0.0}, {"rental_uris": {"android": "https://dc.lft.to/lastmile_qr_scan", "ios": "https://dc.lft.to/lastmile_qr_scan"}, "lon": -77.04396416666667, "name": "1c3872a2159cd417077f2432beecd053", "lat": 38.91206433333333, "is_reserved": 0, "fusion_lat": 0.0, "bike_id": "1c3872a2159cd417077f2432beecd053", "type": "electric_scooter", "is_disabled": 0, "fusion_lon": 0.0}, {"rental_uris": {"android": "https://dc.lft.to/lastmile_qr_scan", "ios": "https://dc.lft.to/lastmile_qr_scan"}, "lon": -77.033306, "name": "115a59d18dc141626e5344cdb91583c3", "lat": 38.898245, "is_reserved": 0, "fusion_lat": 0.0, "bike_id": "115a59d18dc141626e5344cdb91583c3", "type": "electric_scooter", "is_disabled": 0, "fusion_lon": 0.0}, {"rental_uris": {"android": "https://dc.lft.to/lastmile_qr_scan", "ios": "https://dc.lft.to/lastmile_qr_scan"}, "lon": -77.043545, "name": "a2ccd6719b4269757091578f1c177252", "lat": 38.907205, "is_reserved": 0, "fusion_lat": 0.0, "bike_id": "a2ccd6719b4269757091578f1c177252", "type": "electric_scooter", "is_disabled": 0, "fusion_lon": 0.0}, {"rental_uris": {"android": "https://dc.lft.to/lastmile_qr_scan", "ios": "https://dc.lft.to/lastmile_qr_scan"}, "lon": -77.013595, "name": "3742378905ce96262b76a0c1c012197b", "lat": 38.91628, "is_reserved": 0, "fusion_lat": 0.0, "bike_id": "3742378905ce96262b76a0c1c012197b", "type": "electric_scooter", "is_disabled": 0, "fusion_lon": 0.0}, {"rental_uris": {"android": "https://dc.lft.to/lastmile_qr_scan", "ios": "https://dc.lft.to/lastmile_qr_scan"}, "lon": -77.03122516666667, "name": "5c10fd0f6204f35f7466593f56953509", "lat": 38.916979, "is_reserved": 0, "fusion_lat": 0.0, "bike_id": "5c10fd0f6204f35f7466593f56953509", "type": "electric_scooter", "is_disabled": 0, "fusion_lon": 0.0}, {"rental_uris": {"android": "https://dc.lft.to/lastmile_qr_scan", "ios": "https://dc.lft.to/lastmile_qr_scan"}, "lon": -77.0435235, "name": "81a9afe3f7dc9df7b43be55b27a25fd5", "lat": 38.90421833333333, "is_reserved": 0, "fusion_lat": 0.0, "bike_id": "81a9afe3f7dc9df7b43be55b27a25fd5", "type": "electric_scooter", "is_disabled": 0, "fusion_lon": 0.0}, {"rental_uris": {"android": "https://dc.lft.to/lastmile_qr_scan", "ios": "https://dc.lft.to/lastmile_qr_scan"}, "lon": -77.02081966666667, "name": "17588e494f660ad15d9e825eb6121dae", "lat": 38.92708566666667, "is_reserved": 0, "fusion_lat": 0.0, "bike_id": "17588e494f660ad15d9e825eb6121dae", "type": "electric_scooter", "is_disabled": 0, "fusion_lon": 0.0}, {"rental_uris": {"android": "https://dc.lft.to/lastmile_qr_scan", "ios": "https://dc.lft.to/lastmile_qr_scan"}, "lon": -77.0451305, "name": "747eae327f6f7d620cee0417084ec24e", "lat": 38.892212666666666, "is_reserved": 0, "fusion_lat": 0.0, "bike_id": "747eae327f6f7d620cee0417084ec24e", "type": "electric_scooter", "is_disabled": 0, "fusion_lon": 0.0}, {"rental_uris": {"android": "https://dc.lft.to/lastmile_qr_scan", "ios": "https://dc.lft.to/lastmile_qr_scan"}, "lon": -76.98205466666667, "name": "2ea679d53101c64c9a243b549e1ade61", "lat": 38.8660815, "is_reserved": 0, "fusion_lat": 0.0, "bike_id": "2ea679d53101c64c9a243b549e1ade61", "type": "electric_scooter", "is_disabled": 0, "fusion_lon": 0.0}, {"rental_uris": {"android": "https://dc.lft.to/lastmile_qr_scan", "ios": "https://dc.lft.to/lastmile_qr_scan"}, "lon": -76.999105, "name": "50b546bad97ce21e749f3a9ccd1d0af3", "lat": 38.90918683333334, "is_reserved": 0, "fusion_lat": 0.0, "bike_id": "50b546bad97ce21e749f3a9ccd1d0af3", "type": "electric_scooter", "is_disabled": 0, "fusion_lon": 0.0}, {"rental_uris": {"android": "https://dc.lft.to/lastmile_qr_scan", "ios": "https://dc.lft.to/lastmile_qr_scan"}, "lon": -77.03210983333334, "name": "817daa06173774accaedbb5e0d84bfdf", "lat": 38.892365, "is_reserved": 0, "fusion_lat": 0.0, "bike_id": "817daa06173774accaedbb5e0d84bfdf", "type": "electric_scooter", "is_disabled": 0, "fusion_lon": 0.0}, {"rental_uris": {"android": "https://dc.lft.to/lastmile_qr_scan", "ios": "https://dc.lft.to/lastmile_qr_scan"}, "lon": -77.030328, "name": "1c3e026bb085140943a371e23b169ec4", "lat": 38.93105716666667, "is_reserved": 0, "fusion_lat": 0.0, "bike_id": "1c3e026bb085140943a371e23b169ec4", "type": "electric_scooter", "is_disabled": 0, "fusion_lon": 0.0}, {"rental_uris": {"android": "https://dc.lft.to/lastmile_qr_scan", "ios": "https://dc.lft.to/lastmile_qr_scan"}, "lon": -77.049989, "name": "4d495c71589d1fa6e8a33af1bf970580", "lat": 38.901264, "is_reserved": 0, "fusion_lat": 0.0, "bike_id": "4d495c71589d1fa6e8a33af1bf970580", "type": "electric_scooter", "is_disabled": 0, "fusion_lon": 0.0}, {"rental_uris": {"android": "https://dc.lft.to/lastmile_qr_scan", "ios": "https://dc.lft.to/lastmile_qr_scan"}, "lon": -77.0434775, "name": "31d4a4bd25ba5e7f9da8d690a459daa7", "lat": 38.903956, "is_reserved": 0, "fusion_lat": 0.0, "bike_id": "31d4a4bd25ba5e7f9da8d690a459daa7", "type": "electric_scooter", "is_disabled": 0, "fusion_lon": 0.0}, {"rental_uris": {"android": "https://dc.lft.to/lastmile_qr_scan", "ios": "https://dc.lft.to/lastmile_qr_scan"}, "lon": -77.00203033333334, "name": "f2b20362b1c98ee1a058c3cb8d5f3028", "lat": 38.941576, "is_reserved": 0, "fusion_lat": 0.0, "bike_id": "f2b20362b1c98ee1a058c3cb8d5f3028", "type": "electric_bike", "is_disabled": 0, "fusion_lon": 0.0}, {"rental_uris": {"android": "https://dc.lft.to/lastmile_qr_scan", "ios": "https://dc.lft.to/lastmile_qr_scan"}, "lon": -77.06194533333333, "name": "cdc942f40a4c95f9f3680cc177f04524", "lat": 38.918395333333336, "is_reserved": 0, "fusion_lat": 0.0, "bike_id": "cdc942f40a4c95f9f3680cc177f04524", "type": "electric_scooter", "is_disabled": 0, "fusion_lon": 0.0}, {"rental_uris": {"android": "https://dc.lft.to/lastmile_qr_scan", "ios": "https://dc.lft.to/lastmile_qr_scan"}, "lon": -77.02042116666667, "name": "bedb9ae91e5b64d03edfb51ca8017668", "lat": 38.92088716666667, "is_reserved": 0, "fusion_lat": 0.0, "bike_id": "bedb9ae91e5b64d03edfb51ca8017668", "type": "electric_scooter", "is_disabled": 0, "fusion_lon": 0.0}, {"rental_uris": {"android": "https://dc.lft.to/lastmile_qr_scan", "ios": "https://dc.lft.to/lastmile_qr_scan"}, "lon": -76.99777283333333, "name": "510d077a0eb13d3d38a64ed088fdd22b", "lat": 38.96155433333333, "is_reserved": 0, "fusion_lat": 0.0, "bike_id": "510d077a0eb13d3d38a64ed088fdd22b", "type": "electric_scooter", "is_disabled": 0, "fusion_lon": 0.0}, {"rental_uris": {"android": "https://dc.lft.to/lastmile_qr_scan", "ios": "https://dc.lft.to/lastmile_qr_scan"}, "lon": -77.08659366666667, "name": "0675808925f474f81a0e8c7ad0be9db8", "lat": 38.938575, "is_reserved": 0, "fusion_lat": 0.0, "bike_id": "0675808925f474f81a0e8c7ad0be9db8", "type": "electric_scooter", "is_disabled": 0, "fusion_lon": 0.0}, {"rental_uris": {"android": "https://dc.lft.to/lastmile_qr_scan", "ios": "https://dc.lft.to/lastmile_qr_scan"}, "lon": -77.0447585, "name": "6963b9bfe606a4c2dfee09d0d335edde", "lat": 38.93048183333333, "is_reserved": 0, "fusion_lat": 0.0, "bike_id": "6963b9bfe606a4c2dfee09d0d335edde", "type": "electric_scooter", "is_disabled": 0, "fusion_lon": 0.0}, {"rental_uris": {"android": "https://dc.lft.to/lastmile_qr_scan", "ios": "https://dc.lft.to/lastmile_qr_scan"}, "lon": -76.9854435, "name": "a29f8736a1ca37c3d581587ecebcb1fc", "lat": 38.866908333333335, "is_reserved": 0, "fusion_lat": 0.0, "bike_id": "a29f8736a1ca37c3d581587ecebcb1fc", "type": "electric_scooter", "is_disabled": 0, "fusion_lon": 0.0}, {"rental_uris": {"android": "https://dc.lft.to/lastmile_qr_scan", "ios": "https://dc.lft.to/lastmile_qr_scan"}, "lon": -77.0116655, "name": "9ad9535e9db5b9d03f5d57e1f8dbedbd", "lat": 38.921423833333336, "is_reserved": 0, "fusion_lat": 0.0, "bike_id": "9ad9535e9db5b9d03f5d57e1f8dbedbd", "type": "electric_scooter", "is_disabled": 0, "fusion_lon": 0.0}, {"rental_uris": {"android": "https://dc.lft.to/lastmile_qr_scan", "ios": "https://dc.lft.to/lastmile_qr_scan"}, "lon": -77.00564283333334, "name": "75560e28ba4228f2744c1e8f7f9f1af5", "lat": 38.905342, "is_reserved": 0, "fusion_lat": 0.0, "bike_id": "75560e28ba4228f2744c1e8f7f9f1af5", "type": "electric_scooter", "is_disabled": 0, "fusion_lon": 0.0}, {"rental_uris": {"android": "https://dc.lft.to/lastmile_qr_scan", "ios": "https://dc.lft.to/lastmile_qr_scan"}, "lon": -76.999451, "name": "453981d31d0576cbe88251829d4545b5", "lat": 38.94070116666666, "is_reserved": 0, "fusion_lat": 0.0, "bike_id": "453981d31d0576cbe88251829d4545b5", "type": "electric_scooter", "is_disabled": 0, "fusion_lon": 0.0}, {"rental_uris": {"android": "https://dc.lft.to/lastmile_qr_scan", "ios": "https://dc.lft.to/lastmile_qr_scan"}, "lon": -77.12043866666667, "name": "63c2a49fb85ba0fe6a5e4c9cc5d126ff", "lat": 38.85493616666667, "is_reserved": 0, "fusion_lat": 0.0, "bike_id": "63c2a49fb85ba0fe6a5e4c9cc5d126ff", "type": "electric_bike", "is_disabled": 0, "fusion_lon": 0.0}, {"rental_uris": {"android": "https://dc.lft.to/lastmile_qr_scan", "ios": "https://dc.lft.to/lastmile_qr_scan"}, "lon": -77.00865666666667, "name": "8c88fd81aaeff02ab647f778e8ce2b29", "lat": 38.9673835, "is_reserved": 0, "fusion_lat": 0.0, "bike_id": "8c88fd81aaeff02ab647f778e8ce2b29", "type": "electric_scooter", "is_disabled": 0, "fusion_lon": 0.0}, {"rental_uris": {"android": "https://dc.lft.to/lastmile_qr_scan", "ios": "https://dc.lft.to/lastmile_qr_scan"}, "lon": -77.12021283333333, "name": "3c448430cbc9b8316a1e324c3361d2b4", "lat": 38.8578505, "is_reserved": 0, "fusion_lat": 0.0, "bike_id": "3c448430cbc9b8316a1e324c3361d2b4", "type": "electric_bike", "is_disabled": 0, "fusion_lon": 0.0}, {"rental_uris": {"android": "https://dc.lft.to/lastmile_qr_scan", "ios": "https://dc.lft.to/lastmile_qr_scan"}, "lon": -77.04001016666666, "name": "e97378ec40772440505799f9e76f386a", "lat": 38.90286616666667, "is_reserved": 0, "fusion_lat": 0.0, "bike_id": "e97378ec40772440505799f9e76f386a", "type": "electric_scooter", "is_disabled": 0, "fusion_lon": 0.0}, {"rental_uris": {"android": "https://dc.lft.to/lastmile_qr_scan", "ios": "https://dc.lft.to/lastmile_qr_scan"}, "lon": -77.02165266666667, "name": "3a0209350d524b7cd5b01d9af7e17489", "lat": 38.925044, "is_reserved": 0, "fusion_lat": 0.0, "bike_id": "3a0209350d524b7cd5b01d9af7e17489", "type": "electric_scooter", "is_disabled": 0, "fusion_lon": 0.0}, {"rental_uris": {"android": "https://dc.lft.to/lastmile_qr_scan", "ios": "https://dc.lft.to/lastmile_qr_scan"}, "lon": -77.00588, "name": "c9c9982faabb7c7c6bd21227df943d6b", "lat": 38.90555366666667, "is_reserved": 0, "fusion_lat": 0.0, "bike_id": "c9c9982faabb7c7c6bd21227df943d6b", "type": "electric_scooter", "is_disabled": 0, "fusion_lon": 0.0}, {"rental_uris": {"android": "https://dc.lft.to/lastmile_qr_scan", "ios": "https://dc.lft.to/lastmile_qr_scan"}, "lon": -77.04355033333333, "name": "8ac2f57b8c3495fbbf7ed9415c6acbaa", "lat": 38.91125366666667, "is_reserved": 0, "fusion_lat": 0.0, "bike_id": "8ac2f57b8c3495fbbf7ed9415c6acbaa", "type": "electric_scooter", "is_disabled": 0, "fusion_lon": 0.0}, {"rental_uris": {"android": "https://dc.lft.to/lastmile_qr_scan", "ios": "https://dc.lft.to/lastmile_qr_scan"}, "lon": -77.03317016666666, "name": "ec2e3c26d66d9c7e73297508f83fad3c", "lat": 38.89818266666666, "is_reserved": 0, "fusion_lat": 0.0, "bike_id": "ec2e3c26d66d9c7e73297508f83fad3c", "type": "electric_scooter", "is_disabled": 0, "fusion_lon": 0.0}, {"rental_uris": {"android": "https://dc.lft.to/lastmile_qr_scan", "ios": "https://dc.lft.to/lastmile_qr_scan"}, "lon": -76.95697616666666, "name": "e4eacb33710b97220c909dd7b69f7f1f", "lat": 38.89211066666667, "is_reserved": 0, "fusion_lat": 0.0, "bike_id": "e4eacb33710b97220c909dd7b69f7f1f", "type": "electric_scooter", "is_disabled": 0, "fusion_lon": 0.0}, {"rental_uris": {"android": "https://dc.lft.to/lastmile_qr_scan", "ios": "https://dc.lft.to/lastmile_qr_scan"}, "lon": -77.01417183333334, "name": "62d927a2cc92555f74659f7178d355e6", "lat": 38.90522516666667, "is_reserved": 0, "fusion_lat": 0.0, "bike_id": "62d927a2cc92555f74659f7178d355e6", "type": "electric_scooter", "is_disabled": 0, "fusion_lon": 0.0}, {"rental_uris": {"android": "https://dc.lft.to/lastmile_qr_scan", "ios": "https://dc.lft.to/lastmile_qr_scan"}, "lon": -77.04400583333333, "name": "965357393b0310a0a889d6d76520a605", "lat": 38.91349483333333, "is_reserved": 0, "fusion_lat": 0.0, "bike_id": "965357393b0310a0a889d6d76520a605", "type": "electric_scooter", "is_disabled": 0, "fusion_lon": 0.0}, {"rental_uris": {"android": "https://dc.lft.to/lastmile_qr_scan", "ios": "https://dc.lft.to/lastmile_qr_scan"}, "lon": -77.02578033333333, "name": "fe2908f6b55619642fded79d903a46e6", "lat": 38.920510666666665, "is_reserved": 0, "fusion_lat": 0.0, "bike_id": "fe2908f6b55619642fded79d903a46e6", "type": "electric_scooter", "is_disabled": 0, "fusion_lon": 0.0}, {"rental_uris": {"android": "https://dc.lft.to/lastmile_qr_scan", "ios": "https://dc.lft.to/lastmile_qr_scan"}, "lon": -77.02573933333333, "name": "1852eff1cfb8224795c4d21e989b28b8", "lat": 38.895592, "is_reserved": 0, "fusion_lat": 0.0, "bike_id": "1852eff1cfb8224795c4d21e989b28b8", "type": "electric_scooter", "is_disabled": 0, "fusion_lon": 0.0}, {"rental_uris": {"android": "https://dc.lft.to/lastmile_qr_scan", "ios": "https://dc.lft.to/lastmile_qr_scan"}, "lon": -76.944137, "name": "3535e641f60dc8ac9965833477e8afb1", "lat": 38.9922555, "is_reserved": 0, "fusion_lat": 0.0, "bike_id": "3535e641f60dc8ac9965833477e8afb1", "type": "electric_bike", "is_disabled": 0, "fusion_lon": 0.0}, {"rental_uris": {"android": "https://dc.lft.to/lastmile_qr_scan", "ios": "https://dc.lft.to/lastmile_qr_scan"}, "lon": -77.03106383333333, "name": "cd106100a365670a6deb260956c9ec21", "lat": 38.9612995, "is_reserved": 0, "fusion_lat": 0.0, "bike_id": "cd106100a365670a6deb260956c9ec21", "type": "electric_bike", "is_disabled": 0, "fusion_lon": 0.0}, {"rental_uris": {"android": "https://dc.lft.to/lastmile_qr_scan", "ios": "https://dc.lft.to/lastmile_qr_scan"}, "lon": -77.00921183333334, "name": "10b2ff7e52e80ef3700ec6611f18bfda", "lat": 38.968246666666666, "is_reserved": 0, "fusion_lat": 0.0, "bike_id": "10b2ff7e52e80ef3700ec6611f18bfda", "type": "electric_scooter", "is_disabled": 0, "fusion_lon": 0.0}, {"rental_uris": {"android": "https://dc.lft.to/lastmile_qr_scan", "ios": "https://dc.lft.to/lastmile_qr_scan"}, "lon": -77.01605666666667, "name": "f08e9021b909fe28dd92700dd1bf9afc", "lat": 38.8995565, "is_reserved": 0, "fusion_lat": 0.0, "bike_id": "f08e9021b909fe28dd92700dd1bf9afc", "type": "electric_scooter", "is_disabled": 0, "fusion_lon": 0.0}, {"rental_uris": {"android": "https://dc.lft.to/lastmile_qr_scan", "ios": "https://dc.lft.to/lastmile_qr_scan"}, "lon": -77.0279415, "name": "c26ab4709e9d53d638be4a9f2ebbd46a", "lat": 38.96047016666667, "is_reserved": 0, "fusion_lat": 0.0, "bike_id": "c26ab4709e9d53d638be4a9f2ebbd46a", "type": "electric_scooter", "is_disabled": 0, "fusion_lon": 0.0}, {"rental_uris": {"android": "https://dc.lft.to/lastmile_qr_scan", "ios": "https://dc.lft.to/lastmile_qr_scan"}, "lon": -77.03192483333333, "name": "eb742fb76e801eac0f06ed80ea19b422", "lat": 38.919479833333334, "is_reserved": 0, "fusion_lat": 0.0, "bike_id": "eb742fb76e801eac0f06ed80ea19b422", "type": "electric_scooter", "is_disabled": 0, "fusion_lon": 0.0}, {"rental_uris": {"android": "https://dc.lft.to/lastmile_qr_scan", "ios": "https://dc.lft.to/lastmile_qr_scan"}, "lon": -77.02361166666667, "name": "3c63511e5468a52095d7b8b23ddeb83d", "lat": 38.902014, "is_reserved": 0, "fusion_lat": 0.0, "bike_id": "3c63511e5468a52095d7b8b23ddeb83d", "type": "electric_scooter", "is_disabled": 0, "fusion_lon": 0.0}, {"rental_uris": {"android": "https://dc.lft.to/lastmile_qr_scan", "ios": "https://dc.lft.to/lastmile_qr_scan"}, "lon": -77.04621066666667, "name": "1ff871a0c43d86f7716c0c2e5bc1c566", "lat": 38.90660833333333, "is_reserved": 0, "fusion_lat": 0.0, "bike_id": "1ff871a0c43d86f7716c0c2e5bc1c566", "type": "electric_scooter", "is_disabled": 0, "fusion_lon": 0.0}, {"rental_uris": {"android": "https://dc.lft.to/lastmile_qr_scan", "ios": "https://dc.lft.to/lastmile_qr_scan"}, "lon": -77.02831566666667, "name": "9c46b23969232c8c782ffa31bb14290b", "lat": 38.88733216666667, "is_reserved": 0, "fusion_lat": 0.0, "bike_id": "9c46b23969232c8c782ffa31bb14290b", "type": "electric_scooter", "is_disabled": 0, "fusion_lon": 0.0}, {"rental_uris": {"android": "https://dc.lft.to/lastmile_qr_scan", "ios": "https://dc.lft.to/lastmile_qr_scan"}, "lon": -77.01287316666667, "name": "d42e5bc55df033490ff618da30c582cc", "lat": 38.918258, "is_reserved": 0, "fusion_lat": 0.0, "bike_id": "d42e5bc55df033490ff618da30c582cc", "type": "electric_scooter", "is_disabled": 0, "fusion_lon": 0.0}, {"rental_uris": {"android": "https://dc.lft.to/lastmile_qr_scan", "ios": "https://dc.lft.to/lastmile_qr_scan"}, "lon": -77.01106116666666, "name": "13eeb7b5d31b1fec4fbdcf198821eb41", "lat": 38.8983345, "is_reserved": 0, "fusion_lat": 0.0, "bike_id": "13eeb7b5d31b1fec4fbdcf198821eb41", "type": "electric_scooter", "is_disabled": 0, "fusion_lon": 0.0}, {"rental_uris": {"android": "https://dc.lft.to/lastmile_qr_scan", "ios": "https://dc.lft.to/lastmile_qr_scan"}, "lon": -76.99997766666667, "name": "700544f87b650d01d8f710c808c7ddaa", "lat": 38.92390433333333, "is_reserved": 0, "fusion_lat": 0.0, "bike_id": "700544f87b650d01d8f710c808c7ddaa", "type": "electric_bike", "is_disabled": 0, "fusion_lon": 0.0}, {"rental_uris": {"android": "https://dc.lft.to/lastmile_qr_scan", "ios": "https://dc.lft.to/lastmile_qr_scan"}, "lon": -77.012468, "name": "0686fcab718f4534ca3cfa8d219e5b34", "lat": 38.9157095, "is_reserved": 0, "fusion_lat": 0.0, "bike_id": "0686fcab718f4534ca3cfa8d219e5b34", "type": "electric_scooter", "is_disabled": 0, "fusion_lon": 0.0}, {"rental_uris": {"android": "https://dc.lft.to/lastmile_qr_scan", "ios": "https://dc.lft.to/lastmile_qr_scan"}, "lon": -77.04329, "name": "28bc7999b87211f3ea817665834e21c4", "lat": 38.92252366666666, "is_reserved": 0, "fusion_lat": 0.0, "bike_id": "28bc7999b87211f3ea817665834e21c4", "type": "electric_scooter", "is_disabled": 0, "fusion_lon": 0.0}, {"rental_uris": {"android": "https://dc.lft.to/lastmile_qr_scan", "ios": "https://dc.lft.to/lastmile_qr_scan"}, "lon": -77.04225116666667, "name": "c35eec17d66ea0abd6a9e394b191f4e0", "lat": 38.92459133333333, "is_reserved": 0, "fusion_lat": 0.0, "bike_id": "c35eec17d66ea0abd6a9e394b191f4e0", "type": "electric_scooter", "is_disabled": 0, "fusion_lon": 0.0}, {"rental_uris": {"android": "https://dc.lft.to/lastmile_qr_scan", "ios": "https://dc.lft.to/lastmile_qr_scan"}, "lon": -77.01629216666667, "name": "c8e363bf95182bf94190a2eac92a5516", "lat": 38.9007755, "is_reserved": 0, "fusion_lat": 0.0, "bike_id": "c8e363bf95182bf94190a2eac92a5516", "type": "electric_scooter", "is_disabled": 0, "fusion_lon": 0.0}, {"rental_uris": {"android": "https://dc.lft.to/lastmile_qr_scan", "ios": "https://dc.lft.to/lastmile_qr_scan"}, "lon": -77.04335966666666, "name": "f094419797017fbcc89e080e82063443", "lat": 38.91426966666667, "is_reserved": 0, "fusion_lat": 0.0, "bike_id": "f094419797017fbcc89e080e82063443", "type": "electric_scooter", "is_disabled": 0, "fusion_lon": 0.0}, {"rental_uris": {"android": "https://dc.lft.to/lastmile_qr_scan", "ios": "https://dc.lft.to/lastmile_qr_scan"}, "lon": -77.02384483333333, "name": "07ae6488359b0d833d148ffde89f4131", "lat": 38.89229666666667, "is_reserved": 0, "fusion_lat": 0.0, "bike_id": "07ae6488359b0d833d148ffde89f4131", "type": "electric_scooter", "is_disabled": 0, "fusion_lon": 0.0}, {"rental_uris": {"android": "https://dc.lft.to/lastmile_qr_scan", "ios": "https://dc.lft.to/lastmile_qr_scan"}, "lon": -77.03329766666667, "name": "4e0406a42e6aeaaa1acc83b4b342066b", "lat": 38.898239333333336, "is_reserved": 0, "fusion_lat": 0.0, "bike_id": "4e0406a42e6aeaaa1acc83b4b342066b", "type": "electric_scooter", "is_disabled": 0, "fusion_lon": 0.0}, {"rental_uris": {"android": "https://dc.lft.to/lastmile_qr_scan", "ios": "https://dc.lft.to/lastmile_qr_scan"}, "lon": -77.02968383333334, "name": "b0d1ff661907a103388e42a64425411d", "lat": 38.9062035, "is_reserved": 0, "fusion_lat": 0.0, "bike_id": "b0d1ff661907a103388e42a64425411d", "type": "electric_scooter", "is_disabled": 0, "fusion_lon": 0.0}, {"rental_uris": {"android": "https://dc.lft.to/lastmile_qr_scan", "ios": "https://dc.lft.to/lastmile_qr_scan"}, "lon": -77.03100683333334, "name": "5e7a27b31434b9821fafdb812e36ec1e", "lat": 38.923804833333335, "is_reserved": 0, "fusion_lat": 0.0, "bike_id": "5e7a27b31434b9821fafdb812e36ec1e", "type": "electric_scooter", "is_disabled": 0, "fusion_lon": 0.0}, {"rental_uris": {"android": "https://dc.lft.to/lastmile_qr_scan", "ios": "https://dc.lft.to/lastmile_qr_scan"}, "lon": -77.02545383333333, "name": "ef781d53fa052d76d93e1335e60d9a7f", "lat": 38.930963, "is_reserved": 0, "fusion_lat": 0.0, "bike_id": "ef781d53fa052d76d93e1335e60d9a7f", "type": "electric_scooter", "is_disabled": 0, "fusion_lon": 0.0}, {"rental_uris": {"android": "https://dc.lft.to/lastmile_qr_scan", "ios": "https://dc.lft.to/lastmile_qr_scan"}, "lon": -77.02946083333333, "name": "99ca2fe5d10620891dc9cde74ba05d94", "lat": 38.9050485, "is_reserved": 0, "fusion_lat": 0.0, "bike_id": "99ca2fe5d10620891dc9cde74ba05d94", "type": "electric_scooter", "is_disabled": 0, "fusion_lon": 0.0}, {"rental_uris": {"android": "https://dc.lft.to/lastmile_qr_scan", "ios": "https://dc.lft.to/lastmile_qr_scan"}, "lon": -77.02949683333334, "name": "34a76d8f5624d16d0169a1a2a2084505", "lat": 38.94300783333333, "is_reserved": 0, "fusion_lat": 0.0, "bike_id": "34a76d8f5624d16d0169a1a2a2084505", "type": "electric_scooter", "is_disabled": 0, "fusion_lon": 0.0}, {"rental_uris": {"android": "https://dc.lft.to/lastmile_qr_scan", "ios": "https://dc.lft.to/lastmile_qr_scan"}, "lon": -76.99034683333333, "name": "72496b415c4286b2acdd4f7408ac4391", "lat": 38.901478833333336, "is_reserved": 0, "fusion_lat": 0.0, "bike_id": "72496b415c4286b2acdd4f7408ac4391", "type": "electric_scooter", "is_disabled": 0, "fusion_lon": 0.0}, {"rental_uris": {"android": "https://dc.lft.to/lastmile_qr_scan", "ios": "https://dc.lft.to/lastmile_qr_scan"}, "lon": -77.02209116666667, "name": "7c93654105d9a66c4dca601b36c46896", "lat": 38.9197615, "is_reserved": 0, "fusion_lat": 0.0, "bike_id": "7c93654105d9a66c4dca601b36c46896", "type": "electric_scooter", "is_disabled": 0, "fusion_lon": 0.0}, {"rental_uris": {"android": "https://dc.lft.to/lastmile_qr_scan", "ios": "https://dc.lft.to/lastmile_qr_scan"}, "lon": -77.04120066666667, "name": "33328e6ebde45018ddc91e427c4f11f5", "lat": 38.934284, "is_reserved": 0, "fusion_lat": 0.0, "bike_id": "33328e6ebde45018ddc91e427c4f11f5", "type": "electric_scooter", "is_disabled": 0, "fusion_lon": 0.0}, {"rental_uris": {"android": "https://dc.lft.to/lastmile_qr_scan", "ios": "https://dc.lft.to/lastmile_qr_scan"}, "lon": -77.22887666666666, "name": "551e1e36e20d3acc65972fe4ee91a737", "lat": 38.90955566666667, "is_reserved": 0, "fusion_lat": 0.0, "bike_id": "551e1e36e20d3acc65972fe4ee91a737", "type": "electric_bike", "is_disabled": 0, "fusion_lon": 0.0}, {"rental_uris": {"android": "https://dc.lft.to/lastmile_qr_scan", "ios": "https://dc.lft.to/lastmile_qr_scan"}, "lon": -76.9896495, "name": "ac702a0b458a02298ee648950ad3a30a", "lat": 38.90138316666667, "is_reserved": 0, "fusion_lat": 0.0, "bike_id": "ac702a0b458a02298ee648950ad3a30a", "type": "electric_scooter", "is_disabled": 0, "fusion_lon": 0.0}, {"rental_uris": {"android": "https://dc.lft.to/lastmile_qr_scan", "ios": "https://dc.lft.to/lastmile_qr_scan"}, "lon": -77.05993116666667, "name": "e48954c84d8390d4156ce75e2d4a3cff", "lat": 38.9022955, "is_reserved": 0, "fusion_lat": 0.0, "bike_id": "e48954c84d8390d4156ce75e2d4a3cff", "type": "electric_scooter", "is_disabled": 0, "fusion_lon": 0.0}, {"rental_uris": {"android": "https://dc.lft.to/lastmile_qr_scan", "ios": "https://dc.lft.to/lastmile_qr_scan"}, "lon": -76.98879733333334, "name": "6c6673170e31237dea2640e175cf6583", "lat": 38.866638, "is_reserved": 0, "fusion_lat": 0.0, "bike_id": "6c6673170e31237dea2640e175cf6583", "type": "electric_scooter", "is_disabled": 0, "fusion_lon": 0.0}, {"rental_uris": {"android": "https://dc.lft.to/lastmile_qr_scan", "ios": "https://dc.lft.to/lastmile_qr_scan"}, "lon": -77.0441165, "name": "064dc9a2eaf7d8d2339691672f82f5fb", "lat": 38.9341955, "is_reserved": 0, "fusion_lat": 0.0, "bike_id": "064dc9a2eaf7d8d2339691672f82f5fb", "type": "electric_scooter", "is_disabled": 0, "fusion_lon": 0.0}, {"rental_uris": {"android": "https://dc.lft.to/lastmile_qr_scan", "ios": "https://dc.lft.to/lastmile_qr_scan"}, "lon": -77.00921616666666, "name": "03f710cc80b782353fdd8a4084b7fe09", "lat": 38.92110566666667, "is_reserved": 0, "fusion_lat": 0.0, "bike_id": "03f710cc80b782353fdd8a4084b7fe09", "type": "electric_scooter", "is_disabled": 0, "fusion_lon": 0.0}, {"rental_uris": {"android": "https://dc.lft.to/lastmile_qr_scan", "ios": "https://dc.lft.to/lastmile_qr_scan"}, "lon": -77.03966433333333, "name": "26641c762119fd4ec4f3e238649ea8b8", "lat": 38.919866, "is_reserved": 0, "fusion_lat": 0.0, "bike_id": "26641c762119fd4ec4f3e238649ea8b8", "type": "electric_scooter", "is_disabled": 0, "fusion_lon": 0.0}, {"rental_uris": {"android": "https://dc.lft.to/lastmile_qr_scan", "ios": "https://dc.lft.to/lastmile_qr_scan"}, "lon": -76.93180883333333, "name": "76325ccb5cfea2317e4a5b6c4eda74e4", "lat": 38.898343833333335, "is_reserved": 0, "fusion_lat": 0.0, "bike_id": "76325ccb5cfea2317e4a5b6c4eda74e4", "type": "electric_scooter", "is_disabled": 0, "fusion_lon": 0.0}, {"rental_uris": {"android": "https://dc.lft.to/lastmile_qr_scan", "ios": "https://dc.lft.to/lastmile_qr_scan"}, "lon": -77.04134983333333, "name": "124375d0d0cc892fe388fcb904ae6af0", "lat": 38.903801333333334, "is_reserved": 0, "fusion_lat": 0.0, "bike_id": "124375d0d0cc892fe388fcb904ae6af0", "type": "electric_scooter", "is_disabled": 0, "fusion_lon": 0.0}, {"rental_uris": {"android": "https://dc.lft.to/lastmile_qr_scan", "ios": "https://dc.lft.to/lastmile_qr_scan"}, "lon": -77.04627616666667, "name": "1d7f3c00fe3bcda6ac2f685314a2eddc", "lat": 38.897391166666665, "is_reserved": 0, "fusion_lat": 0.0, "bike_id": "1d7f3c00fe3bcda6ac2f685314a2eddc", "type": "electric_scooter", "is_disabled": 0, "fusion_lon": 0.0}, {"rental_uris": {"android": "https://dc.lft.to/lastmile_qr_scan", "ios": "https://dc.lft.to/lastmile_qr_scan"}, "lon": -77.00257683333334, "name": "954cf8d189519ec644ace6ded05dd6ee", "lat": 38.8948975, "is_reserved": 0, "fusion_lat": 0.0, "bike_id": "954cf8d189519ec644ace6ded05dd6ee", "type": "electric_scooter", "is_disabled": 0, "fusion_lon": 0.0}, {"rental_uris": {"android": "https://dc.lft.to/lastmile_qr_scan", "ios": "https://dc.lft.to/lastmile_qr_scan"}, "lon": -77.0217435, "name": "0c4a3d2480f7e1caf5413bd92945e340", "lat": 38.919997, "is_reserved": 0, "fusion_lat": 0.0, "bike_id": "0c4a3d2480f7e1caf5413bd92945e340", "type": "electric_scooter", "is_disabled": 0, "fusion_lon": 0.0}, {"rental_uris": {"android": "https://dc.lft.to/lastmile_qr_scan", "ios": "https://dc.lft.to/lastmile_qr_scan"}, "lon": -77.02170683333334, "name": "698a9bba5c440670a9508a06316e567d", "lat": 38.914579, "is_reserved": 0, "fusion_lat": 0.0, "bike_id": "698a9bba5c440670a9508a06316e567d", "type": "electric_scooter", "is_disabled": 0, "fusion_lon": 0.0}, {"rental_uris": {"android": "https://dc.lft.to/lastmile_qr_scan", "ios": "https://dc.lft.to/lastmile_qr_scan"}, "lon": -77.03264233333333, "name": "a8588199e14523d57e480d2c1a5b8b08", "lat": 38.93985, "is_reserved": 0, "fusion_lat": 0.0, "bike_id": "a8588199e14523d57e480d2c1a5b8b08", "type": "electric_scooter", "is_disabled": 0, "fusion_lon": 0.0}, {"rental_uris": {"android": "https://dc.lft.to/lastmile_qr_scan", "ios": "https://dc.lft.to/lastmile_qr_scan"}, "lon": -77.014214, "name": "b035a8285fbfd0825720daa5b351dfad", "lat": 38.92839266666667, "is_reserved": 0, "fusion_lat": 0.0, "bike_id": "b035a8285fbfd0825720daa5b351dfad", "type": "electric_scooter", "is_disabled": 0, "fusion_lon": 0.0}, {"rental_uris": {"android": "https://dc.lft.to/lastmile_qr_scan", "ios": "https://dc.lft.to/lastmile_qr_scan"}, "lon": -77.0161965, "name": "ff184d96fe77f1b648b4501d14807eb6", "lat": 38.956471, "is_reserved": 0, "fusion_lat": 0.0, "bike_id": "ff184d96fe77f1b648b4501d14807eb6", "type": "electric_scooter", "is_disabled": 0, "fusion_lon": 0.0}, {"rental_uris": {"android": "https://dc.lft.to/lastmile_qr_scan", "ios": "https://dc.lft.to/lastmile_qr_scan"}, "lon": -77.01245883333333, "name": "602e6a1c465d2d523cdc2d9341c518a7", "lat": 38.91264783333333, "is_reserved": 0, "fusion_lat": 0.0, "bike_id": "602e6a1c465d2d523cdc2d9341c518a7", "type": "electric_scooter", "is_disabled": 0, "fusion_lon": 0.0}, {"rental_uris": {"android": "https://dc.lft.to/lastmile_qr_scan", "ios": "https://dc.lft.to/lastmile_qr_scan"}, "lon": -76.9766865, "name": "d113a02c9cefb8cef5139365817bc6d5", "lat": 38.84056233333333, "is_reserved": 0, "fusion_lat": 0.0, "bike_id": "d113a02c9cefb8cef5139365817bc6d5", "type": "electric_scooter", "is_disabled": 0, "fusion_lon": 0.0}, {"rental_uris": {"android": "https://dc.lft.to/lastmile_qr_scan", "ios": "https://dc.lft.to/lastmile_qr_scan"}, "lon": -77.01976366666666, "name": "51538f6a02e26494d38f10376b11517a", "lat": 38.9638845, "is_reserved": 0, "fusion_lat": 0.0, "bike_id": "51538f6a02e26494d38f10376b11517a", "type": "electric_bike", "is_disabled": 0, "fusion_lon": 0.0}, {"rental_uris": {"android": "https://dc.lft.to/lastmile_qr_scan", "ios": "https://dc.lft.to/lastmile_qr_scan"}, "lon": -77.017576, "name": "2152c5a5ea27b98073b31418b4a8bc80", "lat": 38.902275833333334, "is_reserved": 0, "fusion_lat": 0.0, "bike_id": "2152c5a5ea27b98073b31418b4a8bc80", "type": "electric_scooter", "is_disabled": 0, "fusion_lon": 0.0}, {"rental_uris": {"android": "https://dc.lft.to/lastmile_qr_scan", "ios": "https://dc.lft.to/lastmile_qr_scan"}, "lon": -77.00181216666667, "name": "fce39b9f8b2b762dd9b7c3a143ff1a51", "lat": 38.912286, "is_reserved": 0, "fusion_lat": 0.0, "bike_id": "fce39b9f8b2b762dd9b7c3a143ff1a51", "type": "electric_scooter", "is_disabled": 0, "fusion_lon": 0.0}, {"rental_uris": {"android": "https://dc.lft.to/lastmile_qr_scan", "ios": "https://dc.lft.to/lastmile_qr_scan"}, "lon": -77.02179716666667, "name": "1285e48a242e8ad67ebba9243e3bd298", "lat": 38.8949445, "is_reserved": 0, "fusion_lat": 0.0, "bike_id": "1285e48a242e8ad67ebba9243e3bd298", "type": "electric_scooter", "is_disabled": 0, "fusion_lon": 0.0}, {"rental_uris": {"android": "https://dc.lft.to/lastmile_qr_scan", "ios": "https://dc.lft.to/lastmile_qr_scan"}, "lon": -77.028316, "name": "49819b829b813d31b8c1c71af772cec7", "lat": 38.9170795, "is_reserved": 0, "fusion_lat": 0.0, "bike_id": "49819b829b813d31b8c1c71af772cec7", "type": "electric_scooter", "is_disabled": 0, "fusion_lon": 0.0}, {"rental_uris": {"android": "https://dc.lft.to/lastmile_qr_scan", "ios": "https://dc.lft.to/lastmile_qr_scan"}, "lon": -77.04517483333333, "name": "011a41f095cf731dd662f0d3171535cc", "lat": 38.896064333333335, "is_reserved": 0, "fusion_lat": 0.0, "bike_id": "011a41f095cf731dd662f0d3171535cc", "type": "electric_scooter", "is_disabled": 0, "fusion_lon": 0.0}, {"rental_uris": {"android": "https://dc.lft.to/lastmile_qr_scan", "ios": "https://dc.lft.to/lastmile_qr_scan"},