{"data": {"bikes": [{"rental_uris": {"ios": "https://dc.lft.to/lastmile_qr_scan", "android": "https://dc.lft.to/lastmile_qr_scan"}, "lon": -76.965059, "type": "electric_scooter", "fusion_lat": 0.0, "lat": 38.876475666666664, "name": "8915b5d00a773ed238a0c5d13fc4dd40", "fusion_lon": 0.0, "bike_id": "8915b5d00a773ed238a0c5d13fc4dd40", "is_disabled": 0, "is_reserved": 0}, {"rental_uris": {"ios": "https://dc.lft.to/lastmile_qr_scan", "android": "https://dc.lft.to/lastmile_qr_scan"}, "lon": -76.93175633333334, "type": "electric_scooter", "fusion_lat": 0.0, "lat": 38.898839, "name": "350b913f382ca911fe8d15432caac2dd", "fusion_lon": 0.0, "bike_id": "350b913f382ca911fe8d15432caac2dd", "is_disabled": 0, "is_reserved": 0}, {"rental_uris": {"ios": "https://dc.lft.to/lastmile_qr_scan", "android": "https://dc.lft.to/lastmile_qr_scan"}, "lon": -77.00620416666666, "type": "electric_scooter", "fusion_lat": 0.0, "lat": 38.908530666666664, "name": "64b8fb1ffc33cb5371c64bcb58a78674", "fusion_lon": 0.0, "bike_id": "64b8fb1ffc33cb5371c64bcb58a78674", "is_disabled": 0, "is_reserved": 0}, {"rental_uris": {"ios": "https://dc.lft.to/lastmile_qr_scan", "android": "https://dc.lft.to/lastmile_qr_scan"}, "lon": -77.152682, "type": "electric_bike", "fusion_lat": 0.0, "lat": 39.10565783333333, "name": "30e5f68791e865ef0d1b7fb15df74251", "fusion_lon": 0.0, "bike_id": "30e5f68791e865ef0d1b7fb15df74251", "is_disabled": 0, "is_reserved": 0}, {"rental_uris": {"ios": "https://dc.lft.to/lastmile_qr_scan", "android": "https://dc.lft.to/lastmile_qr_scan"}, "lon": -77.03085516666667, "type": "electric_scooter", "fusion_lat": 0.0, "lat": 38.922403833333334, "name": "4477ffe964b0206a4b29c086d6dedc1d", "fusion_lon": 0.0, "bike_id": "4477ffe964b0206a4b29c086d6dedc1d", "is_disabled": 0, "is_reserved": 0}, {"rental_uris": {"ios": "https://dc.lft.to/lastmile_qr_scan", "android": "https://dc.lft.to/lastmile_qr_scan"}, "lon": -76.937861, "type": "electric_scooter", "fusion_lat": 0.0, "lat": 38.8908775, "name": "635498a4aea3d315b2eebc915e79a326", "fusion_lon": 0.0, "bike_id": "635498a4aea3d315b2eebc915e79a326", "is_disabled": 0, "is_reserved": 0}, {"rental_uris": {"ios": "https://dc.lft.to/lastmile_qr_scan", "android": "https://dc.lft.to/lastmile_qr_scan"}, "lon": -76.957541, "type": "electric_scooter", "fusion_lat": 0.0, "lat": 38.88430683333333, "name": "190352d6401a2416775c590884931a13", "fusion_lon": 0.0, "bike_id": "190352d6401a2416775c590884931a13", "is_disabled": 0, "is_reserved": 0}, {"rental_uris": {"ios": "https://dc.lft.to/lastmile_qr_scan", "android": "https://dc.lft.to/lastmile_qr_scan"}, "lon": -77.0137675, "type": "electric_scooter", "fusion_lat": 0.0, "lat": 38.89223583333333, "name": "65969bc13f6c40ac39ea87facd3cdc95", "fusion_lon": 0.0, "bike_id": "65969bc13f6c40ac39ea87facd3cdc95", "is_disabled": 0, "is_reserved": 0}, {"rental_uris": {"ios": "https://dc.lft.to/lastmile_qr_scan", "android": "https://dc.lft.to/lastmile_qr_scan"}, "lon": -77.02601433333334, "type": "electric_scooter", "fusion_lat": 0.0, "lat": 38.9016055, "name": "22cb032540df9e68cc781774bc766186", "fusion_lon": 0.0, "bike_id": "22cb032540df9e68cc781774bc766186", "is_disabled": 0, "is_reserved": 0}, {"rental_uris": {"ios": "https://dc.lft.to/lastmile_qr_scan", "android": "https://dc.lft.to/lastmile_qr_scan"}, "lon": -77.024955, "type": "electric_scooter", "fusion_lat": 0.0, "lat": 38.94190616666667, "name": "d17686eecd5f475aebe7e4024cc0d04f", "fusion_lon": 0.0, "bike_id": "d17686eecd5f475aebe7e4024cc0d04f", "is_disabled": 0, "is_reserved": 0}, {"rental_uris": {"ios": "https://dc.lft.to/lastmile_qr_scan", "android": "https://dc.lft.to/lastmile_qr_scan"}, "lon": -77.02222116666667, "type": "electric_scooter", "fusion_lat": 0.0, "lat": 38.893558166666665, "name": "c40c5b26b34bb898e67bce108d7de41e", "fusion_lon": 0.0, "bike_id": "c40c5b26b34bb898e67bce108d7de41e", "is_disabled": 0, "is_reserved": 0}, {"rental_uris": {"ios": "https://dc.lft.to/lastmile_qr_scan", "android": "https://dc.lft.to/lastmile_qr_scan"}, "lon": -76.91914616666666, "type": "electric_scooter", "fusion_lat": 0.0, "lat": 38.90039516666667, "name": "dadf99fcd89641edf1fb360acd6fefbc", "fusion_lon": 0.0, "bike_id": "dadf99fcd89641edf1fb360acd6fefbc", "is_disabled": 0, "is_reserved": 0}, {"rental_uris": {"ios": "https://dc.lft.to/lastmile_qr_scan", "android": "https://dc.lft.to/lastmile_qr_scan"}, "lon": -76.9317505, "type": "electric_scooter", "fusion_lat": 0.0, "lat": 38.89886683333334, "name": "c7f061e1eaa9002d1d1ee8c18a99d4f9", "fusion_lon": 0.0, "bike_id": "c7f061e1eaa9002d1d1ee8c18a99d4f9", "is_disabled": 0, "is_reserved": 0}, {"rental_uris": {"ios": "https://dc.lft.to/lastmile_qr_scan", "android": "https://dc.lft.to/lastmile_qr_scan"}, "lon": -77.01614733333334, "type": "electric_scooter", "fusion_lat": 0.0, "lat": 38.903467, "name": "d0e08f850c190257225a1581fa5861e3", "fusion_lon": 0.0, "bike_id": "d0e08f850c190257225a1581fa5861e3", "is_disabled": 0, "is_reserved": 0}, {"rental_uris": {"ios": "https://dc.lft.to/lastmile_qr_scan", "android": "https://dc.lft.to/lastmile_qr_scan"}, "lon": -77.02341266666667, "type": "electric_scooter", "fusion_lat": 0.0, "lat": 38.929424, "name": "58d0f8a8daad96b0306520cde06a980d", "fusion_lon": 0.0, "bike_id": "58d0f8a8daad96b0306520cde06a980d", "is_disabled": 0, "is_reserved": 0}, {"rental_uris": {"ios": "https://dc.lft.to/lastmile_qr_scan", "android": "https://dc.lft.to/lastmile_qr_scan"}, "lon": -76.98714616666666, "type": "electric_scooter", "fusion_lat": 0.0, "lat": 38.86704133333333, "name": "bef4e4ca29107adb966db0452291fa9f", "fusion_lon": 0.0, "bike_id": "bef4e4ca29107adb966db0452291fa9f", "is_disabled": 0, "is_reserved": 0}, {"rental_uris": {"ios": "https://dc.lft.to/lastmile_qr_scan", "android": "https://dc.lft.to/lastmile_qr_scan"}, "lon": -77.02211066666666, "type": "electric_scooter", "fusion_lat": 0.0, "lat": 38.92230983333334, "name": "5816cec8770adfe1c9c314aeafcb377c", "fusion_lon": 0.0, "bike_id": "5816cec8770adfe1c9c314aeafcb377c", "is_disabled": 0, "is_reserved": 0}, {"rental_uris": {"ios": "https://dc.lft.to/lastmile_qr_scan", "android": "https://dc.lft.to/lastmile_qr_scan"}, "lon": -77.05328383333334, "type": "electric_scooter", "fusion_lat": 0.0, "lat": 38.90021316666667, "name": "70fa782a42e945d84cff97942591c4ac", "fusion_lon": 0.0, "bike_id": "70fa782a42e945d84cff97942591c4ac", "is_disabled": 0, "is_reserved": 0}, {"rental_uris": {"ios": "https://dc.lft.to/lastmile_qr_scan", "android": "https://dc.lft.to/lastmile_qr_scan"}, "lon": -77.00927633333333, "type": "electric_scooter", "fusion_lat": 0.0, "lat": 38.902439333333334, "name": "05db3875b54aff56bfcffeb84a06a0d7", "fusion_lon": 0.0, "bike_id": "05db3875b54aff56bfcffeb84a06a0d7", "is_disabled": 0, "is_reserved": 0}, {"rental_uris": {"ios": "https://dc.lft.to/lastmile_qr_scan", "android": "https://dc.lft.to/lastmile_qr_scan"}, "lon": -77.00900416666667, "type": "electric_scooter", "fusion_lat": 0.0, "lat": 38.89771266666666, "name": "b2f8eea4b78a1db6702213b25210d079", "fusion_lon": 0.0, "bike_id": "b2f8eea4b78a1db6702213b25210d079", "is_disabled": 0, "is_reserved": 0}, {"rental_uris": {"ios": "https://dc.lft.to/lastmile_qr_scan", "android": "https://dc.lft.to/lastmile_qr_scan"}, "lon": -77.0410405, "type": "electric_scooter", "fusion_lat": 0.0, "lat": 38.917768333333335, "name": "d827c5c9ff423b3aed46332f7f531f33", "fusion_lon": 0.0, "bike_id": "d827c5c9ff423b3aed46332f7f531f33", "is_disabled": 0, "is_reserved": 0}, {"rental_uris": {"ios": "https://dc.lft.to/lastmile_qr_scan", "android": "https://dc.lft.to/lastmile_qr_scan"}, "lon": -77.0336795, "type": "electric_scooter", "fusion_lat": 0.0, "lat": 38.8996675, "name": "74a9e2e5ee92579de3f5d6269d5d871d", "fusion_lon": 0.0, "bike_id": "74a9e2e5ee92579de3f5d6269d5d871d", "is_disabled": 0, "is_reserved": 0}, {"rental_uris": {"ios": "https://dc.lft.to/lastmile_qr_scan", "android": "https://dc.lft.to/lastmile_qr_scan"}, "lon": -77.032307, "type": "electric_scooter", "fusion_lat": 0.0, "lat": 38.8962135, "name": "00f7b0f35481b6b1e23ea77e07b7935e", "fusion_lon": 0.0, "bike_id": "00f7b0f35481b6b1e23ea77e07b7935e", "is_disabled": 0, "is_reserved": 0}, {"rental_uris": {"ios": "https://dc.lft.to/lastmile_qr_scan", "android": "https://dc.lft.to/lastmile_qr_scan"}, "lon": -77.0207435, "type": "electric_scooter", "fusion_lat": 0.0, "lat": 38.91553616666667, "name": "a4860ed938b2abea2658d255f66ff9d4", "fusion_lon": 0.0, "bike_id": "a4860ed938b2abea2658d255f66ff9d4", "is_disabled": 0, "is_reserved": 0}, {"rental_uris": {"ios": "https://dc.lft.to/lastmile_qr_scan", "android": "https://dc.lft.to/lastmile_qr_scan"}, "lon": -77.00207183333333, "type": "electric_bike", "fusion_lat": 0.0, "lat": 38.941569, "name": "b052436e6cb7405b7a0d6efcf365169a", "fusion_lon": 0.0, "bike_id": "b052436e6cb7405b7a0d6efcf365169a", "is_disabled": 0, "is_reserved": 0}, {"rental_uris": {"ios": "https://dc.lft.to/lastmile_qr_scan", "android": "https://dc.lft.to/lastmile_qr_scan"}, "lon": -77.017643, "type": "electric_scooter", "fusion_lat": 0.0, "lat": 38.887266, "name": "f29004f5c3676aecc5d5db63b1b3a055", "fusion_lon": 0.0, "bike_id": "f29004f5c3676aecc5d5db63b1b3a055", "is_disabled": 0, "is_reserved": 0}, {"rental_uris": {"ios": "https://dc.lft.to/lastmile_qr_scan", "android": "https://dc.lft.to/lastmile_qr_scan"}, "lon": -76.97985466666667, "type": "electric_bike", "fusion_lat": 0.0, "lat": 38.877605, "name": "cc96b6af9d8864dbcf01ee5c135566fc", "fusion_lon": 0.0, "bike_id": "cc96b6af9d8864dbcf01ee5c135566fc", "is_disabled": 0, "is_reserved": 0}, {"rental_uris": {"ios": "https://dc.lft.to/lastmile_qr_scan", "android": "https://dc.lft.to/lastmile_qr_scan"}, "lon": -77.02818783333333, "type": "electric_scooter", "fusion_lat": 0.0, "lat": 38.89843316666666, "name": "16171b63a9a4ab8ddf15095b5b43d67a", "fusion_lon": 0.0, "bike_id": "16171b63a9a4ab8ddf15095b5b43d67a", "is_disabled": 0, "is_reserved": 0}, {"rental_uris": {"ios": "https://dc.lft.to/lastmile_qr_scan", "android": "https://dc.lft.to/lastmile_qr_scan"}, "lon": -77.3609815, "type": "electric_bike", "fusion_lat": 0.0, "lat": 38.939584833333335, "name": "91cf431e131a74f7227e43039e88c065", "fusion_lon": 0.0, "bike_id": "91cf431e131a74f7227e43039e88c065", "is_disabled": 0, "is_reserved": 0}, {"rental_uris": {"ios": "https://dc.lft.to/lastmile_qr_scan", "android": "https://dc.lft.to/lastmile_qr_scan"}, "lon": -77.04487833333333, "type": "electric_scooter", "fusion_lat": 0.0, "lat": 38.90019133333333, "name": "aab78526d8e4e5a65b196a9a4543768b", "fusion_lon": 0.0, "bike_id": "aab78526d8e4e5a65b196a9a4543768b", "is_disabled": 0, "is_reserved": 0}, {"rental_uris": {"ios": "https://dc.lft.to/lastmile_qr_scan", "android": "https://dc.lft.to/lastmile_qr_scan"}, "lon": -77.061037, "type": "electric_scooter", "fusion_lat": 0.0, "lat": 38.937056, "name": "46922f48d4fbf67580deed5e4be9fe08", "fusion_lon": 0.0, "bike_id": "46922f48d4fbf67580deed5e4be9fe08", "is_disabled": 0, "is_reserved": 0}, {"rental_uris": {"ios": "https://dc.lft.to/lastmile_qr_scan", "android": "https://dc.lft.to/lastmile_qr_scan"}, "lon": -76.99667483333333, "type": "electric_scooter", "fusion_lat": 0.0, "lat": 38.910155833333334, "name": "dbb2b56150de2a281a9ebcc42aba4550", "fusion_lon": 0.0, "bike_id": "dbb2b56150de2a281a9ebcc42aba4550", "is_disabled": 0, "is_reserved": 0}, {"rental_uris": {"ios": "https://dc.lft.to/lastmile_qr_scan", "android": "https://dc.lft.to/lastmile_qr_scan"}, "lon": -76.9952255, "type": "electric_scooter", "fusion_lat": 0.0, "lat": 38.894894, "name": "4e1adcf998a40063fa23abae2ce671f6", "fusion_lon": 0.0, "bike_id": "4e1adcf998a40063fa23abae2ce671f6", "is_disabled": 0, "is_reserved": 0}, {"rental_uris": {"ios": "https://dc.lft.to/lastmile_qr_scan", "android": "https://dc.lft.to/lastmile_qr_scan"}, "lon": -77.00806883333334, "type": "electric_bike", "fusion_lat": 0.0, "lat": 38.92668066666667, "name": "6c2bd9cd1d8293ce0aaf0bb7c0aa8990", "fusion_lon": 0.0, "bike_id": "6c2bd9cd1d8293ce0aaf0bb7c0aa8990", "is_disabled": 0, "is_reserved": 0}, {"rental_uris": {"ios": "https://dc.lft.to/lastmile_qr_scan", "android": "https://dc.lft.to/lastmile_qr_scan"}, "lon": -77.0272355, "type": "electric_scooter", "fusion_lat": 0.0, "lat": 38.9343135, "name": "d2803f833f9375938a98fdadfa9dc5fd", "fusion_lon": 0.0, "bike_id": "d2803f833f9375938a98fdadfa9dc5fd", "is_disabled": 0, "is_reserved": 0}, {"rental_uris": {"ios": "https://dc.lft.to/lastmile_qr_scan", "android": "https://dc.lft.to/lastmile_qr_scan"}, "lon": -76.9472145, "type": "electric_scooter", "fusion_lat": 0.0, "lat": 38.89736333333333, "name": "bb60c85786916a6881194247ae93edb6", "fusion_lon": 0.0, "bike_id": "bb60c85786916a6881194247ae93edb6", "is_disabled": 0, "is_reserved": 0}, {"rental_uris": {"ios": "https://dc.lft.to/lastmile_qr_scan", "android": "https://dc.lft.to/lastmile_qr_scan"}, "lon": -76.98656233333334, "type": "electric_scooter", "fusion_lat": 0.0, "lat": 38.858071833333334, "name": "71441ed3b1a4d67fd5510baa2e9b27f4", "fusion_lon": 0.0, "bike_id": "71441ed3b1a4d67fd5510baa2e9b27f4", "is_disabled": 0, "is_reserved": 0}, {"rental_uris": {"ios": "https://dc.lft.to/lastmile_qr_scan", "android": "https://dc.lft.to/lastmile_qr_scan"}, "lon": -76.996129, "type": "electric_scooter", "fusion_lat": 0.0, "lat": 38.897479, "name": "b4b6c178bffd2d0dfb1e982aed3d2f4e", "fusion_lon": 0.0, "bike_id": "b4b6c178bffd2d0dfb1e982aed3d2f4e", "is_disabled": 0, "is_reserved": 0}, {"rental_uris": {"ios": "https://dc.lft.to/lastmile_qr_scan", "android": "https://dc.lft.to/lastmile_qr_scan"}, "lon": -77.04672566666666, "type": "electric_scooter", "fusion_lat": 0.0, "lat": 38.907582833333336, "name": "97bada838af0d218589a2123b8b02751", "fusion_lon": 0.0, "bike_id": "97bada838af0d218589a2123b8b02751", "is_disabled": 0, "is_reserved": 0}, {"rental_uris": {"ios": "https://dc.lft.to/lastmile_qr_scan", "android": "https://dc.lft.to/lastmile_qr_scan"}, "lon": -76.984416, "type": "electric_scooter", "fusion_lat": 0.0, "lat": 38.914598833333336, "name": "2d5ce33f12d5ecd4a479e6674f8e5188", "fusion_lon": 0.0, "bike_id": "2d5ce33f12d5ecd4a479e6674f8e5188", "is_disabled": 0, "is_reserved": 0}, {"rental_uris": {"ios": "https://dc.lft.to/lastmile_qr_scan", "android": "https://dc.lft.to/lastmile_qr_scan"}, "lon": -77.00195716666667, "type": "electric_scooter", "fusion_lat": 0.0, "lat": 38.90038, "name": "6c6f5c8caabe32808a0d4455b5c65a23", "fusion_lon": 0.0, "bike_id": "6c6f5c8caabe32808a0d4455b5c65a23", "is_disabled": 0, "is_reserved": 0}, {"rental_uris": {"ios": "https://dc.lft.to/lastmile_qr_scan", "android": "https://dc.lft.to/lastmile_qr_scan"}, "lon": -77.048653, "type": "electric_scooter", "fusion_lat": 0.0, "lat": 38.909423, "name": "c3a9f6536f7ff67db616d91b876feff4", "fusion_lon": 0.0, "bike_id": "c3a9f6536f7ff67db616d91b876feff4", "is_disabled": 0, "is_reserved": 0}, {"rental_uris": {"ios": "https://dc.lft.to/lastmile_qr_scan", "android": "https://dc.lft.to/lastmile_qr_scan"}, "lon": -77.01124533333333, "type": "electric_scooter", "fusion_lat": 0.0, "lat": 38.911841833333334, "name": "3961390b1192e8b14ae9e7c9d2a8706e", "fusion_lon": 0.0, "bike_id": "3961390b1192e8b14ae9e7c9d2a8706e", "is_disabled": 0, "is_reserved": 0}, {"rental_uris": {"ios": "https://dc.lft.to/lastmile_qr_scan", "android": "https://dc.lft.to/lastmile_qr_scan"}, "lon": -77.03218033333333, "type": "electric_scooter", "fusion_lat": 0.0, "lat": 38.914050333333336, "name": "5befb3a702f7552727d8667396f2e2e2", "fusion_lon": 0.0, "bike_id": "5befb3a702f7552727d8667396f2e2e2", "is_disabled": 0, "is_reserved": 0}, {"rental_uris": {"ios": "https://dc.lft.to/lastmile_qr_scan", "android": "https://dc.lft.to/lastmile_qr_scan"}, "lon": -77.04218733333333, "type": "electric_scooter", "fusion_lat": 0.0, "lat": 38.9140585, "name": "36d5cf2f0b72f8ec5d27fb39c3f7c26f", "fusion_lon": 0.0, "bike_id": "36d5cf2f0b72f8ec5d27fb39c3f7c26f", "is_disabled": 0, "is_reserved": 0}, {"rental_uris": {"ios": "https://dc.lft.to/lastmile_qr_scan", "android": "https://dc.lft.to/lastmile_qr_scan"}, "lon": -76.9916335, "type": "electric_scooter", "fusion_lat": 0.0, "lat": 38.893427833333334, "name": "d5f00b884fed43c9b6c6041f0e9f8b4a", "fusion_lon": 0.0, "bike_id": "d5f00b884fed43c9b6c6041f0e9f8b4a", "is_disabled": 0, "is_reserved": 0}, {"rental_uris": {"ios": "https://dc.lft.to/lastmile_qr_scan", "android": "https://dc.lft.to/lastmile_qr_scan"}, "lon": -76.99369833333333, "type": "electric_scooter", "fusion_lat": 0.0, "lat": 38.900398, "name": "ea1808cc379ed58af6b1dbb97d56ffb8", "fusion_lon": 0.0, "bike_id": "ea1808cc379ed58af6b1dbb97d56ffb8", "is_disabled": 0, "is_reserved": 0}, {"rental_uris": {"ios": "https://dc.lft.to/lastmile_qr_scan", "android": "https://dc.lft.to/lastmile_qr_scan"}, "lon": -77.020023, "type": "electric_scooter", "fusion_lat": 0.0, "lat": 38.905539833333336, "name": "56c779bcc2c1ef4244e52ac1eab2525d", "fusion_lon": 0.0, "bike_id": "56c779bcc2c1ef4244e52ac1eab2525d", "is_disabled": 0, "is_reserved": 0}, {"rental_uris": {"ios": "https://dc.lft.to/lastmile_qr_scan", "android": "https://dc.lft.to/lastmile_qr_scan"}, "lon": -77.04813383333334, "type": "electric_scooter", "fusion_lat": 0.0, "lat": 38.89723933333333, "name": "8d3f0c70b9adf7e8f7ba998ffcb53ba6", "fusion_lon": 0.0, "bike_id": "8d3f0c70b9adf7e8f7ba998ffcb53ba6", "is_disabled": 0, "is_reserved": 0}, {"rental_uris": {"ios": "https://dc.lft.to/lastmile_qr_scan", "android": "https://dc.lft.to/lastmile_qr_scan"}, "lon": -77.04823983333333, "type": "electric_scooter", "fusion_lat": 0.0, "lat": 38.900518, "name": "a6cc86408c71bcbb8ca5aa72e12fd998", "fusion_lon": 0.0, "bike_id": "a6cc86408c71bcbb8ca5aa72e12fd998", "is_disabled": 0, "is_reserved": 0}, {"rental_uris": {"ios": "https://dc.lft.to/lastmile_qr_scan", "android": "https://dc.lft.to/lastmile_qr_scan"}, "lon": -77.012162, "type": "electric_scooter", "fusion_lat": 0.0, "lat": 38.920387, "name": "79084909dc1556523362a61d4b66e0eb", "fusion_lon": 0.0, "bike_id": "79084909dc1556523362a61d4b66e0eb", "is_disabled": 0, "is_reserved": 0}, {"rental_uris": {"ios": "https://dc.lft.to/lastmile_qr_scan", "android": "https://dc.lft.to/lastmile_qr_scan"}, "lon": -77.04380916666666, "type": "electric_scooter", "fusion_lat": 0.0, "lat": 38.92070016666667, "name": "796f3b7f37cd6f140ff207889b88bb85", "fusion_lon": 0.0, "bike_id": "796f3b7f37cd6f140ff207889b88bb85", "is_disabled": 0, "is_reserved": 0}, {"rental_uris": {"ios": "https://dc.lft.to/lastmile_qr_scan", "android": "https://dc.lft.to/lastmile_qr_scan"}, "lon": -77.04534783333334, "type": "electric_scooter", "fusion_lat": 0.0, "lat": 38.9037815, "name": "b6ca31e1a717ac36cf360f908b140c01", "fusion_lon": 0.0, "bike_id": "b6ca31e1a717ac36cf360f908b140c01", "is_disabled": 0, "is_reserved": 0}, {"rental_uris": {"ios": "https://dc.lft.to/lastmile_qr_scan", "android": "https://dc.lft.to/lastmile_qr_scan"}, "lon": -76.89543633333334, "type": "electric_bike", "fusion_lat": 0.0, "lat": 38.945545333333335, "name": "02455ed6152bd9aa4c852f839e4a7673", "fusion_lon": 0.0, "bike_id": "02455ed6152bd9aa4c852f839e4a7673", "is_disabled": 0, "is_reserved": 0}, {"rental_uris": {"ios": "https://dc.lft.to/lastmile_qr_scan", "android": "https://dc.lft.to/lastmile_qr_scan"}, "lon": -77.02978, "type": "electric_scooter", "fusion_lat": 0.0, "lat": 38.91628566666667, "name": "1a93fcf2e955dfc015d0f6df7420c633", "fusion_lon": 0.0, "bike_id": "1a93fcf2e955dfc015d0f6df7420c633", "is_disabled": 0, "is_reserved": 0}, {"rental_uris": {"ios": "https://dc.lft.to/lastmile_qr_scan", "android": "https://dc.lft.to/lastmile_qr_scan"}, "lon": -77.096718, "type": "electric_scooter", "fusion_lat": 0.0, "lat": 38.91764783333333, "name": "4693f9fd4ac4422594426a2edd6a26b7", "fusion_lon": 0.0, "bike_id": "4693f9fd4ac4422594426a2edd6a26b7", "is_disabled": 0, "is_reserved": 0}, {"rental_uris": {"ios": "https://dc.lft.to/lastmile_qr_scan", "android": "https://dc.lft.to/lastmile_qr_scan"}, "lon": -77.031897, "type": "electric_scooter", "fusion_lat": 0.0, "lat": 38.91813533333333, "name": "a28baa79fcaad181d0b8b0ed71d5bfee", "fusion_lon": 0.0, "bike_id": "a28baa79fcaad181d0b8b0ed71d5bfee", "is_disabled": 0, "is_reserved": 0}, {"rental_uris": {"ios": "https://dc.lft.to/lastmile_qr_scan", "android": "https://dc.lft.to/lastmile_qr_scan"}, "lon": -77.03467866666666, "type": "electric_scooter", "fusion_lat": 0.0, "lat": 38.91183633333333, "name": "39f3b55eac3e505328bbcb97a34d4881", "fusion_lon": 0.0, "bike_id": "39f3b55eac3e505328bbcb97a34d4881", "is_disabled": 0, "is_reserved": 0}, {"rental_uris": {"ios": "https://dc.lft.to/lastmile_qr_scan", "android": "https://dc.lft.to/lastmile_qr_scan"}, "lon": -76.98882516666667, "type": "electric_scooter", "fusion_lat": 0.0, "lat": 38.86659933333333, "name": "54ab15003338ddd386d8ade3b98e0b29", "fusion_lon": 0.0, "bike_id": "54ab15003338ddd386d8ade3b98e0b29", "is_disabled": 0, "is_reserved": 0}, {"rental_uris": {"ios": "https://dc.lft.to/lastmile_qr_scan", "android": "https://dc.lft.to/lastmile_qr_scan"}, "lon": -77.0323105, "type": "electric_scooter", "fusion_lat": 0.0, "lat": 38.9086965, "name": "1e25c7279cc987ba5abad71e678f14c5", "fusion_lon": 0.0, "bike_id": "1e25c7279cc987ba5abad71e678f14c5", "is_disabled": 0, "is_reserved": 0}, {"rental_uris": {"ios": "https://dc.lft.to/lastmile_qr_scan", "android": "https://dc.lft.to/lastmile_qr_scan"}, "lon": -77.046905, "type": "electric_scooter", "fusion_lat": 0.0, "lat": 38.896087333333334, "name": "ac5ccb5339916b9b8b84d2e9acdd8bdd", "fusion_lon": 0.0, "bike_id": "ac5ccb5339916b9b8b84d2e9acdd8bdd", "is_disabled": 0, "is_reserved": 0}, {"rental_uris": {"ios": "https://dc.lft.to/lastmile_qr_scan", "android": "https://dc.lft.to/lastmile_qr_scan"}, "lon": -77.01067866666666, "type": "electric_scooter", "fusion_lat": 0.0, "lat": 38.875766666666664, "name": "2949330a8a87285941b02bab013259e5", "fusion_lon": 0.0, "bike_id": "2949330a8a87285941b02bab013259e5", "is_disabled": 0, "is_reserved": 0}, {"rental_uris": {"ios": "https://dc.lft.to/lastmile_qr_scan", "android": "https://dc.lft.to/lastmile_qr_scan"}, "lon": -76.9770365, "type": "electric_scooter", "fusion_lat": 0.0, "lat": 38.90251716666667, "name": "32eb1460691a205e6f1e6d23d2ac91eb", "fusion_lon": 0.0, "bike_id": "32eb1460691a205e6f1e6d23d2ac91eb", "is_disabled": 0, "is_reserved": 0}, {"rental_uris": {"ios": "https://dc.lft.to/lastmile_qr_scan", "android": "https://dc.lft.to/lastmile_qr_scan"}, "lon": -77.03287233333333, "type": "electric_scooter", "fusion_lat": 0.0, "lat": 38.93492116666667, "name": "d6e7c2d8d8227d76e18222ad6d3b5993", "fusion_lon": 0.0, "bike_id": "d6e7c2d8d8227d76e18222ad6d3b5993", "is_disabled": 0, "is_reserved": 0}, {"rental_uris": {"ios": "https://dc.lft.to/lastmile_qr_scan", "android": "https://dc.lft.to/lastmile_qr_scan"}, "lon": -76.93742583333334, "type": "electric_scooter", "fusion_lat": 0.0, "lat": 38.91283766666667, "name": "fa16186986d011698fcdaa0ac3ef5a63", "fusion_lon": 0.0, "bike_id": "fa16186986d011698fcdaa0ac3ef5a63", "is_disabled": 0, "is_reserved": 0}, {"rental_uris": {"ios": "https://dc.lft.to/lastmile_qr_scan", "android": "https://dc.lft.to/lastmile_qr_scan"}, "lon": -77.022328, "type": "electric_scooter", "fusion_lat": 0.0, "lat": 38.89194583333333, "name": "d86e704e33e3943559b5108f8ffc59a7", "fusion_lon": 0.0, "bike_id": "d86e704e33e3943559b5108f8ffc59a7", "is_disabled": 0, "is_reserved": 0}, {"rental_uris": {"ios": "https://dc.lft.to/lastmile_qr_scan", "android": "https://dc.lft.to/lastmile_qr_scan"}, "lon": -77.04263266666666, "type": "electric_scooter", "fusion_lat": 0.0, "lat": 38.9205955, "name": "65ca07ea311ef07a7ff718e7d0720fda", "fusion_lon": 0.0, "bike_id": "65ca07ea311ef07a7ff718e7d0720fda", "is_disabled": 0, "is_reserved": 0}, {"rental_uris": {"ios": "https://dc.lft.to/lastmile_qr_scan", "android": "https://dc.lft.to/lastmile_qr_scan"}, "lon": -76.985778, "type": "electric_scooter", "fusion_lat": 0.0, "lat": 38.8995865, "name": "008cc02a1f7594ffaa74b6ff93ea4e9f", "fusion_lon": 0.0, "bike_id": "008cc02a1f7594ffaa74b6ff93ea4e9f", "is_disabled": 0, "is_reserved": 0}, {"rental_uris": {"ios": "https://dc.lft.to/lastmile_qr_scan", "android": "https://dc.lft.to/lastmile_qr_scan"}, "lon": -77.041758, "type": "electric_scooter", "fusion_lat": 0.0, "lat": 38.91400433333333, "name": "bc836846df5df50a4e60f489d8f5c474", "fusion_lon": 0.0, "bike_id": "bc836846df5df50a4e60f489d8f5c474", "is_disabled": 0, "is_reserved": 0}, {"rental_uris": {"ios": "https://dc.lft.to/lastmile_qr_scan", "android": "https://dc.lft.to/lastmile_qr_scan"}, "lon": -77.04480133333334, "type": "electric_scooter", "fusion_lat": 0.0, "lat": 38.91222833333333, "name": "68af8250f85f187cb0a6df41ab2727a2", "fusion_lon": 0.0, "bike_id": "68af8250f85f187cb0a6df41ab2727a2", "is_disabled": 0, "is_reserved": 0}, {"rental_uris": {"ios": "https://dc.lft.to/lastmile_qr_scan", "android": "https://dc.lft.to/lastmile_qr_scan"}, "lon": -77.00204916666667, "type": "electric_bike", "fusion_lat": 0.0, "lat": 38.8830765, "name": "451f36c2dc8615f231d97ac8cd80c710", "fusion_lon": 0.0, "bike_id": "451f36c2dc8615f231d97ac8cd80c710", "is_disabled": 0, "is_reserved": 0}, {"rental_uris": {"ios": "https://dc.lft.to/lastmile_qr_scan", "android": "https://dc.lft.to/lastmile_qr_scan"}, "lon": -77.02381333333334, "type": "electric_scooter", "fusion_lat": 0.0, "lat": 38.8997545, "name": "1f38285963d5d620e4fc0696b407a751", "fusion_lon": 0.0, "bike_id": "1f38285963d5d620e4fc0696b407a751", "is_disabled": 0, "is_reserved": 0}, {"rental_uris": {"ios": "https://dc.lft.to/lastmile_qr_scan", "android": "https://dc.lft.to/lastmile_qr_scan"}, "lon": -76.99495216666666, "type": "electric_scooter", "fusion_lat": 0.0, "lat": 38.862432, "name": "abcb1fcccf69df8eec26a9be9b8e76f2", "fusion_lon": 0.0, "bike_id": "abcb1fcccf69df8eec26a9be9b8e76f2", "is_disabled": 0, "is_reserved": 0}, {"rental_uris": {"ios": "https://dc.lft.to/lastmile_qr_scan", "android": "https://dc.lft.to/lastmile_qr_scan"}, "lon": -77.0335805, "type": "electric_bike", "fusion_lat": 0.0, "lat": 38.96807283333333, "name": "18abd586af413ecdc2c357d99710380a", "fusion_lon": 0.0, "bike_id": "18abd586af413ecdc2c357d99710380a", "is_disabled": 0, "is_reserved": 0}, {"rental_uris": {"ios": "https://dc.lft.to/lastmile_qr_scan", "android": "https://dc.lft.to/lastmile_qr_scan"}, "lon": -77.04684833333333, "type": "electric_scooter", "fusion_lat": 0.0, "lat": 38.8960325, "name": "16df0af1f66db3d092ce8003f1a39dcd", "fusion_lon": 0.0, "bike_id": "16df0af1f66db3d092ce8003f1a39dcd", "is_disabled": 0, "is_reserved": 0}, {"rental_uris": {"ios": "https://dc.lft.to/lastmile_qr_scan", "android": "https://dc.lft.to/lastmile_qr_scan"}, "lon": -76.9868285, "type": "electric_scooter", "fusion_lat": 0.0, "lat": 38.882084666666664, "name": "d8a742ee5fb3d8796285eb4a5ca868a8", "fusion_lon": 0.0, "bike_id": "d8a742ee5fb3d8796285eb4a5ca868a8", "is_disabled": 0, "is_reserved": 0}, {"rental_uris": {"ios": "https://dc.lft.to/lastmile_qr_scan", "android": "https://dc.lft.to/lastmile_qr_scan"}, "lon": -77.047862, "type": "electric_scooter", "fusion_lat": 0.0, "lat": 38.908518, "name": "eaeb2108a49d0faff44f634e4207ac03", "fusion_lon": 0.0, "bike_id": "eaeb2108a49d0faff44f634e4207ac03", "is_disabled": 0, "is_reserved": 0}, {"rental_uris": {"ios": "https://dc.lft.to/lastmile_qr_scan", "android": "https://dc.lft.to/lastmile_qr_scan"}, "lon": -77.0320365, "type": "electric_scooter", "fusion_lat": 0.0, "lat": 38.90774116666667, "name": "5eb8e6903909f9aa68062a221356d855", "fusion_lon": 0.0, "bike_id": "5eb8e6903909f9aa68062a221356d855", "is_disabled": 0, "is_reserved": 0}, {"rental_uris": {"ios": "https://dc.lft.to/lastmile_qr_scan", "android": "https://dc.lft.to/lastmile_qr_scan"}, "lon": -77.03864966666667, "type": "electric_scooter", "fusion_lat": 0.0, "lat": 38.91556333333333, "name": "b319489a689e4ce79a95371f94170bf2", "fusion_lon": 0.0, "bike_id": "b319489a689e4ce79a95371f94170bf2", "is_disabled": 0, "is_reserved": 0}, {"rental_uris": {"ios": "https://dc.lft.to/lastmile_qr_scan", "android": "https://dc.lft.to/lastmile_qr_scan"}, "lon": -77.031719, "type": "electric_scooter", "fusion_lat": 0.0, "lat": 38.911196833333335, "name": "09071c896aa551cf0bc4ef4ed3bf045c", "fusion_lon": 0.0, "bike_id": "09071c896aa551cf0bc4ef4ed3bf045c", "is_disabled": 0, "is_reserved": 0}, {"rental_uris": {"ios": "https://dc.lft.to/lastmile_qr_scan", "android": "https://dc.lft.to/lastmile_qr_scan"}, "lon": -77.03129716666666, "type": "electric_scooter", "fusion_lat": 0.0, "lat": 38.91337216666667, "name": "28ea9acd1a2a212f809aaf35d82fdbb0", "fusion_lon": 0.0, "bike_id": "28ea9acd1a2a212f809aaf35d82fdbb0", "is_disabled": 0, "is_reserved": 0}, {"rental_uris": {"ios": "https://dc.lft.to/lastmile_qr_scan", "android": "https://dc.lft.to/lastmile_qr_scan"}, "lon": -77.0289975, "type": "electric_scooter", "fusion_lat": 0.0, "lat": 38.92571933333333, "name": "dd66a30734e4ad93c1bea05f7a69a052", "fusion_lon": 0.0, "bike_id": "dd66a30734e4ad93c1bea05f7a69a052", "is_disabled": 0, "is_reserved": 0}, {"rental_uris": {"ios": "https://dc.lft.to/lastmile_qr_scan", "android": "https://dc.lft.to/lastmile_qr_scan"}, "lon": -77.05886766666667, "type": "electric_scooter", "fusion_lat": 0.0, "lat": 38.9363585, "name": "b0b3e5c468add5e8e14893037985356f", "fusion_lon": 0.0, "bike_id": "b0b3e5c468add5e8e14893037985356f", "is_disabled": 0, "is_reserved": 0}, {"rental_uris": {"ios": "https://dc.lft.to/lastmile_qr_scan", "android": "https://dc.lft.to/lastmile_qr_scan"}, "lon": -76.99253316666666, "type": "electric_scooter", "fusion_lat": 0.0, "lat": 38.91973483333334, "name": "df8ba2f64ac18fddddb0f2d59753f620", "fusion_lon": 0.0, "bike_id": "df8ba2f64ac18fddddb0f2d59753f620", "is_disabled": 0, "is_reserved": 0}, {"rental_uris": {"ios": "https://dc.lft.to/lastmile_qr_scan", "android": "https://dc.lft.to/lastmile_qr_scan"}, "lon": -77.11524916666667, "type": "electric_bike", "fusion_lat": 0.0, "lat": 38.8549355, "name": "c3bef61c406ea6fc32f7ed8d3b21ef1d", "fusion_lon": 0.0, "bike_id": "c3bef61c406ea6fc32f7ed8d3b21ef1d", "is_disabled": 0, "is_reserved": 0}, {"rental_uris": {"ios": "https://dc.lft.to/lastmile_qr_scan", "android": "https://dc.lft.to/lastmile_qr_scan"}, "lon": -77.00747683333333, "type": "electric_scooter", "fusion_lat": 0.0, "lat": 38.878378166666664, "name": "f94413dd7be1bfa6c8b940ebd91f7064", "fusion_lon": 0.0, "bike_id": "f94413dd7be1bfa6c8b940ebd91f7064", "is_disabled": 0, "is_reserved": 0}, {"rental_uris": {"ios": "https://dc.lft.to/lastmile_qr_scan", "android": "https://dc.lft.to/lastmile_qr_scan"}, "lon": -77.04474983333333, "type": "electric_scooter", "fusion_lat": 0.0, "lat": 38.911226166666665, "name": "778ac37490ac8f575f2aa2ea79441b17", "fusion_lon": 0.0, "bike_id": "778ac37490ac8f575f2aa2ea79441b17", "is_disabled": 0, "is_reserved": 0}, {"rental_uris": {"ios": "https://dc.lft.to/lastmile_qr_scan", "android": "https://dc.lft.to/lastmile_qr_scan"}, "lon": -76.98196283333333, "type": "electric_scooter", "fusion_lat": 0.0, "lat": 38.90394166666667, "name": "a4ff5064b7e7608954576aed703a8661", "fusion_lon": 0.0, "bike_id": "a4ff5064b7e7608954576aed703a8661", "is_disabled": 0, "is_reserved": 0}, {"rental_uris": {"ios": "https://dc.lft.to/lastmile_qr_scan", "android": "https://dc.lft.to/lastmile_qr_scan"}, "lon": -77.02384333333333, "type": "electric_scooter", "fusion_lat": 0.0, "lat": 38.937560166666664, "name": "33293476655f6b65c746273b2cdec980", "fusion_lon": 0.0, "bike_id": "33293476655f6b65c746273b2cdec980", "is_disabled": 0, "is_reserved": 0}, {"rental_uris": {"ios": "https://dc.lft.to/lastmile_qr_scan", "android": "https://dc.lft.to/lastmile_qr_scan"}, "lon": -77.03175766666666, "type": "electric_scooter", "fusion_lat": 0.0, "lat": 38.8873625, "name": "978d36ae025b1b325d95d8871f200518", "fusion_lon": 0.0, "bike_id": "978d36ae025b1b325d95d8871f200518", "is_disabled": 0, "is_reserved": 0}, {"rental_uris": {"ios": "https://dc.lft.to/lastmile_qr_scan", "android": "https://dc.lft.to/lastmile_qr_scan"}, "lon": -77.02864566666666, "type": "electric_scooter", "fusion_lat": 0.0, "lat": 38.89841033333333, "name": "503ff64c912176466f1f8a55bc61c869", "fusion_lon": 0.0, "bike_id": "503ff64c912176466f1f8a55bc61c869", "is_disabled": 0, "is_reserved": 0}, {"rental_uris": {"ios": "https://dc.lft.to/lastmile_qr_scan", "android": "https://dc.lft.to/lastmile_qr_scan"}, "lon": -77.03141816666667, "type": "electric_scooter", "fusion_lat": 0.0, "lat": 38.911268, "name": "0881d4a7662e0fbf7468bff6bdeac68c", "fusion_lon": 0.0, "bike_id": "0881d4a7662e0fbf7468bff6bdeac68c", "is_disabled": 0, "is_reserved": 0}, {"rental_uris": {"ios": "https://dc.lft.to/lastmile_qr_scan", "android": "https://dc.lft.to/lastmile_qr_scan"}, "lon": -77.03855016666667, "type": "electric_scooter", "fusion_lat": 0.0, "lat": 38.926475, "name": "56807ea3018fc51883f62e4d3677855f", "fusion_lon": 0.0, "bike_id": "56807ea3018fc51883f62e4d3677855f", "is_disabled": 0, "is_reserved": 0}, {"rental_uris": {"ios": "https://dc.lft.to/lastmile_qr_scan", "android": "https://dc.lft.to/lastmile_qr_scan"}, "lon": -77.046297, "type": "electric_scooter", "fusion_lat": 0.0, "lat": 38.919025166666664, "name": "941bb2bb5d89a12507118ff3dff1a605", "fusion_lon": 0.0, "bike_id": "941bb2bb5d89a12507118ff3dff1a605", "is_disabled": 0, "is_reserved": 0}, {"rental_uris": {"ios": "https://dc.lft.to/lastmile_qr_scan", "android": "https://dc.lft.to/lastmile_qr_scan"}, "lon": -77.04325166666666, "type": "electric_scooter", "fusion_lat": 0.0, "lat": 38.91023166666667, "name": "3ba526f575abc7987fa377798d4f14e8", "fusion_lon": 0.0, "bike_id": "3ba526f575abc7987fa377798d4f14e8", "is_disabled": 0, "is_reserved": 0}, {"rental_uris": {"ios": "https://dc.lft.to/lastmile_qr_scan", "android": "https://dc.lft.to/lastmile_qr_scan"}, "lon": -77.0093915, "type": "electric_scooter", "fusion_lat": 0.0, "lat": 38.87199783333333, "name": "964f334714f475c9339c8c3279f2deba", "fusion_lon": 0.0, "bike_id": "964f334714f475c9339c8c3279f2deba", "is_disabled": 0, "is_reserved": 0}, {"rental_uris": {"ios": "https://dc.lft.to/lastmile_qr_scan", "android": "https://dc.lft.to/lastmile_qr_scan"}, "lon": -76.97456616666666, "type": "electric_scooter", "fusion_lat": 0.0, "lat": 38.8653865, "name": "eef9c4b64a92107af36bdb31487b8727", "fusion_lon": 0.0, "bike_id": "eef9c4b64a92107af36bdb31487b8727", "is_disabled": 0, "is_reserved": 0}, {"rental_uris": {"ios": "https://dc.lft.to/lastmile_qr_scan", "android": "https://dc.lft.to/lastmile_qr_scan"}, "lon": -77.03195383333333, "type": "electric_scooter", "fusion_lat": 0.0, "lat": 38.9001785, "name": "22a09681534f0a94affa58ebf6b69d2d", "fusion_lon": 0.0, "bike_id": "22a09681534f0a94affa58ebf6b69d2d", "is_disabled": 0, "is_reserved": 0}, {"rental_uris": {"ios": "https://dc.lft.to/lastmile_qr_scan", "android": "https://dc.lft.to/lastmile_qr_scan"}, "lon": -76.9906535, "type": "electric_scooter", "fusion_lat": 0.0, "lat": 38.863565333333334, "name": "6393369de19f6b54dbe49a5c991ca987", "fusion_lon": 0.0, "bike_id": "6393369de19f6b54dbe49a5c991ca987", "is_disabled": 0, "is_reserved": 0}, {"rental_uris": {"ios": "https://dc.lft.to/lastmile_qr_scan", "android": "https://dc.lft.to/lastmile_qr_scan"}, "lon": -77.04165016666667, "type": "electric_scooter", "fusion_lat": 0.0, "lat": 38.9161185, "name": "835d2a5063b4ae0ca7a2e4a56bd60a97", "fusion_lon": 0.0, "bike_id": "835d2a5063b4ae0ca7a2e4a56bd60a97", "is_disabled": 0, "is_reserved": 0}, {"rental_uris": {"ios": "https://dc.lft.to/lastmile_qr_scan", "android": "https://dc.lft.to/lastmile_qr_scan"}, "lon": -77.03404433333333, "type": "electric_scooter", "fusion_lat": 0.0, "lat": 38.921554, "name": "a4e2556326a18a43be26a905b06482a8", "fusion_lon": 0.0, "bike_id": "a4e2556326a18a43be26a905b06482a8", "is_disabled": 0, "is_reserved": 0}, {"rental_uris": {"ios": "https://dc.lft.to/lastmile_qr_scan", "android": "https://dc.lft.to/lastmile_qr_scan"}, "lon": -77.02225966666667, "type": "electric_scooter", "fusion_lat": 0.0, "lat": 38.91270466666667, "name": "76e78329b1f285c37a436f0b24a945c6", "fusion_lon": 0.0, "bike_id": "76e78329b1f285c37a436f0b24a945c6", "is_disabled": 0, "is_reserved": 0}, {"rental_uris": {"ios": "https://dc.lft.to/lastmile_qr_scan", "android": "https://dc.lft.to/lastmile_qr_scan"}, "lon": -76.98792583333334, "type": "electric_bike", "fusion_lat": 0.0, "lat": 38.90422266666667, "name": "4db3f9b201f810106ec11cd204d357b6", "fusion_lon": 0.0, "bike_id": "4db3f9b201f810106ec11cd204d357b6", "is_disabled": 0, "is_reserved": 0}, {"rental_uris": {"ios": "https://dc.lft.to/lastmile_qr_scan", "android": "https://dc.lft.to/lastmile_qr_scan"}, "lon": -77.0125195, "type": "electric_scooter", "fusion_lat": 0.0, "lat": 38.91710283333333, "name": "a3093473255c0a186185e4c6b7754231", "fusion_lon": 0.0, "bike_id": "a3093473255c0a186185e4c6b7754231", "is_disabled": 0, "is_reserved": 0}, {"rental_uris": {"ios": "https://dc.lft.to/lastmile_qr_scan", "android": "https://dc.lft.to/lastmile_qr_scan"}, "lon": -77.05988083333334, "type": "electric_scooter", "fusion_lat": 0.0, "lat": 38.935508666666664, "name": "e501acd214b3861ad9462de8d3439adf", "fusion_lon": 0.0, "bike_id": "e501acd214b3861ad9462de8d3439adf", "is_disabled": 0, "is_reserved": 0}, {"rental_uris": {"ios": "https://dc.lft.to/lastmile_qr_scan", "android": "https://dc.lft.to/lastmile_qr_scan"}, "lon": -77.05224383333334, "type": "electric_scooter", "fusion_lat": 0.0, "lat": 38.89817383333333, "name": "4bff8834b4addff9a1a1d4002f89124d", "fusion_lon": 0.0, "bike_id": "4bff8834b4addff9a1a1d4002f89124d", "is_disabled": 0, "is_reserved": 0}, {"rental_uris": {"ios": "https://dc.lft.to/lastmile_qr_scan", "android": "https://dc.lft.to/lastmile_qr_scan"}, "lon": -77.02963716666666, "type": "electric_scooter", "fusion_lat": 0.0, "lat": 38.92565783333333, "name": "a4da10cfbb0e7f08a77550ac7f7de719", "fusion_lon": 0.0, "bike_id": "a4da10cfbb0e7f08a77550ac7f7de719", "is_disabled": 0, "is_reserved": 0}, {"rental_uris": {"ios": "https://dc.lft.to/lastmile_qr_scan", "android": "https://dc.lft.to/lastmile_qr_scan"}, "lon": -77.00335283333334, "type": "electric_scooter", "fusion_lat": 0.0, "lat": 38.89727416666667, "name": "ea1996ec7a109afc8ac5aaa71ef1d33d", "fusion_lon": 0.0, "bike_id": "ea1996ec7a109afc8ac5aaa71ef1d33d", "is_disabled": 0, "is_reserved": 0}, {"rental_uris": {"ios": "https://dc.lft.to/lastmile_qr_scan", "android": "https://dc.lft.to/lastmile_qr_scan"}, "lon": -76.9546755, "type": "electric_bike", "fusion_lat": 0.0, "lat": 38.886371, "name": "42db42edae5361940e8896ba452853c4", "fusion_lon": 0.0, "bike_id": "42db42edae5361940e8896ba452853c4", "is_disabled": 0, "is_reserved": 0}, {"rental_uris": {"ios": "https://dc.lft.to/lastmile_qr_scan", "android": "https://dc.lft.to/lastmile_qr_scan"}, "lon": -77.01515933333333, "type": "electric_scooter", "fusion_lat": 0.0, "lat": 38.88737116666667, "name": "33e43a67f3ba7f8aabdecae055c00655", "fusion_lon": 0.0, "bike_id": "33e43a67f3ba7f8aabdecae055c00655", "is_disabled": 0, "is_reserved": 0}, {"rental_uris": {"ios": "https://dc.lft.to/lastmile_qr_scan", "android": "https://dc.lft.to/lastmile_qr_scan"}, "lon": -77.11798783333333, "type": "electric_bike", "fusion_lat": 0.0, "lat": 38.898363833333335, "name": "4197cd94527f3e74e3aafbe995c135cb", "fusion_lon": 0.0, "bike_id": "4197cd94527f3e74e3aafbe995c135cb", "is_disabled": 0, "is_reserved": 0}, {"rental_uris": {"ios": "https://dc.lft.to/lastmile_qr_scan", "android": "https://dc.lft.to/lastmile_qr_scan"}, "lon": -77.0220555, "type": "electric_scooter", "fusion_lat": 0.0, "lat": 38.909729666666664, "name": "e8ca3543e6770fe269f09d21360c5d23", "fusion_lon": 0.0, "bike_id": "e8ca3543e6770fe269f09d21360c5d23", "is_disabled": 0, "is_reserved": 0}, {"rental_uris": {"ios": "https://dc.lft.to/lastmile_qr_scan", "android": "https://dc.lft.to/lastmile_qr_scan"}, "lon": -77.11432633333334, "type": "electric_bike", "fusion_lat": 0.0, "lat": 38.852435666666665, "name": "27679b58e91e9d7d3af27aa023043de1", "fusion_lon": 0.0, "bike_id": "27679b58e91e9d7d3af27aa023043de1", "is_disabled": 0, "is_reserved": 0}, {"rental_uris": {"ios": "https://dc.lft.to/lastmile_qr_scan", "android": "https://dc.lft.to/lastmile_qr_scan"}, "lon": -76.98411933333334, "type": "electric_scooter", "fusion_lat": 0.0, "lat": 38.913859333333335, "name": "82b88199b40fc5738c9ae9e974981617", "fusion_lon": 0.0, "bike_id": "82b88199b40fc5738c9ae9e974981617", "is_disabled": 0, "is_reserved": 0}, {"rental_uris": {"ios": "https://dc.lft.to/lastmile_qr_scan", "android": "https://dc.lft.to/lastmile_qr_scan"}, "lon": -77.0238725, "type": "electric_scooter", "fusion_lat": 0.0, "lat": 38.917943, "name": "1909a2087d1b07356b111b5cf2bb1104", "fusion_lon": 0.0, "bike_id": "1909a2087d1b07356b111b5cf2bb1104", "is_disabled": 0, "is_reserved": 0}, {"rental_uris": {"ios": "https://dc.lft.to/lastmile_qr_scan", "android": "https://dc.lft.to/lastmile_qr_scan"}, "lon": -77.03643233333334, "type": "electric_scooter", "fusion_lat": 0.0, "lat": 38.91813766666667, "name": "20c51b048160eef5ca0abad1ae80395f", "fusion_lon": 0.0, "bike_id": "20c51b048160eef5ca0abad1ae80395f", "is_disabled": 0, "is_reserved": 0}, {"rental_uris": {"ios": "https://dc.lft.to/lastmile_qr_scan", "android": "https://dc.lft.to/lastmile_qr_scan"}, "lon": -77.00309816666666, "type": "electric_scooter", "fusion_lat": 0.0, "lat": 38.908871500000004, "name": "742d80c9125772c29c28120c78cae2bc", "fusion_lon": 0.0, "bike_id": "742d80c9125772c29c28120c78cae2bc", "is_disabled": 0, "is_reserved": 0}, {"rental_uris": {"ios": "https://dc.lft.to/lastmile_qr_scan", "android": "https://dc.lft.to/lastmile_qr_scan"}, "lon": -76.9937895, "type": "electric_scooter", "fusion_lat": 0.0, "lat": 38.887188, "name": "6320f13a5ab92ac02a5a9398288a2d59", "fusion_lon": 0.0, "bike_id": "6320f13a5ab92ac02a5a9398288a2d59", "is_disabled": 0, "is_reserved": 0}, {"rental_uris": {"ios": "https://dc.lft.to/lastmile_qr_scan", "android": "https://dc.lft.to/lastmile_qr_scan"}, "lon": -77.02570616666667, "type": "electric_scooter", "fusion_lat": 0.0, "lat": 38.925746333333336, "name": "fa985ba6295e9d4530aa6fe36fb694df", "fusion_lon": 0.0, "bike_id": "fa985ba6295e9d4530aa6fe36fb694df", "is_disabled": 0, "is_reserved": 0}, {"rental_uris": {"ios": "https://dc.lft.to/lastmile_qr_scan", "android": "https://dc.lft.to/lastmile_qr_scan"}, "lon": -77.00225616666667, "type": "electric_scooter", "fusion_lat": 0.0, "lat": 38.90556266666667, "name": "3e6bdd6db4e1ddfce09ee1c8e2d3ef92", "fusion_lon": 0.0, "bike_id": "3e6bdd6db4e1ddfce09ee1c8e2d3ef92", "is_disabled": 0, "is_reserved": 0}, {"rental_uris": {"ios": "https://dc.lft.to/lastmile_qr_scan", "android": "https://dc.lft.to/lastmile_qr_scan"}, "lon": -76.96782766666666, "type": "electric_scooter", "fusion_lat": 0.0, "lat": 38.86151483333333, "name": "c0eb2996abf4e44d4f903de202b90497", "fusion_lon": 0.0, "bike_id": "c0eb2996abf4e44d4f903de202b90497", "is_disabled": 0, "is_reserved": 0}, {"rental_uris": {"ios": "https://dc.lft.to/lastmile_qr_scan", "android": "https://dc.lft.to/lastmile_qr_scan"}, "lon": -77.05023983333334, "type": "electric_scooter", "fusion_lat": 0.0, "lat": 38.89656316666667, "name": "056e90f8c7af2950786c0ed6401dbf49", "fusion_lon": 0.0, "bike_id": "056e90f8c7af2950786c0ed6401dbf49", "is_disabled": 0, "is_reserved": 0}, {"rental_uris": {"ios": "https://dc.lft.to/lastmile_qr_scan", "android": "https://dc.lft.to/lastmile_qr_scan"}, "lon": -77.046779, "type": "electric_scooter", "fusion_lat": 0.0, "lat": 38.89231733333333, "name": "f045b640e92febbe8ebe6636efe21c66", "fusion_lon": 0.0, "bike_id": "f045b640e92febbe8ebe6636efe21c66", "is_disabled": 0, "is_reserved": 0}, {"rental_uris": {"ios": "https://dc.lft.to/lastmile_qr_scan", "android": "https://dc.lft.to/lastmile_qr_scan"}, "lon": -76.990047, "type": "electric_scooter", "fusion_lat": 0.0, "lat": 38.90393183333333, "name": "0771621e929cbce489554f0778ab3760", "fusion_lon": 0.0, "bike_id": "0771621e929cbce489554f0778ab3760", "is_disabled": 0, "is_reserved": 0}, {"rental_uris": {"ios": "https://dc.lft.to/lastmile_qr_scan", "android": "https://dc.lft.to/lastmile_qr_scan"}, "lon": -77.00976133333333, "type": "electric_scooter", "fusion_lat": 0.0, "lat": 38.91414316666667, "name": "7f97fd5db7bf043d50a446f7589c3869", "fusion_lon": 0.0, "bike_id": "7f97fd5db7bf043d50a446f7589c3869", "is_disabled": 0, "is_reserved": 0}, {"rental_uris": {"ios": "https://dc.lft.to/lastmile_qr_scan", "android": "https://dc.lft.to/lastmile_qr_scan"}, "lon": -77.0319495, "type": "electric_scooter", "fusion_lat": 0.0, "lat": 38.89964833333333, "name": "3d736c7c52bdcaef734999597d77226e", "fusion_lon": 0.0, "bike_id": "3d736c7c52bdcaef734999597d77226e", "is_disabled": 0, "is_reserved": 0}, {"rental_uris": {"ios": "https://dc.lft.to/lastmile_qr_scan", "android": "https://dc.lft.to/lastmile_qr_scan"}, "lon": -76.916637, "type": "electric_bike", "fusion_lat": 0.0, "lat": 38.868675, "name": "7787def83452135b67744796eb5f2a54", "fusion_lon": 0.0, "bike_id": "7787def83452135b67744796eb5f2a54", "is_disabled": 0, "is_reserved": 0}, {"rental_uris": {"ios": "https://dc.lft.to/lastmile_qr_scan", "android": "https://dc.lft.to/lastmile_qr_scan"}, "lon": -77.16226816666666, "type": "electric_bike", "fusion_lat": 0.0, "lat": 38.886548, "name": "c3ebfb166584b801ba41857d03abcc9a", "fusion_lon": 0.0, "bike_id": "c3ebfb166584b801ba41857d03abcc9a", "is_disabled": 0, "is_reserved": 0}, {"rental_uris": {"ios": "https://dc.lft.to/lastmile_qr_scan", "android": "https://dc.lft.to/lastmile_qr_scan"}, "lon": -76.94868383333333, "type": "electric_scooter", "fusion_lat": 0.0, "lat": 38.895943833333334, "name": "b6abe80e488827436cc692e4462745a9", "fusion_lon": 0.0, "bike_id": "b6abe80e488827436cc692e4462745a9", "is_disabled": 0, "is_reserved": 0}, {"rental_uris": {"ios": "https://dc.lft.to/lastmile_qr_scan", "android": "https://dc.lft.to/lastmile_qr_scan"}, "lon": -77.03293666666667, "type": "electric_scooter", "fusion_lat": 0.0, "lat": 38.90968433333333, "name": "72188b94330883161e9d77febba11e94", "fusion_lon": 0.0, "bike_id": "72188b94330883161e9d77febba11e94", "is_disabled": 0, "is_reserved": 0}, {"rental_uris": {"ios": "https://dc.lft.to/lastmile_qr_scan", "android": "https://dc.lft.to/lastmile_qr_scan"}, "lon": -77.0107515, "type": "electric_scooter", "fusion_lat": 0.0, "lat": 38.874781166666665, "name": "8edca9c3ca3ce66db6beb06ac71d598b", "fusion_lon": 0.0, "bike_id": "8edca9c3ca3ce66db6beb06ac71d598b", "is_disabled": 0, "is_reserved": 0}, {"rental_uris": {"ios": "https://dc.lft.to/lastmile_qr_scan", "android": "https://dc.lft.to/lastmile_qr_scan"}, "lon": -77.02806233333334, "type": "electric_scooter", "fusion_lat": 0.0, "lat": 38.910683666666664, "name": "a2f1494bb570bd95ac35172cb0ce064e", "fusion_lon": 0.0, "bike_id": "a2f1494bb570bd95ac35172cb0ce064e", "is_disabled": 0, "is_reserved": 0}, {"rental_uris": {"ios": "https://dc.lft.to/lastmile_qr_scan", "android": "https://dc.lft.to/lastmile_qr_scan"}, "lon": -77.03864066666667, "type": "electric_scooter", "fusion_lat": 0.0, "lat": 38.91560883333333, "name": "773a87bf229324eb298683f8b19815d0", "fusion_lon": 0.0, "bike_id": "773a87bf229324eb298683f8b19815d0", "is_disabled": 0, "is_reserved": 0}, {"rental_uris": {"ios": "https://dc.lft.to/lastmile_qr_scan", "android": "https://dc.lft.to/lastmile_qr_scan"}, "lon": -76.941773, "type": "electric_scooter", "fusion_lat": 0.0, "lat": 38.882201333333335, "name": "dac0d5d31d0e904cc7871fcaccec5a81", "fusion_lon": 0.0, "bike_id": "dac0d5d31d0e904cc7871fcaccec5a81", "is_disabled": 0, "is_reserved": 0}, {"rental_uris": {"ios": "https://dc.lft.to/lastmile_qr_scan", "android": "https://dc.lft.to/lastmile_qr_scan"}, "lon": -77.03615466666666, "type": "electric_scooter", "fusion_lat": 0.0, "lat": 38.932526833333334, "name": "995557bd4f9eaddb1f2c3cefb868c81c", "fusion_lon": 0.0, "bike_id": "995557bd4f9eaddb1f2c3cefb868c81c", "is_disabled": 0, "is_reserved": 0}, {"rental_uris": {"ios": "https://dc.lft.to/lastmile_qr_scan", "android": "https://dc.lft.to/lastmile_qr_scan"}, "lon": -76.995077, "type": "electric_scooter", "fusion_lat": 0.0, "lat": 38.880098333333336, "name": "f71e648f44d97ed0b9405e7962af1bea", "fusion_lon": 0.0, "bike_id": "f71e648f44d97ed0b9405e7962af1bea", "is_disabled": 0, "is_reserved": 0}, {"rental_uris": {"ios": "https://dc.lft.to/lastmile_qr_scan", "android": "https://dc.lft.to/lastmile_qr_scan"}, "lon": -77.04256683333334, "type": "electric_scooter", "fusion_lat": 0.0, "lat": 38.922054333333335, "name": "345f8cf88edf5974bb4704b2aa230831", "fusion_lon": 0.0, "bike_id": "345f8cf88edf5974bb4704b2aa230831", "is_disabled": 0, "is_reserved": 0}, {"rental_uris": {"ios": "https://dc.lft.to/lastmile_qr_scan", "android": "https://dc.lft.to/lastmile_qr_scan"}, "lon": -76.99152050000001, "type": "electric_scooter", "fusion_lat": 0.0, "lat": 38.900441, "name": "c8cf1084312c257ffd7730dc33de3ae5", "fusion_lon": 0.0, "bike_id": "c8cf1084312c257ffd7730dc33de3ae5", "is_disabled": 0, "is_reserved": 0}, {"rental_uris": {"ios": "https://dc.lft.to/lastmile_qr_scan", "android": "https://dc.lft.to/lastmile_qr_scan"}, "lon": -77.05479, "type": "electric_scooter", "fusion_lat": 0.0, "lat": 38.921006166666665, "name": "18aab0e57d915d7d58a92c33f612c27b", "fusion_lon": 0.0, "bike_id": "18aab0e57d915d7d58a92c33f612c27b", "is_disabled": 0, "is_reserved": 0}, {"rental_uris": {"ios": "https://dc.lft.to/lastmile_qr_scan", "android": "https://dc.lft.to/lastmile_qr_scan"}, "lon": -77.02716366666667, "type": "electric_scooter", "fusion_lat": 0.0, "lat": 38.92469116666667, "name": "869e0181385b61d618eea35bd79373fa", "fusion_lon": 0.0, "bike_id": "869e0181385b61d618eea35bd79373fa", "is_disabled": 0, "is_reserved": 0}, {"rental_uris": {"ios": "https://dc.lft.to/lastmile_qr_scan", "android": "https://dc.lft.to/lastmile_qr_scan"}, "lon": -76.955257, "type": "electric_scooter", "fusion_lat": 0.0, "lat": 38.887817, "name": "7b31b2e79f0332ade7c443b6311f2955", "fusion_lon": 0.0, "bike_id": "7b31b2e79f0332ade7c443b6311f2955", "is_disabled": 0, "is_reserved": 0}, {"rental_uris": {"ios": "https://dc.lft.to/lastmile_qr_scan", "android": "https://dc.lft.to/lastmile_qr_scan"}, "lon": -77.05120233333334, "type": "electric_scooter", "fusion_lat": 0.0, "lat": 38.90524533333333, "name": "b8638a659b195f5761e9da1a59c68117", "fusion_lon": 0.0, "bike_id": "b8638a659b195f5761e9da1a59c68117", "is_disabled": 0, "is_reserved": 0}, {"rental_uris": {"ios": "https://dc.lft.to/lastmile_qr_scan", "android": "https://dc.lft.to/lastmile_qr_scan"}, "lon": -76.98715383333334, "type": "electric_scooter", "fusion_lat": 0.0, "lat": 38.86259733333333, "name": "d69e2ad60243c453a67b0bad4aa1d5c0", "fusion_lon": 0.0, "bike_id": "d69e2ad60243c453a67b0bad4aa1d5c0", "is_disabled": 0, "is_reserved": 0}, {"rental_uris": {"ios": "https://dc.lft.to/lastmile_qr_scan", "android": "https://dc.lft.to/lastmile_qr_scan"}, "lon": -77.06018933333333, "type": "electric_scooter", "fusion_lat": 0.0, "lat": 38.91264566666667, "name": "d7eabbd2cc74bf1222f7c729b6241409", "fusion_lon": 0.0, "bike_id": "d7eabbd2cc74bf1222f7c729b6241409", "is_disabled": 0, "is_reserved": 0}, {"rental_uris": {"ios": "https://dc.lft.to/lastmile_qr_scan", "android": "https://dc.lft.to/lastmile_qr_scan"}, "lon": -77.02104533333333, "type": "electric_scooter", "fusion_lat": 0.0, "lat": 38.914136, "name": "2adfd16685028b391dafa694032e25fa", "fusion_lon": 0.0, "bike_id": "2adfd16685028b391dafa694032e25fa", "is_disabled": 0, "is_reserved": 0}, {"rental_uris": {"ios": "https://dc.lft.to/lastmile_qr_scan", "android": "https://dc.lft.to/lastmile_qr_scan"}, "lon": -77.04023033333333, "type": "electric_scooter", "fusion_lat": 0.0, "lat": 38.91835566666666, "name": "885ab0af9ce807b8060bf5bec4f7d690", "fusion_lon": 0.0, "bike_id": "885ab0af9ce807b8060bf5bec4f7d690", "is_disabled": 0, "is_reserved": 0}, {"rental_uris": {"ios": "https://dc.lft.to/lastmile_qr_scan", "android": "https://dc.lft.to/lastmile_qr_scan"}, "lon": -77.0438015, "type": "electric_scooter", "fusion_lat": 0.0, "lat": 38.91673983333333, "name": "5efb16e932fd20dd9d9d19a3b33c82f9", "fusion_lon": 0.0, "bike_id": "5efb16e932fd20dd9d9d19a3b33c82f9", "is_disabled": 0, "is_reserved": 0}, {"rental_uris": {"ios": "https://dc.lft.to/lastmile_qr_scan", "android": "https://dc.lft.to/lastmile_qr_scan"}, "lon": -77.05500833333333, "type": "electric_scooter", "fusion_lat": 0.0, "lat": 38.92970783333333, "name": "71542872d852ca7d5326afc3e71e6c3a", "fusion_lon": 0.0, "bike_id": "71542872d852ca7d5326afc3e71e6c3a", "is_disabled": 0, "is_reserved": 0}, {"rental_uris": {"ios": "https://dc.lft.to/lastmile_qr_scan", "android": "https://dc.lft.to/lastmile_qr_scan"}, "lon": -77.04134016666667, "type": "electric_scooter", "fusion_lat": 0.0, "lat": 38.900131, "name": "2e2620c3ff43a1b641961b98e596d1ce", "fusion_lon": 0.0, "bike_id": "2e2620c3ff43a1b641961b98e596d1ce", "is_disabled": 0, "is_reserved": 0}, {"rental_uris": {"ios": "https://dc.lft.to/lastmile_qr_scan", "android": "https://dc.lft.to/lastmile_qr_scan"}, "lon": -76.957549, "type": "electric_scooter", "fusion_lat": 0.0, "lat": 38.88434766666666, "name": "151e06d4021412ea36eeb2c59e0f72b5", "fusion_lon": 0.0, "bike_id": "151e06d4021412ea36eeb2c59e0f72b5", "is_disabled": 0, "is_reserved": 0}, {"rental_uris": {"ios": "https://dc.lft.to/lastmile_qr_scan", "android": "https://dc.lft.to/lastmile_qr_scan"}, "lon": -77.03406166666667, "type": "electric_scooter", "fusion_lat": 0.0, "lat": 38.92270633333333, "name": "5a41aba7ba8a84477b14cd65bd2a5604", "fusion_lon": 0.0, "bike_id": "5a41aba7ba8a84477b14cd65bd2a5604", "is_disabled": 0, "is_reserved": 0}, {"rental_uris": {"ios": "https://dc.lft.to/lastmile_qr_scan", "android": "https://dc.lft.to/lastmile_qr_scan"}, "lon": -77.0598675, "type": "electric_scooter", "fusion_lat": 0.0, "lat": 38.90508116666667, "name": "39f03e8e4ee95b21f0db2b42ce062003", "fusion_lon": 0.0, "bike_id": "39f03e8e4ee95b21f0db2b42ce062003", "is_disabled": 0, "is_reserved": 0}, {"rental_uris": {"ios": "https://dc.lft.to/lastmile_qr_scan", "android": "https://dc.lft.to/lastmile_qr_scan"}, "lon": -77.05250533333333, "type": "electric_scooter", "fusion_lat": 0.0, "lat": 38.92597816666667, "name": "7089a16ddae258b762cb43dea4b396f9", "fusion_lon": 0.0, "bike_id": "7089a16ddae258b762cb43dea4b396f9", "is_disabled": 0, "is_reserved": 0}, {"rental_uris": {"ios": "https://dc.lft.to/lastmile_qr_scan", "android": "https://dc.lft.to/lastmile_qr_scan"}, "lon": -77.12505533333334, "type": "electric_bike", "fusion_lat": 0.0, "lat": 39.024293666666665, "name": "1dd53f12ef72568e5706dbab5157037a", "fusion_lon": 0.0, "bike_id": "1dd53f12ef72568e5706dbab5157037a", "is_disabled": 0, "is_reserved": 0}, {"rental_uris": {"ios": "https://dc.lft.to/lastmile_qr_scan", "android": "https://dc.lft.to/lastmile_qr_scan"}, "lon": -77.10507783333334, "type": "electric_bike", "fusion_lat": 0.0, "lat": 38.92851, "name": "f535c4d3bff0916e6ffd48a6616b388b", "fusion_lon": 0.0, "bike_id": "f535c4d3bff0916e6ffd48a6616b388b", "is_disabled": 0, "is_reserved": 0}, {"rental_uris": {"ios": "https://dc.lft.to/lastmile_qr_scan", "android": "https://dc.lft.to/lastmile_qr_scan"}, "lon": -77.02524583333333, "type": "electric_scooter", "fusion_lat": 0.0, "lat": 38.9201475, "name": "4ceda86dde991300ceb1f9a44a37f1ec", "fusion_lon": 0.0, "bike_id": "4ceda86dde991300ceb1f9a44a37f1ec", "is_disabled": 0, "is_reserved": 0}, {"rental_uris": {"ios": "https://dc.lft.to/lastmile_qr_scan", "android": "https://dc.lft.to/lastmile_qr_scan"}, "lon": -77.027393, "type": "electric_scooter", "fusion_lat": 0.0, "lat": 38.927759333333334, "name": "89c2d4bd29867689e5a2da2c967e767b", "fusion_lon": 0.0, "bike_id": "89c2d4bd29867689e5a2da2c967e767b", "is_disabled": 0, "is_reserved": 0}, {"rental_uris": {"ios": "https://dc.lft.to/lastmile_qr_scan", "android": "https://dc.lft.to/lastmile_qr_scan"}, "lon": -76.96715016666667, "type": "electric_scooter", "fusion_lat": 0.0, "lat": 38.85075166666667, "name": "4a318783dd818018406e48f2edba566d", "fusion_lon": 0.0, "bike_id": "4a318783dd818018406e48f2edba566d", "is_disabled": 0, "is_reserved": 0}, {"rental_uris": {"ios": "https://dc.lft.to/lastmile_qr_scan", "android": "https://dc.lft.to/lastmile_qr_scan"}, "lon": -77.03071, "type": "electric_scooter", "fusion_lat": 0.0, "lat": 38.92381733333333, "name": "b7d3da9b0d2f81171c037d0a5168f615", "fusion_lon": 0.0, "bike_id": "b7d3da9b0d2f81171c037d0a5168f615", "is_disabled": 0, "is_reserved": 0}, {"rental_uris": {"ios": "https://dc.lft.to/lastmile_qr_scan", "android": "https://dc.lft.to/lastmile_qr_scan"}, "lon": -77.01536116666666, "type": "electric_scooter", "fusion_lat": 0.0, "lat": 38.8874025, "name": "3f397483c3e86dc2f98b3740f189fff4", "fusion_lon": 0.0, "bike_id": "3f397483c3e86dc2f98b3740f189fff4", "is_disabled": 0, "is_reserved": 0}, {"rental_uris": {"ios": "https://dc.lft.to/lastmile_qr_scan", "android": "https://dc.lft.to/lastmile_qr_scan"}, "lon": -77.0737285, "type": "electric_bike", "fusion_lat": 0.0, "lat": 38.96181766666667, "name": "4a7037a8107954b6cbe38a79421c585e", "fusion_lon": 0.0, "bike_id": "4a7037a8107954b6cbe38a79421c585e", "is_disabled": 0, "is_reserved": 0}, {"rental_uris": {"ios": "https://dc.lft.to/lastmile_qr_scan", "android": "https://dc.lft.to/lastmile_qr_scan"}, "lon": -76.9996435, "type": "electric_scooter", "fusion_lat": 0.0, "lat": 38.908734, "name": "26548b137b75511cececc0ae48891746", "fusion_lon": 0.0, "bike_id": "26548b137b75511cececc0ae48891746", "is_disabled": 0, "is_reserved": 0}, {"rental_uris": {"ios": "https://dc.lft.to/lastmile_qr_scan", "android": "https://dc.lft.to/lastmile_qr_scan"}, "lon": -77.05133966666666, "type": "electric_scooter", "fusion_lat": 0.0, "lat": 38.90497216666667, "name": "a22d2e089998677ec08c17e43c4620f9", "fusion_lon": 0.0, "bike_id": "a22d2e089998677ec08c17e43c4620f9", "is_disabled": 0, "is_reserved": 0}, {"rental_uris": {"ios": "https://dc.lft.to/lastmile_qr_scan", "android": "https://dc.lft.to/lastmile_qr_scan"}, "lon": -77.02694483333333, "type": "electric_scooter", "fusion_lat": 0.0, "lat": 38.9068395, "name": "0367b744590e295278c6fe3978ba9eb1", "fusion_lon": 0.0, "bike_id": "0367b744590e295278c6fe3978ba9eb1", "is_disabled": 0, "is_reserved": 0}, {"rental_uris": {"ios": "https://dc.lft.to/lastmile_qr_scan", "android": "https://dc.lft.to/lastmile_qr_scan"}, "lon": -77.05507566666667, "type": "electric_scooter", "fusion_lat": 0.0, "lat": 38.929771, "name": "005d318ef55fba407bbf3aa6396605d4", "fusion_lon": 0.0, "bike_id": "005d318ef55fba407bbf3aa6396605d4", "is_disabled": 0, "is_reserved": 0}, {"rental_uris": {"ios": "https://dc.lft.to/lastmile_qr_scan", "android": "https://dc.lft.to/lastmile_qr_scan"}, "lon": -77.041338, "type": "electric_scooter", "fusion_lat": 0.0, "lat": 38.924337, "name": "b95a89f6501eb94754157c97ea2b528b", "fusion_lon": 0.0, "bike_id": "b95a89f6501eb94754157c97ea2b528b", "is_disabled": 0, "is_reserved": 0}, {"rental_uris": {"ios": "https://dc.lft.to/lastmile_qr_scan", "android": "https://dc.lft.to/lastmile_qr_scan"}, "lon": -77.0332415, "type": "electric_scooter", "fusion_lat": 0.0, "lat": 38.91995383333333, "name": "401bc72474e29b42150c6954caf65003", "fusion_lon": 0.0, "bike_id": "401bc72474e29b42150c6954caf65003", "is_disabled": 0, "is_reserved": 0}, {"rental_uris": {"ios": "https://dc.lft.to/lastmile_qr_scan", "android": "https://dc.lft.to/lastmile_qr_scan"}, "lon": -77.03321983333333, "type": "electric_scooter", "fusion_lat": 0.0, "lat": 38.919872166666664, "name": "195a0da80efd9068057ff6caf557a4cc", "fusion_lon": 0.0, "bike_id": "195a0da80efd9068057ff6caf557a4cc", "is_disabled": 0, "is_reserved": 0}, {"rental_uris": {"ios": "https://dc.lft.to/lastmile_qr_scan", "android": "https://dc.lft.to/lastmile_qr_scan"}, "lon": -77.03091383333333, "type": "electric_scooter", "fusion_lat": 0.0, "lat": 38.894627166666666, "name": "d47f919754207f082c59535a3c1663e5", "fusion_lon": 0.0, "bike_id": "d47f919754207f082c59535a3c1663e5", "is_disabled": 0, "is_reserved": 0}, {"rental_uris": {"ios": "https://dc.lft.to/lastmile_qr_scan", "android": "https://dc.lft.to/lastmile_qr_scan"}, "lon": -77.038015, "type": "electric_scooter", "fusion_lat": 0.0, "lat": 38.90668133333333, "name": "9af540cf01c19abfaa259233bb795ae6", "fusion_lon": 0.0, "bike_id": "9af540cf01c19abfaa259233bb795ae6", "is_disabled": 0, "is_reserved": 0}, {"rental_uris": {"ios": "https://dc.lft.to/lastmile_qr_scan", "android": "https://dc.lft.to/lastmile_qr_scan"}, "lon": -77.01787633333333, "type": "electric_scooter", "fusion_lat": 0.0, "lat": 38.90826066666666, "name": "b4f8d2b732591d51a85fa34359df46fa", "fusion_lon": 0.0, "bike_id": "b4f8d2b732591d51a85fa34359df46fa", "is_disabled": 0, "is_reserved": 0}, {"rental_uris": {"ios": "https://dc.lft.to/lastmile_qr_scan", "android": "https://dc.lft.to/lastmile_qr_scan"}, "lon": -77.029771, "type": "electric_scooter", "fusion_lat": 0.0, "lat": 38.900466, "name": "89a59dfac0bfaa9fd1031cf354420aee", "fusion_lon": 0.0, "bike_id": "89a59dfac0bfaa9fd1031cf354420aee", "is_disabled": 0, "is_reserved": 0}, {"rental_uris": {"ios": "https://dc.lft.to/lastmile_qr_scan", "android": "https://dc.lft.to/lastmile_qr_scan"}, "lon": -77.02704116666666, "type": "electric_scooter", "fusion_lat": 0.0, "lat": 38.89918566666667, "name": "99267d221ff6c34b39de5eaf92004562", "fusion_lon": 0.0, "bike_id": "99267d221ff6c34b39de5eaf92004562", "is_disabled": 0, "is_reserved": 0}, {"rental_uris": {"ios": "https://dc.lft.to/lastmile_qr_scan", "android": "https://dc.lft.to/lastmile_qr_scan"}, "lon": -76.94652783333333, "type": "electric_scooter", "fusion_lat": 0.0, "lat": 38.898261833333336, "name": "179b36b4c440e56eca7614a9ffa1bd89", "fusion_lon": 0.0, "bike_id": "179b36b4c440e56eca7614a9ffa1bd89", "is_disabled": 0, "is_reserved": 0}, {"rental_uris": {"ios": "https://dc.lft.to/lastmile_qr_scan", "android": "https://dc.lft.to/lastmile_qr_scan"}, "lon": -77.03411916666667, "type": "electric_scooter", "fusion_lat": 0.0, "lat": 38.9232055, "name": "150c48d56cc9b8c22dd150a3a16e7890", "fusion_lon": 0.0, "bike_id": "150c48d56cc9b8c22dd150a3a16e7890", "is_disabled": 0, "is_reserved": 0}, {"rental_uris": {"ios": "https://dc.lft.to/lastmile_qr_scan", "android": "https://dc.lft.to/lastmile_qr_scan"}, "lon": -77.03413366666666, "type": "electric_scooter", "fusion_lat": 0.0, "lat": 38.91046866666667, "name": "d51e4909be83723fde6cef58f971f438", "fusion_lon": 0.0, "bike_id": "d51e4909be83723fde6cef58f971f438", "is_disabled": 0, "is_reserved": 0}, {"rental_uris": {"ios": "https://dc.lft.to/lastmile_qr_scan", "android": "https://dc.lft.to/lastmile_qr_scan"}, "lon": -77.020277, "type": "electric_scooter", "fusion_lat": 0.0, "lat": 38.90173, "name": "4b7c596f51831eee536b34206a4809e7", "fusion_lon": 0.0, "bike_id": "4b7c596f51831eee536b34206a4809e7", "is_disabled": 0, "is_reserved": 0}, {"rental_uris": {"ios": "https://dc.lft.to/lastmile_qr_scan", "android": "https://dc.lft.to/lastmile_qr_scan"}, "lon": -77.03344066666666, "type": "electric_scooter", "fusion_lat": 0.0, "lat": 38.89842733333333, "name": "ae8b8b831ab5979d5cab3775901b35f4", "fusion_lon": 0.0, "bike_id": "ae8b8b831ab5979d5cab3775901b35f4", "is_disabled": 0, "is_reserved": 0}, {"rental_uris": {"ios": "https://dc.lft.to/lastmile_qr_scan", "android": "https://dc.lft.to/lastmile_qr_scan"}, "lon": -77.030837, "type": "electric_scooter", "fusion_lat": 0.0, "lat": 38.90918533333333, "name": "f1527cb3c4bb90ccb7729fb3688716a9", "fusion_lon": 0.0, "bike_id": "f1527cb3c4bb90ccb7729fb3688716a9", "is_disabled": 0, "is_reserved": 0}, {"rental_uris": {"ios": "https://dc.lft.to/lastmile_qr_scan", "android": "https://dc.lft.to/lastmile_qr_scan"}, "lon": -76.97671583333333, "type": "electric_bike", "fusion_lat": 0.0, "lat": 38.9662435, "name": "7b57283e9807544bb5dcfe754d4c53ba", "fusion_lon": 0.0, "bike_id": "7b57283e9807544bb5dcfe754d4c53ba", "is_disabled": 0, "is_reserved": 0}, {"rental_uris": {"ios": "https://dc.lft.to/lastmile_qr_scan", "android": "https://dc.lft.to/lastmile_qr_scan"}, "lon": -77.04612416666667, "type": "electric_scooter", "fusion_lat": 0.0, "lat": 38.90388516666667, "name": "1becd3d52ee5965a2a5a02716492631b", "fusion_lon": 0.0, "bike_id": "1becd3d52ee5965a2a5a02716492631b", "is_disabled": 0, "is_reserved": 0}, {"rental_uris": {"ios": "https://dc.lft.to/lastmile_qr_scan", "android": "https://dc.lft.to/lastmile_qr_scan"}, "lon": -77.01216433333333, "type": "electric_bike", "fusion_lat": 0.0, "lat": 38.870914, "name": "37ec2951d6f66b4f92115a84526e5eda", "fusion_lon": 0.0, "bike_id": "37ec2951d6f66b4f92115a84526e5eda", "is_disabled": 0, "is_reserved": 0}, {"rental_uris": {"ios": "https://dc.lft.to/lastmile_qr_scan", "android": "https://dc.lft.to/lastmile_qr_scan"}, "lon": -77.03973383333333, "type": "electric_scooter", "fusion_lat": 0.0, "lat": 38.9198165, "name": "b13c8e45c1b867869897b4542bd47c1c", "fusion_lon": 0.0, "bike_id": "b13c8e45c1b867869897b4542bd47c1c", "is_disabled": 0, "is_reserved": 0}, {"rental_uris": {"ios": "https://dc.lft.to/lastmile_qr_scan", "android": "https://dc.lft.to/lastmile_qr_scan"}, "lon": -76.96627333333333, "type": "electric_bike", "fusion_lat": 0.0, "lat": 38.94201416666667, "name": "5b2bab7824604ea5ac544e6f921054db", "fusion_lon": 0.0, "bike_id": "5b2bab7824604ea5ac544e6f921054db", "is_disabled": 0, "is_reserved": 0}, {"rental_uris": {"ios": "https://dc.lft.to/lastmile_qr_scan", "android": "https://dc.lft.to/lastmile_qr_scan"}, "lon": -77.0018795, "type": "electric_scooter", "fusion_lat": 0.0, "lat": 38.87384, "name": "4325756daa339499d4314900655ac281", "fusion_lon": 0.0, "bike_id": "4325756daa339499d4314900655ac281", "is_disabled": 0, "is_reserved": 0}, {"rental_uris": {"ios": "https://dc.lft.to/lastmile_qr_scan", "android": "https://dc.lft.to/lastmile_qr_scan"}, "lon": -77.04687183333333, "type": "electric_scooter", "fusion_lat": 0.0, "lat": 38.89223483333333, "name": "f47894617f3fca8bada26a57c551a1d6", "fusion_lon": 0.0, "bike_id": "f47894617f3fca8bada26a57c551a1d6", "is_disabled": 0, "is_reserved": 0}, {"rental_uris": {"ios": "https://dc.lft.to/lastmile_qr_scan", "android": "https://dc.lft.to/lastmile_qr_scan"}, "lon": -77.03198416666666, "type": "electric_scooter", "fusion_lat": 0.0, "lat": 38.912777166666665, "name": "dccd8139b8e090298105fce14da167d2", "fusion_lon": 0.0, "bike_id": "dccd8139b8e090298105fce14da167d2", "is_disabled": 0, "is_reserved": 0}, {"rental_uris": {"ios": "https://dc.lft.to/lastmile_qr_scan", "android": "https://dc.lft.to/lastmile_qr_scan"}, "lon": -77.00041833333333, "type": "electric_scooter", "fusion_lat": 0.0, "lat": 38.90765916666667, "name": "fac9d032c15c1c43103dece3a5a31da6", "fusion_lon": 0.0, "bike_id": "fac9d032c15c1c43103dece3a5a31da6", "is_disabled": 0, "is_reserved": 0}, {"rental_uris": {"ios": "https://dc.lft.to/lastmile_qr_scan", "android": "https://dc.lft.to/lastmile_qr_scan"}, "lon": -77.03170266666666, "type": "electric_scooter", "fusion_lat": 0.0, "lat": 38.89958766666667, "name": "4ae0ebbc9d2792499393fc8ed31e3a7d", "fusion_lon": 0.0, "bike_id": "4ae0ebbc9d2792499393fc8ed31e3a7d", "is_disabled": 0, "is_reserved": 0}, {"rental_uris": {"ios": "https://dc.lft.to/lastmile_qr_scan", "android": "https://dc.lft.to/lastmile_qr_scan"}, "lon": -76.92893566666666, "type": "electric_scooter", "fusion_lat": 0.0, "lat": 38.89332433333333, "name": "c8c3e1cd8965995e34a6b01a87310fd2", "fusion_lon": 0.0, "bike_id": "c8c3e1cd8965995e34a6b01a87310fd2", "is_disabled": 0, "is_reserved": 0}, {"rental_uris": {"ios": "https://dc.lft.to/lastmile_qr_scan", "android": "https://dc.lft.to/lastmile_qr_scan"}, "lon": -77.02699233333334, "type": "electric_scooter", "fusion_lat": 0.0, "lat": 38.949819, "name": "8956d54b44f9911a1fdb623781a10bf3", "fusion_lon": 0.0, "bike_id": "8956d54b44f9911a1fdb623781a10bf3", "is_disabled": 0, "is_reserved": 0}, {"rental_uris": {"ios": "https://dc.lft.to/lastmile_qr_scan", "android": "https://dc.lft.to/lastmile_qr_scan"}, "lon": -77.02227833333333, "type": "electric_scooter", "fusion_lat": 0.0, "lat": 38.8922165, "name": "c33cbff8b750f688486c16ae3e1c4e1d", "fusion_lon": 0.0, "bike_id": "c33cbff8b750f688486c16ae3e1c4e1d", "is_disabled": 0, "is_reserved": 0}, {"rental_uris": {"ios": "https://dc.lft.to/lastmile_qr_scan", "android": "https://dc.lft.to/lastmile_qr_scan"}, "lon": -77.01053783333333, "type": "electric_scooter", "fusion_lat": 0.0, "lat": 38.879357666666664, "name": "f84bfe2fcf182fd1de75f3a75543fa5c", "fusion_lon": 0.0, "bike_id": "f84bfe2fcf182fd1de75f3a75543fa5c", "is_disabled": 0, "is_reserved": 0}, {"rental_uris": {"ios": "https://dc.lft.to/lastmile_qr_scan", "android": "https://dc.lft.to/lastmile_qr_scan"}, "lon": -77.036655, "type": "electric_scooter", "fusion_lat": 0.0, "lat": 38.91818383333333, "name": "d9e8af3bf57aa1a30a9d9a29d85ed384", "fusion_lon": 0.0, "bike_id": "d9e8af3bf57aa1a30a9d9a29d85ed384", "is_disabled": 0, "is_reserved": 0}, {"rental_uris": {"ios": "https://dc.lft.to/lastmile_qr_scan", "android": "https://dc.lft.to/lastmile_qr_scan"}, "lon": -77.02713416666667, "type": "electric_scooter", "fusion_lat": 0.0, "lat": 38.91806583333333, "name": "185f24b4b881c5c6c93e88c7d6b8fd47", "fusion_lon": 0.0, "bike_id": "185f24b4b881c5c6c93e88c7d6b8fd47", "is_disabled": 0, "is_reserved": 0}, {"rental_uris": {"ios": "https://dc.lft.to/lastmile_qr_scan", "android": "https://dc.lft.to/lastmile_qr_scan"}, "lon": -76.997915, "type": "electric_scooter", "fusion_lat": 0.0, "lat": 38.92180033333333, "name": "6c6906dba91a796375bd0d95b5b7b5a0", "fusion_lon": 0.0, "bike_id": "6c6906dba91a796375bd0d95b5b7b5a0", "is_disabled": 0, "is_reserved": 0}, {"rental_uris": {"ios": "https://dc.lft.to/lastmile_qr_scan", "android": "https://dc.lft.to/lastmile_qr_scan"}, "lon": -77.04709583333333, "type": "electric_scooter", "fusion_lat": 0.0, "lat": 38.921696833333336, "name": "154ef0b96272548246c0b7a6915f6ecc", "fusion_lon": 0.0, "bike_id": "154ef0b96272548246c0b7a6915f6ecc", "is_disabled": 0, "is_reserved": 0}, {"rental_uris": {"ios": "https://dc.lft.to/lastmile_qr_scan", "android": "https://dc.lft.to/lastmile_qr_scan"}, "lon": -76.98744616666667, "type": "electric_bike", "fusion_lat": 0.0, "lat": 38.85791783333333, "name": "7fe41c6428fc334dc9d66f3173eaf192", "fusion_lon": 0.0, "bike_id": "7fe41c6428fc334dc9d66f3173eaf192", "is_disabled": 0, "is_reserved": 0}, {"rental_uris": {"ios": "https://dc.lft.to/lastmile_qr_scan", "android": "https://dc.lft.to/lastmile_qr_scan"}, "lon": -76.98500816666666, "type": "electric_scooter", "fusion_lat": 0.0, "lat": 38.86046066666667, "name": "24cc6fa66cc400618cbd05fbfc4ba6f3", "fusion_lon": 0.0, "bike_id": "24cc6fa66cc400618cbd05fbfc4ba6f3", "is_disabled": 0, "is_reserved": 0}, {"rental_uris": {"ios": "https://dc.lft.to/lastmile_qr_scan", "android": "https://dc.lft.to/lastmile_qr_scan"}, "lon": -76.97891, "type": "electric_scooter", "fusion_lat": 0.0, "lat": 38.904218166666666, "name": "63f95b4885befc9874e433e70080bcb6", "fusion_lon": 0.0, "bike_id": "63f95b4885befc9874e433e70080bcb6", "is_disabled": 0, "is_reserved": 0}, {"rental_uris": {"ios": "https://dc.lft.to/lastmile_qr_scan", "android": "https://dc.lft.to/lastmile_qr_scan"}, "lon": -77.04459266666667, "type": "electric_scooter", "fusion_lat": 0.0, "lat": 38.911173, "name": "fba96c7db207b0fe2058510047db8651", "fusion_lon": 0.0, "bike_id": "fba96c7db207b0fe2058510047db8651", "is_disabled": 0, "is_reserved": 0}, {"rental_uris": {"ios": "https://dc.lft.to/lastmile_qr_scan", "android": "https://dc.lft.to/lastmile_qr_scan"}, "lon": -76.9959865, "type": "electric_scooter", "fusion_lat": 0.0, "lat": 38.84542066666667, "name": "a18e7a3d9e15aff391b6d0c02d01b4f1", "fusion_lon": 0.0, "bike_id": "a18e7a3d9e15aff391b6d0c02d01b4f1", "is_disabled": 0, "is_reserved": 0}, {"rental_uris": {"ios": "https://dc.lft.to/lastmile_qr_scan", "android": "https://dc.lft.to/lastmile_qr_scan"}, "lon": -77.03145066666667, "type": "electric_scooter", "fusion_lat": 0.0, "lat": 38.9111715, "name": "12b8699335bbe8853f6b676eb688f289", "fusion_lon": 0.0, "bike_id": "12b8699335bbe8853f6b676eb688f289", "is_disabled": 0, "is_reserved": 0}, {"rental_uris": {"ios": "https://dc.lft.to/lastmile_qr_scan", "android": "https://dc.lft.to/lastmile_qr_scan"}, "lon": -77.0139205, "type": "electric_scooter", "fusion_lat": 0.0, "lat": 38.970194, "name": "3c1dbc83bf28547c9fbdec5e43ce2943", "fusion_lon": 0.0, "bike_id": "3c1dbc83bf28547c9fbdec5e43ce2943", "is_disabled": 0, "is_reserved": 0}, {"rental_uris": {"ios": "https://dc.lft.to/lastmile_qr_scan", "android": "https://dc.lft.to/lastmile_qr_scan"}, "lon": -77.0153485, "type": "electric_scooter", "fusion_lat": 0.0, "lat": 38.902025, "name": "3961a9e989cd1a6f757089b81d3383c5", "fusion_lon": 0.0, "bike_id": "3961a9e989cd1a6f757089b81d3383c5", "is_disabled": 0, "is_reserved": 0}, {"rental_uris": {"ios": "https://dc.lft.to/lastmile_qr_scan", "android": "https://dc.lft.to/lastmile_qr_scan"}, "lon": -77.10094633333334, "type": "electric_bike", "fusion_lat": 0.0, "lat": 38.959623666666666, "name": "3ea4fcb3e9b450c947ae9631987c5ce4", "fusion_lon": 0.0, "bike_id": "3ea4fcb3e9b450c947ae9631987c5ce4", "is_disabled": 0, "is_reserved": 0}, {"rental_uris": {"ios": "https://dc.lft.to/lastmile_qr_scan", "android": "https://dc.lft.to/lastmile_qr_scan"}, "lon": -77.03172916666666, "type": "electric_scooter", "fusion_lat": 0.0, "lat": 38.913373666666665, "name": "41f49bc4cc822b6d45f8e89072064793", "fusion_lon": 0.0, "bike_id": "41f49bc4cc822b6d45f8e89072064793", "is_disabled": 0, "is_reserved": 0}, {"rental_uris": {"ios": "https://dc.lft.to/lastmile_qr_scan", "android": "https://dc.lft.to/lastmile_qr_scan"}, "lon": -77.03935166666666, "type": "electric_scooter", "fusion_lat": 0.0, "lat": 38.899215166666664, "name": "61a7a3e46c56c7fac6ef8552290fbfbb", "fusion_lon": 0.0, "bike_id": "61a7a3e46c56c7fac6ef8552290fbfbb", "is_disabled": 0, "is_reserved": 0}, {"rental_uris": {"ios": "https://dc.lft.to/lastmile_qr_scan", "android": "https://dc.lft.to/lastmile_qr_scan"}, "lon": -76.995205, "type": "electric_scooter", "fusion_lat": 0.0, "lat": 38.8948265, "name": "27a5dbf9b6fdcd718d2d1707f0e05fd9", "fusion_lon": 0.0, "bike_id": "27a5dbf9b6fdcd718d2d1707f0e05fd9", "is_disabled": 0, "is_reserved": 0}, {"rental_uris": {"ios": "https://dc.lft.to/lastmile_qr_scan", "android": "https://dc.lft.to/lastmile_qr_scan"}, "lon": -76.8782315, "type": "electric_bike", "fusion_lat": 0.0, "lat": 38.992358833333334, "name": "bc1f0e0f0fb31dfa0a9d2f6f5bd993b8", "fusion_lon": 0.0, "bike_id": "bc1f0e0f0fb31dfa0a9d2f6f5bd993b8", "is_disabled": 0, "is_reserved": 0}, {"rental_uris": {"ios": "https://dc.lft.to/lastmile_qr_scan", "android": "https://dc.lft.to/lastmile_qr_scan"}, "lon": -76.95767066666667, "type": "electric_bike", "fusion_lat": 0.0, "lat": 38.884241, "name": "8651d8508397c68498d26a2e961acda2", "fusion_lon": 0.0, "bike_id": "8651d8508397c68498d26a2e961acda2", "is_disabled": 0, "is_reserved": 0}, {"rental_uris": {"ios": "https://dc.lft.to/lastmile_qr_scan", "android": "https://dc.lft.to/lastmile_qr_scan"}, "lon": -77.03188116666666, "type": "electric_scooter", "fusion_lat": 0.0, "lat": 38.914043, "name": "01b4a3f0e53d32f64423869381a54837", "fusion_lon": 0.0, "bike_id": "01b4a3f0e53d32f64423869381a54837", "is_disabled": 0, "is_reserved": 0}, {"rental_uris": {"ios": "https://dc.lft.to/lastmile_qr_scan", "android": "https://dc.lft.to/lastmile_qr_scan"}, "lon": -76.9466485, "type": "electric_scooter", "fusion_lat": 0.0, "lat": 38.90338666666667, "name": "afe70d77a1e99b9121663fefffa0fc4c", "fusion_lon": 0.0, "bike_id": "afe70d77a1e99b9121663fefffa0fc4c", "is_disabled": 0, "is_reserved": 0}, {"rental_uris": {"ios": "https://dc.lft.to/lastmile_qr_scan", "android": "https://dc.lft.to/lastmile_qr_scan"}, "lon": -77.0324155, "type": "electric_scooter", "fusion_lat": 0.0, "lat": 38.929012, "name": "f2167f25c78c51b2c40e0e65978e347e", "fusion_lon": 0.0, "bike_id": "f2167f25c78c51b2c40e0e65978e347e", "is_disabled": 0, "is_reserved": 0}, {"rental_uris": {"ios": "https://dc.lft.to/lastmile_qr_scan", "android": "https://dc.lft.to/lastmile_qr_scan"}, "lon": -77.02625483333334, "type": "electric_scooter", "fusion_lat": 0.0, "lat": 38.892245, "name": "0e7507977e9da3e39344cea6c6bdc7ad", "fusion_lon": 0.0, "bike_id": "0e7507977e9da3e39344cea6c6bdc7ad", "is_disabled": 0, "is_reserved": 0}, {"rental_uris": {"ios": "https://dc.lft.to/lastmile_qr_scan", "android": "https://dc.lft.to/lastmile_qr_scan"}, "lon": -77.00294466666666, "type": "electric_bike", "fusion_lat": 0.0, "lat": 38.91613566666667, "name": "6cbe365d05365aa2998938f0498bfcb9", "fusion_lon": 0.0, "bike_id": "6cbe365d05365aa2998938f0498bfcb9", "is_disabled": 0, "is_reserved": 0}, {"rental_uris": {"ios": "https://dc.lft.to/lastmile_qr_scan", "android": "https://dc.lft.to/lastmile_qr_scan"}, "lon": -76.99364433333334, "type": "electric_scooter", "fusion_lat": 0.0, "lat": 38.90037983333333, "name": "dbd01c4211ae1e429f4d649640de883c", "fusion_lon": 0.0, "bike_id": "dbd01c4211ae1e429f4d649640de883c", "is_disabled": 0, "is_reserved": 0}, {"rental_uris": {"ios": "https://dc.lft.to/lastmile_qr_scan", "android": "https://dc.lft.to/lastmile_qr_scan"}, "lon": -77.0386445, "type": "electric_scooter", "fusion_lat": 0.0, "lat": 38.91561216666667, "name": "c8662a6e28723cd5c7cec7f1d34a90e0", "fusion_lon": 0.0, "bike_id": "c8662a6e28723cd5c7cec7f1d34a90e0", "is_disabled": 0, "is_reserved": 0}, {"rental_uris": {"ios": "https://dc.lft.to/lastmile_qr_scan", "android": "https://dc.lft.to/lastmile_qr_scan"}, "lon": -77.06698216666666, "type": "electric_scooter", "fusion_lat": 0.0, "lat": 38.90975133333333, "name": "04890a874d7b7f1afbba2b77dd9c19d5", "fusion_lon": 0.0, "bike_id": "04890a874d7b7f1afbba2b77dd9c19d5", "is_disabled": 0, "is_reserved": 0}, {"rental_uris": {"ios": "https://dc.lft.to/lastmile_qr_scan", "android": "https://dc.lft.to/lastmile_qr_scan"}, "lon": -76.9903425, "type": "electric_scooter", "fusion_lat": 0.0, "lat": 38.85872716666667, "name": "753763f483528a34b56b57010d701b03", "fusion_lon": 0.0, "bike_id": "753763f483528a34b56b57010d701b03", "is_disabled": 0, "is_reserved": 0}, {"rental_uris": {"ios": "https://dc.lft.to/lastmile_qr_scan", "android": "https://dc.lft.to/lastmile_qr_scan"}, "lon": -77.03964183333333, "type": "electric_scooter", "fusion_lat": 0.0, "lat": 38.916378, "name": "6f2dc669329266e6f4390ed4a232413f", "fusion_lon": 0.0, "bike_id": "6f2dc669329266e6f4390ed4a232413f", "is_disabled": 0, "is_reserved": 0}, {"rental_uris": {"ios": "https://dc.lft.to/lastmile_qr_scan", "android": "https://dc.lft.to/lastmile_qr_scan"}, "lon": -76.976124, "type": "electric_bike", "fusion_lat": 0.0, "lat": 38.9130975, "name": "7f7767e093d060e0269b677fd4621305", "fusion_lon": 0.0, "bike_id": "7f7767e093d060e0269b677fd4621305", "is_disabled": 0, "is_reserved": 0}, {"rental_uris": {"ios": "https://dc.lft.to/lastmile_qr_scan", "android": "https://dc.lft.to/lastmile_qr_scan"}, "lon": -77.02949666666666, "type": "electric_scooter", "fusion_lat": 0.0, "lat": 38.90523916666667, "name": "552b88081e47d57dde64afd7d417dfd5", "fusion_lon": 0.0, "bike_id": "552b88081e47d57dde64afd7d417dfd5", "is_disabled": 0, "is_reserved": 0}, {"rental_uris": {"ios": "https://dc.lft.to/lastmile_qr_scan", "android": "https://dc.lft.to/lastmile_qr_scan"}, "lon": -77.06613366666667, "type": "electric_bike", "fusion_lat": 0.0, "lat": 38.911317833333335, "name": "97239d12e779c617d985716262163c48", "fusion_lon": 0.0, "bike_id": "97239d12e779c617d985716262163c48", "is_disabled": 0, "is_reserved": 0}, {"rental_uris": {"ios": "https://dc.lft.to/lastmile_qr_scan", "android": "https://dc.lft.to/lastmile_qr_scan"}, "lon": -77.04139666666667, "type": "electric_scooter", "fusion_lat": 0.0, "lat": 38.90736033333334, "name": "a9d8392eec7f851b7315b2a4ab0fa45d", "fusion_lon": 0.0, "bike_id": "a9d8392eec7f851b7315b2a4ab0fa45d", "is_disabled": 0, "is_reserved": 0}, {"rental_uris": {"ios": "https://dc.lft.to/lastmile_qr_scan", "android": "https://dc.lft.to/lastmile_qr_scan"}, "lon": -77.04703716666667, "type": "electric_scooter", "fusion_lat": 0.0, "lat": 38.908618833333335, "name": "5251fe24f4c1414f549fcc6587b6a59b", "fusion_lon": 0.0, "bike_id": "5251fe24f4c1414f549fcc6587b6a59b", "is_disabled": 0, "is_reserved": 0}, {"rental_uris": {"ios": "https://dc.lft.to/lastmile_qr_scan", "android": "https://dc.lft.to/lastmile_qr_scan"}, "lon": -77.02184116666666, "type": "electric_scooter", "fusion_lat": 0.0, "lat": 38.916492166666664, "name": "bf6350cd44e6dd2505a0ab8092ba2767", "fusion_lon": 0.0, "bike_id": "bf6350cd44e6dd2505a0ab8092ba2767", "is_disabled": 0, "is_reserved": 0}, {"rental_uris": {"ios": "https://dc.lft.to/lastmile_qr_scan", "android": "https://dc.lft.to/lastmile_qr_scan"}, "lon": -77.0326625, "type": "electric_scooter", "fusion_lat": 0.0, "lat": 38.93527066666667, "name": "a6326310c9eb17f1dac254edd8c0b27d", "fusion_lon": 0.0, "bike_id": "a6326310c9eb17f1dac254edd8c0b27d", "is_disabled": 0, "is_reserved": 0}, {"rental_uris": {"ios": "https://dc.lft.to/lastmile_qr_scan", "android": "https://dc.lft.to/lastmile_qr_scan"}, "lon": -77.0481155, "type": "electric_scooter", "fusion_lat": 0.0, "lat": 38.89611516666667, "name": "cda4fc0102e996f8963a655828b221fa", "fusion_lon": 0.0, "bike_id": "cda4fc0102e996f8963a655828b221fa", "is_disabled": 0, "is_reserved": 0}, {"rental_uris": {"ios": "https://dc.lft.to/lastmile_qr_scan", "android": "https://dc.lft.to/lastmile_qr_scan"}, "lon": -77.03328383333333, "type": "electric_scooter", "fusion_lat": 0.0, "lat": 38.92055783333333, "name": "2489e756733d7f4cd0921a55ae4fed92", "fusion_lon": 0.0, "bike_id": "2489e756733d7f4cd0921a55ae4fed92", "is_disabled": 0, "is_reserved": 0}, {"rental_uris": {"ios": "https://dc.lft.to/lastmile_qr_scan", "android": "https://dc.lft.to/lastmile_qr_scan"}, "lon": -77.029052, "type": "electric_scooter", "fusion_lat": 0.0, "lat": 38.91729, "name": "dedf991f55179e5118e2c3585dac5b58", "fusion_lon": 0.0, "bike_id": "dedf991f55179e5118e2c3585dac5b58", "is_disabled": 0, "is_reserved": 0}, {"rental_uris": {"ios": "https://dc.lft.to/lastmile_qr_scan", "android": "https://dc.lft.to/lastmile_qr_scan"}, "lon": -76.97814716666667, "type": "electric_scooter", "fusion_lat": 0.0, "lat": 38.906807, "name": "17ba3e72b34e3874cb8166c5c9af6afc", "fusion_lon": 0.0, "bike_id": "17ba3e72b34e3874cb8166c5c9af6afc", "is_disabled": 0, "is_reserved": 0}, {"rental_uris": {"ios": "https://dc.lft.to/lastmile_qr_scan", "android": "https://dc.lft.to/lastmile_qr_scan"}, "lon": -77.04379616666667, "type": "electric_scooter", "fusion_lat": 0.0, "lat": 38.92067616666667, "name": "c45a467df8ff7a5a15a1eade25ecb0cd", "fusion_lon": 0.0, "bike_id": "c45a467df8ff7a5a15a1eade25ecb0cd", "is_disabled": 0, "is_reserved": 0}, {"rental_uris": {"ios": "https://dc.lft.to/lastmile_qr_scan", "android": "https://dc.lft.to/lastmile_qr_scan"}, "lon": -76.93545333333333, "type": "electric_bike", "fusion_lat": 0.0, "lat": 38.955459166666664, "name": "0bb920e445d2fe0b87ee5433ee8bba0b", "fusion_lon": 0.0, "bike_id": "0bb920e445d2fe0b87ee5433ee8bba0b", "is_disabled": 0, "is_reserved": 0}, {"rental_uris": {"ios": "https://dc.lft.to/lastmile_qr_scan", "android": "https://dc.lft.to/lastmile_qr_scan"}, "lon": -77.1226145, "type": "electric_bike", "fusion_lat": 0.0, "lat": 38.8919085, "name": "43d7ce6bf3ed24069f217dadf542f5b2", "fusion_lon": 0.0, "bike_id": "43d7ce6bf3ed24069f217dadf542f5b2", "is_disabled": 0, "is_reserved": 0}, {"rental_uris": {"ios": "https://dc.lft.to/lastmile_qr_scan", "android": "https://dc.lft.to/lastmile_qr_scan"}, "lon": -77.032204, "type": "electric_scooter", "fusion_lat": 0.0, "lat": 38.92584333333333, "name": "c51a85e609ebee5efaf68f8ab09dd7b6", "fusion_lon": 0.0, "bike_id": "c51a85e609ebee5efaf68f8ab09dd7b6", "is_disabled": 0, "is_reserved": 0}, {"rental_uris": {"ios": "https://dc.lft.to/lastmile_qr_scan", "android": "https://dc.lft.to/lastmile_qr_scan"}, "lon": -77.11222683333334, "type": "electric_bike", "fusion_lat": 0.0, "lat": 38.81311, "name": "344a47ad2fad761285417864b8cab34f", "fusion_lon": 0.0, "bike_id": "344a47ad2fad761285417864b8cab34f", "is_disabled": 0, "is_reserved": 0}, {"rental_uris": {"ios": "https://dc.lft.to/lastmile_qr_scan", "android": "https://dc.lft.to/lastmile_qr_scan"}, "lon": -77.07684866666666, "type": "electric_bike", "fusion_lat": 0.0, "lat": 38.83193266666667, "name": "7d075af419fff44dca818e265edea13f", "fusion_lon": 0.0, "bike_id": "7d075af419fff44dca818e265edea13f", "is_disabled": 0, "is_reserved": 0}, {"rental_uris": {"ios": "https://dc.lft.to/lastmile_qr_scan", "android": "https://dc.lft.to/lastmile_qr_scan"}, "lon": -77.03208366666667, "type": "electric_scooter", "fusion_lat": 0.0, "lat": 38.920730666666664, "name": "d32223b9a3e49d3cdb821abb1cdcfb49", "fusion_lon": 0.0, "bike_id": "d32223b9a3e49d3cdb821abb1cdcfb49", "is_disabled": 0, "is_reserved": 0}, {"rental_uris": {"ios": "https://dc.lft.to/lastmile_qr_scan", "android": "https://dc.lft.to/lastmile_qr_scan"}, "lon": -77.037252, "type": "electric_scooter", "fusion_lat": 0.0, "lat": 38.93363633333333, "name": "f8016f9871c6c273a92679cb75ea57c5", "fusion_lon": 0.0, "bike_id": "f8016f9871c6c273a92679cb75ea57c5", "is_disabled": 0, "is_reserved": 0}, {"rental_uris": {"ios": "https://dc.lft.to/lastmile_qr_scan", "android": "https://dc.lft.to/lastmile_qr_scan"}, "lon": -77.0514495, "type": "electric_scooter", "fusion_lat": 0.0, "lat": 38.902371333333335, "name": "91a8875c07e0dc20303b3f497ee2049e", "fusion_lon": 0.0, "bike_id": "91a8875c07e0dc20303b3f497ee2049e", "is_disabled": 0, "is_reserved": 0}, {"rental_uris": {"ios": "https://dc.lft.to/lastmile_qr_scan", "android": "https://dc.lft.to/lastmile_qr_scan"}, "lon": -77.02380233333334, "type": "electric_scooter", "fusion_lat": 0.0, "lat": 38.91914416666667, "name": "c42b9bba3a7d6acd37e9107e29ca1c7f", "fusion_lon": 0.0, "bike_id": "c42b9bba3a7d6acd37e9107e29ca1c7f", "is_disabled": 0, "is_reserved": 0}, {"rental_uris": {"ios": "https://dc.lft.to/lastmile_qr_scan", "android": "https://dc.lft.to/lastmile_qr_scan"}, "lon": -77.021894, "type": "electric_scooter", "fusion_lat": 0.0, "lat": 38.895024166666666, "name": "ce6a295a3dbe8ca794d87901a6bf018c", "fusion_lon": 0.0, "bike_id": "ce6a295a3dbe8ca794d87901a6bf018c", "is_disabled": 0, "is_reserved": 0}, {"rental_uris": {"ios": "https://dc.lft.to/lastmile_qr_scan", "android": "https://dc.lft.to/lastmile_qr_scan"}, "lon": -77.02972566666666, "type": "electric_scooter", "fusion_lat": 0.0, "lat": 38.88436816666667, "name": "fc2a780820bcd5163372c1da30ad3315", "fusion_lon": 0.0, "bike_id": "fc2a780820bcd5163372c1da30ad3315", "is_disabled": 0, "is_reserved": 0}, {"rental_uris": {"ios": "https://dc.lft.to/lastmile_qr_scan", "android": "https://dc.lft.to/lastmile_qr_scan"}, "lon": -77.1309505, "type": "electric_bike", "fusion_lat": 0.0, "lat": 38.861607166666666, "name": "7ad834b79d801f93e5242dc8df5424e4", "fusion_lon": 0.0, "bike_id": "7ad834b79d801f93e5242dc8df5424e4", "is_disabled": 0, "is_reserved": 0}, {"rental_uris": {"ios": "https://dc.lft.to/lastmile_qr_scan", "android": "https://dc.lft.to/lastmile_qr_scan"}, "lon": -77.03986383333333, "type": "electric_scooter", "fusion_lat": 0.0, "lat": 38.90131066666667, "name": "58a5c4229beb3548ab9bf6cc8340af21", "fusion_lon": 0.0, "bike_id": "58a5c4229beb3548ab9bf6cc8340af21", "is_disabled": 0, "is_reserved": 0}, {"rental_uris": {"ios": "https://dc.lft.to/lastmile_qr_scan", "android": "https://dc.lft.to/lastmile_qr_scan"}, "lon": -77.0142455, "type": "electric_scooter", "fusion_lat": 0.0, "lat": 38.905769666666664, "name": "f7dafc2d4ba6764218fea6e83c5c8022", "fusion_lon": 0.0, "bike_id": "f7dafc2d4ba6764218fea6e83c5c8022", "is_disabled": 0, "is_reserved": 0}, {"rental_uris": {"ios": "https://dc.lft.to/lastmile_qr_scan", "android": "https://dc.lft.to/lastmile_qr_scan"}, "lon": -77.02303716666667, "type": "electric_scooter", "fusion_lat": 0.0, "lat": 38.88364983333334, "name": "8b43ffcd386ec50e639587162532d9b6", "fusion_lon": 0.0, "bike_id": "8b43ffcd386ec50e639587162532d9b6", "is_disabled": 0, "is_reserved": 0}, {"rental_uris": {"ios": "https://dc.lft.to/lastmile_qr_scan", "android": "https://dc.lft.to/lastmile_qr_scan"}, "lon": -77.0198725, "type": "electric_bike", "fusion_lat": 0.0, "lat": 38.95667683333333, "name": "d9aafb6e5b40fce5750cb3b2424df987", "fusion_lon": 0.0, "bike_id": "d9aafb6e5b40fce5750cb3b2424df987", "is_disabled": 0, "is_reserved": 0}, {"rental_uris": {"ios": "https://dc.lft.to/lastmile_qr_scan", "android": "https://dc.lft.to/lastmile_qr_scan"}, "lon": -76.98515383333333, "type": "electric_scooter", "fusion_lat": 0.0, "lat": 38.900876833333335, "name": "3db732410ad317d73b21a67aa0fd8602", "fusion_lon": 0.0, "bike_id": "3db732410ad317d73b21a67aa0fd8602", "is_disabled": 0, "is_reserved": 0}, {"rental_uris": {"ios": "https://dc.lft.to/lastmile_qr_scan", "android": "https://dc.lft.to/lastmile_qr_scan"}, "lon": -77.02706766666667, "type": "electric_scooter", "fusion_lat": 0.0, "lat": 38.906750833333334, "name": "9101db0cac75860cadfd2945f2164f78", "fusion_lon": 0.0, "bike_id": "9101db0cac75860cadfd2945f2164f78", "is_disabled": 0, "is_reserved": 0}, {"rental_uris": {"ios": "https://dc.lft.to/lastmile_qr_scan", "android": "https://dc.lft.to/lastmile_qr_scan"}, "lon": -77.0420425, "type": "electric_scooter", "fusion_lat": 0.0, "lat": 38.91105916666667, "name": "f3a5361da07e2995f7567f95e15c4405", "fusion_lon": 0.0, "bike_id": "f3a5361da07e2995f7567f95e15c4405", "is_disabled": 0, "is_reserved": 0}, {"rental_uris": {"ios": "https://dc.lft.to/lastmile_qr_scan", "android": "https://dc.lft.to/lastmile_qr_scan"}, "lon": -77.091598, "type": "electric_bike", "fusion_lat": 0.0, "lat": 38.967620333333336, "name": "9094f69660ad23d6b0da9ba9f11d034b", "fusion_lon": 0.0, "bike_id": "9094f69660ad23d6b0da9ba9f11d034b", "is_disabled": 0, "is_reserved": 0}, {"rental_uris": {"ios": "https://dc.lft.to/lastmile_qr_scan", "android": "https://dc.lft.to/lastmile_qr_scan"}, "lon": -77.02589616666667, "type": "electric_scooter", "fusion_lat": 0.0, "lat": 38.91552016666667, "name": "fb5f09162e4e28b4d698cb49ed01274d", "fusion_lon": 0.0, "bike_id": "fb5f09162e4e28b4d698cb49ed01274d", "is_disabled": 0, "is_reserved": 0}, {"rental_uris": {"ios": "https://dc.lft.to/lastmile_qr_scan", "android": "https://dc.lft.to/lastmile_qr_scan"}, "lon": -77.04707933333333, "type": "electric_scooter", "fusion_lat": 0.0, "lat": 38.897375, "name": "a69ca1a4f4e7c54ef4f0bc7e0094ccd9", "fusion_lon": 0.0, "bike_id": "a69ca1a4f4e7c54ef4f0bc7e0094ccd9", "is_disabled": 0, "is_reserved": 0}, {"rental_uris": {"ios": "https://dc.lft.to/lastmile_qr_scan", "android": "https://dc.lft.to/lastmile_qr_scan"}, "lon": -77.043768, "type": "electric_scooter", "fusion_lat": 0.0, "lat": 38.92065633333333, "name": "c7fdfd4642afdffbc53d9ace7ab2137f", "fusion_lon": 0.0, "bike_id": "c7fdfd4642afdffbc53d9ace7ab2137f", "is_disabled": 0, "is_reserved": 0}, {"rental_uris": {"ios": "https://dc.lft.to/lastmile_qr_scan", "android": "https://dc.lft.to/lastmile_qr_scan"}, "lon": -77.05411266666667, "type": "electric_scooter", "fusion_lat": 0.0, "lat": 38.90401716666667, "name": "9517421950d0bd52a7d2d8b0b230a426", "fusion_lon": 0.0, "bike_id": "9517421950d0bd52a7d2d8b0b230a426", "is_disabled": 0, "is_reserved": 0}, {"rental_uris": {"ios": "https://dc.lft.to/lastmile_qr_scan", "android": "https://dc.lft.to/lastmile_qr_scan"}, "lon": -76.9907605, "type": "electric_scooter", "fusion_lat": 0.0, "lat": 38.904216166666664, "name": "40d7f5adc43bfb16e397b6e78ce967e4", "fusion_lon": 0.0, "bike_id": "40d7f5adc43bfb16e397b6e78ce967e4", "is_disabled": 0, "is_reserved": 0}, {"rental_uris": {"ios": "https://dc.lft.to/lastmile_qr_scan", "android": "https://dc.lft.to/lastmile_qr_scan"}, "lon": -77.05328933333334, "type": "electric_scooter", "fusion_lat": 0.0, "lat": 38.90412766666667, "name": "2aaba842401091173f1e283d8c773f40", "fusion_lon": 0.0, "bike_id": "2aaba842401091173f1e283d8c773f40", "is_disabled": 0, "is_reserved": 0}, {"rental_uris": {"ios": "https://dc.lft.to/lastmile_qr_scan", "android": "https://dc.lft.to/lastmile_qr_scan"}, "lon": -77.03230366666666, "type": "electric_scooter", "fusion_lat": 0.0, "lat": 38.9387495, "name": "31c44073af8ddad78d3d5390c3eef750", "fusion_lon": 0.0, "bike_id": "31c44073af8ddad78d3d5390c3eef750", "is_disabled": 0, "is_reserved": 0}, {"rental_uris": {"ios": "https://dc.lft.to/lastmile_qr_scan", "android": "https://dc.lft.to/lastmile_qr_scan"}, "lon": -77.04601783333334, "type": "electric_scooter", "fusion_lat": 0.0, "lat": 38.902299, "name": "7646ed74e7c3ab4935b2a65f63f06688", "fusion_lon": 0.0, "bike_id": "7646ed74e7c3ab4935b2a65f63f06688", "is_disabled": 0, "is_reserved": 0}, {"rental_uris": {"ios": "https://dc.lft.to/lastmile_qr_scan", "android": "https://dc.lft.to/lastmile_qr_scan"}, "lon": -77.050358, "type": "electric_scooter", "fusion_lat": 0.0, "lat": 38.896659166666666, "name": "07e4335cadd0c98bcf04b5103c6ba815", "fusion_lon": 0.0, "bike_id": "07e4335cadd0c98bcf04b5103c6ba815", "is_disabled": 0, "is_reserved": 0}, {"rental_uris": {"ios": "https://dc.lft.to/lastmile_qr_scan", "android": "https://dc.lft.to/lastmile_qr_scan"}, "lon": -76.97330433333333, "type": "electric_bike", "fusion_lat": 0.0, "lat": 38.850671166666665, "name": "cd2001ffd548efb4a874ee3a19b5609b", "fusion_lon": 0.0, "bike_id": "cd2001ffd548efb4a874ee3a19b5609b", "is_disabled": 0, "is_reserved": 0}, {"rental_uris": {"ios": "https://dc.lft.to/lastmile_qr_scan", "android": "https://dc.lft.to/lastmile_qr_scan"}, "lon": -77.04688166666666, "type": "electric_scooter", "fusion_lat": 0.0, "lat": 38.89606833333333, "name": "e8a10ce49ed828d813855814ee78c927", "fusion_lon": 0.0, "bike_id": "e8a10ce49ed828d813855814ee78c927", "is_disabled": 0, "is_reserved": 0}, {"rental_uris": {"ios": "https://dc.lft.to/lastmile_qr_scan", "android": "https://dc.lft.to/lastmile_qr_scan"}, "lon": -77.03978416666666, "type": "electric_scooter", "fusion_lat": 0.0, "lat": 38.902669333333336, "name": "a539e4bd6e19e157bd36a6cc176631d6", "fusion_lon": 0.0, "bike_id": "a539e4bd6e19e157bd36a6cc176631d6", "is_disabled": 0, "is_reserved": 0}, {"rental_uris": {"ios": "https://dc.lft.to/lastmile_qr_scan", "android": "https://dc.lft.to/lastmile_qr_scan"}, "lon": -77.04361716666666, "type": "electric_scooter", "fusion_lat": 0.0, "lat": 38.92121866666667, "name": "20e470a5aa129f9fc9c84b86a495b595", "fusion_lon": 0.0, "bike_id": "20e470a5aa129f9fc9c84b86a495b595", "is_disabled": 0, "is_reserved": 0}, {"rental_uris": {"ios": "https://dc.lft.to/lastmile_qr_scan", "android": "https://dc.lft.to/lastmile_qr_scan"}, "lon": -76.97729183333334, "type": "electric_scooter", "fusion_lat": 0.0, "lat": 38.872484, "name": "dbfab79abbae77658e4b0df52c8a0141", "fusion_lon": 0.0, "bike_id": "dbfab79abbae77658e4b0df52c8a0141", "is_disabled": 0, "is_reserved": 0}, {"rental_uris": {"ios": "https://dc.lft.to/lastmile_qr_scan", "android": "https://dc.lft.to/lastmile_qr_scan"}, "lon": -77.0367075, "type": "electric_scooter", "fusion_lat": 0.0, "lat": 38.92994383333333, "name": "6b8adc9e30efd883033b644b92b8a1df", "fusion_lon": 0.0, "bike_id": "6b8adc9e30efd883033b644b92b8a1df", "is_disabled": 0, "is_reserved": 0}, {"rental_uris": {"ios": "https://dc.lft.to/lastmile_qr_scan", "android": "https://dc.lft.to/lastmile_qr_scan"}, "lon": -77.024203, "type": "electric_scooter", "fusion_lat": 0.0, "lat": 38.9182065, "name": "5a0bc74ac5e24258b0b8184d6615d70c", "fusion_lon": 0.0, "bike_id": "5a0bc74ac5e24258b0b8184d6615d70c", "is_disabled": 0, "is_reserved": 0}, {"rental_uris": {"ios": "https://dc.lft.to/lastmile_qr_scan", "android": "https://dc.lft.to/lastmile_qr_scan"}, "lon": -77.04796966666666, "type": "electric_scooter", "fusion_lat": 0.0, "lat": 38.907312, "name": "fab1c0919ca01449757645bf97e86ad3", "fusion_lon": 0.0, "bike_id": "fab1c0919ca01449757645bf97e86ad3", "is_disabled": 0, "is_reserved": 0}, {"rental_uris": {"ios": "https://dc.lft.to/lastmile_qr_scan", "android": "https://dc.lft.to/lastmile_qr_scan"}, "lon": -77.02454683333333, "type": "electric_scooter", "fusion_lat": 0.0, "lat": 38.979367333333336, "name": "29e61f120229077f71d956c9b1bf5f95", "fusion_lon": 0.0, "bike_id": "29e61f120229077f71d956c9b1bf5f95", "is_disabled": 0, "is_reserved": 0}, {"rental_uris": {"ios": "https://dc.lft.to/lastmile_qr_scan", "android": "https://dc.lft.to/lastmile_qr_scan"}, "lon": -77.04723483333333, "type": "electric_scooter", "fusion_lat": 0.0, "lat": 38.91681, "name": "0c6bd94770023a801a1579925bb87ff7", "fusion_lon": 0.0, "bike_id": "0c6bd94770023a801a1579925bb87ff7", "is_disabled": 0, "is_reserved": 0}, {"rental_uris": {"ios": "https://dc.lft.to/lastmile_qr_scan", "android": "https://dc.lft.to/lastmile_qr_scan"}, "lon": -77.01123616666666, "type": "electric_scooter", "fusion_lat": 0.0, "lat": 38.91265533333333, "name": "b4f28a37f33feddab24902f59e94545b", "fusion_lon": 0.0, "bike_id": "b4f28a37f33feddab24902f59e94545b", "is_disabled": 0, "is_reserved": 0}, {"rental_uris": {"ios": "https://dc.lft.to/lastmile_qr_scan", "android": "https://dc.lft.to/lastmile_qr_scan"}, "lon": -77.02445283333333, "type": "electric_scooter", "fusion_lat": 0.0, "lat": 38.895093833333334, "name": "dbd02f4654dcba1f7bfd909937efc782", "fusion_lon": 0.0, "bike_id": "dbd02f4654dcba1f7bfd909937efc782", "is_disabled": 0, "is_reserved": 0}, {"rental_uris": {"ios": "https://dc.lft.to/lastmile_qr_scan", "android": "https://dc.lft.to/lastmile_qr_scan"}, "lon": -76.97224766666666, "type": "electric_bike", "fusion_lat": 0.0, "lat": 38.84485866666667, "name": "0fbfa404ab5f7828c7a476c624d27b1c", "fusion_lon": 0.0, "bike_id": "0fbfa404ab5f7828c7a476c624d27b1c", "is_disabled": 0, "is_reserved": 0}, {"rental_uris": {"ios": "https://dc.lft.to/lastmile_qr_scan", "android": "https://dc.lft.to/lastmile_qr_scan"}, "lon": -77.0322, "type": "electric_scooter", "fusion_lat": 0.0, "lat": 38.93390383333333, "name": "9311d47ff67a719e05c2fc9c85545c58", "fusion_lon": 0.0, "bike_id": "9311d47ff67a719e05c2fc9c85545c58", "is_disabled": 0, "is_reserved": 0}, {"rental_uris": {"ios": "https://dc.lft.to/lastmile_qr_scan", "android": "https://dc.lft.to/lastmile_qr_scan"}, "lon": -77.03210733333333, "type": "electric_scooter", "fusion_lat": 0.0, "lat": 38.90989833333333, "name": "a28a77f9e50652b6f9b614ea2ba2c049", "fusion_lon": 0.0, "bike_id": "a28a77f9e50652b6f9b614ea2ba2c049", "is_disabled": 0, "is_reserved": 0}, {"rental_uris": {"ios": "https://dc.lft.to/lastmile_qr_scan", "android": "https://dc.lft.to/lastmile_qr_scan"}, "lon": -77.03836433333333, "type": "electric_scooter", "fusion_lat": 0.0, "lat": 38.911911333333336, "name": "cf5a4e3d858766f94b07026dd510f538", "fusion_lon": 0.0, "bike_id": "cf5a4e3d858766f94b07026dd510f538", "is_disabled": 0, "is_reserved": 0}, {"rental_uris": {"ios": "https://dc.lft.to/lastmile_qr_scan", "android": "https://dc.lft.to/lastmile_qr_scan"}, "lon": -76.94440466666667, "type": "electric_bike", "fusion_lat": 0.0, "lat": 38.902983166666665, "name": "75d30bcfa813aaf9f1acb645571845b2", "fusion_lon": 0.0, "bike_id": "75d30bcfa813aaf9f1acb645571845b2", "is_disabled": 0, "is_reserved": 0}, {"rental_uris": {"ios": "https://dc.lft.to/lastmile_qr_scan", "android": "https://dc.lft.to/lastmile_qr_scan"}, "lon": -77.0118475, "type": "electric_scooter", "fusion_lat": 0.0, "lat": 38.9001745, "name": "d8583ad9959f01473934ae43951ae52a", "fusion_lon": 0.0, "bike_id": "d8583ad9959f01473934ae43951ae52a", "is_disabled": 0, "is_reserved": 0}, {"rental_uris": {"ios": "https://dc.lft.to/lastmile_qr_scan", "android": "https://dc.lft.to/lastmile_qr_scan"}, "lon": -77.07709933333334, "type": "electric_scooter", "fusion_lat": 0.0, "lat": 38.9561555, "name": "6c8f2b69dcf1369eb5eedef720ac0f97", "fusion_lon": 0.0, "bike_id": "6c8f2b69dcf1369eb5eedef720ac0f97", "is_disabled": 0, "is_reserved": 0}, {"rental_uris": {"ios": "https://dc.lft.to/lastmile_qr_scan", "android": "https://dc.lft.to/lastmile_qr_scan"}, "lon": -77.039295, "type": "electric_scooter", "fusion_lat": 0.0, "lat": 38.899189166666666, "name": "b54a882cbffe74045f212182daa726d1", "fusion_lon": 0.0, "bike_id": "b54a882cbffe74045f212182daa726d1", "is_disabled": 0, "is_reserved": 0}, {"rental_uris": {"ios": "https://dc.lft.to/lastmile_qr_scan", "android": "https://dc.lft.to/lastmile_qr_scan"},