{"data": {"bikes": [{"bike_id": "eedd7253d786d43e22760256361e9ce1", "type": "electric_scooter", "fusion_lat": 0.0, "lat": 38.9002855, "lon": -76.98857516666666, "fusion_lon": 0.0, "name": "eedd7253d786d43e22760256361e9ce1", "rental_uris": {"ios": "https://dc.lft.to/lastmile_qr_scan", "android": "https://dc.lft.to/lastmile_qr_scan"}, "is_disabled": 0, "is_reserved": 0}, {"bike_id": "a47e724e6f618225857e5ef145a0d13e", "type": "electric_scooter", "fusion_lat": 0.0, "lat": 38.885974833333336, "lon": -77.0117915, "fusion_lon": 0.0, "name": "a47e724e6f618225857e5ef145a0d13e", "rental_uris": {"ios": "https://dc.lft.to/lastmile_qr_scan", "android": "https://dc.lft.to/lastmile_qr_scan"}, "is_disabled": 0, "is_reserved": 0}, {"bike_id": "28f49ac59b01c74ca2c2c0e4d764e2db", "type": "electric_scooter", "fusion_lat": 0.0, "lat": 38.8941, "lon": -77.02173016666667, "fusion_lon": 0.0, "name": "28f49ac59b01c74ca2c2c0e4d764e2db", "rental_uris": {"ios": "https://dc.lft.to/lastmile_qr_scan", "android": "https://dc.lft.to/lastmile_qr_scan"}, "is_disabled": 0, "is_reserved": 0}, {"bike_id": "1c40e88830af289888dbcbddd32def72", "type": "electric_bike", "fusion_lat": 0.0, "lat": 38.865757, "lon": -76.97338116666667, "fusion_lon": 0.0, "name": "1c40e88830af289888dbcbddd32def72", "rental_uris": {"ios": "https://dc.lft.to/lastmile_qr_scan", "android": "https://dc.lft.to/lastmile_qr_scan"}, "is_disabled": 0, "is_reserved": 0}, {"bike_id": "d39ccc35c755e59bc19be609b73b6275", "type": "electric_scooter", "fusion_lat": 0.0, "lat": 38.92873766666666, "lon": -77.01381716666667, "fusion_lon": 0.0, "name": "d39ccc35c755e59bc19be609b73b6275", "rental_uris": {"ios": "https://dc.lft.to/lastmile_qr_scan", "android": "https://dc.lft.to/lastmile_qr_scan"}, "is_disabled": 0, "is_reserved": 0}, {"bike_id": "e146fa8f3e249b54b1c59ada7df5488a", "type": "electric_bike", "fusion_lat": 0.0, "lat": 38.909821, "lon": -77.0648155, "fusion_lon": 0.0, "name": "e146fa8f3e249b54b1c59ada7df5488a", "rental_uris": {"ios": "https://dc.lft.to/lastmile_qr_scan", "android": "https://dc.lft.to/lastmile_qr_scan"}, "is_disabled": 0, "is_reserved": 0}, {"bike_id": "82c2557b62c1b6a417d207968a6c9351", "type": "electric_scooter", "fusion_lat": 0.0, "lat": 38.90467816666666, "lon": -77.044733, "fusion_lon": 0.0, "name": "82c2557b62c1b6a417d207968a6c9351", "rental_uris": {"ios": "https://dc.lft.to/lastmile_qr_scan", "android": "https://dc.lft.to/lastmile_qr_scan"}, "is_disabled": 0, "is_reserved": 0}, {"bike_id": "d6124284ca82f6249515b1080976e346", "type": "electric_scooter", "fusion_lat": 0.0, "lat": 38.924019, "lon": -77.02969516666667, "fusion_lon": 0.0, "name": "d6124284ca82f6249515b1080976e346", "rental_uris": {"ios": "https://dc.lft.to/lastmile_qr_scan", "android": "https://dc.lft.to/lastmile_qr_scan"}, "is_disabled": 0, "is_reserved": 0}, {"bike_id": "ac5cc7171c54a236b599ffac8683ce46", "type": "electric_bike", "fusion_lat": 0.0, "lat": 38.837873, "lon": -77.09348883333334, "fusion_lon": 0.0, "name": "ac5cc7171c54a236b599ffac8683ce46", "rental_uris": {"ios": "https://dc.lft.to/lastmile_qr_scan", "android": "https://dc.lft.to/lastmile_qr_scan"}, "is_disabled": 0, "is_reserved": 0}, {"bike_id": "914777acafd6ee3fb2a3118738a31caa", "type": "electric_scooter", "fusion_lat": 0.0, "lat": 38.92452633333333, "lon": -77.02034333333333, "fusion_lon": 0.0, "name": "914777acafd6ee3fb2a3118738a31caa", "rental_uris": {"ios": "https://dc.lft.to/lastmile_qr_scan", "android": "https://dc.lft.to/lastmile_qr_scan"}, "is_disabled": 0, "is_reserved": 0}, {"bike_id": "3e53ca22cf0709fcae483dc942c75c5d", "type": "electric_scooter", "fusion_lat": 0.0, "lat": 38.89000733333334, "lon": -77.04894333333333, "fusion_lon": 0.0, "name": "3e53ca22cf0709fcae483dc942c75c5d", "rental_uris": {"ios": "https://dc.lft.to/lastmile_qr_scan", "android": "https://dc.lft.to/lastmile_qr_scan"}, "is_disabled": 0, "is_reserved": 0}, {"bike_id": "aec65f31ec7418541ac329a94fc88d54", "type": "electric_scooter", "fusion_lat": 0.0, "lat": 38.902787333333336, "lon": -77.03946133333334, "fusion_lon": 0.0, "name": "aec65f31ec7418541ac329a94fc88d54", "rental_uris": {"ios": "https://dc.lft.to/lastmile_qr_scan", "android": "https://dc.lft.to/lastmile_qr_scan"}, "is_disabled": 0, "is_reserved": 0}, {"bike_id": "b9dc6a1bd0ecee5e7821e7b6b01ebc39", "type": "electric_scooter", "fusion_lat": 0.0, "lat": 38.92482116666667, "lon": -77.0222245, "fusion_lon": 0.0, "name": "b9dc6a1bd0ecee5e7821e7b6b01ebc39", "rental_uris": {"ios": "https://dc.lft.to/lastmile_qr_scan", "android": "https://dc.lft.to/lastmile_qr_scan"}, "is_disabled": 0, "is_reserved": 0}, {"bike_id": "fd94f5f38e9d45096f69f9247ed434f7", "type": "electric_scooter", "fusion_lat": 0.0, "lat": 38.929348833333336, "lon": -77.0328445, "fusion_lon": 0.0, "name": "fd94f5f38e9d45096f69f9247ed434f7", "rental_uris": {"ios": "https://dc.lft.to/lastmile_qr_scan", "android": "https://dc.lft.to/lastmile_qr_scan"}, "is_disabled": 0, "is_reserved": 0}, {"bike_id": "dee752fc516a57d3c55f67e6897f9530", "type": "electric_scooter", "fusion_lat": 0.0, "lat": 38.8922355, "lon": -77.03173116666666, "fusion_lon": 0.0, "name": "dee752fc516a57d3c55f67e6897f9530", "rental_uris": {"ios": "https://dc.lft.to/lastmile_qr_scan", "android": "https://dc.lft.to/lastmile_qr_scan"}, "is_disabled": 0, "is_reserved": 0}, {"bike_id": "8dad7e8b60f0757bbdaeef06c1818dbe", "type": "electric_scooter", "fusion_lat": 0.0, "lat": 38.883567666666664, "lon": -76.957684, "fusion_lon": 0.0, "name": "8dad7e8b60f0757bbdaeef06c1818dbe", "rental_uris": {"ios": "https://dc.lft.to/lastmile_qr_scan", "android": "https://dc.lft.to/lastmile_qr_scan"}, "is_disabled": 0, "is_reserved": 0}, {"bike_id": "b3050362d38e8427cad7339eee88e4d6", "type": "electric_scooter", "fusion_lat": 0.0, "lat": 38.911201, "lon": -77.00601633333333, "fusion_lon": 0.0, "name": "b3050362d38e8427cad7339eee88e4d6", "rental_uris": {"ios": "https://dc.lft.to/lastmile_qr_scan", "android": "https://dc.lft.to/lastmile_qr_scan"}, "is_disabled": 0, "is_reserved": 0}, {"bike_id": "db1eb4ac66d3afa04510772e193926fc", "type": "electric_scooter", "fusion_lat": 0.0, "lat": 38.908891833333335, "lon": -76.99118383333334, "fusion_lon": 0.0, "name": "db1eb4ac66d3afa04510772e193926fc", "rental_uris": {"ios": "https://dc.lft.to/lastmile_qr_scan", "android": "https://dc.lft.to/lastmile_qr_scan"}, "is_disabled": 0, "is_reserved": 0}, {"bike_id": "593a4e828b98e54829cf2d275de450ea", "type": "electric_scooter", "fusion_lat": 0.0, "lat": 38.9077215, "lon": -77.04496816666666, "fusion_lon": 0.0, "name": "593a4e828b98e54829cf2d275de450ea", "rental_uris": {"ios": "https://dc.lft.to/lastmile_qr_scan", "android": "https://dc.lft.to/lastmile_qr_scan"}, "is_disabled": 0, "is_reserved": 0}, {"bike_id": "b6730795e375bbf2a8ed8b232676e783", "type": "electric_scooter", "fusion_lat": 0.0, "lat": 38.90411833333334, "lon": -77.04179433333333, "fusion_lon": 0.0, "name": "b6730795e375bbf2a8ed8b232676e783", "rental_uris": {"ios": "https://dc.lft.to/lastmile_qr_scan", "android": "https://dc.lft.to/lastmile_qr_scan"}, "is_disabled": 0, "is_reserved": 0}, {"bike_id": "2bb646eb14732b93757d96cf9510040c", "type": "electric_scooter", "fusion_lat": 0.0, "lat": 38.92088483333333, "lon": -77.025129, "fusion_lon": 0.0, "name": "2bb646eb14732b93757d96cf9510040c", "rental_uris": {"ios": "https://dc.lft.to/lastmile_qr_scan", "android": "https://dc.lft.to/lastmile_qr_scan"}, "is_disabled": 0, "is_reserved": 0}, {"bike_id": "341f2ed8fe54dccb9450b5d528cd7fb6", "type": "electric_scooter", "fusion_lat": 0.0, "lat": 38.924758833333335, "lon": -77.02201966666667, "fusion_lon": 0.0, "name": "341f2ed8fe54dccb9450b5d528cd7fb6", "rental_uris": {"ios": "https://dc.lft.to/lastmile_qr_scan", "android": "https://dc.lft.to/lastmile_qr_scan"}, "is_disabled": 0, "is_reserved": 0}, {"bike_id": "8620f6a4bbe2d734243210d35f1a895e", "type": "electric_scooter", "fusion_lat": 0.0, "lat": 38.92715883333334, "lon": -77.04112366666666, "fusion_lon": 0.0, "name": "8620f6a4bbe2d734243210d35f1a895e", "rental_uris": {"ios": "https://dc.lft.to/lastmile_qr_scan", "android": "https://dc.lft.to/lastmile_qr_scan"}, "is_disabled": 0, "is_reserved": 0}, {"bike_id": "70b52dc0c937ef4e48ecdfa5a82e35a5", "type": "electric_scooter", "fusion_lat": 0.0, "lat": 38.9161115, "lon": -77.03274716666667, "fusion_lon": 0.0, "name": "70b52dc0c937ef4e48ecdfa5a82e35a5", "rental_uris": {"ios": "https://dc.lft.to/lastmile_qr_scan", "android": "https://dc.lft.to/lastmile_qr_scan"}, "is_disabled": 0, "is_reserved": 0}, {"bike_id": "bd701a7e6614160374f5927699b3c761", "type": "electric_scooter", "fusion_lat": 0.0, "lat": 38.919358, "lon": -77.01917666666667, "fusion_lon": 0.0, "name": "bd701a7e6614160374f5927699b3c761", "rental_uris": {"ios": "https://dc.lft.to/lastmile_qr_scan", "android": "https://dc.lft.to/lastmile_qr_scan"}, "is_disabled": 0, "is_reserved": 0}, {"bike_id": "d09d2005774874cf899fc3a69092206b", "type": "electric_scooter", "fusion_lat": 0.0, "lat": 38.92138116666667, "lon": -77.01903716666666, "fusion_lon": 0.0, "name": "d09d2005774874cf899fc3a69092206b", "rental_uris": {"ios": "https://dc.lft.to/lastmile_qr_scan", "android": "https://dc.lft.to/lastmile_qr_scan"}, "is_disabled": 0, "is_reserved": 0}, {"bike_id": "3a5d11a838cac5325e4dc405b73deec6", "type": "electric_scooter", "fusion_lat": 0.0, "lat": 38.89226433333333, "lon": -77.02406433333333, "fusion_lon": 0.0, "name": "3a5d11a838cac5325e4dc405b73deec6", "rental_uris": {"ios": "https://dc.lft.to/lastmile_qr_scan", "android": "https://dc.lft.to/lastmile_qr_scan"}, "is_disabled": 0, "is_reserved": 0}, {"bike_id": "0838fecbac6027aab4dc4777975bc29c", "type": "electric_bike", "fusion_lat": 0.0, "lat": 38.95878116666667, "lon": -77.0102345, "fusion_lon": 0.0, "name": "0838fecbac6027aab4dc4777975bc29c", "rental_uris": {"ios": "https://dc.lft.to/lastmile_qr_scan", "android": "https://dc.lft.to/lastmile_qr_scan"}, "is_disabled": 0, "is_reserved": 0}, {"bike_id": "d153cf381334b45d1d82773b4c704805", "type": "electric_scooter", "fusion_lat": 0.0, "lat": 38.92658216666667, "lon": -77.0227385, "fusion_lon": 0.0, "name": "d153cf381334b45d1d82773b4c704805", "rental_uris": {"ios": "https://dc.lft.to/lastmile_qr_scan", "android": "https://dc.lft.to/lastmile_qr_scan"}, "is_disabled": 0, "is_reserved": 0}, {"bike_id": "cab701d630eea89a8cd18b86edc68560", "type": "electric_scooter", "fusion_lat": 0.0, "lat": 38.899219, "lon": -77.02932016666666, "fusion_lon": 0.0, "name": "cab701d630eea89a8cd18b86edc68560", "rental_uris": {"ios": "https://dc.lft.to/lastmile_qr_scan", "android": "https://dc.lft.to/lastmile_qr_scan"}, "is_disabled": 0, "is_reserved": 0}, {"bike_id": "c0d7d7b8a8de1de0f56c5040268a8b50", "type": "electric_bike", "fusion_lat": 0.0, "lat": 38.95539633333333, "lon": -76.96856033333333, "fusion_lon": 0.0, "name": "c0d7d7b8a8de1de0f56c5040268a8b50", "rental_uris": {"ios": "https://dc.lft.to/lastmile_qr_scan", "android": "https://dc.lft.to/lastmile_qr_scan"}, "is_disabled": 0, "is_reserved": 0}, {"bike_id": "523a1e8cd9ed2fe89928d1efec2c11a9", "type": "electric_scooter", "fusion_lat": 0.0, "lat": 38.924303333333334, "lon": -77.02239733333333, "fusion_lon": 0.0, "name": "523a1e8cd9ed2fe89928d1efec2c11a9", "rental_uris": {"ios": "https://dc.lft.to/lastmile_qr_scan", "android": "https://dc.lft.to/lastmile_qr_scan"}, "is_disabled": 0, "is_reserved": 0}, {"bike_id": "8fbcddeca15eb14bb093454b5a4aea81", "type": "electric_bike", "fusion_lat": 0.0, "lat": 38.838652833333335, "lon": -76.9969765, "fusion_lon": 0.0, "name": "8fbcddeca15eb14bb093454b5a4aea81", "rental_uris": {"ios": "https://dc.lft.to/lastmile_qr_scan", "android": "https://dc.lft.to/lastmile_qr_scan"}, "is_disabled": 0, "is_reserved": 0}, {"bike_id": "442c6d2113cdefc8252617ccea09c2b4", "type": "electric_scooter", "fusion_lat": 0.0, "lat": 38.901771333333336, "lon": -77.0505935, "fusion_lon": 0.0, "name": "442c6d2113cdefc8252617ccea09c2b4", "rental_uris": {"ios": "https://dc.lft.to/lastmile_qr_scan", "android": "https://dc.lft.to/lastmile_qr_scan"}, "is_disabled": 0, "is_reserved": 0}, {"bike_id": "36c5719b43034c637f3f06baffb4672d", "type": "electric_scooter", "fusion_lat": 0.0, "lat": 38.9340515, "lon": -77.0413785, "fusion_lon": 0.0, "name": "36c5719b43034c637f3f06baffb4672d", "rental_uris": {"ios": "https://dc.lft.to/lastmile_qr_scan", "android": "https://dc.lft.to/lastmile_qr_scan"}, "is_disabled": 0, "is_reserved": 0}, {"bike_id": "cc5047d236ac1b2b0c813dc73f5e8a04", "type": "electric_scooter", "fusion_lat": 0.0, "lat": 38.92491916666667, "lon": -77.02173883333333, "fusion_lon": 0.0, "name": "cc5047d236ac1b2b0c813dc73f5e8a04", "rental_uris": {"ios": "https://dc.lft.to/lastmile_qr_scan", "android": "https://dc.lft.to/lastmile_qr_scan"}, "is_disabled": 0, "is_reserved": 0}, {"bike_id": "19cc8c6845ac70c2ad98810795f27aff", "type": "electric_scooter", "fusion_lat": 0.0, "lat": 38.92244516666667, "lon": -77.03887083333333, "fusion_lon": 0.0, "name": "19cc8c6845ac70c2ad98810795f27aff", "rental_uris": {"ios": "https://dc.lft.to/lastmile_qr_scan", "android": "https://dc.lft.to/lastmile_qr_scan"}, "is_disabled": 0, "is_reserved": 0}, {"bike_id": "2ef342daabb0dd7d91b31ada31b5f10e", "type": "electric_scooter", "fusion_lat": 0.0, "lat": 38.902782, "lon": -77.03433433333333, "fusion_lon": 0.0, "name": "2ef342daabb0dd7d91b31ada31b5f10e", "rental_uris": {"ios": "https://dc.lft.to/lastmile_qr_scan", "android": "https://dc.lft.to/lastmile_qr_scan"}, "is_disabled": 0, "is_reserved": 0}, {"bike_id": "18951aa6cf1e2886d25067f229e6fe8a", "type": "electric_scooter", "fusion_lat": 0.0, "lat": 38.92155616666667, "lon": -77.04231366666667, "fusion_lon": 0.0, "name": "18951aa6cf1e2886d25067f229e6fe8a", "rental_uris": {"ios": "https://dc.lft.to/lastmile_qr_scan", "android": "https://dc.lft.to/lastmile_qr_scan"}, "is_disabled": 0, "is_reserved": 0}, {"bike_id": "5bba61668a58b99438522e59af245de4", "type": "electric_bike", "fusion_lat": 0.0, "lat": 38.906159333333335, "lon": -77.07021166666667, "fusion_lon": 0.0, "name": "5bba61668a58b99438522e59af245de4", "rental_uris": {"ios": "https://dc.lft.to/lastmile_qr_scan", "android": "https://dc.lft.to/lastmile_qr_scan"}, "is_disabled": 0, "is_reserved": 0}, {"bike_id": "069590913b1d2382abc2c9435f259fd0", "type": "electric_scooter", "fusion_lat": 0.0, "lat": 38.9059535, "lon": -77.05703816666667, "fusion_lon": 0.0, "name": "069590913b1d2382abc2c9435f259fd0", "rental_uris": {"ios": "https://dc.lft.to/lastmile_qr_scan", "android": "https://dc.lft.to/lastmile_qr_scan"}, "is_disabled": 0, "is_reserved": 0}, {"bike_id": "3053c1cf55bb74512120674da83e4124", "type": "electric_scooter", "fusion_lat": 0.0, "lat": 38.905138, "lon": -77.05153966666667, "fusion_lon": 0.0, "name": "3053c1cf55bb74512120674da83e4124", "rental_uris": {"ios": "https://dc.lft.to/lastmile_qr_scan", "android": "https://dc.lft.to/lastmile_qr_scan"}, "is_disabled": 0, "is_reserved": 0}, {"bike_id": "df62edf93e3da208980233b12d14598e", "type": "electric_bike", "fusion_lat": 0.0, "lat": 38.91879333333333, "lon": -76.96436083333333, "fusion_lon": 0.0, "name": "df62edf93e3da208980233b12d14598e", "rental_uris": {"ios": "https://dc.lft.to/lastmile_qr_scan", "android": "https://dc.lft.to/lastmile_qr_scan"}, "is_disabled": 0, "is_reserved": 0}, {"bike_id": "83de1382203bf0c820c9ad270bf6ebd2", "type": "electric_scooter", "fusion_lat": 0.0, "lat": 38.926251, "lon": -77.04191166666666, "fusion_lon": 0.0, "name": "83de1382203bf0c820c9ad270bf6ebd2", "rental_uris": {"ios": "https://dc.lft.to/lastmile_qr_scan", "android": "https://dc.lft.to/lastmile_qr_scan"}, "is_disabled": 0, "is_reserved": 0}, {"bike_id": "be1131cbaa87f3f14024c35cb885511c", "type": "electric_scooter", "fusion_lat": 0.0, "lat": 38.8916485, "lon": -77.01549833333333, "fusion_lon": 0.0, "name": "be1131cbaa87f3f14024c35cb885511c", "rental_uris": {"ios": "https://dc.lft.to/lastmile_qr_scan", "android": "https://dc.lft.to/lastmile_qr_scan"}, "is_disabled": 0, "is_reserved": 0}, {"bike_id": "d677b32e7bd6acc128a87e3c5fd312fd", "type": "electric_bike", "fusion_lat": 0.0, "lat": 38.90600966666667, "lon": -77.07161233333333, "fusion_lon": 0.0, "name": "d677b32e7bd6acc128a87e3c5fd312fd", "rental_uris": {"ios": "https://dc.lft.to/lastmile_qr_scan", "android": "https://dc.lft.to/lastmile_qr_scan"}, "is_disabled": 0, "is_reserved": 0}, {"bike_id": "58359e9d518bfd2354658baa82e16cd5", "type": "electric_bike", "fusion_lat": 0.0, "lat": 38.835859166666665, "lon": -76.99016583333334, "fusion_lon": 0.0, "name": "58359e9d518bfd2354658baa82e16cd5", "rental_uris": {"ios": "https://dc.lft.to/lastmile_qr_scan", "android": "https://dc.lft.to/lastmile_qr_scan"}, "is_disabled": 0, "is_reserved": 0}, {"bike_id": "38104bb5b94504f52911ce672f119237", "type": "electric_scooter", "fusion_lat": 0.0, "lat": 38.90118783333333, "lon": -77.0230145, "fusion_lon": 0.0, "name": "38104bb5b94504f52911ce672f119237", "rental_uris": {"ios": "https://dc.lft.to/lastmile_qr_scan", "android": "https://dc.lft.to/lastmile_qr_scan"}, "is_disabled": 0, "is_reserved": 0}, {"bike_id": "5a82f8ece13fac6c717e7b20cd066bdc", "type": "electric_scooter", "fusion_lat": 0.0, "lat": 38.905311833333336, "lon": -77.058729, "fusion_lon": 0.0, "name": "5a82f8ece13fac6c717e7b20cd066bdc", "rental_uris": {"ios": "https://dc.lft.to/lastmile_qr_scan", "android": "https://dc.lft.to/lastmile_qr_scan"}, "is_disabled": 0, "is_reserved": 0}, {"bike_id": "ae6d4b7d80acd3536643334b33caf4d1", "type": "electric_scooter", "fusion_lat": 0.0, "lat": 38.90027283333333, "lon": -77.03651866666667, "fusion_lon": 0.0, "name": "ae6d4b7d80acd3536643334b33caf4d1", "rental_uris": {"ios": "https://dc.lft.to/lastmile_qr_scan", "android": "https://dc.lft.to/lastmile_qr_scan"}, "is_disabled": 0, "is_reserved": 0}, {"bike_id": "2f07ffb73d5a38cc10d3332b4bd179d6", "type": "electric_scooter", "fusion_lat": 0.0, "lat": 38.886530666666665, "lon": -77.02828183333334, "fusion_lon": 0.0, "name": "2f07ffb73d5a38cc10d3332b4bd179d6", "rental_uris": {"ios": "https://dc.lft.to/lastmile_qr_scan", "android": "https://dc.lft.to/lastmile_qr_scan"}, "is_disabled": 0, "is_reserved": 0}, {"bike_id": "2ec5e1dbe3258cea8c912e2bb8b774b4", "type": "electric_bike", "fusion_lat": 0.0, "lat": 38.96729766666667, "lon": -77.089119, "fusion_lon": 0.0, "name": "2ec5e1dbe3258cea8c912e2bb8b774b4", "rental_uris": {"ios": "https://dc.lft.to/lastmile_qr_scan", "android": "https://dc.lft.to/lastmile_qr_scan"}, "is_disabled": 0, "is_reserved": 0}, {"bike_id": "e27abcefb5bda24e1caf2147c99fb93b", "type": "electric_scooter", "fusion_lat": 0.0, "lat": 38.927635333333335, "lon": -77.015366, "fusion_lon": 0.0, "name": "e27abcefb5bda24e1caf2147c99fb93b", "rental_uris": {"ios": "https://dc.lft.to/lastmile_qr_scan", "android": "https://dc.lft.to/lastmile_qr_scan"}, "is_disabled": 0, "is_reserved": 0}, {"bike_id": "f4b3991e032f926849769719b7909272", "type": "electric_scooter", "fusion_lat": 0.0, "lat": 38.92251066666667, "lon": -77.019494, "fusion_lon": 0.0, "name": "f4b3991e032f926849769719b7909272", "rental_uris": {"ios": "https://dc.lft.to/lastmile_qr_scan", "android": "https://dc.lft.to/lastmile_qr_scan"}, "is_disabled": 0, "is_reserved": 0}, {"bike_id": "dc798429ea618bc40937b5b1cfb4ffcb", "type": "electric_bike", "fusion_lat": 0.0, "lat": 38.855927666666666, "lon": -76.9727425, "fusion_lon": 0.0, "name": "dc798429ea618bc40937b5b1cfb4ffcb", "rental_uris": {"ios": "https://dc.lft.to/lastmile_qr_scan", "android": "https://dc.lft.to/lastmile_qr_scan"}, "is_disabled": 0, "is_reserved": 0}, {"bike_id": "c6c4cb93c05e66a4e7a2885ea01984d5", "type": "electric_scooter", "fusion_lat": 0.0, "lat": 38.89362933333334, "lon": -77.04477466666667, "fusion_lon": 0.0, "name": "c6c4cb93c05e66a4e7a2885ea01984d5", "rental_uris": {"ios": "https://dc.lft.to/lastmile_qr_scan", "android": "https://dc.lft.to/lastmile_qr_scan"}, "is_disabled": 0, "is_reserved": 0}, {"bike_id": "65a4af7eb4a7f5709d4a24732f2ccbb9", "type": "electric_bike", "fusion_lat": 0.0, "lat": 38.87146283333333, "lon": -77.2299515, "fusion_lon": 0.0, "name": "65a4af7eb4a7f5709d4a24732f2ccbb9", "rental_uris": {"ios": "https://dc.lft.to/lastmile_qr_scan", "android": "https://dc.lft.to/lastmile_qr_scan"}, "is_disabled": 0, "is_reserved": 0}, {"bike_id": "5f3da6cedf871025377bf79362182264", "type": "electric_bike", "fusion_lat": 0.0, "lat": 38.98558233333333, "lon": -77.00394733333333, "fusion_lon": 0.0, "name": "5f3da6cedf871025377bf79362182264", "rental_uris": {"ios": "https://dc.lft.to/lastmile_qr_scan", "android": "https://dc.lft.to/lastmile_qr_scan"}, "is_disabled": 0, "is_reserved": 0}, {"bike_id": "da7d9c88ae1eb35d81328157f318472a", "type": "electric_scooter", "fusion_lat": 0.0, "lat": 38.92683616666667, "lon": -77.01568616666667, "fusion_lon": 0.0, "name": "da7d9c88ae1eb35d81328157f318472a", "rental_uris": {"ios": "https://dc.lft.to/lastmile_qr_scan", "android": "https://dc.lft.to/lastmile_qr_scan"}, "is_disabled": 0, "is_reserved": 0}, {"bike_id": "67b65163251e15d9d76d312344b354e5", "type": "electric_scooter", "fusion_lat": 0.0, "lat": 38.87845166666666, "lon": -77.02280516666667, "fusion_lon": 0.0, "name": "67b65163251e15d9d76d312344b354e5", "rental_uris": {"ios": "https://dc.lft.to/lastmile_qr_scan", "android": "https://dc.lft.to/lastmile_qr_scan"}, "is_disabled": 0, "is_reserved": 0}, {"bike_id": "f4920e982ee503b6021ad4fefc68e4e2", "type": "electric_scooter", "fusion_lat": 0.0, "lat": 38.9062235, "lon": -77.00579933333333, "fusion_lon": 0.0, "name": "f4920e982ee503b6021ad4fefc68e4e2", "rental_uris": {"ios": "https://dc.lft.to/lastmile_qr_scan", "android": "https://dc.lft.to/lastmile_qr_scan"}, "is_disabled": 0, "is_reserved": 0}, {"bike_id": "b7b14cd801f356caf49931eafa40fa70", "type": "electric_scooter", "fusion_lat": 0.0, "lat": 38.920591333333334, "lon": -77.01662483333334, "fusion_lon": 0.0, "name": "b7b14cd801f356caf49931eafa40fa70", "rental_uris": {"ios": "https://dc.lft.to/lastmile_qr_scan", "android": "https://dc.lft.to/lastmile_qr_scan"}, "is_disabled": 0, "is_reserved": 0}, {"bike_id": "1c77aeb835bae492b083b416a719a193", "type": "electric_scooter", "fusion_lat": 0.0, "lat": 38.884303333333335, "lon": -77.02794666666667, "fusion_lon": 0.0, "name": "1c77aeb835bae492b083b416a719a193", "rental_uris": {"ios": "https://dc.lft.to/lastmile_qr_scan", "android": "https://dc.lft.to/lastmile_qr_scan"}, "is_disabled": 0, "is_reserved": 0}, {"bike_id": "a44354f40f62ff06dd58399854850248", "type": "electric_scooter", "fusion_lat": 0.0, "lat": 38.896217666666665, "lon": -77.0459505, "fusion_lon": 0.0, "name": "a44354f40f62ff06dd58399854850248", "rental_uris": {"ios": "https://dc.lft.to/lastmile_qr_scan", "android": "https://dc.lft.to/lastmile_qr_scan"}, "is_disabled": 0, "is_reserved": 0}, {"bike_id": "aaa9cde098912a45f6374cb2e5f438b4", "type": "electric_scooter", "fusion_lat": 0.0, "lat": 38.92246516666667, "lon": -77.07472966666667, "fusion_lon": 0.0, "name": "aaa9cde098912a45f6374cb2e5f438b4", "rental_uris": {"ios": "https://dc.lft.to/lastmile_qr_scan", "android": "https://dc.lft.to/lastmile_qr_scan"}, "is_disabled": 0, "is_reserved": 0}, {"bike_id": "e042ca58186348c3d7de434f61d81a2a", "type": "electric_scooter", "fusion_lat": 0.0, "lat": 38.928877, "lon": -77.04077583333333, "fusion_lon": 0.0, "name": "e042ca58186348c3d7de434f61d81a2a", "rental_uris": {"ios": "https://dc.lft.to/lastmile_qr_scan", "android": "https://dc.lft.to/lastmile_qr_scan"}, "is_disabled": 0, "is_reserved": 0}, {"bike_id": "3b0249b2256e858d20f4e7666e195b92", "type": "electric_scooter", "fusion_lat": 0.0, "lat": 38.902992833333336, "lon": -77.03651166666667, "fusion_lon": 0.0, "name": "3b0249b2256e858d20f4e7666e195b92", "rental_uris": {"ios": "https://dc.lft.to/lastmile_qr_scan", "android": "https://dc.lft.to/lastmile_qr_scan"}, "is_disabled": 0, "is_reserved": 0}, {"bike_id": "8060c969b89d8203c45a74c7f33c8621", "type": "electric_scooter", "fusion_lat": 0.0, "lat": 38.904073, "lon": -76.9733225, "fusion_lon": 0.0, "name": "8060c969b89d8203c45a74c7f33c8621", "rental_uris": {"ios": "https://dc.lft.to/lastmile_qr_scan", "android": "https://dc.lft.to/lastmile_qr_scan"}, "is_disabled": 0, "is_reserved": 0}, {"bike_id": "995d63ab9bda96fe92398c21ae46f1b5", "type": "electric_bike", "fusion_lat": 0.0, "lat": 38.945982, "lon": -77.06467566666667, "fusion_lon": 0.0, "name": "995d63ab9bda96fe92398c21ae46f1b5", "rental_uris": {"ios": "https://dc.lft.to/lastmile_qr_scan", "android": "https://dc.lft.to/lastmile_qr_scan"}, "is_disabled": 0, "is_reserved": 0}, {"bike_id": "560a2d5fd57182836fc2dbdae10a8503", "type": "electric_scooter", "fusion_lat": 0.0, "lat": 38.91326566666667, "lon": -77.03199066666667, "fusion_lon": 0.0, "name": "560a2d5fd57182836fc2dbdae10a8503", "rental_uris": {"ios": "https://dc.lft.to/lastmile_qr_scan", "android": "https://dc.lft.to/lastmile_qr_scan"}, "is_disabled": 0, "is_reserved": 0}, {"bike_id": "7fa909c0fbce1fc5f20d080094c0d5c7", "type": "electric_scooter", "fusion_lat": 0.0, "lat": 38.9209415, "lon": -77.0250355, "fusion_lon": 0.0, "name": "7fa909c0fbce1fc5f20d080094c0d5c7", "rental_uris": {"ios": "https://dc.lft.to/lastmile_qr_scan", "android": "https://dc.lft.to/lastmile_qr_scan"}, "is_disabled": 0, "is_reserved": 0}, {"bike_id": "807935c03239a9f200cb8b1fee76c9e8", "type": "electric_scooter", "fusion_lat": 0.0, "lat": 38.92610366666667, "lon": -77.02162316666667, "fusion_lon": 0.0, "name": "807935c03239a9f200cb8b1fee76c9e8", "rental_uris": {"ios": "https://dc.lft.to/lastmile_qr_scan", "android": "https://dc.lft.to/lastmile_qr_scan"}, "is_disabled": 0, "is_reserved": 0}, {"bike_id": "285a70f86ac497f2ecc68164efd83673", "type": "electric_scooter", "fusion_lat": 0.0, "lat": 38.921621333333334, "lon": -77.02090033333333, "fusion_lon": 0.0, "name": "285a70f86ac497f2ecc68164efd83673", "rental_uris": {"ios": "https://dc.lft.to/lastmile_qr_scan", "android": "https://dc.lft.to/lastmile_qr_scan"}, "is_disabled": 0, "is_reserved": 0}, {"bike_id": "d077e7cb37641e0c84ec705ceb8f0b9c", "type": "electric_scooter", "fusion_lat": 0.0, "lat": 38.91115666666666, "lon": -77.03137333333333, "fusion_lon": 0.0, "name": "d077e7cb37641e0c84ec705ceb8f0b9c", "rental_uris": {"ios": "https://dc.lft.to/lastmile_qr_scan", "android": "https://dc.lft.to/lastmile_qr_scan"}, "is_disabled": 0, "is_reserved": 0}, {"bike_id": "317f0439f8ebf94e668f44c59e3a605f", "type": "electric_scooter", "fusion_lat": 0.0, "lat": 38.89752633333333, "lon": -77.03096733333334, "fusion_lon": 0.0, "name": "317f0439f8ebf94e668f44c59e3a605f", "rental_uris": {"ios": "https://dc.lft.to/lastmile_qr_scan", "android": "https://dc.lft.to/lastmile_qr_scan"}, "is_disabled": 0, "is_reserved": 0}, {"bike_id": "8980fcbfc99e85c699aa94f519855f8b", "type": "electric_scooter", "fusion_lat": 0.0, "lat": 38.88611216666666, "lon": -77.00331983333334, "fusion_lon": 0.0, "name": "8980fcbfc99e85c699aa94f519855f8b", "rental_uris": {"ios": "https://dc.lft.to/lastmile_qr_scan", "android": "https://dc.lft.to/lastmile_qr_scan"}, "is_disabled": 0, "is_reserved": 0}, {"bike_id": "278bce67a190d026f3b79cdc9e0b163d", "type": "electric_scooter", "fusion_lat": 0.0, "lat": 38.916312166666664, "lon": -77.03498966666666, "fusion_lon": 0.0, "name": "278bce67a190d026f3b79cdc9e0b163d", "rental_uris": {"ios": "https://dc.lft.to/lastmile_qr_scan", "android": "https://dc.lft.to/lastmile_qr_scan"}, "is_disabled": 0, "is_reserved": 0}, {"bike_id": "df71ba89034eca90dde0ada24bdd5c06", "type": "electric_scooter", "fusion_lat": 0.0, "lat": 38.924117333333335, "lon": -77.022815, "fusion_lon": 0.0, "name": "df71ba89034eca90dde0ada24bdd5c06", "rental_uris": {"ios": "https://dc.lft.to/lastmile_qr_scan", "android": "https://dc.lft.to/lastmile_qr_scan"}, "is_disabled": 0, "is_reserved": 0}, {"bike_id": "55c1e32c8a62c76e10ca14d8307c7a3d", "type": "electric_scooter", "fusion_lat": 0.0, "lat": 38.91776483333334, "lon": -77.022944, "fusion_lon": 0.0, "name": "55c1e32c8a62c76e10ca14d8307c7a3d", "rental_uris": {"ios": "https://dc.lft.to/lastmile_qr_scan", "android": "https://dc.lft.to/lastmile_qr_scan"}, "is_disabled": 0, "is_reserved": 0}, {"bike_id": "862f860009fd4633b128d3e9ae8c01b7", "type": "electric_scooter", "fusion_lat": 0.0, "lat": 38.89979016666667, "lon": -77.02202083333333, "fusion_lon": 0.0, "name": "862f860009fd4633b128d3e9ae8c01b7", "rental_uris": {"ios": "https://dc.lft.to/lastmile_qr_scan", "android": "https://dc.lft.to/lastmile_qr_scan"}, "is_disabled": 0, "is_reserved": 0}, {"bike_id": "a5d825b195e980673882f34674f6d862", "type": "electric_scooter", "fusion_lat": 0.0, "lat": 38.926849, "lon": -77.04050383333333, "fusion_lon": 0.0, "name": "a5d825b195e980673882f34674f6d862", "rental_uris": {"ios": "https://dc.lft.to/lastmile_qr_scan", "android": "https://dc.lft.to/lastmile_qr_scan"}, "is_disabled": 0, "is_reserved": 0}, {"bike_id": "b395b87a1faa0a228146ff667274001e", "type": "electric_scooter", "fusion_lat": 0.0, "lat": 38.93966016666667, "lon": -77.02946133333333, "fusion_lon": 0.0, "name": "b395b87a1faa0a228146ff667274001e", "rental_uris": {"ios": "https://dc.lft.to/lastmile_qr_scan", "android": "https://dc.lft.to/lastmile_qr_scan"}, "is_disabled": 0, "is_reserved": 0}, {"bike_id": "81a382c59e698c78727e82220154e25e", "type": "electric_scooter", "fusion_lat": 0.0, "lat": 38.927427, "lon": -77.025315, "fusion_lon": 0.0, "name": "81a382c59e698c78727e82220154e25e", "rental_uris": {"ios": "https://dc.lft.to/lastmile_qr_scan", "android": "https://dc.lft.to/lastmile_qr_scan"}, "is_disabled": 0, "is_reserved": 0}, {"bike_id": "2640e0fc09105b3ae1ee890e9ba03df5", "type": "electric_scooter", "fusion_lat": 0.0, "lat": 38.90861966666667, "lon": -77.04585016666667, "fusion_lon": 0.0, "name": "2640e0fc09105b3ae1ee890e9ba03df5", "rental_uris": {"ios": "https://dc.lft.to/lastmile_qr_scan", "android": "https://dc.lft.to/lastmile_qr_scan"}, "is_disabled": 0, "is_reserved": 0}, {"bike_id": "07b319f657296badfeb8f8b047e68ba3", "type": "electric_scooter", "fusion_lat": 0.0, "lat": 38.924831833333336, "lon": -77.02202966666667, "fusion_lon": 0.0, "name": "07b319f657296badfeb8f8b047e68ba3", "rental_uris": {"ios": "https://dc.lft.to/lastmile_qr_scan", "android": "https://dc.lft.to/lastmile_qr_scan"}, "is_disabled": 0, "is_reserved": 0}, {"bike_id": "9cb1cb22c823cbba6d00ba00904545c2", "type": "electric_scooter", "fusion_lat": 0.0, "lat": 38.93051966666667, "lon": -77.039418, "fusion_lon": 0.0, "name": "9cb1cb22c823cbba6d00ba00904545c2", "rental_uris": {"ios": "https://dc.lft.to/lastmile_qr_scan", "android": "https://dc.lft.to/lastmile_qr_scan"}, "is_disabled": 0, "is_reserved": 0}, {"bike_id": "6ccd044d5127c24d27fd8e068232f8f6", "type": "electric_scooter", "fusion_lat": 0.0, "lat": 38.892724666666666, "lon": -76.98372383333333, "fusion_lon": 0.0, "name": "6ccd044d5127c24d27fd8e068232f8f6", "rental_uris": {"ios": "https://dc.lft.to/lastmile_qr_scan", "android": "https://dc.lft.to/lastmile_qr_scan"}, "is_disabled": 0, "is_reserved": 0}, {"bike_id": "1d47543b12f10f023366ee24b5ee7dbc", "type": "electric_scooter", "fusion_lat": 0.0, "lat": 38.902732, "lon": -77.03524333333333, "fusion_lon": 0.0, "name": "1d47543b12f10f023366ee24b5ee7dbc", "rental_uris": {"ios": "https://dc.lft.to/lastmile_qr_scan", "android": "https://dc.lft.to/lastmile_qr_scan"}, "is_disabled": 0, "is_reserved": 0}, {"bike_id": "c604a7beb227d344273483979421bf39", "type": "electric_scooter", "fusion_lat": 0.0, "lat": 38.8992715, "lon": -77.05000666666666, "fusion_lon": 0.0, "name": "c604a7beb227d344273483979421bf39", "rental_uris": {"ios": "https://dc.lft.to/lastmile_qr_scan", "android": "https://dc.lft.to/lastmile_qr_scan"}, "is_disabled": 0, "is_reserved": 0}, {"bike_id": "5d15c5efa3b11ce36c3343c78aefea5e", "type": "electric_scooter", "fusion_lat": 0.0, "lat": 38.89849733333333, "lon": -77.041291, "fusion_lon": 0.0, "name": "5d15c5efa3b11ce36c3343c78aefea5e", "rental_uris": {"ios": "https://dc.lft.to/lastmile_qr_scan", "android": "https://dc.lft.to/lastmile_qr_scan"}, "is_disabled": 0, "is_reserved": 0}, {"bike_id": "d3a2edbc283255ace4f9355242ede23b", "type": "electric_scooter", "fusion_lat": 0.0, "lat": 38.973907, "lon": -77.01810316666666, "fusion_lon": 0.0, "name": "d3a2edbc283255ace4f9355242ede23b", "rental_uris": {"ios": "https://dc.lft.to/lastmile_qr_scan", "android": "https://dc.lft.to/lastmile_qr_scan"}, "is_disabled": 0, "is_reserved": 0}, {"bike_id": "2d99c353fe39b9d94d1c6e5e3645e50a", "type": "electric_scooter", "fusion_lat": 0.0, "lat": 38.91880733333333, "lon": -77.043099, "fusion_lon": 0.0, "name": "2d99c353fe39b9d94d1c6e5e3645e50a", "rental_uris": {"ios": "https://dc.lft.to/lastmile_qr_scan", "android": "https://dc.lft.to/lastmile_qr_scan"}, "is_disabled": 0, "is_reserved": 0}, {"bike_id": "b0be26d54ce6cf753164684e52833115", "type": "electric_scooter", "fusion_lat": 0.0, "lat": 38.920228333333334, "lon": -77.02601416666667, "fusion_lon": 0.0, "name": "b0be26d54ce6cf753164684e52833115", "rental_uris": {"ios": "https://dc.lft.to/lastmile_qr_scan", "android": "https://dc.lft.to/lastmile_qr_scan"}, "is_disabled": 0, "is_reserved": 0}, {"bike_id": "fedcf6981f78ccea15a7df1988672cd5", "type": "electric_scooter", "fusion_lat": 0.0, "lat": 38.883099, "lon": -77.0177175, "fusion_lon": 0.0, "name": "fedcf6981f78ccea15a7df1988672cd5", "rental_uris": {"ios": "https://dc.lft.to/lastmile_qr_scan", "android": "https://dc.lft.to/lastmile_qr_scan"}, "is_disabled": 0, "is_reserved": 0}, {"bike_id": "4f2d46b43ba0a8bb2a8e2dee19d77655", "type": "electric_scooter", "fusion_lat": 0.0, "lat": 38.914269, "lon": -77.02815116666666, "fusion_lon": 0.0, "name": "4f2d46b43ba0a8bb2a8e2dee19d77655", "rental_uris": {"ios": "https://dc.lft.to/lastmile_qr_scan", "android": "https://dc.lft.to/lastmile_qr_scan"}, "is_disabled": 0, "is_reserved": 0}, {"bike_id": "2a0126baa7921310e5f6dfb1c910a0b4", "type": "electric_scooter", "fusion_lat": 0.0, "lat": 38.89766516666667, "lon": -77.0270205, "fusion_lon": 0.0, "name": "2a0126baa7921310e5f6dfb1c910a0b4", "rental_uris": {"ios": "https://dc.lft.to/lastmile_qr_scan", "android": "https://dc.lft.to/lastmile_qr_scan"}, "is_disabled": 0, "is_reserved": 0}, {"bike_id": "15191385a92010560a7c3c59ec347e6a", "type": "electric_scooter", "fusion_lat": 0.0, "lat": 38.920230333333336, "lon": -77.07128233333333, "fusion_lon": 0.0, "name": "15191385a92010560a7c3c59ec347e6a", "rental_uris": {"ios": "https://dc.lft.to/lastmile_qr_scan", "android": "https://dc.lft.to/lastmile_qr_scan"}, "is_disabled": 0, "is_reserved": 0}, {"bike_id": "f4769156c1cf92b9c2ca915db012b712", "type": "electric_scooter", "fusion_lat": 0.0, "lat": 38.929772166666666, "lon": -77.0728575, "fusion_lon": 0.0, "name": "f4769156c1cf92b9c2ca915db012b712", "rental_uris": {"ios": "https://dc.lft.to/lastmile_qr_scan", "android": "https://dc.lft.to/lastmile_qr_scan"}, "is_disabled": 0, "is_reserved": 0}, {"bike_id": "c76107e44236970b2b836ed95485602b", "type": "electric_scooter", "fusion_lat": 0.0, "lat": 38.919659333333335, "lon": -77.03851283333333, "fusion_lon": 0.0, "name": "c76107e44236970b2b836ed95485602b", "rental_uris": {"ios": "https://dc.lft.to/lastmile_qr_scan", "android": "https://dc.lft.to/lastmile_qr_scan"}, "is_disabled": 0, "is_reserved": 0}, {"bike_id": "2c060209cd2570a769066988295b15ea", "type": "electric_bike", "fusion_lat": 0.0, "lat": 38.909042166666666, "lon": -77.0899695, "fusion_lon": 0.0, "name": "2c060209cd2570a769066988295b15ea", "rental_uris": {"ios": "https://dc.lft.to/lastmile_qr_scan", "android": "https://dc.lft.to/lastmile_qr_scan"}, "is_disabled": 0, "is_reserved": 0}, {"bike_id": "0c27028ed8bc6c599d7783d3b4ad45b8", "type": "electric_scooter", "fusion_lat": 0.0, "lat": 38.902527666666664, "lon": -77.03484233333333, "fusion_lon": 0.0, "name": "0c27028ed8bc6c599d7783d3b4ad45b8", "rental_uris": {"ios": "https://dc.lft.to/lastmile_qr_scan", "android": "https://dc.lft.to/lastmile_qr_scan"}, "is_disabled": 0, "is_reserved": 0}, {"bike_id": "f232557a650933412da896d8fa7ac78a", "type": "electric_scooter", "fusion_lat": 0.0, "lat": 38.89869616666667, "lon": -76.94666166666667, "fusion_lon": 0.0, "name": "f232557a650933412da896d8fa7ac78a", "rental_uris": {"ios": "https://dc.lft.to/lastmile_qr_scan", "android": "https://dc.lft.to/lastmile_qr_scan"}, "is_disabled": 0, "is_reserved": 0}, {"bike_id": "0d23988ab55d5e226149a1f33feb1fa3", "type": "electric_scooter", "fusion_lat": 0.0, "lat": 38.9565575, "lon": -77.032914, "fusion_lon": 0.0, "name": "0d23988ab55d5e226149a1f33feb1fa3", "rental_uris": {"ios": "https://dc.lft.to/lastmile_qr_scan", "android": "https://dc.lft.to/lastmile_qr_scan"}, "is_disabled": 0, "is_reserved": 0}, {"bike_id": "2c6023233169d575551b197773197a00", "type": "electric_scooter", "fusion_lat": 0.0, "lat": 38.89570633333334, "lon": -77.04155516666667, "fusion_lon": 0.0, "name": "2c6023233169d575551b197773197a00", "rental_uris": {"ios": "https://dc.lft.to/lastmile_qr_scan", "android": "https://dc.lft.to/lastmile_qr_scan"}, "is_disabled": 0, "is_reserved": 0}, {"bike_id": "0e314ad3486bb01415604e0a189860b7", "type": "electric_bike", "fusion_lat": 0.0, "lat": 38.99499183333333, "lon": -77.0013185, "fusion_lon": 0.0, "name": "0e314ad3486bb01415604e0a189860b7", "rental_uris": {"ios": "https://dc.lft.to/lastmile_qr_scan", "android": "https://dc.lft.to/lastmile_qr_scan"}, "is_disabled": 0, "is_reserved": 0}, {"bike_id": "95ea86d07137261707f339b9048723ab", "type": "electric_scooter", "fusion_lat": 0.0, "lat": 38.897206833333335, "lon": -77.05020666666667, "fusion_lon": 0.0, "name": "95ea86d07137261707f339b9048723ab", "rental_uris": {"ios": "https://dc.lft.to/lastmile_qr_scan", "android": "https://dc.lft.to/lastmile_qr_scan"}, "is_disabled": 0, "is_reserved": 0}, {"bike_id": "89fda5ec0285b7390577da53036c9038", "type": "electric_scooter", "fusion_lat": 0.0, "lat": 38.89568533333333, "lon": -77.04675666666667, "fusion_lon": 0.0, "name": "89fda5ec0285b7390577da53036c9038", "rental_uris": {"ios": "https://dc.lft.to/lastmile_qr_scan", "android": "https://dc.lft.to/lastmile_qr_scan"}, "is_disabled": 0, "is_reserved": 0}, {"bike_id": "2919d0f3ae0b4f97014c8c9bb1210f17", "type": "electric_scooter", "fusion_lat": 0.0, "lat": 38.941965, "lon": -77.03138783333333, "fusion_lon": 0.0, "name": "2919d0f3ae0b4f97014c8c9bb1210f17", "rental_uris": {"ios": "https://dc.lft.to/lastmile_qr_scan", "android": "https://dc.lft.to/lastmile_qr_scan"}, "is_disabled": 0, "is_reserved": 0}, {"bike_id": "2401fc851a3c2d7a926ead9f0c92af0b", "type": "electric_scooter", "fusion_lat": 0.0, "lat": 38.87624116666667, "lon": -77.001197, "fusion_lon": 0.0, "name": "2401fc851a3c2d7a926ead9f0c92af0b", "rental_uris": {"ios": "https://dc.lft.to/lastmile_qr_scan", "android": "https://dc.lft.to/lastmile_qr_scan"}, "is_disabled": 0, "is_reserved": 0}, {"bike_id": "11dcd38f65d3f3b5d1360b947cd6efa2", "type": "electric_scooter", "fusion_lat": 0.0, "lat": 38.9234295, "lon": -77.05180966666667, "fusion_lon": 0.0, "name": "11dcd38f65d3f3b5d1360b947cd6efa2", "rental_uris": {"ios": "https://dc.lft.to/lastmile_qr_scan", "android": "https://dc.lft.to/lastmile_qr_scan"}, "is_disabled": 0, "is_reserved": 0}, {"bike_id": "8b87be875b8422842322d45c1ae37bc8", "type": "electric_scooter", "fusion_lat": 0.0, "lat": 38.89599833333333, "lon": -76.94837466666667, "fusion_lon": 0.0, "name": "8b87be875b8422842322d45c1ae37bc8", "rental_uris": {"ios": "https://dc.lft.to/lastmile_qr_scan", "android": "https://dc.lft.to/lastmile_qr_scan"}, "is_disabled": 0, "is_reserved": 0}, {"bike_id": "0a501de59dd3aebb6c00cd85b5e4f25c", "type": "electric_scooter", "fusion_lat": 0.0, "lat": 38.904119666666666, "lon": -77.02719566666667, "fusion_lon": 0.0, "name": "0a501de59dd3aebb6c00cd85b5e4f25c", "rental_uris": {"ios": "https://dc.lft.to/lastmile_qr_scan", "android": "https://dc.lft.to/lastmile_qr_scan"}, "is_disabled": 0, "is_reserved": 0}, {"bike_id": "01e521c129a676ef4bc6ac76c4b78092", "type": "electric_scooter", "fusion_lat": 0.0, "lat": 38.9025565, "lon": -77.03973066666667, "fusion_lon": 0.0, "name": "01e521c129a676ef4bc6ac76c4b78092", "rental_uris": {"ios": "https://dc.lft.to/lastmile_qr_scan", "android": "https://dc.lft.to/lastmile_qr_scan"}, "is_disabled": 0, "is_reserved": 0}, {"bike_id": "aa7a4173c50ce2319022f08b4a89df5c", "type": "electric_scooter", "fusion_lat": 0.0, "lat": 38.900258666666666, "lon": -76.98905983333333, "fusion_lon": 0.0, "name": "aa7a4173c50ce2319022f08b4a89df5c", "rental_uris": {"ios": "https://dc.lft.to/lastmile_qr_scan", "android": "https://dc.lft.to/lastmile_qr_scan"}, "is_disabled": 0, "is_reserved": 0}, {"bike_id": "49993df1078d86ad90b957298f30b9c3", "type": "electric_scooter", "fusion_lat": 0.0, "lat": 38.887055833333335, "lon": -77.0151825, "fusion_lon": 0.0, "name": "49993df1078d86ad90b957298f30b9c3", "rental_uris": {"ios": "https://dc.lft.to/lastmile_qr_scan", "android": "https://dc.lft.to/lastmile_qr_scan"}, "is_disabled": 0, "is_reserved": 0}, {"bike_id": "b726a45327e5cc3fa94bd995ae17455f", "type": "electric_scooter", "fusion_lat": 0.0, "lat": 38.9007115, "lon": -77.00879933333333, "fusion_lon": 0.0, "name": "b726a45327e5cc3fa94bd995ae17455f", "rental_uris": {"ios": "https://dc.lft.to/lastmile_qr_scan", "android": "https://dc.lft.to/lastmile_qr_scan"}, "is_disabled": 0, "is_reserved": 0}, {"bike_id": "ab64666ac46c7557985cbcd3da3c9719", "type": "electric_scooter", "fusion_lat": 0.0, "lat": 38.899887166666666, "lon": -77.03175466666667, "fusion_lon": 0.0, "name": "ab64666ac46c7557985cbcd3da3c9719", "rental_uris": {"ios": "https://dc.lft.to/lastmile_qr_scan", "android": "https://dc.lft.to/lastmile_qr_scan"}, "is_disabled": 0, "is_reserved": 0}, {"bike_id": "6e0e269ddf744bddcc55b0f34a663bf0", "type": "electric_scooter", "fusion_lat": 0.0, "lat": 38.91891966666667, "lon": -77.03831833333334, "fusion_lon": 0.0, "name": "6e0e269ddf744bddcc55b0f34a663bf0", "rental_uris": {"ios": "https://dc.lft.to/lastmile_qr_scan", "android": "https://dc.lft.to/lastmile_qr_scan"}, "is_disabled": 0, "is_reserved": 0}, {"bike_id": "9e97ebca9b9f3021dd03a45dbf4c3761", "type": "electric_scooter", "fusion_lat": 0.0, "lat": 38.9434985, "lon": -77.029775, "fusion_lon": 0.0, "name": "9e97ebca9b9f3021dd03a45dbf4c3761", "rental_uris": {"ios": "https://dc.lft.to/lastmile_qr_scan", "android": "https://dc.lft.to/lastmile_qr_scan"}, "is_disabled": 0, "is_reserved": 0}, {"bike_id": "f09f6bd91a23cc73f5807b35ba0456c5", "type": "electric_scooter", "fusion_lat": 0.0, "lat": 38.925428333333336, "lon": -77.04155033333333, "fusion_lon": 0.0, "name": "f09f6bd91a23cc73f5807b35ba0456c5", "rental_uris": {"ios": "https://dc.lft.to/lastmile_qr_scan", "android": "https://dc.lft.to/lastmile_qr_scan"}, "is_disabled": 0, "is_reserved": 0}, {"bike_id": "0f3381640e1e45a9acd588f0b21a62e2", "type": "electric_scooter", "fusion_lat": 0.0, "lat": 38.90557, "lon": -77.041967, "fusion_lon": 0.0, "name": "0f3381640e1e45a9acd588f0b21a62e2", "rental_uris": {"ios": "https://dc.lft.to/lastmile_qr_scan", "android": "https://dc.lft.to/lastmile_qr_scan"}, "is_disabled": 0, "is_reserved": 0}, {"bike_id": "cc1f21d81e2ae2466602a74d72b22063", "type": "electric_scooter", "fusion_lat": 0.0, "lat": 38.898900166666664, "lon": -77.039298, "fusion_lon": 0.0, "name": "cc1f21d81e2ae2466602a74d72b22063", "rental_uris": {"ios": "https://dc.lft.to/lastmile_qr_scan", "android": "https://dc.lft.to/lastmile_qr_scan"}, "is_disabled": 0, "is_reserved": 0}, {"bike_id": "65c1c566259c727925638ba171004114", "type": "electric_scooter", "fusion_lat": 0.0, "lat": 38.90060583333333, "lon": -77.04851666666667, "fusion_lon": 0.0, "name": "65c1c566259c727925638ba171004114", "rental_uris": {"ios": "https://dc.lft.to/lastmile_qr_scan", "android": "https://dc.lft.to/lastmile_qr_scan"}, "is_disabled": 0, "is_reserved": 0}, {"bike_id": "d2eb65c0a72448008c40b2b0b64a63a1", "type": "electric_scooter", "fusion_lat": 0.0, "lat": 38.87373933333333, "lon": -77.00131183333333, "fusion_lon": 0.0, "name": "d2eb65c0a72448008c40b2b0b64a63a1", "rental_uris": {"ios": "https://dc.lft.to/lastmile_qr_scan", "android": "https://dc.lft.to/lastmile_qr_scan"}, "is_disabled": 0, "is_reserved": 0}, {"bike_id": "9fd43867f51776020529edf8723371f8", "type": "electric_scooter", "fusion_lat": 0.0, "lat": 38.921446, "lon": -77.02084883333333, "fusion_lon": 0.0, "name": "9fd43867f51776020529edf8723371f8", "rental_uris": {"ios": "https://dc.lft.to/lastmile_qr_scan", "android": "https://dc.lft.to/lastmile_qr_scan"}, "is_disabled": 0, "is_reserved": 0}, {"bike_id": "5b381a6d8a57e792765c763c0c4ab17a", "type": "electric_scooter", "fusion_lat": 0.0, "lat": 38.877744, "lon": -76.9962135, "fusion_lon": 0.0, "name": "5b381a6d8a57e792765c763c0c4ab17a", "rental_uris": {"ios": "https://dc.lft.to/lastmile_qr_scan", "android": "https://dc.lft.to/lastmile_qr_scan"}, "is_disabled": 0, "is_reserved": 0}, {"bike_id": "33f53e6306dd999d39a18f74256274e7", "type": "electric_scooter", "fusion_lat": 0.0, "lat": 38.91330833333333, "lon": -77.01363066666667, "fusion_lon": 0.0, "name": "33f53e6306dd999d39a18f74256274e7", "rental_uris": {"ios": "https://dc.lft.to/lastmile_qr_scan", "android": "https://dc.lft.to/lastmile_qr_scan"}, "is_disabled": 0, "is_reserved": 0}, {"bike_id": "7bd7fe21a71da7d415b62661c3137a72", "type": "electric_scooter", "fusion_lat": 0.0, "lat": 38.897542666666666, "lon": -77.01881183333333, "fusion_lon": 0.0, "name": "7bd7fe21a71da7d415b62661c3137a72", "rental_uris": {"ios": "https://dc.lft.to/lastmile_qr_scan", "android": "https://dc.lft.to/lastmile_qr_scan"}, "is_disabled": 0, "is_reserved": 0}, {"bike_id": "a8946742a4cee1e773179586ee115808", "type": "electric_scooter", "fusion_lat": 0.0, "lat": 38.898683, "lon": -76.94662283333334, "fusion_lon": 0.0, "name": "a8946742a4cee1e773179586ee115808", "rental_uris": {"ios": "https://dc.lft.to/lastmile_qr_scan", "android": "https://dc.lft.to/lastmile_qr_scan"}, "is_disabled": 0, "is_reserved": 0}, {"bike_id": "9e97de265eac462e8f6756ccfa0b78c1", "type": "electric_scooter", "fusion_lat": 0.0, "lat": 38.90676416666667, "lon": -77.07144866666667, "fusion_lon": 0.0, "name": "9e97de265eac462e8f6756ccfa0b78c1", "rental_uris": {"ios": "https://dc.lft.to/lastmile_qr_scan", "android": "https://dc.lft.to/lastmile_qr_scan"}, "is_disabled": 0, "is_reserved": 0}, {"bike_id": "7e42fe88eaf91fbbdae4569c66382c83", "type": "electric_scooter", "fusion_lat": 0.0, "lat": 38.8874415, "lon": -77.0257825, "fusion_lon": 0.0, "name": "7e42fe88eaf91fbbdae4569c66382c83", "rental_uris": {"ios": "https://dc.lft.to/lastmile_qr_scan", "android": "https://dc.lft.to/lastmile_qr_scan"}, "is_disabled": 0, "is_reserved": 0}, {"bike_id": "1fb95298ea42fbb880e8d92776234c92", "type": "electric_scooter", "fusion_lat": 0.0, "lat": 38.93112383333333, "lon": -77.091114, "fusion_lon": 0.0, "name": "1fb95298ea42fbb880e8d92776234c92", "rental_uris": {"ios": "https://dc.lft.to/lastmile_qr_scan", "android": "https://dc.lft.to/lastmile_qr_scan"}, "is_disabled": 0, "is_reserved": 0}, {"bike_id": "6316e7de0ca85c32eaab79b8c9d48da2", "type": "electric_scooter", "fusion_lat": 0.0, "lat": 38.92625433333333, "lon": -77.043205, "fusion_lon": 0.0, "name": "6316e7de0ca85c32eaab79b8c9d48da2", "rental_uris": {"ios": "https://dc.lft.to/lastmile_qr_scan", "android": "https://dc.lft.to/lastmile_qr_scan"}, "is_disabled": 0, "is_reserved": 0}, {"bike_id": "edc140ad87860477dc07e641450f8b32", "type": "electric_scooter", "fusion_lat": 0.0, "lat": 38.88449416666667, "lon": -76.92956649999999, "fusion_lon": 0.0, "name": "edc140ad87860477dc07e641450f8b32", "rental_uris": {"ios": "https://dc.lft.to/lastmile_qr_scan", "android": "https://dc.lft.to/lastmile_qr_scan"}, "is_disabled": 0, "is_reserved": 0}, {"bike_id": "e883f6065285fd96f6c1cd63b0e75a82", "type": "electric_scooter", "fusion_lat": 0.0, "lat": 38.92722416666667, "lon": -77.022927, "fusion_lon": 0.0, "name": "e883f6065285fd96f6c1cd63b0e75a82", "rental_uris": {"ios": "https://dc.lft.to/lastmile_qr_scan", "android": "https://dc.lft.to/lastmile_qr_scan"}, "is_disabled": 0, "is_reserved": 0}, {"bike_id": "b3dcc048dc7f23e43495804914831a6a", "type": "electric_scooter", "fusion_lat": 0.0, "lat": 38.949247666666665, "lon": -77.01858733333333, "fusion_lon": 0.0, "name": "b3dcc048dc7f23e43495804914831a6a", "rental_uris": {"ios": "https://dc.lft.to/lastmile_qr_scan", "android": "https://dc.lft.to/lastmile_qr_scan"}, "is_disabled": 0, "is_reserved": 0}, {"bike_id": "1183dbde45cfc21b53884c5877c82c39", "type": "electric_scooter", "fusion_lat": 0.0, "lat": 38.8909405, "lon": -77.00347116666667, "fusion_lon": 0.0, "name": "1183dbde45cfc21b53884c5877c82c39", "rental_uris": {"ios": "https://dc.lft.to/lastmile_qr_scan", "android": "https://dc.lft.to/lastmile_qr_scan"}, "is_disabled": 0, "is_reserved": 0}, {"bike_id": "394bbdee1cc1fdc8bdbd328d6de56279", "type": "electric_scooter", "fusion_lat": 0.0, "lat": 38.9202575, "lon": -77.02799833333333, "fusion_lon": 0.0, "name": "394bbdee1cc1fdc8bdbd328d6de56279", "rental_uris": {"ios": "https://dc.lft.to/lastmile_qr_scan", "android": "https://dc.lft.to/lastmile_qr_scan"}, "is_disabled": 0, "is_reserved": 0}, {"bike_id": "7bed4880cee4db0a789934784f957430", "type": "electric_scooter", "fusion_lat": 0.0, "lat": 38.903869666666665, "lon": -77.04753416666667, "fusion_lon": 0.0, "name": "7bed4880cee4db0a789934784f957430", "rental_uris": {"ios": "https://dc.lft.to/lastmile_qr_scan", "android": "https://dc.lft.to/lastmile_qr_scan"}, "is_disabled": 0, "is_reserved": 0}, {"bike_id": "08c2fc2b56adbb72b6c40cf04df60dc0", "type": "electric_scooter", "fusion_lat": 0.0, "lat": 38.896249833333336, "lon": -76.98570183333334, "fusion_lon": 0.0, "name": "08c2fc2b56adbb72b6c40cf04df60dc0", "rental_uris": {"ios": "https://dc.lft.to/lastmile_qr_scan", "android": "https://dc.lft.to/lastmile_qr_scan"}, "is_disabled": 0, "is_reserved": 0}, {"bike_id": "3ae6764a5e9fff74b40efca1be6fd48a", "type": "electric_scooter", "fusion_lat": 0.0, "lat": 38.873957, "lon": -77.000576, "fusion_lon": 0.0, "name": "3ae6764a5e9fff74b40efca1be6fd48a", "rental_uris": {"ios": "https://dc.lft.to/lastmile_qr_scan", "android": "https://dc.lft.to/lastmile_qr_scan"}, "is_disabled": 0, "is_reserved": 0}, {"bike_id": "7e01fca1a7c5746bbd96d4597a10af7f", "type": "electric_scooter", "fusion_lat": 0.0, "lat": 38.88755916666667, "lon": -77.031529, "fusion_lon": 0.0, "name": "7e01fca1a7c5746bbd96d4597a10af7f", "rental_uris": {"ios": "https://dc.lft.to/lastmile_qr_scan", "android": "https://dc.lft.to/lastmile_qr_scan"}, "is_disabled": 0, "is_reserved": 0}, {"bike_id": "7bc58f26b23a8b4559cc14843f8c1ca2", "type": "electric_scooter", "fusion_lat": 0.0, "lat": 38.903815333333334, "lon": -77.03511166666667, "fusion_lon": 0.0, "name": "7bc58f26b23a8b4559cc14843f8c1ca2", "rental_uris": {"ios": "https://dc.lft.to/lastmile_qr_scan", "android": "https://dc.lft.to/lastmile_qr_scan"}, "is_disabled": 0, "is_reserved": 0}, {"bike_id": "950d3fe6e260f4d216281d56140c5239", "type": "electric_scooter", "fusion_lat": 0.0, "lat": 38.883975666666664, "lon": -76.98565483333333, "fusion_lon": 0.0, "name": "950d3fe6e260f4d216281d56140c5239", "rental_uris": {"ios": "https://dc.lft.to/lastmile_qr_scan", "android": "https://dc.lft.to/lastmile_qr_scan"}, "is_disabled": 0, "is_reserved": 0}, {"bike_id": "d660d79e8ae3354e40f16a5f6d833f6b", "type": "electric_scooter", "fusion_lat": 0.0, "lat": 38.96797433333333, "lon": -77.02413966666667, "fusion_lon": 0.0, "name": "d660d79e8ae3354e40f16a5f6d833f6b", "rental_uris": {"ios": "https://dc.lft.to/lastmile_qr_scan", "android": "https://dc.lft.to/lastmile_qr_scan"}, "is_disabled": 0, "is_reserved": 0}, {"bike_id": "1daa9f0cedab80cbe46f2f06e83e2996", "type": "electric_bike", "fusion_lat": 0.0, "lat": 38.86754483333333, "lon": -76.94532216666667, "fusion_lon": 0.0, "name": "1daa9f0cedab80cbe46f2f06e83e2996", "rental_uris": {"ios": "https://dc.lft.to/lastmile_qr_scan", "android": "https://dc.lft.to/lastmile_qr_scan"}, "is_disabled": 0, "is_reserved": 0}, {"bike_id": "e5fe9a307b078dca05862916410eeee5", "type": "electric_scooter", "fusion_lat": 0.0, "lat": 38.89363483333333, "lon": -77.002868, "fusion_lon": 0.0, "name": "e5fe9a307b078dca05862916410eeee5", "rental_uris": {"ios": "https://dc.lft.to/lastmile_qr_scan", "android": "https://dc.lft.to/lastmile_qr_scan"}, "is_disabled": 0, "is_reserved": 0}, {"bike_id": "29d6d69081086eabe0bcf9e9bbaaf115", "type": "electric_scooter", "fusion_lat": 0.0, "lat": 38.900596166666666, "lon": -77.01291633333334, "fusion_lon": 0.0, "name": "29d6d69081086eabe0bcf9e9bbaaf115", "rental_uris": {"ios": "https://dc.lft.to/lastmile_qr_scan", "android": "https://dc.lft.to/lastmile_qr_scan"}, "is_disabled": 0, "is_reserved": 0}, {"bike_id": "2b69d7dd22333e42203fb646a25fdcf1", "type": "electric_scooter", "fusion_lat": 0.0, "lat": 38.902009666666665, "lon": -77.02131316666667, "fusion_lon": 0.0, "name": "2b69d7dd22333e42203fb646a25fdcf1", "rental_uris": {"ios": "https://dc.lft.to/lastmile_qr_scan", "android": "https://dc.lft.to/lastmile_qr_scan"}, "is_disabled": 0, "is_reserved": 0}, {"bike_id": "799fe45a3ca256425abf75c1d69c1b1f", "type": "electric_scooter", "fusion_lat": 0.0, "lat": 38.9308255, "lon": -77.0019745, "fusion_lon": 0.0, "name": "799fe45a3ca256425abf75c1d69c1b1f", "rental_uris": {"ios": "https://dc.lft.to/lastmile_qr_scan", "android": "https://dc.lft.to/lastmile_qr_scan"}, "is_disabled": 0, "is_reserved": 0}, {"bike_id": "3f7da66e92bd6b2f6dfe25a9ce3d27da", "type": "electric_scooter", "fusion_lat": 0.0, "lat": 38.9388055, "lon": -77.0283205, "fusion_lon": 0.0, "name": "3f7da66e92bd6b2f6dfe25a9ce3d27da", "rental_uris": {"ios": "https://dc.lft.to/lastmile_qr_scan", "android": "https://dc.lft.to/lastmile_qr_scan"}, "is_disabled": 0, "is_reserved": 0}, {"bike_id": "b07ea1420ec7d014a68d0defb94ca741", "type": "electric_scooter", "fusion_lat": 0.0, "lat": 38.9147635, "lon": -77.05448433333333, "fusion_lon": 0.0, "name": "b07ea1420ec7d014a68d0defb94ca741", "rental_uris": {"ios": "https://dc.lft.to/lastmile_qr_scan", "android": "https://dc.lft.to/lastmile_qr_scan"}, "is_disabled": 0, "is_reserved": 0}, {"bike_id": "12c0d992a83c07e6fdc2ff2e6e8b9455", "type": "electric_scooter", "fusion_lat": 0.0, "lat": 38.899826166666664, "lon": -77.02211166666666, "fusion_lon": 0.0, "name": "12c0d992a83c07e6fdc2ff2e6e8b9455", "rental_uris": {"ios": "https://dc.lft.to/lastmile_qr_scan", "android": "https://dc.lft.to/lastmile_qr_scan"}, "is_disabled": 0, "is_reserved": 0}, {"bike_id": "7f02de23c66d30e56dffe9069d68c496", "type": "electric_scooter", "fusion_lat": 0.0, "lat": 38.916420333333335, "lon": -77.03175683333333, "fusion_lon": 0.0, "name": "7f02de23c66d30e56dffe9069d68c496", "rental_uris": {"ios": "https://dc.lft.to/lastmile_qr_scan", "android": "https://dc.lft.to/lastmile_qr_scan"}, "is_disabled": 0, "is_reserved": 0}, {"bike_id": "7cc7298ff626a978c51a7138d925ecc8", "type": "electric_scooter", "fusion_lat": 0.0, "lat": 38.90655816666667, "lon": -77.041696, "fusion_lon": 0.0, "name": "7cc7298ff626a978c51a7138d925ecc8", "rental_uris": {"ios": "https://dc.lft.to/lastmile_qr_scan", "android": "https://dc.lft.to/lastmile_qr_scan"}, "is_disabled": 0, "is_reserved": 0}, {"bike_id": "520718695fee6f011eaed0863be50cb6", "type": "electric_scooter", "fusion_lat": 0.0, "lat": 38.899107666666666, "lon": -76.93386616666666, "fusion_lon": 0.0, "name": "520718695fee6f011eaed0863be50cb6", "rental_uris": {"ios": "https://dc.lft.to/lastmile_qr_scan", "android": "https://dc.lft.to/lastmile_qr_scan"}, "is_disabled": 0, "is_reserved": 0}, {"bike_id": "a1544840b4e8df03a05059f29440fb7a", "type": "electric_scooter", "fusion_lat": 0.0, "lat": 38.920696666666664, "lon": -77.07159316666667, "fusion_lon": 0.0, "name": "a1544840b4e8df03a05059f29440fb7a", "rental_uris": {"ios": "https://dc.lft.to/lastmile_qr_scan", "android": "https://dc.lft.to/lastmile_qr_scan"}, "is_disabled": 0, "is_reserved": 0}, {"bike_id": "b31f959998770ec7730022fb7c08842e", "type": "electric_scooter", "fusion_lat": 0.0, "lat": 38.90259316666667, "lon": -77.0579655, "fusion_lon": 0.0, "name": "b31f959998770ec7730022fb7c08842e", "rental_uris": {"ios": "https://dc.lft.to/lastmile_qr_scan", "android": "https://dc.lft.to/lastmile_qr_scan"}, "is_disabled": 0, "is_reserved": 0}, {"bike_id": "cd39c48041b738fb9cb312f8ae1982e3", "type": "electric_scooter", "fusion_lat": 0.0, "lat": 38.9377145, "lon": -76.99281183333333, "fusion_lon": 0.0, "name": "cd39c48041b738fb9cb312f8ae1982e3", "rental_uris": {"ios": "https://dc.lft.to/lastmile_qr_scan", "android": "https://dc.lft.to/lastmile_qr_scan"}, "is_disabled": 0, "is_reserved": 0}, {"bike_id": "4331555d9cafd82c4024f7a39a39eac3", "type": "electric_scooter", "fusion_lat": 0.0, "lat": 38.9133805, "lon": -77.03196383333334, "fusion_lon": 0.0, "name": "4331555d9cafd82c4024f7a39a39eac3", "rental_uris": {"ios": "https://dc.lft.to/lastmile_qr_scan", "android": "https://dc.lft.to/lastmile_qr_scan"}, "is_disabled": 0, "is_reserved": 0}, {"bike_id": "a4b0e3012ccdf1d5ac0a921cda626f9c", "type": "electric_scooter", "fusion_lat": 0.0, "lat": 38.9111075, "lon": -77.04356633333333, "fusion_lon": 0.0, "name": "a4b0e3012ccdf1d5ac0a921cda626f9c", "rental_uris": {"ios": "https://dc.lft.to/lastmile_qr_scan", "android": "https://dc.lft.to/lastmile_qr_scan"}, "is_disabled": 0, "is_reserved": 0}, {"bike_id": "b38611d9b31ad8fad98056520aa39b43", "type": "electric_scooter", "fusion_lat": 0.0, "lat": 38.93288233333333, "lon": -77.02547133333333, "fusion_lon": 0.0, "name": "b38611d9b31ad8fad98056520aa39b43", "rental_uris": {"ios": "https://dc.lft.to/lastmile_qr_scan", "android": "https://dc.lft.to/lastmile_qr_scan"}, "is_disabled": 0, "is_reserved": 0}, {"bike_id": "bca93352a139b40effad368d570caccc", "type": "electric_scooter", "fusion_lat": 0.0, "lat": 38.898329833333335, "lon": -77.044788, "fusion_lon": 0.0, "name": "bca93352a139b40effad368d570caccc", "rental_uris": {"ios": "https://dc.lft.to/lastmile_qr_scan", "android": "https://dc.lft.to/lastmile_qr_scan"}, "is_disabled": 0, "is_reserved": 0}, {"bike_id": "cf6c12953b45b4d8793cc3b739982d96", "type": "electric_scooter", "fusion_lat": 0.0, "lat": 38.90383166666667, "lon": -77.0414195, "fusion_lon": 0.0, "name": "cf6c12953b45b4d8793cc3b739982d96", "rental_uris": {"ios": "https://dc.lft.to/lastmile_qr_scan", "android": "https://dc.lft.to/lastmile_qr_scan"}, "is_disabled": 0, "is_reserved": 0}, {"bike_id": "9d3cb2d4e50d109848a948cf480bd6f6", "type": "electric_scooter", "fusion_lat": 0.0, "lat": 38.900048, "lon": -77.03080166666666, "fusion_lon": 0.0, "name": "9d3cb2d4e50d109848a948cf480bd6f6", "rental_uris": {"ios": "https://dc.lft.to/lastmile_qr_scan", "android": "https://dc.lft.to/lastmile_qr_scan"}, "is_disabled": 0, "is_reserved": 0}, {"bike_id": "c504526b24f9aa20d7c45b19386f0778", "type": "electric_scooter", "fusion_lat": 0.0, "lat": 38.8983525, "lon": -77.04554583333334, "fusion_lon": 0.0, "name": "c504526b24f9aa20d7c45b19386f0778", "rental_uris": {"ios": "https://dc.lft.to/lastmile_qr_scan", "android": "https://dc.lft.to/lastmile_qr_scan"}, "is_disabled": 0, "is_reserved": 0}, {"bike_id": "c1327dd3ebea4a3747bb8b490381eb1e", "type": "electric_scooter", "fusion_lat": 0.0, "lat": 38.900397166666664, "lon": -76.991431, "fusion_lon": 0.0, "name": "c1327dd3ebea4a3747bb8b490381eb1e", "rental_uris": {"ios": "https://dc.lft.to/lastmile_qr_scan", "android": "https://dc.lft.to/lastmile_qr_scan"}, "is_disabled": 0, "is_reserved": 0}, {"bike_id": "5cfdd47d5239e7f45110d2ee8934b308", "type": "electric_scooter", "fusion_lat": 0.0, "lat": 38.906399666666665, "lon": -77.05124616666667, "fusion_lon": 0.0, "name": "5cfdd47d5239e7f45110d2ee8934b308", "rental_uris": {"ios": "https://dc.lft.to/lastmile_qr_scan", "android": "https://dc.lft.to/lastmile_qr_scan"}, "is_disabled": 0, "is_reserved": 0}, {"bike_id": "dd81138ec6f91e7c6ef4194931ece2af", "type": "electric_scooter", "fusion_lat": 0.0, "lat": 38.9483945, "lon": -77.02529333333334, "fusion_lon": 0.0, "name": "dd81138ec6f91e7c6ef4194931ece2af", "rental_uris": {"ios": "https://dc.lft.to/lastmile_qr_scan", "android": "https://dc.lft.to/lastmile_qr_scan"}, "is_disabled": 0, "is_reserved": 0}, {"bike_id": "8fc93fa74d2b09388abfefc0d20d33e2", "type": "electric_scooter", "fusion_lat": 0.0, "lat": 38.93775333333333, "lon": -77.01989033333334, "fusion_lon": 0.0, "name": "8fc93fa74d2b09388abfefc0d20d33e2", "rental_uris": {"ios": "https://dc.lft.to/lastmile_qr_scan", "android": "https://dc.lft.to/lastmile_qr_scan"}, "is_disabled": 0, "is_reserved": 0}, {"bike_id": "444f2251ea52a2ea8917869a4346c6dd", "type": "electric_scooter", "fusion_lat": 0.0, "lat": 38.915708333333335, "lon": -77.04441166666666, "fusion_lon": 0.0, "name": "444f2251ea52a2ea8917869a4346c6dd", "rental_uris": {"ios": "https://dc.lft.to/lastmile_qr_scan", "android": "https://dc.lft.to/lastmile_qr_scan"}, "is_disabled": 0, "is_reserved": 0}, {"bike_id": "a7a7109a8231deb47b1ed20231f29452", "type": "electric_scooter", "fusion_lat": 0.0, "lat": 38.860329666666665, "lon": -76.983734, "fusion_lon": 0.0, "name": "a7a7109a8231deb47b1ed20231f29452", "rental_uris": {"ios": "https://dc.lft.to/lastmile_qr_scan", "android": "https://dc.lft.to/lastmile_qr_scan"}, "is_disabled": 0, "is_reserved": 0}, {"bike_id": "db87c540a782b32e034024af10b376e8", "type": "electric_scooter", "fusion_lat": 0.0, "lat": 38.87706383333333, "lon": -77.00297016666667, "fusion_lon": 0.0, "name": "db87c540a782b32e034024af10b376e8", "rental_uris": {"ios": "https://dc.lft.to/lastmile_qr_scan", "android": "https://dc.lft.to/lastmile_qr_scan"}, "is_disabled": 0, "is_reserved": 0}, {"bike_id": "7f7f29ccea0068c591dc30cdc3be48fc", "type": "electric_scooter", "fusion_lat": 0.0, "lat": 38.90388383333333, "lon": -77.04135366666667, "fusion_lon": 0.0, "name": "7f7f29ccea0068c591dc30cdc3be48fc", "rental_uris": {"ios": "https://dc.lft.to/lastmile_qr_scan", "android": "https://dc.lft.to/lastmile_qr_scan"}, "is_disabled": 0, "is_reserved": 0}, {"bike_id": "9da388417bc256b4c784a6614359258d", "type": "electric_scooter", "fusion_lat": 0.0, "lat": 38.91267366666667, "lon": -77.02226933333333, "fusion_lon": 0.0, "name": "9da388417bc256b4c784a6614359258d", "rental_uris": {"ios": "https://dc.lft.to/lastmile_qr_scan", "android": "https://dc.lft.to/lastmile_qr_scan"}, "is_disabled": 0, "is_reserved": 0}, {"bike_id": "700ca7e593d198998ad4deda9d3c5648", "type": "electric_scooter", "fusion_lat": 0.0, "lat": 38.938542166666664, "lon": -77.02456133333334, "fusion_lon": 0.0, "name": "700ca7e593d198998ad4deda9d3c5648", "rental_uris": {"ios": "https://dc.lft.to/lastmile_qr_scan", "android": "https://dc.lft.to/lastmile_qr_scan"}, "is_disabled": 0, "is_reserved": 0}, {"bike_id": "3c5c55350dcea6cdb40f1fc4ee1dc265", "type": "electric_scooter", "fusion_lat": 0.0, "lat": 38.896215166666664, "lon": -76.99732016666667, "fusion_lon": 0.0, "name": "3c5c55350dcea6cdb40f1fc4ee1dc265", "rental_uris": {"ios": "https://dc.lft.to/lastmile_qr_scan", "android": "https://dc.lft.to/lastmile_qr_scan"}, "is_disabled": 0, "is_reserved": 0}, {"bike_id": "56e1ec634f3967466a2ed00691339ca4", "type": "electric_scooter", "fusion_lat": 0.0, "lat": 38.934217, "lon": -77.04159683333333, "fusion_lon": 0.0, "name": "56e1ec634f3967466a2ed00691339ca4", "rental_uris": {"ios": "https://dc.lft.to/lastmile_qr_scan", "android": "https://dc.lft.to/lastmile_qr_scan"}, "is_disabled": 0, "is_reserved": 0}, {"bike_id": "7727626c274bf32bb27a5d7ecc86f5ee", "type": "electric_scooter", "fusion_lat": 0.0, "lat": 38.902181666666664, "lon": -77.02148833333334, "fusion_lon": 0.0, "name": "7727626c274bf32bb27a5d7ecc86f5ee", "rental_uris": {"ios": "https://dc.lft.to/lastmile_qr_scan", "android": "https://dc.lft.to/lastmile_qr_scan"}, "is_disabled": 0, "is_reserved": 0}, {"bike_id": "d6660b5e46058e663b08374615f76866", "type": "electric_scooter", "fusion_lat": 0.0, "lat": 38.91816033333333, "lon": -77.0363085, "fusion_lon": 0.0, "name": "d6660b5e46058e663b08374615f76866", "rental_uris": {"ios": "https://dc.lft.to/lastmile_qr_scan", "android": "https://dc.lft.to/lastmile_qr_scan"}, "is_disabled": 0, "is_reserved": 0}, {"bike_id": "ae7d5e7babb6d0f28686196861f8d20a", "type": "electric_scooter", "fusion_lat": 0.0, "lat": 38.884926666666665, "lon": -77.00713383333333, "fusion_lon": 0.0, "name": "ae7d5e7babb6d0f28686196861f8d20a", "rental_uris": {"ios": "https://dc.lft.to/lastmile_qr_scan", "android": "https://dc.lft.to/lastmile_qr_scan"}, "is_disabled": 0, "is_reserved": 0}, {"bike_id": "cbfd262ebe6ebf8c0cfa14d47f0e9387", "type": "electric_scooter", "fusion_lat": 0.0, "lat": 38.8971185, "lon": -77.008019, "fusion_lon": 0.0, "name": "cbfd262ebe6ebf8c0cfa14d47f0e9387", "rental_uris": {"ios": "https://dc.lft.to/lastmile_qr_scan", "android": "https://dc.lft.to/lastmile_qr_scan"}, "is_disabled": 0, "is_reserved": 0}, {"bike_id": "da3330ebbd1543165763c1d8017e820b", "type": "electric_scooter", "fusion_lat": 0.0, "lat": 38.916563833333335, "lon": -77.02570833333333, "fusion_lon": 0.0, "name": "da3330ebbd1543165763c1d8017e820b", "rental_uris": {"ios": "https://dc.lft.to/lastmile_qr_scan", "android": "https://dc.lft.to/lastmile_qr_scan"}, "is_disabled": 0, "is_reserved": 0}, {"bike_id": "b8196cde98bd7f4b308fa15289afdddf", "type": "electric_scooter", "fusion_lat": 0.0, "lat": 38.939869333333334, "lon": -77.02314016666666, "fusion_lon": 0.0, "name": "b8196cde98bd7f4b308fa15289afdddf", "rental_uris": {"ios": "https://dc.lft.to/lastmile_qr_scan", "android": "https://dc.lft.to/lastmile_qr_scan"}, "is_disabled": 0, "is_reserved": 0}, {"bike_id": "41c62062d2104ec8ebe1764cb665b791", "type": "electric_scooter", "fusion_lat": 0.0, "lat": 38.9123795, "lon": -76.98665716666666, "fusion_lon": 0.0, "name": "41c62062d2104ec8ebe1764cb665b791", "rental_uris": {"ios": "https://dc.lft.to/lastmile_qr_scan", "android": "https://dc.lft.to/lastmile_qr_scan"}, "is_disabled": 0, "is_reserved": 0}, {"bike_id": "8f4f59fb6a5f540f82969470daa3a48c", "type": "electric_scooter", "fusion_lat": 0.0, "lat": 38.903476166666664, "lon": -77.03440516666667, "fusion_lon": 0.0, "name": "8f4f59fb6a5f540f82969470daa3a48c", "rental_uris": {"ios": "https://dc.lft.to/lastmile_qr_scan", "android": "https://dc.lft.to/lastmile_qr_scan"}, "is_disabled": 0, "is_reserved": 0}, {"bike_id": "143b878083f39faf0cc5349fb45177cf", "type": "electric_scooter", "fusion_lat": 0.0, "lat": 38.91406283333333, "lon": -77.01803783333334, "fusion_lon": 0.0, "name": "143b878083f39faf0cc5349fb45177cf", "rental_uris": {"ios": "https://dc.lft.to/lastmile_qr_scan", "android": "https://dc.lft.to/lastmile_qr_scan"}, "is_disabled": 0, "is_reserved": 0}, {"bike_id": "6186230edc7c9e7faefa71e3d76d1f06", "type": "electric_scooter", "fusion_lat": 0.0, "lat": 38.932766, "lon": -76.99092216666666, "fusion_lon": 0.0, "name": "6186230edc7c9e7faefa71e3d76d1f06", "rental_uris": {"ios": "https://dc.lft.to/lastmile_qr_scan", "android": "https://dc.lft.to/lastmile_qr_scan"}, "is_disabled": 0, "is_reserved": 0}, {"bike_id": "23f7f09156ec05d04794debfd3243299", "type": "electric_scooter", "fusion_lat": 0.0, "lat": 38.92481933333333, "lon": -77.02224533333333, "fusion_lon": 0.0, "name": "23f7f09156ec05d04794debfd3243299", "rental_uris": {"ios": "https://dc.lft.to/lastmile_qr_scan", "android": "https://dc.lft.to/lastmile_qr_scan"}, "is_disabled": 0, "is_reserved": 0}, {"bike_id": "2e5782a760e56effdfd7e89643cea240", "type": "electric_bike", "fusion_lat": 0.0, "lat": 39.0157915, "lon": -77.0431225, "fusion_lon": 0.0, "name": "2e5782a760e56effdfd7e89643cea240", "rental_uris": {"ios": "https://dc.lft.to/lastmile_qr_scan", "android": "https://dc.lft.to/lastmile_qr_scan"}, "is_disabled": 0, "is_reserved": 0}, {"bike_id": "286eaaef8cb731dd382e988133cdad1f", "type": "electric_scooter", "fusion_lat": 0.0, "lat": 38.91369383333333, "lon": -77.06613883333333, "fusion_lon": 0.0, "name": "286eaaef8cb731dd382e988133cdad1f", "rental_uris": {"ios": "https://dc.lft.to/lastmile_qr_scan", "android": "https://dc.lft.to/lastmile_qr_scan"}, "is_disabled": 0, "is_reserved": 0}, {"bike_id": "a433e9ecc4b809753a18eaf9b50fb8a1", "type": "electric_scooter", "fusion_lat": 0.0, "lat": 38.87673933333333, "lon": -77.00336933333334, "fusion_lon": 0.0, "name": "a433e9ecc4b809753a18eaf9b50fb8a1", "rental_uris": {"ios": "https://dc.lft.to/lastmile_qr_scan", "android": "https://dc.lft.to/lastmile_qr_scan"}, "is_disabled": 0, "is_reserved": 0}, {"bike_id": "078fd1cd9338767f648c02cbde266c33", "type": "electric_scooter", "fusion_lat": 0.0, "lat": 38.8839005, "lon": -77.03168966666667, "fusion_lon": 0.0, "name": "078fd1cd9338767f648c02cbde266c33", "rental_uris": {"ios": "https://dc.lft.to/lastmile_qr_scan", "android": "https://dc.lft.to/lastmile_qr_scan"}, "is_disabled": 0, "is_reserved": 0}, {"bike_id": "e43f29be663b8f1fdd1d1038276f2e92", "type": "electric_scooter", "fusion_lat": 0.0, "lat": 38.92013883333333, "lon": -76.995616, "fusion_lon": 0.0, "name": "e43f29be663b8f1fdd1d1038276f2e92", "rental_uris": {"ios": "https://dc.lft.to/lastmile_qr_scan", "android": "https://dc.lft.to/lastmile_qr_scan"}, "is_disabled": 0, "is_reserved": 0}, {"bike_id": "28e7ab29163d13ef6448b1dad4868a73", "type": "electric_scooter", "fusion_lat": 0.0, "lat": 38.929915, "lon": -77.02615366666667, "fusion_lon": 0.0, "name": "28e7ab29163d13ef6448b1dad4868a73", "rental_uris": {"ios": "https://dc.lft.to/lastmile_qr_scan", "android": "https://dc.lft.to/lastmile_qr_scan"}, "is_disabled": 0, "is_reserved": 0}, {"bike_id": "a097585de3e2352b0c2d596229ab6651", "type": "electric_bike", "fusion_lat": 0.0, "lat": 38.985001833333335, "lon": -76.95562816666667, "fusion_lon": 0.0, "name": "a097585de3e2352b0c2d596229ab6651", "rental_uris": {"ios": "https://dc.lft.to/lastmile_qr_scan", "android": "https://dc.lft.to/lastmile_qr_scan"}, "is_disabled": 0, "is_reserved": 0}, {"bike_id": "50a0684513b2d92cd148db1176589d7e", "type": "electric_bike", "fusion_lat": 0.0, "lat": 38.93779266666667, "lon": -77.01912216666666, "fusion_lon": 0.0, "name": "50a0684513b2d92cd148db1176589d7e", "rental_uris": {"ios": "https://dc.lft.to/lastmile_qr_scan", "android": "https://dc.lft.to/lastmile_qr_scan"}, "is_disabled": 0, "is_reserved": 0}, {"bike_id": "c02fcb578e3d7a4ea086e4d956a480b4", "type": "electric_scooter", "fusion_lat": 0.0, "lat": 38.9177335, "lon": -77.023083, "fusion_lon": 0.0, "name": "c02fcb578e3d7a4ea086e4d956a480b4", "rental_uris": {"ios": "https://dc.lft.to/lastmile_qr_scan", "android": "https://dc.lft.to/lastmile_qr_scan"}, "is_disabled": 0, "is_reserved": 0}, {"bike_id": "0e078b95083bf32782fe9d3a709fb746", "type": "electric_scooter", "fusion_lat": 0.0, "lat": 38.924680333333335, "lon": -77.0446025, "fusion_lon": 0.0, "name": "0e078b95083bf32782fe9d3a709fb746", "rental_uris": {"ios": "https://dc.lft.to/lastmile_qr_scan", "android": "https://dc.lft.to/lastmile_qr_scan"}, "is_disabled": 0, "is_reserved": 0}, {"bike_id": "d85c0b24ff37203813a33d8c6673e1e2", "type": "electric_scooter", "fusion_lat": 0.0, "lat": 38.942646833333335, "lon": -77.02983016666667, "fusion_lon": 0.0, "name": "d85c0b24ff37203813a33d8c6673e1e2", "rental_uris": {"ios": "https://dc.lft.to/lastmile_qr_scan", "android": "https://dc.lft.to/lastmile_qr_scan"}, "is_disabled": 0, "is_reserved": 0}, {"bike_id": "6567b8daa96d7796d30f14601f5f506d", "type": "electric_scooter", "fusion_lat": 0.0, "lat": 38.9213235, "lon": -77.01798483333333, "fusion_lon": 0.0, "name": "6567b8daa96d7796d30f14601f5f506d", "rental_uris": {"ios": "https://dc.lft.to/lastmile_qr_scan", "android": "https://dc.lft.to/lastmile_qr_scan"}, "is_disabled": 0, "is_reserved": 0}, {"bike_id": "b0b4004f46fc90d9db3c67bc2f95d042", "type": "electric_scooter", "fusion_lat": 0.0, "lat": 38.914919833333336, "lon": -76.9837295, "fusion_lon": 0.0, "name": "b0b4004f46fc90d9db3c67bc2f95d042", "rental_uris": {"ios": "https://dc.lft.to/lastmile_qr_scan", "android": "https://dc.lft.to/lastmile_qr_scan"}, "is_disabled": 0, "is_reserved": 0}, {"bike_id": "4a80f81837d5e2eea070c272cc9b7f56", "type": "electric_scooter", "fusion_lat": 0.0, "lat": 38.90389366666667, "lon": -77.06296633333334, "fusion_lon": 0.0, "name": "4a80f81837d5e2eea070c272cc9b7f56", "rental_uris": {"ios": "https://dc.lft.to/lastmile_qr_scan", "android": "https://dc.lft.to/lastmile_qr_scan"}, "is_disabled": 0, "is_reserved": 0}, {"bike_id": "3ccdeb0c4d9c80f9fc80b08856ab0556", "type": "electric_scooter", "fusion_lat": 0.0, "lat": 38.892959833333336, "lon": -77.0150505, "fusion_lon": 0.0, "name": "3ccdeb0c4d9c80f9fc80b08856ab0556", "rental_uris": {"ios": "https://dc.lft.to/lastmile_qr_scan", "android": "https://dc.lft.to/lastmile_qr_scan"}, "is_disabled": 0, "is_reserved": 0}, {"bike_id": "8b422924b4431e795c88e5216ff65c83", "type": "electric_scooter", "fusion_lat": 0.0, "lat": 38.874605333333335, "lon": -77.01592866666667, "fusion_lon": 0.0, "name": "8b422924b4431e795c88e5216ff65c83", "rental_uris": {"ios": "https://dc.lft.to/lastmile_qr_scan", "android": "https://dc.lft.to/lastmile_qr_scan"}, "is_disabled": 0, "is_reserved": 0}, {"bike_id": "06798b97f39c8fd22842389bc80c5e7a", "type": "electric_scooter", "fusion_lat": 0.0, "lat": 38.915698166666665, "lon": -77.03174916666667, "fusion_lon": 0.0, "name": "06798b97f39c8fd22842389bc80c5e7a", "rental_uris": {"ios": "https://dc.lft.to/lastmile_qr_scan", "android": "https://dc.lft.to/lastmile_qr_scan"}, "is_disabled": 0, "is_reserved": 0}, {"bike_id": "bb2443a026e83291ead68a79f3b8ed6d", "type": "electric_scooter", "fusion_lat": 0.0, "lat": 38.88735116666667, "lon": -77.01768666666666, "fusion_lon": 0.0, "name": "bb2443a026e83291ead68a79f3b8ed6d", "rental_uris": {"ios": "https://dc.lft.to/lastmile_qr_scan", "android": "https://dc.lft.to/lastmile_qr_scan"}, "is_disabled": 0, "is_reserved": 0}, {"bike_id": "1c1020b0fc8ad4cafe65e775765cd5a4", "type": "electric_scooter", "fusion_lat": 0.0, "lat": 38.92170433333333, "lon": -77.073157, "fusion_lon": 0.0, "name": "1c1020b0fc8ad4cafe65e775765cd5a4", "rental_uris": {"ios": "https://dc.lft.to/lastmile_qr_scan", "android": "https://dc.lft.to/lastmile_qr_scan"}, "is_disabled": 0, "is_reserved": 0}, {"bike_id": "d75cc1147c36ddf860aac69ee70960f1", "type": "electric_scooter", "fusion_lat": 0.0, "lat": 38.910356666666665, "lon": -77.034455, "fusion_lon": 0.0, "name": "d75cc1147c36ddf860aac69ee70960f1", "rental_uris": {"ios": "https://dc.lft.to/lastmile_qr_scan", "android": "https://dc.lft.to/lastmile_qr_scan"}, "is_disabled": 0, "is_reserved": 0}, {"bike_id": "796be86822c231d46ca500a492379533", "type": "electric_scooter", "fusion_lat": 0.0, "lat": 38.96649216666667, "lon": -77.027456, "fusion_lon": 0.0, "name": "796be86822c231d46ca500a492379533", "rental_uris": {"ios": "https://dc.lft.to/lastmile_qr_scan", "android": "https://dc.lft.to/lastmile_qr_scan"}, "is_disabled": 0, "is_reserved": 0}, {"bike_id": "00e043c379c2818501917048b97a77ae", "type": "electric_scooter", "fusion_lat": 0.0, "lat": 38.909525333333335, "lon": -77.00891216666666, "fusion_lon": 0.0, "name": "00e043c379c2818501917048b97a77ae", "rental_uris": {"ios": "https://dc.lft.to/lastmile_qr_scan", "android": "https://dc.lft.to/lastmile_qr_scan"}, "is_disabled": 0, "is_reserved": 0}, {"bike_id": "c55c4d6638b78d3d7b6499ab661ad277", "type": "electric_scooter", "fusion_lat": 0.0, "lat": 38.903628166666664, "lon": -77.0318165, "fusion_lon": 0.0, "name": "c55c4d6638b78d3d7b6499ab661ad277", "rental_uris": {"ios": "https://dc.lft.to/lastmile_qr_scan", "android": "https://dc.lft.to/lastmile_qr_scan"}, "is_disabled": 0, "is_reserved": 0}, {"bike_id": "7a24d621f4d7685fcd4d3528d1474c1b", "type": "electric_scooter", "fusion_lat": 0.0, "lat": 38.897194666666664, "lon": -77.02677316666667, "fusion_lon": 0.0, "name": "7a24d621f4d7685fcd4d3528d1474c1b", "rental_uris": {"ios": "https://dc.lft.to/lastmile_qr_scan", "android": "https://dc.lft.to/lastmile_qr_scan"}, "is_disabled": 0, "is_reserved": 0}, {"bike_id": "5aef94d7c88949bf6c818df25f58ee60", "type": "electric_scooter", "fusion_lat": 0.0, "lat": 38.865132333333335, "lon": -76.990197, "fusion_lon": 0.0, "name": "5aef94d7c88949bf6c818df25f58ee60", "rental_uris": {"ios": "https://dc.lft.to/lastmile_qr_scan", "android": "https://dc.lft.to/lastmile_qr_scan"}, "is_disabled": 0, "is_reserved": 0}, {"bike_id": "8f73410d2f439b81672dda5f8bc9bbfe", "type": "electric_bike", "fusion_lat": 0.0, "lat": 38.992231, "lon": -77.03583166666667, "fusion_lon": 0.0, "name": "8f73410d2f439b81672dda5f8bc9bbfe", "rental_uris": {"ios": "https://dc.lft.to/lastmile_qr_scan", "android": "https://dc.lft.to/lastmile_qr_scan"}, "is_disabled": 0, "is_reserved": 0}, {"bike_id": "d20d6403550edc42ee05e4de37ba828e", "type": "electric_scooter", "fusion_lat": 0.0, "lat": 38.900378333333336, "lon": -77.041599, "fusion_lon": 0.0, "name": "d20d6403550edc42ee05e4de37ba828e", "rental_uris": {"ios": "https://dc.lft.to/lastmile_qr_scan", "android": "https://dc.lft.to/lastmile_qr_scan"}, "is_disabled": 0, "is_reserved": 0}, {"bike_id": "8cee818c2ad601d3eb3bf730bf058787", "type": "electric_bike", "fusion_lat": 0.0, "lat": 38.8360645, "lon": -77.00376283333334, "fusion_lon": 0.0, "name": "8cee818c2ad601d3eb3bf730bf058787", "rental_uris": {"ios": "https://dc.lft.to/lastmile_qr_scan", "android": "https://dc.lft.to/lastmile_qr_scan"}, "is_disabled": 0, "is_reserved": 0}, {"bike_id": "3a281ecf4aed4ca375388f3a9fe99ce1", "type": "electric_scooter", "fusion_lat": 0.0, "lat": 38.94738533333334, "lon": -77.02365833333333, "fusion_lon": 0.0, "name": "3a281ecf4aed4ca375388f3a9fe99ce1", "rental_uris": {"ios": "https://dc.lft.to/lastmile_qr_scan", "android": "https://dc.lft.to/lastmile_qr_scan"}, "is_disabled": 0, "is_reserved": 0}, {"bike_id": "469e2ec08dcfa9f920696c2aa537a230", "type": "electric_bike", "fusion_lat": 0.0, "lat": 38.8381275, "lon": -77.00277866666667, "fusion_lon": 0.0, "name": "469e2ec08dcfa9f920696c2aa537a230", "rental_uris": {"ios": "https://dc.lft.to/lastmile_qr_scan", "android": "https://dc.lft.to/lastmile_qr_scan"}, "is_disabled": 0, "is_reserved": 0}, {"bike_id": "d8bb4916d0238cd96a2f06ba73d6b8c3", "type": "electric_scooter", "fusion_lat": 0.0, "lat": 38.91042683333333, "lon": -77.013749, "fusion_lon": 0.0, "name": "d8bb4916d0238cd96a2f06ba73d6b8c3", "rental_uris": {"ios": "https://dc.lft.to/lastmile_qr_scan", "android": "https://dc.lft.to/lastmile_qr_scan"}, "is_disabled": 0, "is_reserved": 0}, {"bike_id": "a1fb755b2b5e78d285dad5611fccbabb", "type": "electric_scooter", "fusion_lat": 0.0, "lat": 38.904915, "lon": -77.0293435, "fusion_lon": 0.0, "name": "a1fb755b2b5e78d285dad5611fccbabb", "rental_uris": {"ios": "https://dc.lft.to/lastmile_qr_scan", "android": "https://dc.lft.to/lastmile_qr_scan"}, "is_disabled": 0, "is_reserved": 0}, {"bike_id": "c11636b24f957628c27f213d67904077", "type": "electric_scooter", "fusion_lat": 0.0, "lat": 38.91199666666667, "lon": -77.073075, "fusion_lon": 0.0, "name": "c11636b24f957628c27f213d67904077", "rental_uris": {"ios": "https://dc.lft.to/lastmile_qr_scan", "android": "https://dc.lft.to/lastmile_qr_scan"}, "is_disabled": 0, "is_reserved": 0}, {"bike_id": "28887a193ce8571b1ab893d2ed087003", "type": "electric_scooter", "fusion_lat": 0.0, "lat": 38.89997416666667, "lon": -77.025856, "fusion_lon": 0.0, "name": "28887a193ce8571b1ab893d2ed087003", "rental_uris": {"ios": "https://dc.lft.to/lastmile_qr_scan", "android": "https://dc.lft.to/lastmile_qr_scan"}, "is_disabled": 0, "is_reserved": 0}, {"bike_id": "def59caa2cc953978575744d598cc4e8", "type": "electric_scooter", "fusion_lat": 0.0, "lat": 38.895963, "lon": -77.02648333333333, "fusion_lon": 0.0, "name": "def59caa2cc953978575744d598cc4e8", "rental_uris": {"ios": "https://dc.lft.to/lastmile_qr_scan", "android": "https://dc.lft.to/lastmile_qr_scan"}, "is_disabled": 0, "is_reserved": 0}, {"bike_id": "bffd7b75a3305115b83cf037453395ce", "type": "electric_scooter", "fusion_lat": 0.0, "lat": 38.89872583333333, "lon": -77.03170466666667, "fusion_lon": 0.0, "name": "bffd7b75a3305115b83cf037453395ce", "rental_uris": {"ios": "https://dc.lft.to/lastmile_qr_scan", "android": "https://dc.lft.to/lastmile_qr_scan"}, "is_disabled": 0, "is_reserved": 0}, {"bike_id": "fa16d1632985c213bece6599f60be23c", "type": "electric_scooter", "fusion_lat": 0.0, "lat": 38.92140233333333, "lon": -77.02419516666667, "fusion_lon": 0.0, "name": "fa16d1632985c213bece6599f60be23c", "rental_uris": {"ios": "https://dc.lft.to/lastmile_qr_scan", "android": "https://dc.lft.to/lastmile_qr_scan"}, "is_disabled": 0, "is_reserved": 0}, {"bike_id": "68b16d80ad6c1a65f284665e0b4afc56", "type": "electric_scooter", "fusion_lat": 0.0, "lat": 38.908943, "lon": -76.982365, "fusion_lon": 0.0, "name": "68b16d80ad6c1a65f284665e0b4afc56", "rental_uris": {"ios": "https://dc.lft.to/lastmile_qr_scan", "android": "https://dc.lft.to/lastmile_qr_scan"}, "is_disabled": 0, "is_reserved": 0}, {"bike_id": "b1eb14bce1e31c786166783bb58c9a28", "type": "electric_scooter", "fusion_lat": 0.0, "lat": 38.96624766666667, "lon": -77.019944, "fusion_lon": 0.0, "name": "b1eb14bce1e31c786166783bb58c9a28", "rental_uris": {"ios": "https://dc.lft.to/lastmile_qr_scan", "android": "https://dc.lft.to/lastmile_qr_scan"}, "is_disabled": 0, "is_reserved": 0}, {"bike_id": "ef33d77022267b1402accf98b7f34677", "type": "electric_scooter", "fusion_lat": 0.0, "lat": 38.904259833333334, "lon": -77.0435795, "fusion_lon": 0.0, "name": "ef33d77022267b1402accf98b7f34677", "rental_uris": {"ios": "https://dc.lft.to/lastmile_qr_scan", "android": "https://dc.lft.to/lastmile_qr_scan"}, "is_disabled": 0, "is_reserved": 0}, {"bike_id": "4f5ae9df6b5e0266467cd4a4560e7f13", "type": "electric_scooter", "fusion_lat": 0.0, "lat": 38.926013833333336, "lon": -77.02158083333333, "fusion_lon": 0.0, "name": "4f5ae9df6b5e0266467cd4a4560e7f13", "rental_uris": {"ios": "https://dc.lft.to/lastmile_qr_scan", "android": "https://dc.lft.to/lastmile_qr_scan"}, "is_disabled": 0, "is_reserved": 0}, {"bike_id": "662f6fe963e9893055c6001c37f80cc8", "type": "electric_scooter", "fusion_lat": 0.0, "lat": 38.880564, "lon": -76.932154, "fusion_lon": 0.0, "name": "662f6fe963e9893055c6001c37f80cc8", "rental_uris": {"ios": "https://dc.lft.to/lastmile_qr_scan", "android": "https://dc.lft.to/lastmile_qr_scan"}, "is_disabled": 0, "is_reserved": 0}, {"bike_id": "227c3fc296b2b4de391447661bec78c3", "type": "electric_scooter", "fusion_lat": 0.0, "lat": 38.92716816666667, "lon": -77.06002083333334, "fusion_lon": 0.0, "name": "227c3fc296b2b4de391447661bec78c3", "rental_uris": {"ios": "https://dc.lft.to/lastmile_qr_scan", "android": "https://dc.lft.to/lastmile_qr_scan"}, "is_disabled": 0, "is_reserved": 0}, {"bike_id": "5c2e6007f8fe5546fdf373db4fcf9cd1", "type": "electric_scooter", "fusion_lat": 0.0, "lat": 38.92093116666667, "lon": -77.02320066666667, "fusion_lon": 0.0, "name": "5c2e6007f8fe5546fdf373db4fcf9cd1", "rental_uris": {"ios": "https://dc.lft.to/lastmile_qr_scan", "android": "https://dc.lft.to/lastmile_qr_scan"}, "is_disabled": 0, "is_reserved": 0}, {"bike_id": "ef18cc18fdb8d64489a15a47160457e2", "type": "electric_bike", "fusion_lat": 0.0, "lat": 38.943028166666664, "lon": -76.998898, "fusion_lon": 0.0, "name": "ef18cc18fdb8d64489a15a47160457e2", "rental_uris": {"ios": "https://dc.lft.to/lastmile_qr_scan", "android": "https://dc.lft.to/lastmile_qr_scan"}, "is_disabled": 0, "is_reserved": 0}, {"bike_id": "0164698cf62661b0512f52bbaf1a9813", "type": "electric_scooter", "fusion_lat": 0.0, "lat": 38.919549333333336, "lon": -77.04148583333334, "fusion_lon": 0.0, "name": "0164698cf62661b0512f52bbaf1a9813", "rental_uris": {"ios": "https://dc.lft.to/lastmile_qr_scan", "android": "https://dc.lft.to/lastmile_qr_scan"}, "is_disabled": 0, "is_reserved": 0}, {"bike_id": "5b8f61a178f735fb6f2b36a4c6fdff80", "type": "electric_scooter", "fusion_lat": 0.0, "lat": 38.892225333333336, "lon": -77.02406783333333, "fusion_lon": 0.0, "name": "5b8f61a178f735fb6f2b36a4c6fdff80", "rental_uris": {"ios": "https://dc.lft.to/lastmile_qr_scan", "android": "https://dc.lft.to/lastmile_qr_scan"}, "is_disabled": 0, "is_reserved": 0}, {"bike_id": "046f500bb651b96356c40d6ae2e9a6d3", "type": "electric_bike", "fusion_lat": 0.0, "lat": 38.95536766666667, "lon": -76.95672666666667, "fusion_lon": 0.0, "name": "046f500bb651b96356c40d6ae2e9a6d3", "rental_uris": {"ios": "https://dc.lft.to/lastmile_qr_scan", "android": "https://dc.lft.to/lastmile_qr_scan"}, "is_disabled": 0, "is_reserved": 0}, {"bike_id": "fd0c8261db39d94496b5317b8c206b17", "type": "electric_scooter", "fusion_lat": 0.0, "lat": 38.9015175, "lon": -77.049848, "fusion_lon": 0.0, "name": "fd0c8261db39d94496b5317b8c206b17", "rental_uris": {"ios": "https://dc.lft.to/lastmile_qr_scan", "android": "https://dc.lft.to/lastmile_qr_scan"}, "is_disabled": 0, "is_reserved": 0}, {"bike_id": "d9f2f90951d0b846500ed2c99f54a395", "type": "electric_scooter", "fusion_lat": 0.0, "lat": 38.89196283333333, "lon": -77.0237195, "fusion_lon": 0.0, "name": "d9f2f90951d0b846500ed2c99f54a395", "rental_uris": {"ios": "https://dc.lft.to/lastmile_qr_scan", "android": "https://dc.lft.to/lastmile_qr_scan"}, "is_disabled": 0, "is_reserved": 0}, {"bike_id": "53c4d7c95015967ed42cf33f4e8a4d79", "type": "electric_scooter", "fusion_lat": 0.0, "lat": 38.9011635, "lon": -77.033827, "fusion_lon": 0.0, "name": "53c4d7c95015967ed42cf33f4e8a4d79", "rental_uris": {"ios": "https://dc.lft.to/lastmile_qr_scan", "android": "https://dc.lft.to/lastmile_qr_scan"}, "is_disabled": 0, "is_reserved": 0}, {"bike_id": "891d12da35d21f6a8a2a1b2cee27d2e9", "type": "electric_scooter", "fusion_lat": 0.0, "lat": 38.915272, "lon": -77.0444985, "fusion_lon": 0.0, "name": "891d12da35d21f6a8a2a1b2cee27d2e9", "rental_uris": {"ios": "https://dc.lft.to/lastmile_qr_scan", "android": "https://dc.lft.to/lastmile_qr_scan"}, "is_disabled": 0, "is_reserved": 0}, {"bike_id": "4fb38a448a9c986a5b6b5552fbc17091", "type": "electric_scooter", "fusion_lat": 0.0, "lat": 38.899273, "lon": -76.945777, "fusion_lon": 0.0, "name": "4fb38a448a9c986a5b6b5552fbc17091", "rental_uris": {"ios": "https://dc.lft.to/lastmile_qr_scan", "android": "https://dc.lft.to/lastmile_qr_scan"}, "is_disabled": 0, "is_reserved": 0}, {"bike_id": "ece9220b93be8683f03ef80759498f07", "type": "electric_bike", "fusion_lat": 0.0, "lat": 38.89565066666667, "lon": -77.12735466666666, "fusion_lon": 0.0, "name": "ece9220b93be8683f03ef80759498f07", "rental_uris": {"ios": "https://dc.lft.to/lastmile_qr_scan", "android": "https://dc.lft.to/lastmile_qr_scan"}, "is_disabled": 0, "is_reserved": 0}, {"bike_id": "441045d98b9ab2753465f8f41457a121", "type": "electric_bike", "fusion_lat": 0.0, "lat": 38.92064883333333, "lon": -76.97072583333333, "fusion_lon": 0.0, "name": "441045d98b9ab2753465f8f41457a121", "rental_uris": {"ios": "https://dc.lft.to/lastmile_qr_scan", "android": "https://dc.lft.to/lastmile_qr_scan"}, "is_disabled": 0, "is_reserved": 0}, {"bike_id": "4089eb4c9681b796a35ec889582627a8", "type": "electric_scooter", "fusion_lat": 0.0, "lat": 38.9234, "lon": -77.04131566666666, "fusion_lon": 0.0, "name": "4089eb4c9681b796a35ec889582627a8", "rental_uris": {"ios": "https://dc.lft.to/lastmile_qr_scan", "android": "https://dc.lft.to/lastmile_qr_scan"}, "is_disabled": 0, "is_reserved": 0}, {"bike_id": "65e6e7382823816f59636f17013fb861", "type": "electric_bike", "fusion_lat": 0.0, "lat": 39.0261865, "lon": -77.03875483333333, "fusion_lon": 0.0, "name": "65e6e7382823816f59636f17013fb861", "rental_uris": {"ios": "https://dc.lft.to/lastmile_qr_scan", "android": "https://dc.lft.to/lastmile_qr_scan"}, "is_disabled": 0, "is_reserved": 0}, {"bike_id": "33464fddde789e687a0e836863680e5e", "type": "electric_scooter", "fusion_lat": 0.0, "lat": 38.89367283333333, "lon": -77.003314, "fusion_lon": 0.0, "name": "33464fddde789e687a0e836863680e5e", "rental_uris": {"ios": "https://dc.lft.to/lastmile_qr_scan", "android": "https://dc.lft.to/lastmile_qr_scan"}, "is_disabled": 0, "is_reserved": 0}, {"bike_id": "03fd057de392c9f60f476fb3dcd6dd13", "type": "electric_bike", "fusion_lat": 0.0, "lat": 38.87575483333333, "lon": -77.2340845, "fusion_lon": 0.0, "name": "03fd057de392c9f60f476fb3dcd6dd13", "rental_uris": {"ios": "https://dc.lft.to/lastmile_qr_scan", "android": "https://dc.lft.to/lastmile_qr_scan"}, "is_disabled": 0, "is_reserved": 0}, {"bike_id": "91168c75a73ce73f2181d1fd6001aa2b", "type": "electric_scooter", "fusion_lat": 0.0, "lat": 38.88860666666667, "lon": -76.97906083333334, "fusion_lon": 0.0, "name": "91168c75a73ce73f2181d1fd6001aa2b", "rental_uris": {"ios": "https://dc.lft.to/lastmile_qr_scan", "android": "https://dc.lft.to/lastmile_qr_scan"}, "is_disabled": 0, "is_reserved": 0}, {"bike_id": "243ba060db92f3c949769279b541201c", "type": "electric_scooter", "fusion_lat": 0.0, "lat": 38.89537716666667, "lon": -76.94891366666667, "fusion_lon": 0.0, "name": "243ba060db92f3c949769279b541201c", "rental_uris": {"ios": "https://dc.lft.to/lastmile_qr_scan", "android": "https://dc.lft.to/lastmile_qr_scan"}, "is_disabled": 0, "is_reserved": 0}, {"bike_id": "9112b241a99b91dda65383727de78708", "type": "electric_scooter", "fusion_lat": 0.0, "lat": 38.9405405, "lon": -77.02976766666667, "fusion_lon": 0.0, "name": "9112b241a99b91dda65383727de78708", "rental_uris": {"ios": "https://dc.lft.to/lastmile_qr_scan", "android": "https://dc.lft.to/lastmile_qr_scan"}, "is_disabled": 0, "is_reserved": 0}, {"bike_id": "4e460834b912d2b4d32127c697ba4221", "type": "electric_scooter", "fusion_lat": 0.0, "lat": 38.84712666666667, "lon": -76.96815666666667, "fusion_lon": 0.0, "name": "4e460834b912d2b4d32127c697ba4221", "rental_uris": {"ios": "https://dc.lft.to/lastmile_qr_scan", "android": "https://dc.lft.to/lastmile_qr_scan"}, "is_disabled": 0, "is_reserved": 0}, {"bike_id": "1b9ef1e22a6bbc5d3e9bd592381678fe", "type": "electric_scooter", "fusion_lat": 0.0, "lat": 38.9038515, "lon": -77.04087266666667, "fusion_lon": 0.0, "name": "1b9ef1e22a6bbc5d3e9bd592381678fe", "rental_uris": {"ios": "https://dc.lft.to/lastmile_qr_scan", "android": "https://dc.lft.to/lastmile_qr_scan"}, "is_disabled": 0, "is_reserved": 0}, {"bike_id": "4247ce4c9ff7fc5b1ad817fb80026cd7", "type": "electric_scooter", "fusion_lat": 0.0, "lat": 38.884924166666664, "lon": -77.00710016666666, "fusion_lon": 0.0, "name": "4247ce4c9ff7fc5b1ad817fb80026cd7", "rental_uris": {"ios": "https://dc.lft.to/lastmile_qr_scan", "android": "https://dc.lft.to/lastmile_qr_scan"}, "is_disabled": 0, "is_reserved": 0}, {"bike_id": "4ad58c1ac7297a66748e3951d414be41", "type": "electric_scooter", "fusion_lat": 0.0, "lat": 38.878898666666664, "lon": -77.00062266666667, "fusion_lon": 0.0, "name": "4ad58c1ac7297a66748e3951d414be41", "rental_uris": {"ios": "https://dc.lft.to/lastmile_qr_scan", "android": "https://dc.lft.to/lastmile_qr_scan"}, "is_disabled": 0, "is_reserved": 0}, {"bike_id": "652f7a60c628313cda999175b37969a9", "type": "electric_scooter", "fusion_lat": 0.0, "lat": 38.890466833333335, "lon": -76.98978783333334, "fusion_lon": 0.0, "name": "652f7a60c628313cda999175b37969a9", "rental_uris": {"ios": "https://dc.lft.to/lastmile_qr_scan", "android": "https://dc.lft.to/lastmile_qr_scan"}, "is_disabled": 0, "is_reserved": 0}, {"bike_id": "b27392648da95e49b998ad765753376f", "type": "electric_scooter", "fusion_lat": 0.0, "lat": 38.90973266666666, "lon": -77.00893516666666, "fusion_lon": 0.0, "name": "b27392648da95e49b998ad765753376f", "rental_uris": {"ios": "https://dc.lft.to/lastmile_qr_scan", "android": "https://dc.lft.to/lastmile_qr_scan"}, "is_disabled": 0, "is_reserved": 0}, {"bike_id": "14495771e228f001daa4c78c6d2de979", "type": "electric_scooter", "fusion_lat": 0.0, "lat": 38.9277685, "lon": -77.02680783333334, "fusion_lon": 0.0, "name": "14495771e228f001daa4c78c6d2de979", "rental_uris": {"ios": "https://dc.lft.to/lastmile_qr_scan", "android": "https://dc.lft.to/lastmile_qr_scan"}, "is_disabled": 0, "is_reserved": 0}, {"bike_id": "7dc37b06af333e19df60d32c7ad9ecb3", "type": "electric_scooter", "fusion_lat": 0.0, "lat": 38.92246816666667, "lon": -77.07699066666666, "fusion_lon": 0.0, "name": "7dc37b06af333e19df60d32c7ad9ecb3", "rental_uris": {"ios": "https://dc.lft.to/lastmile_qr_scan", "android": "https://dc.lft.to/lastmile_qr_scan"}, "is_disabled": 0, "is_reserved": 0}, {"bike_id": "7e76ca69e24403130f0e71905ac54458", "type": "electric_scooter", "fusion_lat": 0.0, "lat": 38.900173, "lon": -76.98867883333334, "fusion_lon": 0.0, "name": "7e76ca69e24403130f0e71905ac54458", "rental_uris": {"ios": "https://dc.lft.to/lastmile_qr_scan", "android": "https://dc.lft.to/lastmile_qr_scan"}, "is_disabled": 0, "is_reserved": 0}, {"bike_id": "2441616e3441dfe6fe9f9941cd4ffcff", "type": "electric_scooter", "fusion_lat": 0.0, "lat": 38.90149733333333, "lon": -77.0412405, "fusion_lon": 0.0, "name": "2441616e3441dfe6fe9f9941cd4ffcff", "rental_uris": {"ios": "https://dc.lft.to/lastmile_qr_scan", "android": "https://dc.lft.to/lastmile_qr_scan"}, "is_disabled": 0, "is_reserved": 0}, {"bike_id": "1bc857d45239d7cac8c71b1ccb57eaa8", "type": "electric_scooter", "fusion_lat": 0.0, "lat": 38.905850666666666, "lon": -77.0028145, "fusion_lon": 0.0, "name": "1bc857d45239d7cac8c71b1ccb57eaa8", "rental_uris": {"ios": "https://dc.lft.to/lastmile_qr_scan", "android": "https://dc.lft.to/lastmile_qr_scan"}, "is_disabled": 0, "is_reserved": 0}, {"bike_id": "f76328d846b5f3d50aa14d5407eaad16", "type": "electric_bike", "fusion_lat": 0.0, "lat": 38.98379833333333, "lon": -76.94720883333333, "fusion_lon": 0.0, "name": "f76328d846b5f3d50aa14d5407eaad16", "rental_uris": {"ios": "https://dc.lft.to/lastmile_qr_scan", "android": "https://dc.lft.to/lastmile_qr_scan"}, "is_disabled": 0, "is_reserved": 0}, {"bike_id": "e3cd77e6f16c94ff81e6f766db2ece6e", "type": "electric_scooter", "fusion_lat": 0.0, "lat": 38.909606833333335, "lon": -77.007417, "fusion_lon": 0.0, "name": "e3cd77e6f16c94ff81e6f766db2ece6e", "rental_uris": {"ios": "https://dc.lft.to/lastmile_qr_scan", "android": "https://dc.lft.to/lastmile_qr_scan"}, "is_disabled": 0, "is_reserved": 0}, {"bike_id": "d5a71918a68e4b271ebdf725b976c0e7", "type": "electric_scooter", "fusion_lat": 0.0, "lat": 38.924234166666665, "lon": -77.05174933333333, "fusion_lon": 0.0, "name": "d5a71918a68e4b271ebdf725b976c0e7", "rental_uris": {"ios": "https://dc.lft.to/lastmile_qr_scan", "android": "https://dc.lft.to/lastmile_qr_scan"}, "is_disabled": 0, "is_reserved": 0}, {"bike_id": "acc8d42c5c035e83fcb1fe4d1bd3788c", "type": "electric_bike", "fusion_lat": 0.0, "lat": 38.9077725, "lon": -77.05702866666667, "fusion_lon": 0.0, "name": "acc8d42c5c035e83fcb1fe4d1bd3788c", "rental_uris": {"ios": "https://dc.lft.to/lastmile_qr_scan", "android": "https://dc.lft.to/lastmile_qr_scan"}, "is_disabled": 0, "is_reserved": 0}, {"bike_id": "4d779001c62e19d7558f392ca52ef08d", "type": "electric_scooter", "fusion_lat": 0.0, "lat": 38.90124516666667, "lon": -77.01521, "fusion_lon": 0.0, "name": "4d779001c62e19d7558f392ca52ef08d", "rental_uris": {"ios": "https://dc.lft.to/lastmile_qr_scan", "android": "https://dc.lft.to/lastmile_qr_scan"}, "is_disabled": 0, "is_reserved": 0}, {"bike_id": "65ef4af267ebafc947b4dd6bb392d07b", "type": "electric_scooter", "fusion_lat": 0.0, "lat": 38.89475616666667, "lon": -77.01103783333333, "fusion_lon": 0.0, "name": "65ef4af267ebafc947b4dd6bb392d07b", "rental_uris": {"ios": "https://dc.lft.to/lastmile_qr_scan", "android": "https://dc.lft.to/lastmile_qr_scan"}, "is_disabled": 0, "is_reserved": 0}, {"bike_id": "8a86ff46e8cd04236b292f9f84f6a815", "type": "electric_scooter", "fusion_lat": 0.0, "lat": 38.90817216666667, "lon": -77.03896316666666, "fusion_lon": 0.0, "name": "8a86ff46e8cd04236b292f9f84f6a815", "rental_uris": {"ios": "https://dc.lft.to/lastmile_qr_scan", "android": "https://dc.lft.to/lastmile_qr_scan"}, "is_disabled": 0, "is_reserved": 0}, {"bike_id": "36e177a605ed840a68b3c4d9fbcbe954", "type": "electric_scooter", "fusion_lat": 0.0, "lat": 38.89220383333333, "lon": -77.04686716666667, "fusion_lon": 0.0, "name": "36e177a605ed840a68b3c4d9fbcbe954", "rental_uris": {"ios": "https://dc.lft.to/lastmile_qr_scan", "android": "https://dc.lft.to/lastmile_qr_scan"}, "is_disabled": 0, "is_reserved": 0}, {"bike_id": "1556d69c3d793a53e185b1c1cc7e5483", "type": "electric_scooter", "fusion_lat": 0.0, "lat": 38.92640866666667, "lon": -77.01341566666666, "fusion_lon": 0.0, "name": "1556d69c3d793a53e185b1c1cc7e5483", "rental_uris": {"ios": "https://dc.lft.to/lastmile_qr_scan", "android": "https://dc.lft.to/lastmile_qr_scan"}, "is_disabled": 0, "is_reserved": 0}, {"bike_id": "04414022eeda30f9155a01ba230bc41c", "type": "electric_scooter", "fusion_lat": 0.0, "lat": 38.924685333333336, "lon": -77.0523465, "fusion_lon": 0.0, "name": "04414022eeda30f9155a01ba230bc41c", "rental_uris": {"ios": "https://dc.lft.to/lastmile_qr_scan", "android": "https://dc.lft.to/lastmile_qr_scan"}, "is_disabled": 0, "is_reserved": 0}, {"bike_id": "4b2ee03d264440c79e755b33bb8f5515", "type": "electric_scooter", "fusion_lat": 0.0, "lat": 38.876478166666665, "lon": -77.004356, "fusion_lon": 0.0, "name": "4b2ee03d264440c79e755b33bb8f5515", "rental_uris": {"ios": "https://dc.lft.to/lastmile_qr_scan", "android": "https://dc.lft.to/lastmile_qr_scan"}, "is_disabled": 0, "is_reserved": 0}, {"bike_id": "323b473a4d7886920a446c6c58061d02", "type": "electric_scooter", "fusion_lat": 0.0, "lat": 38.87384616666667, "lon": -77.00135483333334, "fusion_lon": 0.0, "name": "323b473a4d7886920a446c6c58061d02", "rental_uris": {"ios": "https://dc.lft.to/lastmile_qr_scan", "android": "https://dc.lft.to/lastmile_qr_scan"}, "is_disabled": 0, "is_reserved": 0}, {"bike_id": "930223c8d13d141c1e10aed68ccff99e", "type": "electric_scooter", "fusion_lat": 0.0, "lat": 38.92044683333334, "lon": -77.031315, "fusion_lon": 0.0, "name": "930223c8d13d141c1e10aed68ccff99e", "rental_uris": {"ios": "https://dc.lft.to/lastmile_qr_scan", "android": "https://dc.lft.to/lastmile_qr_scan"}, "is_disabled": 0, "is_reserved": 0}, {"bike_id": "1a8c8eb2f5b8bcb1efa74e8bebe4c6c2", "type": "electric_scooter", "fusion_lat": 0.0, "lat": 38.9039605, "lon": -77.04351916666667, "fusion_lon": 0.0, "name": "1a8c8eb2f5b8bcb1efa74e8bebe4c6c2", "rental_uris": {"ios": "https://dc.lft.to/lastmile_qr_scan", "android": "https://dc.lft.to/lastmile_qr_scan"}, "is_disabled": 0, "is_reserved": 0}, {"bike_id": "2a7658f96a0791dc39b728340933b741", "type": "electric_scooter", "fusion_lat": 0.0, "lat": 38.90777416666667, "lon": -77.06296083333334, "fusion_lon": 0.0, "name": "2a7658f96a0791dc39b728340933b741", "rental_uris": {"ios": "https://dc.lft.to/lastmile_qr_scan", "android": "https://dc.lft.to/lastmile_qr_scan"}, "is_disabled": 0, "is_reserved": 0}, {"bike_id": "14ab8f104aa8a2064c75bdeefde045ec", "type": "electric_scooter", "fusion_lat": 0.0, "lat": 38.92415866666666, "lon": -77.01945666666667, "fusion_lon": 0.0, "name": "14ab8f104aa8a2064c75bdeefde045ec", "rental_uris": {"ios": "https://dc.lft.to/lastmile_qr_scan", "android": "https://dc.lft.to/lastmile_qr_scan"}, "is_disabled": 0, "is_reserved": 0}, {"bike_id": "64caefb92ef036c5d1a6cf1652f9ea1e", "type": "electric_scooter", "fusion_lat": 0.0, "lat": 38.923841833333334, "lon": -77.03053733333333, "fusion_lon": 0.0, "name": "64caefb92ef036c5d1a6cf1652f9ea1e", "rental_uris": {"ios": "https://dc.lft.to/lastmile_qr_scan", "android": "https://dc.lft.to/lastmile_qr_scan"}, "is_disabled": 0, "is_reserved": 0}, {"bike_id": "60fb0fe3a361619d6cd57e3b42d265fd", "type": "electric_scooter", "fusion_lat": 0.0, "lat": 38.92915133333333, "lon": -77.0187205, "fusion_lon": 0.0, "name": "60fb0fe3a361619d6cd57e3b42d265fd", "rental_uris": {"ios": "https://dc.lft.to/lastmile_qr_scan", "android": "https://dc.lft.to/lastmile_qr_scan"}, "is_disabled": 0, "is_reserved": 0}, {"bike_id": "a9293a2c68aa79c8cafb5ecb6441e219", "type": "electric_scooter", "fusion_lat": 0.0, "lat": 38.943070666666664, "lon": -77.0295145, "fusion_lon": 0.0, "name": "a9293a2c68aa79c8cafb5ecb6441e219", "rental_uris": {"ios": "https://dc.lft.to/lastmile_qr_scan", "android": "https://dc.lft.to/lastmile_qr_scan"}, "is_disabled": 0, "is_reserved": 0}, {"bike_id": "2b0cf2813d2235c84e448dce199e5693", "type": "electric_scooter", "fusion_lat": 0.0, "lat": 38.9313585, "lon": -77.05725733333334, "fusion_lon": 0.0, "name": "2b0cf2813d2235c84e448dce199e5693", "rental_uris": {"ios": "https://dc.lft.to/lastmile_qr_scan", "android": "https://dc.lft.to/lastmile_qr_scan"}, "is_disabled": 0, "is_reserved": 0},