{"data": {"bikes": [{"name": "eb3aca8525f1a6bb448cfe1a716c906e", "fusion_lat": 0.0, "type": "electric_scooter", "lat": 38.92009316666667, "is_reserved": 0, "is_disabled": 0, "fusion_lon": 0.0, "bike_id": "eb3aca8525f1a6bb448cfe1a716c906e", "lon": -77.081923, "rental_uris": {"ios": "https://dc.lft.to/lastmile_qr_scan", "android": "https://dc.lft.to/lastmile_qr_scan"}}, {"name": "2c0600004d6733c90c7366a90aaf5ed9", "fusion_lat": 0.0, "type": "electric_bike", "lat": 38.91910816666667, "is_reserved": 0, "is_disabled": 0, "fusion_lon": 0.0, "bike_id": "2c0600004d6733c90c7366a90aaf5ed9", "lon": -77.000676, "rental_uris": {"ios": "https://dc.lft.to/lastmile_qr_scan", "android": "https://dc.lft.to/lastmile_qr_scan"}}, {"name": "2016f14292a94c4b239cb0d1bcbe652b", "fusion_lat": 0.0, "type": "electric_bike", "lat": 38.883519666666665, "is_reserved": 0, "is_disabled": 0, "fusion_lon": 0.0, "bike_id": "2016f14292a94c4b239cb0d1bcbe652b", "lon": -77.18295766666667, "rental_uris": {"ios": "https://dc.lft.to/lastmile_qr_scan", "android": "https://dc.lft.to/lastmile_qr_scan"}}, {"name": "545d59cbf83c86eda76927a81d497768", "fusion_lat": 0.0, "type": "electric_scooter", "lat": 38.893732, "is_reserved": 0, "is_disabled": 0, "fusion_lon": 0.0, "bike_id": "545d59cbf83c86eda76927a81d497768", "lon": -76.95000083333333, "rental_uris": {"ios": "https://dc.lft.to/lastmile_qr_scan", "android": "https://dc.lft.to/lastmile_qr_scan"}}, {"name": "6fe2ef912ad7c524bc12a7f3c49ae4c3", "fusion_lat": 0.0, "type": "electric_scooter", "lat": 38.8860205, "is_reserved": 0, "is_disabled": 0, "fusion_lon": 0.0, "bike_id": "6fe2ef912ad7c524bc12a7f3c49ae4c3", "lon": -77.02203083333333, "rental_uris": {"ios": "https://dc.lft.to/lastmile_qr_scan", "android": "https://dc.lft.to/lastmile_qr_scan"}}, {"name": "96d15421864d127dd971520c33907fd7", "fusion_lat": 0.0, "type": "electric_scooter", "lat": 38.927243833333335, "is_reserved": 0, "is_disabled": 0, "fusion_lon": 0.0, "bike_id": "96d15421864d127dd971520c33907fd7", "lon": -77.07139916666667, "rental_uris": {"ios": "https://dc.lft.to/lastmile_qr_scan", "android": "https://dc.lft.to/lastmile_qr_scan"}}, {"name": "0fbfb468e346a9ae52d28cf533688063", "fusion_lat": 0.0, "type": "electric_scooter", "lat": 38.92889133333333, "is_reserved": 0, "is_disabled": 0, "fusion_lon": 0.0, "bike_id": "0fbfb468e346a9ae52d28cf533688063", "lon": -77.05447266666667, "rental_uris": {"ios": "https://dc.lft.to/lastmile_qr_scan", "android": "https://dc.lft.to/lastmile_qr_scan"}}, {"name": "0eebff3299f3242a4abe60cb687ec508", "fusion_lat": 0.0, "type": "electric_scooter", "lat": 38.9001525, "is_reserved": 0, "is_disabled": 0, "fusion_lon": 0.0, "bike_id": "0eebff3299f3242a4abe60cb687ec508", "lon": -77.04673316666667, "rental_uris": {"ios": "https://dc.lft.to/lastmile_qr_scan", "android": "https://dc.lft.to/lastmile_qr_scan"}}, {"name": "0f0ed67e19494ec5ebd330a6cce72cc7", "fusion_lat": 0.0, "type": "electric_scooter", "lat": 38.900357, "is_reserved": 0, "is_disabled": 0, "fusion_lon": 0.0, "bike_id": "0f0ed67e19494ec5ebd330a6cce72cc7", "lon": -76.99641216666667, "rental_uris": {"ios": "https://dc.lft.to/lastmile_qr_scan", "android": "https://dc.lft.to/lastmile_qr_scan"}}, {"name": "e0aa8f3fca5a06b98e8dd460004090d6", "fusion_lat": 0.0, "type": "electric_scooter", "lat": 38.918067666666666, "is_reserved": 0, "is_disabled": 0, "fusion_lon": 0.0, "bike_id": "e0aa8f3fca5a06b98e8dd460004090d6", "lon": -77.02494516666667, "rental_uris": {"ios": "https://dc.lft.to/lastmile_qr_scan", "android": "https://dc.lft.to/lastmile_qr_scan"}}, {"name": "6ee18ca4f52d0ae977911eb07e9c9f89", "fusion_lat": 0.0, "type": "electric_scooter", "lat": 38.89800183333333, "is_reserved": 0, "is_disabled": 0, "fusion_lon": 0.0, "bike_id": "6ee18ca4f52d0ae977911eb07e9c9f89", "lon": -76.9916525, "rental_uris": {"ios": "https://dc.lft.to/lastmile_qr_scan", "android": "https://dc.lft.to/lastmile_qr_scan"}}, {"name": "e5c903b4d9c1be0fac949f54bcf49877", "fusion_lat": 0.0, "type": "electric_scooter", "lat": 38.911251, "is_reserved": 0, "is_disabled": 0, "fusion_lon": 0.0, "bike_id": "e5c903b4d9c1be0fac949f54bcf49877", "lon": -77.021941, "rental_uris": {"ios": "https://dc.lft.to/lastmile_qr_scan", "android": "https://dc.lft.to/lastmile_qr_scan"}}, {"name": "95018a1824e3873a4fea9e335bf47565", "fusion_lat": 0.0, "type": "electric_scooter", "lat": 38.9071805, "is_reserved": 0, "is_disabled": 0, "fusion_lon": 0.0, "bike_id": "95018a1824e3873a4fea9e335bf47565", "lon": -77.00758916666666, "rental_uris": {"ios": "https://dc.lft.to/lastmile_qr_scan", "android": "https://dc.lft.to/lastmile_qr_scan"}}, {"name": "7044799f2405a5118fbcbefa74fd9508", "fusion_lat": 0.0, "type": "electric_scooter", "lat": 38.906775333333336, "is_reserved": 0, "is_disabled": 0, "fusion_lon": 0.0, "bike_id": "7044799f2405a5118fbcbefa74fd9508", "lon": -77.036694, "rental_uris": {"ios": "https://dc.lft.to/lastmile_qr_scan", "android": "https://dc.lft.to/lastmile_qr_scan"}}, {"name": "8335b8875770e2ef4ff72bbf38546a47", "fusion_lat": 0.0, "type": "electric_scooter", "lat": 38.922562166666665, "is_reserved": 0, "is_disabled": 0, "fusion_lon": 0.0, "bike_id": "8335b8875770e2ef4ff72bbf38546a47", "lon": -77.07238516666666, "rental_uris": {"ios": "https://dc.lft.to/lastmile_qr_scan", "android": "https://dc.lft.to/lastmile_qr_scan"}}, {"name": "4c670a2198c4b658bd5b7b5a5cb5c410", "fusion_lat": 0.0, "type": "electric_scooter", "lat": 38.838423, "is_reserved": 0, "is_disabled": 0, "fusion_lon": 0.0, "bike_id": "4c670a2198c4b658bd5b7b5a5cb5c410", "lon": -76.9996965, "rental_uris": {"ios": "https://dc.lft.to/lastmile_qr_scan", "android": "https://dc.lft.to/lastmile_qr_scan"}}, {"name": "d9840e03540e508571ba92663ec46076", "fusion_lat": 0.0, "type": "electric_scooter", "lat": 38.901064166666664, "is_reserved": 0, "is_disabled": 0, "fusion_lon": 0.0, "bike_id": "d9840e03540e508571ba92663ec46076", "lon": -77.0510725, "rental_uris": {"ios": "https://dc.lft.to/lastmile_qr_scan", "android": "https://dc.lft.to/lastmile_qr_scan"}}, {"name": "af1d31fed839d35dfa266990e18d6406", "fusion_lat": 0.0, "type": "electric_scooter", "lat": 38.905693166666666, "is_reserved": 0, "is_disabled": 0, "fusion_lon": 0.0, "bike_id": "af1d31fed839d35dfa266990e18d6406", "lon": -77.0249165, "rental_uris": {"ios": "https://dc.lft.to/lastmile_qr_scan", "android": "https://dc.lft.to/lastmile_qr_scan"}}, {"name": "97a8ba9d899bd641c3f2e2c3375b2fa9", "fusion_lat": 0.0, "type": "electric_scooter", "lat": 38.902356166666664, "is_reserved": 0, "is_disabled": 0, "fusion_lon": 0.0, "bike_id": "97a8ba9d899bd641c3f2e2c3375b2fa9", "lon": -77.0019905, "rental_uris": {"ios": "https://dc.lft.to/lastmile_qr_scan", "android": "https://dc.lft.to/lastmile_qr_scan"}}, {"name": "547a5429f735362db83e7826f6e67af9", "fusion_lat": 0.0, "type": "electric_scooter", "lat": 38.954887666666664, "is_reserved": 0, "is_disabled": 0, "fusion_lon": 0.0, "bike_id": "547a5429f735362db83e7826f6e67af9", "lon": -77.069845, "rental_uris": {"ios": "https://dc.lft.to/lastmile_qr_scan", "android": "https://dc.lft.to/lastmile_qr_scan"}}, {"name": "6665327ad996099d783136cc4aafa2ba", "fusion_lat": 0.0, "type": "electric_bike", "lat": 39.000039666666666, "is_reserved": 0, "is_disabled": 0, "fusion_lon": 0.0, "bike_id": "6665327ad996099d783136cc4aafa2ba", "lon": -76.99501283333333, "rental_uris": {"ios": "https://dc.lft.to/lastmile_qr_scan", "android": "https://dc.lft.to/lastmile_qr_scan"}}, {"name": "cf1dd67e318ff8d4d49ad1fdc74524be", "fusion_lat": 0.0, "type": "electric_scooter", "lat": 38.8786965, "is_reserved": 0, "is_disabled": 0, "fusion_lon": 0.0, "bike_id": "cf1dd67e318ff8d4d49ad1fdc74524be", "lon": -76.96529116666666, "rental_uris": {"ios": "https://dc.lft.to/lastmile_qr_scan", "android": "https://dc.lft.to/lastmile_qr_scan"}}, {"name": "8c6a61acee51d06f7965b591b9c6b9ab", "fusion_lat": 0.0, "type": "electric_scooter", "lat": 38.876500166666666, "is_reserved": 0, "is_disabled": 0, "fusion_lon": 0.0, "bike_id": "8c6a61acee51d06f7965b591b9c6b9ab", "lon": -76.96503733333333, "rental_uris": {"ios": "https://dc.lft.to/lastmile_qr_scan", "android": "https://dc.lft.to/lastmile_qr_scan"}}, {"name": "0f9797b01027f9a4640567aa756125d9", "fusion_lat": 0.0, "type": "electric_scooter", "lat": 38.89607616666667, "is_reserved": 0, "is_disabled": 0, "fusion_lon": 0.0, "bike_id": "0f9797b01027f9a4640567aa756125d9", "lon": -77.04117766666667, "rental_uris": {"ios": "https://dc.lft.to/lastmile_qr_scan", "android": "https://dc.lft.to/lastmile_qr_scan"}}, {"name": "0286d5ebfa7f2541783904bfcc00d42c", "fusion_lat": 0.0, "type": "electric_scooter", "lat": 38.884389, "is_reserved": 0, "is_disabled": 0, "fusion_lon": 0.0, "bike_id": "0286d5ebfa7f2541783904bfcc00d42c", "lon": -76.95757033333334, "rental_uris": {"ios": "https://dc.lft.to/lastmile_qr_scan", "android": "https://dc.lft.to/lastmile_qr_scan"}}, {"name": "f44d8cb112750c3aa06b7e13b783ac04", "fusion_lat": 0.0, "type": "electric_bike", "lat": 38.895649, "is_reserved": 0, "is_disabled": 0, "fusion_lon": 0.0, "bike_id": "f44d8cb112750c3aa06b7e13b783ac04", "lon": -77.1273355, "rental_uris": {"ios": "https://dc.lft.to/lastmile_qr_scan", "android": "https://dc.lft.to/lastmile_qr_scan"}}, {"name": "95ad765a759d8c4158bf5a23ba27c319", "fusion_lat": 0.0, "type": "electric_bike", "lat": 39.1056845, "is_reserved": 0, "is_disabled": 0, "fusion_lon": 0.0, "bike_id": "95ad765a759d8c4158bf5a23ba27c319", "lon": -77.15269083333334, "rental_uris": {"ios": "https://dc.lft.to/lastmile_qr_scan", "android": "https://dc.lft.to/lastmile_qr_scan"}}, {"name": "3636e4d512b52a14024d86d3968e3ba5", "fusion_lat": 0.0, "type": "electric_bike", "lat": 38.9230065, "is_reserved": 0, "is_disabled": 0, "fusion_lon": 0.0, "bike_id": "3636e4d512b52a14024d86d3968e3ba5", "lon": -76.99386933333334, "rental_uris": {"ios": "https://dc.lft.to/lastmile_qr_scan", "android": "https://dc.lft.to/lastmile_qr_scan"}}, {"name": "d66dbcbc14976fb69541774b0fd2c65e", "fusion_lat": 0.0, "type": "electric_scooter", "lat": 38.916791833333335, "is_reserved": 0, "is_disabled": 0, "fusion_lon": 0.0, "bike_id": "d66dbcbc14976fb69541774b0fd2c65e", "lon": -77.03207833333333, "rental_uris": {"ios": "https://dc.lft.to/lastmile_qr_scan", "android": "https://dc.lft.to/lastmile_qr_scan"}}, {"name": "c20b3109ff90a3b372292135d7c63a86", "fusion_lat": 0.0, "type": "electric_scooter", "lat": 38.91671633333333, "is_reserved": 0, "is_disabled": 0, "fusion_lon": 0.0, "bike_id": "c20b3109ff90a3b372292135d7c63a86", "lon": -77.0297195, "rental_uris": {"ios": "https://dc.lft.to/lastmile_qr_scan", "android": "https://dc.lft.to/lastmile_qr_scan"}}, {"name": "96194b0282ca0d5affa5001bc112560f", "fusion_lat": 0.0, "type": "electric_scooter", "lat": 38.89526566666667, "is_reserved": 0, "is_disabled": 0, "fusion_lon": 0.0, "bike_id": "96194b0282ca0d5affa5001bc112560f", "lon": -76.94927333333334, "rental_uris": {"ios": "https://dc.lft.to/lastmile_qr_scan", "android": "https://dc.lft.to/lastmile_qr_scan"}}, {"name": "f1213f6e9255da32b703a5bf2c6d31ea", "fusion_lat": 0.0, "type": "electric_scooter", "lat": 38.89638266666667, "is_reserved": 0, "is_disabled": 0, "fusion_lon": 0.0, "bike_id": "f1213f6e9255da32b703a5bf2c6d31ea", "lon": -77.0237465, "rental_uris": {"ios": "https://dc.lft.to/lastmile_qr_scan", "android": "https://dc.lft.to/lastmile_qr_scan"}}, {"name": "b369ded986575ff23b8ec479ef917627", "fusion_lat": 0.0, "type": "electric_scooter", "lat": 38.92655116666667, "is_reserved": 0, "is_disabled": 0, "fusion_lon": 0.0, "bike_id": "b369ded986575ff23b8ec479ef917627", "lon": -77.02435916666667, "rental_uris": {"ios": "https://dc.lft.to/lastmile_qr_scan", "android": "https://dc.lft.to/lastmile_qr_scan"}}, {"name": "9fd0ddc03c043d8f400677d08691a061", "fusion_lat": 0.0, "type": "electric_scooter", "lat": 38.920409, "is_reserved": 0, "is_disabled": 0, "fusion_lon": 0.0, "bike_id": "9fd0ddc03c043d8f400677d08691a061", "lon": -77.025876, "rental_uris": {"ios": "https://dc.lft.to/lastmile_qr_scan", "android": "https://dc.lft.to/lastmile_qr_scan"}}, {"name": "0533bcfc15fa1aa8183fa01673b2c2bf", "fusion_lat": 0.0, "type": "electric_scooter", "lat": 38.905785, "is_reserved": 0, "is_disabled": 0, "fusion_lon": 0.0, "bike_id": "0533bcfc15fa1aa8183fa01673b2c2bf", "lon": -77.0220905, "rental_uris": {"ios": "https://dc.lft.to/lastmile_qr_scan", "android": "https://dc.lft.to/lastmile_qr_scan"}}, {"name": "d03cb9b549bb5f753387450e76d197ee", "fusion_lat": 0.0, "type": "electric_scooter", "lat": 38.91805, "is_reserved": 0, "is_disabled": 0, "fusion_lon": 0.0, "bike_id": "d03cb9b549bb5f753387450e76d197ee", "lon": -77.0281895, "rental_uris": {"ios": "https://dc.lft.to/lastmile_qr_scan", "android": "https://dc.lft.to/lastmile_qr_scan"}}, {"name": "03dacc03cdf0f3cca5e302f5e540964b", "fusion_lat": 0.0, "type": "electric_scooter", "lat": 38.915396666666666, "is_reserved": 0, "is_disabled": 0, "fusion_lon": 0.0, "bike_id": "03dacc03cdf0f3cca5e302f5e540964b", "lon": -77.01972633333334, "rental_uris": {"ios": "https://dc.lft.to/lastmile_qr_scan", "android": "https://dc.lft.to/lastmile_qr_scan"}}, {"name": "b91de1820f54cd5b03ad5913afad31a5", "fusion_lat": 0.0, "type": "electric_scooter", "lat": 38.898916666666665, "is_reserved": 0, "is_disabled": 0, "fusion_lon": 0.0, "bike_id": "b91de1820f54cd5b03ad5913afad31a5", "lon": -76.931761, "rental_uris": {"ios": "https://dc.lft.to/lastmile_qr_scan", "android": "https://dc.lft.to/lastmile_qr_scan"}}, {"name": "a2d2bec8881c3b7b8f43b91b66d74e89", "fusion_lat": 0.0, "type": "electric_scooter", "lat": 38.90516366666667, "is_reserved": 0, "is_disabled": 0, "fusion_lon": 0.0, "bike_id": "a2d2bec8881c3b7b8f43b91b66d74e89", "lon": -77.05018516666667, "rental_uris": {"ios": "https://dc.lft.to/lastmile_qr_scan", "android": "https://dc.lft.to/lastmile_qr_scan"}}, {"name": "24b16155f9ba136b0e3bdebdd9986712", "fusion_lat": 0.0, "type": "electric_scooter", "lat": 38.876494666666666, "is_reserved": 0, "is_disabled": 0, "fusion_lon": 0.0, "bike_id": "24b16155f9ba136b0e3bdebdd9986712", "lon": -76.965059, "rental_uris": {"ios": "https://dc.lft.to/lastmile_qr_scan", "android": "https://dc.lft.to/lastmile_qr_scan"}}, {"name": "d1a6d373a29b58ea5ffa068ae7f38b07", "fusion_lat": 0.0, "type": "electric_scooter", "lat": 38.933939, "is_reserved": 0, "is_disabled": 0, "fusion_lon": 0.0, "bike_id": "d1a6d373a29b58ea5ffa068ae7f38b07", "lon": -77.03151733333333, "rental_uris": {"ios": "https://dc.lft.to/lastmile_qr_scan", "android": "https://dc.lft.to/lastmile_qr_scan"}}, {"name": "9447f406017acf6f84c24e98b8c7fdae", "fusion_lat": 0.0, "type": "electric_scooter", "lat": 38.89735966666667, "is_reserved": 0, "is_disabled": 0, "fusion_lon": 0.0, "bike_id": "9447f406017acf6f84c24e98b8c7fdae", "lon": -77.00943733333334, "rental_uris": {"ios": "https://dc.lft.to/lastmile_qr_scan", "android": "https://dc.lft.to/lastmile_qr_scan"}}, {"name": "98b840b869d2478a428432d3eaf5c7f2", "fusion_lat": 0.0, "type": "electric_scooter", "lat": 38.9031465, "is_reserved": 0, "is_disabled": 0, "fusion_lon": 0.0, "bike_id": "98b840b869d2478a428432d3eaf5c7f2", "lon": -76.97800633333334, "rental_uris": {"ios": "https://dc.lft.to/lastmile_qr_scan", "android": "https://dc.lft.to/lastmile_qr_scan"}}, {"name": "0022b8edf15406ed9bf18b6cc98d4caa", "fusion_lat": 0.0, "type": "electric_bike", "lat": 38.93415783333333, "is_reserved": 0, "is_disabled": 0, "fusion_lon": 0.0, "bike_id": "0022b8edf15406ed9bf18b6cc98d4caa", "lon": -77.0251115, "rental_uris": {"ios": "https://dc.lft.to/lastmile_qr_scan", "android": "https://dc.lft.to/lastmile_qr_scan"}}, {"name": "8883795f91681e2b89f0eb56d76b25d6", "fusion_lat": 0.0, "type": "electric_scooter", "lat": 38.90444133333333, "is_reserved": 0, "is_disabled": 0, "fusion_lon": 0.0, "bike_id": "8883795f91681e2b89f0eb56d76b25d6", "lon": -76.975591, "rental_uris": {"ios": "https://dc.lft.to/lastmile_qr_scan", "android": "https://dc.lft.to/lastmile_qr_scan"}}, {"name": "872e27b62c76d8b1deabfce3775f665d", "fusion_lat": 0.0, "type": "electric_scooter", "lat": 38.91785466666666, "is_reserved": 0, "is_disabled": 0, "fusion_lon": 0.0, "bike_id": "872e27b62c76d8b1deabfce3775f665d", "lon": -77.02314216666667, "rental_uris": {"ios": "https://dc.lft.to/lastmile_qr_scan", "android": "https://dc.lft.to/lastmile_qr_scan"}}, {"name": "6ec6ecc2cad5e7ea0a6a456eaa9958fe", "fusion_lat": 0.0, "type": "electric_scooter", "lat": 38.8812745, "is_reserved": 0, "is_disabled": 0, "fusion_lon": 0.0, "bike_id": "6ec6ecc2cad5e7ea0a6a456eaa9958fe", "lon": -77.01337233333334, "rental_uris": {"ios": "https://dc.lft.to/lastmile_qr_scan", "android": "https://dc.lft.to/lastmile_qr_scan"}}, {"name": "c06a7dd0ab01261bdfc100100cc763fe", "fusion_lat": 0.0, "type": "electric_scooter", "lat": 38.866601833333334, "is_reserved": 0, "is_disabled": 0, "fusion_lon": 0.0, "bike_id": "c06a7dd0ab01261bdfc100100cc763fe", "lon": -76.98884033333333, "rental_uris": {"ios": "https://dc.lft.to/lastmile_qr_scan", "android": "https://dc.lft.to/lastmile_qr_scan"}}, {"name": "d06a345dd288673ca15043c8b95c7634", "fusion_lat": 0.0, "type": "electric_scooter", "lat": 38.913091, "is_reserved": 0, "is_disabled": 0, "fusion_lon": 0.0, "bike_id": "d06a345dd288673ca15043c8b95c7634", "lon": -77.02027416666667, "rental_uris": {"ios": "https://dc.lft.to/lastmile_qr_scan", "android": "https://dc.lft.to/lastmile_qr_scan"}}, {"name": "39f53f960c46c18e024d0b4cb7c90b97", "fusion_lat": 0.0, "type": "electric_scooter", "lat": 38.90196733333333, "is_reserved": 0, "is_disabled": 0, "fusion_lon": 0.0, "bike_id": "39f53f960c46c18e024d0b4cb7c90b97", "lon": -77.050542, "rental_uris": {"ios": "https://dc.lft.to/lastmile_qr_scan", "android": "https://dc.lft.to/lastmile_qr_scan"}}, {"name": "f149102880f564d0b06c94feccf813af", "fusion_lat": 0.0, "type": "electric_scooter", "lat": 38.93728383333333, "is_reserved": 0, "is_disabled": 0, "fusion_lon": 0.0, "bike_id": "f149102880f564d0b06c94feccf813af", "lon": -77.03627433333334, "rental_uris": {"ios": "https://dc.lft.to/lastmile_qr_scan", "android": "https://dc.lft.to/lastmile_qr_scan"}}, {"name": "390fb19394df082341b9238beb28a191", "fusion_lat": 0.0, "type": "electric_scooter", "lat": 38.897374666666664, "is_reserved": 0, "is_disabled": 0, "fusion_lon": 0.0, "bike_id": "390fb19394df082341b9238beb28a191", "lon": -77.04657883333333, "rental_uris": {"ios": "https://dc.lft.to/lastmile_qr_scan", "android": "https://dc.lft.to/lastmile_qr_scan"}}, {"name": "c41291db99b9ae147bf37cf99b7ae2a3", "fusion_lat": 0.0, "type": "electric_bike", "lat": 38.946293, "is_reserved": 0, "is_disabled": 0, "fusion_lon": 0.0, "bike_id": "c41291db99b9ae147bf37cf99b7ae2a3", "lon": -77.080486, "rental_uris": {"ios": "https://dc.lft.to/lastmile_qr_scan", "android": "https://dc.lft.to/lastmile_qr_scan"}}, {"name": "6af7e14ad79303adf681b0c5ebc00a87", "fusion_lat": 0.0, "type": "electric_scooter", "lat": 38.9172065, "is_reserved": 0, "is_disabled": 0, "fusion_lon": 0.0, "bike_id": "6af7e14ad79303adf681b0c5ebc00a87", "lon": -77.01867483333334, "rental_uris": {"ios": "https://dc.lft.to/lastmile_qr_scan", "android": "https://dc.lft.to/lastmile_qr_scan"}}, {"name": "f2e2eb2dcb07d509d1cbfb84bd499031", "fusion_lat": 0.0, "type": "electric_scooter", "lat": 38.956425, "is_reserved": 0, "is_disabled": 0, "fusion_lon": 0.0, "bike_id": "f2e2eb2dcb07d509d1cbfb84bd499031", "lon": -77.02271916666666, "rental_uris": {"ios": "https://dc.lft.to/lastmile_qr_scan", "android": "https://dc.lft.to/lastmile_qr_scan"}}, {"name": "724fe6be4ca7c93b879243361abc39e3", "fusion_lat": 0.0, "type": "electric_scooter", "lat": 38.90157583333333, "is_reserved": 0, "is_disabled": 0, "fusion_lon": 0.0, "bike_id": "724fe6be4ca7c93b879243361abc39e3", "lon": -77.01883633333334, "rental_uris": {"ios": "https://dc.lft.to/lastmile_qr_scan", "android": "https://dc.lft.to/lastmile_qr_scan"}}, {"name": "9bee1c87630f44495484c5779e77aad9", "fusion_lat": 0.0, "type": "electric_scooter", "lat": 38.91252816666667, "is_reserved": 0, "is_disabled": 0, "fusion_lon": 0.0, "bike_id": "9bee1c87630f44495484c5779e77aad9", "lon": -77.03840233333334, "rental_uris": {"ios": "https://dc.lft.to/lastmile_qr_scan", "android": "https://dc.lft.to/lastmile_qr_scan"}}, {"name": "87e2869445c43bbf885783d07f08acb3", "fusion_lat": 0.0, "type": "electric_scooter", "lat": 38.90393566666667, "is_reserved": 0, "is_disabled": 0, "fusion_lon": 0.0, "bike_id": "87e2869445c43bbf885783d07f08acb3", "lon": -77.0483395, "rental_uris": {"ios": "https://dc.lft.to/lastmile_qr_scan", "android": "https://dc.lft.to/lastmile_qr_scan"}}, {"name": "502e9062362ce449ecc614ae50445455", "fusion_lat": 0.0, "type": "electric_bike", "lat": 38.923319, "is_reserved": 0, "is_disabled": 0, "fusion_lon": 0.0, "bike_id": "502e9062362ce449ecc614ae50445455", "lon": -77.02292266666667, "rental_uris": {"ios": "https://dc.lft.to/lastmile_qr_scan", "android": "https://dc.lft.to/lastmile_qr_scan"}}, {"name": "9e6bf71a8a6064b352f8149e220eb1be", "fusion_lat": 0.0, "type": "electric_bike", "lat": 38.84482283333333, "is_reserved": 0, "is_disabled": 0, "fusion_lon": 0.0, "bike_id": "9e6bf71a8a6064b352f8149e220eb1be", "lon": -76.97222216666667, "rental_uris": {"ios": "https://dc.lft.to/lastmile_qr_scan", "android": "https://dc.lft.to/lastmile_qr_scan"}}, {"name": "b29d90168ab59bc22444155b09b8edd9", "fusion_lat": 0.0, "type": "electric_scooter", "lat": 38.91763383333333, "is_reserved": 0, "is_disabled": 0, "fusion_lon": 0.0, "bike_id": "b29d90168ab59bc22444155b09b8edd9", "lon": -77.02512366666667, "rental_uris": {"ios": "https://dc.lft.to/lastmile_qr_scan", "android": "https://dc.lft.to/lastmile_qr_scan"}}, {"name": "6781b6f40e0189b8b6d0b4122f1cc86c", "fusion_lat": 0.0, "type": "electric_bike", "lat": 38.917648666666665, "is_reserved": 0, "is_disabled": 0, "fusion_lon": 0.0, "bike_id": "6781b6f40e0189b8b6d0b4122f1cc86c", "lon": -76.97332433333334, "rental_uris": {"ios": "https://dc.lft.to/lastmile_qr_scan", "android": "https://dc.lft.to/lastmile_qr_scan"}}, {"name": "4bb851321e595e0dbaa4a0326e91c16c", "fusion_lat": 0.0, "type": "electric_bike", "lat": 38.939740666666665, "is_reserved": 0, "is_disabled": 0, "fusion_lon": 0.0, "bike_id": "4bb851321e595e0dbaa4a0326e91c16c", "lon": -76.98654266666667, "rental_uris": {"ios": "https://dc.lft.to/lastmile_qr_scan", "android": "https://dc.lft.to/lastmile_qr_scan"}}, {"name": "6fb7d76338cf7b53356fdd80434f7965", "fusion_lat": 0.0, "type": "electric_scooter", "lat": 38.9390795, "is_reserved": 0, "is_disabled": 0, "fusion_lon": 0.0, "bike_id": "6fb7d76338cf7b53356fdd80434f7965", "lon": -77.060421, "rental_uris": {"ios": "https://dc.lft.to/lastmile_qr_scan", "android": "https://dc.lft.to/lastmile_qr_scan"}}, {"name": "87778da43b94bfc8db3199c88489a954", "fusion_lat": 0.0, "type": "electric_scooter", "lat": 38.8650945, "is_reserved": 0, "is_disabled": 0, "fusion_lon": 0.0, "bike_id": "87778da43b94bfc8db3199c88489a954", "lon": -76.97328733333333, "rental_uris": {"ios": "https://dc.lft.to/lastmile_qr_scan", "android": "https://dc.lft.to/lastmile_qr_scan"}}, {"name": "946da33fc561d56ed10186de47f31d31", "fusion_lat": 0.0, "type": "electric_bike", "lat": 38.872326, "is_reserved": 0, "is_disabled": 0, "fusion_lon": 0.0, "bike_id": "946da33fc561d56ed10186de47f31d31", "lon": -77.01165516666667, "rental_uris": {"ios": "https://dc.lft.to/lastmile_qr_scan", "android": "https://dc.lft.to/lastmile_qr_scan"}}, {"name": "3972aaf7093d22b46cd18f7f3e28fbc4", "fusion_lat": 0.0, "type": "electric_scooter", "lat": 38.881961833333335, "is_reserved": 0, "is_disabled": 0, "fusion_lon": 0.0, "bike_id": "3972aaf7093d22b46cd18f7f3e28fbc4", "lon": -77.023187, "rental_uris": {"ios": "https://dc.lft.to/lastmile_qr_scan", "android": "https://dc.lft.to/lastmile_qr_scan"}}, {"name": "27e663bfc8bc1d774f377cf5792061d5", "fusion_lat": 0.0, "type": "electric_scooter", "lat": 38.93445166666667, "is_reserved": 0, "is_disabled": 0, "fusion_lon": 0.0, "bike_id": "27e663bfc8bc1d774f377cf5792061d5", "lon": -77.04648633333333, "rental_uris": {"ios": "https://dc.lft.to/lastmile_qr_scan", "android": "https://dc.lft.to/lastmile_qr_scan"}}, {"name": "b1b65f83b81db8e95519eb9533a4c231", "fusion_lat": 0.0, "type": "electric_scooter", "lat": 38.90242083333333, "is_reserved": 0, "is_disabled": 0, "fusion_lon": 0.0, "bike_id": "b1b65f83b81db8e95519eb9533a4c231", "lon": -77.00199466666666, "rental_uris": {"ios": "https://dc.lft.to/lastmile_qr_scan", "android": "https://dc.lft.to/lastmile_qr_scan"}}, {"name": "61ed6210e3cc6ba36126515a4ebb06a2", "fusion_lat": 0.0, "type": "electric_scooter", "lat": 38.883403333333334, "is_reserved": 0, "is_disabled": 0, "fusion_lon": 0.0, "bike_id": "61ed6210e3cc6ba36126515a4ebb06a2", "lon": -77.03165266666667, "rental_uris": {"ios": "https://dc.lft.to/lastmile_qr_scan", "android": "https://dc.lft.to/lastmile_qr_scan"}}, {"name": "17a0347b2ed1f6d9fefe4437295745e2", "fusion_lat": 0.0, "type": "electric_scooter", "lat": 38.939765, "is_reserved": 0, "is_disabled": 0, "fusion_lon": 0.0, "bike_id": "17a0347b2ed1f6d9fefe4437295745e2", "lon": -77.031981, "rental_uris": {"ios": "https://dc.lft.to/lastmile_qr_scan", "android": "https://dc.lft.to/lastmile_qr_scan"}}, {"name": "4aebdc2e16e0c865e6c686a25ce9e2f7", "fusion_lat": 0.0, "type": "electric_scooter", "lat": 38.9190215, "is_reserved": 0, "is_disabled": 0, "fusion_lon": 0.0, "bike_id": "4aebdc2e16e0c865e6c686a25ce9e2f7", "lon": -77.00046666666667, "rental_uris": {"ios": "https://dc.lft.to/lastmile_qr_scan", "android": "https://dc.lft.to/lastmile_qr_scan"}}, {"name": "56f9c671bb4503a10f23fa9e302ee53f", "fusion_lat": 0.0, "type": "electric_scooter", "lat": 38.86662883333333, "is_reserved": 0, "is_disabled": 0, "fusion_lon": 0.0, "bike_id": "56f9c671bb4503a10f23fa9e302ee53f", "lon": -76.98884866666667, "rental_uris": {"ios": "https://dc.lft.to/lastmile_qr_scan", "android": "https://dc.lft.to/lastmile_qr_scan"}}, {"name": "8e6ce1b807f9e325694bfce5d2eac4fb", "fusion_lat": 0.0, "type": "electric_bike", "lat": 38.928693833333334, "is_reserved": 0, "is_disabled": 0, "fusion_lon": 0.0, "bike_id": "8e6ce1b807f9e325694bfce5d2eac4fb", "lon": -77.03264733333333, "rental_uris": {"ios": "https://dc.lft.to/lastmile_qr_scan", "android": "https://dc.lft.to/lastmile_qr_scan"}}, {"name": "6576a31c0c762c1c7ff6e41e5c59e5a7", "fusion_lat": 0.0, "type": "electric_scooter", "lat": 38.900297, "is_reserved": 0, "is_disabled": 0, "fusion_lon": 0.0, "bike_id": "6576a31c0c762c1c7ff6e41e5c59e5a7", "lon": -77.00196216666667, "rental_uris": {"ios": "https://dc.lft.to/lastmile_qr_scan", "android": "https://dc.lft.to/lastmile_qr_scan"}}, {"name": "9093aee4cf0f18a786aae87ddddecede", "fusion_lat": 0.0, "type": "electric_scooter", "lat": 38.91723616666667, "is_reserved": 0, "is_disabled": 0, "fusion_lon": 0.0, "bike_id": "9093aee4cf0f18a786aae87ddddecede", "lon": -77.02359666666666, "rental_uris": {"ios": "https://dc.lft.to/lastmile_qr_scan", "android": "https://dc.lft.to/lastmile_qr_scan"}}, {"name": "b34aa296ec3b833881c61c31f74d07e0", "fusion_lat": 0.0, "type": "electric_scooter", "lat": 38.924322833333335, "is_reserved": 0, "is_disabled": 0, "fusion_lon": 0.0, "bike_id": "b34aa296ec3b833881c61c31f74d07e0", "lon": -77.0424965, "rental_uris": {"ios": "https://dc.lft.to/lastmile_qr_scan", "android": "https://dc.lft.to/lastmile_qr_scan"}}, {"name": "4fac08f795bd07183cfb066ec7c18003", "fusion_lat": 0.0, "type": "electric_bike", "lat": 38.9120165, "is_reserved": 0, "is_disabled": 0, "fusion_lon": 0.0, "bike_id": "4fac08f795bd07183cfb066ec7c18003", "lon": -77.0114845, "rental_uris": {"ios": "https://dc.lft.to/lastmile_qr_scan", "android": "https://dc.lft.to/lastmile_qr_scan"}}, {"name": "d05b1ebc472dae6f52fbfde2d7bb343b", "fusion_lat": 0.0, "type": "electric_scooter", "lat": 38.92435016666667, "is_reserved": 0, "is_disabled": 0, "fusion_lon": 0.0, "bike_id": "d05b1ebc472dae6f52fbfde2d7bb343b", "lon": -77.04228416666666, "rental_uris": {"ios": "https://dc.lft.to/lastmile_qr_scan", "android": "https://dc.lft.to/lastmile_qr_scan"}}, {"name": "a48c149ecd3d09590a8e7dc4a531efe0", "fusion_lat": 0.0, "type": "electric_scooter", "lat": 38.9170505, "is_reserved": 0, "is_disabled": 0, "fusion_lon": 0.0, "bike_id": "a48c149ecd3d09590a8e7dc4a531efe0", "lon": -77.03081583333334, "rental_uris": {"ios": "https://dc.lft.to/lastmile_qr_scan", "android": "https://dc.lft.to/lastmile_qr_scan"}}, {"name": "01fee56e806fbced98fc3b6778156e77", "fusion_lat": 0.0, "type": "electric_scooter", "lat": 38.918144833333336, "is_reserved": 0, "is_disabled": 0, "fusion_lon": 0.0, "bike_id": "01fee56e806fbced98fc3b6778156e77", "lon": -77.04002933333334, "rental_uris": {"ios": "https://dc.lft.to/lastmile_qr_scan", "android": "https://dc.lft.to/lastmile_qr_scan"}}, {"name": "981401515ed79e7a7cbd3c54a132753b", "fusion_lat": 0.0, "type": "electric_bike", "lat": 38.846149, "is_reserved": 0, "is_disabled": 0, "fusion_lon": 0.0, "bike_id": "981401515ed79e7a7cbd3c54a132753b", "lon": -76.978307, "rental_uris": {"ios": "https://dc.lft.to/lastmile_qr_scan", "android": "https://dc.lft.to/lastmile_qr_scan"}}, {"name": "6f3541ec5f63ee26fcc6d630d155a0c9", "fusion_lat": 0.0, "type": "electric_bike", "lat": 39.0581445, "is_reserved": 0, "is_disabled": 0, "fusion_lon": 0.0, "bike_id": "6f3541ec5f63ee26fcc6d630d155a0c9", "lon": -77.12625466666667, "rental_uris": {"ios": "https://dc.lft.to/lastmile_qr_scan", "android": "https://dc.lft.to/lastmile_qr_scan"}}, {"name": "e55ab889c314e4df9323bf41c481f1ae", "fusion_lat": 0.0, "type": "electric_bike", "lat": 38.9536405, "is_reserved": 0, "is_disabled": 0, "fusion_lon": 0.0, "bike_id": "e55ab889c314e4df9323bf41c481f1ae", "lon": -76.980964, "rental_uris": {"ios": "https://dc.lft.to/lastmile_qr_scan", "android": "https://dc.lft.to/lastmile_qr_scan"}}, {"name": "ecc5dba257076ed4b1b275399e7e9142", "fusion_lat": 0.0, "type": "electric_scooter", "lat": 38.88730266666666, "is_reserved": 0, "is_disabled": 0, "fusion_lon": 0.0, "bike_id": "ecc5dba257076ed4b1b275399e7e9142", "lon": -77.0176515, "rental_uris": {"ios": "https://dc.lft.to/lastmile_qr_scan", "android": "https://dc.lft.to/lastmile_qr_scan"}}, {"name": "cb6b98f4c3af871710f624ee0cae6070", "fusion_lat": 0.0, "type": "electric_scooter", "lat": 38.92782283333333, "is_reserved": 0, "is_disabled": 0, "fusion_lon": 0.0, "bike_id": "cb6b98f4c3af871710f624ee0cae6070", "lon": -77.01411116666667, "rental_uris": {"ios": "https://dc.lft.to/lastmile_qr_scan", "android": "https://dc.lft.to/lastmile_qr_scan"}}, {"name": "381936af8c4825fef3156cd001374c35", "fusion_lat": 0.0, "type": "electric_scooter", "lat": 38.91922783333333, "is_reserved": 0, "is_disabled": 0, "fusion_lon": 0.0, "bike_id": "381936af8c4825fef3156cd001374c35", "lon": -77.03211066666667, "rental_uris": {"ios": "https://dc.lft.to/lastmile_qr_scan", "android": "https://dc.lft.to/lastmile_qr_scan"}}, {"name": "f4ebec69f5908bcf8dca53e8d4aff607", "fusion_lat": 0.0, "type": "electric_scooter", "lat": 38.9198515, "is_reserved": 0, "is_disabled": 0, "fusion_lon": 0.0, "bike_id": "f4ebec69f5908bcf8dca53e8d4aff607", "lon": -77.02385783333334, "rental_uris": {"ios": "https://dc.lft.to/lastmile_qr_scan", "android": "https://dc.lft.to/lastmile_qr_scan"}}, {"name": "1bad06a46adf10a9bfc03001720e0d40", "fusion_lat": 0.0, "type": "electric_scooter", "lat": 38.901123, "is_reserved": 0, "is_disabled": 0, "fusion_lon": 0.0, "bike_id": "1bad06a46adf10a9bfc03001720e0d40", "lon": -77.01783466666667, "rental_uris": {"ios": "https://dc.lft.to/lastmile_qr_scan", "android": "https://dc.lft.to/lastmile_qr_scan"}}, {"name": "b55d8c3b8f79c81406f53af7dd90ae71", "fusion_lat": 0.0, "type": "electric_scooter", "lat": 38.905724666666664, "is_reserved": 0, "is_disabled": 0, "fusion_lon": 0.0, "bike_id": "b55d8c3b8f79c81406f53af7dd90ae71", "lon": -77.00527033333333, "rental_uris": {"ios": "https://dc.lft.to/lastmile_qr_scan", "android": "https://dc.lft.to/lastmile_qr_scan"}}, {"name": "18655977c8f368acfa1c74e8b2a8e0f9", "fusion_lat": 0.0, "type": "electric_bike", "lat": 39.08906016666667, "is_reserved": 0, "is_disabled": 0, "fusion_lon": 0.0, "bike_id": "18655977c8f368acfa1c74e8b2a8e0f9", "lon": -77.17850933333334, "rental_uris": {"ios": "https://dc.lft.to/lastmile_qr_scan", "android": "https://dc.lft.to/lastmile_qr_scan"}}, {"name": "651440a72eb1ceb9dbc0645ad2cbf639", "fusion_lat": 0.0, "type": "electric_scooter", "lat": 38.885085, "is_reserved": 0, "is_disabled": 0, "fusion_lon": 0.0, "bike_id": "651440a72eb1ceb9dbc0645ad2cbf639", "lon": -76.9788015, "rental_uris": {"ios": "https://dc.lft.to/lastmile_qr_scan", "android": "https://dc.lft.to/lastmile_qr_scan"}}, {"name": "a393202deadfc27f4945238534b6af22", "fusion_lat": 0.0, "type": "electric_scooter", "lat": 38.902874833333335, "is_reserved": 0, "is_disabled": 0, "fusion_lon": 0.0, "bike_id": "a393202deadfc27f4945238534b6af22", "lon": -77.04041166666667, "rental_uris": {"ios": "https://dc.lft.to/lastmile_qr_scan", "android": "https://dc.lft.to/lastmile_qr_scan"}}, {"name": "cb1b793341498c010bd93737748d45b5", "fusion_lat": 0.0, "type": "electric_scooter", "lat": 38.89447366666667, "is_reserved": 0, "is_disabled": 0, "fusion_lon": 0.0, "bike_id": "cb1b793341498c010bd93737748d45b5", "lon": -77.01088133333333, "rental_uris": {"ios": "https://dc.lft.to/lastmile_qr_scan", "android": "https://dc.lft.to/lastmile_qr_scan"}}, {"name": "6853bc085b01fd11565f0734079cb6d1", "fusion_lat": 0.0, "type": "electric_scooter", "lat": 38.91046883333333, "is_reserved": 0, "is_disabled": 0, "fusion_lon": 0.0, "bike_id": "6853bc085b01fd11565f0734079cb6d1", "lon": -77.02814416666666, "rental_uris": {"ios": "https://dc.lft.to/lastmile_qr_scan", "android": "https://dc.lft.to/lastmile_qr_scan"}}, {"name": "0f054362270fdb2d9015b7e6a71e95cd", "fusion_lat": 0.0, "type": "electric_scooter", "lat": 38.9070635, "is_reserved": 0, "is_disabled": 0, "fusion_lon": 0.0, "bike_id": "0f054362270fdb2d9015b7e6a71e95cd", "lon": -76.98698949999999, "rental_uris": {"ios": "https://dc.lft.to/lastmile_qr_scan", "android": "https://dc.lft.to/lastmile_qr_scan"}}, {"name": "a1be8cb122e54b9016607f444e84815d", "fusion_lat": 0.0, "type": "electric_scooter", "lat": 38.8948915, "is_reserved": 0, "is_disabled": 0, "fusion_lon": 0.0, "bike_id": "a1be8cb122e54b9016607f444e84815d", "lon": -77.01011766666667, "rental_uris": {"ios": "https://dc.lft.to/lastmile_qr_scan", "android": "https://dc.lft.to/lastmile_qr_scan"}}, {"name": "8c58036287d214e471d34c66ce7e0c32", "fusion_lat": 0.0, "type": "electric_bike", "lat": 38.819426166666666, "is_reserved": 0, "is_disabled": 0, "fusion_lon": 0.0, "bike_id": "8c58036287d214e471d34c66ce7e0c32", "lon": -77.00208716666667, "rental_uris": {"ios": "https://dc.lft.to/lastmile_qr_scan", "android": "https://dc.lft.to/lastmile_qr_scan"}}, {"name": "f0973594cc012c6f40c2c0d55c2de432", "fusion_lat": 0.0, "type": "electric_bike", "lat": 38.96540783333333, "is_reserved": 0, "is_disabled": 0, "fusion_lon": 0.0, "bike_id": "f0973594cc012c6f40c2c0d55c2de432", "lon": -77.03519666666666, "rental_uris": {"ios": "https://dc.lft.to/lastmile_qr_scan", "android": "https://dc.lft.to/lastmile_qr_scan"}}, {"name": "16968fdc5e4d5d853493d717302df39c", "fusion_lat": 0.0, "type": "electric_scooter", "lat": 38.93905016666667, "is_reserved": 0, "is_disabled": 0, "fusion_lon": 0.0, "bike_id": "16968fdc5e4d5d853493d717302df39c", "lon": -77.03265583333334, "rental_uris": {"ios": "https://dc.lft.to/lastmile_qr_scan", "android": "https://dc.lft.to/lastmile_qr_scan"}}, {"name": "0ec6b0ab51298764b6152aaac7fcdcfc", "fusion_lat": 0.0, "type": "electric_scooter", "lat": 38.91560916666667, "is_reserved": 0, "is_disabled": 0, "fusion_lon": 0.0, "bike_id": "0ec6b0ab51298764b6152aaac7fcdcfc", "lon": -77.04287416666666, "rental_uris": {"ios": "https://dc.lft.to/lastmile_qr_scan", "android": "https://dc.lft.to/lastmile_qr_scan"}}, {"name": "5edad56a0873358a92199246a6e30c94", "fusion_lat": 0.0, "type": "electric_bike", "lat": 38.912699333333336, "is_reserved": 0, "is_disabled": 0, "fusion_lon": 0.0, "bike_id": "5edad56a0873358a92199246a6e30c94", "lon": -77.0226575, "rental_uris": {"ios": "https://dc.lft.to/lastmile_qr_scan", "android": "https://dc.lft.to/lastmile_qr_scan"}}, {"name": "124c824d1b9b67474353adb2767ae17c", "fusion_lat": 0.0, "type": "electric_scooter", "lat": 38.90321983333333, "is_reserved": 0, "is_disabled": 0, "fusion_lon": 0.0, "bike_id": "124c824d1b9b67474353adb2767ae17c", "lon": -77.05325083333334, "rental_uris": {"ios": "https://dc.lft.to/lastmile_qr_scan", "android": "https://dc.lft.to/lastmile_qr_scan"}}, {"name": "835e61e97f2f9a48fe2b7d23e56b3199", "fusion_lat": 0.0, "type": "electric_bike", "lat": 38.93013633333333, "is_reserved": 0, "is_disabled": 0, "fusion_lon": 0.0, "bike_id": "835e61e97f2f9a48fe2b7d23e56b3199", "lon": -77.03786966666667, "rental_uris": {"ios": "https://dc.lft.to/lastmile_qr_scan", "android": "https://dc.lft.to/lastmile_qr_scan"}}, {"name": "2f8b17e6a772158efecd2290fe191246", "fusion_lat": 0.0, "type": "electric_scooter", "lat": 38.92980383333333, "is_reserved": 0, "is_disabled": 0, "fusion_lon": 0.0, "bike_id": "2f8b17e6a772158efecd2290fe191246", "lon": -77.01446983333334, "rental_uris": {"ios": "https://dc.lft.to/lastmile_qr_scan", "android": "https://dc.lft.to/lastmile_qr_scan"}}, {"name": "f28ac76bfed900e8a58458e2501b0a44", "fusion_lat": 0.0, "type": "electric_scooter", "lat": 38.9324785, "is_reserved": 0, "is_disabled": 0, "fusion_lon": 0.0, "bike_id": "f28ac76bfed900e8a58458e2501b0a44", "lon": -77.04005116666667, "rental_uris": {"ios": "https://dc.lft.to/lastmile_qr_scan", "android": "https://dc.lft.to/lastmile_qr_scan"}}, {"name": "5ef20b8c2b4f27267a598cec826bb3ba", "fusion_lat": 0.0, "type": "electric_scooter", "lat": 38.88510316666667, "is_reserved": 0, "is_disabled": 0, "fusion_lon": 0.0, "bike_id": "5ef20b8c2b4f27267a598cec826bb3ba", "lon": -77.00572066666666, "rental_uris": {"ios": "https://dc.lft.to/lastmile_qr_scan", "android": "https://dc.lft.to/lastmile_qr_scan"}}, {"name": "14e31959729b2312470cdb1d870304d1", "fusion_lat": 0.0, "type": "electric_bike", "lat": 38.88387733333333, "is_reserved": 0, "is_disabled": 0, "fusion_lon": 0.0, "bike_id": "14e31959729b2312470cdb1d870304d1", "lon": -76.98553466666667, "rental_uris": {"ios": "https://dc.lft.to/lastmile_qr_scan", "android": "https://dc.lft.to/lastmile_qr_scan"}}, {"name": "80d70aee48acaf7b4ce13250e3f8b78c", "fusion_lat": 0.0, "type": "electric_scooter", "lat": 38.8624575, "is_reserved": 0, "is_disabled": 0, "fusion_lon": 0.0, "bike_id": "80d70aee48acaf7b4ce13250e3f8b78c", "lon": -76.99498433333333, "rental_uris": {"ios": "https://dc.lft.to/lastmile_qr_scan", "android": "https://dc.lft.to/lastmile_qr_scan"}}, {"name": "baaaf956fd4df736073b95778c9af12d", "fusion_lat": 0.0, "type": "electric_scooter", "lat": 38.906077, "is_reserved": 0, "is_disabled": 0, "fusion_lon": 0.0, "bike_id": "baaaf956fd4df736073b95778c9af12d", "lon": -77.04695983333333, "rental_uris": {"ios": "https://dc.lft.to/lastmile_qr_scan", "android": "https://dc.lft.to/lastmile_qr_scan"}}, {"name": "c2eeef2e186b77163da6bded5eff609a", "fusion_lat": 0.0, "type": "electric_bike", "lat": 38.839903, "is_reserved": 0, "is_disabled": 0, "fusion_lon": 0.0, "bike_id": "c2eeef2e186b77163da6bded5eff609a", "lon": -77.00566483333333, "rental_uris": {"ios": "https://dc.lft.to/lastmile_qr_scan", "android": "https://dc.lft.to/lastmile_qr_scan"}}, {"name": "e394a30abbda5c384cd1d2380d39ca84", "fusion_lat": 0.0, "type": "electric_scooter", "lat": 38.88599216666667, "is_reserved": 0, "is_disabled": 0, "fusion_lon": 0.0, "bike_id": "e394a30abbda5c384cd1d2380d39ca84", "lon": -77.02201083333334, "rental_uris": {"ios": "https://dc.lft.to/lastmile_qr_scan", "android": "https://dc.lft.to/lastmile_qr_scan"}}, {"name": "e4968b12b8b93095b1b03cb86ef6cd80", "fusion_lat": 0.0, "type": "electric_scooter", "lat": 38.89929583333333, "is_reserved": 0, "is_disabled": 0, "fusion_lon": 0.0, "bike_id": "e4968b12b8b93095b1b03cb86ef6cd80", "lon": -77.0530335, "rental_uris": {"ios": "https://dc.lft.to/lastmile_qr_scan", "android": "https://dc.lft.to/lastmile_qr_scan"}}, {"name": "4093b5e40fb8db779a6185750b0211e2", "fusion_lat": 0.0, "type": "electric_scooter", "lat": 38.94322433333333, "is_reserved": 0, "is_disabled": 0, "fusion_lon": 0.0, "bike_id": "4093b5e40fb8db779a6185750b0211e2", "lon": -77.024827, "rental_uris": {"ios": "https://dc.lft.to/lastmile_qr_scan", "android": "https://dc.lft.to/lastmile_qr_scan"}}, {"name": "83d67f06fab0eeccf2368b822c87bf3f", "fusion_lat": 0.0, "type": "electric_scooter", "lat": 38.90027933333333, "is_reserved": 0, "is_disabled": 0, "fusion_lon": 0.0, "bike_id": "83d67f06fab0eeccf2368b822c87bf3f", "lon": -76.98847616666667, "rental_uris": {"ios": "https://dc.lft.to/lastmile_qr_scan", "android": "https://dc.lft.to/lastmile_qr_scan"}}, {"name": "150f058f0b99120a05f9b83a3ac1cbef", "fusion_lat": 0.0, "type": "electric_scooter", "lat": 38.91254816666667, "is_reserved": 0, "is_disabled": 0, "fusion_lon": 0.0, "bike_id": "150f058f0b99120a05f9b83a3ac1cbef", "lon": -77.03841916666667, "rental_uris": {"ios": "https://dc.lft.to/lastmile_qr_scan", "android": "https://dc.lft.to/lastmile_qr_scan"}}, {"name": "9c5d97786e3480adcfb1dc9b80f9e9d8", "fusion_lat": 0.0, "type": "electric_scooter", "lat": 38.91276416666667, "is_reserved": 0, "is_disabled": 0, "fusion_lon": 0.0, "bike_id": "9c5d97786e3480adcfb1dc9b80f9e9d8", "lon": -77.03864716666666, "rental_uris": {"ios": "https://dc.lft.to/lastmile_qr_scan", "android": "https://dc.lft.to/lastmile_qr_scan"}}, {"name": "77e5804469d04ef66e09eea0b03f0e94", "fusion_lat": 0.0, "type": "electric_scooter", "lat": 38.936126, "is_reserved": 0, "is_disabled": 0, "fusion_lon": 0.0, "bike_id": "77e5804469d04ef66e09eea0b03f0e94", "lon": -77.03218, "rental_uris": {"ios": "https://dc.lft.to/lastmile_qr_scan", "android": "https://dc.lft.to/lastmile_qr_scan"}}, {"name": "f315c731e333a2b767b3b8b14fce408f", "fusion_lat": 0.0, "type": "electric_scooter", "lat": 38.911827333333335, "is_reserved": 0, "is_disabled": 0, "fusion_lon": 0.0, "bike_id": "f315c731e333a2b767b3b8b14fce408f", "lon": -77.01124216666666, "rental_uris": {"ios": "https://dc.lft.to/lastmile_qr_scan", "android": "https://dc.lft.to/lastmile_qr_scan"}}, {"name": "cdfde663bad34cf76dbb05d5e6a39f62", "fusion_lat": 0.0, "type": "electric_scooter", "lat": 38.88764916666667, "is_reserved": 0, "is_disabled": 0, "fusion_lon": 0.0, "bike_id": "cdfde663bad34cf76dbb05d5e6a39f62", "lon": -76.95597266666667, "rental_uris": {"ios": "https://dc.lft.to/lastmile_qr_scan", "android": "https://dc.lft.to/lastmile_qr_scan"}}, {"name": "105aa24a804beeca26c060d9093b35ab", "fusion_lat": 0.0, "type": "electric_scooter", "lat": 38.93114083333333, "is_reserved": 0, "is_disabled": 0, "fusion_lon": 0.0, "bike_id": "105aa24a804beeca26c060d9093b35ab", "lon": -77.0384315, "rental_uris": {"ios": "https://dc.lft.to/lastmile_qr_scan", "android": "https://dc.lft.to/lastmile_qr_scan"}}, {"name": "422f87786cba6748aca8d4cfcf74e9d8", "fusion_lat": 0.0, "type": "electric_scooter", "lat": 38.918211166666666, "is_reserved": 0, "is_disabled": 0, "fusion_lon": 0.0, "bike_id": "422f87786cba6748aca8d4cfcf74e9d8", "lon": -77.03213416666667, "rental_uris": {"ios": "https://dc.lft.to/lastmile_qr_scan", "android": "https://dc.lft.to/lastmile_qr_scan"}}, {"name": "40d38981674bee2b5a3cd0df1285ea84", "fusion_lat": 0.0, "type": "electric_scooter", "lat": 38.907010666666665, "is_reserved": 0, "is_disabled": 0, "fusion_lon": 0.0, "bike_id": "40d38981674bee2b5a3cd0df1285ea84", "lon": -77.02387616666667, "rental_uris": {"ios": "https://dc.lft.to/lastmile_qr_scan", "android": "https://dc.lft.to/lastmile_qr_scan"}}, {"name": "c4162e73b5a061867238c67c9481aff0", "fusion_lat": 0.0, "type": "electric_scooter", "lat": 38.87807, "is_reserved": 0, "is_disabled": 0, "fusion_lon": 0.0, "bike_id": "c4162e73b5a061867238c67c9481aff0", "lon": -77.01763766666667, "rental_uris": {"ios": "https://dc.lft.to/lastmile_qr_scan", "android": "https://dc.lft.to/lastmile_qr_scan"}}, {"name": "b9f679276748321d89df758fab795dcf", "fusion_lat": 0.0, "type": "electric_scooter", "lat": 38.9036345, "is_reserved": 0, "is_disabled": 0, "fusion_lon": 0.0, "bike_id": "b9f679276748321d89df758fab795dcf", "lon": -77.00344083333333, "rental_uris": {"ios": "https://dc.lft.to/lastmile_qr_scan", "android": "https://dc.lft.to/lastmile_qr_scan"}}, {"name": "20cd3998721e2c32c8f7f98d642c744a", "fusion_lat": 0.0, "type": "electric_scooter", "lat": 38.912724833333336, "is_reserved": 0, "is_disabled": 0, "fusion_lon": 0.0, "bike_id": "20cd3998721e2c32c8f7f98d642c744a", "lon": -77.03866566666666, "rental_uris": {"ios": "https://dc.lft.to/lastmile_qr_scan", "android": "https://dc.lft.to/lastmile_qr_scan"}}, {"name": "1bd54fdfcd817a4f76933496e0ccd581", "fusion_lat": 0.0, "type": "electric_scooter", "lat": 38.90402533333334, "is_reserved": 0, "is_disabled": 0, "fusion_lon": 0.0, "bike_id": "1bd54fdfcd817a4f76933496e0ccd581", "lon": -77.06430066666667, "rental_uris": {"ios": "https://dc.lft.to/lastmile_qr_scan", "android": "https://dc.lft.to/lastmile_qr_scan"}}, {"name": "fc4b9c0140cbc727cdd790227f237b9f", "fusion_lat": 0.0, "type": "electric_scooter", "lat": 38.9326625, "is_reserved": 0, "is_disabled": 0, "fusion_lon": 0.0, "bike_id": "fc4b9c0140cbc727cdd790227f237b9f", "lon": -77.038994, "rental_uris": {"ios": "https://dc.lft.to/lastmile_qr_scan", "android": "https://dc.lft.to/lastmile_qr_scan"}}, {"name": "e4e4ef3598b019123e0b566ecdd55380", "fusion_lat": 0.0, "type": "electric_scooter", "lat": 38.87900116666667, "is_reserved": 0, "is_disabled": 0, "fusion_lon": 0.0, "bike_id": "e4e4ef3598b019123e0b566ecdd55380", "lon": -77.00553283333333, "rental_uris": {"ios": "https://dc.lft.to/lastmile_qr_scan", "android": "https://dc.lft.to/lastmile_qr_scan"}}, {"name": "6124c1b64b8fbe1a857a71b548fb978d", "fusion_lat": 0.0, "type": "electric_scooter", "lat": 38.878015833333336, "is_reserved": 0, "is_disabled": 0, "fusion_lon": 0.0, "bike_id": "6124c1b64b8fbe1a857a71b548fb978d", "lon": -77.00581466666667, "rental_uris": {"ios": "https://dc.lft.to/lastmile_qr_scan", "android": "https://dc.lft.to/lastmile_qr_scan"}}, {"name": "386ad1bf26f34756e3b20f91c3ebd660", "fusion_lat": 0.0, "type": "electric_scooter", "lat": 38.909042, "is_reserved": 0, "is_disabled": 0, "fusion_lon": 0.0, "bike_id": "386ad1bf26f34756e3b20f91c3ebd660", "lon": -77.02714466666667, "rental_uris": {"ios": "https://dc.lft.to/lastmile_qr_scan", "android": "https://dc.lft.to/lastmile_qr_scan"}}, {"name": "0d2cc4bcc868a0deb087753a93eb2289", "fusion_lat": 0.0, "type": "electric_scooter", "lat": 38.922363, "is_reserved": 0, "is_disabled": 0, "fusion_lon": 0.0, "bike_id": "0d2cc4bcc868a0deb087753a93eb2289", "lon": -77.0472315, "rental_uris": {"ios": "https://dc.lft.to/lastmile_qr_scan", "android": "https://dc.lft.to/lastmile_qr_scan"}}, {"name": "8aca6bf5a4391986ebc8cf29cb5a7e18", "fusion_lat": 0.0, "type": "electric_bike", "lat": 38.84573366666667, "is_reserved": 0, "is_disabled": 0, "fusion_lon": 0.0, "bike_id": "8aca6bf5a4391986ebc8cf29cb5a7e18", "lon": -77.09624833333334, "rental_uris": {"ios": "https://dc.lft.to/lastmile_qr_scan", "android": "https://dc.lft.to/lastmile_qr_scan"}}, {"name": "8b27f9bf352fb7dbaee7a91cc58fb604", "fusion_lat": 0.0, "type": "electric_bike", "lat": 38.973839166666664, "is_reserved": 0, "is_disabled": 0, "fusion_lon": 0.0, "bike_id": "8b27f9bf352fb7dbaee7a91cc58fb604", "lon": -77.064715, "rental_uris": {"ios": "https://dc.lft.to/lastmile_qr_scan", "android": "https://dc.lft.to/lastmile_qr_scan"}}, {"name": "f30d150f7b6060e76653da024780ea80", "fusion_lat": 0.0, "type": "electric_scooter", "lat": 38.933926, "is_reserved": 0, "is_disabled": 0, "fusion_lon": 0.0, "bike_id": "f30d150f7b6060e76653da024780ea80", "lon": -77.03579233333333, "rental_uris": {"ios": "https://dc.lft.to/lastmile_qr_scan", "android": "https://dc.lft.to/lastmile_qr_scan"}}, {"name": "7d2c8a4cbd80defad4cb68cc54a021b9", "fusion_lat": 0.0, "type": "electric_scooter", "lat": 38.93712683333333, "is_reserved": 0, "is_disabled": 0, "fusion_lon": 0.0, "bike_id": "7d2c8a4cbd80defad4cb68cc54a021b9", "lon": -77.06102283333334, "rental_uris": {"ios": "https://dc.lft.to/lastmile_qr_scan", "android": "https://dc.lft.to/lastmile_qr_scan"}}, {"name": "efec1b0631a2e57df38b4a15bbb5f499", "fusion_lat": 0.0, "type": "electric_bike", "lat": 38.999133, "is_reserved": 0, "is_disabled": 0, "fusion_lon": 0.0, "bike_id": "efec1b0631a2e57df38b4a15bbb5f499", "lon": -77.04622083333334, "rental_uris": {"ios": "https://dc.lft.to/lastmile_qr_scan", "android": "https://dc.lft.to/lastmile_qr_scan"}}, {"name": "b525334340e18d688e7a905456ed8cf0", "fusion_lat": 0.0, "type": "electric_scooter", "lat": 38.89621116666667, "is_reserved": 0, "is_disabled": 0, "fusion_lon": 0.0, "bike_id": "b525334340e18d688e7a905456ed8cf0", "lon": -77.02702516666666, "rental_uris": {"ios": "https://dc.lft.to/lastmile_qr_scan", "android": "https://dc.lft.to/lastmile_qr_scan"}}, {"name": "ade0a37efff2714df0b0cdcf20765c1b", "fusion_lat": 0.0, "type": "electric_scooter", "lat": 38.91856283333333, "is_reserved": 0, "is_disabled": 0, "fusion_lon": 0.0, "bike_id": "ade0a37efff2714df0b0cdcf20765c1b", "lon": -77.04495783333333, "rental_uris": {"ios": "https://dc.lft.to/lastmile_qr_scan", "android": "https://dc.lft.to/lastmile_qr_scan"}}, {"name": "f5df54043c21fea1ec35965e0924a987", "fusion_lat": 0.0, "type": "electric_scooter", "lat": 38.90278216666667, "is_reserved": 0, "is_disabled": 0, "fusion_lon": 0.0, "bike_id": "f5df54043c21fea1ec35965e0924a987", "lon": -77.03928633333334, "rental_uris": {"ios": "https://dc.lft.to/lastmile_qr_scan", "android": "https://dc.lft.to/lastmile_qr_scan"}}, {"name": "499a602eb74d726f6353a38a7ce3de95", "fusion_lat": 0.0, "type": "electric_scooter", "lat": 38.90544, "is_reserved": 0, "is_disabled": 0, "fusion_lon": 0.0, "bike_id": "499a602eb74d726f6353a38a7ce3de95", "lon": -77.062672, "rental_uris": {"ios": "https://dc.lft.to/lastmile_qr_scan", "android": "https://dc.lft.to/lastmile_qr_scan"}}, {"name": "818b9b26aeba23d07ecae2a461e0387a", "fusion_lat": 0.0, "type": "electric_scooter", "lat": 38.930836166666666, "is_reserved": 0, "is_disabled": 0, "fusion_lon": 0.0, "bike_id": "818b9b26aeba23d07ecae2a461e0387a", "lon": -77.02792516666666, "rental_uris": {"ios": "https://dc.lft.to/lastmile_qr_scan", "android": "https://dc.lft.to/lastmile_qr_scan"}}, {"name": "76bea337d5e6b4e27f9278e8dcd7b0cd", "fusion_lat": 0.0, "type": "electric_scooter", "lat": 38.905205, "is_reserved": 0, "is_disabled": 0, "fusion_lon": 0.0, "bike_id": "76bea337d5e6b4e27f9278e8dcd7b0cd", "lon": -77.02957933333333, "rental_uris": {"ios": "https://dc.lft.to/lastmile_qr_scan", "android": "https://dc.lft.to/lastmile_qr_scan"}}, {"name": "e79b3fb51e68c3ccfca4db8e4a5f0cbc", "fusion_lat": 0.0, "type": "electric_bike", "lat": 38.939702833333335, "is_reserved": 0, "is_disabled": 0, "fusion_lon": 0.0, "bike_id": "e79b3fb51e68c3ccfca4db8e4a5f0cbc", "lon": -77.02772983333334, "rental_uris": {"ios": "https://dc.lft.to/lastmile_qr_scan", "android": "https://dc.lft.to/lastmile_qr_scan"}}, {"name": "6328df24dedb9f3bd93645c486e8a769", "fusion_lat": 0.0, "type": "electric_scooter", "lat": 38.903303333333334, "is_reserved": 0, "is_disabled": 0, "fusion_lon": 0.0, "bike_id": "6328df24dedb9f3bd93645c486e8a769", "lon": -77.03640183333333, "rental_uris": {"ios": "https://dc.lft.to/lastmile_qr_scan", "android": "https://dc.lft.to/lastmile_qr_scan"}}, {"name": "da50a38cec0a27cafdbdf5812982f5b5", "fusion_lat": 0.0, "type": "electric_scooter", "lat": 38.90730683333334, "is_reserved": 0, "is_disabled": 0, "fusion_lon": 0.0, "bike_id": "da50a38cec0a27cafdbdf5812982f5b5", "lon": -77.0080335, "rental_uris": {"ios": "https://dc.lft.to/lastmile_qr_scan", "android": "https://dc.lft.to/lastmile_qr_scan"}}, {"name": "1e210cb529b92562e49024cdd472b4d5", "fusion_lat": 0.0, "type": "electric_scooter", "lat": 38.89364466666667, "is_reserved": 0, "is_disabled": 0, "fusion_lon": 0.0, "bike_id": "1e210cb529b92562e49024cdd472b4d5", "lon": -77.011823, "rental_uris": {"ios": "https://dc.lft.to/lastmile_qr_scan", "android": "https://dc.lft.to/lastmile_qr_scan"}}, {"name": "c7484fe173d31e33772d67da14f13636", "fusion_lat": 0.0, "type": "electric_bike", "lat": 38.90493166666667, "is_reserved": 0, "is_disabled": 0, "fusion_lon": 0.0, "bike_id": "c7484fe173d31e33772d67da14f13636", "lon": -77.02955766666666, "rental_uris": {"ios": "https://dc.lft.to/lastmile_qr_scan", "android": "https://dc.lft.to/lastmile_qr_scan"}}, {"name": "82fb8510b6db43cb7a8c7a4615ba472b", "fusion_lat": 0.0, "type": "electric_bike", "lat": 38.85620133333333, "is_reserved": 0, "is_disabled": 0, "fusion_lon": 0.0, "bike_id": "82fb8510b6db43cb7a8c7a4615ba472b", "lon": -77.085375, "rental_uris": {"ios": "https://dc.lft.to/lastmile_qr_scan", "android": "https://dc.lft.to/lastmile_qr_scan"}}, {"name": "7fbc22809da15564a9b5159ed0fa4ef2", "fusion_lat": 0.0, "type": "electric_scooter", "lat": 38.892287333333336, "is_reserved": 0, "is_disabled": 0, "fusion_lon": 0.0, "bike_id": "7fbc22809da15564a9b5159ed0fa4ef2", "lon": -77.046599, "rental_uris": {"ios": "https://dc.lft.to/lastmile_qr_scan", "android": "https://dc.lft.to/lastmile_qr_scan"}}, {"name": "6d957b695e695ee17a4d9d984611d678", "fusion_lat": 0.0, "type": "electric_scooter", "lat": 38.90035016666667, "is_reserved": 0, "is_disabled": 0, "fusion_lon": 0.0, "bike_id": "6d957b695e695ee17a4d9d984611d678", "lon": -77.0122195, "rental_uris": {"ios": "https://dc.lft.to/lastmile_qr_scan", "android": "https://dc.lft.to/lastmile_qr_scan"}}, {"name": "8922b56c5adbaa402ca5998da9922ccd", "fusion_lat": 0.0, "type": "electric_scooter", "lat": 38.912598833333334, "is_reserved": 0, "is_disabled": 0, "fusion_lon": 0.0, "bike_id": "8922b56c5adbaa402ca5998da9922ccd", "lon": -77.03866366666666, "rental_uris": {"ios": "https://dc.lft.to/lastmile_qr_scan", "android": "https://dc.lft.to/lastmile_qr_scan"}}, {"name": "76eb4a50575fc3481090bf9f671d0dcc", "fusion_lat": 0.0, "type": "electric_scooter", "lat": 38.86661683333333, "is_reserved": 0, "is_disabled": 0, "fusion_lon": 0.0, "bike_id": "76eb4a50575fc3481090bf9f671d0dcc", "lon": -76.988857, "rental_uris": {"ios": "https://dc.lft.to/lastmile_qr_scan", "android": "https://dc.lft.to/lastmile_qr_scan"}}, {"name": "6873b6d40f434ff8f42cbb906a96149e", "fusion_lat": 0.0, "type": "electric_scooter", "lat": 38.865377333333335, "is_reserved": 0, "is_disabled": 0, "fusion_lon": 0.0, "bike_id": "6873b6d40f434ff8f42cbb906a96149e", "lon": -76.987053, "rental_uris": {"ios": "https://dc.lft.to/lastmile_qr_scan", "android": "https://dc.lft.to/lastmile_qr_scan"}}, {"name": "63e7961f55627cdcb6aeadc6d8e598d8", "fusion_lat": 0.0, "type": "electric_bike", "lat": 39.08860083333333, "is_reserved": 0, "is_disabled": 0, "fusion_lon": 0.0, "bike_id": "63e7961f55627cdcb6aeadc6d8e598d8", "lon": -77.17841616666666, "rental_uris": {"ios": "https://dc.lft.to/lastmile_qr_scan", "android": "https://dc.lft.to/lastmile_qr_scan"}}, {"name": "1b612b053dda1c438dbab4c37c0e5fd2", "fusion_lat": 0.0, "type": "electric_scooter", "lat": 38.902718166666666, "is_reserved": 0, "is_disabled": 0, "fusion_lon": 0.0, "bike_id": "1b612b053dda1c438dbab4c37c0e5fd2", "lon": -76.98713916666667, "rental_uris": {"ios": "https://dc.lft.to/lastmile_qr_scan", "android": "https://dc.lft.to/lastmile_qr_scan"}}, {"name": "71d2e11f5ee02f2e1bc95cfd6490271d", "fusion_lat": 0.0, "type": "electric_bike", "lat": 38.935250833333335, "is_reserved": 0, "is_disabled": 0, "fusion_lon": 0.0, "bike_id": "71d2e11f5ee02f2e1bc95cfd6490271d", "lon": -76.95065666666666, "rental_uris": {"ios": "https://dc.lft.to/lastmile_qr_scan", "android": "https://dc.lft.to/lastmile_qr_scan"}}, {"name": "0d3ba43b34c57d19f71d59976377b5d4", "fusion_lat": 0.0, "type": "electric_scooter", "lat": 38.9069925, "is_reserved": 0, "is_disabled": 0, "fusion_lon": 0.0, "bike_id": "0d3ba43b34c57d19f71d59976377b5d4", "lon": -77.02975733333334, "rental_uris": {"ios": "https://dc.lft.to/lastmile_qr_scan", "android": "https://dc.lft.to/lastmile_qr_scan"}}, {"name": "2215385faa8a117ecb8332951959d049", "fusion_lat": 0.0, "type": "electric_bike", "lat": 39.0532155, "is_reserved": 0, "is_disabled": 0, "fusion_lon": 0.0, "bike_id": "2215385faa8a117ecb8332951959d049", "lon": -77.04769266666666, "rental_uris": {"ios": "https://dc.lft.to/lastmile_qr_scan", "android": "https://dc.lft.to/lastmile_qr_scan"}}, {"name": "6eb67065b46ccf3f46a8786b20623a85", "fusion_lat": 0.0, "type": "electric_scooter", "lat": 38.866994, "is_reserved": 0, "is_disabled": 0, "fusion_lon": 0.0, "bike_id": "6eb67065b46ccf3f46a8786b20623a85", "lon": -76.98899933333334, "rental_uris": {"ios": "https://dc.lft.to/lastmile_qr_scan", "android": "https://dc.lft.to/lastmile_qr_scan"}}, {"name": "4956d31d53176c3cc3347c7b8139aacb", "fusion_lat": 0.0, "type": "electric_scooter", "lat": 38.90251716666667, "is_reserved": 0, "is_disabled": 0, "fusion_lon": 0.0, "bike_id": "4956d31d53176c3cc3347c7b8139aacb", "lon": -76.97701983333333, "rental_uris": {"ios": "https://dc.lft.to/lastmile_qr_scan", "android": "https://dc.lft.to/lastmile_qr_scan"}}, {"name": "9574049cb83581fa79f8d4493fdb3932", "fusion_lat": 0.0, "type": "electric_scooter", "lat": 38.914081833333334, "is_reserved": 0, "is_disabled": 0, "fusion_lon": 0.0, "bike_id": "9574049cb83581fa79f8d4493fdb3932", "lon": -77.039539, "rental_uris": {"ios": "https://dc.lft.to/lastmile_qr_scan", "android": "https://dc.lft.to/lastmile_qr_scan"}}, {"name": "11182c6852aeec61f11214427d5ba1ac", "fusion_lat": 0.0, "type": "electric_scooter", "lat": 38.91991983333333, "is_reserved": 0, "is_disabled": 0, "fusion_lon": 0.0, "bike_id": "11182c6852aeec61f11214427d5ba1ac", "lon": -77.02400233333333, "rental_uris": {"ios": "https://dc.lft.to/lastmile_qr_scan", "android": "https://dc.lft.to/lastmile_qr_scan"}}, {"name": "2a61f74821f661b489409c99d3594e5e", "fusion_lat": 0.0, "type": "electric_scooter", "lat": 38.917639, "is_reserved": 0, "is_disabled": 0, "fusion_lon": 0.0, "bike_id": "2a61f74821f661b489409c99d3594e5e", "lon": -77.096662, "rental_uris": {"ios": "https://dc.lft.to/lastmile_qr_scan", "android": "https://dc.lft.to/lastmile_qr_scan"}}, {"name": "339d4062c6148ab88dea9aa95e8c180d", "fusion_lat": 0.0, "type": "electric_scooter", "lat": 38.86665083333333, "is_reserved": 0, "is_disabled": 0, "fusion_lon": 0.0, "bike_id": "339d4062c6148ab88dea9aa95e8c180d", "lon": -76.98884266666667, "rental_uris": {"ios": "https://dc.lft.to/lastmile_qr_scan", "android": "https://dc.lft.to/lastmile_qr_scan"}}, {"name": "699527104d7ab5fb3d7adc2a9c362f16", "fusion_lat": 0.0, "type": "electric_scooter", "lat": 38.8960965, "is_reserved": 0, "is_disabled": 0, "fusion_lon": 0.0, "bike_id": "699527104d7ab5fb3d7adc2a9c362f16", "lon": -77.04462033333333, "rental_uris": {"ios": "https://dc.lft.to/lastmile_qr_scan", "android": "https://dc.lft.to/lastmile_qr_scan"}}, {"name": "cdc32c6f1d7869cdce31750d960223b7", "fusion_lat": 0.0, "type": "electric_bike", "lat": 38.893561166666665, "is_reserved": 0, "is_disabled": 0, "fusion_lon": 0.0, "bike_id": "cdc32c6f1d7869cdce31750d960223b7", "lon": -76.991496, "rental_uris": {"ios": "https://dc.lft.to/lastmile_qr_scan", "android": "https://dc.lft.to/lastmile_qr_scan"}}, {"name": "e08b63a56b4c8775cb51b68d25289679", "fusion_lat": 0.0, "type": "electric_scooter", "lat": 38.907996833333335, "is_reserved": 0, "is_disabled": 0, "fusion_lon": 0.0, "bike_id": "e08b63a56b4c8775cb51b68d25289679", "lon": -77.01817033333333, "rental_uris": {"ios": "https://dc.lft.to/lastmile_qr_scan", "android": "https://dc.lft.to/lastmile_qr_scan"}}, {"name": "e83e82df181d8f2aa840d55761c788a0", "fusion_lat": 0.0, "type": "electric_scooter", "lat": 38.911109, "is_reserved": 0, "is_disabled": 0, "fusion_lon": 0.0, "bike_id": "e83e82df181d8f2aa840d55761c788a0", "lon": -77.02462183333333, "rental_uris": {"ios": "https://dc.lft.to/lastmile_qr_scan", "android": "https://dc.lft.to/lastmile_qr_scan"}}, {"name": "d7802ee3d6ccdd8e6f80d32ecc18ec04", "fusion_lat": 0.0, "type": "electric_scooter", "lat": 38.911513, "is_reserved": 0, "is_disabled": 0, "fusion_lon": 0.0, "bike_id": "d7802ee3d6ccdd8e6f80d32ecc18ec04", "lon": -77.01684983333334, "rental_uris": {"ios": "https://dc.lft.to/lastmile_qr_scan", "android": "https://dc.lft.to/lastmile_qr_scan"}}, {"name": "bd513f320325f7ddf23e58c61f84822c", "fusion_lat": 0.0, "type": "electric_scooter", "lat": 38.92825066666666, "is_reserved": 0, "is_disabled": 0, "fusion_lon": 0.0, "bike_id": "bd513f320325f7ddf23e58c61f84822c", "lon": -77.0225535, "rental_uris": {"ios": "https://dc.lft.to/lastmile_qr_scan", "android": "https://dc.lft.to/lastmile_qr_scan"}}, {"name": "b43dd050d0509aced42ca14069e0018b", "fusion_lat": 0.0, "type": "electric_scooter", "lat": 38.87581216666667, "is_reserved": 0, "is_disabled": 0, "fusion_lon": 0.0, "bike_id": "b43dd050d0509aced42ca14069e0018b", "lon": -77.01060183333334, "rental_uris": {"ios": "https://dc.lft.to/lastmile_qr_scan", "android": "https://dc.lft.to/lastmile_qr_scan"}}, {"name": "3869a98f2f24e2a4cb86e8bcc5ae2f01", "fusion_lat": 0.0, "type": "electric_scooter", "lat": 38.912937, "is_reserved": 0, "is_disabled": 0, "fusion_lon": 0.0, "bike_id": "3869a98f2f24e2a4cb86e8bcc5ae2f01", "lon": -76.93751783333333, "rental_uris": {"ios": "https://dc.lft.to/lastmile_qr_scan", "android": "https://dc.lft.to/lastmile_qr_scan"}}, {"name": "f0c476090f3a82ec453718fbaf3c3aad", "fusion_lat": 0.0, "type": "electric_scooter", "lat": 38.9297035, "is_reserved": 0, "is_disabled": 0, "fusion_lon": 0.0, "bike_id": "f0c476090f3a82ec453718fbaf3c3aad", "lon": -77.0410965, "rental_uris": {"ios": "https://dc.lft.to/lastmile_qr_scan", "android": "https://dc.lft.to/lastmile_qr_scan"}}, {"name": "14a813eb953c5a724d4afcbccb7a72a3", "fusion_lat": 0.0, "type": "electric_scooter", "lat": 38.93470883333333, "is_reserved": 0, "is_disabled": 0, "fusion_lon": 0.0, "bike_id": "14a813eb953c5a724d4afcbccb7a72a3", "lon": -77.03521283333333, "rental_uris": {"ios": "https://dc.lft.to/lastmile_qr_scan", "android": "https://dc.lft.to/lastmile_qr_scan"}}, {"name": "9edde72d3a1391ab1c31bde89ac9f266", "fusion_lat": 0.0, "type": "electric_scooter", "lat": 38.92820583333334, "is_reserved": 0, "is_disabled": 0, "fusion_lon": 0.0, "bike_id": "9edde72d3a1391ab1c31bde89ac9f266", "lon": -77.02260966666667, "rental_uris": {"ios": "https://dc.lft.to/lastmile_qr_scan", "android": "https://dc.lft.to/lastmile_qr_scan"}}, {"name": "428caf1f0601a3b5d89f5ebe61879ae8", "fusion_lat": 0.0, "type": "electric_scooter", "lat": 38.9224325, "is_reserved": 0, "is_disabled": 0, "fusion_lon": 0.0, "bike_id": "428caf1f0601a3b5d89f5ebe61879ae8", "lon": -77.04714066666666, "rental_uris": {"ios": "https://dc.lft.to/lastmile_qr_scan", "android": "https://dc.lft.to/lastmile_qr_scan"}}, {"name": "d56a2c73068d430ba61bf54e827db281", "fusion_lat": 0.0, "type": "electric_scooter", "lat": 38.909757166666665, "is_reserved": 0, "is_disabled": 0, "fusion_lon": 0.0, "bike_id": "d56a2c73068d430ba61bf54e827db281", "lon": -77.04874416666667, "rental_uris": {"ios": "https://dc.lft.to/lastmile_qr_scan", "android": "https://dc.lft.to/lastmile_qr_scan"}}, {"name": "785fedbdf171e1422077603330c1f374", "fusion_lat": 0.0, "type": "electric_scooter", "lat": 38.96227533333333, "is_reserved": 0, "is_disabled": 0, "fusion_lon": 0.0, "bike_id": "785fedbdf171e1422077603330c1f374", "lon": -77.02980183333334, "rental_uris": {"ios": "https://dc.lft.to/lastmile_qr_scan", "android": "https://dc.lft.to/lastmile_qr_scan"}}, {"name": "2d790f8aa02dec5d3bebc706e075b352", "fusion_lat": 0.0, "type": "electric_scooter", "lat": 38.88232516666667, "is_reserved": 0, "is_disabled": 0, "fusion_lon": 0.0, "bike_id": "2d790f8aa02dec5d3bebc706e075b352", "lon": -77.0257925, "rental_uris": {"ios": "https://dc.lft.to/lastmile_qr_scan", "android": "https://dc.lft.to/lastmile_qr_scan"}}, {"name": "46aef5e67a6e8e67fe04258d35c11272", "fusion_lat": 0.0, "type": "electric_scooter", "lat": 38.92579083333333, "is_reserved": 0, "is_disabled": 0, "fusion_lon": 0.0, "bike_id": "46aef5e67a6e8e67fe04258d35c11272", "lon": -76.99489766666667, "rental_uris": {"ios": "https://dc.lft.to/lastmile_qr_scan", "android": "https://dc.lft.to/lastmile_qr_scan"}}, {"name": "6b57be4fca8afba5291cf118aa2e5257", "fusion_lat": 0.0, "type": "electric_scooter", "lat": 38.925521, "is_reserved": 0, "is_disabled": 0, "fusion_lon": 0.0, "bike_id": "6b57be4fca8afba5291cf118aa2e5257", "lon": -77.0322745, "rental_uris": {"ios": "https://dc.lft.to/lastmile_qr_scan", "android": "https://dc.lft.to/lastmile_qr_scan"}}, {"name": "40bb338f9ede1563c33760d280d70070", "fusion_lat": 0.0, "type": "electric_scooter", "lat": 38.905721666666665, "is_reserved": 0, "is_disabled": 0, "fusion_lon": 0.0, "bike_id": "40bb338f9ede1563c33760d280d70070", "lon": -77.04874, "rental_uris": {"ios": "https://dc.lft.to/lastmile_qr_scan", "android": "https://dc.lft.to/lastmile_qr_scan"}}, {"name": "ecb1af3b84f7f46abc4c1ce0f11e4482", "fusion_lat": 0.0, "type": "electric_scooter", "lat": 38.91140716666666, "is_reserved": 0, "is_disabled": 0, "fusion_lon": 0.0, "bike_id": "ecb1af3b84f7f46abc4c1ce0f11e4482", "lon": -77.0419155, "rental_uris": {"ios": "https://dc.lft.to/lastmile_qr_scan", "android": "https://dc.lft.to/lastmile_qr_scan"}}, {"name": "f9e6f065696f192d7078babcdc65f2de", "fusion_lat": 0.0, "type": "electric_scooter", "lat": 38.86121416666667, "is_reserved": 0, "is_disabled": 0, "fusion_lon": 0.0, "bike_id": "f9e6f065696f192d7078babcdc65f2de", "lon": -76.98885366666667, "rental_uris": {"ios": "https://dc.lft.to/lastmile_qr_scan", "android": "https://dc.lft.to/lastmile_qr_scan"}}, {"name": "ade5e5debdf59184818e3cd6f83de2b8", "fusion_lat": 0.0, "type": "electric_scooter", "lat": 38.93879783333333, "is_reserved": 0, "is_disabled": 0, "fusion_lon": 0.0, "bike_id": "ade5e5debdf59184818e3cd6f83de2b8", "lon": -77.032643, "rental_uris": {"ios": "https://dc.lft.to/lastmile_qr_scan", "android": "https://dc.lft.to/lastmile_qr_scan"}}, {"name": "0e55f5d35119e6a39c4d56e982881d99", "fusion_lat": 0.0, "type": "electric_scooter", "lat": 38.8803495, "is_reserved": 0, "is_disabled": 0, "fusion_lon": 0.0, "bike_id": "0e55f5d35119e6a39c4d56e982881d99", "lon": -77.0308295, "rental_uris": {"ios": "https://dc.lft.to/lastmile_qr_scan", "android": "https://dc.lft.to/lastmile_qr_scan"}}, {"name": "75b3c1fec9ac0a83d4fb2d80aa06db1d", "fusion_lat": 0.0, "type": "electric_scooter", "lat": 38.90013583333333, "is_reserved": 0, "is_disabled": 0, "fusion_lon": 0.0, "bike_id": "75b3c1fec9ac0a83d4fb2d80aa06db1d", "lon": -77.0261185, "rental_uris": {"ios": "https://dc.lft.to/lastmile_qr_scan", "android": "https://dc.lft.to/lastmile_qr_scan"}}, {"name": "cdcc5e015df7e929d0375b60ce3a8745", "fusion_lat": 0.0, "type": "electric_bike", "lat": 38.906275666666666, "is_reserved": 0, "is_disabled": 0, "fusion_lon": 0.0, "bike_id": "cdcc5e015df7e929d0375b60ce3a8745", "lon": -76.98613, "rental_uris": {"ios": "https://dc.lft.to/lastmile_qr_scan", "android": "https://dc.lft.to/lastmile_qr_scan"}}, {"name": "7ef1f8daaa66b4925160bd66a348c4ad", "fusion_lat": 0.0, "type": "electric_scooter", "lat": 38.919203833333334, "is_reserved": 0, "is_disabled": 0, "fusion_lon": 0.0, "bike_id": "7ef1f8daaa66b4925160bd66a348c4ad", "lon": -77.03624616666667, "rental_uris": {"ios": "https://dc.lft.to/lastmile_qr_scan", "android": "https://dc.lft.to/lastmile_qr_scan"}}, {"name": "85a28421c129a1c34df80a2019509987", "fusion_lat": 0.0, "type": "electric_bike", "lat": 38.96018466666666, "is_reserved": 0, "is_disabled": 0, "fusion_lon": 0.0, "bike_id": "85a28421c129a1c34df80a2019509987", "lon": -76.9987125, "rental_uris": {"ios": "https://dc.lft.to/lastmile_qr_scan", "android": "https://dc.lft.to/lastmile_qr_scan"}}, {"name": "ca62aed94b270bd95ae1d47f38047afa", "fusion_lat": 0.0, "type": "electric_scooter", "lat": 38.886826666666664, "is_reserved": 0, "is_disabled": 0, "fusion_lon": 0.0, "bike_id": "ca62aed94b270bd95ae1d47f38047afa", "lon": -76.95756266666666, "rental_uris": {"ios": "https://dc.lft.to/lastmile_qr_scan", "android": "https://dc.lft.to/lastmile_qr_scan"}}, {"name": "6c2a0c958fbd03df3fe92b5510f0948f", "fusion_lat": 0.0, "type": "electric_scooter", "lat": 38.882806, "is_reserved": 0, "is_disabled": 0, "fusion_lon": 0.0, "bike_id": "6c2a0c958fbd03df3fe92b5510f0948f", "lon": -76.99833766666667, "rental_uris": {"ios": "https://dc.lft.to/lastmile_qr_scan", "android": "https://dc.lft.to/lastmile_qr_scan"}}, {"name": "dded8846ac24b3011c1da3c8b7287fdb", "fusion_lat": 0.0, "type": "electric_scooter", "lat": 38.94178316666667, "is_reserved": 0, "is_disabled": 0, "fusion_lon": 0.0, "bike_id": "dded8846ac24b3011c1da3c8b7287fdb", "lon": -77.02512416666667, "rental_uris": {"ios": "https://dc.lft.to/lastmile_qr_scan", "android": "https://dc.lft.to/lastmile_qr_scan"}}, {"name": "47582c948eae33f4dd6aeeeeacdcf174", "fusion_lat": 0.0, "type": "electric_scooter", "lat": 38.868947666666664, "is_reserved": 0, "is_disabled": 0, "fusion_lon": 0.0, "bike_id": "47582c948eae33f4dd6aeeeeacdcf174", "lon": -76.98310816666667, "rental_uris": {"ios": "https://dc.lft.to/lastmile_qr_scan", "android": "https://dc.lft.to/lastmile_qr_scan"}}, {"name": "76e9c612f4428cf13f6c28b2c755736e", "fusion_lat": 0.0, "type": "electric_scooter", "lat": 38.920381, "is_reserved": 0, "is_disabled": 0, "fusion_lon": 0.0, "bike_id": "76e9c612f4428cf13f6c28b2c755736e", "lon": -77.02586516666666, "rental_uris": {"ios": "https://dc.lft.to/lastmile_qr_scan", "android": "https://dc.lft.to/lastmile_qr_scan"}}, {"name": "edd7024765b858b4323cc75c818ee56f", "fusion_lat": 0.0, "type": "electric_scooter", "lat": 38.85850166666667, "is_reserved": 0, "is_disabled": 0, "fusion_lon": 0.0, "bike_id": "edd7024765b858b4323cc75c818ee56f", "lon": -76.95885516666667, "rental_uris": {"ios": "https://dc.lft.to/lastmile_qr_scan", "android": "https://dc.lft.to/lastmile_qr_scan"}}, {"name": "14773e83b144335cb5432c577ca852ce", "fusion_lat": 0.0, "type": "electric_bike", "lat": 38.94195783333333, "is_reserved": 0, "is_disabled": 0, "fusion_lon": 0.0, "bike_id": "14773e83b144335cb5432c577ca852ce", "lon": -77.03278233333333, "rental_uris": {"ios": "https://dc.lft.to/lastmile_qr_scan", "android": "https://dc.lft.to/lastmile_qr_scan"}}, {"name": "af410eb3829b0360f38d920a136af4d0", "fusion_lat": 0.0, "type": "electric_scooter", "lat": 38.917036833333334, "is_reserved": 0, "is_disabled": 0, "fusion_lon": 0.0, "bike_id": "af410eb3829b0360f38d920a136af4d0", "lon": -77.02783116666667, "rental_uris": {"ios": "https://dc.lft.to/lastmile_qr_scan", "android": "https://dc.lft.to/lastmile_qr_scan"}}, {"name": "6748e2bf154217c9a9e714961913d250", "fusion_lat": 0.0, "type": "electric_scooter", "lat": 38.90488916666666, "is_reserved": 0, "is_disabled": 0, "fusion_lon": 0.0, "bike_id": "6748e2bf154217c9a9e714961913d250", "lon": -77.06539316666667, "rental_uris": {"ios": "https://dc.lft.to/lastmile_qr_scan", "android": "https://dc.lft.to/lastmile_qr_scan"}}, {"name": "cae1a059a7a7c929b650510a860d028a", "fusion_lat": 0.0, "type": "electric_scooter", "lat": 38.909844, "is_reserved": 0, "is_disabled": 0, "fusion_lon": 0.0, "bike_id": "cae1a059a7a7c929b650510a860d028a", "lon": -77.04592066666666, "rental_uris": {"ios": "https://dc.lft.to/lastmile_qr_scan", "android": "https://dc.lft.to/lastmile_qr_scan"}}, {"name": "42faf1254910be74b20108ff4209aaf7", "fusion_lat": 0.0, "type": "electric_scooter", "lat": 38.9057695, "is_reserved": 0, "is_disabled": 0, "fusion_lon": 0.0, "bike_id": "42faf1254910be74b20108ff4209aaf7", "lon": -77.04872233333333, "rental_uris": {"ios": "https://dc.lft.to/lastmile_qr_scan", "android": "https://dc.lft.to/lastmile_qr_scan"}}, {"name": "6b91968a7e8481ab8189b06ac0b41bfc", "fusion_lat": 0.0, "type": "electric_scooter", "lat": 38.914061333333336, "is_reserved": 0, "is_disabled": 0, "fusion_lon": 0.0, "bike_id": "6b91968a7e8481ab8189b06ac0b41bfc", "lon": -77.03955733333333, "rental_uris": {"ios": "https://dc.lft.to/lastmile_qr_scan", "android": "https://dc.lft.to/lastmile_qr_scan"}}, {"name": "c5f0dfa80a53a0fe7f5f086d788f2632", "fusion_lat": 0.0, "type": "electric_scooter", "lat": 38.919943833333335, "is_reserved": 0, "is_disabled": 0, "fusion_lon": 0.0, "bike_id": "c5f0dfa80a53a0fe7f5f086d788f2632", "lon": -77.02383383333333, "rental_uris": {"ios": "https://dc.lft.to/lastmile_qr_scan", "android": "https://dc.lft.to/lastmile_qr_scan"}}, {"name": "0408c5cea1c93f59b8d5d9b8e0b61df3", "fusion_lat": 0.0, "type": "electric_scooter", "lat": 38.9112235, "is_reserved": 0, "is_disabled": 0, "fusion_lon": 0.0, "bike_id": "0408c5cea1c93f59b8d5d9b8e0b61df3", "lon": -77.0219485, "rental_uris": {"ios": "https://dc.lft.to/lastmile_qr_scan", "android": "https://dc.lft.to/lastmile_qr_scan"}}, {"name": "bd178d9414301050c67f73cf76980e8b", "fusion_lat": 0.0, "type": "electric_bike", "lat": 38.900805, "is_reserved": 0, "is_disabled": 0, "fusion_lon": 0.0, "bike_id": "bd178d9414301050c67f73cf76980e8b", "lon": -77.0131005, "rental_uris": {"ios": "https://dc.lft.to/lastmile_qr_scan", "android": "https://dc.lft.to/lastmile_qr_scan"}}, {"name": "3b51fbc5c9216eb1b844772f9623d438", "fusion_lat": 0.0, "type": "electric_scooter", "lat": 38.92972683333333, "is_reserved": 0, "is_disabled": 0, "fusion_lon": 0.0, "bike_id": "3b51fbc5c9216eb1b844772f9623d438", "lon": -77.01815266666667, "rental_uris": {"ios": "https://dc.lft.to/lastmile_qr_scan", "android": "https://dc.lft.to/lastmile_qr_scan"}}, {"name": "e820bed3ea5efbbf8ee0625ae5749c06", "fusion_lat": 0.0, "type": "electric_scooter", "lat": 38.87656033333333, "is_reserved": 0, "is_disabled": 0, "fusion_lon": 0.0, "bike_id": "e820bed3ea5efbbf8ee0625ae5749c06", "lon": -77.01567333333334, "rental_uris": {"ios": "https://dc.lft.to/lastmile_qr_scan", "android": "https://dc.lft.to/lastmile_qr_scan"}}, {"name": "c3207a31fbe8368c515220e4591d923a", "fusion_lat": 0.0, "type": "electric_scooter", "lat": 38.86505, "is_reserved": 0, "is_disabled": 0, "fusion_lon": 0.0, "bike_id": "c3207a31fbe8368c515220e4591d923a", "lon": -76.99000483333333, "rental_uris": {"ios": "https://dc.lft.to/lastmile_qr_scan", "android": "https://dc.lft.to/lastmile_qr_scan"}}, {"name": "e0a9e1c7491f566f04963ee7abedac55", "fusion_lat": 0.0, "type": "electric_scooter", "lat": 38.894874, "is_reserved": 0, "is_disabled": 0, "fusion_lon": 0.0, "bike_id": "e0a9e1c7491f566f04963ee7abedac55", "lon": -77.030589, "rental_uris": {"ios": "https://dc.lft.to/lastmile_qr_scan", "android": "https://dc.lft.to/lastmile_qr_scan"}}, {"name": "1669c27881c6e39f32d5f4c680cb4dbd", "fusion_lat": 0.0, "type": "electric_scooter", "lat": 38.9057475, "is_reserved": 0, "is_disabled": 0, "fusion_lon": 0.0, "bike_id": "1669c27881c6e39f32d5f4c680cb4dbd", "lon": -77.02216883333334, "rental_uris": {"ios": "https://dc.lft.to/lastmile_qr_scan", "android": "https://dc.lft.to/lastmile_qr_scan"}}, {"name": "f265037535c46a8f3e17e2349494caae", "fusion_lat": 0.0, "type": "electric_scooter", "lat": 38.89754933333333, "is_reserved": 0, "is_disabled": 0, "fusion_lon": 0.0, "bike_id": "f265037535c46a8f3e17e2349494caae", "lon": -77.019832, "rental_uris": {"ios": "https://dc.lft.to/lastmile_qr_scan", "android": "https://dc.lft.to/lastmile_qr_scan"}}, {"name": "d9b118fdf39fb3d2397d1b4ab5779729", "fusion_lat": 0.0, "type": "electric_scooter", "lat": 38.869623, "is_reserved": 0, "is_disabled": 0, "fusion_lon": 0.0, "bike_id": "d9b118fdf39fb3d2397d1b4ab5779729", "lon": -77.01376666666667, "rental_uris": {"ios": "https://dc.lft.to/lastmile_qr_scan", "android": "https://dc.lft.to/lastmile_qr_scan"}}, {"name": "3d25228ffe95419c5f813e6dd48537d8", "fusion_lat": 0.0, "type": "electric_scooter", "lat": 38.91749733333333, "is_reserved": 0, "is_disabled": 0, "fusion_lon": 0.0, "bike_id": "3d25228ffe95419c5f813e6dd48537d8", "lon": -77.03640666666666, "rental_uris": {"ios": "https://dc.lft.to/lastmile_qr_scan", "android": "https://dc.lft.to/lastmile_qr_scan"}}, {"name": "0ce31431fe9fb8d7e0e2e02f547fdc73", "fusion_lat": 0.0, "type": "electric_scooter", "lat": 38.899845166666665, "is_reserved": 0, "is_disabled": 0, "fusion_lon": 0.0, "bike_id": "0ce31431fe9fb8d7e0e2e02f547fdc73", "lon": -77.03946066666667, "rental_uris": {"ios": "https://dc.lft.to/lastmile_qr_scan", "android": "https://dc.lft.to/lastmile_qr_scan"}}, {"name": "ca49c72d6aab28f1d0311dd65e4491fa", "fusion_lat": 0.0, "type": "electric_scooter", "lat": 38.92673333333333, "is_reserved": 0, "is_disabled": 0, "fusion_lon": 0.0, "bike_id": "ca49c72d6aab28f1d0311dd65e4491fa", "lon": -76.9953205, "rental_uris": {"ios": "https://dc.lft.to/lastmile_qr_scan", "android": "https://dc.lft.to/lastmile_qr_scan"}}, {"name": "5252166f94885804199eab4a0b6977ed", "fusion_lat": 0.0, "type": "electric_scooter", "lat": 38.925934, "is_reserved": 0, "is_disabled": 0, "fusion_lon": 0.0, "bike_id": "5252166f94885804199eab4a0b6977ed", "lon": -77.00853716666667, "rental_uris": {"ios": "https://dc.lft.to/lastmile_qr_scan", "android": "https://dc.lft.to/lastmile_qr_scan"}}, {"name": "e4e02e0cf0d9793aca2b063c838c4e74", "fusion_lat": 0.0, "type": "electric_scooter", "lat": 38.930359, "is_reserved": 0, "is_disabled": 0, "fusion_lon": 0.0, "bike_id": "e4e02e0cf0d9793aca2b063c838c4e74", "lon": -77.08364083333333, "rental_uris": {"ios": "https://dc.lft.to/lastmile_qr_scan", "android": "https://dc.lft.to/lastmile_qr_scan"}}, {"name": "9e7138817621122509f639dc3794f3c4", "fusion_lat": 0.0, "type": "electric_scooter", "lat": 38.91815866666666, "is_reserved": 0, "is_disabled": 0, "fusion_lon": 0.0, "bike_id": "9e7138817621122509f639dc3794f3c4", "lon": -77.03201583333333, "rental_uris": {"ios": "https://dc.lft.to/lastmile_qr_scan", "android": "https://dc.lft.to/lastmile_qr_scan"}}, {"name": "09788fdc2e6dca4fd196ad10af88f117", "fusion_lat": 0.0, "type": "electric_scooter", "lat": 38.9024365, "is_reserved": 0, "is_disabled": 0, "fusion_lon": 0.0, "bike_id": "09788fdc2e6dca4fd196ad10af88f117", "lon": -77.05147383333333, "rental_uris": {"ios": "https://dc.lft.to/lastmile_qr_scan", "android": "https://dc.lft.to/lastmile_qr_scan"}}, {"name": "a0f8987d740487a7a7a25ad227895b78", "fusion_lat": 0.0, "type": "electric_scooter", "lat": 38.92482, "is_reserved": 0, "is_disabled": 0, "fusion_lon": 0.0, "bike_id": "a0f8987d740487a7a7a25ad227895b78", "lon": -77.02997483333333, "rental_uris": {"ios": "https://dc.lft.to/lastmile_qr_scan", "android": "https://dc.lft.to/lastmile_qr_scan"}}, {"name": "4379678ed61ec212844f44094e7be904", "fusion_lat": 0.0, "type": "electric_bike", "lat": 38.888236166666665, "is_reserved": 0, "is_disabled": 0, "fusion_lon": 0.0, "bike_id": "4379678ed61ec212844f44094e7be904", "lon": -77.12744433333333, "rental_uris": {"ios": "https://dc.lft.to/lastmile_qr_scan", "android": "https://dc.lft.to/lastmile_qr_scan"}}, {"name": "15c02b85fb257285c48a91f475986ed8", "fusion_lat": 0.0, "type": "electric_scooter", "lat": 38.897859833333335, "is_reserved": 0, "is_disabled": 0, "fusion_lon": 0.0, "bike_id": "15c02b85fb257285c48a91f475986ed8", "lon": -77.05133416666666, "rental_uris": {"ios": "https://dc.lft.to/lastmile_qr_scan", "android": "https://dc.lft.to/lastmile_qr_scan"}}, {"name": "4148d9dece8bf26170c6f95b1cba0d88", "fusion_lat": 0.0, "type": "electric_scooter", "lat": 38.938896, "is_reserved": 0, "is_disabled": 0, "fusion_lon": 0.0, "bike_id": "4148d9dece8bf26170c6f95b1cba0d88", "lon": -77.01756733333333, "rental_uris": {"ios": "https://dc.lft.to/lastmile_qr_scan", "android": "https://dc.lft.to/lastmile_qr_scan"}}, {"name": "f3d23090038dc9b11f237abc04a4b2d0", "fusion_lat": 0.0, "type": "electric_scooter", "lat": 38.9117505, "is_reserved": 0, "is_disabled": 0, "fusion_lon": 0.0, "bike_id": "f3d23090038dc9b11f237abc04a4b2d0", "lon": -76.98774483333334, "rental_uris": {"ios": "https://dc.lft.to/lastmile_qr_scan", "android": "https://dc.lft.to/lastmile_qr_scan"}}, {"name": "09df98943c3ee28f6b5befbd02b2179f", "fusion_lat": 0.0, "type": "electric_scooter", "lat": 38.91566233333333, "is_reserved": 0, "is_disabled": 0, "fusion_lon": 0.0, "bike_id": "09df98943c3ee28f6b5befbd02b2179f", "lon": -77.032424, "rental_uris": {"ios": "https://dc.lft.to/lastmile_qr_scan", "android": "https://dc.lft.to/lastmile_qr_scan"}}, {"name": "7a7b471b24b26b1a655f67b7b60a9309", "fusion_lat": 0.0, "type": "electric_scooter", "lat": 38.89223116666667, "is_reserved": 0, "is_disabled": 0, "fusion_lon": 0.0, "bike_id": "7a7b471b24b26b1a655f67b7b60a9309", "lon": -77.0223025, "rental_uris": {"ios": "https://dc.lft.to/lastmile_qr_scan", "android": "https://dc.lft.to/lastmile_qr_scan"}}, {"name": "d149bab1d732359b3ffde6ad3922ae35", "fusion_lat": 0.0, "type": "electric_scooter", "lat": 38.912865, "is_reserved": 0, "is_disabled": 0, "fusion_lon": 0.0, "bike_id": "d149bab1d732359b3ffde6ad3922ae35", "lon": -76.93798983333333, "rental_uris": {"ios": "https://dc.lft.to/lastmile_qr_scan", "android": "https://dc.lft.to/lastmile_qr_scan"}}, {"name": "2dae7ade299eeb2c626d0e950be791ad", "fusion_lat": 0.0, "type": "electric_scooter", "lat": 38.90654416666667, "is_reserved": 0, "is_disabled": 0, "fusion_lon": 0.0, "bike_id": "2dae7ade299eeb2c626d0e950be791ad", "lon": -77.05326766666667, "rental_uris": {"ios": "https://dc.lft.to/lastmile_qr_scan", "android": "https://dc.lft.to/lastmile_qr_scan"}}, {"name": "3f4ec11a28b18fcb8185686d77f440bc", "fusion_lat": 0.0, "type": "electric_scooter", "lat": 38.89899283333333, "is_reserved": 0, "is_disabled": 0, "fusion_lon": 0.0, "bike_id": "3f4ec11a28b18fcb8185686d77f440bc", "lon": -77.0394055, "rental_uris": {"ios": "https://dc.lft.to/lastmile_qr_scan", "android": "https://dc.lft.to/lastmile_qr_scan"}}, {"name": "eb284042c47634bdbb4e96a5f4884c68", "fusion_lat": 0.0, "type": "electric_scooter", "lat": 38.916240333333334, "is_reserved": 0, "is_disabled": 0, "fusion_lon": 0.0, "bike_id": "eb284042c47634bdbb4e96a5f4884c68", "lon": -77.03641416666666, "rental_uris": {"ios": "https://dc.lft.to/lastmile_qr_scan", "android": "https://dc.lft.to/lastmile_qr_scan"}}, {"name": "5b5f10fa16c7f74e53b6ea6574913dd8", "fusion_lat": 0.0, "type": "electric_scooter", "lat": 38.919218, "is_reserved": 0, "is_disabled": 0, "fusion_lon": 0.0, "bike_id": "5b5f10fa16c7f74e53b6ea6574913dd8", "lon": -77.03207666666667, "rental_uris": {"ios": "https://dc.lft.to/lastmile_qr_scan", "android": "https://dc.lft.to/lastmile_qr_scan"}}, {"name": "60fad6f7d8ce9435e9fe719a8cd1c958", "fusion_lat": 0.0, "type": "electric_scooter", "lat": 38.89542566666667, "is_reserved": 0, "is_disabled": 0, "fusion_lon": 0.0, "bike_id": "60fad6f7d8ce9435e9fe719a8cd1c958", "lon": -77.0293525, "rental_uris": {"ios": "https://dc.lft.to/lastmile_qr_scan", "android": "https://dc.lft.to/lastmile_qr_scan"}}, {"name": "2674717141f82a706756796470e7f1d2", "fusion_lat": 0.0, "type": "electric_scooter", "lat": 38.88732516666666, "is_reserved": 0, "is_disabled": 0, "fusion_lon": 0.0, "bike_id": "2674717141f82a706756796470e7f1d2", "lon": -77.01766416666666, "rental_uris": {"ios": "https://dc.lft.to/lastmile_qr_scan", "android": "https://dc.lft.to/lastmile_qr_scan"}}, {"name": "b9349dc7daac26390bfb1a43d88b62d6", "fusion_lat": 0.0, "type": "electric_scooter", "lat": 38.92069716666666, "is_reserved": 0, "is_disabled": 0, "fusion_lon": 0.0, "bike_id": "b9349dc7daac26390bfb1a43d88b62d6", "lon": -76.998504, "rental_uris": {"ios": "https://dc.lft.to/lastmile_qr_scan", "android": "https://dc.lft.to/lastmile_qr_scan"}}, {"name": "1da87dd9b8002e0e1c9422ea21a357bf", "fusion_lat": 0.0, "type": "electric_bike", "lat": 38.94627233333333, "is_reserved": 0, "is_disabled": 0, "fusion_lon": 0.0, "bike_id": "1da87dd9b8002e0e1c9422ea21a357bf", "lon": -76.946294, "rental_uris": {"ios": "https://dc.lft.to/lastmile_qr_scan", "android": "https://dc.lft.to/lastmile_qr_scan"}}, {"name": "6adba15019162749b9dd7ceee5a37eed", "fusion_lat": 0.0, "type": "electric_scooter", "lat": 38.91788833333333, "is_reserved": 0, "is_disabled": 0, "fusion_lon": 0.0, "bike_id": "6adba15019162749b9dd7ceee5a37eed", "lon": -77.02302483333334, "rental_uris": {"ios": "https://dc.lft.to/lastmile_qr_scan", "android": "https://dc.lft.to/lastmile_qr_scan"}}, {"name": "1f39150e1222c778899e34ca5460ad02", "fusion_lat": 0.0, "type": "electric_scooter", "lat": 38.92163816666667, "is_reserved": 0, "is_disabled": 0, "fusion_lon": 0.0, "bike_id": "1f39150e1222c778899e34ca5460ad02", "lon": -77.0342815, "rental_uris": {"ios": "https://dc.lft.to/lastmile_qr_scan", "android": "https://dc.lft.to/lastmile_qr_scan"}}, {"name": "35ed10c60b983034af5ad5bdc3f40bd8", "fusion_lat": 0.0, "type": "electric_scooter", "lat": 38.8805165, "is_reserved": 0, "is_disabled": 0, "fusion_lon": 0.0, "bike_id": "35ed10c60b983034af5ad5bdc3f40bd8", "lon": -77.01326, "rental_uris": {"ios": "https://dc.lft.to/lastmile_qr_scan", "android": "https://dc.lft.to/lastmile_qr_scan"}}, {"name": "0ac7d9c31bad2456f6307f162366f3ed", "fusion_lat": 0.0, "type": "electric_scooter", "lat": 38.900461, "is_reserved": 0, "is_disabled": 0, "fusion_lon": 0.0, "bike_id": "0ac7d9c31bad2456f6307f162366f3ed", "lon": -77.03974866666667, "rental_uris": {"ios": "https://dc.lft.to/lastmile_qr_scan", "android": "https://dc.lft.to/lastmile_qr_scan"}}, {"name": "b3cb4d3de74d5671535034fd24998339", "fusion_lat": 0.0, "type": "electric_scooter", "lat": 38.911876666666664, "is_reserved": 0, "is_disabled": 0, "fusion_lon": 0.0, "bike_id": "b3cb4d3de74d5671535034fd24998339", "lon": -77.04500366666667, "rental_uris": {"ios": "https://dc.lft.to/lastmile_qr_scan", "android": "https://dc.lft.to/lastmile_qr_scan"}}, {"name": "1cfbc08765ad551e59136bb6a66d6fc9", "fusion_lat": 0.0, "type": "electric_scooter", "lat": 38.87476683333333, "is_reserved": 0, "is_disabled": 0, "fusion_lon": 0.0, "bike_id": "1cfbc08765ad551e59136bb6a66d6fc9", "lon": -77.010579, "rental_uris": {"ios": "https://dc.lft.to/lastmile_qr_scan", "android": "https://dc.lft.to/lastmile_qr_scan"}}, {"name": "a122483115220d6444cc2ac767c9ae0e", "fusion_lat": 0.0, "type": "electric_scooter", "lat": 38.923610833333335, "is_reserved": 0, "is_disabled": 0, "fusion_lon": 0.0, "bike_id": "a122483115220d6444cc2ac767c9ae0e", "lon": -77.0506385, "rental_uris": {"ios": "https://dc.lft.to/lastmile_qr_scan", "android": "https://dc.lft.to/lastmile_qr_scan"}}, {"name": "6a38b71b95f0ea1a973661d86aeedc18", "fusion_lat": 0.0, "type": "electric_scooter", "lat": 38.91544916666667, "is_reserved": 0, "is_disabled": 0, "fusion_lon": 0.0, "bike_id": "6a38b71b95f0ea1a973661d86aeedc18", "lon": -77.03858366666667, "rental_uris": {"ios": "https://dc.lft.to/lastmile_qr_scan", "android": "https://dc.lft.to/lastmile_qr_scan"}}, {"name": "7ec951e880abefe657fc4d13bfc4ef41", "fusion_lat": 0.0, "type": "electric_scooter", "lat": 38.89594683333333, "is_reserved": 0, "is_disabled": 0, "fusion_lon": 0.0, "bike_id": "7ec951e880abefe657fc4d13bfc4ef41", "lon": -76.94862583333334, "rental_uris": {"ios": "https://dc.lft.to/lastmile_qr_scan", "android": "https://dc.lft.to/lastmile_qr_scan"}}, {"name": "ab268777c4a356001ddddaa242f18b3f", "fusion_lat": 0.0, "type": "electric_scooter", "lat": 38.91699833333333, "is_reserved": 0, "is_disabled": 0, "fusion_lon": 0.0, "bike_id": "ab268777c4a356001ddddaa242f18b3f", "lon": -77.03938083333334, "rental_uris": {"ios": "https://dc.lft.to/lastmile_qr_scan", "android": "https://dc.lft.to/lastmile_qr_scan"}}, {"name": "dd0401b1f22d90414ababfa37853fd60", "fusion_lat": 0.0, "type": "electric_bike", "lat": 38.89652233333333, "is_reserved": 0, "is_disabled": 0, "fusion_lon": 0.0, "bike_id": "dd0401b1f22d90414ababfa37853fd60", "lon": -77.10453266666667, "rental_uris": {"ios": "https://dc.lft.to/lastmile_qr_scan", "android": "https://dc.lft.to/lastmile_qr_scan"}}, {"name": "98ce05de2c34b9eda3dff5ce9d495654", "fusion_lat": 0.0, "type": "electric_scooter", "lat": 38.918820833333335, "is_reserved": 0, "is_disabled": 0, "fusion_lon": 0.0, "bike_id": "98ce05de2c34b9eda3dff5ce9d495654", "lon": -77.0349935, "rental_uris": {"ios": "https://dc.lft.to/lastmile_qr_scan", "android": "https://dc.lft.to/lastmile_qr_scan"}}, {"name": "0eca7ccde60049bc661cdc30669b5a7b", "fusion_lat": 0.0, "type": "electric_scooter", "lat": 38.914141666666666, "is_reserved": 0, "is_disabled": 0, "fusion_lon": 0.0, "bike_id": "0eca7ccde60049bc661cdc30669b5a7b", "lon": -77.00969566666667, "rental_uris": {"ios": "https://dc.lft.to/lastmile_qr_scan", "android": "https://dc.lft.to/lastmile_qr_scan"}}, {"name": "4fe5a071b2e8ab829dd5fa080cdcf930", "fusion_lat": 0.0, "type": "electric_bike", "lat": 38.86873333333333, "is_reserved": 0, "is_disabled": 0, "fusion_lon": 0.0, "bike_id": "4fe5a071b2e8ab829dd5fa080cdcf930", "lon": -76.9166495, "rental_uris": {"ios": "https://dc.lft.to/lastmile_qr_scan", "android": "https://dc.lft.to/lastmile_qr_scan"}}, {"name": "cb41f6f4ce109e454b374e1907f3c8af", "fusion_lat": 0.0, "type": "electric_scooter", "lat": 38.903924, "is_reserved": 0, "is_disabled": 0, "fusion_lon": 0.0, "bike_id": "cb41f6f4ce109e454b374e1907f3c8af", "lon": -76.9899995, "rental_uris": {"ios": "https://dc.lft.to/lastmile_qr_scan", "android": "https://dc.lft.to/lastmile_qr_scan"}}, {"name": "4aa3e177aed66b2dad7dc7523fe592e0", "fusion_lat": 0.0, "type": "electric_scooter", "lat": 38.9218245, "is_reserved": 0, "is_disabled": 0, "fusion_lon": 0.0, "bike_id": "4aa3e177aed66b2dad7dc7523fe592e0", "lon": -77.02416283333334, "rental_uris": {"ios": "https://dc.lft.to/lastmile_qr_scan", "android": "https://dc.lft.to/lastmile_qr_scan"}}, {"name": "eb2c52ca5c3565051c2f85fee9112ad7", "fusion_lat": 0.0, "type": "electric_scooter", "lat": 38.936373833333334, "is_reserved": 0, "is_disabled": 0, "fusion_lon": 0.0, "bike_id": "eb2c52ca5c3565051c2f85fee9112ad7", "lon": -77.036622, "rental_uris": {"ios": "https://dc.lft.to/lastmile_qr_scan", "android": "https://dc.lft.to/lastmile_qr_scan"}}, {"name": "5406743ee045ab2bd6367aa0e9aef90a", "fusion_lat": 0.0, "type": "electric_scooter", "lat": 38.905905833333335, "is_reserved": 0, "is_disabled": 0, "fusion_lon": 0.0, "bike_id": "5406743ee045ab2bd6367aa0e9aef90a", "lon": -77.03716983333334, "rental_uris": {"ios": "https://dc.lft.to/lastmile_qr_scan", "android": "https://dc.lft.to/lastmile_qr_scan"}}, {"name": "b38dcc1b6f958bc668e7889ebbd2ef00", "fusion_lat": 0.0, "type": "electric_scooter", "lat": 38.920624333333336, "is_reserved": 0, "is_disabled": 0, "fusion_lon": 0.0, "bike_id": "b38dcc1b6f958bc668e7889ebbd2ef00", "lon": -77.03467183333333, "rental_uris": {"ios": "https://dc.lft.to/lastmile_qr_scan", "android": "https://dc.lft.to/lastmile_qr_scan"}}, {"name": "4fbcfeee2b01b10b95d0295289f1d533", "fusion_lat": 0.0, "type": "electric_scooter", "lat": 38.868298, "is_reserved": 0, "is_disabled": 0, "fusion_lon": 0.0, "bike_id": "4fbcfeee2b01b10b95d0295289f1d533", "lon": -76.98616, "rental_uris": {"ios": "https://dc.lft.to/lastmile_qr_scan", "android": "https://dc.lft.to/lastmile_qr_scan"}}, {"name": "f07f5bf42680840a3456eb1b662c9e84", "fusion_lat": 0.0, "type": "electric_scooter", "lat": 38.914147666666665, "is_reserved": 0, "is_disabled": 0, "fusion_lon": 0.0, "bike_id": "f07f5bf42680840a3456eb1b662c9e84", "lon": -77.03109783333333, "rental_uris": {"ios": "https://dc.lft.to/lastmile_qr_scan", "android": "https://dc.lft.to/lastmile_qr_scan"}}, {"name": "4b4d1b289174728604df03ad7c02bc35", "fusion_lat": 0.0, "type": "electric_scooter", "lat": 38.91195, "is_reserved": 0, "is_disabled": 0, "fusion_lon": 0.0, "bike_id": "4b4d1b289174728604df03ad7c02bc35", "lon": -77.04493616666667, "rental_uris": {"ios": "https://dc.lft.to/lastmile_qr_scan", "android": "https://dc.lft.to/lastmile_qr_scan"}}, {"name": "1de4469bef2fd3162e81bec692e3e30f", "fusion_lat": 0.0, "type": "electric_scooter", "lat": 38.915932833333336, "is_reserved": 0, "is_disabled": 0, "fusion_lon": 0.0, "bike_id": "1de4469bef2fd3162e81bec692e3e30f", "lon": -77.04257683333333, "rental_uris": {"ios": "https://dc.lft.to/lastmile_qr_scan", "android": "https://dc.lft.to/lastmile_qr_scan"}}, {"name": "8f10e3acdcba4f20b1d9444218d91842", "fusion_lat": 0.0, "type": "electric_scooter", "lat": 38.93872966666667, "is_reserved": 0, "is_disabled": 0, "fusion_lon": 0.0, "bike_id": "8f10e3acdcba4f20b1d9444218d91842", "lon": -77.02220466666667, "rental_uris": {"ios": "https://dc.lft.to/lastmile_qr_scan", "android": "https://dc.lft.to/lastmile_qr_scan"}}, {"name": "9ce92d90b7b2bdc31103eefbfad223cc", "fusion_lat": 0.0, "type": "electric_scooter", "lat": 38.87639933333333, "is_reserved": 0, "is_disabled": 0, "fusion_lon": 0.0, "bike_id": "9ce92d90b7b2bdc31103eefbfad223cc", "lon": -77.01473733333333, "rental_uris": {"ios": "https://dc.lft.to/lastmile_qr_scan", "android": "https://dc.lft.to/lastmile_qr_scan"}}, {"name": "ed186e248a0962330b09ca26e3a9cc7b", "fusion_lat": 0.0, "type": "electric_scooter", "lat": 38.9003285, "is_reserved": 0, "is_disabled": 0, "fusion_lon": 0.0, "bike_id": "ed186e248a0962330b09ca26e3a9cc7b", "lon": -76.99861416666667, "rental_uris": {"ios": "https://dc.lft.to/lastmile_qr_scan", "android": "https://dc.lft.to/lastmile_qr_scan"}}, {"name": "e96c6beee80d0183a0d683fe1b878ff3", "fusion_lat": 0.0, "type": "electric_scooter", "lat": 38.91408466666667, "is_reserved": 0, "is_disabled": 0, "fusion_lon": 0.0, "bike_id": "e96c6beee80d0183a0d683fe1b878ff3", "lon": -77.0395205, "rental_uris": {"ios": "https://dc.lft.to/lastmile_qr_scan", "android": "https://dc.lft.to/lastmile_qr_scan"}}, {"name": "43e54c7d1b0bc7a4d1382e35fbf0263d", "fusion_lat": 0.0, "type": "electric_scooter", "lat": 38.920952166666666, "is_reserved": 0, "is_disabled": 0, "fusion_lon": 0.0, "bike_id": "43e54c7d1b0bc7a4d1382e35fbf0263d", "lon": -77.0137885, "rental_uris": {"ios": "https://dc.lft.to/lastmile_qr_scan", "android": "https://dc.lft.to/lastmile_qr_scan"}}, {"name": "b6fbdfa1c654ac38678bdf9d1ddfe111", "fusion_lat": 0.0, "type": "electric_scooter", "lat": 38.92020316666667, "is_reserved": 0, "is_disabled": 0, "fusion_lon": 0.0, "bike_id": "b6fbdfa1c654ac38678bdf9d1ddfe111", "lon": -77.03480933333333, "rental_uris": {"ios": "https://dc.lft.to/lastmile_qr_scan", "android": "https://dc.lft.to/lastmile_qr_scan"}}, {"name": "712b37c764d14ef61d14cb6291bcb738", "fusion_lat": 0.0, "type": "electric_bike", "lat": 38.8506615, "is_reserved": 0, "is_disabled": 0, "fusion_lon": 0.0, "bike_id": "712b37c764d14ef61d14cb6291bcb738", "lon": -76.97329216666667, "rental_uris": {"ios": "https://dc.lft.to/lastmile_qr_scan", "android": "https://dc.lft.to/lastmile_qr_scan"}}, {"name": "265e7ad0764e4a9fc9d8fb086cf079d0", "fusion_lat": 0.0, "type": "electric_scooter", "lat": 38.9617825, "is_reserved": 0, "is_disabled": 0, "fusion_lon": 0.0, "bike_id": "265e7ad0764e4a9fc9d8fb086cf079d0", "lon": -77.03225716666667, "rental_uris": {"ios": "https://dc.lft.to/lastmile_qr_scan", "android": "https://dc.lft.to/lastmile_qr_scan"}}, {"name": "0f76c774ee199c4313bf982d57c9ae13", "fusion_lat": 0.0, "type": "electric_scooter", "lat": 38.896055833333335, "is_reserved": 0, "is_disabled": 0, "fusion_lon": 0.0, "bike_id": "0f76c774ee199c4313bf982d57c9ae13", "lon": -77.046761, "rental_uris": {"ios": "https://dc.lft.to/lastmile_qr_scan", "android": "https://dc.lft.to/lastmile_qr_scan"}}, {"name": "62ab9e2a1318fd5236b96f6a6379ad25", "fusion_lat": 0.0, "type": "electric_scooter", "lat": 38.902393000000004, "is_reserved": 0, "is_disabled": 0, "fusion_lon": 0.0, "bike_id": "62ab9e2a1318fd5236b96f6a6379ad25", "lon": -77.04609383333333, "rental_uris": {"ios": "https://dc.lft.to/lastmile_qr_scan", "android": "https://dc.lft.to/lastmile_qr_scan"}}, {"name": "7fbbdb1425f52d191a230e8199857161", "fusion_lat": 0.0, "type": "electric_scooter", "lat": 38.925302, "is_reserved": 0, "is_disabled": 0, "fusion_lon": 0.0, "bike_id": "7fbbdb1425f52d191a230e8199857161", "lon": -77.032198, "rental_uris": {"ios": "https://dc.lft.to/lastmile_qr_scan", "android": "https://dc.lft.to/lastmile_qr_scan"}}, {"name": "0f062f9c8b414f7c1511e0c4571a706b", "fusion_lat": 0.0, "type": "electric_scooter", "lat": 38.93688066666667, "is_reserved": 0, "is_disabled": 0, "fusion_lon": 0.0, "bike_id": "0f062f9c8b414f7c1511e0c4571a706b", "lon": -77.0328415, "rental_uris": {"ios": "https://dc.lft.to/lastmile_qr_scan", "android": "https://dc.lft.to/lastmile_qr_scan"}}, {"name": "d424dc8919ca87ff8c61c94042a223ad", "fusion_lat": 0.0, "type": "electric_scooter", "lat": 38.896598, "is_reserved": 0, "is_disabled": 0, "fusion_lon": 0.0, "bike_id": "d424dc8919ca87ff8c61c94042a223ad", "lon": -77.05036033333333, "rental_uris": {"ios": "https://dc.lft.to/lastmile_qr_scan", "android": "https://dc.lft.to/lastmile_qr_scan"}}, {"name": "3b749775be50bf72868419b71573b344", "fusion_lat": 0.0, "type": "electric_scooter", "lat": 38.924369166666665, "is_reserved": 0, "is_disabled": 0, "fusion_lon": 0.0, "bike_id": "3b749775be50bf72868419b71573b344", "lon": -77.04127233333334, "rental_uris": {"ios": "https://dc.lft.to/lastmile_qr_scan", "android": "https://dc.lft.to/lastmile_qr_scan"}}, {"name": "fe23d75a9e277307fa49191a397954dd", "fusion_lat": 0.0, "type": "electric_scooter", "lat": 38.92068616666667, "is_reserved": 0, "is_disabled": 0, "fusion_lon": 0.0, "bike_id": "fe23d75a9e277307fa49191a397954dd", "lon": -77.04707316666666, "rental_uris": {"ios": "https://dc.lft.to/lastmile_qr_scan", "android": "https://dc.lft.to/lastmile_qr_scan"}}, {"name": "fe0219cc89d38314a26ff8f2e6c4de55", "fusion_lat": 0.0, "type": "electric_scooter", "lat": 38.919875, "is_reserved": 0, "is_disabled": 0, "fusion_lon": 0.0, "bike_id": "fe0219cc89d38314a26ff8f2e6c4de55", "lon": -77.0331365, "rental_uris": {"ios": "https://dc.lft.to/lastmile_qr_scan", "android": "https://dc.lft.to/lastmile_qr_scan"}}, {"name": "fe01588675585c303fc6bd94143bbe36", "fusion_lat": 0.0, "type": "electric_bike", "lat": 38.96551933333333, "is_reserved": 0, "is_disabled": 0, "fusion_lon": 0.0, "bike_id": "fe01588675585c303fc6bd94143bbe36", "lon": -77.03511933333333, "rental_uris": {"ios": "https://dc.lft.to/lastmile_qr_scan", "android": "https://dc.lft.to/lastmile_qr_scan"}}, {"name": "23f55f80233a62571f3486281f85669c", "fusion_lat": 0.0, "type": "electric_scooter", "lat": 38.931785833333336, "is_reserved": 0, "is_disabled": 0, "fusion_lon": 0.0, "bike_id": "23f55f80233a62571f3486281f85669c", "lon": -77.0561575, "rental_uris": {"ios": "https://dc.lft.to/lastmile_qr_scan", "android": "https://dc.lft.to/lastmile_qr_scan"}}, {"name": "907f3d441643ea8ddb80af60d3a6f4c0", "fusion_lat": 0.0, "type": "electric_scooter", "lat": 38.862053, "is_reserved": 0, "is_disabled": 0, "fusion_lon": 0.0, "bike_id": "907f3d441643ea8ddb80af60d3a6f4c0", "lon": -76.97352616666667, "rental_uris": {"ios": "https://dc.lft.to/lastmile_qr_scan", "android": "https://dc.lft.to/lastmile_qr_scan"}}, {"name": "c012d6f9126c1ed70f213f81bbf81fd0", "fusion_lat": 0.0, "type": "electric_scooter", "lat": 38.9085585, "is_reserved": 0, "is_disabled": 0, "fusion_lon": 0.0, "bike_id": "c012d6f9126c1ed70f213f81bbf81fd0", "lon": -77.04492933333333, "rental_uris": {"ios": "https://dc.lft.to/lastmile_qr_scan", "android": "https://dc.lft.to/lastmile_qr_scan"}}, {"name": "69d76468ef9538b153dc99c6efc7a1bb", "fusion_lat": 0.0, "type": "electric_scooter", "lat": 38.89095283333333, "is_reserved": 0, "is_disabled": 0, "fusion_lon": 0.0, "bike_id": "69d76468ef9538b153dc99c6efc7a1bb", "lon": -76.99790766666666, "rental_uris": {"ios": "https://dc.lft.to/lastmile_qr_scan", "android": "https://dc.lft.to/lastmile_qr_scan"}}, {"name": "512551339ffbc121ee1674204b52fa7c", "fusion_lat": 0.0, "type": "electric_scooter", "lat": 38.908610833333334, "is_reserved": 0, "is_disabled": 0, "fusion_lon": 0.0, "bike_id": "512551339ffbc121ee1674204b52fa7c", "lon": -77.032784, "rental_uris": {"ios": "https://dc.lft.to/lastmile_qr_scan", "android": "https://dc.lft.to/lastmile_qr_scan"}}, {"name": "f0df4b5f17fec022c0f389eccd844455", "fusion_lat": 0.0, "type": "electric_scooter", "lat": 38.900300666666666, "is_reserved": 0, "is_disabled": 0, "fusion_lon": 0.0, "bike_id": "f0df4b5f17fec022c0f389eccd844455", "lon": -77.0298005, "rental_uris": {"ios": "https://dc.lft.to/lastmile_qr_scan", "android": "https://dc.lft.to/lastmile_qr_scan"}},