{"data": {"bikes": [{"rental_uris": {"android": "https://dc.lft.to/lastmile_qr_scan", "ios": "https://dc.lft.to/lastmile_qr_scan"}, "bike_id": "cd680a9d9eca3bd1c468632a69b821ba", "name": "cd680a9d9eca3bd1c468632a69b821ba", "type": "electric_bike", "lon": -76.93885633333333, "lat": 38.956273333333336, "is_disabled": 0, "is_reserved": 0, "fusion_lat": 0.0, "fusion_lon": 0.0}, {"rental_uris": {"android": "https://dc.lft.to/lastmile_qr_scan", "ios": "https://dc.lft.to/lastmile_qr_scan"}, "bike_id": "d9582e5605a9d8a8a5d1cea3850c0252", "name": "d9582e5605a9d8a8a5d1cea3850c0252", "type": "electric_scooter", "lon": -77.02187416666666, "lat": 38.9148485, "is_disabled": 0, "is_reserved": 0, "fusion_lat": 0.0, "fusion_lon": 0.0}, {"rental_uris": {"android": "https://dc.lft.to/lastmile_qr_scan", "ios": "https://dc.lft.to/lastmile_qr_scan"}, "bike_id": "532f513750010eb5aeed35de04926635", "name": "532f513750010eb5aeed35de04926635", "type": "electric_scooter", "lon": -77.02882033333333, "lat": 38.939793333333334, "is_disabled": 0, "is_reserved": 0, "fusion_lat": 0.0, "fusion_lon": 0.0}, {"rental_uris": {"android": "https://dc.lft.to/lastmile_qr_scan", "ios": "https://dc.lft.to/lastmile_qr_scan"}, "bike_id": "083ebd111cb199cb3fb42ae32e1fe30d", "name": "083ebd111cb199cb3fb42ae32e1fe30d", "type": "electric_bike", "lon": -77.00383716666667, "lat": 38.8360665, "is_disabled": 0, "is_reserved": 0, "fusion_lat": 0.0, "fusion_lon": 0.0}, {"rental_uris": {"android": "https://dc.lft.to/lastmile_qr_scan", "ios": "https://dc.lft.to/lastmile_qr_scan"}, "bike_id": "4df29cc65562b0fc6c247b30127d8104", "name": "4df29cc65562b0fc6c247b30127d8104", "type": "electric_scooter", "lon": -77.0343715, "lat": 38.918384, "is_disabled": 0, "is_reserved": 0, "fusion_lat": 0.0, "fusion_lon": 0.0}, {"rental_uris": {"android": "https://dc.lft.to/lastmile_qr_scan", "ios": "https://dc.lft.to/lastmile_qr_scan"}, "bike_id": "9dae0004e3a3251f63c6b6974a18dafc", "name": "9dae0004e3a3251f63c6b6974a18dafc", "type": "electric_scooter", "lon": -77.04479033333334, "lat": 38.9187065, "is_disabled": 0, "is_reserved": 0, "fusion_lat": 0.0, "fusion_lon": 0.0}, {"rental_uris": {"android": "https://dc.lft.to/lastmile_qr_scan", "ios": "https://dc.lft.to/lastmile_qr_scan"}, "bike_id": "849c3bcb15d87d24493f298ee56467be", "name": "849c3bcb15d87d24493f298ee56467be", "type": "electric_scooter", "lon": -77.014049, "lat": 38.881190333333336, "is_disabled": 0, "is_reserved": 0, "fusion_lat": 0.0, "fusion_lon": 0.0}, {"rental_uris": {"android": "https://dc.lft.to/lastmile_qr_scan", "ios": "https://dc.lft.to/lastmile_qr_scan"}, "bike_id": "e744ad830b27471d5cc8f520dbc05ad3", "name": "e744ad830b27471d5cc8f520dbc05ad3", "type": "electric_scooter", "lon": -77.04644466666667, "lat": 38.91918016666666, "is_disabled": 0, "is_reserved": 0, "fusion_lat": 0.0, "fusion_lon": 0.0}, {"rental_uris": {"android": "https://dc.lft.to/lastmile_qr_scan", "ios": "https://dc.lft.to/lastmile_qr_scan"}, "bike_id": "b5c80f767056a76e4f3a857ea2821885", "name": "b5c80f767056a76e4f3a857ea2821885", "type": "electric_scooter", "lon": -77.0412075, "lat": 38.909622666666664, "is_disabled": 0, "is_reserved": 0, "fusion_lat": 0.0, "fusion_lon": 0.0}, {"rental_uris": {"android": "https://dc.lft.to/lastmile_qr_scan", "ios": "https://dc.lft.to/lastmile_qr_scan"}, "bike_id": "03eac95aa01dea76b3c24b8a13fcd75d", "name": "03eac95aa01dea76b3c24b8a13fcd75d", "type": "electric_scooter", "lon": -77.0332945, "lat": 38.90969883333333, "is_disabled": 0, "is_reserved": 0, "fusion_lat": 0.0, "fusion_lon": 0.0}, {"rental_uris": {"android": "https://dc.lft.to/lastmile_qr_scan", "ios": "https://dc.lft.to/lastmile_qr_scan"}, "bike_id": "b57bd639a532fa534d0bade531c7e8e9", "name": "b57bd639a532fa534d0bade531c7e8e9", "type": "electric_scooter", "lon": -77.0143735, "lat": 38.91961583333333, "is_disabled": 0, "is_reserved": 0, "fusion_lat": 0.0, "fusion_lon": 0.0}, {"rental_uris": {"android": "https://dc.lft.to/lastmile_qr_scan", "ios": "https://dc.lft.to/lastmile_qr_scan"}, "bike_id": "53e2658697a6617e3ac906cd43a73118", "name": "53e2658697a6617e3ac906cd43a73118", "type": "electric_scooter", "lon": -76.99612466666666, "lat": 38.88636416666667, "is_disabled": 0, "is_reserved": 0, "fusion_lat": 0.0, "fusion_lon": 0.0}, {"rental_uris": {"android": "https://dc.lft.to/lastmile_qr_scan", "ios": "https://dc.lft.to/lastmile_qr_scan"}, "bike_id": "f649c7c223aaf718e4cdd7b855f82ee8", "name": "f649c7c223aaf718e4cdd7b855f82ee8", "type": "electric_scooter", "lon": -77.0464995, "lat": 38.892171833333336, "is_disabled": 0, "is_reserved": 0, "fusion_lat": 0.0, "fusion_lon": 0.0}, {"rental_uris": {"android": "https://dc.lft.to/lastmile_qr_scan", "ios": "https://dc.lft.to/lastmile_qr_scan"}, "bike_id": "a19fab4c44f03b5d1486fb2c5b3e3fb8", "name": "a19fab4c44f03b5d1486fb2c5b3e3fb8", "type": "electric_scooter", "lon": -77.0438095, "lat": 38.9015085, "is_disabled": 0, "is_reserved": 0, "fusion_lat": 0.0, "fusion_lon": 0.0}, {"rental_uris": {"android": "https://dc.lft.to/lastmile_qr_scan", "ios": "https://dc.lft.to/lastmile_qr_scan"}, "bike_id": "cb7402267b0efd158696ef704031dbd7", "name": "cb7402267b0efd158696ef704031dbd7", "type": "electric_scooter", "lon": -77.00352233333334, "lat": 38.8994235, "is_disabled": 0, "is_reserved": 0, "fusion_lat": 0.0, "fusion_lon": 0.0}, {"rental_uris": {"android": "https://dc.lft.to/lastmile_qr_scan", "ios": "https://dc.lft.to/lastmile_qr_scan"}, "bike_id": "8e03150c78374327afa4693eb689623c", "name": "8e03150c78374327afa4693eb689623c", "type": "electric_scooter", "lon": -77.0258615, "lat": 38.920345, "is_disabled": 0, "is_reserved": 0, "fusion_lat": 0.0, "fusion_lon": 0.0}, {"rental_uris": {"android": "https://dc.lft.to/lastmile_qr_scan", "ios": "https://dc.lft.to/lastmile_qr_scan"}, "bike_id": "508edf2ca83e014b2a3257fe33b7eb7a", "name": "508edf2ca83e014b2a3257fe33b7eb7a", "type": "electric_bike", "lon": -76.98059916666666, "lat": 38.957011333333334, "is_disabled": 0, "is_reserved": 0, "fusion_lat": 0.0, "fusion_lon": 0.0}, {"rental_uris": {"android": "https://dc.lft.to/lastmile_qr_scan", "ios": "https://dc.lft.to/lastmile_qr_scan"}, "bike_id": "11449f5cd019ba72af1f73e560da7f40", "name": "11449f5cd019ba72af1f73e560da7f40", "type": "electric_scooter", "lon": -76.98881966666667, "lat": 38.86663016666667, "is_disabled": 0, "is_reserved": 0, "fusion_lat": 0.0, "fusion_lon": 0.0}, {"rental_uris": {"android": "https://dc.lft.to/lastmile_qr_scan", "ios": "https://dc.lft.to/lastmile_qr_scan"}, "bike_id": "9f3c7ddb44aa7bee7178ed28b6f0f4f5", "name": "9f3c7ddb44aa7bee7178ed28b6f0f4f5", "type": "electric_scooter", "lon": -77.041129, "lat": 38.924536, "is_disabled": 0, "is_reserved": 0, "fusion_lat": 0.0, "fusion_lon": 0.0}, {"rental_uris": {"android": "https://dc.lft.to/lastmile_qr_scan", "ios": "https://dc.lft.to/lastmile_qr_scan"}, "bike_id": "40e2e2f652570d8973ee567894a86982", "name": "40e2e2f652570d8973ee567894a86982", "type": "electric_scooter", "lon": -77.02644383333333, "lat": 38.892211333333336, "is_disabled": 0, "is_reserved": 0, "fusion_lat": 0.0, "fusion_lon": 0.0}, {"rental_uris": {"android": "https://dc.lft.to/lastmile_qr_scan", "ios": "https://dc.lft.to/lastmile_qr_scan"}, "bike_id": "c211ca1c385668bcdf9a9d62c969b931", "name": "c211ca1c385668bcdf9a9d62c969b931", "type": "electric_bike", "lon": -77.16087166666667, "lat": 38.886854166666666, "is_disabled": 0, "is_reserved": 0, "fusion_lat": 0.0, "fusion_lon": 0.0}, {"rental_uris": {"android": "https://dc.lft.to/lastmile_qr_scan", "ios": "https://dc.lft.to/lastmile_qr_scan"}, "bike_id": "1f1d40cbae8a3e4f5ce3e03777a326f7", "name": "1f1d40cbae8a3e4f5ce3e03777a326f7", "type": "electric_scooter", "lon": -77.02241516666666, "lat": 38.922469166666666, "is_disabled": 0, "is_reserved": 0, "fusion_lat": 0.0, "fusion_lon": 0.0}, {"rental_uris": {"android": "https://dc.lft.to/lastmile_qr_scan", "ios": "https://dc.lft.to/lastmile_qr_scan"}, "bike_id": "a718128bdb1146f12d5ff8b92faafa39", "name": "a718128bdb1146f12d5ff8b92faafa39", "type": "electric_scooter", "lon": -77.0239595, "lat": 38.919633166666664, "is_disabled": 0, "is_reserved": 0, "fusion_lat": 0.0, "fusion_lon": 0.0}, {"rental_uris": {"android": "https://dc.lft.to/lastmile_qr_scan", "ios": "https://dc.lft.to/lastmile_qr_scan"}, "bike_id": "fc4ada7eaf6cad786cbc8d4aa4d14f07", "name": "fc4ada7eaf6cad786cbc8d4aa4d14f07", "type": "electric_bike", "lon": -77.07916466666667, "lat": 38.80226966666667, "is_disabled": 0, "is_reserved": 0, "fusion_lat": 0.0, "fusion_lon": 0.0}, {"rental_uris": {"android": "https://dc.lft.to/lastmile_qr_scan", "ios": "https://dc.lft.to/lastmile_qr_scan"}, "bike_id": "1316d2543f6acf5235eb13a06c0398e6", "name": "1316d2543f6acf5235eb13a06c0398e6", "type": "electric_scooter", "lon": -77.02506666666666, "lat": 38.9056035, "is_disabled": 0, "is_reserved": 0, "fusion_lat": 0.0, "fusion_lon": 0.0}, {"rental_uris": {"android": "https://dc.lft.to/lastmile_qr_scan", "ios": "https://dc.lft.to/lastmile_qr_scan"}, "bike_id": "6278ea908afa619ff354208cfeea2b6a", "name": "6278ea908afa619ff354208cfeea2b6a", "type": "electric_scooter", "lon": -77.02970416666666, "lat": 38.92254233333333, "is_disabled": 0, "is_reserved": 0, "fusion_lat": 0.0, "fusion_lon": 0.0}, {"rental_uris": {"android": "https://dc.lft.to/lastmile_qr_scan", "ios": "https://dc.lft.to/lastmile_qr_scan"}, "bike_id": "66fbec452d693f888ccd808c5e62c075", "name": "66fbec452d693f888ccd808c5e62c075", "type": "electric_scooter", "lon": -77.03206916666667, "lat": 38.919982166666664, "is_disabled": 0, "is_reserved": 0, "fusion_lat": 0.0, "fusion_lon": 0.0}, {"rental_uris": {"android": "https://dc.lft.to/lastmile_qr_scan", "ios": "https://dc.lft.to/lastmile_qr_scan"}, "bike_id": "a8f6d773c0954979dde081c8fc2d2133", "name": "a8f6d773c0954979dde081c8fc2d2133", "type": "electric_scooter", "lon": -77.02092033333334, "lat": 38.92708316666667, "is_disabled": 0, "is_reserved": 0, "fusion_lat": 0.0, "fusion_lon": 0.0}, {"rental_uris": {"android": "https://dc.lft.to/lastmile_qr_scan", "ios": "https://dc.lft.to/lastmile_qr_scan"}, "bike_id": "5718d4936f6aaecde531fa48da2d3833", "name": "5718d4936f6aaecde531fa48da2d3833", "type": "electric_scooter", "lon": -77.02592983333334, "lat": 38.96396, "is_disabled": 0, "is_reserved": 0, "fusion_lat": 0.0, "fusion_lon": 0.0}, {"rental_uris": {"android": "https://dc.lft.to/lastmile_qr_scan", "ios": "https://dc.lft.to/lastmile_qr_scan"}, "bike_id": "2710e933f6a04fc8cb70e389f626ab75", "name": "2710e933f6a04fc8cb70e389f626ab75", "type": "electric_scooter", "lon": -77.0112995, "lat": 38.9169925, "is_disabled": 0, "is_reserved": 0, "fusion_lat": 0.0, "fusion_lon": 0.0}, {"rental_uris": {"android": "https://dc.lft.to/lastmile_qr_scan", "ios": "https://dc.lft.to/lastmile_qr_scan"}, "bike_id": "d437831bce1bd910a0dafedecfdd5bb9", "name": "d437831bce1bd910a0dafedecfdd5bb9", "type": "electric_scooter", "lon": -77.02377833333334, "lat": 38.91987966666667, "is_disabled": 0, "is_reserved": 0, "fusion_lat": 0.0, "fusion_lon": 0.0}, {"rental_uris": {"android": "https://dc.lft.to/lastmile_qr_scan", "ios": "https://dc.lft.to/lastmile_qr_scan"}, "bike_id": "8fc5257df5f53846d5ca949b8766fc76", "name": "8fc5257df5f53846d5ca949b8766fc76", "type": "electric_scooter", "lon": -77.00741133333334, "lat": 38.898438166666665, "is_disabled": 0, "is_reserved": 0, "fusion_lat": 0.0, "fusion_lon": 0.0}, {"rental_uris": {"android": "https://dc.lft.to/lastmile_qr_scan", "ios": "https://dc.lft.to/lastmile_qr_scan"}, "bike_id": "b06c06aef99f7ea1f403471f612edc1e", "name": "b06c06aef99f7ea1f403471f612edc1e", "type": "electric_scooter", "lon": -77.00136683333334, "lat": 38.894747, "is_disabled": 0, "is_reserved": 0, "fusion_lat": 0.0, "fusion_lon": 0.0}, {"rental_uris": {"android": "https://dc.lft.to/lastmile_qr_scan", "ios": "https://dc.lft.to/lastmile_qr_scan"}, "bike_id": "97ded7cfab066b44ca37ba445cd3b2d4", "name": "97ded7cfab066b44ca37ba445cd3b2d4", "type": "electric_scooter", "lon": -77.034782, "lat": 38.90269216666667, "is_disabled": 0, "is_reserved": 0, "fusion_lat": 0.0, "fusion_lon": 0.0}, {"rental_uris": {"android": "https://dc.lft.to/lastmile_qr_scan", "ios": "https://dc.lft.to/lastmile_qr_scan"}, "bike_id": "77db14f2833b6849df5f5cd4bb79f54f", "name": "77db14f2833b6849df5f5cd4bb79f54f", "type": "electric_scooter", "lon": -76.98609116666667, "lat": 38.865257166666666, "is_disabled": 0, "is_reserved": 0, "fusion_lat": 0.0, "fusion_lon": 0.0}, {"rental_uris": {"android": "https://dc.lft.to/lastmile_qr_scan", "ios": "https://dc.lft.to/lastmile_qr_scan"}, "bike_id": "9d0bcd7783edf5fab5c0a2fde81d76d5", "name": "9d0bcd7783edf5fab5c0a2fde81d76d5", "type": "electric_bike", "lon": -77.12526683333333, "lat": 39.0563505, "is_disabled": 0, "is_reserved": 0, "fusion_lat": 0.0, "fusion_lon": 0.0}, {"rental_uris": {"android": "https://dc.lft.to/lastmile_qr_scan", "ios": "https://dc.lft.to/lastmile_qr_scan"}, "bike_id": "a7c4d86d587ffb61b287a8688616a4d5", "name": "a7c4d86d587ffb61b287a8688616a4d5", "type": "electric_scooter", "lon": -77.03247733333333, "lat": 38.905584833333336, "is_disabled": 0, "is_reserved": 0, "fusion_lat": 0.0, "fusion_lon": 0.0}, {"rental_uris": {"android": "https://dc.lft.to/lastmile_qr_scan", "ios": "https://dc.lft.to/lastmile_qr_scan"}, "bike_id": "44c893092c1af456eafcde94ffad001b", "name": "44c893092c1af456eafcde94ffad001b", "type": "electric_scooter", "lon": -77.04356416666667, "lat": 38.92345683333333, "is_disabled": 0, "is_reserved": 0, "fusion_lat": 0.0, "fusion_lon": 0.0}, {"rental_uris": {"android": "https://dc.lft.to/lastmile_qr_scan", "ios": "https://dc.lft.to/lastmile_qr_scan"}, "bike_id": "637a945fad7151c4079ac83e189917a1", "name": "637a945fad7151c4079ac83e189917a1", "type": "electric_scooter", "lon": -77.039642, "lat": 38.90822216666667, "is_disabled": 0, "is_reserved": 0, "fusion_lat": 0.0, "fusion_lon": 0.0}, {"rental_uris": {"android": "https://dc.lft.to/lastmile_qr_scan", "ios": "https://dc.lft.to/lastmile_qr_scan"}, "bike_id": "1f7fc9f97710bf63617db7240f0ca2eb", "name": "1f7fc9f97710bf63617db7240f0ca2eb", "type": "electric_scooter", "lon": -76.94638666666667, "lat": 38.8984545, "is_disabled": 0, "is_reserved": 0, "fusion_lat": 0.0, "fusion_lon": 0.0}, {"rental_uris": {"android": "https://dc.lft.to/lastmile_qr_scan", "ios": "https://dc.lft.to/lastmile_qr_scan"}, "bike_id": "1be24a324282abb46c9a5f7b757fa210", "name": "1be24a324282abb46c9a5f7b757fa210", "type": "electric_scooter", "lon": -77.0363105, "lat": 38.928466, "is_disabled": 0, "is_reserved": 0, "fusion_lat": 0.0, "fusion_lon": 0.0}, {"rental_uris": {"android": "https://dc.lft.to/lastmile_qr_scan", "ios": "https://dc.lft.to/lastmile_qr_scan"}, "bike_id": "5ab536782f5b5caaedceb12403d26794", "name": "5ab536782f5b5caaedceb12403d26794", "type": "electric_scooter", "lon": -77.01135066666667, "lat": 38.88526016666667, "is_disabled": 0, "is_reserved": 0, "fusion_lat": 0.0, "fusion_lon": 0.0}, {"rental_uris": {"android": "https://dc.lft.to/lastmile_qr_scan", "ios": "https://dc.lft.to/lastmile_qr_scan"}, "bike_id": "82659eaaf21a4c6fcaa357b7f2b11958", "name": "82659eaaf21a4c6fcaa357b7f2b11958", "type": "electric_scooter", "lon": -77.026141, "lat": 38.91704633333333, "is_disabled": 0, "is_reserved": 0, "fusion_lat": 0.0, "fusion_lon": 0.0}, {"rental_uris": {"android": "https://dc.lft.to/lastmile_qr_scan", "ios": "https://dc.lft.to/lastmile_qr_scan"}, "bike_id": "f87210dde82c80bb1b73dbb71a346087", "name": "f87210dde82c80bb1b73dbb71a346087", "type": "electric_scooter", "lon": -77.03985433333334, "lat": 38.90267166666667, "is_disabled": 0, "is_reserved": 0, "fusion_lat": 0.0, "fusion_lon": 0.0}, {"rental_uris": {"android": "https://dc.lft.to/lastmile_qr_scan", "ios": "https://dc.lft.to/lastmile_qr_scan"}, "bike_id": "cfabc275f3c8f08c25cb2c5e61eb6525", "name": "cfabc275f3c8f08c25cb2c5e61eb6525", "type": "electric_bike", "lon": -77.13145133333333, "lat": 38.861686666666664, "is_disabled": 0, "is_reserved": 0, "fusion_lat": 0.0, "fusion_lon": 0.0}, {"rental_uris": {"android": "https://dc.lft.to/lastmile_qr_scan", "ios": "https://dc.lft.to/lastmile_qr_scan"}, "bike_id": "8ff58cde713717196fe9c4c2fc371ab9", "name": "8ff58cde713717196fe9c4c2fc371ab9", "type": "electric_scooter", "lon": -77.02171, "lat": 38.942966166666665, "is_disabled": 0, "is_reserved": 0, "fusion_lat": 0.0, "fusion_lon": 0.0}, {"rental_uris": {"android": "https://dc.lft.to/lastmile_qr_scan", "ios": "https://dc.lft.to/lastmile_qr_scan"}, "bike_id": "f3790fda395a78d16720a538d6fd8884", "name": "f3790fda395a78d16720a538d6fd8884", "type": "electric_scooter", "lon": -77.03782916666667, "lat": 38.9219185, "is_disabled": 0, "is_reserved": 0, "fusion_lat": 0.0, "fusion_lon": 0.0}, {"rental_uris": {"android": "https://dc.lft.to/lastmile_qr_scan", "ios": "https://dc.lft.to/lastmile_qr_scan"}, "bike_id": "e352a93162d44c0446b3c0d49403f2f3", "name": "e352a93162d44c0446b3c0d49403f2f3", "type": "electric_scooter", "lon": -77.007328, "lat": 38.87848116666667, "is_disabled": 0, "is_reserved": 0, "fusion_lat": 0.0, "fusion_lon": 0.0}, {"rental_uris": {"android": "https://dc.lft.to/lastmile_qr_scan", "ios": "https://dc.lft.to/lastmile_qr_scan"}, "bike_id": "4a75c305d2e87cb402abd9dc2a8f94ad", "name": "4a75c305d2e87cb402abd9dc2a8f94ad", "type": "electric_bike", "lon": -77.117594, "lat": 39.04905516666667, "is_disabled": 0, "is_reserved": 0, "fusion_lat": 0.0, "fusion_lon": 0.0}, {"rental_uris": {"android": "https://dc.lft.to/lastmile_qr_scan", "ios": "https://dc.lft.to/lastmile_qr_scan"}, "bike_id": "d36e4e9e0a4db521ea5244b6df3845be", "name": "d36e4e9e0a4db521ea5244b6df3845be", "type": "electric_scooter", "lon": -77.055013, "lat": 38.936563166666666, "is_disabled": 0, "is_reserved": 0, "fusion_lat": 0.0, "fusion_lon": 0.0}, {"rental_uris": {"android": "https://dc.lft.to/lastmile_qr_scan", "ios": "https://dc.lft.to/lastmile_qr_scan"}, "bike_id": "f5a61492534cd1c724037c8e96e1b0a1", "name": "f5a61492534cd1c724037c8e96e1b0a1", "type": "electric_scooter", "lon": -77.0191535, "lat": 38.92374433333333, "is_disabled": 0, "is_reserved": 0, "fusion_lat": 0.0, "fusion_lon": 0.0}, {"rental_uris": {"android": "https://dc.lft.to/lastmile_qr_scan", "ios": "https://dc.lft.to/lastmile_qr_scan"}, "bike_id": "41f48859e6704b51acc790909ef0c17e", "name": "41f48859e6704b51acc790909ef0c17e", "type": "electric_scooter", "lon": -77.031193, "lat": 38.89478533333333, "is_disabled": 0, "is_reserved": 0, "fusion_lat": 0.0, "fusion_lon": 0.0}, {"rental_uris": {"android": "https://dc.lft.to/lastmile_qr_scan", "ios": "https://dc.lft.to/lastmile_qr_scan"}, "bike_id": "7fdf70b1b41faf38c22d099f883cd3f4", "name": "7fdf70b1b41faf38c22d099f883cd3f4", "type": "electric_scooter", "lon": -77.04310166666667, "lat": 38.881086, "is_disabled": 0, "is_reserved": 0, "fusion_lat": 0.0, "fusion_lon": 0.0}, {"rental_uris": {"android": "https://dc.lft.to/lastmile_qr_scan", "ios": "https://dc.lft.to/lastmile_qr_scan"}, "bike_id": "f74187b0b8bbd3608f06a1cb841b10a7", "name": "f74187b0b8bbd3608f06a1cb841b10a7", "type": "electric_bike", "lon": -76.97188733333333, "lat": 38.9179625, "is_disabled": 0, "is_reserved": 0, "fusion_lat": 0.0, "fusion_lon": 0.0}, {"rental_uris": {"android": "https://dc.lft.to/lastmile_qr_scan", "ios": "https://dc.lft.to/lastmile_qr_scan"}, "bike_id": "ce4a04efb6e277a8d00027facdd8ae2a", "name": "ce4a04efb6e277a8d00027facdd8ae2a", "type": "electric_scooter", "lon": -77.04507166666667, "lat": 38.90357216666666, "is_disabled": 0, "is_reserved": 0, "fusion_lat": 0.0, "fusion_lon": 0.0}, {"rental_uris": {"android": "https://dc.lft.to/lastmile_qr_scan", "ios": "https://dc.lft.to/lastmile_qr_scan"}, "bike_id": "d25ea1d98f552cc99ce610be84f46c76", "name": "d25ea1d98f552cc99ce610be84f46c76", "type": "electric_scooter", "lon": -77.003052, "lat": 38.903744333333336, "is_disabled": 0, "is_reserved": 0, "fusion_lat": 0.0, "fusion_lon": 0.0}, {"rental_uris": {"android": "https://dc.lft.to/lastmile_qr_scan", "ios": "https://dc.lft.to/lastmile_qr_scan"}, "bike_id": "4ea7f0ada19a0355fd0b30e703b0c11d", "name": "4ea7f0ada19a0355fd0b30e703b0c11d", "type": "electric_scooter", "lon": -77.05762866666667, "lat": 38.93383, "is_disabled": 0, "is_reserved": 0, "fusion_lat": 0.0, "fusion_lon": 0.0}, {"rental_uris": {"android": "https://dc.lft.to/lastmile_qr_scan", "ios": "https://dc.lft.to/lastmile_qr_scan"}, "bike_id": "93d17b699525fdcd8513b8bb523a3854", "name": "93d17b699525fdcd8513b8bb523a3854", "type": "electric_scooter", "lon": -77.04096383333334, "lat": 38.9177715, "is_disabled": 0, "is_reserved": 0, "fusion_lat": 0.0, "fusion_lon": 0.0}, {"rental_uris": {"android": "https://dc.lft.to/lastmile_qr_scan", "ios": "https://dc.lft.to/lastmile_qr_scan"}, "bike_id": "36c45ec272d62b7272d2341b76c1f0e7", "name": "36c45ec272d62b7272d2341b76c1f0e7", "type": "electric_scooter", "lon": -77.0433195, "lat": 38.89223633333334, "is_disabled": 0, "is_reserved": 0, "fusion_lat": 0.0, "fusion_lon": 0.0}, {"rental_uris": {"android": "https://dc.lft.to/lastmile_qr_scan", "ios": "https://dc.lft.to/lastmile_qr_scan"}, "bike_id": "2f48661a9f770cab2f328f72b36e0c5a", "name": "2f48661a9f770cab2f328f72b36e0c5a", "type": "electric_scooter", "lon": -77.0270765, "lat": 38.92713766666667, "is_disabled": 0, "is_reserved": 0, "fusion_lat": 0.0, "fusion_lon": 0.0}, {"rental_uris": {"android": "https://dc.lft.to/lastmile_qr_scan", "ios": "https://dc.lft.to/lastmile_qr_scan"}, "bike_id": "75ba426ec8c03ec65b683f3121c8c682", "name": "75ba426ec8c03ec65b683f3121c8c682", "type": "electric_scooter", "lon": -76.96527733333333, "lat": 38.876258666666665, "is_disabled": 0, "is_reserved": 0, "fusion_lat": 0.0, "fusion_lon": 0.0}, {"rental_uris": {"android": "https://dc.lft.to/lastmile_qr_scan", "ios": "https://dc.lft.to/lastmile_qr_scan"}, "bike_id": "d10450aad87f408892f258f613183334", "name": "d10450aad87f408892f258f613183334", "type": "electric_scooter", "lon": -77.03208366666667, "lat": 38.91995583333333, "is_disabled": 0, "is_reserved": 0, "fusion_lat": 0.0, "fusion_lon": 0.0}, {"rental_uris": {"android": "https://dc.lft.to/lastmile_qr_scan", "ios": "https://dc.lft.to/lastmile_qr_scan"}, "bike_id": "e32792d56b8a8403577176352da8b3bd", "name": "e32792d56b8a8403577176352da8b3bd", "type": "electric_scooter", "lon": -77.0401365, "lat": 38.903834333333336, "is_disabled": 0, "is_reserved": 0, "fusion_lat": 0.0, "fusion_lon": 0.0}, {"rental_uris": {"android": "https://dc.lft.to/lastmile_qr_scan", "ios": "https://dc.lft.to/lastmile_qr_scan"}, "bike_id": "cf441ba8ab97b61f48c5efb8cc989207", "name": "cf441ba8ab97b61f48c5efb8cc989207", "type": "electric_bike", "lon": -76.98099933333333, "lat": 38.921072333333335, "is_disabled": 0, "is_reserved": 0, "fusion_lat": 0.0, "fusion_lon": 0.0}, {"rental_uris": {"android": "https://dc.lft.to/lastmile_qr_scan", "ios": "https://dc.lft.to/lastmile_qr_scan"}, "bike_id": "86b6a3d00527858f3e8913c46002824b", "name": "86b6a3d00527858f3e8913c46002824b", "type": "electric_scooter", "lon": -77.03340533333333, "lat": 38.9288445, "is_disabled": 0, "is_reserved": 0, "fusion_lat": 0.0, "fusion_lon": 0.0}, {"rental_uris": {"android": "https://dc.lft.to/lastmile_qr_scan", "ios": "https://dc.lft.to/lastmile_qr_scan"}, "bike_id": "9c420114805390b0f6abf1956e50a3fc", "name": "9c420114805390b0f6abf1956e50a3fc", "type": "electric_scooter", "lon": -77.02662683333334, "lat": 38.8812505, "is_disabled": 0, "is_reserved": 0, "fusion_lat": 0.0, "fusion_lon": 0.0}, {"rental_uris": {"android": "https://dc.lft.to/lastmile_qr_scan", "ios": "https://dc.lft.to/lastmile_qr_scan"}, "bike_id": "53a43d729dcee6e1633e7300f9ea433f", "name": "53a43d729dcee6e1633e7300f9ea433f", "type": "electric_scooter", "lon": -77.02311466666667, "lat": 38.917891833333336, "is_disabled": 0, "is_reserved": 0, "fusion_lat": 0.0, "fusion_lon": 0.0}, {"rental_uris": {"android": "https://dc.lft.to/lastmile_qr_scan", "ios": "https://dc.lft.to/lastmile_qr_scan"}, "bike_id": "89d331c168ceafdd301d1c2071492ee0", "name": "89d331c168ceafdd301d1c2071492ee0", "type": "electric_scooter", "lon": -77.04181933333334, "lat": 38.9012045, "is_disabled": 0, "is_reserved": 0, "fusion_lat": 0.0, "fusion_lon": 0.0}, {"rental_uris": {"android": "https://dc.lft.to/lastmile_qr_scan", "ios": "https://dc.lft.to/lastmile_qr_scan"}, "bike_id": "b410ff21e0afc9481ff0c164de13793d", "name": "b410ff21e0afc9481ff0c164de13793d", "type": "electric_bike", "lon": -76.90965566666667, "lat": 38.8541915, "is_disabled": 0, "is_reserved": 0, "fusion_lat": 0.0, "fusion_lon": 0.0}, {"rental_uris": {"android": "https://dc.lft.to/lastmile_qr_scan", "ios": "https://dc.lft.to/lastmile_qr_scan"}, "bike_id": "6c6abd390db70d1950e9c064c003fae6", "name": "6c6abd390db70d1950e9c064c003fae6", "type": "electric_scooter", "lon": -77.02644783333334, "lat": 38.98449333333333, "is_disabled": 0, "is_reserved": 0, "fusion_lat": 0.0, "fusion_lon": 0.0}, {"rental_uris": {"android": "https://dc.lft.to/lastmile_qr_scan", "ios": "https://dc.lft.to/lastmile_qr_scan"}, "bike_id": "3ae994068b0014e63559ebf744ed57ec", "name": "3ae994068b0014e63559ebf744ed57ec", "type": "electric_scooter", "lon": -77.02815316666667, "lat": 38.916883166666665, "is_disabled": 0, "is_reserved": 0, "fusion_lat": 0.0, "fusion_lon": 0.0}, {"rental_uris": {"android": "https://dc.lft.to/lastmile_qr_scan", "ios": "https://dc.lft.to/lastmile_qr_scan"}, "bike_id": "4edaef780800ad8933d5a480eb6c7352", "name": "4edaef780800ad8933d5a480eb6c7352", "type": "electric_scooter", "lon": -77.00482466666666, "lat": 38.87474566666667, "is_disabled": 0, "is_reserved": 0, "fusion_lat": 0.0, "fusion_lon": 0.0}, {"rental_uris": {"android": "https://dc.lft.to/lastmile_qr_scan", "ios": "https://dc.lft.to/lastmile_qr_scan"}, "bike_id": "dfbfcec63d202a4af053ad0572157257", "name": "dfbfcec63d202a4af053ad0572157257", "type": "electric_scooter", "lon": -77.01747216666666, "lat": 38.903606833333335, "is_disabled": 0, "is_reserved": 0, "fusion_lat": 0.0, "fusion_lon": 0.0}, {"rental_uris": {"android": "https://dc.lft.to/lastmile_qr_scan", "ios": "https://dc.lft.to/lastmile_qr_scan"}, "bike_id": "b64b22f73fb73a2e19b286da60274cc2", "name": "b64b22f73fb73a2e19b286da60274cc2", "type": "electric_scooter", "lon": -76.996294, "lat": 38.900349166666665, "is_disabled": 0, "is_reserved": 0, "fusion_lat": 0.0, "fusion_lon": 0.0}, {"rental_uris": {"android": "https://dc.lft.to/lastmile_qr_scan", "ios": "https://dc.lft.to/lastmile_qr_scan"}, "bike_id": "ad807c306eca6868f98b6a3fa0bb6b04", "name": "ad807c306eca6868f98b6a3fa0bb6b04", "type": "electric_scooter", "lon": -77.01376133333333, "lat": 38.893301, "is_disabled": 0, "is_reserved": 0, "fusion_lat": 0.0, "fusion_lon": 0.0}, {"rental_uris": {"android": "https://dc.lft.to/lastmile_qr_scan", "ios": "https://dc.lft.to/lastmile_qr_scan"}, "bike_id": "652f75f415bbe4a60880279a8512c6ff", "name": "652f75f415bbe4a60880279a8512c6ff", "type": "electric_scooter", "lon": -77.03718616666667, "lat": 38.9125835, "is_disabled": 0, "is_reserved": 0, "fusion_lat": 0.0, "fusion_lon": 0.0}, {"rental_uris": {"android": "https://dc.lft.to/lastmile_qr_scan", "ios": "https://dc.lft.to/lastmile_qr_scan"}, "bike_id": "045a23b096eb7b8a36a4a5ec6ee3816a", "name": "045a23b096eb7b8a36a4a5ec6ee3816a", "type": "electric_scooter", "lon": -77.03375833333334, "lat": 38.8991515, "is_disabled": 0, "is_reserved": 0, "fusion_lat": 0.0, "fusion_lon": 0.0}, {"rental_uris": {"android": "https://dc.lft.to/lastmile_qr_scan", "ios": "https://dc.lft.to/lastmile_qr_scan"}, "bike_id": "3869d916fc0a686b04c5e7e07561aa13", "name": "3869d916fc0a686b04c5e7e07561aa13", "type": "electric_scooter", "lon": -77.03464083333333, "lat": 38.90618083333333, "is_disabled": 0, "is_reserved": 0, "fusion_lat": 0.0, "fusion_lon": 0.0}, {"rental_uris": {"android": "https://dc.lft.to/lastmile_qr_scan", "ios": "https://dc.lft.to/lastmile_qr_scan"}, "bike_id": "55a497870fc1eda360c1fd137283038d", "name": "55a497870fc1eda360c1fd137283038d", "type": "electric_scooter", "lon": -77.03864383333334, "lat": 38.911837166666665, "is_disabled": 0, "is_reserved": 0, "fusion_lat": 0.0, "fusion_lon": 0.0}, {"rental_uris": {"android": "https://dc.lft.to/lastmile_qr_scan", "ios": "https://dc.lft.to/lastmile_qr_scan"}, "bike_id": "aef062180e553e1419bb97e51083b811", "name": "aef062180e553e1419bb97e51083b811", "type": "electric_scooter", "lon": -77.03404066666667, "lat": 38.92850383333333, "is_disabled": 0, "is_reserved": 0, "fusion_lat": 0.0, "fusion_lon": 0.0}, {"rental_uris": {"android": "https://dc.lft.to/lastmile_qr_scan", "ios": "https://dc.lft.to/lastmile_qr_scan"}, "bike_id": "78c3d2ca5a230a4be647922cfe1b4b36", "name": "78c3d2ca5a230a4be647922cfe1b4b36", "type": "electric_scooter", "lon": -77.03132083333334, "lat": 38.923746, "is_disabled": 0, "is_reserved": 0, "fusion_lat": 0.0, "fusion_lon": 0.0}, {"rental_uris": {"android": "https://dc.lft.to/lastmile_qr_scan", "ios": "https://dc.lft.to/lastmile_qr_scan"}, "bike_id": "dc88a56784fd3cbaba372a4ab91b8669", "name": "dc88a56784fd3cbaba372a4ab91b8669", "type": "electric_scooter", "lon": -77.040868, "lat": 38.910387666666665, "is_disabled": 0, "is_reserved": 0, "fusion_lat": 0.0, "fusion_lon": 0.0}, {"rental_uris": {"android": "https://dc.lft.to/lastmile_qr_scan", "ios": "https://dc.lft.to/lastmile_qr_scan"}, "bike_id": "c2f84cd107c79de194b4e06b0721224b", "name": "c2f84cd107c79de194b4e06b0721224b", "type": "electric_bike", "lon": -77.07852483333333, "lat": 38.93128266666667, "is_disabled": 0, "is_reserved": 0, "fusion_lat": 0.0, "fusion_lon": 0.0}, {"rental_uris": {"android": "https://dc.lft.to/lastmile_qr_scan", "ios": "https://dc.lft.to/lastmile_qr_scan"}, "bike_id": "71674770570fe09e84f9376fd05cef9a", "name": "71674770570fe09e84f9376fd05cef9a", "type": "electric_scooter", "lon": -77.0229825, "lat": 38.920838, "is_disabled": 0, "is_reserved": 0, "fusion_lat": 0.0, "fusion_lon": 0.0}, {"rental_uris": {"android": "https://dc.lft.to/lastmile_qr_scan", "ios": "https://dc.lft.to/lastmile_qr_scan"}, "bike_id": "c74c6faf998f144a52eb90ed63759bbf", "name": "c74c6faf998f144a52eb90ed63759bbf", "type": "electric_scooter", "lon": -77.048289, "lat": 38.910943833333334, "is_disabled": 0, "is_reserved": 0, "fusion_lat": 0.0, "fusion_lon": 0.0}, {"rental_uris": {"android": "https://dc.lft.to/lastmile_qr_scan", "ios": "https://dc.lft.to/lastmile_qr_scan"}, "bike_id": "f516686a6ad1fa7345a19f82b708844c", "name": "f516686a6ad1fa7345a19f82b708844c", "type": "electric_bike", "lon": -77.09523183333333, "lat": 38.838125166666664, "is_disabled": 0, "is_reserved": 0, "fusion_lat": 0.0, "fusion_lon": 0.0}, {"rental_uris": {"android": "https://dc.lft.to/lastmile_qr_scan", "ios": "https://dc.lft.to/lastmile_qr_scan"}, "bike_id": "55fb8d26fc6c561fc9bcd8af4ed80024", "name": "55fb8d26fc6c561fc9bcd8af4ed80024", "type": "electric_scooter", "lon": -77.05334, "lat": 38.90261533333333, "is_disabled": 0, "is_reserved": 0, "fusion_lat": 0.0, "fusion_lon": 0.0}, {"rental_uris": {"android": "https://dc.lft.to/lastmile_qr_scan", "ios": "https://dc.lft.to/lastmile_qr_scan"}, "bike_id": "9e6778519b5190685aba9dbbf07a167d", "name": "9e6778519b5190685aba9dbbf07a167d", "type": "electric_bike", "lon": -77.22798583333334, "lat": 38.91016, "is_disabled": 0, "is_reserved": 0, "fusion_lat": 0.0, "fusion_lon": 0.0}, {"rental_uris": {"android": "https://dc.lft.to/lastmile_qr_scan", "ios": "https://dc.lft.to/lastmile_qr_scan"}, "bike_id": "334ac244e874638f6776eed34f564f16", "name": "334ac244e874638f6776eed34f564f16", "type": "electric_scooter", "lon": -76.9985425, "lat": 38.90368133333333, "is_disabled": 0, "is_reserved": 0, "fusion_lat": 0.0, "fusion_lon": 0.0}, {"rental_uris": {"android": "https://dc.lft.to/lastmile_qr_scan", "ios": "https://dc.lft.to/lastmile_qr_scan"}, "bike_id": "687639c69973e31f77bb7d2cd71b7b27", "name": "687639c69973e31f77bb7d2cd71b7b27", "type": "electric_scooter", "lon": -76.99038866666666, "lat": 38.888736333333334, "is_disabled": 0, "is_reserved": 0, "fusion_lat": 0.0, "fusion_lon": 0.0}, {"rental_uris": {"android": "https://dc.lft.to/lastmile_qr_scan", "ios": "https://dc.lft.to/lastmile_qr_scan"}, "bike_id": "c5d1eb001b716b1936ce91155eaa424a", "name": "c5d1eb001b716b1936ce91155eaa424a", "type": "electric_scooter", "lon": -77.02926433333333, "lat": 38.9090085, "is_disabled": 0, "is_reserved": 0, "fusion_lat": 0.0, "fusion_lon": 0.0}, {"rental_uris": {"android": "https://dc.lft.to/lastmile_qr_scan", "ios": "https://dc.lft.to/lastmile_qr_scan"}, "bike_id": "7fda69b1c96138d8e93e23c596c81f3c", "name": "7fda69b1c96138d8e93e23c596c81f3c", "type": "electric_scooter", "lon": -77.05771516666667, "lat": 38.90530616666667, "is_disabled": 0, "is_reserved": 0, "fusion_lat": 0.0, "fusion_lon": 0.0}, {"rental_uris": {"android": "https://dc.lft.to/lastmile_qr_scan", "ios": "https://dc.lft.to/lastmile_qr_scan"}, "bike_id": "101f36b3d7e4bf6d516f52339962b069", "name": "101f36b3d7e4bf6d516f52339962b069", "type": "electric_scooter", "lon": -77.0325775, "lat": 38.914035166666665, "is_disabled": 0, "is_reserved": 0, "fusion_lat": 0.0, "fusion_lon": 0.0}, {"rental_uris": {"android": "https://dc.lft.to/lastmile_qr_scan", "ios": "https://dc.lft.to/lastmile_qr_scan"}, "bike_id": "8c953969475d0e12df19d9c0d1c553b5", "name": "8c953969475d0e12df19d9c0d1c553b5", "type": "electric_scooter", "lon": -77.05232933333333, "lat": 38.92464316666667, "is_disabled": 0, "is_reserved": 0, "fusion_lat": 0.0, "fusion_lon": 0.0}, {"rental_uris": {"android": "https://dc.lft.to/lastmile_qr_scan", "ios": "https://dc.lft.to/lastmile_qr_scan"}, "bike_id": "0668063df6d0999e26c1ed71c9bb2ef6", "name": "0668063df6d0999e26c1ed71c9bb2ef6", "type": "electric_bike", "lon": -77.01021583333333, "lat": 38.89661433333333, "is_disabled": 0, "is_reserved": 0, "fusion_lat": 0.0, "fusion_lon": 0.0}, {"rental_uris": {"android": "https://dc.lft.to/lastmile_qr_scan", "ios": "https://dc.lft.to/lastmile_qr_scan"}, "bike_id": "09f580105711be2586661a07b60d7d0d", "name": "09f580105711be2586661a07b60d7d0d", "type": "electric_scooter", "lon": -77.02697583333334, "lat": 38.90868, "is_disabled": 0, "is_reserved": 0, "fusion_lat": 0.0, "fusion_lon": 0.0}, {"rental_uris": {"android": "https://dc.lft.to/lastmile_qr_scan", "ios": "https://dc.lft.to/lastmile_qr_scan"}, "bike_id": "640bd2b94657dadf41e7c0c34d84e350", "name": "640bd2b94657dadf41e7c0c34d84e350", "type": "electric_scooter", "lon": -76.982836, "lat": 38.899876166666665, "is_disabled": 0, "is_reserved": 0, "fusion_lat": 0.0, "fusion_lon": 0.0}, {"rental_uris": {"android": "https://dc.lft.to/lastmile_qr_scan", "ios": "https://dc.lft.to/lastmile_qr_scan"}, "bike_id": "d0008f2cbf208e205285dad664510913", "name": "d0008f2cbf208e205285dad664510913", "type": "electric_scooter", "lon": -77.0781925, "lat": 38.9127065, "is_disabled": 0, "is_reserved": 0, "fusion_lat": 0.0, "fusion_lon": 0.0}, {"rental_uris": {"android": "https://dc.lft.to/lastmile_qr_scan", "ios": "https://dc.lft.to/lastmile_qr_scan"}, "bike_id": "490b54dec11f0ce85761fd4f0fff8f92", "name": "490b54dec11f0ce85761fd4f0fff8f92", "type": "electric_scooter", "lon": -77.0503905, "lat": 38.9235635, "is_disabled": 0, "is_reserved": 0, "fusion_lat": 0.0, "fusion_lon": 0.0}, {"rental_uris": {"android": "https://dc.lft.to/lastmile_qr_scan", "ios": "https://dc.lft.to/lastmile_qr_scan"}, "bike_id": "d0a5e8b8e9e35a91b2c3cacadeda6844", "name": "d0a5e8b8e9e35a91b2c3cacadeda6844", "type": "electric_scooter", "lon": -77.00564716666666, "lat": 38.905548833333334, "is_disabled": 0, "is_reserved": 0, "fusion_lat": 0.0, "fusion_lon": 0.0}, {"rental_uris": {"android": "https://dc.lft.to/lastmile_qr_scan", "ios": "https://dc.lft.to/lastmile_qr_scan"}, "bike_id": "f7e24a897e1cbad2ea207505b4ae8995", "name": "f7e24a897e1cbad2ea207505b4ae8995", "type": "electric_bike", "lon": -77.00889266666667, "lat": 38.9109285, "is_disabled": 0, "is_reserved": 0, "fusion_lat": 0.0, "fusion_lon": 0.0}, {"rental_uris": {"android": "https://dc.lft.to/lastmile_qr_scan", "ios": "https://dc.lft.to/lastmile_qr_scan"}, "bike_id": "2101f2e9ea22f18ff50ea0bcf6ff0fb1", "name": "2101f2e9ea22f18ff50ea0bcf6ff0fb1", "type": "electric_scooter", "lon": -77.01304383333333, "lat": 38.914149333333334, "is_disabled": 0, "is_reserved": 0, "fusion_lat": 0.0, "fusion_lon": 0.0}, {"rental_uris": {"android": "https://dc.lft.to/lastmile_qr_scan", "ios": "https://dc.lft.to/lastmile_qr_scan"}, "bike_id": "cec661f9b5923273fdcff80cde684522", "name": "cec661f9b5923273fdcff80cde684522", "type": "electric_scooter", "lon": -77.03262016666666, "lat": 38.935675333333336, "is_disabled": 0, "is_reserved": 0, "fusion_lat": 0.0, "fusion_lon": 0.0}, {"rental_uris": {"android": "https://dc.lft.to/lastmile_qr_scan", "ios": "https://dc.lft.to/lastmile_qr_scan"}, "bike_id": "c6be082719cfe7cc1972a0387dba23e7", "name": "c6be082719cfe7cc1972a0387dba23e7", "type": "electric_scooter", "lon": -77.03664433333333, "lat": 38.927239166666666, "is_disabled": 0, "is_reserved": 0, "fusion_lat": 0.0, "fusion_lon": 0.0}, {"rental_uris": {"android": "https://dc.lft.to/lastmile_qr_scan", "ios": "https://dc.lft.to/lastmile_qr_scan"}, "bike_id": "a22a2a5e179461c213613e7fd5d4d0db", "name": "a22a2a5e179461c213613e7fd5d4d0db", "type": "electric_scooter", "lon": -77.04185983333333, "lat": 38.9167055, "is_disabled": 0, "is_reserved": 0, "fusion_lat": 0.0, "fusion_lon": 0.0}, {"rental_uris": {"android": "https://dc.lft.to/lastmile_qr_scan", "ios": "https://dc.lft.to/lastmile_qr_scan"}, "bike_id": "568ea93034ae79bce1e4e53f7b280058", "name": "568ea93034ae79bce1e4e53f7b280058", "type": "electric_scooter", "lon": -77.03675866666667, "lat": 38.9082365, "is_disabled": 0, "is_reserved": 0, "fusion_lat": 0.0, "fusion_lon": 0.0}, {"rental_uris": {"android": "https://dc.lft.to/lastmile_qr_scan", "ios": "https://dc.lft.to/lastmile_qr_scan"}, "bike_id": "e8bc2afec763a0bd0a6545126aabc562", "name": "e8bc2afec763a0bd0a6545126aabc562", "type": "electric_bike", "lon": -77.010308, "lat": 38.95878183333333, "is_disabled": 0, "is_reserved": 0, "fusion_lat": 0.0, "fusion_lon": 0.0}, {"rental_uris": {"android": "https://dc.lft.to/lastmile_qr_scan", "ios": "https://dc.lft.to/lastmile_qr_scan"}, "bike_id": "b8578d256f3c503b4a592c0af0a7f600", "name": "b8578d256f3c503b4a592c0af0a7f600", "type": "electric_scooter", "lon": -77.05002183333333, "lat": 38.892285666666666, "is_disabled": 0, "is_reserved": 0, "fusion_lat": 0.0, "fusion_lon": 0.0}, {"rental_uris": {"android": "https://dc.lft.to/lastmile_qr_scan", "ios": "https://dc.lft.to/lastmile_qr_scan"}, "bike_id": "5b94bbd3836bb5bbeea2636170b776d7", "name": "5b94bbd3836bb5bbeea2636170b776d7", "type": "electric_scooter", "lon": -77.046674, "lat": 38.90059, "is_disabled": 0, "is_reserved": 0, "fusion_lat": 0.0, "fusion_lon": 0.0}, {"rental_uris": {"android": "https://dc.lft.to/lastmile_qr_scan", "ios": "https://dc.lft.to/lastmile_qr_scan"}, "bike_id": "c0197f58bf42b9d53fd03966ce73eae8", "name": "c0197f58bf42b9d53fd03966ce73eae8", "type": "electric_scooter", "lon": -77.05120966666667, "lat": 38.92345866666667, "is_disabled": 0, "is_reserved": 0, "fusion_lat": 0.0, "fusion_lon": 0.0}, {"rental_uris": {"android": "https://dc.lft.to/lastmile_qr_scan", "ios": "https://dc.lft.to/lastmile_qr_scan"}, "bike_id": "75262cffc4a763185a2914d371f316ad", "name": "75262cffc4a763185a2914d371f316ad", "type": "electric_scooter", "lon": -76.97704633333333, "lat": 38.902504666666665, "is_disabled": 0, "is_reserved": 0, "fusion_lat": 0.0, "fusion_lon": 0.0}, {"rental_uris": {"android": "https://dc.lft.to/lastmile_qr_scan", "ios": "https://dc.lft.to/lastmile_qr_scan"}, "bike_id": "2585c1dd825f6e2354d38cbc46b01eb1", "name": "2585c1dd825f6e2354d38cbc46b01eb1", "type": "electric_scooter", "lon": -77.03217633333334, "lat": 38.902524, "is_disabled": 0, "is_reserved": 0, "fusion_lat": 0.0, "fusion_lon": 0.0}, {"rental_uris": {"android": "https://dc.lft.to/lastmile_qr_scan", "ios": "https://dc.lft.to/lastmile_qr_scan"}, "bike_id": "e420c7c192b7176ee4f572dc90573b56", "name": "e420c7c192b7176ee4f572dc90573b56", "type": "electric_scooter", "lon": -77.02220866666667, "lat": 38.914513166666666, "is_disabled": 0, "is_reserved": 0, "fusion_lat": 0.0, "fusion_lon": 0.0}, {"rental_uris": {"android": "https://dc.lft.to/lastmile_qr_scan", "ios": "https://dc.lft.to/lastmile_qr_scan"}, "bike_id": "05171c0456475d3a3db468649596ecf1", "name": "05171c0456475d3a3db468649596ecf1", "type": "electric_scooter", "lon": -77.04175216666667, "lat": 38.904533, "is_disabled": 0, "is_reserved": 0, "fusion_lat": 0.0, "fusion_lon": 0.0}, {"rental_uris": {"android": "https://dc.lft.to/lastmile_qr_scan", "ios": "https://dc.lft.to/lastmile_qr_scan"}, "bike_id": "2cb9caa04dc2dd921fd2768995459d52", "name": "2cb9caa04dc2dd921fd2768995459d52", "type": "electric_scooter", "lon": -77.05236216666667, "lat": 38.92357633333334, "is_disabled": 0, "is_reserved": 0, "fusion_lat": 0.0, "fusion_lon": 0.0}, {"rental_uris": {"android": "https://dc.lft.to/lastmile_qr_scan", "ios": "https://dc.lft.to/lastmile_qr_scan"}, "bike_id": "9de879bb088ba2bd71fd820f959c7006", "name": "9de879bb088ba2bd71fd820f959c7006", "type": "electric_scooter", "lon": -77.0279295, "lat": 38.9541235, "is_disabled": 0, "is_reserved": 0, "fusion_lat": 0.0, "fusion_lon": 0.0}, {"rental_uris": {"android": "https://dc.lft.to/lastmile_qr_scan", "ios": "https://dc.lft.to/lastmile_qr_scan"}, "bike_id": "b00a199a6c405dc3b7c312f1ca834c14", "name": "b00a199a6c405dc3b7c312f1ca834c14", "type": "electric_scooter", "lon": -77.05122916666667, "lat": 38.92346383333334, "is_disabled": 0, "is_reserved": 0, "fusion_lat": 0.0, "fusion_lon": 0.0}, {"rental_uris": {"android": "https://dc.lft.to/lastmile_qr_scan", "ios": "https://dc.lft.to/lastmile_qr_scan"}, "bike_id": "8b23dcd45d03a97435823525d1c1fcfb", "name": "8b23dcd45d03a97435823525d1c1fcfb", "type": "electric_scooter", "lon": -77.03858366666667, "lat": 38.90783283333333, "is_disabled": 0, "is_reserved": 0, "fusion_lat": 0.0, "fusion_lon": 0.0}, {"rental_uris": {"android": "https://dc.lft.to/lastmile_qr_scan", "ios": "https://dc.lft.to/lastmile_qr_scan"}, "bike_id": "9dd21944549f1826583ddaba7e66dcf1", "name": "9dd21944549f1826583ddaba7e66dcf1", "type": "electric_scooter", "lon": -77.02565533333333, "lat": 38.918141166666665, "is_disabled": 0, "is_reserved": 0, "fusion_lat": 0.0, "fusion_lon": 0.0}, {"rental_uris": {"android": "https://dc.lft.to/lastmile_qr_scan", "ios": "https://dc.lft.to/lastmile_qr_scan"}, "bike_id": "acb5a061b8bc7e1ec0644c792dfc459b", "name": "acb5a061b8bc7e1ec0644c792dfc459b", "type": "electric_scooter", "lon": -77.02694583333333, "lat": 38.91134433333333, "is_disabled": 0, "is_reserved": 0, "fusion_lat": 0.0, "fusion_lon": 0.0}, {"rental_uris": {"android": "https://dc.lft.to/lastmile_qr_scan", "ios": "https://dc.lft.to/lastmile_qr_scan"}, "bike_id": "d963215738e32c05d1f00bae3b4e1b53", "name": "d963215738e32c05d1f00bae3b4e1b53", "type": "electric_bike", "lon": -76.98507916666667, "lat": 38.880767166666665, "is_disabled": 0, "is_reserved": 0, "fusion_lat": 0.0, "fusion_lon": 0.0}, {"rental_uris": {"android": "https://dc.lft.to/lastmile_qr_scan", "ios": "https://dc.lft.to/lastmile_qr_scan"}, "bike_id": "ea7902bec5519e063a3ec9b0e9ead555", "name": "ea7902bec5519e063a3ec9b0e9ead555", "type": "electric_scooter", "lon": -77.00377033333334, "lat": 38.876450166666665, "is_disabled": 0, "is_reserved": 0, "fusion_lat": 0.0, "fusion_lon": 0.0}, {"rental_uris": {"android": "https://dc.lft.to/lastmile_qr_scan", "ios": "https://dc.lft.to/lastmile_qr_scan"}, "bike_id": "8aa4f6b3cd0f2399274e3257904ae9b9", "name": "8aa4f6b3cd0f2399274e3257904ae9b9", "type": "electric_scooter", "lon": -77.03538833333333, "lat": 38.923988333333334, "is_disabled": 0, "is_reserved": 0, "fusion_lat": 0.0, "fusion_lon": 0.0}, {"rental_uris": {"android": "https://dc.lft.to/lastmile_qr_scan", "ios": "https://dc.lft.to/lastmile_qr_scan"}, "bike_id": "a0a706049b7dab2989209269a49c6679", "name": "a0a706049b7dab2989209269a49c6679", "type": "electric_scooter", "lon": -77.04193133333334, "lat": 38.91874116666666, "is_disabled": 0, "is_reserved": 0, "fusion_lat": 0.0, "fusion_lon": 0.0}, {"rental_uris": {"android": "https://dc.lft.to/lastmile_qr_scan", "ios": "https://dc.lft.to/lastmile_qr_scan"}, "bike_id": "a28cd75887d6fe37bc758e68d302f7a8", "name": "a28cd75887d6fe37bc758e68d302f7a8", "type": "electric_scooter", "lon": -76.977389, "lat": 38.86830416666667, "is_disabled": 0, "is_reserved": 0, "fusion_lat": 0.0, "fusion_lon": 0.0}, {"rental_uris": {"android": "https://dc.lft.to/lastmile_qr_scan", "ios": "https://dc.lft.to/lastmile_qr_scan"}, "bike_id": "e9d146037240fadbfab6933f3f89ddea", "name": "e9d146037240fadbfab6933f3f89ddea", "type": "electric_scooter", "lon": -77.04473566666667, "lat": 38.921387, "is_disabled": 0, "is_reserved": 0, "fusion_lat": 0.0, "fusion_lon": 0.0}, {"rental_uris": {"android": "https://dc.lft.to/lastmile_qr_scan", "ios": "https://dc.lft.to/lastmile_qr_scan"}, "bike_id": "907b435c59440eeed2776b9c63006c78", "name": "907b435c59440eeed2776b9c63006c78", "type": "electric_scooter", "lon": -77.02976716666667, "lat": 38.9519565, "is_disabled": 0, "is_reserved": 0, "fusion_lat": 0.0, "fusion_lon": 0.0}, {"rental_uris": {"android": "https://dc.lft.to/lastmile_qr_scan", "ios": "https://dc.lft.to/lastmile_qr_scan"}, "bike_id": "4fe625edd4a22681dc598b883c10b5ef", "name": "4fe625edd4a22681dc598b883c10b5ef", "type": "electric_scooter", "lon": -77.02717733333333, "lat": 38.90906416666667, "is_disabled": 0, "is_reserved": 0, "fusion_lat": 0.0, "fusion_lon": 0.0}, {"rental_uris": {"android": "https://dc.lft.to/lastmile_qr_scan", "ios": "https://dc.lft.to/lastmile_qr_scan"}, "bike_id": "57acd855ef9004b47684cf06689cb94d", "name": "57acd855ef9004b47684cf06689cb94d", "type": "electric_scooter", "lon": -77.03773066666666, "lat": 38.916960833333334, "is_disabled": 0, "is_reserved": 0, "fusion_lat": 0.0, "fusion_lon": 0.0}, {"rental_uris": {"android": "https://dc.lft.to/lastmile_qr_scan", "ios": "https://dc.lft.to/lastmile_qr_scan"}, "bike_id": "fe203a5d69b9c8710b79284fc4bc103d", "name": "fe203a5d69b9c8710b79284fc4bc103d", "type": "electric_scooter", "lon": -77.02203716666666, "lat": 38.895690333333334, "is_disabled": 0, "is_reserved": 0, "fusion_lat": 0.0, "fusion_lon": 0.0}, {"rental_uris": {"android": "https://dc.lft.to/lastmile_qr_scan", "ios": "https://dc.lft.to/lastmile_qr_scan"}, "bike_id": "ae710646e81b04a9087a323a92a464de", "name": "ae710646e81b04a9087a323a92a464de", "type": "electric_scooter", "lon": -77.04554183333333, "lat": 38.92418266666667, "is_disabled": 0, "is_reserved": 0, "fusion_lat": 0.0, "fusion_lon": 0.0}, {"rental_uris": {"android": "https://dc.lft.to/lastmile_qr_scan", "ios": "https://dc.lft.to/lastmile_qr_scan"}, "bike_id": "88f8f1913c53ad6bcd145aa9975c1061", "name": "88f8f1913c53ad6bcd145aa9975c1061", "type": "electric_scooter", "lon": -76.9994425, "lat": 38.842931666666665, "is_disabled": 0, "is_reserved": 0, "fusion_lat": 0.0, "fusion_lon": 0.0}, {"rental_uris": {"android": "https://dc.lft.to/lastmile_qr_scan", "ios": "https://dc.lft.to/lastmile_qr_scan"}, "bike_id": "b242236b906f8a521537479b343eac0a", "name": "b242236b906f8a521537479b343eac0a", "type": "electric_scooter", "lon": -76.9373875, "lat": 38.8901625, "is_disabled": 0, "is_reserved": 0, "fusion_lat": 0.0, "fusion_lon": 0.0}, {"rental_uris": {"android": "https://dc.lft.to/lastmile_qr_scan", "ios": "https://dc.lft.to/lastmile_qr_scan"}, "bike_id": "d921681a6bc34cab1ceb0e3d82058fb6", "name": "d921681a6bc34cab1ceb0e3d82058fb6", "type": "electric_scooter", "lon": -76.94634833333333, "lat": 38.898476333333335, "is_disabled": 0, "is_reserved": 0, "fusion_lat": 0.0, "fusion_lon": 0.0}, {"rental_uris": {"android": "https://dc.lft.to/lastmile_qr_scan", "ios": "https://dc.lft.to/lastmile_qr_scan"}, "bike_id": "26bbbea689dd5f740b26665576b988f6", "name": "26bbbea689dd5f740b26665576b988f6", "type": "electric_scooter", "lon": -77.03784433333334, "lat": 38.932243166666666, "is_disabled": 0, "is_reserved": 0, "fusion_lat": 0.0, "fusion_lon": 0.0}, {"rental_uris": {"android": "https://dc.lft.to/lastmile_qr_scan", "ios": "https://dc.lft.to/lastmile_qr_scan"}, "bike_id": "d144a1984b3b61aac272d01a72bc5a76", "name": "d144a1984b3b61aac272d01a72bc5a76", "type": "electric_scooter", "lon": -77.025997, "lat": 38.89674483333334, "is_disabled": 0, "is_reserved": 0, "fusion_lat": 0.0, "fusion_lon": 0.0}, {"rental_uris": {"android": "https://dc.lft.to/lastmile_qr_scan", "ios": "https://dc.lft.to/lastmile_qr_scan"}, "bike_id": "de98da0c604807df010237829f9f354d", "name": "de98da0c604807df010237829f9f354d", "type": "electric_scooter", "lon": -76.984014, "lat": 38.86697683333333, "is_disabled": 0, "is_reserved": 0, "fusion_lat": 0.0, "fusion_lon": 0.0}, {"rental_uris": {"android": "https://dc.lft.to/lastmile_qr_scan", "ios": "https://dc.lft.to/lastmile_qr_scan"}, "bike_id": "1b23f50c10da93b5a35626c18f1000ca", "name": "1b23f50c10da93b5a35626c18f1000ca", "type": "electric_scooter", "lon": -77.04680766666667, "lat": 38.895104833333335, "is_disabled": 0, "is_reserved": 0, "fusion_lat": 0.0, "fusion_lon": 0.0}, {"rental_uris": {"android": "https://dc.lft.to/lastmile_qr_scan", "ios": "https://dc.lft.to/lastmile_qr_scan"}, "bike_id": "474e530b5788c88f9e603bcf52ac08ab", "name": "474e530b5788c88f9e603bcf52ac08ab", "type": "electric_scooter", "lon": -77.06980316666667, "lat": 38.953012666666666, "is_disabled": 0, "is_reserved": 0, "fusion_lat": 0.0, "fusion_lon": 0.0}, {"rental_uris": {"android": "https://dc.lft.to/lastmile_qr_scan", "ios": "https://dc.lft.to/lastmile_qr_scan"}, "bike_id": "78e935752b58ff86bd283a576be36130", "name": "78e935752b58ff86bd283a576be36130", "type": "electric_scooter", "lon": -77.03659, "lat": 38.91800416666667, "is_disabled": 0, "is_reserved": 0, "fusion_lat": 0.0, "fusion_lon": 0.0}, {"rental_uris": {"android": "https://dc.lft.to/lastmile_qr_scan", "ios": "https://dc.lft.to/lastmile_qr_scan"}, "bike_id": "baac0dc1077b02fd39fe501edd2ef2a2", "name": "baac0dc1077b02fd39fe501edd2ef2a2", "type": "electric_scooter", "lon": -77.039997, "lat": 38.90379466666667, "is_disabled": 0, "is_reserved": 0, "fusion_lat": 0.0, "fusion_lon": 0.0}, {"rental_uris": {"android": "https://dc.lft.to/lastmile_qr_scan", "ios": "https://dc.lft.to/lastmile_qr_scan"}, "bike_id": "0893ca59bc01502b15adc521eb142204", "name": "0893ca59bc01502b15adc521eb142204", "type": "electric_scooter", "lon": -77.02361166666667, "lat": 38.9308365, "is_disabled": 0, "is_reserved": 0, "fusion_lat": 0.0, "fusion_lon": 0.0}, {"rental_uris": {"android": "https://dc.lft.to/lastmile_qr_scan", "ios": "https://dc.lft.to/lastmile_qr_scan"}, "bike_id": "653bf6ec2cacf1e03a5286ab13b71101", "name": "653bf6ec2cacf1e03a5286ab13b71101", "type": "electric_bike", "lon": -77.03416483333334, "lat": 38.93534566666666, "is_disabled": 0, "is_reserved": 0, "fusion_lat": 0.0, "fusion_lon": 0.0}, {"rental_uris": {"android": "https://dc.lft.to/lastmile_qr_scan", "ios": "https://dc.lft.to/lastmile_qr_scan"}, "bike_id": "f31d68cdfa90b423ccb2b90989b19b69", "name": "f31d68cdfa90b423ccb2b90989b19b69", "type": "electric_scooter", "lon": -76.95121466666667, "lat": 38.887873, "is_disabled": 0, "is_reserved": 0, "fusion_lat": 0.0, "fusion_lon": 0.0}, {"rental_uris": {"android": "https://dc.lft.to/lastmile_qr_scan", "ios": "https://dc.lft.to/lastmile_qr_scan"}, "bike_id": "5a826c683981076d9e31024f7e896a93", "name": "5a826c683981076d9e31024f7e896a93", "type": "electric_bike", "lon": -76.9759645, "lat": 38.9033145, "is_disabled": 0, "is_reserved": 0, "fusion_lat": 0.0, "fusion_lon": 0.0}, {"rental_uris": {"android": "https://dc.lft.to/lastmile_qr_scan", "ios": "https://dc.lft.to/lastmile_qr_scan"}, "bike_id": "190ae0def03344295b8c5e99d558e2fb", "name": "190ae0def03344295b8c5e99d558e2fb", "type": "electric_scooter", "lon": -77.0439685, "lat": 38.92019233333333, "is_disabled": 0, "is_reserved": 0, "fusion_lat": 0.0, "fusion_lon": 0.0}, {"rental_uris": {"android": "https://dc.lft.to/lastmile_qr_scan", "ios": "https://dc.lft.to/lastmile_qr_scan"}, "bike_id": "1451aa26e7fbf8653eec6125656f3378", "name": "1451aa26e7fbf8653eec6125656f3378", "type": "electric_scooter", "lon": -77.00618966666667, "lat": 38.871958, "is_disabled": 0, "is_reserved": 0, "fusion_lat": 0.0, "fusion_lon": 0.0}, {"rental_uris": {"android": "https://dc.lft.to/lastmile_qr_scan", "ios": "https://dc.lft.to/lastmile_qr_scan"}, "bike_id": "91362eda4d432c3f04242ab70f8c2823", "name": "91362eda4d432c3f04242ab70f8c2823", "type": "electric_scooter", "lon": -77.07277183333333, "lat": 38.93490216666667, "is_disabled": 0, "is_reserved": 0, "fusion_lat": 0.0, "fusion_lon": 0.0}, {"rental_uris": {"android": "https://dc.lft.to/lastmile_qr_scan", "ios": "https://dc.lft.to/lastmile_qr_scan"}, "bike_id": "f1bf7efb55c2d1977fb860d7811f9d03", "name": "f1bf7efb55c2d1977fb860d7811f9d03", "type": "electric_scooter", "lon": -77.04308066666667, "lat": 38.92315266666667, "is_disabled": 0, "is_reserved": 0, "fusion_lat": 0.0, "fusion_lon": 0.0}, {"rental_uris": {"android": "https://dc.lft.to/lastmile_qr_scan", "ios": "https://dc.lft.to/lastmile_qr_scan"}, "bike_id": "400ffb6aeddd92c184bab12d0fb953aa", "name": "400ffb6aeddd92c184bab12d0fb953aa", "type": "electric_scooter", "lon": -77.03133133333333, "lat": 38.91491633333333, "is_disabled": 0, "is_reserved": 0, "fusion_lat": 0.0, "fusion_lon": 0.0}, {"rental_uris": {"android": "https://dc.lft.to/lastmile_qr_scan", "ios": "https://dc.lft.to/lastmile_qr_scan"}, "bike_id": "586991893453330a859fb4f7d6eed1e8", "name": "586991893453330a859fb4f7d6eed1e8", "type": "electric_scooter", "lon": -76.94959233333333, "lat": 38.90492866666666, "is_disabled": 0, "is_reserved": 0, "fusion_lat": 0.0, "fusion_lon": 0.0}, {"rental_uris": {"android": "https://dc.lft.to/lastmile_qr_scan", "ios": "https://dc.lft.to/lastmile_qr_scan"}, "bike_id": "1fffc5106f3285a458dc0fb2bc69cf9c", "name": "1fffc5106f3285a458dc0fb2bc69cf9c", "type": "electric_scooter", "lon": -77.0443735, "lat": 38.92118133333334, "is_disabled": 0, "is_reserved": 0, "fusion_lat": 0.0, "fusion_lon": 0.0}, {"rental_uris": {"android": "https://dc.lft.to/lastmile_qr_scan", "ios": "https://dc.lft.to/lastmile_qr_scan"}, "bike_id": "cacbab239f1cc549a6c5bb48d38ec008", "name": "cacbab239f1cc549a6c5bb48d38ec008", "type": "electric_scooter", "lon": -77.05060816666666, "lat": 38.924186166666665, "is_disabled": 0, "is_reserved": 0, "fusion_lat": 0.0, "fusion_lon": 0.0}, {"rental_uris": {"android": "https://dc.lft.to/lastmile_qr_scan", "ios": "https://dc.lft.to/lastmile_qr_scan"}, "bike_id": "889f0fbe5cf35e16c04142a4b5c751f9", "name": "889f0fbe5cf35e16c04142a4b5c751f9", "type": "electric_scooter", "lon": -77.03827866666667, "lat": 38.91814016666667, "is_disabled": 0, "is_reserved": 0, "fusion_lat": 0.0, "fusion_lon": 0.0}, {"rental_uris": {"android": "https://dc.lft.to/lastmile_qr_scan", "ios": "https://dc.lft.to/lastmile_qr_scan"}, "bike_id": "814c4f1b31df0e21d86127a2671f6678", "name": "814c4f1b31df0e21d86127a2671f6678", "type": "electric_scooter", "lon": -77.04189416666667, "lat": 38.89987416666666, "is_disabled": 0, "is_reserved": 0, "fusion_lat": 0.0, "fusion_lon": 0.0}, {"rental_uris": {"android": "https://dc.lft.to/lastmile_qr_scan", "ios": "https://dc.lft.to/lastmile_qr_scan"}, "bike_id": "6b49b0e7726bf9ab75c2e5f30c80a315", "name": "6b49b0e7726bf9ab75c2e5f30c80a315", "type": "electric_scooter", "lon": -77.04479033333334, "lat": 38.92237033333333, "is_disabled": 0, "is_reserved": 0, "fusion_lat": 0.0, "fusion_lon": 0.0}, {"rental_uris": {"android": "https://dc.lft.to/lastmile_qr_scan", "ios": "https://dc.lft.to/lastmile_qr_scan"}, "bike_id": "4da858dd62bd88daa8b11fe42e57372a", "name": "4da858dd62bd88daa8b11fe42e57372a", "type": "electric_scooter", "lon": -77.04162633333334, "lat": 38.919534166666665, "is_disabled": 0, "is_reserved": 0, "fusion_lat": 0.0, "fusion_lon": 0.0}, {"rental_uris": {"android": "https://dc.lft.to/lastmile_qr_scan", "ios": "https://dc.lft.to/lastmile_qr_scan"}, "bike_id": "70dde7a85c39f4760d979a56e1672cef", "name": "70dde7a85c39f4760d979a56e1672cef", "type": "electric_scooter", "lon": -76.99473983333333, "lat": 38.9029865, "is_disabled": 0, "is_reserved": 0, "fusion_lat": 0.0, "fusion_lon": 0.0}, {"rental_uris": {"android": "https://dc.lft.to/lastmile_qr_scan", "ios": "https://dc.lft.to/lastmile_qr_scan"}, "bike_id": "4a04a7015f24fea278988d3c57f87e24", "name": "4a04a7015f24fea278988d3c57f87e24", "type": "electric_scooter", "lon": -76.98499383333333, "lat": 38.86669716666667, "is_disabled": 0, "is_reserved": 0, "fusion_lat": 0.0, "fusion_lon": 0.0}, {"rental_uris": {"android": "https://dc.lft.to/lastmile_qr_scan", "ios": "https://dc.lft.to/lastmile_qr_scan"}, "bike_id": "9c03bec5b4fadb9b3a15fc776cca4062", "name": "9c03bec5b4fadb9b3a15fc776cca4062", "type": "electric_scooter", "lon": -77.044813, "lat": 38.91869483333333, "is_disabled": 0, "is_reserved": 0, "fusion_lat": 0.0, "fusion_lon": 0.0}, {"rental_uris": {"android": "https://dc.lft.to/lastmile_qr_scan", "ios": "https://dc.lft.to/lastmile_qr_scan"}, "bike_id": "91186c53eded660d116129685709ff5d", "name": "91186c53eded660d116129685709ff5d", "type": "electric_bike", "lon": -76.93536866666666, "lat": 38.955532166666664, "is_disabled": 0, "is_reserved": 0, "fusion_lat": 0.0, "fusion_lon": 0.0}, {"rental_uris": {"android": "https://dc.lft.to/lastmile_qr_scan", "ios": "https://dc.lft.to/lastmile_qr_scan"}, "bike_id": "263acc32b037fdd4793f37a903dd4967", "name": "263acc32b037fdd4793f37a903dd4967", "type": "electric_scooter", "lon": -77.05136583333334, "lat": 38.905282666666665, "is_disabled": 0, "is_reserved": 0, "fusion_lat": 0.0, "fusion_lon": 0.0}, {"rental_uris": {"android": "https://dc.lft.to/lastmile_qr_scan", "ios": "https://dc.lft.to/lastmile_qr_scan"}, "bike_id": "ae5937058bbbf299e6349b2a4b3cc819", "name": "ae5937058bbbf299e6349b2a4b3cc819", "type": "electric_scooter", "lon": -77.02238566666666, "lat": 38.902201, "is_disabled": 0, "is_reserved": 0, "fusion_lat": 0.0, "fusion_lon": 0.0}, {"rental_uris": {"android": "https://dc.lft.to/lastmile_qr_scan", "ios": "https://dc.lft.to/lastmile_qr_scan"}, "bike_id": "a490f870c0bd5111f759920a74c5df3f", "name": "a490f870c0bd5111f759920a74c5df3f", "type": "electric_scooter", "lon": -77.04509083333333, "lat": 38.9000755, "is_disabled": 0, "is_reserved": 0, "fusion_lat": 0.0, "fusion_lon": 0.0}, {"rental_uris": {"android": "https://dc.lft.to/lastmile_qr_scan", "ios": "https://dc.lft.to/lastmile_qr_scan"}, "bike_id": "47f0268ebab3df7fb42cfc44d2a0b7ce", "name": "47f0268ebab3df7fb42cfc44d2a0b7ce", "type": "electric_scooter", "lon": -77.01906616666666, "lat": 38.902430833333334, "is_disabled": 0, "is_reserved": 0, "fusion_lat": 0.0, "fusion_lon": 0.0}, {"rental_uris": {"android": "https://dc.lft.to/lastmile_qr_scan", "ios": "https://dc.lft.to/lastmile_qr_scan"}, "bike_id": "92f85d8f312e61d6a054964242ffbacd", "name": "92f85d8f312e61d6a054964242ffbacd", "type": "electric_scooter", "lon": -76.93198866666667, "lat": 38.898819333333336, "is_disabled": 0, "is_reserved": 0, "fusion_lat": 0.0, "fusion_lon": 0.0}, {"rental_uris": {"android": "https://dc.lft.to/lastmile_qr_scan", "ios": "https://dc.lft.to/lastmile_qr_scan"}, "bike_id": "471ba5bc953cbdb46176dee9c77c61b3", "name": "471ba5bc953cbdb46176dee9c77c61b3", "type": "electric_scooter", "lon": -77.01222516666667, "lat": 38.9134875, "is_disabled": 0, "is_reserved": 0, "fusion_lat": 0.0, "fusion_lon": 0.0}, {"rental_uris": {"android": "https://dc.lft.to/lastmile_qr_scan", "ios": "https://dc.lft.to/lastmile_qr_scan"}, "bike_id": "671c9374e71ca9bf7f265712b6f0b4b3", "name": "671c9374e71ca9bf7f265712b6f0b4b3", "type": "electric_scooter", "lon": -76.9791575, "lat": 38.904438999999996, "is_disabled": 0, "is_reserved": 0, "fusion_lat": 0.0, "fusion_lon": 0.0}, {"rental_uris": {"android": "https://dc.lft.to/lastmile_qr_scan", "ios": "https://dc.lft.to/lastmile_qr_scan"}, "bike_id": "aa2122605aedde60386bcdf5a411c531", "name": "aa2122605aedde60386bcdf5a411c531", "type": "electric_scooter", "lon": -77.0558205, "lat": 38.89326416666667, "is_disabled": 0, "is_reserved": 0, "fusion_lat": 0.0, "fusion_lon": 0.0}, {"rental_uris": {"android": "https://dc.lft.to/lastmile_qr_scan", "ios": "https://dc.lft.to/lastmile_qr_scan"}, "bike_id": "1cb60d63f6ee6dca9c36fbc31a1f20c0", "name": "1cb60d63f6ee6dca9c36fbc31a1f20c0", "type": "electric_scooter", "lon": -77.02163933333334, "lat": 38.92612483333333, "is_disabled": 0, "is_reserved": 0, "fusion_lat": 0.0, "fusion_lon": 0.0}, {"rental_uris": {"android": "https://dc.lft.to/lastmile_qr_scan", "ios": "https://dc.lft.to/lastmile_qr_scan"}, "bike_id": "8386b3c00c6a437b0b9e23c5f0910cdd", "name": "8386b3c00c6a437b0b9e23c5f0910cdd", "type": "electric_scooter", "lon": -76.98885083333333, "lat": 38.86656216666667, "is_disabled": 0, "is_reserved": 0, "fusion_lat": 0.0, "fusion_lon": 0.0}, {"rental_uris": {"android": "https://dc.lft.to/lastmile_qr_scan", "ios": "https://dc.lft.to/lastmile_qr_scan"}, "bike_id": "58a76920c8d191951223fd366e253c4f", "name": "58a76920c8d191951223fd366e253c4f", "type": "electric_scooter", "lon": -76.98543966666666, "lat": 38.8799845, "is_disabled": 0, "is_reserved": 0, "fusion_lat": 0.0, "fusion_lon": 0.0}, {"rental_uris": {"android": "https://dc.lft.to/lastmile_qr_scan", "ios": "https://dc.lft.to/lastmile_qr_scan"}, "bike_id": "43ba21d4f4009c2ad164b873cb3546c5", "name": "43ba21d4f4009c2ad164b873cb3546c5", "type": "electric_scooter", "lon": -77.04617383333333, "lat": 38.909596, "is_disabled": 0, "is_reserved": 0, "fusion_lat": 0.0, "fusion_lon": 0.0}, {"rental_uris": {"android": "https://dc.lft.to/lastmile_qr_scan", "ios": "https://dc.lft.to/lastmile_qr_scan"}, "bike_id": "adc8d36f47232c4d9f2eb89a2156918f", "name": "adc8d36f47232c4d9f2eb89a2156918f", "type": "electric_scooter", "lon": -77.028079, "lat": 38.930799666666665, "is_disabled": 0, "is_reserved": 0, "fusion_lat": 0.0, "fusion_lon": 0.0}, {"rental_uris": {"android": "https://dc.lft.to/lastmile_qr_scan", "ios": "https://dc.lft.to/lastmile_qr_scan"}, "bike_id": "0148c8e2d730342f8d4094d1404eeccb", "name": "0148c8e2d730342f8d4094d1404eeccb", "type": "electric_scooter", "lon": -77.04125933333333, "lat": 38.91708116666667, "is_disabled": 0, "is_reserved": 0, "fusion_lat": 0.0, "fusion_lon": 0.0}, {"rental_uris": {"android": "https://dc.lft.to/lastmile_qr_scan", "ios": "https://dc.lft.to/lastmile_qr_scan"}, "bike_id": "732851df0dc8650efd8a73f0aa7ce94a", "name": "732851df0dc8650efd8a73f0aa7ce94a", "type": "electric_scooter", "lon": -77.04155916666667, "lat": 38.91592583333333, "is_disabled": 0, "is_reserved": 0, "fusion_lat": 0.0, "fusion_lon": 0.0}, {"rental_uris": {"android": "https://dc.lft.to/lastmile_qr_scan", "ios": "https://dc.lft.to/lastmile_qr_scan"}, "bike_id": "83533c69dc88a4d17e74ca52647a50e4", "name": "83533c69dc88a4d17e74ca52647a50e4", "type": "electric_scooter", "lon": -77.00459783333334, "lat": 38.876330833333334, "is_disabled": 0, "is_reserved": 0, "fusion_lat": 0.0, "fusion_lon": 0.0}, {"rental_uris": {"android": "https://dc.lft.to/lastmile_qr_scan", "ios": "https://dc.lft.to/lastmile_qr_scan"}, "bike_id": "b2ee32310f9290c81a712e7f7509326d", "name": "b2ee32310f9290c81a712e7f7509326d", "type": "electric_scooter", "lon": -77.0409245, "lat": 38.910952333333334, "is_disabled": 0, "is_reserved": 0, "fusion_lat": 0.0, "fusion_lon": 0.0}, {"rental_uris": {"android": "https://dc.lft.to/lastmile_qr_scan", "ios": "https://dc.lft.to/lastmile_qr_scan"}, "bike_id": "ecf0a588042dbe052dad0946639d6525", "name": "ecf0a588042dbe052dad0946639d6525", "type": "electric_scooter", "lon": -77.051209, "lat": 38.92345783333333, "is_disabled": 0, "is_reserved": 0, "fusion_lat": 0.0, "fusion_lon": 0.0}, {"rental_uris": {"android": "https://dc.lft.to/lastmile_qr_scan", "ios": "https://dc.lft.to/lastmile_qr_scan"}, "bike_id": "d45226f2b23f93c16d329823bf4b6d1a", "name": "d45226f2b23f93c16d329823bf4b6d1a", "type": "electric_scooter", "lon": -77.0511185, "lat": 38.90529866666667, "is_disabled": 0, "is_reserved": 0, "fusion_lat": 0.0, "fusion_lon": 0.0}, {"rental_uris": {"android": "https://dc.lft.to/lastmile_qr_scan", "ios": "https://dc.lft.to/lastmile_qr_scan"}, "bike_id": "b3857b4aa5bacf15efbc546df7d56ec0", "name": "b3857b4aa5bacf15efbc546df7d56ec0", "type": "electric_bike", "lon": -77.01281683333333, "lat": 38.87164683333334, "is_disabled": 0, "is_reserved": 0, "fusion_lat": 0.0, "fusion_lon": 0.0}, {"rental_uris": {"android": "https://dc.lft.to/lastmile_qr_scan", "ios": "https://dc.lft.to/lastmile_qr_scan"}, "bike_id": "0c8894e4dba521a4f4e4faebba130f8a", "name": "0c8894e4dba521a4f4e4faebba130f8a", "type": "electric_bike", "lon": -77.09826666666666, "lat": 38.99094016666667, "is_disabled": 0, "is_reserved": 0, "fusion_lat": 0.0, "fusion_lon": 0.0}, {"rental_uris": {"android": "https://dc.lft.to/lastmile_qr_scan", "ios": "https://dc.lft.to/lastmile_qr_scan"}, "bike_id": "bf03d9bcefd1f05627b396236f9b03ab", "name": "bf03d9bcefd1f05627b396236f9b03ab", "type": "electric_scooter", "lon": -77.00130133333333, "lat": 38.905401833333336, "is_disabled": 0, "is_reserved": 0, "fusion_lat": 0.0, "fusion_lon": 0.0}, {"rental_uris": {"android": "https://dc.lft.to/lastmile_qr_scan", "ios": "https://dc.lft.to/lastmile_qr_scan"}, "bike_id": "b87bb55b060eed4b0875e4f179b18e9a", "name": "b87bb55b060eed4b0875e4f179b18e9a", "type": "electric_scooter", "lon": -76.993321, "lat": 38.924438, "is_disabled": 0, "is_reserved": 0, "fusion_lat": 0.0, "fusion_lon": 0.0}, {"rental_uris": {"android": "https://dc.lft.to/lastmile_qr_scan", "ios": "https://dc.lft.to/lastmile_qr_scan"}, "bike_id": "d491965427a064740a690d7c3151c217", "name": "d491965427a064740a690d7c3151c217", "type": "electric_scooter", "lon": -77.02099116666666, "lat": 38.92709033333333, "is_disabled": 0, "is_reserved": 0, "fusion_lat": 0.0, "fusion_lon": 0.0}, {"rental_uris": {"android": "https://dc.lft.to/lastmile_qr_scan", "ios": "https://dc.lft.to/lastmile_qr_scan"}, "bike_id": "f2f3e8c05b9f3006cbc7ff675b091bdf", "name": "f2f3e8c05b9f3006cbc7ff675b091bdf", "type": "electric_bike", "lon": -77.08587616666667, "lat": 38.8443835, "is_disabled": 0, "is_reserved": 0, "fusion_lat": 0.0, "fusion_lon": 0.0}, {"rental_uris": {"android": "https://dc.lft.to/lastmile_qr_scan", "ios": "https://dc.lft.to/lastmile_qr_scan"}, "bike_id": "14a98204d3b17bb52312c40a824e357e", "name": "14a98204d3b17bb52312c40a824e357e", "type": "electric_scooter", "lon": -77.0347505, "lat": 38.92543083333333, "is_disabled": 0, "is_reserved": 0, "fusion_lat": 0.0, "fusion_lon": 0.0}, {"rental_uris": {"android": "https://dc.lft.to/lastmile_qr_scan", "ios": "https://dc.lft.to/lastmile_qr_scan"}, "bike_id": "76cd5d8d26fd992b2616d82cbc5cf2df", "name": "76cd5d8d26fd992b2616d82cbc5cf2df", "type": "electric_bike", "lon": -76.97237583333333, "lat": 38.949026833333335, "is_disabled": 0, "is_reserved": 0, "fusion_lat": 0.0, "fusion_lon": 0.0}, {"rental_uris": {"android": "https://dc.lft.to/lastmile_qr_scan", "ios": "https://dc.lft.to/lastmile_qr_scan"}, "bike_id": "272d0be0c355ee521b7e5a62acd81f5a", "name": "272d0be0c355ee521b7e5a62acd81f5a", "type": "electric_scooter", "lon": -77.0365615, "lat": 38.9179755, "is_disabled": 0, "is_reserved": 0, "fusion_lat": 0.0, "fusion_lon": 0.0}, {"rental_uris": {"android": "https://dc.lft.to/lastmile_qr_scan", "ios": "https://dc.lft.to/lastmile_qr_scan"}, "bike_id": "29bc0fbcb9e6cbff12bff5cf263e5c5f", "name": "29bc0fbcb9e6cbff12bff5cf263e5c5f", "type": "electric_scooter", "lon": -77.02208333333333, "lat": 38.886433, "is_disabled": 0, "is_reserved": 0, "fusion_lat": 0.0, "fusion_lon": 0.0}, {"rental_uris": {"android": "https://dc.lft.to/lastmile_qr_scan", "ios": "https://dc.lft.to/lastmile_qr_scan"}, "bike_id": "ac3a2c30155ccd551498a65d99f3d4b0", "name": "ac3a2c30155ccd551498a65d99f3d4b0", "type": "electric_scooter", "lon": -77.02990683333333, "lat": 38.93459883333333, "is_disabled": 0, "is_reserved": 0, "fusion_lat": 0.0, "fusion_lon": 0.0}, {"rental_uris": {"android": "https://dc.lft.to/lastmile_qr_scan", "ios": "https://dc.lft.to/lastmile_qr_scan"}, "bike_id": "a4297666ceaf27412c023209ef248d0b", "name": "a4297666ceaf27412c023209ef248d0b", "type": "electric_scooter", "lon": -77.0552275, "lat": 38.92966, "is_disabled": 0, "is_reserved": 0, "fusion_lat": 0.0, "fusion_lon": 0.0}, {"rental_uris": {"android": "https://dc.lft.to/lastmile_qr_scan", "ios": "https://dc.lft.to/lastmile_qr_scan"}, "bike_id": "59528080dd53ed0337c4a47461244382", "name": "59528080dd53ed0337c4a47461244382", "type": "electric_bike", "lon": -77.01988483333334, "lat": 38.922770666666665, "is_disabled": 0, "is_reserved": 0, "fusion_lat": 0.0, "fusion_lon": 0.0}, {"rental_uris": {"android": "https://dc.lft.to/lastmile_qr_scan", "ios": "https://dc.lft.to/lastmile_qr_scan"}, "bike_id": "ed803e3c2e039cc4d2c8ddc46e4d4c6c", "name": "ed803e3c2e039cc4d2c8ddc46e4d4c6c", "type": "electric_scooter", "lon": -77.00202916666667, "lat": 38.902375166666666, "is_disabled": 0, "is_reserved": 0, "fusion_lat": 0.0, "fusion_lon": 0.0}, {"rental_uris": {"android": "https://dc.lft.to/lastmile_qr_scan", "ios": "https://dc.lft.to/lastmile_qr_scan"}, "bike_id": "94b465fdd11652adaadfd34fae07a60c", "name": "94b465fdd11652adaadfd34fae07a60c", "type": "electric_scooter", "lon": -76.98925483333333, "lat": 38.8581245, "is_disabled": 0, "is_reserved": 0, "fusion_lat": 0.0, "fusion_lon": 0.0}, {"rental_uris": {"android": "https://dc.lft.to/lastmile_qr_scan", "ios": "https://dc.lft.to/lastmile_qr_scan"}, "bike_id": "816dbba07df49fb8f69f410305a2fa4e", "name": "816dbba07df49fb8f69f410305a2fa4e", "type": "electric_scooter", "lon": -76.98654133333334, "lat": 38.858081166666665, "is_disabled": 0, "is_reserved": 0, "fusion_lat": 0.0, "fusion_lon": 0.0}, {"rental_uris": {"android": "https://dc.lft.to/lastmile_qr_scan", "ios": "https://dc.lft.to/lastmile_qr_scan"}, "bike_id": "dedd94746ecd3eb8513574f1311a26ea", "name": "dedd94746ecd3eb8513574f1311a26ea", "type": "electric_scooter", "lon": -77.05225416666667, "lat": 38.9270165, "is_disabled": 0, "is_reserved": 0, "fusion_lat": 0.0, "fusion_lon": 0.0}, {"rental_uris": {"android": "https://dc.lft.to/lastmile_qr_scan", "ios": "https://dc.lft.to/lastmile_qr_scan"}, "bike_id": "4c1c2398c1e0c2cfebdb01a838e61bf6", "name": "4c1c2398c1e0c2cfebdb01a838e61bf6", "type": "electric_scooter", "lon": -77.04899883333333, "lat": 38.90527066666667, "is_disabled": 0, "is_reserved": 0, "fusion_lat": 0.0, "fusion_lon": 0.0}, {"rental_uris": {"android": "https://dc.lft.to/lastmile_qr_scan", "ios": "https://dc.lft.to/lastmile_qr_scan"}, "bike_id": "7ee8299be6d30a333fb7e6b9d51b2c93", "name": "7ee8299be6d30a333fb7e6b9d51b2c93", "type": "electric_scooter", "lon": -77.02897633333333, "lat": 38.91405666666667, "is_disabled": 0, "is_reserved": 0, "fusion_lat": 0.0, "fusion_lon": 0.0}, {"rental_uris": {"android": "https://dc.lft.to/lastmile_qr_scan", "ios": "https://dc.lft.to/lastmile_qr_scan"}, "bike_id": "098e79e1880a63e6a0e2d3b80d38adcd", "name": "098e79e1880a63e6a0e2d3b80d38adcd", "type": "electric_bike", "lon": -76.90706733333333, "lat": 38.89596433333333, "is_disabled": 0, "is_reserved": 0, "fusion_lat": 0.0, "fusion_lon": 0.0}, {"rental_uris": {"android": "https://dc.lft.to/lastmile_qr_scan", "ios": "https://dc.lft.to/lastmile_qr_scan"}, "bike_id": "2cf645f810f24f69f2433710f1fae0e2", "name": "2cf645f810f24f69f2433710f1fae0e2", "type": "electric_scooter", "lon": -76.9980325, "lat": 38.9000315, "is_disabled": 0, "is_reserved": 0, "fusion_lat": 0.0, "fusion_lon": 0.0}, {"rental_uris": {"android": "https://dc.lft.to/lastmile_qr_scan", "ios": "https://dc.lft.to/lastmile_qr_scan"}, "bike_id": "d323f5c50d9c842ac9fdebf34ae08417", "name": "d323f5c50d9c842ac9fdebf34ae08417", "type": "electric_scooter", "lon": -77.04053666666667, "lat": 38.8990035, "is_disabled": 0, "is_reserved": 0, "fusion_lat": 0.0, "fusion_lon": 0.0}, {"rental_uris": {"android": "https://dc.lft.to/lastmile_qr_scan", "ios": "https://dc.lft.to/lastmile_qr_scan"}, "bike_id": "d069402bda3d4fa5cf4c277453dab7a8", "name": "d069402bda3d4fa5cf4c277453dab7a8", "type": "electric_scooter", "lon": -77.00237983333334, "lat": 38.874799833333334, "is_disabled": 0, "is_reserved": 0, "fusion_lat": 0.0, "fusion_lon": 0.0}, {"rental_uris": {"android": "https://dc.lft.to/lastmile_qr_scan", "ios": "https://dc.lft.to/lastmile_qr_scan"}, "bike_id": "e5978b0ef523d131743ebe6f0d238060", "name": "e5978b0ef523d131743ebe6f0d238060", "type": "electric_scooter", "lon": -77.03960333333333, "lat": 38.898635, "is_disabled": 0, "is_reserved": 0, "fusion_lat": 0.0, "fusion_lon": 0.0}, {"rental_uris": {"android": "https://dc.lft.to/lastmile_qr_scan", "ios": "https://dc.lft.to/lastmile_qr_scan"}, "bike_id": "73575b29d2a6a9f532ddc70dab6e8bb0", "name": "73575b29d2a6a9f532ddc70dab6e8bb0", "type": "electric_scooter", "lon": -76.99814783333333, "lat": 38.844323, "is_disabled": 0, "is_reserved": 0, "fusion_lat": 0.0, "fusion_lon": 0.0}, {"rental_uris": {"android": "https://dc.lft.to/lastmile_qr_scan", "ios": "https://dc.lft.to/lastmile_qr_scan"}, "bike_id": "6a8b668045986bd2847082822113c0c4", "name": "6a8b668045986bd2847082822113c0c4", "type": "electric_scooter", "lon": -77.04642083333333, "lat": 38.91920916666667, "is_disabled": 0, "is_reserved": 0, "fusion_lat": 0.0, "fusion_lon": 0.0}, {"rental_uris": {"android": "https://dc.lft.to/lastmile_qr_scan", "ios": "https://dc.lft.to/lastmile_qr_scan"}, "bike_id": "eb8fca29e288ba4c735c0505a2fec212", "name": "eb8fca29e288ba4c735c0505a2fec212", "type": "electric_scooter", "lon": -77.02716466666666, "lat": 38.90887216666667, "is_disabled": 0, "is_reserved": 0, "fusion_lat": 0.0, "fusion_lon": 0.0}, {"rental_uris": {"android": "https://dc.lft.to/lastmile_qr_scan", "ios": "https://dc.lft.to/lastmile_qr_scan"}, "bike_id": "69da147cce33b2995c431198a11e10e6", "name": "69da147cce33b2995c431198a11e10e6", "type": "electric_scooter", "lon": -76.99589583333334, "lat": 38.88434083333333, "is_disabled": 0, "is_reserved": 0, "fusion_lat": 0.0, "fusion_lon": 0.0}, {"rental_uris": {"android": "https://dc.lft.to/lastmile_qr_scan", "ios": "https://dc.lft.to/lastmile_qr_scan"}, "bike_id": "75e95779ca1ac5ad56a4d596495d5cdf", "name": "75e95779ca1ac5ad56a4d596495d5cdf", "type": "electric_scooter", "lon": -77.04349566666667, "lat": 38.92140633333333, "is_disabled": 0, "is_reserved": 0, "fusion_lat": 0.0, "fusion_lon": 0.0}, {"rental_uris": {"android": "https://dc.lft.to/lastmile_qr_scan", "ios": "https://dc.lft.to/lastmile_qr_scan"}, "bike_id": "6f33e5c54d54898971fd83fd8ed8dc93", "name": "6f33e5c54d54898971fd83fd8ed8dc93", "type": "electric_scooter", "lon": -77.03282133333333, "lat": 38.920694, "is_disabled": 0, "is_reserved": 0, "fusion_lat": 0.0, "fusion_lon": 0.0}, {"rental_uris": {"android": "https://dc.lft.to/lastmile_qr_scan", "ios": "https://dc.lft.to/lastmile_qr_scan"}, "bike_id": "86a72ac09030748cb187f2c152709278", "name": "86a72ac09030748cb187f2c152709278", "type": "electric_scooter", "lon": -77.050274, "lat": 38.9062285, "is_disabled": 0, "is_reserved": 0, "fusion_lat": 0.0, "fusion_lon": 0.0}, {"rental_uris": {"android": "https://dc.lft.to/lastmile_qr_scan", "ios": "https://dc.lft.to/lastmile_qr_scan"}, "bike_id": "5420a27fe43c5e622712ab81205e71ee", "name": "5420a27fe43c5e622712ab81205e71ee", "type": "electric_scooter", "lon": -77.03362383333334, "lat": 38.9038045, "is_disabled": 0, "is_reserved": 0, "fusion_lat": 0.0, "fusion_lon": 0.0}, {"rental_uris": {"android": "https://dc.lft.to/lastmile_qr_scan", "ios": "https://dc.lft.to/lastmile_qr_scan"}, "bike_id": "bd90d251e553968d915cb2b917c54437", "name": "bd90d251e553968d915cb2b917c54437", "type": "electric_scooter", "lon": -77.030435, "lat": 38.913305, "is_disabled": 0, "is_reserved": 0, "fusion_lat": 0.0, "fusion_lon": 0.0}, {"rental_uris": {"android": "https://dc.lft.to/lastmile_qr_scan", "ios": "https://dc.lft.to/lastmile_qr_scan"}, "bike_id": "ebe045ec4cfdd71f386e472f7166eb98", "name": "ebe045ec4cfdd71f386e472f7166eb98", "type": "electric_scooter", "lon": -77.02079383333333, "lat": 38.911125166666665, "is_disabled": 0, "is_reserved": 0, "fusion_lat": 0.0, "fusion_lon": 0.0}, {"rental_uris": {"android": "https://dc.lft.to/lastmile_qr_scan", "ios": "https://dc.lft.to/lastmile_qr_scan"}, "bike_id": "1a335c11767977470128934d3688d232", "name": "1a335c11767977470128934d3688d232", "type": "electric_scooter", "lon": -77.02163466666667, "lat": 38.88480633333333, "is_disabled": 0, "is_reserved": 0, "fusion_lat": 0.0, "fusion_lon": 0.0}, {"rental_uris": {"android": "https://dc.lft.to/lastmile_qr_scan", "ios": "https://dc.lft.to/lastmile_qr_scan"}, "bike_id": "14714ef2e94a300581f69555a5fd3bca", "name": "14714ef2e94a300581f69555a5fd3bca", "type": "electric_scooter", "lon": -77.025764, "lat": 38.916027, "is_disabled": 0, "is_reserved": 0, "fusion_lat": 0.0, "fusion_lon": 0.0}, {"rental_uris": {"android": "https://dc.lft.to/lastmile_qr_scan", "ios": "https://dc.lft.to/lastmile_qr_scan"}, "bike_id": "790f946cee5395e75ea8709d8aa7315d", "name": "790f946cee5395e75ea8709d8aa7315d", "type": "electric_scooter", "lon": -77.03810466666667, "lat": 38.930414999999996, "is_disabled": 0, "is_reserved": 0, "fusion_lat": 0.0, "fusion_lon": 0.0}, {"rental_uris": {"android": "https://dc.lft.to/lastmile_qr_scan", "ios": "https://dc.lft.to/lastmile_qr_scan"}, "bike_id": "013696e3af2d58e289de6bcf067d149e", "name": "013696e3af2d58e289de6bcf067d149e", "type": "electric_bike", "lon": -76.98476066666667, "lat": 38.91094733333333, "is_disabled": 0, "is_reserved": 0, "fusion_lat": 0.0, "fusion_lon": 0.0}, {"rental_uris": {"android": "https://dc.lft.to/lastmile_qr_scan", "ios": "https://dc.lft.to/lastmile_qr_scan"}, "bike_id": "73218de4ac423392f7ff1e3026eee297", "name": "73218de4ac423392f7ff1e3026eee297", "type": "electric_scooter", "lon": -77.03221016666667, "lat": 38.91706283333333, "is_disabled": 0, "is_reserved": 0, "fusion_lat": 0.0, "fusion_lon": 0.0}, {"rental_uris": {"android": "https://dc.lft.to/lastmile_qr_scan", "ios": "https://dc.lft.to/lastmile_qr_scan"}, "bike_id": "47ce5695391a8f2c25d8c78cdd93c2d4", "name": "47ce5695391a8f2c25d8c78cdd93c2d4", "type": "electric_scooter", "lon": -77.03946133333334, "lat": 38.915626333333336, "is_disabled": 0, "is_reserved": 0, "fusion_lat": 0.0, "fusion_lon": 0.0}, {"rental_uris": {"android": "https://dc.lft.to/lastmile_qr_scan", "ios": "https://dc.lft.to/lastmile_qr_scan"}, "bike_id": "40600c6707f1fa6ff5aa0602f82e8a0a", "name": "40600c6707f1fa6ff5aa0602f82e8a0a", "type": "electric_scooter", "lon": -77.0233675, "lat": 38.926127666666666, "is_disabled": 0, "is_reserved": 0, "fusion_lat": 0.0, "fusion_lon": 0.0}, {"rental_uris": {"android": "https://dc.lft.to/lastmile_qr_scan", "ios": "https://dc.lft.to/lastmile_qr_scan"}, "bike_id": "09aa421bcec72cccf9a8cea39404b173", "name": "09aa421bcec72cccf9a8cea39404b173", "type": "electric_scooter", "lon": -77.02775333333334, "lat": 38.93957916666667, "is_disabled": 0, "is_reserved": 0, "fusion_lat": 0.0, "fusion_lon": 0.0}, {"rental_uris": {"android": "https://dc.lft.to/lastmile_qr_scan", "ios": "https://dc.lft.to/lastmile_qr_scan"}, "bike_id": "811175a58b1b75bae5cc21aea3b1ecec", "name": "811175a58b1b75bae5cc21aea3b1ecec", "type": "electric_scooter", "lon": -77.00122933333333, "lat": 38.905569666666665, "is_disabled": 0, "is_reserved": 0, "fusion_lat": 0.0, "fusion_lon": 0.0}, {"rental_uris": {"android": "https://dc.lft.to/lastmile_qr_scan", "ios": "https://dc.lft.to/lastmile_qr_scan"}, "bike_id": "5cbac2311fe6126ac9dd71a6002bc6f4", "name": "5cbac2311fe6126ac9dd71a6002bc6f4", "type": "electric_scooter", "lon": -77.042579, "lat": 38.9054935, "is_disabled": 0, "is_reserved": 0, "fusion_lat": 0.0, "fusion_lon": 0.0}, {"rental_uris": {"android": "https://dc.lft.to/lastmile_qr_scan", "ios": "https://dc.lft.to/lastmile_qr_scan"}, "bike_id": "0ee345df69b4f1f0448e7e05967b13b8", "name": "0ee345df69b4f1f0448e7e05967b13b8", "type": "electric_scooter", "lon": -77.07952683333333, "lat": 38.94765966666667, "is_disabled": 0, "is_reserved": 0, "fusion_lat": 0.0, "fusion_lon": 0.0}, {"rental_uris": {"android": "https://dc.lft.to/lastmile_qr_scan", "ios": "https://dc.lft.to/lastmile_qr_scan"}, "bike_id": "77247bf8a4b7cfdaffd20e7867b66b16", "name": "77247bf8a4b7cfdaffd20e7867b66b16", "type": "electric_scooter", "lon": -77.01206616666667, "lat": 38.897889166666666, "is_disabled": 0, "is_reserved": 0, "fusion_lat": 0.0, "fusion_lon": 0.0}, {"rental_uris": {"android": "https://dc.lft.to/lastmile_qr_scan", "ios": "https://dc.lft.to/lastmile_qr_scan"}, "bike_id": "dc51836fb49944c6054409501897edd0", "name": "dc51836fb49944c6054409501897edd0", "type": "electric_scooter", "lon": -77.04175966666666, "lat": 38.91825, "is_disabled": 0, "is_reserved": 0, "fusion_lat": 0.0, "fusion_lon": 0.0}, {"rental_uris": {"android": "https://dc.lft.to/lastmile_qr_scan", "ios": "https://dc.lft.to/lastmile_qr_scan"}, "bike_id": "a736bbba292c6d28692e8e216d174ac0", "name": "a736bbba292c6d28692e8e216d174ac0", "type": "electric_scooter", "lon": -76.95757683333333, "lat": 38.88431583333333, "is_disabled": 0, "is_reserved": 0, "fusion_lat": 0.0, "fusion_lon": 0.0}, {"rental_uris": {"android": "https://dc.lft.to/lastmile_qr_scan", "ios": "https://dc.lft.to/lastmile_qr_scan"}, "bike_id": "f5177c79ae7edaee5cffdfa60d20a470", "name": "f5177c79ae7edaee5cffdfa60d20a470", "type": "electric_scooter", "lon": -76.9807285, "lat": 38.901670833333334, "is_disabled": 0, "is_reserved": 0, "fusion_lat": 0.0, "fusion_lon": 0.0}, {"rental_uris": {"android": "https://dc.lft.to/lastmile_qr_scan", "ios": "https://dc.lft.to/lastmile_qr_scan"}, "bike_id": "4ff592a796d93b3b1ea3a7faa24731d6", "name": "4ff592a796d93b3b1ea3a7faa24731d6", "type": "electric_scooter", "lon": -77.04864466666666, "lat": 38.91526016666667, "is_disabled": 0, "is_reserved": 0, "fusion_lat": 0.0, "fusion_lon": 0.0}, {"rental_uris": {"android": "https://dc.lft.to/lastmile_qr_scan", "ios": "https://dc.lft.to/lastmile_qr_scan"}, "bike_id": "db8963945715ee4165a233e1c2d11c20", "name": "db8963945715ee4165a233e1c2d11c20", "type": "electric_bike", "lon": -77.10602233333333, "lat": 38.928958, "is_disabled": 0, "is_reserved": 0, "fusion_lat": 0.0, "fusion_lon": 0.0}, {"rental_uris": {"android": "https://dc.lft.to/lastmile_qr_scan", "ios": "https://dc.lft.to/lastmile_qr_scan"}, "bike_id": "33b3e6739505b58b8c32d39ff0c08cb7", "name": "33b3e6739505b58b8c32d39ff0c08cb7", "type": "electric_scooter", "lon": -77.01192016666667, "lat": 38.903063833333334, "is_disabled": 0, "is_reserved": 0, "fusion_lat": 0.0, "fusion_lon": 0.0}, {"rental_uris": {"android": "https://dc.lft.to/lastmile_qr_scan", "ios": "https://dc.lft.to/lastmile_qr_scan"}, "bike_id": "bfa1c02b1a0990c89223cb8e798ffc22", "name": "bfa1c02b1a0990c89223cb8e798ffc22", "type": "electric_scooter", "lon": -76.9496705, "lat": 38.893600666666664, "is_disabled": 0, "is_reserved": 0, "fusion_lat": 0.0, "fusion_lon": 0.0}, {"rental_uris": {"android": "https://dc.lft.to/lastmile_qr_scan", "ios": "https://dc.lft.to/lastmile_qr_scan"}, "bike_id": "b1f161f9d3622c4dbc760407b13cbbe6", "name": "b1f161f9d3622c4dbc760407b13cbbe6", "type": "electric_scooter", "lon": -77.044902, "lat": 38.9085805, "is_disabled": 0, "is_reserved": 0, "fusion_lat": 0.0, "fusion_lon": 0.0}, {"rental_uris": {"android": "https://dc.lft.to/lastmile_qr_scan", "ios": "https://dc.lft.to/lastmile_qr_scan"}, "bike_id": "2bad7658b5a82bbd88e43ef3071703bc", "name": "2bad7658b5a82bbd88e43ef3071703bc", "type": "electric_scooter", "lon": -77.0320835, "lat": 38.917959333333336, "is_disabled": 0, "is_reserved": 0, "fusion_lat": 0.0, "fusion_lon": 0.0}, {"rental_uris": {"android": "https://dc.lft.to/lastmile_qr_scan", "ios": "https://dc.lft.to/lastmile_qr_scan"}, "bike_id": "78ea6c30bb8c7c2d75dc85d185b655ef", "name": "78ea6c30bb8c7c2d75dc85d185b655ef", "type": "electric_scooter", "lon": -77.03207733333333, "lat": 38.91752966666667, "is_disabled": 0, "is_reserved": 0, "fusion_lat": 0.0, "fusion_lon": 0.0}, {"rental_uris": {"android": "https://dc.lft.to/lastmile_qr_scan", "ios": "https://dc.lft.to/lastmile_qr_scan"}, "bike_id": "e912acc39bfcf6965877cc909702a607", "name": "e912acc39bfcf6965877cc909702a607", "type": "electric_scooter", "lon": -76.99772516666667, "lat": 38.84426166666667, "is_disabled": 0, "is_reserved": 0, "fusion_lat": 0.0, "fusion_lon": 0.0}, {"rental_uris": {"android": "https://dc.lft.to/lastmile_qr_scan", "ios": "https://dc.lft.to/lastmile_qr_scan"}, "bike_id": "1e99da305f420fe90864203e6c397225", "name": "1e99da305f420fe90864203e6c397225", "type": "electric_scooter", "lon": -77.03120933333334, "lat": 38.9156395, "is_disabled": 0, "is_reserved": 0, "fusion_lat": 0.0, "fusion_lon": 0.0}, {"rental_uris": {"android": "https://dc.lft.to/lastmile_qr_scan", "ios": "https://dc.lft.to/lastmile_qr_scan"}, "bike_id": "59a3ce9b34dd70e9ae2faebe94f5c1d9", "name": "59a3ce9b34dd70e9ae2faebe94f5c1d9", "type": "electric_scooter", "lon": -77.02484366666667, "lat": 38.920781166666664, "is_disabled": 0, "is_reserved": 0, "fusion_lat": 0.0, "fusion_lon": 0.0}, {"rental_uris": {"android": "https://dc.lft.to/lastmile_qr_scan", "ios": "https://dc.lft.to/lastmile_qr_scan"}, "bike_id": "f8b83dcec9204e218acbcfc400283fb1", "name": "f8b83dcec9204e218acbcfc400283fb1", "type": "electric_scooter", "lon": -77.00801533333333, "lat": 38.89715133333333, "is_disabled": 0, "is_reserved": 0, "fusion_lat": 0.0, "fusion_lon": 0.0}, {"rental_uris": {"android": "https://dc.lft.to/lastmile_qr_scan", "ios": "https://dc.lft.to/lastmile_qr_scan"}, "bike_id": "7d8d25a74ca3c856c62b4a71ee1d90bc", "name": "7d8d25a74ca3c856c62b4a71ee1d90bc", "type": "electric_scooter", "lon": -77.04376916666666, "lat": 38.911251166666666, "is_disabled": 0, "is_reserved": 0, "fusion_lat": 0.0, "fusion_lon": 0.0}, {"rental_uris": {"android": "https://dc.lft.to/lastmile_qr_scan", "ios": "https://dc.lft.to/lastmile_qr_scan"}, "bike_id": "3dcb2bceeb2b141d18cbfc24039e4843", "name": "3dcb2bceeb2b141d18cbfc24039e4843", "type": "electric_scooter", "lon": -77.0237455, "lat": 38.920081833333334, "is_disabled": 0, "is_reserved": 0, "fusion_lat": 0.0, "fusion_lon": 0.0}, {"rental_uris": {"android": "https://dc.lft.to/lastmile_qr_scan", "ios": "https://dc.lft.to/lastmile_qr_scan"}, "bike_id": "3a828547fa392a7b7e23c3d9b82c014d", "name": "3a828547fa392a7b7e23c3d9b82c014d", "type": "electric_scooter", "lon": -77.02406616666667, "lat": 38.8925245, "is_disabled": 0, "is_reserved": 0, "fusion_lat": 0.0, "fusion_lon": 0.0}, {"rental_uris": {"android": "https://dc.lft.to/lastmile_qr_scan", "ios": "https://dc.lft.to/lastmile_qr_scan"}, "bike_id": "f3aa640bdfcb98b9286d12c320743b45", "name": "f3aa640bdfcb98b9286d12c320743b45", "type": "electric_scooter", "lon": -77.08191516666666, "lat": 38.935336, "is_disabled": 0, "is_reserved": 0, "fusion_lat": 0.0, "fusion_lon": 0.0}, {"rental_uris": {"android": "https://dc.lft.to/lastmile_qr_scan", "ios": "https://dc.lft.to/lastmile_qr_scan"}, "bike_id": "b012977efec330e804516198fdddd525", "name": "b012977efec330e804516198fdddd525", "type": "electric_scooter", "lon": -77.03171433333333, "lat": 38.899906666666666, "is_disabled": 0, "is_reserved": 0, "fusion_lat": 0.0, "fusion_lon": 0.0}, {"rental_uris": {"android": "https://dc.lft.to/lastmile_qr_scan", "ios": "https://dc.lft.to/lastmile_qr_scan"}, "bike_id": "534a491651f1e7ef8f8bf4d352df2a29", "name": "534a491651f1e7ef8f8bf4d352df2a29", "type": "electric_scooter", "lon": -77.02287916666667, "lat": 38.91653933333333, "is_disabled": 0, "is_reserved": 0, "fusion_lat": 0.0, "fusion_lon": 0.0}, {"rental_uris": {"android": "https://dc.lft.to/lastmile_qr_scan", "ios": "https://dc.lft.to/lastmile_qr_scan"}, "bike_id": "ad0f210723aff19572b032066ad52cc6", "name": "ad0f210723aff19572b032066ad52cc6", "type": "electric_scooter", "lon": -77.04556683333334, "lat": 38.91773466666667, "is_disabled": 0, "is_reserved": 0, "fusion_lat": 0.0, "fusion_lon": 0.0}, {"rental_uris": {"android": "https://dc.lft.to/lastmile_qr_scan", "ios": "https://dc.lft.to/lastmile_qr_scan"}, "bike_id": "841799d57b55369958012727c56bd8e1", "name": "841799d57b55369958012727c56bd8e1", "type": "electric_scooter", "lon": -77.01535833333334, "lat": 38.88744783333333, "is_disabled": 0, "is_reserved": 0, "fusion_lat": 0.0, "fusion_lon": 0.0}, {"rental_uris": {"android": "https://dc.lft.to/lastmile_qr_scan", "ios": "https://dc.lft.to/lastmile_qr_scan"}, "bike_id": "1c0f2c06cc98497a1142c4775c6ad0f3", "name": "1c0f2c06cc98497a1142c4775c6ad0f3", "type": "electric_scooter", "lon": -77.02377483333333, "lat": 38.907096333333335, "is_disabled": 0, "is_reserved": 0, "fusion_lat": 0.0, "fusion_lon": 0.0}, {"rental_uris": {"android": "https://dc.lft.to/lastmile_qr_scan", "ios": "https://dc.lft.to/lastmile_qr_scan"}, "bike_id": "f2bf49e84b1f8f7431a249cf53688028", "name": "f2bf49e84b1f8f7431a249cf53688028", "type": "electric_scooter", "lon": -77.02471183333333, "lat": 38.93294366666667, "is_disabled": 0, "is_reserved": 0, "fusion_lat": 0.0, "fusion_lon": 0.0}, {"rental_uris": {"android": "https://dc.lft.to/lastmile_qr_scan", "ios": "https://dc.lft.to/lastmile_qr_scan"}, "bike_id": "728cac26f4e07e514c43c87aabbe2cac", "name": "728cac26f4e07e514c43c87aabbe2cac", "type": "electric_scooter", "lon": -77.03444583333334, "lat": 38.90947216666667, "is_disabled": 0, "is_reserved": 0, "fusion_lat": 0.0, "fusion_lon": 0.0}, {"rental_uris": {"android": "https://dc.lft.to/lastmile_qr_scan", "ios": "https://dc.lft.to/lastmile_qr_scan"}, "bike_id": "ba4ec873bc9cf6021cd279801e77afe1", "name": "ba4ec873bc9cf6021cd279801e77afe1", "type": "electric_scooter", "lon": -77.04052383333334, "lat": 38.902714333333336, "is_disabled": 0, "is_reserved": 0, "fusion_lat": 0.0, "fusion_lon": 0.0}, {"rental_uris": {"android": "https://dc.lft.to/lastmile_qr_scan", "ios": "https://dc.lft.to/lastmile_qr_scan"}, "bike_id": "73120700e14d7a70c18aa356d048ad7e", "name": "73120700e14d7a70c18aa356d048ad7e", "type": "electric_scooter", "lon": -77.02910916666667, "lat": 38.898467333333336, "is_disabled": 0, "is_reserved": 0, "fusion_lat": 0.0, "fusion_lon": 0.0}, {"rental_uris": {"android": "https://dc.lft.to/lastmile_qr_scan", "ios": "https://dc.lft.to/lastmile_qr_scan"}, "bike_id": "16b1b6b7f11a28f92975589a566115e6", "name": "16b1b6b7f11a28f92975589a566115e6", "type": "electric_scooter", "lon": -77.01362533333334, "lat": 38.8988265, "is_disabled": 0, "is_reserved": 0, "fusion_lat": 0.0, "fusion_lon": 0.0}, {"rental_uris": {"android": "https://dc.lft.to/lastmile_qr_scan", "ios": "https://dc.lft.to/lastmile_qr_scan"}, "bike_id": "0c2e783d7c0eb93a7b7f6432010bd586", "name": "0c2e783d7c0eb93a7b7f6432010bd586", "type": "electric_scooter", "lon": -76.998458, "lat": 38.8876465, "is_disabled": 0, "is_reserved": 0, "fusion_lat": 0.0, "fusion_lon": 0.0}, {"rental_uris": {"android": "https://dc.lft.to/lastmile_qr_scan", "ios": "https://dc.lft.to/lastmile_qr_scan"}, "bike_id": "47f7274ab62c803e424bd9869bab2202", "name": "47f7274ab62c803e424bd9869bab2202", "type": "electric_scooter", "lon": -77.0666165, "lat": 38.9519605, "is_disabled": 0, "is_reserved": 0, "fusion_lat": 0.0, "fusion_lon": 0.0}, {"rental_uris": {"android": "https://dc.lft.to/lastmile_qr_scan", "ios": "https://dc.lft.to/lastmile_qr_scan"}, "bike_id": "ba96d428ed8f56dfba0cea7c5ef09b2a", "name": "ba96d428ed8f56dfba0cea7c5ef09b2a", "type": "electric_scooter", "lon": -77.03165566666667, "lat": 38.90335316666667, "is_disabled": 0, "is_reserved": 0, "fusion_lat": 0.0, "fusion_lon": 0.0}, {"rental_uris": {"android": "https://dc.lft.to/lastmile_qr_scan", "ios": "https://dc.lft.to/lastmile_qr_scan"}, "bike_id": "134a9cbbbb41a03608fc324009bf7fbf", "name": "134a9cbbbb41a03608fc324009bf7fbf", "type": "electric_bike", "lon": -77.09962, "lat": 38.857875, "is_disabled": 0, "is_reserved": 0, "fusion_lat": 0.0, "fusion_lon": 0.0}, {"rental_uris": {"android": "https://dc.lft.to/lastmile_qr_scan", "ios": "https://dc.lft.to/lastmile_qr_scan"}, "bike_id": "b4c0257524d3bb4c7c4030156a3da546", "name": "b4c0257524d3bb4c7c4030156a3da546", "type": "electric_scooter", "lon": -77.05306016666667, "lat": 38.9278625, "is_disabled": 0, "is_reserved": 0, "fusion_lat": 0.0, "fusion_lon": 0.0}, {"rental_uris": {"android": "https://dc.lft.to/lastmile_qr_scan", "ios": "https://dc.lft.to/lastmile_qr_scan"}, "bike_id": "fe086163c4ca42c4edf6e9c365dbceba", "name": "fe086163c4ca42c4edf6e9c365dbceba", "type": "electric_scooter", "lon": -77.034655, "lat": 38.92258666666667, "is_disabled": 0, "is_reserved": 0, "fusion_lat": 0.0, "fusion_lon": 0.0}, {"rental_uris": {"android": "https://dc.lft.to/lastmile_qr_scan", "ios": "https://dc.lft.to/lastmile_qr_scan"}, "bike_id": "49bdadd36c1365c4f742e5c1c1977d3d", "name": "49bdadd36c1365c4f742e5c1c1977d3d", "type": "electric_scooter", "lon": -76.93751333333333, "lat": 38.890499, "is_disabled": 0, "is_reserved": 0, "fusion_lat": 0.0, "fusion_lon": 0.0}, {"rental_uris": {"android": "https://dc.lft.to/lastmile_qr_scan", "ios": "https://dc.lft.to/lastmile_qr_scan"}, "bike_id": "0d4055e49045a0040e66354f57d528bf", "name": "0d4055e49045a0040e66354f57d528bf", "type": "electric_scooter", "lon": -77.00977183333333, "lat": 38.91407366666667, "is_disabled": 0, "is_reserved": 0, "fusion_lat": 0.0, "fusion_lon": 0.0}, {"rental_uris": {"android": "https://dc.lft.to/lastmile_qr_scan", "ios": "https://dc.lft.to/lastmile_qr_scan"}, "bike_id": "6d244753475e80fc992c96dd63ec4919", "name": "6d244753475e80fc992c96dd63ec4919", "type": "electric_scooter", "lon": -77.05518083333334, "lat": 38.90936416666667, "is_disabled": 0, "is_reserved": 0, "fusion_lat": 0.0, "fusion_lon": 0.0}, {"rental_uris": {"android": "https://dc.lft.to/lastmile_qr_scan", "ios": "https://dc.lft.to/lastmile_qr_scan"}, "bike_id": "c2429cc166fdaeaca799a325404b4007", "name": "c2429cc166fdaeaca799a325404b4007", "type": "electric_scooter", "lon": -77.032578, "lat": 38.90856466666666, "is_disabled": 0, "is_reserved": 0, "fusion_lat": 0.0, "fusion_lon": 0.0}, {"rental_uris": {"android": "https://dc.lft.to/lastmile_qr_scan", "ios": "https://dc.lft.to/lastmile_qr_scan"}, "bike_id": "c97db49792928188c555b0e9c2693d74", "name": "c97db49792928188c555b0e9c2693d74", "type": "electric_scooter", "lon": -76.986666, "lat": 38.8673125, "is_disabled": 0, "is_reserved": 0, "fusion_lat": 0.0, "fusion_lon": 0.0}, {"rental_uris": {"android": "https://dc.lft.to/lastmile_qr_scan", "ios": "https://dc.lft.to/lastmile_qr_scan"}, "bike_id": "d5868d5c1f777f56d78bfefa1aad1614", "name": "d5868d5c1f777f56d78bfefa1aad1614", "type": "electric_scooter", "lon": -77.03261233333333, "lat": 38.93738966666667, "is_disabled": 0, "is_reserved": 0, "fusion_lat": 0.0, "fusion_lon": 0.0}, {"rental_uris": {"android": "https://dc.lft.to/lastmile_qr_scan", "ios": "https://dc.lft.to/lastmile_qr_scan"}, "bike_id": "c8d6d1e1596ef09d9382d766de5c5af8", "name": "c8d6d1e1596ef09d9382d766de5c5af8", "type": "electric_scooter", "lon": -77.00609483333334, "lat": 38.905803666666664, "is_disabled": 0, "is_reserved": 0, "fusion_lat": 0.0, "fusion_lon": 0.0}, {"rental_uris": {"android": "https://dc.lft.to/lastmile_qr_scan", "ios": "https://dc.lft.to/lastmile_qr_scan"}, "bike_id": "e9192a110d179162eedbd9f30a23d82e", "name": "e9192a110d179162eedbd9f30a23d82e", "type": "electric_scooter", "lon": -77.00200666666667, "lat": 38.90238316666667, "is_disabled": 0, "is_reserved": 0, "fusion_lat": 0.0, "fusion_lon": 0.0}, {"rental_uris": {"android": "https://dc.lft.to/lastmile_qr_scan", "ios": "https://dc.lft.to/lastmile_qr_scan"}, "bike_id": "1c53b45484c12d70e465eccaac11f5ae", "name": "1c53b45484c12d70e465eccaac11f5ae", "type": "electric_scooter", "lon": -76.95741083333333, "lat": 38.8963155, "is_disabled": 0, "is_reserved": 0, "fusion_lat": 0.0, "fusion_lon": 0.0}, {"rental_uris": {"android": "https://dc.lft.to/lastmile_qr_scan", "ios": "https://dc.lft.to/lastmile_qr_scan"}, "bike_id": "9463239da0bd7e58b3d6b4c0aa76f68b", "name": "9463239da0bd7e58b3d6b4c0aa76f68b", "type": "electric_scooter", "lon": -76.99807016666666, "lat": 38.90013166666667, "is_disabled": 0, "is_reserved": 0, "fusion_lat": 0.0, "fusion_lon": 0.0}, {"rental_uris": {"android": "https://dc.lft.to/lastmile_qr_scan", "ios": "https://dc.lft.to/lastmile_qr_scan"}, "bike_id": "dd1e23d987f9ef304c993507b79526f1", "name": "dd1e23d987f9ef304c993507b79526f1", "type": "electric_scooter", "lon": -77.0434915, "lat": 38.91255616666667, "is_disabled": 0, "is_reserved": 0, "fusion_lat": 0.0, "fusion_lon": 0.0}, {"rental_uris": {"android": "https://dc.lft.to/lastmile_qr_scan", "ios": "https://dc.lft.to/lastmile_qr_scan"}, "bike_id": "28dc7b907ba77f01c97b34ee13e9e9ee", "name": "28dc7b907ba77f01c97b34ee13e9e9ee", "type": "electric_scooter", "lon": -77.04611766666666, "lat": 38.91683333333334, "is_disabled": 0, "is_reserved": 0, "fusion_lat": 0.0, "fusion_lon": 0.0}, {"rental_uris": {"android": "https://dc.lft.to/lastmile_qr_scan", "ios": "https://dc.lft.to/lastmile_qr_scan"}, "bike_id": "fc8099ad7ad8b1b83f8e453b5fec6e5e", "name": "fc8099ad7ad8b1b83f8e453b5fec6e5e", "type": "electric_scooter", "lon": -77.03333733333334, "lat": 38.958305833333334, "is_disabled": 0, "is_reserved": 0, "fusion_lat": 0.0, "fusion_lon": 0.0}, {"rental_uris": {"android": "https://dc.lft.to/lastmile_qr_scan", "ios": "https://dc.lft.to/lastmile_qr_scan"}, "bike_id": "794d16b3ad92668960f3e513d15afa42", "name": "794d16b3ad92668960f3e513d15afa42", "type": "electric_scooter", "lon": -76.954998, "lat": 38.887286, "is_disabled": 0, "is_reserved": 0, "fusion_lat": 0.0, "fusion_lon": 0.0}, {"rental_uris": {"android": "https://dc.lft.to/lastmile_qr_scan", "ios": "https://dc.lft.to/lastmile_qr_scan"}, "bike_id": "3105e08a07885a0f301b59cc2ef051d7", "name": "3105e08a07885a0f301b59cc2ef051d7", "type": "electric_scooter", "lon": -76.99008866666667, "lat": 38.858832, "is_disabled": 0, "is_reserved": 0, "fusion_lat": 0.0, "fusion_lon": 0.0}, {"rental_uris": {"android": "https://dc.lft.to/lastmile_qr_scan", "ios": "https://dc.lft.to/lastmile_qr_scan"}, "bike_id": "0b3fd4515afc2dbe6a169bbeb6374e68", "name": "0b3fd4515afc2dbe6a169bbeb6374e68", "type": "electric_scooter", "lon": -77.0118145, "lat": 38.90328066666667, "is_disabled": 0, "is_reserved": 0, "fusion_lat": 0.0, "fusion_lon": 0.0}, {"rental_uris": {"android": "https://dc.lft.to/lastmile_qr_scan", "ios": "https://dc.lft.to/lastmile_qr_scan"}, "bike_id": "d27732e23f5ce0d8c9997b541870aeef", "name": "d27732e23f5ce0d8c9997b541870aeef", "type": "electric_scooter", "lon": -77.02294116666667, "lat": 38.9089455, "is_disabled": 0, "is_reserved": 0, "fusion_lat": 0.0, "fusion_lon": 0.0}, {"rental_uris": {"android": "https://dc.lft.to/lastmile_qr_scan", "ios": "https://dc.lft.to/lastmile_qr_scan"}, "bike_id": "fbcdb6258d6263075e7589fdd1281ba8", "name": "fbcdb6258d6263075e7589fdd1281ba8", "type": "electric_scooter", "lon": -77.03175366666666, "lat": 38.9035485, "is_disabled": 0, "is_reserved": 0, "fusion_lat": 0.0, "fusion_lon": 0.0}, {"rental_uris": {"android": "https://dc.lft.to/lastmile_qr_scan", "ios": "https://dc.lft.to/lastmile_qr_scan"}, "bike_id": "30ae3fa8f5dd0f47b2ada77412597d72", "name": "30ae3fa8f5dd0f47b2ada77412597d72", "type": "electric_scooter", "lon": -77.047003, "lat": 38.9053695, "is_disabled": 0, "is_reserved": 0, "fusion_lat": 0.0, "fusion_lon": 0.0}, {"rental_uris": {"android": "https://dc.lft.to/lastmile_qr_scan", "ios": "https://dc.lft.to/lastmile_qr_scan"}, "bike_id": "3a346c747d655353409b5bd5565aedd5", "name": "3a346c747d655353409b5bd5565aedd5", "type": "electric_scooter", "lon": -77.043297, "lat": 38.922394, "is_disabled": 0, "is_reserved": 0, "fusion_lat": 0.0, "fusion_lon": 0.0}, {"rental_uris": {"android": "https://dc.lft.to/lastmile_qr_scan", "ios": "https://dc.lft.to/lastmile_qr_scan"}, "bike_id": "ef70a0aff56cd72f73c419defd8857b3", "name": "ef70a0aff56cd72f73c419defd8857b3", "type": "electric_scooter", "lon": -77.03194216666667, "lat": 38.91168666666667, "is_disabled": 0, "is_reserved": 0, "fusion_lat": 0.0, "fusion_lon": 0.0}, {"rental_uris": {"android": "https://dc.lft.to/lastmile_qr_scan", "ios": "https://dc.lft.to/lastmile_qr_scan"}, "bike_id": "24965abe9ba7a517defe5391b7044dd9", "name": "24965abe9ba7a517defe5391b7044dd9", "type": "electric_scooter", "lon": -76.95096533333333, "lat": 38.884502833333336, "is_disabled": 0, "is_reserved": 0, "fusion_lat": 0.0, "fusion_lon": 0.0},