{"data": {"bikes": [{"is_disabled": 0, "is_reserved": 0, "fusion_lat": 0.0, "lat": 38.9074185, "fusion_lon": 0.0, "rental_uris": {"ios": "https://dc.lft.to/lastmile_qr_scan", "android": "https://dc.lft.to/lastmile_qr_scan"}, "lon": -77.02989733333334, "bike_id": "07f6c1145e3fb25844c60882afa25284", "type": "electric_scooter", "name": "07f6c1145e3fb25844c60882afa25284"}, {"is_disabled": 0, "is_reserved": 0, "fusion_lat": 0.0, "lat": 38.952407, "fusion_lon": 0.0, "rental_uris": {"ios": "https://dc.lft.to/lastmile_qr_scan", "android": "https://dc.lft.to/lastmile_qr_scan"}, "lon": -76.97953866666667, "bike_id": "eb8c79c35854234d0fb8e38d03dae294", "type": "electric_bike", "name": "eb8c79c35854234d0fb8e38d03dae294"}, {"is_disabled": 0, "is_reserved": 0, "fusion_lat": 0.0, "lat": 38.925315, "fusion_lon": 0.0, "rental_uris": {"ios": "https://dc.lft.to/lastmile_qr_scan", "android": "https://dc.lft.to/lastmile_qr_scan"}, "lon": -77.03240316666667, "bike_id": "a8d066c54895f1466ac5210c2110656a", "type": "electric_scooter", "name": "a8d066c54895f1466ac5210c2110656a"}, {"is_disabled": 0, "is_reserved": 0, "fusion_lat": 0.0, "lat": 38.89686716666667, "fusion_lon": 0.0, "rental_uris": {"ios": "https://dc.lft.to/lastmile_qr_scan", "android": "https://dc.lft.to/lastmile_qr_scan"}, "lon": -77.04340133333334, "bike_id": "2e47730da34a7aad4b20343529c23a3c", "type": "electric_scooter", "name": "2e47730da34a7aad4b20343529c23a3c"}, {"is_disabled": 0, "is_reserved": 0, "fusion_lat": 0.0, "lat": 38.906363, "fusion_lon": 0.0, "rental_uris": {"ios": "https://dc.lft.to/lastmile_qr_scan", "android": "https://dc.lft.to/lastmile_qr_scan"}, "lon": -77.068943, "bike_id": "71e3bea72f2860ae0ebf7c7001a3f85b", "type": "electric_scooter", "name": "71e3bea72f2860ae0ebf7c7001a3f85b"}, {"is_disabled": 0, "is_reserved": 0, "fusion_lat": 0.0, "lat": 38.957774666666666, "fusion_lon": 0.0, "rental_uris": {"ios": "https://dc.lft.to/lastmile_qr_scan", "android": "https://dc.lft.to/lastmile_qr_scan"}, "lon": -77.02458066666667, "bike_id": "e721e05c002d4e3e0f9231d35c5dff56", "type": "electric_scooter", "name": "e721e05c002d4e3e0f9231d35c5dff56"}, {"is_disabled": 0, "is_reserved": 0, "fusion_lat": 0.0, "lat": 38.9111695, "fusion_lon": 0.0, "rental_uris": {"ios": "https://dc.lft.to/lastmile_qr_scan", "android": "https://dc.lft.to/lastmile_qr_scan"}, "lon": -77.0111495, "bike_id": "a33d00706da7a19d6683ce6f44f8d211", "type": "electric_scooter", "name": "a33d00706da7a19d6683ce6f44f8d211"}, {"is_disabled": 0, "is_reserved": 0, "fusion_lat": 0.0, "lat": 38.92322133333333, "fusion_lon": 0.0, "rental_uris": {"ios": "https://dc.lft.to/lastmile_qr_scan", "android": "https://dc.lft.to/lastmile_qr_scan"}, "lon": -77.04517633333333, "bike_id": "f691bc833986e9a02c388e9e49c1e4a6", "type": "electric_scooter", "name": "f691bc833986e9a02c388e9e49c1e4a6"}, {"is_disabled": 0, "is_reserved": 0, "fusion_lat": 0.0, "lat": 38.89423433333333, "fusion_lon": 0.0, "rental_uris": {"ios": "https://dc.lft.to/lastmile_qr_scan", "android": "https://dc.lft.to/lastmile_qr_scan"}, "lon": -77.05595883333334, "bike_id": "df53cfd79d133db8038b855700f1a0c4", "type": "electric_scooter", "name": "df53cfd79d133db8038b855700f1a0c4"}, {"is_disabled": 0, "is_reserved": 0, "fusion_lat": 0.0, "lat": 38.91710716666667, "fusion_lon": 0.0, "rental_uris": {"ios": "https://dc.lft.to/lastmile_qr_scan", "android": "https://dc.lft.to/lastmile_qr_scan"}, "lon": -77.00515166666666, "bike_id": "ddaff8783d6b1aedbd5ff80de81e1c67", "type": "electric_scooter", "name": "ddaff8783d6b1aedbd5ff80de81e1c67"}, {"is_disabled": 0, "is_reserved": 0, "fusion_lat": 0.0, "lat": 38.926661333333335, "fusion_lon": 0.0, "rental_uris": {"ios": "https://dc.lft.to/lastmile_qr_scan", "android": "https://dc.lft.to/lastmile_qr_scan"}, "lon": -77.0302455, "bike_id": "11e5a11f2c77a528e62fa9ee563813e8", "type": "electric_scooter", "name": "11e5a11f2c77a528e62fa9ee563813e8"}, {"is_disabled": 0, "is_reserved": 0, "fusion_lat": 0.0, "lat": 38.896702, "fusion_lon": 0.0, "rental_uris": {"ios": "https://dc.lft.to/lastmile_qr_scan", "android": "https://dc.lft.to/lastmile_qr_scan"}, "lon": -77.02379866666666, "bike_id": "4bde2e4869b94b6ebdba06749a6b02dd", "type": "electric_bike", "name": "4bde2e4869b94b6ebdba06749a6b02dd"}, {"is_disabled": 0, "is_reserved": 0, "fusion_lat": 0.0, "lat": 38.922002, "fusion_lon": 0.0, "rental_uris": {"ios": "https://dc.lft.to/lastmile_qr_scan", "android": "https://dc.lft.to/lastmile_qr_scan"}, "lon": -77.02043366666666, "bike_id": "e68797ab1b804b57bb4349366ae6e6e7", "type": "electric_scooter", "name": "e68797ab1b804b57bb4349366ae6e6e7"}, {"is_disabled": 0, "is_reserved": 0, "fusion_lat": 0.0, "lat": 38.90118616666667, "fusion_lon": 0.0, "rental_uris": {"ios": "https://dc.lft.to/lastmile_qr_scan", "android": "https://dc.lft.to/lastmile_qr_scan"}, "lon": -76.98115933333334, "bike_id": "723364dd70ec05d476c55c938e598348", "type": "electric_scooter", "name": "723364dd70ec05d476c55c938e598348"}, {"is_disabled": 0, "is_reserved": 0, "fusion_lat": 0.0, "lat": 38.901393666666664, "fusion_lon": 0.0, "rental_uris": {"ios": "https://dc.lft.to/lastmile_qr_scan", "android": "https://dc.lft.to/lastmile_qr_scan"}, "lon": -76.974048, "bike_id": "776fe82dcd601db09ae9fceeafbcb5b5", "type": "electric_scooter", "name": "776fe82dcd601db09ae9fceeafbcb5b5"}, {"is_disabled": 0, "is_reserved": 0, "fusion_lat": 0.0, "lat": 38.955885, "fusion_lon": 0.0, "rental_uris": {"ios": "https://dc.lft.to/lastmile_qr_scan", "android": "https://dc.lft.to/lastmile_qr_scan"}, "lon": -77.01785883333334, "bike_id": "f4a306f7cfd1a1bc02d5eaaf5bec55dc", "type": "electric_scooter", "name": "f4a306f7cfd1a1bc02d5eaaf5bec55dc"}, {"is_disabled": 0, "is_reserved": 0, "fusion_lat": 0.0, "lat": 38.91619933333333, "fusion_lon": 0.0, "rental_uris": {"ios": "https://dc.lft.to/lastmile_qr_scan", "android": "https://dc.lft.to/lastmile_qr_scan"}, "lon": -77.02168016666667, "bike_id": "7feb6bcad536f3e5e0b2edb488015744", "type": "electric_scooter", "name": "7feb6bcad536f3e5e0b2edb488015744"}, {"is_disabled": 0, "is_reserved": 0, "fusion_lat": 0.0, "lat": 38.886196166666664, "fusion_lon": 0.0, "rental_uris": {"ios": "https://dc.lft.to/lastmile_qr_scan", "android": "https://dc.lft.to/lastmile_qr_scan"}, "lon": -76.92635333333334, "bike_id": "4f58597279e8a96eac60c7933d8e0ebe", "type": "electric_scooter", "name": "4f58597279e8a96eac60c7933d8e0ebe"}, {"is_disabled": 0, "is_reserved": 0, "fusion_lat": 0.0, "lat": 38.943308333333334, "fusion_lon": 0.0, "rental_uris": {"ios": "https://dc.lft.to/lastmile_qr_scan", "android": "https://dc.lft.to/lastmile_qr_scan"}, "lon": -77.0268955, "bike_id": "da2c899d9b51942e61d05647c3a9b2a4", "type": "electric_scooter", "name": "da2c899d9b51942e61d05647c3a9b2a4"}, {"is_disabled": 0, "is_reserved": 0, "fusion_lat": 0.0, "lat": 38.927594166666665, "fusion_lon": 0.0, "rental_uris": {"ios": "https://dc.lft.to/lastmile_qr_scan", "android": "https://dc.lft.to/lastmile_qr_scan"}, "lon": -77.05267666666667, "bike_id": "4a8326f4df31a3ea41c0bbaca3da54ae", "type": "electric_scooter", "name": "4a8326f4df31a3ea41c0bbaca3da54ae"}, {"is_disabled": 0, "is_reserved": 0, "fusion_lat": 0.0, "lat": 38.914102166666666, "fusion_lon": 0.0, "rental_uris": {"ios": "https://dc.lft.to/lastmile_qr_scan", "android": "https://dc.lft.to/lastmile_qr_scan"}, "lon": -77.0521035, "bike_id": "b1b4445ffffc34cb265b281905536de5", "type": "electric_scooter", "name": "b1b4445ffffc34cb265b281905536de5"}, {"is_disabled": 0, "is_reserved": 0, "fusion_lat": 0.0, "lat": 38.9058525, "fusion_lon": 0.0, "rental_uris": {"ios": "https://dc.lft.to/lastmile_qr_scan", "android": "https://dc.lft.to/lastmile_qr_scan"}, "lon": -77.00495833333333, "bike_id": "5de727db5c5f0470e04b67999fb8f2bf", "type": "electric_scooter", "name": "5de727db5c5f0470e04b67999fb8f2bf"}, {"is_disabled": 0, "is_reserved": 0, "fusion_lat": 0.0, "lat": 38.905104, "fusion_lon": 0.0, "rental_uris": {"ios": "https://dc.lft.to/lastmile_qr_scan", "android": "https://dc.lft.to/lastmile_qr_scan"}, "lon": -76.952047, "bike_id": "009791ce5d80e3449d8796beff858f01", "type": "electric_scooter", "name": "009791ce5d80e3449d8796beff858f01"}, {"is_disabled": 0, "is_reserved": 0, "fusion_lat": 0.0, "lat": 39.026454333333334, "fusion_lon": 0.0, "rental_uris": {"ios": "https://dc.lft.to/lastmile_qr_scan", "android": "https://dc.lft.to/lastmile_qr_scan"}, "lon": -77.03686366666666, "bike_id": "d8a4f9293efb6eddf95ba0da6f941040", "type": "electric_bike", "name": "d8a4f9293efb6eddf95ba0da6f941040"}, {"is_disabled": 0, "is_reserved": 0, "fusion_lat": 0.0, "lat": 38.9163875, "fusion_lon": 0.0, "rental_uris": {"ios": "https://dc.lft.to/lastmile_qr_scan", "android": "https://dc.lft.to/lastmile_qr_scan"}, "lon": -77.02302733333333, "bike_id": "9030e77d195a2b63fe0b7233e802576f", "type": "electric_scooter", "name": "9030e77d195a2b63fe0b7233e802576f"}, {"is_disabled": 0, "is_reserved": 0, "fusion_lat": 0.0, "lat": 38.92873266666667, "fusion_lon": 0.0, "rental_uris": {"ios": "https://dc.lft.to/lastmile_qr_scan", "android": "https://dc.lft.to/lastmile_qr_scan"}, "lon": -77.05651033333334, "bike_id": "1bdb94390123020233830a913f11c1f7", "type": "electric_scooter", "name": "1bdb94390123020233830a913f11c1f7"}, {"is_disabled": 0, "is_reserved": 0, "fusion_lat": 0.0, "lat": 38.92261666666667, "fusion_lon": 0.0, "rental_uris": {"ios": "https://dc.lft.to/lastmile_qr_scan", "android": "https://dc.lft.to/lastmile_qr_scan"}, "lon": -77.07277083333334, "bike_id": "0be64a6fb2f3c605385e9a15a96f96eb", "type": "electric_scooter", "name": "0be64a6fb2f3c605385e9a15a96f96eb"}, {"is_disabled": 0, "is_reserved": 0, "fusion_lat": 0.0, "lat": 38.912651333333336, "fusion_lon": 0.0, "rental_uris": {"ios": "https://dc.lft.to/lastmile_qr_scan", "android": "https://dc.lft.to/lastmile_qr_scan"}, "lon": -77.01605966666666, "bike_id": "82472241612fb90b0f436374a47b221b", "type": "electric_scooter", "name": "82472241612fb90b0f436374a47b221b"}, {"is_disabled": 0, "is_reserved": 0, "fusion_lat": 0.0, "lat": 38.92769166666667, "fusion_lon": 0.0, "rental_uris": {"ios": "https://dc.lft.to/lastmile_qr_scan", "android": "https://dc.lft.to/lastmile_qr_scan"}, "lon": -77.0295775, "bike_id": "73801a5fb828766a4339888f5442b22e", "type": "electric_scooter", "name": "73801a5fb828766a4339888f5442b22e"}, {"is_disabled": 0, "is_reserved": 0, "fusion_lat": 0.0, "lat": 38.880340333333336, "fusion_lon": 0.0, "rental_uris": {"ios": "https://dc.lft.to/lastmile_qr_scan", "android": "https://dc.lft.to/lastmile_qr_scan"}, "lon": -76.92713966666666, "bike_id": "c58963b2c8e867b3b746bb5f5395055c", "type": "electric_scooter", "name": "c58963b2c8e867b3b746bb5f5395055c"}, {"is_disabled": 0, "is_reserved": 0, "fusion_lat": 0.0, "lat": 38.829216, "fusion_lon": 0.0, "rental_uris": {"ios": "https://dc.lft.to/lastmile_qr_scan", "android": "https://dc.lft.to/lastmile_qr_scan"}, "lon": -77.06880266666667, "bike_id": "1f8df0df576faa98bcccf77812e7cf17", "type": "electric_bike", "name": "1f8df0df576faa98bcccf77812e7cf17"}, {"is_disabled": 0, "is_reserved": 0, "fusion_lat": 0.0, "lat": 38.899151, "fusion_lon": 0.0, "rental_uris": {"ios": "https://dc.lft.to/lastmile_qr_scan", "android": "https://dc.lft.to/lastmile_qr_scan"}, "lon": -76.9336695, "bike_id": "6352eaa4203f66fe7c1271aee3e7d8db", "type": "electric_scooter", "name": "6352eaa4203f66fe7c1271aee3e7d8db"}, {"is_disabled": 0, "is_reserved": 0, "fusion_lat": 0.0, "lat": 38.896024833333335, "fusion_lon": 0.0, "rental_uris": {"ios": "https://dc.lft.to/lastmile_qr_scan", "android": "https://dc.lft.to/lastmile_qr_scan"}, "lon": -77.00333033333334, "bike_id": "19b40ca6a3994a3c0d755301f6c03f0f", "type": "electric_scooter", "name": "19b40ca6a3994a3c0d755301f6c03f0f"}, {"is_disabled": 0, "is_reserved": 0, "fusion_lat": 0.0, "lat": 38.8788225, "fusion_lon": 0.0, "rental_uris": {"ios": "https://dc.lft.to/lastmile_qr_scan", "android": "https://dc.lft.to/lastmile_qr_scan"}, "lon": -77.02269083333333, "bike_id": "8f2bd6d0347f6a6ec5f633f2577d998b", "type": "electric_scooter", "name": "8f2bd6d0347f6a6ec5f633f2577d998b"}, {"is_disabled": 0, "is_reserved": 0, "fusion_lat": 0.0, "lat": 38.878474, "fusion_lon": 0.0, "rental_uris": {"ios": "https://dc.lft.to/lastmile_qr_scan", "android": "https://dc.lft.to/lastmile_qr_scan"}, "lon": -77.00732683333334, "bike_id": "4254432b2fd150ceea3953af8c58eff1", "type": "electric_scooter", "name": "4254432b2fd150ceea3953af8c58eff1"}, {"is_disabled": 0, "is_reserved": 0, "fusion_lat": 0.0, "lat": 38.84861166666666, "fusion_lon": 0.0, "rental_uris": {"ios": "https://dc.lft.to/lastmile_qr_scan", "android": "https://dc.lft.to/lastmile_qr_scan"}, "lon": -77.06829216666667, "bike_id": "d96174e8eae87ffa54eac364b27abbf2", "type": "electric_bike", "name": "d96174e8eae87ffa54eac364b27abbf2"}, {"is_disabled": 0, "is_reserved": 0, "fusion_lat": 0.0, "lat": 38.90848733333333, "fusion_lon": 0.0, "rental_uris": {"ios": "https://dc.lft.to/lastmile_qr_scan", "android": "https://dc.lft.to/lastmile_qr_scan"}, "lon": -77.05816283333333, "bike_id": "c30c5566dd20136d9d0b4097d96a9962", "type": "electric_scooter", "name": "c30c5566dd20136d9d0b4097d96a9962"}, {"is_disabled": 0, "is_reserved": 0, "fusion_lat": 0.0, "lat": 38.90641633333333, "fusion_lon": 0.0, "rental_uris": {"ios": "https://dc.lft.to/lastmile_qr_scan", "android": "https://dc.lft.to/lastmile_qr_scan"}, "lon": -77.04878883333333, "bike_id": "d017882d2518ee282d245c36ad66a40d", "type": "electric_scooter", "name": "d017882d2518ee282d245c36ad66a40d"}, {"is_disabled": 0, "is_reserved": 0, "fusion_lat": 0.0, "lat": 38.90111666666667, "fusion_lon": 0.0, "rental_uris": {"ios": "https://dc.lft.to/lastmile_qr_scan", "android": "https://dc.lft.to/lastmile_qr_scan"}, "lon": -77.03360533333333, "bike_id": "6eca415eb76c84be2659b428ad00a21d", "type": "electric_scooter", "name": "6eca415eb76c84be2659b428ad00a21d"}, {"is_disabled": 0, "is_reserved": 0, "fusion_lat": 0.0, "lat": 38.87915316666667, "fusion_lon": 0.0, "rental_uris": {"ios": "https://dc.lft.to/lastmile_qr_scan", "android": "https://dc.lft.to/lastmile_qr_scan"}, "lon": -77.00788616666667, "bike_id": "8ddd682edc038bb8ce9e26f0ce818802", "type": "electric_scooter", "name": "8ddd682edc038bb8ce9e26f0ce818802"}, {"is_disabled": 0, "is_reserved": 0, "fusion_lat": 0.0, "lat": 38.86627883333333, "fusion_lon": 0.0, "rental_uris": {"ios": "https://dc.lft.to/lastmile_qr_scan", "android": "https://dc.lft.to/lastmile_qr_scan"}, "lon": -76.990001, "bike_id": "16fc9281138753ff4365187148b52e17", "type": "electric_bike", "name": "16fc9281138753ff4365187148b52e17"}, {"is_disabled": 0, "is_reserved": 0, "fusion_lat": 0.0, "lat": 38.9242565, "fusion_lon": 0.0, "rental_uris": {"ios": "https://dc.lft.to/lastmile_qr_scan", "android": "https://dc.lft.to/lastmile_qr_scan"}, "lon": -77.04248316666667, "bike_id": "f140eb5ad297182a1fbff3bc64d8a894", "type": "electric_scooter", "name": "f140eb5ad297182a1fbff3bc64d8a894"}, {"is_disabled": 0, "is_reserved": 0, "fusion_lat": 0.0, "lat": 38.89539966666667, "fusion_lon": 0.0, "rental_uris": {"ios": "https://dc.lft.to/lastmile_qr_scan", "android": "https://dc.lft.to/lastmile_qr_scan"}, "lon": -77.02174883333333, "bike_id": "27aabdc810aff074c55acd09eac185cc", "type": "electric_scooter", "name": "27aabdc810aff074c55acd09eac185cc"}, {"is_disabled": 0, "is_reserved": 0, "fusion_lat": 0.0, "lat": 38.91653483333333, "fusion_lon": 0.0, "rental_uris": {"ios": "https://dc.lft.to/lastmile_qr_scan", "android": "https://dc.lft.to/lastmile_qr_scan"}, "lon": -77.00955833333333, "bike_id": "accc72644134edf8207e6ff573a84e20", "type": "electric_scooter", "name": "accc72644134edf8207e6ff573a84e20"}, {"is_disabled": 0, "is_reserved": 0, "fusion_lat": 0.0, "lat": 38.949982, "fusion_lon": 0.0, "rental_uris": {"ios": "https://dc.lft.to/lastmile_qr_scan", "android": "https://dc.lft.to/lastmile_qr_scan"}, "lon": -77.0804785, "bike_id": "a5486fe129df8dd94892331c728f1217", "type": "electric_scooter", "name": "a5486fe129df8dd94892331c728f1217"}, {"is_disabled": 0, "is_reserved": 0, "fusion_lat": 0.0, "lat": 38.99095916666667, "fusion_lon": 0.0, "rental_uris": {"ios": "https://dc.lft.to/lastmile_qr_scan", "android": "https://dc.lft.to/lastmile_qr_scan"}, "lon": -76.993725, "bike_id": "58ef14219430d915331fda7e37f5bcaf", "type": "electric_bike", "name": "58ef14219430d915331fda7e37f5bcaf"}, {"is_disabled": 0, "is_reserved": 0, "fusion_lat": 0.0, "lat": 38.89736716666667, "fusion_lon": 0.0, "rental_uris": {"ios": "https://dc.lft.to/lastmile_qr_scan", "android": "https://dc.lft.to/lastmile_qr_scan"}, "lon": -77.04633183333333, "bike_id": "f40f336dda310964981a5907b8396b1e", "type": "electric_scooter", "name": "f40f336dda310964981a5907b8396b1e"}, {"is_disabled": 0, "is_reserved": 0, "fusion_lat": 0.0, "lat": 38.92974816666667, "fusion_lon": 0.0, "rental_uris": {"ios": "https://dc.lft.to/lastmile_qr_scan", "android": "https://dc.lft.to/lastmile_qr_scan"}, "lon": -77.030864, "bike_id": "83e2edf49889108edec4297565b17c01", "type": "electric_scooter", "name": "83e2edf49889108edec4297565b17c01"}, {"is_disabled": 0, "is_reserved": 0, "fusion_lat": 0.0, "lat": 38.918771, "fusion_lon": 0.0, "rental_uris": {"ios": "https://dc.lft.to/lastmile_qr_scan", "android": "https://dc.lft.to/lastmile_qr_scan"}, "lon": -77.03534716666667, "bike_id": "aed220169ac6df71bf0d571e1b503891", "type": "electric_scooter", "name": "aed220169ac6df71bf0d571e1b503891"}, {"is_disabled": 0, "is_reserved": 0, "fusion_lat": 0.0, "lat": 38.9277265, "fusion_lon": 0.0, "rental_uris": {"ios": "https://dc.lft.to/lastmile_qr_scan", "android": "https://dc.lft.to/lastmile_qr_scan"}, "lon": -77.0280625, "bike_id": "d7cf4b07b2cd9b5ffab36023a628542f", "type": "electric_scooter", "name": "d7cf4b07b2cd9b5ffab36023a628542f"}, {"is_disabled": 0, "is_reserved": 0, "fusion_lat": 0.0, "lat": 38.87651116666667, "fusion_lon": 0.0, "rental_uris": {"ios": "https://dc.lft.to/lastmile_qr_scan", "android": "https://dc.lft.to/lastmile_qr_scan"}, "lon": -77.00713766666667, "bike_id": "187d2af04d13ebc426c625a5e4292862", "type": "electric_scooter", "name": "187d2af04d13ebc426c625a5e4292862"}, {"is_disabled": 0, "is_reserved": 0, "fusion_lat": 0.0, "lat": 38.93587766666667, "fusion_lon": 0.0, "rental_uris": {"ios": "https://dc.lft.to/lastmile_qr_scan", "android": "https://dc.lft.to/lastmile_qr_scan"}, "lon": -77.07430516666666, "bike_id": "07101ebcf4d84e9f42ac19e45805a371", "type": "electric_scooter", "name": "07101ebcf4d84e9f42ac19e45805a371"}, {"is_disabled": 0, "is_reserved": 0, "fusion_lat": 0.0, "lat": 38.911063166666665, "fusion_lon": 0.0, "rental_uris": {"ios": "https://dc.lft.to/lastmile_qr_scan", "android": "https://dc.lft.to/lastmile_qr_scan"}, "lon": -77.02172466666667, "bike_id": "47335db682136be13bfc8ea15bea0ff5", "type": "electric_scooter", "name": "47335db682136be13bfc8ea15bea0ff5"}, {"is_disabled": 0, "is_reserved": 0, "fusion_lat": 0.0, "lat": 38.8997045, "fusion_lon": 0.0, "rental_uris": {"ios": "https://dc.lft.to/lastmile_qr_scan", "android": "https://dc.lft.to/lastmile_qr_scan"}, "lon": -77.050587, "bike_id": "7c7e3774001c57fd787f4786b3e68730", "type": "electric_scooter", "name": "7c7e3774001c57fd787f4786b3e68730"}, {"is_disabled": 0, "is_reserved": 0, "fusion_lat": 0.0, "lat": 38.902671166666664, "fusion_lon": 0.0, "rental_uris": {"ios": "https://dc.lft.to/lastmile_qr_scan", "android": "https://dc.lft.to/lastmile_qr_scan"}, "lon": -77.00218616666666, "bike_id": "121a303910cb30ea3d5be6852780fbca", "type": "electric_scooter", "name": "121a303910cb30ea3d5be6852780fbca"}, {"is_disabled": 0, "is_reserved": 0, "fusion_lat": 0.0, "lat": 38.8962205, "fusion_lon": 0.0, "rental_uris": {"ios": "https://dc.lft.to/lastmile_qr_scan", "android": "https://dc.lft.to/lastmile_qr_scan"}, "lon": -76.90748966666666, "bike_id": "e8a3ac5b9e28070551dc669589040655", "type": "electric_bike", "name": "e8a3ac5b9e28070551dc669589040655"}, {"is_disabled": 0, "is_reserved": 0, "fusion_lat": 0.0, "lat": 38.874949, "fusion_lon": 0.0, "rental_uris": {"ios": "https://dc.lft.to/lastmile_qr_scan", "android": "https://dc.lft.to/lastmile_qr_scan"}, "lon": -77.00076166666666, "bike_id": "5b71f75fca349b91040337a5cef08784", "type": "electric_scooter", "name": "5b71f75fca349b91040337a5cef08784"}, {"is_disabled": 0, "is_reserved": 0, "fusion_lat": 0.0, "lat": 38.922966333333335, "fusion_lon": 0.0, "rental_uris": {"ios": "https://dc.lft.to/lastmile_qr_scan", "android": "https://dc.lft.to/lastmile_qr_scan"}, "lon": -77.029769, "bike_id": "a44719ef6ffada79a38421a1f6aff2fa", "type": "electric_scooter", "name": "a44719ef6ffada79a38421a1f6aff2fa"}, {"is_disabled": 0, "is_reserved": 0, "fusion_lat": 0.0, "lat": 38.885404666666666, "fusion_lon": 0.0, "rental_uris": {"ios": "https://dc.lft.to/lastmile_qr_scan", "android": "https://dc.lft.to/lastmile_qr_scan"}, "lon": -76.92371083333333, "bike_id": "020b865ef94451d788df29387d4f2e42", "type": "electric_scooter", "name": "020b865ef94451d788df29387d4f2e42"}, {"is_disabled": 0, "is_reserved": 0, "fusion_lat": 0.0, "lat": 38.91335683333333, "fusion_lon": 0.0, "rental_uris": {"ios": "https://dc.lft.to/lastmile_qr_scan", "android": "https://dc.lft.to/lastmile_qr_scan"}, "lon": -77.0162225, "bike_id": "1062b52f96ca649bb9d8939e2cec267d", "type": "electric_scooter", "name": "1062b52f96ca649bb9d8939e2cec267d"}, {"is_disabled": 0, "is_reserved": 0, "fusion_lat": 0.0, "lat": 38.88531233333333, "fusion_lon": 0.0, "rental_uris": {"ios": "https://dc.lft.to/lastmile_qr_scan", "android": "https://dc.lft.to/lastmile_qr_scan"}, "lon": -76.980565, "bike_id": "02cb2b3df1e0f7388dd8a37e7d673922", "type": "electric_scooter", "name": "02cb2b3df1e0f7388dd8a37e7d673922"}, {"is_disabled": 0, "is_reserved": 0, "fusion_lat": 0.0, "lat": 38.894319333333335, "fusion_lon": 0.0, "rental_uris": {"ios": "https://dc.lft.to/lastmile_qr_scan", "android": "https://dc.lft.to/lastmile_qr_scan"}, "lon": -77.01081766666667, "bike_id": "dfd2cb2fcbe47d64ac7d7d73a0959ac1", "type": "electric_scooter", "name": "dfd2cb2fcbe47d64ac7d7d73a0959ac1"}, {"is_disabled": 0, "is_reserved": 0, "fusion_lat": 0.0, "lat": 38.956871166666666, "fusion_lon": 0.0, "rental_uris": {"ios": "https://dc.lft.to/lastmile_qr_scan", "android": "https://dc.lft.to/lastmile_qr_scan"}, "lon": -77.022357, "bike_id": "3d34212981c0edab48ca08e46578edae", "type": "electric_scooter", "name": "3d34212981c0edab48ca08e46578edae"}, {"is_disabled": 0, "is_reserved": 0, "fusion_lat": 0.0, "lat": 38.957526666666666, "fusion_lon": 0.0, "rental_uris": {"ios": "https://dc.lft.to/lastmile_qr_scan", "android": "https://dc.lft.to/lastmile_qr_scan"}, "lon": -77.02213533333334, "bike_id": "ce2511dc3c49c017e93f47cc05026411", "type": "electric_scooter", "name": "ce2511dc3c49c017e93f47cc05026411"}, {"is_disabled": 0, "is_reserved": 0, "fusion_lat": 0.0, "lat": 38.922105333333334, "fusion_lon": 0.0, "rental_uris": {"ios": "https://dc.lft.to/lastmile_qr_scan", "android": "https://dc.lft.to/lastmile_qr_scan"}, "lon": -77.0819025, "bike_id": "f81af54a110301204ed74b2bfac23538", "type": "electric_bike", "name": "f81af54a110301204ed74b2bfac23538"}, {"is_disabled": 0, "is_reserved": 0, "fusion_lat": 0.0, "lat": 38.90522166666667, "fusion_lon": 0.0, "rental_uris": {"ios": "https://dc.lft.to/lastmile_qr_scan", "android": "https://dc.lft.to/lastmile_qr_scan"}, "lon": -77.04845833333333, "bike_id": "249b6fe7652f50bc30784947abcd6527", "type": "electric_scooter", "name": "249b6fe7652f50bc30784947abcd6527"}, {"is_disabled": 0, "is_reserved": 0, "fusion_lat": 0.0, "lat": 38.903991833333336, "fusion_lon": 0.0, "rental_uris": {"ios": "https://dc.lft.to/lastmile_qr_scan", "android": "https://dc.lft.to/lastmile_qr_scan"}, "lon": -77.016489, "bike_id": "e40e7bdab37e838274f3cf585312011c", "type": "electric_scooter", "name": "e40e7bdab37e838274f3cf585312011c"}, {"is_disabled": 0, "is_reserved": 0, "fusion_lat": 0.0, "lat": 38.92237633333333, "fusion_lon": 0.0, "rental_uris": {"ios": "https://dc.lft.to/lastmile_qr_scan", "android": "https://dc.lft.to/lastmile_qr_scan"}, "lon": -77.04634716666666, "bike_id": "cdebefdc10a947d65610c333915c0795", "type": "electric_scooter", "name": "cdebefdc10a947d65610c333915c0795"}, {"is_disabled": 0, "is_reserved": 0, "fusion_lat": 0.0, "lat": 38.822094, "fusion_lon": 0.0, "rental_uris": {"ios": "https://dc.lft.to/lastmile_qr_scan", "android": "https://dc.lft.to/lastmile_qr_scan"}, "lon": -76.977018, "bike_id": "eaa3aedabacb124dd03dc0045d474054", "type": "electric_bike", "name": "eaa3aedabacb124dd03dc0045d474054"}, {"is_disabled": 0, "is_reserved": 0, "fusion_lat": 0.0, "lat": 38.914717333333336, "fusion_lon": 0.0, "rental_uris": {"ios": "https://dc.lft.to/lastmile_qr_scan", "android": "https://dc.lft.to/lastmile_qr_scan"}, "lon": -77.00198983333334, "bike_id": "a50d8ec67701d7e7214ca0f920b3b98d", "type": "electric_scooter", "name": "a50d8ec67701d7e7214ca0f920b3b98d"}, {"is_disabled": 0, "is_reserved": 0, "fusion_lat": 0.0, "lat": 38.9059205, "fusion_lon": 0.0, "rental_uris": {"ios": "https://dc.lft.to/lastmile_qr_scan", "android": "https://dc.lft.to/lastmile_qr_scan"}, "lon": -77.0415925, "bike_id": "233dcf4f260750b0a2a0111a9c6de4f8", "type": "electric_scooter", "name": "233dcf4f260750b0a2a0111a9c6de4f8"}, {"is_disabled": 0, "is_reserved": 0, "fusion_lat": 0.0, "lat": 38.9140775, "fusion_lon": 0.0, "rental_uris": {"ios": "https://dc.lft.to/lastmile_qr_scan", "android": "https://dc.lft.to/lastmile_qr_scan"}, "lon": -77.010715, "bike_id": "fe4fca2287791f1b0cccb6781d8dd03a", "type": "electric_scooter", "name": "fe4fca2287791f1b0cccb6781d8dd03a"}, {"is_disabled": 0, "is_reserved": 0, "fusion_lat": 0.0, "lat": 38.928008166666665, "fusion_lon": 0.0, "rental_uris": {"ios": "https://dc.lft.to/lastmile_qr_scan", "android": "https://dc.lft.to/lastmile_qr_scan"}, "lon": -76.97601133333333, "bike_id": "d10b682d4888de7b99602d0871b13625", "type": "electric_scooter", "name": "d10b682d4888de7b99602d0871b13625"}, {"is_disabled": 0, "is_reserved": 0, "fusion_lat": 0.0, "lat": 38.891088333333336, "fusion_lon": 0.0, "rental_uris": {"ios": "https://dc.lft.to/lastmile_qr_scan", "android": "https://dc.lft.to/lastmile_qr_scan"}, "lon": -77.01439416666666, "bike_id": "382a8207009bb6e67d6fb88235a64941", "type": "electric_scooter", "name": "382a8207009bb6e67d6fb88235a64941"}, {"is_disabled": 0, "is_reserved": 0, "fusion_lat": 0.0, "lat": 38.911851666666664, "fusion_lon": 0.0, "rental_uris": {"ios": "https://dc.lft.to/lastmile_qr_scan", "android": "https://dc.lft.to/lastmile_qr_scan"}, "lon": -77.00173633333333, "bike_id": "50366aa71eb46b5b144e1477515c3a4d", "type": "electric_scooter", "name": "50366aa71eb46b5b144e1477515c3a4d"}, {"is_disabled": 0, "is_reserved": 0, "fusion_lat": 0.0, "lat": 38.9281285, "fusion_lon": 0.0, "rental_uris": {"ios": "https://dc.lft.to/lastmile_qr_scan", "android": "https://dc.lft.to/lastmile_qr_scan"}, "lon": -77.04344433333333, "bike_id": "ba30f92f750e557b827775baf51df352", "type": "electric_scooter", "name": "ba30f92f750e557b827775baf51df352"}, {"is_disabled": 0, "is_reserved": 0, "fusion_lat": 0.0, "lat": 38.8506005, "fusion_lon": 0.0, "rental_uris": {"ios": "https://dc.lft.to/lastmile_qr_scan", "android": "https://dc.lft.to/lastmile_qr_scan"}, "lon": -76.95822266666667, "bike_id": "1d7a776ef67712def0533c6c7abb9a60", "type": "electric_bike", "name": "1d7a776ef67712def0533c6c7abb9a60"}, {"is_disabled": 0, "is_reserved": 0, "fusion_lat": 0.0, "lat": 38.902449, "fusion_lon": 0.0, "rental_uris": {"ios": "https://dc.lft.to/lastmile_qr_scan", "android": "https://dc.lft.to/lastmile_qr_scan"}, "lon": -77.00773633333333, "bike_id": "3b8d4b969e757366cfb3b06558af90c2", "type": "electric_scooter", "name": "3b8d4b969e757366cfb3b06558af90c2"}, {"is_disabled": 0, "is_reserved": 0, "fusion_lat": 0.0, "lat": 38.86083416666666, "fusion_lon": 0.0, "rental_uris": {"ios": "https://dc.lft.to/lastmile_qr_scan", "android": "https://dc.lft.to/lastmile_qr_scan"}, "lon": -76.98376666666667, "bike_id": "86dfcf2e12501a0f02cbd2c997252ed5", "type": "electric_scooter", "name": "86dfcf2e12501a0f02cbd2c997252ed5"}, {"is_disabled": 0, "is_reserved": 0, "fusion_lat": 0.0, "lat": 38.921105833333336, "fusion_lon": 0.0, "rental_uris": {"ios": "https://dc.lft.to/lastmile_qr_scan", "android": "https://dc.lft.to/lastmile_qr_scan"}, "lon": -77.041754, "bike_id": "910f4072fe6f1bb5e792038a300205f2", "type": "electric_scooter", "name": "910f4072fe6f1bb5e792038a300205f2"}, {"is_disabled": 0, "is_reserved": 0, "fusion_lat": 0.0, "lat": 38.88575216666667, "fusion_lon": 0.0, "rental_uris": {"ios": "https://dc.lft.to/lastmile_qr_scan", "android": "https://dc.lft.to/lastmile_qr_scan"}, "lon": -77.01211333333333, "bike_id": "e875631ad03319869aeacdebb4dfef96", "type": "electric_scooter", "name": "e875631ad03319869aeacdebb4dfef96"}, {"is_disabled": 0, "is_reserved": 0, "fusion_lat": 0.0, "lat": 38.93248216666667, "fusion_lon": 0.0, "rental_uris": {"ios": "https://dc.lft.to/lastmile_qr_scan", "android": "https://dc.lft.to/lastmile_qr_scan"}, "lon": -76.9972075, "bike_id": "60476a9cba84253b3919a234c54744e1", "type": "electric_scooter", "name": "60476a9cba84253b3919a234c54744e1"}, {"is_disabled": 0, "is_reserved": 0, "fusion_lat": 0.0, "lat": 38.91054183333333, "fusion_lon": 0.0, "rental_uris": {"ios": "https://dc.lft.to/lastmile_qr_scan", "android": "https://dc.lft.to/lastmile_qr_scan"}, "lon": -77.0230125, "bike_id": "99a65094d666bfeaa7e3401fd68163eb", "type": "electric_scooter", "name": "99a65094d666bfeaa7e3401fd68163eb"}, {"is_disabled": 0, "is_reserved": 0, "fusion_lat": 0.0, "lat": 38.93204216666667, "fusion_lon": 0.0, "rental_uris": {"ios": "https://dc.lft.to/lastmile_qr_scan", "android": "https://dc.lft.to/lastmile_qr_scan"}, "lon": -77.03445183333334, "bike_id": "38662953c1a1ea0c5e89bc1dc03b50c0", "type": "electric_scooter", "name": "38662953c1a1ea0c5e89bc1dc03b50c0"}, {"is_disabled": 0, "is_reserved": 0, "fusion_lat": 0.0, "lat": 38.9177205, "fusion_lon": 0.0, "rental_uris": {"ios": "https://dc.lft.to/lastmile_qr_scan", "android": "https://dc.lft.to/lastmile_qr_scan"}, "lon": -77.03198783333333, "bike_id": "8d90acce9ad1105b6aa25b310a6492c3", "type": "electric_scooter", "name": "8d90acce9ad1105b6aa25b310a6492c3"}, {"is_disabled": 0, "is_reserved": 0, "fusion_lat": 0.0, "lat": 38.87631983333333, "fusion_lon": 0.0, "rental_uris": {"ios": "https://dc.lft.to/lastmile_qr_scan", "android": "https://dc.lft.to/lastmile_qr_scan"}, "lon": -77.00957466666667, "bike_id": "8c90f008934bdb801c2985093c9b2064", "type": "electric_scooter", "name": "8c90f008934bdb801c2985093c9b2064"}, {"is_disabled": 0, "is_reserved": 0, "fusion_lat": 0.0, "lat": 38.91541516666667, "fusion_lon": 0.0, "rental_uris": {"ios": "https://dc.lft.to/lastmile_qr_scan", "android": "https://dc.lft.to/lastmile_qr_scan"}, "lon": -76.98378533333333, "bike_id": "64d16e18cd3d58df593f945281608c7e", "type": "electric_scooter", "name": "64d16e18cd3d58df593f945281608c7e"}, {"is_disabled": 0, "is_reserved": 0, "fusion_lat": 0.0, "lat": 38.92347766666666, "fusion_lon": 0.0, "rental_uris": {"ios": "https://dc.lft.to/lastmile_qr_scan", "android": "https://dc.lft.to/lastmile_qr_scan"}, "lon": -76.998614, "bike_id": "ea2f9e2d4f652b046a69def87eaa7702", "type": "electric_scooter", "name": "ea2f9e2d4f652b046a69def87eaa7702"}, {"is_disabled": 0, "is_reserved": 0, "fusion_lat": 0.0, "lat": 38.88184533333333, "fusion_lon": 0.0, "rental_uris": {"ios": "https://dc.lft.to/lastmile_qr_scan", "android": "https://dc.lft.to/lastmile_qr_scan"}, "lon": -77.00911466666666, "bike_id": "fd0b7fa3aa80c3f1858f0aaecfc67d4f", "type": "electric_scooter", "name": "fd0b7fa3aa80c3f1858f0aaecfc67d4f"}, {"is_disabled": 0, "is_reserved": 0, "fusion_lat": 0.0, "lat": 38.8626065, "fusion_lon": 0.0, "rental_uris": {"ios": "https://dc.lft.to/lastmile_qr_scan", "android": "https://dc.lft.to/lastmile_qr_scan"}, "lon": -76.983504, "bike_id": "044d2a6f6fa17f3333eaa020f4fbb784", "type": "electric_bike", "name": "044d2a6f6fa17f3333eaa020f4fbb784"}, {"is_disabled": 0, "is_reserved": 0, "fusion_lat": 0.0, "lat": 38.919085333333335, "fusion_lon": 0.0, "rental_uris": {"ios": "https://dc.lft.to/lastmile_qr_scan", "android": "https://dc.lft.to/lastmile_qr_scan"}, "lon": -77.0600025, "bike_id": "f9bffdb01ceb5953fc69cea6233d7743", "type": "electric_bike", "name": "f9bffdb01ceb5953fc69cea6233d7743"}, {"is_disabled": 0, "is_reserved": 0, "fusion_lat": 0.0, "lat": 38.85518533333333, "fusion_lon": 0.0, "rental_uris": {"ios": "https://dc.lft.to/lastmile_qr_scan", "android": "https://dc.lft.to/lastmile_qr_scan"}, "lon": -77.12072216666667, "bike_id": "6b706cf750e03b5607daaa2f155ac4c7", "type": "electric_bike", "name": "6b706cf750e03b5607daaa2f155ac4c7"}, {"is_disabled": 0, "is_reserved": 0, "fusion_lat": 0.0, "lat": 38.87475366666666, "fusion_lon": 0.0, "rental_uris": {"ios": "https://dc.lft.to/lastmile_qr_scan", "android": "https://dc.lft.to/lastmile_qr_scan"}, "lon": -77.00514166666666, "bike_id": "5fe7007304797e78c165c08d2e8affbd", "type": "electric_scooter", "name": "5fe7007304797e78c165c08d2e8affbd"}, {"is_disabled": 0, "is_reserved": 0, "fusion_lat": 0.0, "lat": 38.89231216666667, "fusion_lon": 0.0, "rental_uris": {"ios": "https://dc.lft.to/lastmile_qr_scan", "android": "https://dc.lft.to/lastmile_qr_scan"}, "lon": -77.02385266666667, "bike_id": "56d98ee397649a55317f6beb79e1262e", "type": "electric_scooter", "name": "56d98ee397649a55317f6beb79e1262e"}, {"is_disabled": 0, "is_reserved": 0, "fusion_lat": 0.0, "lat": 38.921702333333336, "fusion_lon": 0.0, "rental_uris": {"ios": "https://dc.lft.to/lastmile_qr_scan", "android": "https://dc.lft.to/lastmile_qr_scan"}, "lon": -77.01805716666667, "bike_id": "69d83de9d3710a04cabfb12314c9e764", "type": "electric_scooter", "name": "69d83de9d3710a04cabfb12314c9e764"}, {"is_disabled": 0, "is_reserved": 0, "fusion_lat": 0.0, "lat": 38.941734, "fusion_lon": 0.0, "rental_uris": {"ios": "https://dc.lft.to/lastmile_qr_scan", "android": "https://dc.lft.to/lastmile_qr_scan"}, "lon": -77.0339475, "bike_id": "ea60444dfaab58af281aacdcec5eeac1", "type": "electric_scooter", "name": "ea60444dfaab58af281aacdcec5eeac1"}, {"is_disabled": 0, "is_reserved": 0, "fusion_lat": 0.0, "lat": 38.95071983333333, "fusion_lon": 0.0, "rental_uris": {"ios": "https://dc.lft.to/lastmile_qr_scan", "android": "https://dc.lft.to/lastmile_qr_scan"}, "lon": -76.99605083333333, "bike_id": "e5de89e8da692cf306e4e7921b6c1e43", "type": "electric_bike", "name": "e5de89e8da692cf306e4e7921b6c1e43"}, {"is_disabled": 0, "is_reserved": 0, "fusion_lat": 0.0, "lat": 38.953297, "fusion_lon": 0.0, "rental_uris": {"ios": "https://dc.lft.to/lastmile_qr_scan", "android": "https://dc.lft.to/lastmile_qr_scan"}, "lon": -76.98250816666666, "bike_id": "b518b7154e4f3d27b78acdffc0d01b2a", "type": "electric_bike", "name": "b518b7154e4f3d27b78acdffc0d01b2a"}, {"is_disabled": 0, "is_reserved": 0, "fusion_lat": 0.0, "lat": 38.89637483333333, "fusion_lon": 0.0, "rental_uris": {"ios": "https://dc.lft.to/lastmile_qr_scan", "android": "https://dc.lft.to/lastmile_qr_scan"}, "lon": -76.93929916666667, "bike_id": "659d4630c1dd7ac599fed28526b75d14", "type": "electric_scooter", "name": "659d4630c1dd7ac599fed28526b75d14"}, {"is_disabled": 0, "is_reserved": 0, "fusion_lat": 0.0, "lat": 38.898309, "fusion_lon": 0.0, "rental_uris": {"ios": "https://dc.lft.to/lastmile_qr_scan", "android": "https://dc.lft.to/lastmile_qr_scan"}, "lon": -77.04650333333333, "bike_id": "13a7a8d94fc33cfd6592881b65090612", "type": "electric_scooter", "name": "13a7a8d94fc33cfd6592881b65090612"}, {"is_disabled": 0, "is_reserved": 0, "fusion_lat": 0.0, "lat": 38.897563, "fusion_lon": 0.0, "rental_uris": {"ios": "https://dc.lft.to/lastmile_qr_scan", "android": "https://dc.lft.to/lastmile_qr_scan"}, "lon": -77.05488033333333, "bike_id": "c6d467aa0178f660fc489fe34ccdd0be", "type": "electric_scooter", "name": "c6d467aa0178f660fc489fe34ccdd0be"}, {"is_disabled": 0, "is_reserved": 0, "fusion_lat": 0.0, "lat": 38.91442766666667, "fusion_lon": 0.0, "rental_uris": {"ios": "https://dc.lft.to/lastmile_qr_scan", "android": "https://dc.lft.to/lastmile_qr_scan"}, "lon": -77.00887116666667, "bike_id": "4848d43a64902c1bb0f0b1b6065554c8", "type": "electric_scooter", "name": "4848d43a64902c1bb0f0b1b6065554c8"}, {"is_disabled": 0, "is_reserved": 0, "fusion_lat": 0.0, "lat": 38.8815745, "fusion_lon": 0.0, "rental_uris": {"ios": "https://dc.lft.to/lastmile_qr_scan", "android": "https://dc.lft.to/lastmile_qr_scan"}, "lon": -77.0130725, "bike_id": "2a23ea1584521542fad49a8bf75f92c5", "type": "electric_scooter", "name": "2a23ea1584521542fad49a8bf75f92c5"}, {"is_disabled": 0, "is_reserved": 0, "fusion_lat": 0.0, "lat": 38.90570916666667, "fusion_lon": 0.0, "rental_uris": {"ios": "https://dc.lft.to/lastmile_qr_scan", "android": "https://dc.lft.to/lastmile_qr_scan"}, "lon": -77.02762966666667, "bike_id": "0a988dcd05b985bbfcf1494249b7ba2c", "type": "electric_scooter", "name": "0a988dcd05b985bbfcf1494249b7ba2c"}, {"is_disabled": 0, "is_reserved": 0, "fusion_lat": 0.0, "lat": 38.90960233333333, "fusion_lon": 0.0, "rental_uris": {"ios": "https://dc.lft.to/lastmile_qr_scan", "android": "https://dc.lft.to/lastmile_qr_scan"}, "lon": -77.0221735, "bike_id": "54cc6a5cd947a7314d43b11b1cb04cdf", "type": "electric_scooter", "name": "54cc6a5cd947a7314d43b11b1cb04cdf"}, {"is_disabled": 0, "is_reserved": 0, "fusion_lat": 0.0, "lat": 38.92231833333334, "fusion_lon": 0.0, "rental_uris": {"ios": "https://dc.lft.to/lastmile_qr_scan", "android": "https://dc.lft.to/lastmile_qr_scan"}, "lon": -77.0389985, "bike_id": "385685983d81fd53ecbc177d99a3a9ca", "type": "electric_scooter", "name": "385685983d81fd53ecbc177d99a3a9ca"}, {"is_disabled": 0, "is_reserved": 0, "fusion_lat": 0.0, "lat": 38.96776116666667, "fusion_lon": 0.0, "rental_uris": {"ios": "https://dc.lft.to/lastmile_qr_scan", "android": "https://dc.lft.to/lastmile_qr_scan"}, "lon": -76.99648416666666, "bike_id": "d719f9bce9c11713b8134bd23dfd0339", "type": "electric_bike", "name": "d719f9bce9c11713b8134bd23dfd0339"}, {"is_disabled": 0, "is_reserved": 0, "fusion_lat": 0.0, "lat": 38.91145916666667, "fusion_lon": 0.0, "rental_uris": {"ios": "https://dc.lft.to/lastmile_qr_scan", "android": "https://dc.lft.to/lastmile_qr_scan"}, "lon": -76.99757616666666, "bike_id": "28240aec7656d3f0f9a38802650704e3", "type": "electric_scooter", "name": "28240aec7656d3f0f9a38802650704e3"}, {"is_disabled": 0, "is_reserved": 0, "fusion_lat": 0.0, "lat": 38.9050555, "fusion_lon": 0.0, "rental_uris": {"ios": "https://dc.lft.to/lastmile_qr_scan", "android": "https://dc.lft.to/lastmile_qr_scan"}, "lon": -77.06120933333334, "bike_id": "fc9573fe65abc3024dba7914082618b8", "type": "electric_scooter", "name": "fc9573fe65abc3024dba7914082618b8"}, {"is_disabled": 0, "is_reserved": 0, "fusion_lat": 0.0, "lat": 38.9602695, "fusion_lon": 0.0, "rental_uris": {"ios": "https://dc.lft.to/lastmile_qr_scan", "android": "https://dc.lft.to/lastmile_qr_scan"}, "lon": -77.0339265, "bike_id": "7bf98be75dc6b107b60705cf968aa33e", "type": "electric_bike", "name": "7bf98be75dc6b107b60705cf968aa33e"}, {"is_disabled": 0, "is_reserved": 0, "fusion_lat": 0.0, "lat": 38.91889883333333, "fusion_lon": 0.0, "rental_uris": {"ios": "https://dc.lft.to/lastmile_qr_scan", "android": "https://dc.lft.to/lastmile_qr_scan"}, "lon": -77.03498933333333, "bike_id": "0460688f0a17127cb908877d9c294e33", "type": "electric_scooter", "name": "0460688f0a17127cb908877d9c294e33"}, {"is_disabled": 0, "is_reserved": 0, "fusion_lat": 0.0, "lat": 38.89424316666667, "fusion_lon": 0.0, "rental_uris": {"ios": "https://dc.lft.to/lastmile_qr_scan", "android": "https://dc.lft.to/lastmile_qr_scan"}, "lon": -77.05595483333333, "bike_id": "f36a625eb1414f693a35b35759905175", "type": "electric_scooter", "name": "f36a625eb1414f693a35b35759905175"}, {"is_disabled": 0, "is_reserved": 0, "fusion_lat": 0.0, "lat": 38.9091195, "fusion_lon": 0.0, "rental_uris": {"ios": "https://dc.lft.to/lastmile_qr_scan", "android": "https://dc.lft.to/lastmile_qr_scan"}, "lon": -77.04573483333333, "bike_id": "b4d8a0e8afa16d1dc1585064e4b8ce6b", "type": "electric_scooter", "name": "b4d8a0e8afa16d1dc1585064e4b8ce6b"}, {"is_disabled": 0, "is_reserved": 0, "fusion_lat": 0.0, "lat": 38.8949815, "fusion_lon": 0.0, "rental_uris": {"ios": "https://dc.lft.to/lastmile_qr_scan", "android": "https://dc.lft.to/lastmile_qr_scan"}, "lon": -77.022924, "bike_id": "21e59ec3d35474ef6fe586a19866e95e", "type": "electric_scooter", "name": "21e59ec3d35474ef6fe586a19866e95e"}, {"is_disabled": 0, "is_reserved": 0, "fusion_lat": 0.0, "lat": 38.8986235, "fusion_lon": 0.0, "rental_uris": {"ios": "https://dc.lft.to/lastmile_qr_scan", "android": "https://dc.lft.to/lastmile_qr_scan"}, "lon": -77.01869283333333, "bike_id": "db3b364d17a42552cb343c12f7ce41c4", "type": "electric_scooter", "name": "db3b364d17a42552cb343c12f7ce41c4"}, {"is_disabled": 0, "is_reserved": 0, "fusion_lat": 0.0, "lat": 38.91274716666667, "fusion_lon": 0.0, "rental_uris": {"ios": "https://dc.lft.to/lastmile_qr_scan", "android": "https://dc.lft.to/lastmile_qr_scan"}, "lon": -77.04502566666666, "bike_id": "8fa16b9d6576281f13520af472b9b05f", "type": "electric_scooter", "name": "8fa16b9d6576281f13520af472b9b05f"}, {"is_disabled": 0, "is_reserved": 0, "fusion_lat": 0.0, "lat": 38.913283, "fusion_lon": 0.0, "rental_uris": {"ios": "https://dc.lft.to/lastmile_qr_scan", "android": "https://dc.lft.to/lastmile_qr_scan"}, "lon": -77.04334433333334, "bike_id": "1bf0f8b241c2f8ea347a9844528ef47c", "type": "electric_scooter", "name": "1bf0f8b241c2f8ea347a9844528ef47c"}, {"is_disabled": 0, "is_reserved": 0, "fusion_lat": 0.0, "lat": 38.931108333333334, "fusion_lon": 0.0, "rental_uris": {"ios": "https://dc.lft.to/lastmile_qr_scan", "android": "https://dc.lft.to/lastmile_qr_scan"}, "lon": -77.0302585, "bike_id": "a37c9624beb1e4af0969c5e84c45fbb2", "type": "electric_scooter", "name": "a37c9624beb1e4af0969c5e84c45fbb2"}, {"is_disabled": 0, "is_reserved": 0, "fusion_lat": 0.0, "lat": 38.89227483333333, "fusion_lon": 0.0, "rental_uris": {"ios": "https://dc.lft.to/lastmile_qr_scan", "android": "https://dc.lft.to/lastmile_qr_scan"}, "lon": -77.05004466666666, "bike_id": "c31dd6f3087437d9b5fb5142418b1d84", "type": "electric_scooter", "name": "c31dd6f3087437d9b5fb5142418b1d84"}, {"is_disabled": 0, "is_reserved": 0, "fusion_lat": 0.0, "lat": 38.9257955, "fusion_lon": 0.0, "rental_uris": {"ios": "https://dc.lft.to/lastmile_qr_scan", "android": "https://dc.lft.to/lastmile_qr_scan"}, "lon": -76.99492783333334, "bike_id": "10b01a86831d7c90264f20e4a0023358", "type": "electric_scooter", "name": "10b01a86831d7c90264f20e4a0023358"}, {"is_disabled": 0, "is_reserved": 0, "fusion_lat": 0.0, "lat": 38.91676183333333, "fusion_lon": 0.0, "rental_uris": {"ios": "https://dc.lft.to/lastmile_qr_scan", "android": "https://dc.lft.to/lastmile_qr_scan"}, "lon": -77.09572566666667, "bike_id": "56ddc303e70bd8d35654173f4c317ad6", "type": "electric_scooter", "name": "56ddc303e70bd8d35654173f4c317ad6"}, {"is_disabled": 0, "is_reserved": 0, "fusion_lat": 0.0, "lat": 38.9203485, "fusion_lon": 0.0, "rental_uris": {"ios": "https://dc.lft.to/lastmile_qr_scan", "android": "https://dc.lft.to/lastmile_qr_scan"}, "lon": -76.97957766666667, "bike_id": "a3025fc1569bfec9956ba039a11b023c", "type": "electric_bike", "name": "a3025fc1569bfec9956ba039a11b023c"}, {"is_disabled": 0, "is_reserved": 0, "fusion_lat": 0.0, "lat": 38.9397415, "fusion_lon": 0.0, "rental_uris": {"ios": "https://dc.lft.to/lastmile_qr_scan", "android": "https://dc.lft.to/lastmile_qr_scan"}, "lon": -77.03435416666666, "bike_id": "52756d3fc85589e113f477acac94771d", "type": "electric_scooter", "name": "52756d3fc85589e113f477acac94771d"}, {"is_disabled": 0, "is_reserved": 0, "fusion_lat": 0.0, "lat": 38.92882633333333, "fusion_lon": 0.0, "rental_uris": {"ios": "https://dc.lft.to/lastmile_qr_scan", "android": "https://dc.lft.to/lastmile_qr_scan"}, "lon": -77.03243933333333, "bike_id": "80e5d85a8939891e030780ce6df0b020", "type": "electric_scooter", "name": "80e5d85a8939891e030780ce6df0b020"}, {"is_disabled": 0, "is_reserved": 0, "fusion_lat": 0.0, "lat": 38.92678183333334, "fusion_lon": 0.0, "rental_uris": {"ios": "https://dc.lft.to/lastmile_qr_scan", "android": "https://dc.lft.to/lastmile_qr_scan"}, "lon": -77.03796033333333, "bike_id": "e974c160f60fd27f7cb0dc49ca868512", "type": "electric_scooter", "name": "e974c160f60fd27f7cb0dc49ca868512"}, {"is_disabled": 0, "is_reserved": 0, "fusion_lat": 0.0, "lat": 39.003841333333334, "fusion_lon": 0.0, "rental_uris": {"ios": "https://dc.lft.to/lastmile_qr_scan", "android": "https://dc.lft.to/lastmile_qr_scan"}, "lon": -77.01288416666667, "bike_id": "d70b29503df96469da28e4cbc999f47e", "type": "electric_bike", "name": "d70b29503df96469da28e4cbc999f47e"}, {"is_disabled": 0, "is_reserved": 0, "fusion_lat": 0.0, "lat": 38.87743866666667, "fusion_lon": 0.0, "rental_uris": {"ios": "https://dc.lft.to/lastmile_qr_scan", "android": "https://dc.lft.to/lastmile_qr_scan"}, "lon": -77.14877233333333, "bike_id": "2ad968562e35b6a46007d0be3fc6242b", "type": "electric_bike", "name": "2ad968562e35b6a46007d0be3fc6242b"}, {"is_disabled": 0, "is_reserved": 0, "fusion_lat": 0.0, "lat": 38.881007, "fusion_lon": 0.0, "rental_uris": {"ios": "https://dc.lft.to/lastmile_qr_scan", "android": "https://dc.lft.to/lastmile_qr_scan"}, "lon": -77.01230533333333, "bike_id": "cb8c902f4bb4375b7eddc38c93360612", "type": "electric_scooter", "name": "cb8c902f4bb4375b7eddc38c93360612"}, {"is_disabled": 0, "is_reserved": 0, "fusion_lat": 0.0, "lat": 38.912035833333334, "fusion_lon": 0.0, "rental_uris": {"ios": "https://dc.lft.to/lastmile_qr_scan", "android": "https://dc.lft.to/lastmile_qr_scan"}, "lon": -77.0008345, "bike_id": "54aa9475be7c4f2b5154694dfc557653", "type": "electric_scooter", "name": "54aa9475be7c4f2b5154694dfc557653"}, {"is_disabled": 0, "is_reserved": 0, "fusion_lat": 0.0, "lat": 39.00534733333333, "fusion_lon": 0.0, "rental_uris": {"ios": "https://dc.lft.to/lastmile_qr_scan", "android": "https://dc.lft.to/lastmile_qr_scan"}, "lon": -77.104007, "bike_id": "c290bb2e9affbb6e3bd91f598892e346", "type": "electric_bike", "name": "c290bb2e9affbb6e3bd91f598892e346"}, {"is_disabled": 0, "is_reserved": 0, "fusion_lat": 0.0, "lat": 38.8852645, "fusion_lon": 0.0, "rental_uris": {"ios": "https://dc.lft.to/lastmile_qr_scan", "android": "https://dc.lft.to/lastmile_qr_scan"}, "lon": -76.99627733333334, "bike_id": "30b80fbd862f0bd65d92f5c65aa56cff", "type": "electric_scooter", "name": "30b80fbd862f0bd65d92f5c65aa56cff"}, {"is_disabled": 0, "is_reserved": 0, "fusion_lat": 0.0, "lat": 38.907691, "fusion_lon": 0.0, "rental_uris": {"ios": "https://dc.lft.to/lastmile_qr_scan", "android": "https://dc.lft.to/lastmile_qr_scan"}, "lon": -77.04519016666667, "bike_id": "18c25d97c16999d194b0f1f5764dcba1", "type": "electric_scooter", "name": "18c25d97c16999d194b0f1f5764dcba1"}, {"is_disabled": 0, "is_reserved": 0, "fusion_lat": 0.0, "lat": 38.85797, "fusion_lon": 0.0, "rental_uris": {"ios": "https://dc.lft.to/lastmile_qr_scan", "android": "https://dc.lft.to/lastmile_qr_scan"}, "lon": -76.9874695, "bike_id": "f36c9b867229caa1c57b7b2d11ce2471", "type": "electric_bike", "name": "f36c9b867229caa1c57b7b2d11ce2471"}, {"is_disabled": 0, "is_reserved": 0, "fusion_lat": 0.0, "lat": 39.02624683333333, "fusion_lon": 0.0, "rental_uris": {"ios": "https://dc.lft.to/lastmile_qr_scan", "android": "https://dc.lft.to/lastmile_qr_scan"}, "lon": -77.03879533333334, "bike_id": "f56470e6be57b95052dbb11e2dbb43ab", "type": "electric_bike", "name": "f56470e6be57b95052dbb11e2dbb43ab"}, {"is_disabled": 0, "is_reserved": 0, "fusion_lat": 0.0, "lat": 38.926841, "fusion_lon": 0.0, "rental_uris": {"ios": "https://dc.lft.to/lastmile_qr_scan", "android": "https://dc.lft.to/lastmile_qr_scan"}, "lon": -77.0085875, "bike_id": "999ba42a6f872240f28ea4c2784f7406", "type": "electric_scooter", "name": "999ba42a6f872240f28ea4c2784f7406"}, {"is_disabled": 0, "is_reserved": 0, "fusion_lat": 0.0, "lat": 38.885034166666664, "fusion_lon": 0.0, "rental_uris": {"ios": "https://dc.lft.to/lastmile_qr_scan", "android": "https://dc.lft.to/lastmile_qr_scan"}, "lon": -76.99755533333334, "bike_id": "89a708dcd3aad734db78f01443007a49", "type": "electric_scooter", "name": "89a708dcd3aad734db78f01443007a49"}, {"is_disabled": 0, "is_reserved": 0, "fusion_lat": 0.0, "lat": 38.92618816666667, "fusion_lon": 0.0, "rental_uris": {"ios": "https://dc.lft.to/lastmile_qr_scan", "android": "https://dc.lft.to/lastmile_qr_scan"}, "lon": -76.99055966666667, "bike_id": "e3aa49d384faa512ed46c519d775e2d1", "type": "electric_scooter", "name": "e3aa49d384faa512ed46c519d775e2d1"}, {"is_disabled": 0, "is_reserved": 0, "fusion_lat": 0.0, "lat": 38.904459333333335, "fusion_lon": 0.0, "rental_uris": {"ios": "https://dc.lft.to/lastmile_qr_scan", "android": "https://dc.lft.to/lastmile_qr_scan"}, "lon": -76.973088, "bike_id": "a5e8cf1366c6d2f27e63dcddd9f932b3", "type": "electric_scooter", "name": "a5e8cf1366c6d2f27e63dcddd9f932b3"}, {"is_disabled": 0, "is_reserved": 0, "fusion_lat": 0.0, "lat": 38.919982166666664, "fusion_lon": 0.0, "rental_uris": {"ios": "https://dc.lft.to/lastmile_qr_scan", "android": "https://dc.lft.to/lastmile_qr_scan"}, "lon": -77.03223283333334, "bike_id": "5aee527b27ab320313cef59b1df2a309", "type": "electric_scooter", "name": "5aee527b27ab320313cef59b1df2a309"}, {"is_disabled": 0, "is_reserved": 0, "fusion_lat": 0.0, "lat": 38.963547166666665, "fusion_lon": 0.0, "rental_uris": {"ios": "https://dc.lft.to/lastmile_qr_scan", "android": "https://dc.lft.to/lastmile_qr_scan"}, "lon": -77.03440966666666, "bike_id": "984d80223506a8a60cb3f16bc912b644", "type": "electric_scooter", "name": "984d80223506a8a60cb3f16bc912b644"}, {"is_disabled": 0, "is_reserved": 0, "fusion_lat": 0.0, "lat": 38.87663766666667, "fusion_lon": 0.0, "rental_uris": {"ios": "https://dc.lft.to/lastmile_qr_scan", "android": "https://dc.lft.to/lastmile_qr_scan"}, "lon": -77.00465433333333, "bike_id": "5f8249067457ef0c52e993adcf186d56", "type": "electric_scooter", "name": "5f8249067457ef0c52e993adcf186d56"}, {"is_disabled": 0, "is_reserved": 0, "fusion_lat": 0.0, "lat": 38.89556116666667, "fusion_lon": 0.0, "rental_uris": {"ios": "https://dc.lft.to/lastmile_qr_scan", "android": "https://dc.lft.to/lastmile_qr_scan"}, "lon": -77.046591, "bike_id": "d03a2aa5d4cf761deca86975a3bf8456", "type": "electric_scooter", "name": "d03a2aa5d4cf761deca86975a3bf8456"}, {"is_disabled": 0, "is_reserved": 0, "fusion_lat": 0.0, "lat": 38.842687, "fusion_lon": 0.0, "rental_uris": {"ios": "https://dc.lft.to/lastmile_qr_scan", "android": "https://dc.lft.to/lastmile_qr_scan"}, "lon": -76.98834616666667, "bike_id": "d697976528ca779814c0cff55da73ba6", "type": "electric_scooter", "name": "d697976528ca779814c0cff55da73ba6"}, {"is_disabled": 0, "is_reserved": 0, "fusion_lat": 0.0, "lat": 38.877478333333336, "fusion_lon": 0.0, "rental_uris": {"ios": "https://dc.lft.to/lastmile_qr_scan", "android": "https://dc.lft.to/lastmile_qr_scan"}, "lon": -77.00456133333333, "bike_id": "e63aee94c15402423c3849045852b9bf", "type": "electric_scooter", "name": "e63aee94c15402423c3849045852b9bf"}, {"is_disabled": 0, "is_reserved": 0, "fusion_lat": 0.0, "lat": 38.923470333333334, "fusion_lon": 0.0, "rental_uris": {"ios": "https://dc.lft.to/lastmile_qr_scan", "android": "https://dc.lft.to/lastmile_qr_scan"}, "lon": -77.02444783333333, "bike_id": "ab0ce1274c34d54dda06e2aabc03597d", "type": "electric_scooter", "name": "ab0ce1274c34d54dda06e2aabc03597d"}, {"is_disabled": 0, "is_reserved": 0, "fusion_lat": 0.0, "lat": 38.91821916666667, "fusion_lon": 0.0, "rental_uris": {"ios": "https://dc.lft.to/lastmile_qr_scan", "android": "https://dc.lft.to/lastmile_qr_scan"}, "lon": -77.01208666666666, "bike_id": "f5b924a3ad4f5d42f2bee27b576107ed", "type": "electric_scooter", "name": "f5b924a3ad4f5d42f2bee27b576107ed"}, {"is_disabled": 0, "is_reserved": 0, "fusion_lat": 0.0, "lat": 38.884462, "fusion_lon": 0.0, "rental_uris": {"ios": "https://dc.lft.to/lastmile_qr_scan", "android": "https://dc.lft.to/lastmile_qr_scan"}, "lon": -77.03001233333333, "bike_id": "57dbecca671898d01858af757f926f5a", "type": "electric_scooter", "name": "57dbecca671898d01858af757f926f5a"}, {"is_disabled": 0, "is_reserved": 0, "fusion_lat": 0.0, "lat": 38.92908416666667, "fusion_lon": 0.0, "rental_uris": {"ios": "https://dc.lft.to/lastmile_qr_scan", "android": "https://dc.lft.to/lastmile_qr_scan"}, "lon": -77.05987083333333, "bike_id": "e80c6ac2015fa320a03dcc882a8a272c", "type": "electric_scooter", "name": "e80c6ac2015fa320a03dcc882a8a272c"}, {"is_disabled": 0, "is_reserved": 0, "fusion_lat": 0.0, "lat": 38.90714216666667, "fusion_lon": 0.0, "rental_uris": {"ios": "https://dc.lft.to/lastmile_qr_scan", "android": "https://dc.lft.to/lastmile_qr_scan"}, "lon": -77.02567933333333, "bike_id": "1d3807885b5bd7aede8b9616e9182278", "type": "electric_scooter", "name": "1d3807885b5bd7aede8b9616e9182278"}, {"is_disabled": 0, "is_reserved": 0, "fusion_lat": 0.0, "lat": 38.922458666666664, "fusion_lon": 0.0, "rental_uris": {"ios": "https://dc.lft.to/lastmile_qr_scan", "android": "https://dc.lft.to/lastmile_qr_scan"}, "lon": -77.03217433333333, "bike_id": "47144f4ca71caeb68441d833f36af224", "type": "electric_scooter", "name": "47144f4ca71caeb68441d833f36af224"}, {"is_disabled": 0, "is_reserved": 0, "fusion_lat": 0.0, "lat": 38.875237166666665, "fusion_lon": 0.0, "rental_uris": {"ios": "https://dc.lft.to/lastmile_qr_scan", "android": "https://dc.lft.to/lastmile_qr_scan"}, "lon": -77.0122635, "bike_id": "a6e9576447c32192a7f85e652c63d03d", "type": "electric_scooter", "name": "a6e9576447c32192a7f85e652c63d03d"}, {"is_disabled": 0, "is_reserved": 0, "fusion_lat": 0.0, "lat": 38.924991166666665, "fusion_lon": 0.0, "rental_uris": {"ios": "https://dc.lft.to/lastmile_qr_scan", "android": "https://dc.lft.to/lastmile_qr_scan"}, "lon": -77.043355, "bike_id": "754a4ec8d8b29c9dea50b3cbe1582a61", "type": "electric_scooter", "name": "754a4ec8d8b29c9dea50b3cbe1582a61"}, {"is_disabled": 0, "is_reserved": 0, "fusion_lat": 0.0, "lat": 38.91180683333333, "fusion_lon": 0.0, "rental_uris": {"ios": "https://dc.lft.to/lastmile_qr_scan", "android": "https://dc.lft.to/lastmile_qr_scan"}, "lon": -77.04037066666666, "bike_id": "5cee023350acf0474a4d8ce494de9cf7", "type": "electric_scooter", "name": "5cee023350acf0474a4d8ce494de9cf7"}, {"is_disabled": 0, "is_reserved": 0, "fusion_lat": 0.0, "lat": 38.9081885, "fusion_lon": 0.0, "rental_uris": {"ios": "https://dc.lft.to/lastmile_qr_scan", "android": "https://dc.lft.to/lastmile_qr_scan"}, "lon": -77.04492366666666, "bike_id": "eb58b79d0019a65d02302d958e7aad59", "type": "electric_scooter", "name": "eb58b79d0019a65d02302d958e7aad59"}, {"is_disabled": 0, "is_reserved": 0, "fusion_lat": 0.0, "lat": 38.927049333333336, "fusion_lon": 0.0, "rental_uris": {"ios": "https://dc.lft.to/lastmile_qr_scan", "android": "https://dc.lft.to/lastmile_qr_scan"}, "lon": -76.9607755, "bike_id": "dd865312d5478390806403cc3ec4aa77", "type": "electric_scooter", "name": "dd865312d5478390806403cc3ec4aa77"}, {"is_disabled": 0, "is_reserved": 0, "fusion_lat": 0.0, "lat": 38.92575316666667, "fusion_lon": 0.0, "rental_uris": {"ios": "https://dc.lft.to/lastmile_qr_scan", "android": "https://dc.lft.to/lastmile_qr_scan"}, "lon": -76.9950035, "bike_id": "a1341447c37f5b288b5ea1d546f2afb3", "type": "electric_scooter", "name": "a1341447c37f5b288b5ea1d546f2afb3"}, {"is_disabled": 0, "is_reserved": 0, "fusion_lat": 0.0, "lat": 38.872618, "fusion_lon": 0.0, "rental_uris": {"ios": "https://dc.lft.to/lastmile_qr_scan", "android": "https://dc.lft.to/lastmile_qr_scan"}, "lon": -77.01687433333333, "bike_id": "4d24b98f493722f99d7df9b3a5afc803", "type": "electric_scooter", "name": "4d24b98f493722f99d7df9b3a5afc803"}, {"is_disabled": 0, "is_reserved": 0, "fusion_lat": 0.0, "lat": 38.939465, "fusion_lon": 0.0, "rental_uris": {"ios": "https://dc.lft.to/lastmile_qr_scan", "android": "https://dc.lft.to/lastmile_qr_scan"}, "lon": -77.021822, "bike_id": "522be47662905c431737ae17714d7cda", "type": "electric_scooter", "name": "522be47662905c431737ae17714d7cda"}, {"is_disabled": 0, "is_reserved": 0, "fusion_lat": 0.0, "lat": 38.919038, "fusion_lon": 0.0, "rental_uris": {"ios": "https://dc.lft.to/lastmile_qr_scan", "android": "https://dc.lft.to/lastmile_qr_scan"}, "lon": -77.00049433333334, "bike_id": "2d0ffb98be9ad9d200dea4976a44e44f", "type": "electric_scooter", "name": "2d0ffb98be9ad9d200dea4976a44e44f"}, {"is_disabled": 0, "is_reserved": 0, "fusion_lat": 0.0, "lat": 38.881843333333336, "fusion_lon": 0.0, "rental_uris": {"ios": "https://dc.lft.to/lastmile_qr_scan", "android": "https://dc.lft.to/lastmile_qr_scan"}, "lon": -77.00352166666667, "bike_id": "ece6ba6d3c80bd92de4eb8111464e0e6", "type": "electric_scooter", "name": "ece6ba6d3c80bd92de4eb8111464e0e6"}, {"is_disabled": 0, "is_reserved": 0, "fusion_lat": 0.0, "lat": 38.8884385, "fusion_lon": 0.0, "rental_uris": {"ios": "https://dc.lft.to/lastmile_qr_scan", "android": "https://dc.lft.to/lastmile_qr_scan"}, "lon": -77.0490485, "bike_id": "8e8075f3cadfbf8f9c7617c296d7ba89", "type": "electric_scooter", "name": "8e8075f3cadfbf8f9c7617c296d7ba89"}, {"is_disabled": 0, "is_reserved": 0, "fusion_lat": 0.0, "lat": 38.924285833333336, "fusion_lon": 0.0, "rental_uris": {"ios": "https://dc.lft.to/lastmile_qr_scan", "android": "https://dc.lft.to/lastmile_qr_scan"}, "lon": -77.019449, "bike_id": "71b43d1f28981fcdaed747f058e81bfb", "type": "electric_scooter", "name": "71b43d1f28981fcdaed747f058e81bfb"}, {"is_disabled": 0, "is_reserved": 0, "fusion_lat": 0.0, "lat": 38.899340333333335, "fusion_lon": 0.0, "rental_uris": {"ios": "https://dc.lft.to/lastmile_qr_scan", "android": "https://dc.lft.to/lastmile_qr_scan"}, "lon": -76.9376045, "bike_id": "12136ed195ef35fd0275b221ff8549f1", "type": "electric_scooter", "name": "12136ed195ef35fd0275b221ff8549f1"}, {"is_disabled": 0, "is_reserved": 0, "fusion_lat": 0.0, "lat": 38.91743666666667, "fusion_lon": 0.0, "rental_uris": {"ios": "https://dc.lft.to/lastmile_qr_scan", "android": "https://dc.lft.to/lastmile_qr_scan"}, "lon": -77.01083183333333, "bike_id": "9c526700b8807dcd68b027ed8684fbdf", "type": "electric_scooter", "name": "9c526700b8807dcd68b027ed8684fbdf"}, {"is_disabled": 0, "is_reserved": 0, "fusion_lat": 0.0, "lat": 38.8708425, "fusion_lon": 0.0, "rental_uris": {"ios": "https://dc.lft.to/lastmile_qr_scan", "android": "https://dc.lft.to/lastmile_qr_scan"}, "lon": -77.01079983333334, "bike_id": "683d38189441a897b048e908cbc73552", "type": "electric_scooter", "name": "683d38189441a897b048e908cbc73552"}, {"is_disabled": 0, "is_reserved": 0, "fusion_lat": 0.0, "lat": 38.876332833333336, "fusion_lon": 0.0, "rental_uris": {"ios": "https://dc.lft.to/lastmile_qr_scan", "android": "https://dc.lft.to/lastmile_qr_scan"}, "lon": -77.00213916666667, "bike_id": "e31fe101143804aa6ebba014ab301011", "type": "electric_scooter", "name": "e31fe101143804aa6ebba014ab301011"}, {"is_disabled": 0, "is_reserved": 0, "fusion_lat": 0.0, "lat": 38.928232333333334, "fusion_lon": 0.0, "rental_uris": {"ios": "https://dc.lft.to/lastmile_qr_scan", "android": "https://dc.lft.to/lastmile_qr_scan"}, "lon": -77.0597015, "bike_id": "2a0c4ab5da4885c44dbb00baef732db7", "type": "electric_bike", "name": "2a0c4ab5da4885c44dbb00baef732db7"}, {"is_disabled": 0, "is_reserved": 0, "fusion_lat": 0.0, "lat": 38.918104166666666, "fusion_lon": 0.0, "rental_uris": {"ios": "https://dc.lft.to/lastmile_qr_scan", "android": "https://dc.lft.to/lastmile_qr_scan"}, "lon": -77.00003766666667, "bike_id": "267b2ca943a295cdac055cf2183711a6", "type": "electric_scooter", "name": "267b2ca943a295cdac055cf2183711a6"}, {"is_disabled": 0, "is_reserved": 0, "fusion_lat": 0.0, "lat": 38.889718333333334, "fusion_lon": 0.0, "rental_uris": {"ios": "https://dc.lft.to/lastmile_qr_scan", "android": "https://dc.lft.to/lastmile_qr_scan"}, "lon": -76.98178883333334, "bike_id": "effaa77fff8225038b12930e5438fdd3", "type": "electric_scooter", "name": "effaa77fff8225038b12930e5438fdd3"}, {"is_disabled": 0, "is_reserved": 0, "fusion_lat": 0.0, "lat": 38.91173216666667, "fusion_lon": 0.0, "rental_uris": {"ios": "https://dc.lft.to/lastmile_qr_scan", "android": "https://dc.lft.to/lastmile_qr_scan"}, "lon": -77.01212816666667, "bike_id": "640d76d0d291d85fc1b01588db8cfc62", "type": "electric_scooter", "name": "640d76d0d291d85fc1b01588db8cfc62"}, {"is_disabled": 0, "is_reserved": 0, "fusion_lat": 0.0, "lat": 38.913469166666665, "fusion_lon": 0.0, "rental_uris": {"ios": "https://dc.lft.to/lastmile_qr_scan", "android": "https://dc.lft.to/lastmile_qr_scan"}, "lon": -77.04420066666667, "bike_id": "71b7026d41475fd1cc8434969e08be68", "type": "electric_scooter", "name": "71b7026d41475fd1cc8434969e08be68"}, {"is_disabled": 0, "is_reserved": 0, "fusion_lat": 0.0, "lat": 38.9403485, "fusion_lon": 0.0, "rental_uris": {"ios": "https://dc.lft.to/lastmile_qr_scan", "android": "https://dc.lft.to/lastmile_qr_scan"}, "lon": -77.025215, "bike_id": "a635bd2a93c1259785d2eb2108563383", "type": "electric_scooter", "name": "a635bd2a93c1259785d2eb2108563383"}, {"is_disabled": 0, "is_reserved": 0, "fusion_lat": 0.0, "lat": 38.92379866666667, "fusion_lon": 0.0, "rental_uris": {"ios": "https://dc.lft.to/lastmile_qr_scan", "android": "https://dc.lft.to/lastmile_qr_scan"}, "lon": -77.02031133333334, "bike_id": "5cced9ea22958340712df929fe486331", "type": "electric_scooter", "name": "5cced9ea22958340712df929fe486331"}, {"is_disabled": 0, "is_reserved": 0, "fusion_lat": 0.0, "lat": 38.90710966666666, "fusion_lon": 0.0, "rental_uris": {"ios": "https://dc.lft.to/lastmile_qr_scan", "android": "https://dc.lft.to/lastmile_qr_scan"}, "lon": -77.0480545, "bike_id": "f1fd1783052a78690989160216fd7964", "type": "electric_scooter", "name": "f1fd1783052a78690989160216fd7964"}, {"is_disabled": 0, "is_reserved": 0, "fusion_lat": 0.0, "lat": 38.9066575, "fusion_lon": 0.0, "rental_uris": {"ios": "https://dc.lft.to/lastmile_qr_scan", "android": "https://dc.lft.to/lastmile_qr_scan"}, "lon": -76.98599466666667, "bike_id": "d2979c7ccd183a772b40561ea5b3b434", "type": "electric_scooter", "name": "d2979c7ccd183a772b40561ea5b3b434"}, {"is_disabled": 0, "is_reserved": 0, "fusion_lat": 0.0, "lat": 38.897535, "fusion_lon": 0.0, "rental_uris": {"ios": "https://dc.lft.to/lastmile_qr_scan", "android": "https://dc.lft.to/lastmile_qr_scan"}, "lon": -77.0480825, "bike_id": "f5349194f51d2d858e3d0742a634b142", "type": "electric_scooter", "name": "f5349194f51d2d858e3d0742a634b142"}, {"is_disabled": 0, "is_reserved": 0, "fusion_lat": 0.0, "lat": 38.93063816666667, "fusion_lon": 0.0, "rental_uris": {"ios": "https://dc.lft.to/lastmile_qr_scan", "android": "https://dc.lft.to/lastmile_qr_scan"}, "lon": -77.0421685, "bike_id": "a8a420f134caadf2652396edcc9f3e5d", "type": "electric_scooter", "name": "a8a420f134caadf2652396edcc9f3e5d"}, {"is_disabled": 0, "is_reserved": 0, "fusion_lat": 0.0, "lat": 38.919220833333334, "fusion_lon": 0.0, "rental_uris": {"ios": "https://dc.lft.to/lastmile_qr_scan", "android": "https://dc.lft.to/lastmile_qr_scan"}, "lon": -77.00974416666666, "bike_id": "7d87241381a857633561aa2821d182bb", "type": "electric_scooter", "name": "7d87241381a857633561aa2821d182bb"}, {"is_disabled": 0, "is_reserved": 0, "fusion_lat": 0.0, "lat": 38.92481016666667, "fusion_lon": 0.0, "rental_uris": {"ios": "https://dc.lft.to/lastmile_qr_scan", "android": "https://dc.lft.to/lastmile_qr_scan"}, "lon": -77.02834516666667, "bike_id": "aa1b8bc59a2686df6339015dd6002f83", "type": "electric_scooter", "name": "aa1b8bc59a2686df6339015dd6002f83"}, {"is_disabled": 0, "is_reserved": 0, "fusion_lat": 0.0, "lat": 38.9324075, "fusion_lon": 0.0, "rental_uris": {"ios": "https://dc.lft.to/lastmile_qr_scan", "android": "https://dc.lft.to/lastmile_qr_scan"}, "lon": -77.03412816666666, "bike_id": "b01bbc997688bf005294adc27c5aa922", "type": "electric_scooter", "name": "b01bbc997688bf005294adc27c5aa922"}, {"is_disabled": 0, "is_reserved": 0, "fusion_lat": 0.0, "lat": 38.95098933333333, "fusion_lon": 0.0, "rental_uris": {"ios": "https://dc.lft.to/lastmile_qr_scan", "android": "https://dc.lft.to/lastmile_qr_scan"}, "lon": -77.01910316666667, "bike_id": "b299504c5b5e8c4b87933232b74edac1", "type": "electric_scooter", "name": "b299504c5b5e8c4b87933232b74edac1"}, {"is_disabled": 0, "is_reserved": 0, "fusion_lat": 0.0, "lat": 38.9176435, "fusion_lon": 0.0, "rental_uris": {"ios": "https://dc.lft.to/lastmile_qr_scan", "android": "https://dc.lft.to/lastmile_qr_scan"}, "lon": -77.03580316666667, "bike_id": "3ad65bd4cbc9ad6092ac543f1af95f59", "type": "electric_scooter", "name": "3ad65bd4cbc9ad6092ac543f1af95f59"}, {"is_disabled": 0, "is_reserved": 0, "fusion_lat": 0.0, "lat": 38.90544516666667, "fusion_lon": 0.0, "rental_uris": {"ios": "https://dc.lft.to/lastmile_qr_scan", "android": "https://dc.lft.to/lastmile_qr_scan"}, "lon": -77.05701783333333, "bike_id": "76d639579f0f91d1f9ad7717176d0292", "type": "electric_scooter", "name": "76d639579f0f91d1f9ad7717176d0292"}, {"is_disabled": 0, "is_reserved": 0, "fusion_lat": 0.0, "lat": 38.93538016666667, "fusion_lon": 0.0, "rental_uris": {"ios": "https://dc.lft.to/lastmile_qr_scan", "android": "https://dc.lft.to/lastmile_qr_scan"}, "lon": -77.02353366666667, "bike_id": "0affa8bb625128c22c8e0ac86360525a", "type": "electric_scooter", "name": "0affa8bb625128c22c8e0ac86360525a"}, {"is_disabled": 0, "is_reserved": 0, "fusion_lat": 0.0, "lat": 38.90081, "fusion_lon": 0.0, "rental_uris": {"ios": "https://dc.lft.to/lastmile_qr_scan", "android": "https://dc.lft.to/lastmile_qr_scan"}, "lon": -77.0187605, "bike_id": "5d80bdaf691139a791058400e99289d1", "type": "electric_scooter", "name": "5d80bdaf691139a791058400e99289d1"}, {"is_disabled": 0, "is_reserved": 0, "fusion_lat": 0.0, "lat": 38.928389, "fusion_lon": 0.0, "rental_uris": {"ios": "https://dc.lft.to/lastmile_qr_scan", "android": "https://dc.lft.to/lastmile_qr_scan"}, "lon": -77.0360205, "bike_id": "585ea667a873625cbe0465d601ac00d2", "type": "electric_scooter", "name": "585ea667a873625cbe0465d601ac00d2"}, {"is_disabled": 0, "is_reserved": 0, "fusion_lat": 0.0, "lat": 38.94136966666667, "fusion_lon": 0.0, "rental_uris": {"ios": "https://dc.lft.to/lastmile_qr_scan", "android": "https://dc.lft.to/lastmile_qr_scan"}, "lon": -77.02321116666667, "bike_id": "0e912b7f2f00dd197532510c8574a222", "type": "electric_scooter", "name": "0e912b7f2f00dd197532510c8574a222"}, {"is_disabled": 0, "is_reserved": 0, "fusion_lat": 0.0, "lat": 38.924826, "fusion_lon": 0.0, "rental_uris": {"ios": "https://dc.lft.to/lastmile_qr_scan", "android": "https://dc.lft.to/lastmile_qr_scan"}, "lon": -77.0266215, "bike_id": "eb8968df2b4380ea056c8ba4b47c8c25", "type": "electric_scooter", "name": "eb8968df2b4380ea056c8ba4b47c8c25"}, {"is_disabled": 0, "is_reserved": 0, "fusion_lat": 0.0, "lat": 38.9221395, "fusion_lon": 0.0, "rental_uris": {"ios": "https://dc.lft.to/lastmile_qr_scan", "android": "https://dc.lft.to/lastmile_qr_scan"}, "lon": -77.03778116666666, "bike_id": "e2e9d0e71aa2bb3d66549abfaa41b322", "type": "electric_scooter", "name": "e2e9d0e71aa2bb3d66549abfaa41b322"}, {"is_disabled": 0, "is_reserved": 0, "fusion_lat": 0.0, "lat": 38.92814883333333, "fusion_lon": 0.0, "rental_uris": {"ios": "https://dc.lft.to/lastmile_qr_scan", "android": "https://dc.lft.to/lastmile_qr_scan"}, "lon": -77.04365066666666, "bike_id": "3eacf676c4dfff348aefc0f515b7dc3f", "type": "electric_scooter", "name": "3eacf676c4dfff348aefc0f515b7dc3f"}, {"is_disabled": 0, "is_reserved": 0, "fusion_lat": 0.0, "lat": 38.924771166666666, "fusion_lon": 0.0, "rental_uris": {"ios": "https://dc.lft.to/lastmile_qr_scan", "android": "https://dc.lft.to/lastmile_qr_scan"}, "lon": -77.02997666666667, "bike_id": "817a06483dc2eff927e14c589f0cb35c", "type": "electric_scooter", "name": "817a06483dc2eff927e14c589f0cb35c"}, {"is_disabled": 0, "is_reserved": 0, "fusion_lat": 0.0, "lat": 38.915527, "fusion_lon": 0.0, "rental_uris": {"ios": "https://dc.lft.to/lastmile_qr_scan", "android": "https://dc.lft.to/lastmile_qr_scan"}, "lon": -77.0235345, "bike_id": "f3e17554d55c7c68d698f4596c2078ba", "type": "electric_scooter", "name": "f3e17554d55c7c68d698f4596c2078ba"}, {"is_disabled": 0, "is_reserved": 0, "fusion_lat": 0.0, "lat": 38.9216295, "fusion_lon": 0.0, "rental_uris": {"ios": "https://dc.lft.to/lastmile_qr_scan", "android": "https://dc.lft.to/lastmile_qr_scan"}, "lon": -77.03670883333334, "bike_id": "90f0050cd814c7ebcacdb29caaf32ac5", "type": "electric_scooter", "name": "90f0050cd814c7ebcacdb29caaf32ac5"}, {"is_disabled": 0, "is_reserved": 0, "fusion_lat": 0.0, "lat": 38.930867, "fusion_lon": 0.0, "rental_uris": {"ios": "https://dc.lft.to/lastmile_qr_scan", "android": "https://dc.lft.to/lastmile_qr_scan"}, "lon": -77.032458, "bike_id": "72cf6f2863a963e5ebbecba56646448f", "type": "electric_scooter", "name": "72cf6f2863a963e5ebbecba56646448f"}, {"is_disabled": 0, "is_reserved": 0, "fusion_lat": 0.0, "lat": 38.89619833333333, "fusion_lon": 0.0, "rental_uris": {"ios": "https://dc.lft.to/lastmile_qr_scan", "android": "https://dc.lft.to/lastmile_qr_scan"}, "lon": -77.0215885, "bike_id": "19c58145f444425deb44ad8aa8578c9f", "type": "electric_scooter", "name": "19c58145f444425deb44ad8aa8578c9f"}, {"is_disabled": 0, "is_reserved": 0, "fusion_lat": 0.0, "lat": 38.92020383333333, "fusion_lon": 0.0, "rental_uris": {"ios": "https://dc.lft.to/lastmile_qr_scan", "android": "https://dc.lft.to/lastmile_qr_scan"}, "lon": -77.03641333333333, "bike_id": "efde12b876b81793b4e389e2a72327fe", "type": "electric_scooter", "name": "efde12b876b81793b4e389e2a72327fe"}, {"is_disabled": 0, "is_reserved": 0, "fusion_lat": 0.0, "lat": 38.915446833333334, "fusion_lon": 0.0, "rental_uris": {"ios": "https://dc.lft.to/lastmile_qr_scan", "android": "https://dc.lft.to/lastmile_qr_scan"}, "lon": -77.0540665, "bike_id": "e88e9e0fb331dc9bc6e8512cf9e4a651", "type": "electric_scooter", "name": "e88e9e0fb331dc9bc6e8512cf9e4a651"}, {"is_disabled": 0, "is_reserved": 0, "fusion_lat": 0.0, "lat": 38.90500483333334, "fusion_lon": 0.0, "rental_uris": {"ios": "https://dc.lft.to/lastmile_qr_scan", "android": "https://dc.lft.to/lastmile_qr_scan"}, "lon": -77.02945216666667, "bike_id": "3776fbd57eb0643f070b45b1e968158f", "type": "electric_scooter", "name": "3776fbd57eb0643f070b45b1e968158f"}, {"is_disabled": 0, "is_reserved": 0, "fusion_lat": 0.0, "lat": 38.87659283333333, "fusion_lon": 0.0, "rental_uris": {"ios": "https://dc.lft.to/lastmile_qr_scan", "android": "https://dc.lft.to/lastmile_qr_scan"}, "lon": -77.0088695, "bike_id": "eb13dac70cc144c92b769847e19ce996", "type": "electric_scooter", "name": "eb13dac70cc144c92b769847e19ce996"}, {"is_disabled": 0, "is_reserved": 0, "fusion_lat": 0.0, "lat": 38.9061945, "fusion_lon": 0.0, "rental_uris": {"ios": "https://dc.lft.to/lastmile_qr_scan", "android": "https://dc.lft.to/lastmile_qr_scan"}, "lon": -77.02953683333334, "bike_id": "01a647528e6c7d6682cbf8222d3df966", "type": "electric_scooter", "name": "01a647528e6c7d6682cbf8222d3df966"}, {"is_disabled": 0, "is_reserved": 0, "fusion_lat": 0.0, "lat": 38.8924965, "fusion_lon": 0.0, "rental_uris": {"ios": "https://dc.lft.to/lastmile_qr_scan", "android": "https://dc.lft.to/lastmile_qr_scan"}, "lon": -77.0395985, "bike_id": "2ed9bb3c2a8b629012c9061f124bec8c", "type": "electric_scooter", "name": "2ed9bb3c2a8b629012c9061f124bec8c"}, {"is_disabled": 0, "is_reserved": 0, "fusion_lat": 0.0, "lat": 38.88359633333334, "fusion_lon": 0.0, "rental_uris": {"ios": "https://dc.lft.to/lastmile_qr_scan", "android": "https://dc.lft.to/lastmile_qr_scan"}, "lon": -76.92791033333333, "bike_id": "68edd27e26618318ba2671a2bdd6ee94", "type": "electric_scooter", "name": "68edd27e26618318ba2671a2bdd6ee94"}, {"is_disabled": 0, "is_reserved": 0, "fusion_lat": 0.0, "lat": 38.9015715, "fusion_lon": 0.0, "rental_uris": {"ios": "https://dc.lft.to/lastmile_qr_scan", "android": "https://dc.lft.to/lastmile_qr_scan"}, "lon": -77.02511333333334, "bike_id": "4ea5ce1bba65b44ce1edd338d89f18fa", "type": "electric_scooter", "name": "4ea5ce1bba65b44ce1edd338d89f18fa"}, {"is_disabled": 0, "is_reserved": 0, "fusion_lat": 0.0, "lat": 38.902618333333336, "fusion_lon": 0.0, "rental_uris": {"ios": "https://dc.lft.to/lastmile_qr_scan", "android": "https://dc.lft.to/lastmile_qr_scan"}, "lon": -76.928503, "bike_id": "97e00947c9b6cbc89ddff39fe907936d", "type": "electric_scooter", "name": "97e00947c9b6cbc89ddff39fe907936d"}, {"is_disabled": 0, "is_reserved": 0, "fusion_lat": 0.0, "lat": 38.92866316666667, "fusion_lon": 0.0, "rental_uris": {"ios": "https://dc.lft.to/lastmile_qr_scan", "android": "https://dc.lft.to/lastmile_qr_scan"}, "lon": -77.07889433333334, "bike_id": "e7b3bf6b3df2cab7cb92086ea5b96b89", "type": "electric_scooter", "name": "e7b3bf6b3df2cab7cb92086ea5b96b89"}, {"is_disabled": 0, "is_reserved": 0, "fusion_lat": 0.0, "lat": 38.863541833333336, "fusion_lon": 0.0, "rental_uris": {"ios": "https://dc.lft.to/lastmile_qr_scan", "android": "https://dc.lft.to/lastmile_qr_scan"}, "lon": -76.9700355, "bike_id": "824ba2d5aae228348c7e352c2bab4391", "type": "electric_bike", "name": "824ba2d5aae228348c7e352c2bab4391"}, {"is_disabled": 0, "is_reserved": 0, "fusion_lat": 0.0, "lat": 38.912660833333334, "fusion_lon": 0.0, "rental_uris": {"ios": "https://dc.lft.to/lastmile_qr_scan", "android": "https://dc.lft.to/lastmile_qr_scan"}, "lon": -77.00507883333333, "bike_id": "f0a0475df3e2bddc61acfbec456828a0", "type": "electric_scooter", "name": "f0a0475df3e2bddc61acfbec456828a0"}, {"is_disabled": 0, "is_reserved": 0, "fusion_lat": 0.0, "lat": 38.88297566666667, "fusion_lon": 0.0, "rental_uris": {"ios": "https://dc.lft.to/lastmile_qr_scan", "android": "https://dc.lft.to/lastmile_qr_scan"}, "lon": -77.02559283333333, "bike_id": "388ff233f5e2e46cf12393d46b02a1c8", "type": "electric_scooter", "name": "388ff233f5e2e46cf12393d46b02a1c8"}, {"is_disabled": 0, "is_reserved": 0, "fusion_lat": 0.0, "lat": 39.01064483333333, "fusion_lon": 0.0, "rental_uris": {"ios": "https://dc.lft.to/lastmile_qr_scan", "android": "https://dc.lft.to/lastmile_qr_scan"}, "lon": -76.92242466666667, "bike_id": "a74723b7e9d201e43446f11c6f278d33", "type": "electric_bike", "name": "a74723b7e9d201e43446f11c6f278d33"}, {"is_disabled": 0, "is_reserved": 0, "fusion_lat": 0.0, "lat": 38.92316616666667, "fusion_lon": 0.0, "rental_uris": {"ios": "https://dc.lft.to/lastmile_qr_scan", "android": "https://dc.lft.to/lastmile_qr_scan"}, "lon": -77.03911766666667, "bike_id": "f9afaeec1f05f851357601dcc4ba65b2", "type": "electric_scooter", "name": "f9afaeec1f05f851357601dcc4ba65b2"}, {"is_disabled": 0, "is_reserved": 0, "fusion_lat": 0.0, "lat": 38.91781116666667, "fusion_lon": 0.0, "rental_uris": {"ios": "https://dc.lft.to/lastmile_qr_scan", "android": "https://dc.lft.to/lastmile_qr_scan"}, "lon": -77.03205333333334, "bike_id": "91f18a8a5114a9b8fa1351affb9a27dc", "type": "electric_scooter", "name": "91f18a8a5114a9b8fa1351affb9a27dc"}, {"is_disabled": 0, "is_reserved": 0, "fusion_lat": 0.0, "lat": 38.882721, "fusion_lon": 0.0, "rental_uris": {"ios": "https://dc.lft.to/lastmile_qr_scan", "android": "https://dc.lft.to/lastmile_qr_scan"}, "lon": -77.00649216666666, "bike_id": "10779a119c3bfb4ed88aa3188aa397c3", "type": "electric_scooter", "name": "10779a119c3bfb4ed88aa3188aa397c3"}, {"is_disabled": 0, "is_reserved": 0, "fusion_lat": 0.0, "lat": 38.981428, "fusion_lon": 0.0, "rental_uris": {"ios": "https://dc.lft.to/lastmile_qr_scan", "android": "https://dc.lft.to/lastmile_qr_scan"}, "lon": -77.00773116666667, "bike_id": "52e5347411205c24ef1b76b9206e7e72", "type": "electric_bike", "name": "52e5347411205c24ef1b76b9206e7e72"}, {"is_disabled": 0, "is_reserved": 0, "fusion_lat": 0.0, "lat": 38.9014965, "fusion_lon": 0.0, "rental_uris": {"ios": "https://dc.lft.to/lastmile_qr_scan", "android": "https://dc.lft.to/lastmile_qr_scan"}, "lon": -76.98563016666667, "bike_id": "2e95ad8879b45da30a404329f3f33913", "type": "electric_scooter", "name": "2e95ad8879b45da30a404329f3f33913"}, {"is_disabled": 0, "is_reserved": 0, "fusion_lat": 0.0, "lat": 38.878431666666664, "fusion_lon": 0.0, "rental_uris": {"ios": "https://dc.lft.to/lastmile_qr_scan", "android": "https://dc.lft.to/lastmile_qr_scan"}, "lon": -76.93127383333334, "bike_id": "a3ead4ca05cfdd681643914115ea5ed1", "type": "electric_scooter", "name": "a3ead4ca05cfdd681643914115ea5ed1"}, {"is_disabled": 0, "is_reserved": 0, "fusion_lat": 0.0, "lat": 38.8446805, "fusion_lon": 0.0, "rental_uris": {"ios": "https://dc.lft.to/lastmile_qr_scan", "android": "https://dc.lft.to/lastmile_qr_scan"}, "lon": -76.9959735, "bike_id": "daff49b93101caf444133413357231dc", "type": "electric_bike", "name": "daff49b93101caf444133413357231dc"}, {"is_disabled": 0, "is_reserved": 0, "fusion_lat": 0.0, "lat": 38.87696433333333, "fusion_lon": 0.0, "rental_uris": {"ios": "https://dc.lft.to/lastmile_qr_scan", "android": "https://dc.lft.to/lastmile_qr_scan"}, "lon": -76.99624516666667, "bike_id": "c6cf36e4f4c016b8bd19035f12c49361", "type": "electric_scooter", "name": "c6cf36e4f4c016b8bd19035f12c49361"}, {"is_disabled": 0, "is_reserved": 0, "fusion_lat": 0.0, "lat": 38.922398333333334, "fusion_lon": 0.0, "rental_uris": {"ios": "https://dc.lft.to/lastmile_qr_scan", "android": "https://dc.lft.to/lastmile_qr_scan"}, "lon": -77.03662483333333, "bike_id": "8c3334d3074facbeea43c540b9846387", "type": "electric_scooter", "name": "8c3334d3074facbeea43c540b9846387"}, {"is_disabled": 0, "is_reserved": 0, "fusion_lat": 0.0, "lat": 38.93860433333333, "fusion_lon": 0.0, "rental_uris": {"ios": "https://dc.lft.to/lastmile_qr_scan", "android": "https://dc.lft.to/lastmile_qr_scan"}, "lon": -77.030447, "bike_id": "03cfa4469a40c08d09fb810595a5235d", "type": "electric_scooter", "name": "03cfa4469a40c08d09fb810595a5235d"}, {"is_disabled": 0, "is_reserved": 0, "fusion_lat": 0.0, "lat": 38.947215166666666, "fusion_lon": 0.0, "rental_uris": {"ios": "https://dc.lft.to/lastmile_qr_scan", "android": "https://dc.lft.to/lastmile_qr_scan"}, "lon": -77.02616716666667, "bike_id": "8fbdc1ed8e592f849f70988bc6359921", "type": "electric_scooter", "name": "8fbdc1ed8e592f849f70988bc6359921"}, {"is_disabled": 0, "is_reserved": 0, "fusion_lat": 0.0, "lat": 38.87442766666667, "fusion_lon": 0.0, "rental_uris": {"ios": "https://dc.lft.to/lastmile_qr_scan", "android": "https://dc.lft.to/lastmile_qr_scan"}, "lon": -77.00281733333334, "bike_id": "ce009f346566005cb17de0fd880b5db5", "type": "electric_scooter", "name": "ce009f346566005cb17de0fd880b5db5"}, {"is_disabled": 0, "is_reserved": 0, "fusion_lat": 0.0, "lat": 38.92595583333333, "fusion_lon": 0.0, "rental_uris": {"ios": "https://dc.lft.to/lastmile_qr_scan", "android": "https://dc.lft.to/lastmile_qr_scan"}, "lon": -77.024912, "bike_id": "fc09a80f208b1048597b8eb1eba5aeb2", "type": "electric_scooter", "name": "fc09a80f208b1048597b8eb1eba5aeb2"}, {"is_disabled": 0, "is_reserved": 0, "fusion_lat": 0.0, "lat": 38.935312833333334, "fusion_lon": 0.0, "rental_uris": {"ios": "https://dc.lft.to/lastmile_qr_scan", "android": "https://dc.lft.to/lastmile_qr_scan"}, "lon": -77.02970766666667, "bike_id": "eb3d5dd62288807c4079c55125e8e993", "type": "electric_scooter", "name": "eb3d5dd62288807c4079c55125e8e993"}, {"is_disabled": 0, "is_reserved": 0, "fusion_lat": 0.0, "lat": 38.930595, "fusion_lon": 0.0, "rental_uris": {"ios": "https://dc.lft.to/lastmile_qr_scan", "android": "https://dc.lft.to/lastmile_qr_scan"}, "lon": -76.97329283333333, "bike_id": "861b931aa90ae195663dbd8b002a9708", "type": "electric_scooter", "name": "861b931aa90ae195663dbd8b002a9708"}, {"is_disabled": 0, "is_reserved": 0, "fusion_lat": 0.0, "lat": 38.89085216666667, "fusion_lon": 0.0, "rental_uris": {"ios": "https://dc.lft.to/lastmile_qr_scan", "android": "https://dc.lft.to/lastmile_qr_scan"}, "lon": -76.9547015, "bike_id": "a33876ab53e5042d0ee25d07e1510b2c", "type": "electric_bike", "name": "a33876ab53e5042d0ee25d07e1510b2c"}, {"is_disabled": 0, "is_reserved": 0, "fusion_lat": 0.0, "lat": 38.9563625, "fusion_lon": 0.0, "rental_uris": {"ios": "https://dc.lft.to/lastmile_qr_scan", "android": "https://dc.lft.to/lastmile_qr_scan"}, "lon": -77.036293, "bike_id": "4ac586571541cdf10338d8a938e5d7db", "type": "electric_scooter", "name": "4ac586571541cdf10338d8a938e5d7db"}, {"is_disabled": 0, "is_reserved": 0, "fusion_lat": 0.0, "lat": 38.93345133333333, "fusion_lon": 0.0, "rental_uris": {"ios": "https://dc.lft.to/lastmile_qr_scan", "android": "https://dc.lft.to/lastmile_qr_scan"}, "lon": -77.01936516666666, "bike_id": "d293e0b2c7c1117d6510e51a532ff25b", "type": "electric_scooter", "name": "d293e0b2c7c1117d6510e51a532ff25b"}, {"is_disabled": 0, "is_reserved": 0, "fusion_lat": 0.0, "lat": 38.917392, "fusion_lon": 0.0, "rental_uris": {"ios": "https://dc.lft.to/lastmile_qr_scan", "android": "https://dc.lft.to/lastmile_qr_scan"}, "lon": -77.02608583333334, "bike_id": "a4fd4064fc46fc5a6992c80aac603a26", "type": "electric_scooter", "name": "a4fd4064fc46fc5a6992c80aac603a26"}, {"is_disabled": 0, "is_reserved": 0, "fusion_lat": 0.0, "lat": 38.92747333333333, "fusion_lon": 0.0, "rental_uris": {"ios": "https://dc.lft.to/lastmile_qr_scan", "android": "https://dc.lft.to/lastmile_qr_scan"}, "lon": -77.022758, "bike_id": "fa691f51ba67809fb6559b46ff9bd32e", "type": "electric_scooter", "name": "fa691f51ba67809fb6559b46ff9bd32e"}, {"is_disabled": 0, "is_reserved": 0, "fusion_lat": 0.0, "lat": 38.90610916666667, "fusion_lon": 0.0, "rental_uris": {"ios": "https://dc.lft.to/lastmile_qr_scan", "android": "https://dc.lft.to/lastmile_qr_scan"}, "lon": -77.02112083333333, "bike_id": "e329dc221ac80fb8d7a8f5a22bbc2c71", "type": "electric_scooter", "name": "e329dc221ac80fb8d7a8f5a22bbc2c71"}, {"is_disabled": 0, "is_reserved": 0, "fusion_lat": 0.0, "lat": 38.88476433333334, "fusion_lon": 0.0, "rental_uris": {"ios": "https://dc.lft.to/lastmile_qr_scan", "android": "https://dc.lft.to/lastmile_qr_scan"}, "lon": -77.023676, "bike_id": "9f6a775ceea88f518c4992ac175dd9fe", "type": "electric_scooter", "name": "9f6a775ceea88f518c4992ac175dd9fe"}, {"is_disabled": 0, "is_reserved": 0, "fusion_lat": 0.0, "lat": 38.94852, "fusion_lon": 0.0, "rental_uris": {"ios": "https://dc.lft.to/lastmile_qr_scan", "android": "https://dc.lft.to/lastmile_qr_scan"}, "lon": -77.02113083333333, "bike_id": "20cc5061ca9a117ecc564327a163cef1", "type": "electric_scooter", "name": "20cc5061ca9a117ecc564327a163cef1"}, {"is_disabled": 0, "is_reserved": 0, "fusion_lat": 0.0, "lat": 38.92352866666667, "fusion_lon": 0.0, "rental_uris": {"ios": "https://dc.lft.to/lastmile_qr_scan", "android": "https://dc.lft.to/lastmile_qr_scan"}, "lon": -77.0331445, "bike_id": "86ed467e2638d1b770052f3c855d9c96", "type": "electric_scooter", "name": "86ed467e2638d1b770052f3c855d9c96"}, {"is_disabled": 0, "is_reserved": 0, "fusion_lat": 0.0, "lat": 38.95725933333333, "fusion_lon": 0.0, "rental_uris": {"ios": "https://dc.lft.to/lastmile_qr_scan", "android": "https://dc.lft.to/lastmile_qr_scan"}, "lon": -77.025688, "bike_id": "5d638adc3e4482b37fd1ac53945966d1", "type": "electric_scooter", "name": "5d638adc3e4482b37fd1ac53945966d1"}, {"is_disabled": 0, "is_reserved": 0, "fusion_lat": 0.0, "lat": 38.92092616666667, "fusion_lon": 0.0, "rental_uris": {"ios": "https://dc.lft.to/lastmile_qr_scan", "android": "https://dc.lft.to/lastmile_qr_scan"}, "lon": -77.01747333333333, "bike_id": "604b4f349e29d74e874b18383d96dd83", "type": "electric_scooter", "name": "604b4f349e29d74e874b18383d96dd83"}, {"is_disabled": 0, "is_reserved": 0, "fusion_lat": 0.0, "lat": 38.87104766666667, "fusion_lon": 0.0, "rental_uris": {"ios": "https://dc.lft.to/lastmile_qr_scan", "android": "https://dc.lft.to/lastmile_qr_scan"}, "lon": -77.01215716666667, "bike_id": "ece6206cf278d926d97f83b7be13bd48", "type": "electric_scooter", "name": "ece6206cf278d926d97f83b7be13bd48"}, {"is_disabled": 0, "is_reserved": 0, "fusion_lat": 0.0, "lat": 38.87939133333333, "fusion_lon": 0.0, "rental_uris": {"ios": "https://dc.lft.to/lastmile_qr_scan", "android": "https://dc.lft.to/lastmile_qr_scan"}, "lon": -77.00404233333333, "bike_id": "f4d3545d00818ce0e7dbee05a2ec94ef", "type": "electric_scooter", "name": "f4d3545d00818ce0e7dbee05a2ec94ef"}, {"is_disabled": 0, "is_reserved": 0, "fusion_lat": 0.0, "lat": 38.95100733333334, "fusion_lon": 0.0, "rental_uris": {"ios": "https://dc.lft.to/lastmile_qr_scan", "android": "https://dc.lft.to/lastmile_qr_scan"}, "lon": -77.0219575, "bike_id": "ea92cd35c8536c7fb6b6d7729a3ef831", "type": "electric_scooter", "name": "ea92cd35c8536c7fb6b6d7729a3ef831"}, {"is_disabled": 0, "is_reserved": 0, "fusion_lat": 0.0, "lat": 38.9306595, "fusion_lon": 0.0, "rental_uris": {"ios": "https://dc.lft.to/lastmile_qr_scan", "android": "https://dc.lft.to/lastmile_qr_scan"}, "lon": -77.033643, "bike_id": "4a0882715d15c1c283e92498b7f8a6b9", "type": "electric_scooter", "name": "4a0882715d15c1c283e92498b7f8a6b9"}, {"is_disabled": 0, "is_reserved": 0, "fusion_lat": 0.0, "lat": 38.91803766666666, "fusion_lon": 0.0, "rental_uris": {"ios": "https://dc.lft.to/lastmile_qr_scan", "android": "https://dc.lft.to/lastmile_qr_scan"}, "lon": -77.0344035, "bike_id": "99570877424da9f8f09235d2b4162f7d", "type": "electric_scooter", "name": "99570877424da9f8f09235d2b4162f7d"}, {"is_disabled": 0, "is_reserved": 0, "fusion_lat": 0.0, "lat": 38.957342, "fusion_lon": 0.0, "rental_uris": {"ios": "https://dc.lft.to/lastmile_qr_scan", "android": "https://dc.lft.to/lastmile_qr_scan"}, "lon": -77.02416883333333, "bike_id": "19eff931f284ca3f775833013b389fb8", "type": "electric_bike", "name": "19eff931f284ca3f775833013b389fb8"}, {"is_disabled": 0, "is_reserved": 0, "fusion_lat": 0.0, "lat": 38.92272033333333, "fusion_lon": 0.0, "rental_uris": {"ios": "https://dc.lft.to/lastmile_qr_scan", "android": "https://dc.lft.to/lastmile_qr_scan"}, "lon": -77.02975016666667, "bike_id": "a775d5ac6bba069c89c2ee9a671bc69a", "type": "electric_scooter", "name": "a775d5ac6bba069c89c2ee9a671bc69a"}, {"is_disabled": 0, "is_reserved": 0, "fusion_lat": 0.0, "lat": 38.947903, "fusion_lon": 0.0, "rental_uris": {"ios": "https://dc.lft.to/lastmile_qr_scan", "android": "https://dc.lft.to/lastmile_qr_scan"}, "lon": -77.07893683333333, "bike_id": "1e3f692e7f8fa6f14fa61c982d354dbc", "type": "electric_scooter", "name": "1e3f692e7f8fa6f14fa61c982d354dbc"}, {"is_disabled": 0, "is_reserved": 0, "fusion_lat": 0.0, "lat": 38.88482283333333, "fusion_lon": 0.0, "rental_uris": {"ios": "https://dc.lft.to/lastmile_qr_scan", "android": "https://dc.lft.to/lastmile_qr_scan"}, "lon": -77.031729, "bike_id": "c43a41ed5f16a18606101b37c7207796", "type": "electric_bike", "name": "c43a41ed5f16a18606101b37c7207796"}, {"is_disabled": 0, "is_reserved": 0, "fusion_lat": 0.0, "lat": 38.9638565, "fusion_lon": 0.0, "rental_uris": {"ios": "https://dc.lft.to/lastmile_qr_scan", "android": "https://dc.lft.to/lastmile_qr_scan"}, "lon": -77.019784, "bike_id": "7fc9121dd1787d8edc60cc0a0e46df86", "type": "electric_bike", "name": "7fc9121dd1787d8edc60cc0a0e46df86"}, {"is_disabled": 0, "is_reserved": 0, "fusion_lat": 0.0, "lat": 38.9244445, "fusion_lon": 0.0, "rental_uris": {"ios": "https://dc.lft.to/lastmile_qr_scan", "android": "https://dc.lft.to/lastmile_qr_scan"}, "lon": -77.03404483333334, "bike_id": "ee015db6b9f9efe3408c05c1e2199547", "type": "electric_scooter", "name": "ee015db6b9f9efe3408c05c1e2199547"}, {"is_disabled": 0, "is_reserved": 0, "fusion_lat": 0.0, "lat": 38.94199, "fusion_lon": 0.0, "rental_uris": {"ios": "https://dc.lft.to/lastmile_qr_scan", "android": "https://dc.lft.to/lastmile_qr_scan"}, "lon": -77.025663, "bike_id": "400bd8643aa695717ec0429a83565148", "type": "electric_scooter", "name": "400bd8643aa695717ec0429a83565148"}, {"is_disabled": 0, "is_reserved": 0, "fusion_lat": 0.0, "lat": 38.898179166666665, "fusion_lon": 0.0, "rental_uris": {"ios": "https://dc.lft.to/lastmile_qr_scan", "android": "https://dc.lft.to/lastmile_qr_scan"}, "lon": -77.00212733333333, "bike_id": "6db7c50414ccdaa438a105e06d1cdad8", "type": "electric_scooter", "name": "6db7c50414ccdaa438a105e06d1cdad8"}, {"is_disabled": 0, "is_reserved": 0, "fusion_lat": 0.0, "lat": 38.8925035, "fusion_lon": 0.0, "rental_uris": {"ios": "https://dc.lft.to/lastmile_qr_scan", "android": "https://dc.lft.to/lastmile_qr_scan"}, "lon": -77.039552, "bike_id": "3bd9f248678cc79d4ccb91872d07ae0c", "type": "electric_scooter", "name": "3bd9f248678cc79d4ccb91872d07ae0c"}, {"is_disabled": 0, "is_reserved": 0, "fusion_lat": 0.0, "lat": 38.89227283333334, "fusion_lon": 0.0, "rental_uris": {"ios": "https://dc.lft.to/lastmile_qr_scan", "android": "https://dc.lft.to/lastmile_qr_scan"}, "lon": -77.03236666666666, "bike_id": "2fefdea0a86e4a1b284fffd4317da776", "type": "electric_scooter", "name": "2fefdea0a86e4a1b284fffd4317da776"}, {"is_disabled": 0, "is_reserved": 0, "fusion_lat": 0.0, "lat": 38.8829745, "fusion_lon": 0.0, "rental_uris": {"ios": "https://dc.lft.to/lastmile_qr_scan", "android": "https://dc.lft.to/lastmile_qr_scan"}, "lon": -76.93490416666667, "bike_id": "337c7634f8c88e8fe9961f3f03652d5c", "type": "electric_scooter", "name": "337c7634f8c88e8fe9961f3f03652d5c"}, {"is_disabled": 0, "is_reserved": 0, "fusion_lat": 0.0, "lat": 38.842689, "fusion_lon": 0.0, "rental_uris": {"ios": "https://dc.lft.to/lastmile_qr_scan", "android": "https://dc.lft.to/lastmile_qr_scan"}, "lon": -76.988468, "bike_id": "e73066b5d5219d4024dfc7050a21da2e", "type": "electric_scooter", "name": "e73066b5d5219d4024dfc7050a21da2e"}, {"is_disabled": 0, "is_reserved": 0, "fusion_lat": 0.0, "lat": 38.91999, "fusion_lon": 0.0, "rental_uris": {"ios": "https://dc.lft.to/lastmile_qr_scan", "android": "https://dc.lft.to/lastmile_qr_scan"}, "lon": -77.03221716666667, "bike_id": "8cf00a2e50a5bbc655800b882eea4598", "type": "electric_scooter", "name": "8cf00a2e50a5bbc655800b882eea4598"}, {"is_disabled": 0, "is_reserved": 0, "fusion_lat": 0.0, "lat": 38.89668966666667, "fusion_lon": 0.0, "rental_uris": {"ios": "https://dc.lft.to/lastmile_qr_scan", "android": "https://dc.lft.to/lastmile_qr_scan"}, "lon": -77.04889616666667, "bike_id": "797d23aa3cf823eaefe880fb64d5433e", "type": "electric_scooter", "name": "797d23aa3cf823eaefe880fb64d5433e"}, {"is_disabled": 0, "is_reserved": 0, "fusion_lat": 0.0, "lat": 38.90686266666667, "fusion_lon": 0.0, "rental_uris": {"ios": "https://dc.lft.to/lastmile_qr_scan", "android": "https://dc.lft.to/lastmile_qr_scan"}, "lon": -77.06288666666667, "bike_id": "a57593bfec5300b087db02eb8b97c900", "type": "electric_scooter", "name": "a57593bfec5300b087db02eb8b97c900"}, {"is_disabled": 0, "is_reserved": 0, "fusion_lat": 0.0, "lat": 39.006468166666664, "fusion_lon": 0.0, "rental_uris": {"ios": "https://dc.lft.to/lastmile_qr_scan", "android": "https://dc.lft.to/lastmile_qr_scan"}, "lon": -76.900201, "bike_id": "d9dd7591d095431fbf43363178ceaae4", "type": "electric_bike", "name": "d9dd7591d095431fbf43363178ceaae4"}, {"is_disabled": 0, "is_reserved": 0, "fusion_lat": 0.0, "lat": 38.906587, "fusion_lon": 0.0, "rental_uris": {"ios": "https://dc.lft.to/lastmile_qr_scan", "android": "https://dc.lft.to/lastmile_qr_scan"}, "lon": -77.04557233333334, "bike_id": "f33d863b167b1d42107dc7155a2eb4a1", "type": "electric_scooter", "name": "f33d863b167b1d42107dc7155a2eb4a1"}, {"is_disabled": 0, "is_reserved": 0, "fusion_lat": 0.0, "lat": 38.90149266666667, "fusion_lon": 0.0, "rental_uris": {"ios": "https://dc.lft.to/lastmile_qr_scan", "android": "https://dc.lft.to/lastmile_qr_scan"}, "lon": -76.929845, "bike_id": "ac69cf61d281bb98099080d040b59671", "type": "electric_scooter", "name": "ac69cf61d281bb98099080d040b59671"}, {"is_disabled": 0, "is_reserved": 0, "fusion_lat": 0.0, "lat": 38.852425, "fusion_lon": 0.0, "rental_uris": {"ios": "https://dc.lft.to/lastmile_qr_scan", "android": "https://dc.lft.to/lastmile_qr_scan"}, "lon": -77.1141135, "bike_id": "467243dd7c630102a9713ea9a81a396f", "type": "electric_bike", "name": "467243dd7c630102a9713ea9a81a396f"}, {"is_disabled": 0, "is_reserved": 0, "fusion_lat": 0.0, "lat": 38.91413266666667, "fusion_lon": 0.0, "rental_uris": {"ios": "https://dc.lft.to/lastmile_qr_scan", "android": "https://dc.lft.to/lastmile_qr_scan"}, "lon": -77.02423583333334, "bike_id": "7fe4ca924cd0fcc2e4b87e43f395c30e", "type": "electric_scooter", "name": "7fe4ca924cd0fcc2e4b87e43f395c30e"}, {"is_disabled": 0, "is_reserved": 0, "fusion_lat": 0.0, "lat": 38.894904833333335, "fusion_lon": 0.0, "rental_uris": {"ios": "https://dc.lft.to/lastmile_qr_scan", "android": "https://dc.lft.to/lastmile_qr_scan"}, "lon": -77.02271533333334, "bike_id": "997ad937dd956a95ae3e8a512835f73f", "type": "electric_scooter", "name": "997ad937dd956a95ae3e8a512835f73f"}, {"is_disabled": 0, "is_reserved": 0, "fusion_lat": 0.0, "lat": 38.915517333333334, "fusion_lon": 0.0, "rental_uris": {"ios": "https://dc.lft.to/lastmile_qr_scan", "android": "https://dc.lft.to/lastmile_qr_scan"}, "lon": -77.038553, "bike_id": "4b2721a78813795dd63f0abb5811db25", "type": "electric_scooter", "name": "4b2721a78813795dd63f0abb5811db25"}, {"is_disabled": 0, "is_reserved": 0, "fusion_lat": 0.0, "lat": 38.910433, "fusion_lon": 0.0, "rental_uris": {"ios": "https://dc.lft.to/lastmile_qr_scan", "android": "https://dc.lft.to/lastmile_qr_scan"}, "lon": -76.99806316666667, "bike_id": "c421133d820ac19d5ccffbd5951f2dbc", "type": "electric_scooter", "name": "c421133d820ac19d5ccffbd5951f2dbc"}, {"is_disabled": 0, "is_reserved": 0, "fusion_lat": 0.0, "lat": 38.923112833333334, "fusion_lon": 0.0, "rental_uris": {"ios": "https://dc.lft.to/lastmile_qr_scan", "android": "https://dc.lft.to/lastmile_qr_scan"}, "lon": -77.02912283333333, "bike_id": "9c79a82ccf8ae5dc69965e4840269eb6", "type": "electric_scooter", "name": "9c79a82ccf8ae5dc69965e4840269eb6"}, {"is_disabled": 0, "is_reserved": 0, "fusion_lat": 0.0, "lat": 38.952183833333336, "fusion_lon": 0.0, "rental_uris": {"ios": "https://dc.lft.to/lastmile_qr_scan", "android": "https://dc.lft.to/lastmile_qr_scan"}, "lon": -77.088685, "bike_id": "8493b568a7c4b915915f40338391d833", "type": "electric_scooter", "name": "8493b568a7c4b915915f40338391d833"}, {"is_disabled": 0, "is_reserved": 0, "fusion_lat": 0.0, "lat": 38.925741, "fusion_lon": 0.0, "rental_uris": {"ios": "https://dc.lft.to/lastmile_qr_scan", "android": "https://dc.lft.to/lastmile_qr_scan"}, "lon": -77.03132333333333, "bike_id": "c101791e0bd39e0ff62b072afe17c530", "type": "electric_scooter", "name": "c101791e0bd39e0ff62b072afe17c530"}, {"is_disabled": 0, "is_reserved": 0, "fusion_lat": 0.0, "lat": 38.94330083333333, "fusion_lon": 0.0, "rental_uris": {"ios": "https://dc.lft.to/lastmile_qr_scan", "android": "https://dc.lft.to/lastmile_qr_scan"}, "lon": -77.01553016666666, "bike_id": "c72fa7f6939c8a67f6105b94acb30cee", "type": "electric_scooter", "name": "c72fa7f6939c8a67f6105b94acb30cee"}, {"is_disabled": 0, "is_reserved": 0, "fusion_lat": 0.0, "lat": 38.922375, "fusion_lon": 0.0, "rental_uris": {"ios": "https://dc.lft.to/lastmile_qr_scan", "android": "https://dc.lft.to/lastmile_qr_scan"}, "lon": -77.04012783333333, "bike_id": "86aad64c1ed940c16f6f04673d51b6a6", "type": "electric_scooter", "name": "86aad64c1ed940c16f6f04673d51b6a6"}, {"is_disabled": 0, "is_reserved": 0, "fusion_lat": 0.0, "lat": 38.9007, "fusion_lon": 0.0, "rental_uris": {"ios": "https://dc.lft.to/lastmile_qr_scan", "android": "https://dc.lft.to/lastmile_qr_scan"}, "lon": -77.0067415, "bike_id": "33399c4d2bf2ae66ce5e4231f30a6940", "type": "electric_scooter", "name": "33399c4d2bf2ae66ce5e4231f30a6940"}, {"is_disabled": 0, "is_reserved": 0, "fusion_lat": 0.0, "lat": 38.906449333333335, "fusion_lon": 0.0, "rental_uris": {"ios": "https://dc.lft.to/lastmile_qr_scan", "android": "https://dc.lft.to/lastmile_qr_scan"}, "lon": -77.04873416666666, "bike_id": "00cf54a44e966a6db0555aa0f2c8ddd0", "type": "electric_scooter", "name": "00cf54a44e966a6db0555aa0f2c8ddd0"}, {"is_disabled": 0, "is_reserved": 0, "fusion_lat": 0.0, "lat": 38.933518666666664, "fusion_lon": 0.0, "rental_uris": {"ios": "https://dc.lft.to/lastmile_qr_scan", "android": "https://dc.lft.to/lastmile_qr_scan"}, "lon": -77.03410283333334, "bike_id": "5eca48d392807e80755a10d1a485ac16", "type": "electric_scooter", "name": "5eca48d392807e80755a10d1a485ac16"}, {"is_disabled": 0, "is_reserved": 0, "fusion_lat": 0.0, "lat": 38.894292166666666, "fusion_lon": 0.0, "rental_uris": {"ios": "https://dc.lft.to/lastmile_qr_scan", "android": "https://dc.lft.to/lastmile_qr_scan"}, "lon": -77.01087433333333, "bike_id": "b261d5eeaa4a625be42bc565ebd577d7", "type": "electric_scooter", "name": "b261d5eeaa4a625be42bc565ebd577d7"}, {"is_disabled": 0, "is_reserved": 0, "fusion_lat": 0.0, "lat": 38.91053083333333, "fusion_lon": 0.0, "rental_uris": {"ios": "https://dc.lft.to/lastmile_qr_scan", "android": "https://dc.lft.to/lastmile_qr_scan"}, "lon": -77.022056, "bike_id": "a8aa64ca68dcf75a34fb469b7dad3d39", "type": "electric_scooter", "name": "a8aa64ca68dcf75a34fb469b7dad3d39"}, {"is_disabled": 0, "is_reserved": 0, "fusion_lat": 0.0, "lat": 38.900097, "fusion_lon": 0.0, "rental_uris": {"ios": "https://dc.lft.to/lastmile_qr_scan", "android": "https://dc.lft.to/lastmile_qr_scan"}, "lon": -76.97992733333334, "bike_id": "1b7b137cdfd9eea748f0f1797b3458fc", "type": "electric_scooter", "name": "1b7b137cdfd9eea748f0f1797b3458fc"}, {"is_disabled": 0, "is_reserved": 0, "fusion_lat": 0.0, "lat": 38.87919616666667, "fusion_lon": 0.0, "rental_uris": {"ios": "https://dc.lft.to/lastmile_qr_scan", "android": "https://dc.lft.to/lastmile_qr_scan"}, "lon": -77.01375283333333, "bike_id": "4d5d68d2f442196e654c9e34eb85d5f0", "type": "electric_scooter", "name": "4d5d68d2f442196e654c9e34eb85d5f0"}, {"is_disabled": 0, "is_reserved": 0, "fusion_lat": 0.0, "lat": 38.92052866666667, "fusion_lon": 0.0, "rental_uris": {"ios": "https://dc.lft.to/lastmile_qr_scan", "android": "https://dc.lft.to/lastmile_qr_scan"}, "lon": -77.023648, "bike_id": "6e333c69f2885e24168a6472bc837792", "type": "electric_scooter", "name": "6e333c69f2885e24168a6472bc837792"}, {"is_disabled": 0, "is_reserved": 0, "fusion_lat": 0.0, "lat": 38.8982185, "fusion_lon": 0.0, "rental_uris": {"ios": "https://dc.lft.to/lastmile_qr_scan", "android": "https://dc.lft.to/lastmile_qr_scan"}, "lon": -76.93002366666667, "bike_id": "0bf2d34970d702120de41760f13a45dc", "type": "electric_scooter", "name": "0bf2d34970d702120de41760f13a45dc"}, {"is_disabled": 0, "is_reserved": 0, "fusion_lat": 0.0, "lat": 38.80977133333333, "fusion_lon": 0.0, "rental_uris": {"ios": "https://dc.lft.to/lastmile_qr_scan", "android": "https://dc.lft.to/lastmile_qr_scan"}, "lon": -77.07658183333334, "bike_id": "0ac90f3aa79826461c5f9a83ab3ab8cf", "type": "electric_bike", "name": "0ac90f3aa79826461c5f9a83ab3ab8cf"}, {"is_disabled": 0, "is_reserved": 0, "fusion_lat": 0.0, "lat": 38.90982283333334, "fusion_lon": 0.0, "rental_uris": {"ios": "https://dc.lft.to/lastmile_qr_scan", "android": "https://dc.lft.to/lastmile_qr_scan"}, "lon": -77.04669833333334, "bike_id": "0020b35aa995c335a29510eb6a8ce911", "type": "electric_scooter", "name": "0020b35aa995c335a29510eb6a8ce911"}, {"is_disabled": 0, "is_reserved": 0, "fusion_lat": 0.0, "lat": 38.94974233333333, "fusion_lon": 0.0, "rental_uris": {"ios": "https://dc.lft.to/lastmile_qr_scan", "android": "https://dc.lft.to/lastmile_qr_scan"}, "lon": -77.0244685, "bike_id": "dc27e79273cf7600b945846616955ca0", "type": "electric_scooter", "name": "dc27e79273cf7600b945846616955ca0"}, {"is_disabled": 0, "is_reserved": 0, "fusion_lat": 0.0, "lat": 38.91807416666666, "fusion_lon": 0.0, "rental_uris": {"ios": "https://dc.lft.to/lastmile_qr_scan", "android": "https://dc.lft.to/lastmile_qr_scan"}, "lon": -77.03441633333334, "bike_id": "15d6cde41a2ca612195d044ac6974046", "type": "electric_scooter", "name": "15d6cde41a2ca612195d044ac6974046"}, {"is_disabled": 0, "is_reserved": 0, "fusion_lat": 0.0, "lat": 38.9421765, "fusion_lon": 0.0, "rental_uris": {"ios": "https://dc.lft.to/lastmile_qr_scan", "android": "https://dc.lft.to/lastmile_qr_scan"}, "lon": -76.96132583333333, "bike_id": "aebab1d5ec55f812427e40088c23347a", "type": "electric_bike", "name": "aebab1d5ec55f812427e40088c23347a"}, {"is_disabled": 0, "is_reserved": 0, "fusion_lat": 0.0, "lat": 38.910390166666666, "fusion_lon": 0.0, "rental_uris": {"ios": "https://dc.lft.to/lastmile_qr_scan", "android": "https://dc.lft.to/lastmile_qr_scan"},