{"data": {"bikes": [{"type": "electric_scooter", "fusion_lon": 0.0, "bike_id": "072175bfdcfa8a23464f0c462b8f6997", "is_disabled": 0, "lat": 38.90413316666667, "rental_uris": {"ios": "https://dc.lft.to/lastmile_qr_scan", "android": "https://dc.lft.to/lastmile_qr_scan"}, "is_reserved": 0, "lon": -77.06780183333333, "fusion_lat": 0.0, "name": "072175bfdcfa8a23464f0c462b8f6997"}, {"type": "electric_scooter", "fusion_lon": 0.0, "bike_id": "05c5aef62958683cd33aff7e45ca0dc3", "is_disabled": 0, "lat": 38.93729116666667, "rental_uris": {"ios": "https://dc.lft.to/lastmile_qr_scan", "android": "https://dc.lft.to/lastmile_qr_scan"}, "is_reserved": 0, "lon": -77.05948766666667, "fusion_lat": 0.0, "name": "05c5aef62958683cd33aff7e45ca0dc3"}, {"type": "electric_scooter", "fusion_lon": 0.0, "bike_id": "c91544ecc9f4088767115b3c36dd3136", "is_disabled": 0, "lat": 38.87670116666666, "rental_uris": {"ios": "https://dc.lft.to/lastmile_qr_scan", "android": "https://dc.lft.to/lastmile_qr_scan"}, "is_reserved": 0, "lon": -76.93120433333333, "fusion_lat": 0.0, "name": "c91544ecc9f4088767115b3c36dd3136"}, {"type": "electric_scooter", "fusion_lon": 0.0, "bike_id": "f1eba5e2ff0050773c617a56f3418472", "is_disabled": 0, "lat": 38.95760883333333, "rental_uris": {"ios": "https://dc.lft.to/lastmile_qr_scan", "android": "https://dc.lft.to/lastmile_qr_scan"}, "is_reserved": 0, "lon": -77.01496416666667, "fusion_lat": 0.0, "name": "f1eba5e2ff0050773c617a56f3418472"}, {"type": "electric_scooter", "fusion_lon": 0.0, "bike_id": "1e3627f00e814305174db2ae11b5e6e5", "is_disabled": 0, "lat": 38.92425033333333, "rental_uris": {"ios": "https://dc.lft.to/lastmile_qr_scan", "android": "https://dc.lft.to/lastmile_qr_scan"}, "is_reserved": 0, "lon": -77.03905083333333, "fusion_lat": 0.0, "name": "1e3627f00e814305174db2ae11b5e6e5"}, {"type": "electric_scooter", "fusion_lon": 0.0, "bike_id": "707b0f96dadb3c0862a3de0d8128a261", "is_disabled": 0, "lat": 38.92653216666667, "rental_uris": {"ios": "https://dc.lft.to/lastmile_qr_scan", "android": "https://dc.lft.to/lastmile_qr_scan"}, "is_reserved": 0, "lon": -77.02432716666667, "fusion_lat": 0.0, "name": "707b0f96dadb3c0862a3de0d8128a261"}, {"type": "electric_bike", "fusion_lon": 0.0, "bike_id": "f9ca3f9f18db013b8666c290ae52043b", "is_disabled": 0, "lat": 38.9432965, "rental_uris": {"ios": "https://dc.lft.to/lastmile_qr_scan", "android": "https://dc.lft.to/lastmile_qr_scan"}, "is_reserved": 0, "lon": -77.0605105, "fusion_lat": 0.0, "name": "f9ca3f9f18db013b8666c290ae52043b"}, {"type": "electric_scooter", "fusion_lon": 0.0, "bike_id": "a5d609446b0bb912c1e9b5139f07d8a0", "is_disabled": 0, "lat": 38.879205666666664, "rental_uris": {"ios": "https://dc.lft.to/lastmile_qr_scan", "android": "https://dc.lft.to/lastmile_qr_scan"}, "is_reserved": 0, "lon": -76.99888766666666, "fusion_lat": 0.0, "name": "a5d609446b0bb912c1e9b5139f07d8a0"}, {"type": "electric_scooter", "fusion_lon": 0.0, "bike_id": "d3a6bf4df7c3259e18651566cd774cf5", "is_disabled": 0, "lat": 38.949737666666664, "rental_uris": {"ios": "https://dc.lft.to/lastmile_qr_scan", "android": "https://dc.lft.to/lastmile_qr_scan"}, "is_reserved": 0, "lon": -77.02447333333333, "fusion_lat": 0.0, "name": "d3a6bf4df7c3259e18651566cd774cf5"}, {"type": "electric_scooter", "fusion_lon": 0.0, "bike_id": "04b81891e6ab5eaa7a6eca1efed118bd", "is_disabled": 0, "lat": 38.91949016666667, "rental_uris": {"ios": "https://dc.lft.to/lastmile_qr_scan", "android": "https://dc.lft.to/lastmile_qr_scan"}, "is_reserved": 0, "lon": -77.04163366666667, "fusion_lat": 0.0, "name": "04b81891e6ab5eaa7a6eca1efed118bd"}, {"type": "electric_scooter", "fusion_lon": 0.0, "bike_id": "c0c921a3c6099508ce514cb9653922ef", "is_disabled": 0, "lat": 38.93523366666667, "rental_uris": {"ios": "https://dc.lft.to/lastmile_qr_scan", "android": "https://dc.lft.to/lastmile_qr_scan"}, "is_reserved": 0, "lon": -77.05434166666667, "fusion_lat": 0.0, "name": "c0c921a3c6099508ce514cb9653922ef"}, {"type": "electric_scooter", "fusion_lon": 0.0, "bike_id": "3cfc23821e316c313e4e6a33dbe8beea", "is_disabled": 0, "lat": 38.90170116666667, "rental_uris": {"ios": "https://dc.lft.to/lastmile_qr_scan", "android": "https://dc.lft.to/lastmile_qr_scan"}, "is_reserved": 0, "lon": -77.02475533333333, "fusion_lat": 0.0, "name": "3cfc23821e316c313e4e6a33dbe8beea"}, {"type": "electric_scooter", "fusion_lon": 0.0, "bike_id": "8bba2cefc77ac24e3a860bcb40fea2e1", "is_disabled": 0, "lat": 38.898078166666664, "rental_uris": {"ios": "https://dc.lft.to/lastmile_qr_scan", "android": "https://dc.lft.to/lastmile_qr_scan"}, "is_reserved": 0, "lon": -77.0107275, "fusion_lat": 0.0, "name": "8bba2cefc77ac24e3a860bcb40fea2e1"}, {"type": "electric_bike", "fusion_lon": 0.0, "bike_id": "e7392c7235c2d170a9d688a2f24cbcaf", "is_disabled": 0, "lat": 38.90032433333333, "rental_uris": {"ios": "https://dc.lft.to/lastmile_qr_scan", "android": "https://dc.lft.to/lastmile_qr_scan"}, "is_reserved": 0, "lon": -76.972235, "fusion_lat": 0.0, "name": "e7392c7235c2d170a9d688a2f24cbcaf"}, {"type": "electric_scooter", "fusion_lon": 0.0, "bike_id": "84ae27d877ac82773c9d555b027179d4", "is_disabled": 0, "lat": 38.89672016666667, "rental_uris": {"ios": "https://dc.lft.to/lastmile_qr_scan", "android": "https://dc.lft.to/lastmile_qr_scan"}, "is_reserved": 0, "lon": -77.050232, "fusion_lat": 0.0, "name": "84ae27d877ac82773c9d555b027179d4"}, {"type": "electric_scooter", "fusion_lon": 0.0, "bike_id": "c0f84d15a5ea4238ec81e90f0cbba979", "is_disabled": 0, "lat": 38.90544166666667, "rental_uris": {"ios": "https://dc.lft.to/lastmile_qr_scan", "android": "https://dc.lft.to/lastmile_qr_scan"}, "is_reserved": 0, "lon": -77.04719466666667, "fusion_lat": 0.0, "name": "c0f84d15a5ea4238ec81e90f0cbba979"}, {"type": "electric_scooter", "fusion_lon": 0.0, "bike_id": "eba7aaf52e8d67e6c70b6af425895724", "is_disabled": 0, "lat": 38.929358, "rental_uris": {"ios": "https://dc.lft.to/lastmile_qr_scan", "android": "https://dc.lft.to/lastmile_qr_scan"}, "is_reserved": 0, "lon": -77.016354, "fusion_lat": 0.0, "name": "eba7aaf52e8d67e6c70b6af425895724"}, {"type": "electric_bike", "fusion_lon": 0.0, "bike_id": "0e2afd29e5fe7da22368f20720984e3c", "is_disabled": 0, "lat": 38.94471566666667, "rental_uris": {"ios": "https://dc.lft.to/lastmile_qr_scan", "android": "https://dc.lft.to/lastmile_qr_scan"}, "is_reserved": 0, "lon": -76.98689066666667, "fusion_lat": 0.0, "name": "0e2afd29e5fe7da22368f20720984e3c"}, {"type": "electric_bike", "fusion_lon": 0.0, "bike_id": "ceed9de7cf89edc12d0b6fe4a6c08bcc", "is_disabled": 0, "lat": 38.957212166666665, "rental_uris": {"ios": "https://dc.lft.to/lastmile_qr_scan", "android": "https://dc.lft.to/lastmile_qr_scan"}, "is_reserved": 0, "lon": -76.981856, "fusion_lat": 0.0, "name": "ceed9de7cf89edc12d0b6fe4a6c08bcc"}, {"type": "electric_scooter", "fusion_lon": 0.0, "bike_id": "0a3cd2ba9d5ee5ef3fdcaf35d303e436", "is_disabled": 0, "lat": 38.914958666666664, "rental_uris": {"ios": "https://dc.lft.to/lastmile_qr_scan", "android": "https://dc.lft.to/lastmile_qr_scan"}, "is_reserved": 0, "lon": -77.01220133333334, "fusion_lat": 0.0, "name": "0a3cd2ba9d5ee5ef3fdcaf35d303e436"}, {"type": "electric_scooter", "fusion_lon": 0.0, "bike_id": "a024843c49beac87e96099706bb111fb", "is_disabled": 0, "lat": 38.907058166666665, "rental_uris": {"ios": "https://dc.lft.to/lastmile_qr_scan", "android": "https://dc.lft.to/lastmile_qr_scan"}, "is_reserved": 0, "lon": -77.04961033333333, "fusion_lat": 0.0, "name": "a024843c49beac87e96099706bb111fb"}, {"type": "electric_scooter", "fusion_lon": 0.0, "bike_id": "e361b88e4c6f4e1caa5f98281eae7db3", "is_disabled": 0, "lat": 38.906152166666665, "rental_uris": {"ios": "https://dc.lft.to/lastmile_qr_scan", "android": "https://dc.lft.to/lastmile_qr_scan"}, "is_reserved": 0, "lon": -77.04350083333334, "fusion_lat": 0.0, "name": "e361b88e4c6f4e1caa5f98281eae7db3"}, {"type": "electric_scooter", "fusion_lon": 0.0, "bike_id": "24f5bef04fb977518fe0365f3fc5a29c", "is_disabled": 0, "lat": 38.9217115, "rental_uris": {"ios": "https://dc.lft.to/lastmile_qr_scan", "android": "https://dc.lft.to/lastmile_qr_scan"}, "is_reserved": 0, "lon": -77.01915466666667, "fusion_lat": 0.0, "name": "24f5bef04fb977518fe0365f3fc5a29c"}, {"type": "electric_scooter", "fusion_lon": 0.0, "bike_id": "dd8d31633014376f117b521c82b1b291", "is_disabled": 0, "lat": 38.90500466666667, "rental_uris": {"ios": "https://dc.lft.to/lastmile_qr_scan", "android": "https://dc.lft.to/lastmile_qr_scan"}, "is_reserved": 0, "lon": -76.99180033333333, "fusion_lat": 0.0, "name": "dd8d31633014376f117b521c82b1b291"}, {"type": "electric_scooter", "fusion_lon": 0.0, "bike_id": "04a0b851d640843b0559a5349d1258a9", "is_disabled": 0, "lat": 38.927925333333334, "rental_uris": {"ios": "https://dc.lft.to/lastmile_qr_scan", "android": "https://dc.lft.to/lastmile_qr_scan"}, "is_reserved": 0, "lon": -77.05414466666667, "fusion_lat": 0.0, "name": "04a0b851d640843b0559a5349d1258a9"}, {"type": "electric_scooter", "fusion_lon": 0.0, "bike_id": "0d7e10a36b59b552e2c170e8a6940092", "is_disabled": 0, "lat": 38.92337466666667, "rental_uris": {"ios": "https://dc.lft.to/lastmile_qr_scan", "android": "https://dc.lft.to/lastmile_qr_scan"}, "is_reserved": 0, "lon": -77.0361225, "fusion_lat": 0.0, "name": "0d7e10a36b59b552e2c170e8a6940092"}, {"type": "electric_scooter", "fusion_lon": 0.0, "bike_id": "60b5f161d276cff92e499a6906b2c12d", "is_disabled": 0, "lat": 38.8756845, "rental_uris": {"ios": "https://dc.lft.to/lastmile_qr_scan", "android": "https://dc.lft.to/lastmile_qr_scan"}, "is_reserved": 0, "lon": -77.00593066666667, "fusion_lat": 0.0, "name": "60b5f161d276cff92e499a6906b2c12d"}, {"type": "electric_scooter", "fusion_lon": 0.0, "bike_id": "70147ce44b0a58b770fe9646d0c09fba", "is_disabled": 0, "lat": 38.9055415, "rental_uris": {"ios": "https://dc.lft.to/lastmile_qr_scan", "android": "https://dc.lft.to/lastmile_qr_scan"}, "is_reserved": 0, "lon": -77.0345725, "fusion_lat": 0.0, "name": "70147ce44b0a58b770fe9646d0c09fba"}, {"type": "electric_scooter", "fusion_lon": 0.0, "bike_id": "3d805bac2fa367c389686febb26cd37d", "is_disabled": 0, "lat": 38.892295833333336, "rental_uris": {"ios": "https://dc.lft.to/lastmile_qr_scan", "android": "https://dc.lft.to/lastmile_qr_scan"}, "is_reserved": 0, "lon": -77.03207883333333, "fusion_lat": 0.0, "name": "3d805bac2fa367c389686febb26cd37d"}, {"type": "electric_scooter", "fusion_lon": 0.0, "bike_id": "b5eeeead07c6e8c770bf6a318a004f2e", "is_disabled": 0, "lat": 38.92051816666667, "rental_uris": {"ios": "https://dc.lft.to/lastmile_qr_scan", "android": "https://dc.lft.to/lastmile_qr_scan"}, "is_reserved": 0, "lon": -77.0343625, "fusion_lat": 0.0, "name": "b5eeeead07c6e8c770bf6a318a004f2e"}, {"type": "electric_scooter", "fusion_lon": 0.0, "bike_id": "e1d2a524e2b119a8947c67ccb771a7a9", "is_disabled": 0, "lat": 38.86366066666667, "rental_uris": {"ios": "https://dc.lft.to/lastmile_qr_scan", "android": "https://dc.lft.to/lastmile_qr_scan"}, "is_reserved": 0, "lon": -76.99049683333334, "fusion_lat": 0.0, "name": "e1d2a524e2b119a8947c67ccb771a7a9"}, {"type": "electric_scooter", "fusion_lon": 0.0, "bike_id": "7c5fe50ad8398cf533f9b18c80c1262f", "is_disabled": 0, "lat": 38.93330566666667, "rental_uris": {"ios": "https://dc.lft.to/lastmile_qr_scan", "android": "https://dc.lft.to/lastmile_qr_scan"}, "is_reserved": 0, "lon": -77.0381095, "fusion_lat": 0.0, "name": "7c5fe50ad8398cf533f9b18c80c1262f"}, {"type": "electric_scooter", "fusion_lon": 0.0, "bike_id": "675ab9ecfe8749fb2d715d7d00a92729", "is_disabled": 0, "lat": 38.8922605, "rental_uris": {"ios": "https://dc.lft.to/lastmile_qr_scan", "android": "https://dc.lft.to/lastmile_qr_scan"}, "is_reserved": 0, "lon": -77.04656916666667, "fusion_lat": 0.0, "name": "675ab9ecfe8749fb2d715d7d00a92729"}, {"type": "electric_scooter", "fusion_lon": 0.0, "bike_id": "b4d02a1f488512981e5686ffc5d1e322", "is_disabled": 0, "lat": 38.903689, "rental_uris": {"ios": "https://dc.lft.to/lastmile_qr_scan", "android": "https://dc.lft.to/lastmile_qr_scan"}, "is_reserved": 0, "lon": -77.01994116666667, "fusion_lat": 0.0, "name": "b4d02a1f488512981e5686ffc5d1e322"}, {"type": "electric_bike", "fusion_lon": 0.0, "bike_id": "32659548e845116308b17918af853f86", "is_disabled": 0, "lat": 38.897713833333334, "rental_uris": {"ios": "https://dc.lft.to/lastmile_qr_scan", "android": "https://dc.lft.to/lastmile_qr_scan"}, "is_reserved": 0, "lon": -76.990226, "fusion_lat": 0.0, "name": "32659548e845116308b17918af853f86"}, {"type": "electric_scooter", "fusion_lon": 0.0, "bike_id": "669e1693522910177161e0b4fb2a886f", "is_disabled": 0, "lat": 38.94899566666667, "rental_uris": {"ios": "https://dc.lft.to/lastmile_qr_scan", "android": "https://dc.lft.to/lastmile_qr_scan"}, "is_reserved": 0, "lon": -77.02389716666667, "fusion_lat": 0.0, "name": "669e1693522910177161e0b4fb2a886f"}, {"type": "electric_bike", "fusion_lon": 0.0, "bike_id": "5039ec1bb2b6387dd8a14938eab30827", "is_disabled": 0, "lat": 38.96469316666666, "rental_uris": {"ios": "https://dc.lft.to/lastmile_qr_scan", "android": "https://dc.lft.to/lastmile_qr_scan"}, "is_reserved": 0, "lon": -77.03560733333333, "fusion_lat": 0.0, "name": "5039ec1bb2b6387dd8a14938eab30827"}, {"type": "electric_scooter", "fusion_lon": 0.0, "bike_id": "366603ea048e3731365cc4a938720c75", "is_disabled": 0, "lat": 38.9234515, "rental_uris": {"ios": "https://dc.lft.to/lastmile_qr_scan", "android": "https://dc.lft.to/lastmile_qr_scan"}, "is_reserved": 0, "lon": -77.0364275, "fusion_lat": 0.0, "name": "366603ea048e3731365cc4a938720c75"}, {"type": "electric_scooter", "fusion_lon": 0.0, "bike_id": "958ce33ec62f64e09925d3178ab13913", "is_disabled": 0, "lat": 38.904992, "rental_uris": {"ios": "https://dc.lft.to/lastmile_qr_scan", "android": "https://dc.lft.to/lastmile_qr_scan"}, "is_reserved": 0, "lon": -77.02575816666666, "fusion_lat": 0.0, "name": "958ce33ec62f64e09925d3178ab13913"}, {"type": "electric_scooter", "fusion_lon": 0.0, "bike_id": "aa9fe2383b6520fb3a7fe5913ecf6580", "is_disabled": 0, "lat": 38.927918, "rental_uris": {"ios": "https://dc.lft.to/lastmile_qr_scan", "android": "https://dc.lft.to/lastmile_qr_scan"}, "is_reserved": 0, "lon": -77.02387516666667, "fusion_lat": 0.0, "name": "aa9fe2383b6520fb3a7fe5913ecf6580"}, {"type": "electric_scooter", "fusion_lon": 0.0, "bike_id": "7acb29a978b886108e629a99cb1aa945", "is_disabled": 0, "lat": 38.892183, "rental_uris": {"ios": "https://dc.lft.to/lastmile_qr_scan", "android": "https://dc.lft.to/lastmile_qr_scan"}, "is_reserved": 0, "lon": -77.02013783333334, "fusion_lat": 0.0, "name": "7acb29a978b886108e629a99cb1aa945"}, {"type": "electric_scooter", "fusion_lon": 0.0, "bike_id": "b49d69f4eee1626dce5a14b412bdcbbd", "is_disabled": 0, "lat": 38.920760333333334, "rental_uris": {"ios": "https://dc.lft.to/lastmile_qr_scan", "android": "https://dc.lft.to/lastmile_qr_scan"}, "is_reserved": 0, "lon": -77.02496, "fusion_lat": 0.0, "name": "b49d69f4eee1626dce5a14b412bdcbbd"}, {"type": "electric_scooter", "fusion_lon": 0.0, "bike_id": "a0abca28a443720603a32d4d7a191a8a", "is_disabled": 0, "lat": 38.9023105, "rental_uris": {"ios": "https://dc.lft.to/lastmile_qr_scan", "android": "https://dc.lft.to/lastmile_qr_scan"}, "is_reserved": 0, "lon": -77.04587716666667, "fusion_lat": 0.0, "name": "a0abca28a443720603a32d4d7a191a8a"}, {"type": "electric_scooter", "fusion_lon": 0.0, "bike_id": "6e8355d892d038ceefe57f063b5cbbce", "is_disabled": 0, "lat": 38.938500166666664, "rental_uris": {"ios": "https://dc.lft.to/lastmile_qr_scan", "android": "https://dc.lft.to/lastmile_qr_scan"}, "is_reserved": 0, "lon": -77.03388183333334, "fusion_lat": 0.0, "name": "6e8355d892d038ceefe57f063b5cbbce"}, {"type": "electric_bike", "fusion_lon": 0.0, "bike_id": "c9e2dd4f9e3b2338d11eae7c2d4e12c0", "is_disabled": 0, "lat": 38.8632575, "rental_uris": {"ios": "https://dc.lft.to/lastmile_qr_scan", "android": "https://dc.lft.to/lastmile_qr_scan"}, "is_reserved": 0, "lon": -76.9872285, "fusion_lat": 0.0, "name": "c9e2dd4f9e3b2338d11eae7c2d4e12c0"}, {"type": "electric_scooter", "fusion_lon": 0.0, "bike_id": "6782311c71c4a56a666d35944605c842", "is_disabled": 0, "lat": 38.915630666666665, "rental_uris": {"ios": "https://dc.lft.to/lastmile_qr_scan", "android": "https://dc.lft.to/lastmile_qr_scan"}, "is_reserved": 0, "lon": -77.0416885, "fusion_lat": 0.0, "name": "6782311c71c4a56a666d35944605c842"}, {"type": "electric_scooter", "fusion_lon": 0.0, "bike_id": "b421d4082de16ebf6804755505e38f5b", "is_disabled": 0, "lat": 38.917216333333336, "rental_uris": {"ios": "https://dc.lft.to/lastmile_qr_scan", "android": "https://dc.lft.to/lastmile_qr_scan"}, "is_reserved": 0, "lon": -77.04179016666667, "fusion_lat": 0.0, "name": "b421d4082de16ebf6804755505e38f5b"}, {"type": "electric_scooter", "fusion_lon": 0.0, "bike_id": "14dd67a744b7423963c3a7738fc53621", "is_disabled": 0, "lat": 38.88506733333333, "rental_uris": {"ios": "https://dc.lft.to/lastmile_qr_scan", "android": "https://dc.lft.to/lastmile_qr_scan"}, "is_reserved": 0, "lon": -77.02811916666667, "fusion_lat": 0.0, "name": "14dd67a744b7423963c3a7738fc53621"}, {"type": "electric_scooter", "fusion_lon": 0.0, "bike_id": "1b22376286898ba31c4d436dc8bb4a15", "is_disabled": 0, "lat": 38.907577, "rental_uris": {"ios": "https://dc.lft.to/lastmile_qr_scan", "android": "https://dc.lft.to/lastmile_qr_scan"}, "is_reserved": 0, "lon": -77.00914716666666, "fusion_lat": 0.0, "name": "1b22376286898ba31c4d436dc8bb4a15"}, {"type": "electric_scooter", "fusion_lon": 0.0, "bike_id": "ddaadb82ecf1b45cdcf7ed07c86491d3", "is_disabled": 0, "lat": 38.9238195, "rental_uris": {"ios": "https://dc.lft.to/lastmile_qr_scan", "android": "https://dc.lft.to/lastmile_qr_scan"}, "is_reserved": 0, "lon": -77.03046733333333, "fusion_lat": 0.0, "name": "ddaadb82ecf1b45cdcf7ed07c86491d3"}, {"type": "electric_scooter", "fusion_lon": 0.0, "bike_id": "95655d943dcf11fc31f26585101366d3", "is_disabled": 0, "lat": 38.904076, "rental_uris": {"ios": "https://dc.lft.to/lastmile_qr_scan", "android": "https://dc.lft.to/lastmile_qr_scan"}, "is_reserved": 0, "lon": -77.025901, "fusion_lat": 0.0, "name": "95655d943dcf11fc31f26585101366d3"}, {"type": "electric_scooter", "fusion_lon": 0.0, "bike_id": "be74b21ba2bef1d611ebc7c9877f5e60", "is_disabled": 0, "lat": 38.920677166666664, "rental_uris": {"ios": "https://dc.lft.to/lastmile_qr_scan", "android": "https://dc.lft.to/lastmile_qr_scan"}, "is_reserved": 0, "lon": -76.997421, "fusion_lat": 0.0, "name": "be74b21ba2bef1d611ebc7c9877f5e60"}, {"type": "electric_scooter", "fusion_lon": 0.0, "bike_id": "e9e9e38d3da557250948604e4dfde2bd", "is_disabled": 0, "lat": 38.89528116666666, "rental_uris": {"ios": "https://dc.lft.to/lastmile_qr_scan", "android": "https://dc.lft.to/lastmile_qr_scan"}, "is_reserved": 0, "lon": -76.9491575, "fusion_lat": 0.0, "name": "e9e9e38d3da557250948604e4dfde2bd"}, {"type": "electric_scooter", "fusion_lon": 0.0, "bike_id": "bdfa64514702435a04a4b741f7f8982e", "is_disabled": 0, "lat": 38.8649745, "rental_uris": {"ios": "https://dc.lft.to/lastmile_qr_scan", "android": "https://dc.lft.to/lastmile_qr_scan"}, "is_reserved": 0, "lon": -76.98990483333333, "fusion_lat": 0.0, "name": "bdfa64514702435a04a4b741f7f8982e"}, {"type": "electric_scooter", "fusion_lon": 0.0, "bike_id": "7cfa59b924649942926c6603bcdece1d", "is_disabled": 0, "lat": 38.899923, "rental_uris": {"ios": "https://dc.lft.to/lastmile_qr_scan", "android": "https://dc.lft.to/lastmile_qr_scan"}, "is_reserved": 0, "lon": -77.00394083333333, "fusion_lat": 0.0, "name": "7cfa59b924649942926c6603bcdece1d"}, {"type": "electric_scooter", "fusion_lon": 0.0, "bike_id": "e6d77488172d465099d0b1459a7367e6", "is_disabled": 0, "lat": 38.91797916666667, "rental_uris": {"ios": "https://dc.lft.to/lastmile_qr_scan", "android": "https://dc.lft.to/lastmile_qr_scan"}, "is_reserved": 0, "lon": -77.032078, "fusion_lat": 0.0, "name": "e6d77488172d465099d0b1459a7367e6"}, {"type": "electric_scooter", "fusion_lon": 0.0, "bike_id": "396435a8b39da02ddcf81702434350ca", "is_disabled": 0, "lat": 38.900188666666665, "rental_uris": {"ios": "https://dc.lft.to/lastmile_qr_scan", "android": "https://dc.lft.to/lastmile_qr_scan"}, "is_reserved": 0, "lon": -77.01183383333333, "fusion_lat": 0.0, "name": "396435a8b39da02ddcf81702434350ca"}, {"type": "electric_scooter", "fusion_lon": 0.0, "bike_id": "9b22d9aec493187aefb395a315da8fa9", "is_disabled": 0, "lat": 38.94806083333334, "rental_uris": {"ios": "https://dc.lft.to/lastmile_qr_scan", "android": "https://dc.lft.to/lastmile_qr_scan"}, "is_reserved": 0, "lon": -77.07907483333334, "fusion_lat": 0.0, "name": "9b22d9aec493187aefb395a315da8fa9"}, {"type": "electric_scooter", "fusion_lon": 0.0, "bike_id": "bd4cb9ff2b7b448c99fe657f564709e6", "is_disabled": 0, "lat": 38.926080166666665, "rental_uris": {"ios": "https://dc.lft.to/lastmile_qr_scan", "android": "https://dc.lft.to/lastmile_qr_scan"}, "is_reserved": 0, "lon": -77.03958083333333, "fusion_lat": 0.0, "name": "bd4cb9ff2b7b448c99fe657f564709e6"}, {"type": "electric_scooter", "fusion_lon": 0.0, "bike_id": "6f869a6d2f152a08c888d3c0bb201d20", "is_disabled": 0, "lat": 38.887125833333336, "rental_uris": {"ios": "https://dc.lft.to/lastmile_qr_scan", "android": "https://dc.lft.to/lastmile_qr_scan"}, "is_reserved": 0, "lon": -77.02204816666666, "fusion_lat": 0.0, "name": "6f869a6d2f152a08c888d3c0bb201d20"}, {"type": "electric_scooter", "fusion_lon": 0.0, "bike_id": "c1fd3161a241cfe3062af3460c8fcd20", "is_disabled": 0, "lat": 38.922484, "rental_uris": {"ios": "https://dc.lft.to/lastmile_qr_scan", "android": "https://dc.lft.to/lastmile_qr_scan"}, "is_reserved": 0, "lon": -77.01947416666667, "fusion_lat": 0.0, "name": "c1fd3161a241cfe3062af3460c8fcd20"}, {"type": "electric_scooter", "fusion_lon": 0.0, "bike_id": "f2549288abc05915509d6beae2d2b7b3", "is_disabled": 0, "lat": 38.90545066666667, "rental_uris": {"ios": "https://dc.lft.to/lastmile_qr_scan", "android": "https://dc.lft.to/lastmile_qr_scan"}, "is_reserved": 0, "lon": -76.99474483333333, "fusion_lat": 0.0, "name": "f2549288abc05915509d6beae2d2b7b3"}, {"type": "electric_scooter", "fusion_lon": 0.0, "bike_id": "773f11ea7586ae818aec1b904aff3c68", "is_disabled": 0, "lat": 38.886886833333335, "rental_uris": {"ios": "https://dc.lft.to/lastmile_qr_scan", "android": "https://dc.lft.to/lastmile_qr_scan"}, "is_reserved": 0, "lon": -76.97639033333333, "fusion_lat": 0.0, "name": "773f11ea7586ae818aec1b904aff3c68"}, {"type": "electric_scooter", "fusion_lon": 0.0, "bike_id": "72c8de11bdc72ff639b9841f3b6908b2", "is_disabled": 0, "lat": 38.91435333333333, "rental_uris": {"ios": "https://dc.lft.to/lastmile_qr_scan", "android": "https://dc.lft.to/lastmile_qr_scan"}, "is_reserved": 0, "lon": -77.0417635, "fusion_lat": 0.0, "name": "72c8de11bdc72ff639b9841f3b6908b2"}, {"type": "electric_scooter", "fusion_lon": 0.0, "bike_id": "9e91713a14c2d38c6265312c4a4d2b8e", "is_disabled": 0, "lat": 38.905144666666665, "rental_uris": {"ios": "https://dc.lft.to/lastmile_qr_scan", "android": "https://dc.lft.to/lastmile_qr_scan"}, "is_reserved": 0, "lon": -77.03441416666666, "fusion_lat": 0.0, "name": "9e91713a14c2d38c6265312c4a4d2b8e"}, {"type": "electric_scooter", "fusion_lon": 0.0, "bike_id": "17bb1ba142d53614dca7659831d7b723", "is_disabled": 0, "lat": 38.92086583333333, "rental_uris": {"ios": "https://dc.lft.to/lastmile_qr_scan", "android": "https://dc.lft.to/lastmile_qr_scan"}, "is_reserved": 0, "lon": -77.07551266666667, "fusion_lat": 0.0, "name": "17bb1ba142d53614dca7659831d7b723"}, {"type": "electric_scooter", "fusion_lon": 0.0, "bike_id": "77c1dddf0685d3b88a7fb26986884dd8", "is_disabled": 0, "lat": 38.90132833333333, "rental_uris": {"ios": "https://dc.lft.to/lastmile_qr_scan", "android": "https://dc.lft.to/lastmile_qr_scan"}, "is_reserved": 0, "lon": -77.04173466666667, "fusion_lat": 0.0, "name": "77c1dddf0685d3b88a7fb26986884dd8"}, {"type": "electric_scooter", "fusion_lon": 0.0, "bike_id": "d875ce0e709ad010c46595babc7dfd9d", "is_disabled": 0, "lat": 38.916314, "rental_uris": {"ios": "https://dc.lft.to/lastmile_qr_scan", "android": "https://dc.lft.to/lastmile_qr_scan"}, "is_reserved": 0, "lon": -77.0256315, "fusion_lat": 0.0, "name": "d875ce0e709ad010c46595babc7dfd9d"}, {"type": "electric_scooter", "fusion_lon": 0.0, "bike_id": "cac3ef3f475eb7be43d5867c8d33c207", "is_disabled": 0, "lat": 38.902472, "rental_uris": {"ios": "https://dc.lft.to/lastmile_qr_scan", "android": "https://dc.lft.to/lastmile_qr_scan"}, "is_reserved": 0, "lon": -77.03881416666667, "fusion_lat": 0.0, "name": "cac3ef3f475eb7be43d5867c8d33c207"}, {"type": "electric_scooter", "fusion_lon": 0.0, "bike_id": "c88b11ea59b2129ffa5a3b443c94fe2c", "is_disabled": 0, "lat": 38.90219333333334, "rental_uris": {"ios": "https://dc.lft.to/lastmile_qr_scan", "android": "https://dc.lft.to/lastmile_qr_scan"}, "is_reserved": 0, "lon": -76.94195566666667, "fusion_lat": 0.0, "name": "c88b11ea59b2129ffa5a3b443c94fe2c"}, {"type": "electric_scooter", "fusion_lon": 0.0, "bike_id": "bf55fd292bf49a1e4d428105ee572fe5", "is_disabled": 0, "lat": 38.876039, "rental_uris": {"ios": "https://dc.lft.to/lastmile_qr_scan", "android": "https://dc.lft.to/lastmile_qr_scan"}, "is_reserved": 0, "lon": -77.000707, "fusion_lat": 0.0, "name": "bf55fd292bf49a1e4d428105ee572fe5"}, {"type": "electric_scooter", "fusion_lon": 0.0, "bike_id": "e9d7258f231ca68d4cc4ea168d56ddcf", "is_disabled": 0, "lat": 38.90185833333334, "rental_uris": {"ios": "https://dc.lft.to/lastmile_qr_scan", "android": "https://dc.lft.to/lastmile_qr_scan"}, "is_reserved": 0, "lon": -77.0251025, "fusion_lat": 0.0, "name": "e9d7258f231ca68d4cc4ea168d56ddcf"}, {"type": "electric_scooter", "fusion_lon": 0.0, "bike_id": "8bf88c24568afd19ead55a1c36a67254", "is_disabled": 0, "lat": 38.9079285, "rental_uris": {"ios": "https://dc.lft.to/lastmile_qr_scan", "android": "https://dc.lft.to/lastmile_qr_scan"}, "is_reserved": 0, "lon": -77.03827016666666, "fusion_lat": 0.0, "name": "8bf88c24568afd19ead55a1c36a67254"}, {"type": "electric_bike", "fusion_lon": 0.0, "bike_id": "9da539e533efd712054cd28d79b56b6c", "is_disabled": 0, "lat": 38.856155333333334, "rental_uris": {"ios": "https://dc.lft.to/lastmile_qr_scan", "android": "https://dc.lft.to/lastmile_qr_scan"}, "is_reserved": 0, "lon": -76.96153916666667, "fusion_lat": 0.0, "name": "9da539e533efd712054cd28d79b56b6c"}, {"type": "electric_scooter", "fusion_lon": 0.0, "bike_id": "66ba0ce7a6c781ffcf19d45df5accce2", "is_disabled": 0, "lat": 38.87864066666667, "rental_uris": {"ios": "https://dc.lft.to/lastmile_qr_scan", "android": "https://dc.lft.to/lastmile_qr_scan"}, "is_reserved": 0, "lon": -77.00615633333334, "fusion_lat": 0.0, "name": "66ba0ce7a6c781ffcf19d45df5accce2"}, {"type": "electric_scooter", "fusion_lon": 0.0, "bike_id": "d557919474c2bf171cfe75896732c0d5", "is_disabled": 0, "lat": 38.91566, "rental_uris": {"ios": "https://dc.lft.to/lastmile_qr_scan", "android": "https://dc.lft.to/lastmile_qr_scan"}, "is_reserved": 0, "lon": -77.041676, "fusion_lat": 0.0, "name": "d557919474c2bf171cfe75896732c0d5"}, {"type": "electric_scooter", "fusion_lon": 0.0, "bike_id": "59bcc9bbe07910dee667c5252c1e8773", "is_disabled": 0, "lat": 38.917040666666665, "rental_uris": {"ios": "https://dc.lft.to/lastmile_qr_scan", "android": "https://dc.lft.to/lastmile_qr_scan"}, "is_reserved": 0, "lon": -77.03556866666666, "fusion_lat": 0.0, "name": "59bcc9bbe07910dee667c5252c1e8773"}, {"type": "electric_scooter", "fusion_lon": 0.0, "bike_id": "d78b88e9d0e2949a76e309db1235daa3", "is_disabled": 0, "lat": 38.90023, "rental_uris": {"ios": "https://dc.lft.to/lastmile_qr_scan", "android": "https://dc.lft.to/lastmile_qr_scan"}, "is_reserved": 0, "lon": -77.03990116666667, "fusion_lat": 0.0, "name": "d78b88e9d0e2949a76e309db1235daa3"}, {"type": "electric_scooter", "fusion_lon": 0.0, "bike_id": "dd4b4844bcf25de57669e789fbb67010", "is_disabled": 0, "lat": 38.8621545, "rental_uris": {"ios": "https://dc.lft.to/lastmile_qr_scan", "android": "https://dc.lft.to/lastmile_qr_scan"}, "is_reserved": 0, "lon": -76.9947865, "fusion_lat": 0.0, "name": "dd4b4844bcf25de57669e789fbb67010"}, {"type": "electric_scooter", "fusion_lon": 0.0, "bike_id": "13a0498ea52fe0d80b83bb7cf495d3ea", "is_disabled": 0, "lat": 38.941788333333335, "rental_uris": {"ios": "https://dc.lft.to/lastmile_qr_scan", "android": "https://dc.lft.to/lastmile_qr_scan"}, "is_reserved": 0, "lon": -76.99433966666666, "fusion_lat": 0.0, "name": "13a0498ea52fe0d80b83bb7cf495d3ea"}, {"type": "electric_scooter", "fusion_lon": 0.0, "bike_id": "fa5033bdbeb54677a8003088e886c221", "is_disabled": 0, "lat": 38.894737166666665, "rental_uris": {"ios": "https://dc.lft.to/lastmile_qr_scan", "android": "https://dc.lft.to/lastmile_qr_scan"}, "is_reserved": 0, "lon": -77.02312883333333, "fusion_lat": 0.0, "name": "fa5033bdbeb54677a8003088e886c221"}, {"type": "electric_bike", "fusion_lon": 0.0, "bike_id": "62570dcfb2374d69502f907a6c3b770d", "is_disabled": 0, "lat": 38.92169666666667, "rental_uris": {"ios": "https://dc.lft.to/lastmile_qr_scan", "android": "https://dc.lft.to/lastmile_qr_scan"}, "is_reserved": 0, "lon": -77.0381845, "fusion_lat": 0.0, "name": "62570dcfb2374d69502f907a6c3b770d"}, {"type": "electric_scooter", "fusion_lon": 0.0, "bike_id": "997942a2ad01fed47c330c0bf9b69d04", "is_disabled": 0, "lat": 38.920721666666665, "rental_uris": {"ios": "https://dc.lft.to/lastmile_qr_scan", "android": "https://dc.lft.to/lastmile_qr_scan"}, "is_reserved": 0, "lon": -77.02531316666666, "fusion_lat": 0.0, "name": "997942a2ad01fed47c330c0bf9b69d04"}, {"type": "electric_scooter", "fusion_lon": 0.0, "bike_id": "f650b47e830121db549e663769ee91b9", "is_disabled": 0, "lat": 38.92486366666667, "rental_uris": {"ios": "https://dc.lft.to/lastmile_qr_scan", "android": "https://dc.lft.to/lastmile_qr_scan"}, "is_reserved": 0, "lon": -77.0317585, "fusion_lat": 0.0, "name": "f650b47e830121db549e663769ee91b9"}, {"type": "electric_scooter", "fusion_lon": 0.0, "bike_id": "889c77eca93ea064035f46dde49d6450", "is_disabled": 0, "lat": 38.87286016666667, "rental_uris": {"ios": "https://dc.lft.to/lastmile_qr_scan", "android": "https://dc.lft.to/lastmile_qr_scan"}, "is_reserved": 0, "lon": -77.0098215, "fusion_lat": 0.0, "name": "889c77eca93ea064035f46dde49d6450"}, {"type": "electric_scooter", "fusion_lon": 0.0, "bike_id": "5134bdbae571fff92ebf183f9e906758", "is_disabled": 0, "lat": 38.926793, "rental_uris": {"ios": "https://dc.lft.to/lastmile_qr_scan", "android": "https://dc.lft.to/lastmile_qr_scan"}, "is_reserved": 0, "lon": -77.0278935, "fusion_lat": 0.0, "name": "5134bdbae571fff92ebf183f9e906758"}, {"type": "electric_scooter", "fusion_lon": 0.0, "bike_id": "98ddcda39db777325a972ea71960072c", "is_disabled": 0, "lat": 38.9056495, "rental_uris": {"ios": "https://dc.lft.to/lastmile_qr_scan", "android": "https://dc.lft.to/lastmile_qr_scan"}, "is_reserved": 0, "lon": -77.04308583333334, "fusion_lat": 0.0, "name": "98ddcda39db777325a972ea71960072c"}, {"type": "electric_scooter", "fusion_lon": 0.0, "bike_id": "5cbc777a185f95c9f44854a93d81e210", "is_disabled": 0, "lat": 38.944559, "rental_uris": {"ios": "https://dc.lft.to/lastmile_qr_scan", "android": "https://dc.lft.to/lastmile_qr_scan"}, "is_reserved": 0, "lon": -77.0280235, "fusion_lat": 0.0, "name": "5cbc777a185f95c9f44854a93d81e210"}, {"type": "electric_bike", "fusion_lon": 0.0, "bike_id": "d78a9f6861a67634aa91eacfe6c57df5", "is_disabled": 0, "lat": 38.8985075, "rental_uris": {"ios": "https://dc.lft.to/lastmile_qr_scan", "android": "https://dc.lft.to/lastmile_qr_scan"}, "is_reserved": 0, "lon": -76.93191466666667, "fusion_lat": 0.0, "name": "d78a9f6861a67634aa91eacfe6c57df5"}, {"type": "electric_bike", "fusion_lon": 0.0, "bike_id": "c46518dcd39f418b73f4ef0f992c1a7d", "is_disabled": 0, "lat": 38.9447165, "rental_uris": {"ios": "https://dc.lft.to/lastmile_qr_scan", "android": "https://dc.lft.to/lastmile_qr_scan"}, "is_reserved": 0, "lon": -76.9868435, "fusion_lat": 0.0, "name": "c46518dcd39f418b73f4ef0f992c1a7d"}, {"type": "electric_scooter", "fusion_lon": 0.0, "bike_id": "dc0edae47f4adfc7fa5f57aa0a0f1692", "is_disabled": 0, "lat": 38.86023383333333, "rental_uris": {"ios": "https://dc.lft.to/lastmile_qr_scan", "android": "https://dc.lft.to/lastmile_qr_scan"}, "is_reserved": 0, "lon": -76.97005166666666, "fusion_lat": 0.0, "name": "dc0edae47f4adfc7fa5f57aa0a0f1692"}, {"type": "electric_scooter", "fusion_lon": 0.0, "bike_id": "137a6c1859f97fe0bedd2acf8df0472c", "is_disabled": 0, "lat": 38.9167685, "rental_uris": {"ios": "https://dc.lft.to/lastmile_qr_scan", "android": "https://dc.lft.to/lastmile_qr_scan"}, "is_reserved": 0, "lon": -77.02807483333333, "fusion_lat": 0.0, "name": "137a6c1859f97fe0bedd2acf8df0472c"}, {"type": "electric_scooter", "fusion_lon": 0.0, "bike_id": "6d9207b03e1999aff94c57415675fe7f", "is_disabled": 0, "lat": 38.895869, "rental_uris": {"ios": "https://dc.lft.to/lastmile_qr_scan", "android": "https://dc.lft.to/lastmile_qr_scan"}, "is_reserved": 0, "lon": -77.02975933333333, "fusion_lat": 0.0, "name": "6d9207b03e1999aff94c57415675fe7f"}, {"type": "electric_bike", "fusion_lon": 0.0, "bike_id": "4faa1affa23b9dff8e4ce13d4d98b652", "is_disabled": 0, "lat": 38.919243333333334, "rental_uris": {"ios": "https://dc.lft.to/lastmile_qr_scan", "android": "https://dc.lft.to/lastmile_qr_scan"}, "is_reserved": 0, "lon": -77.010379, "fusion_lat": 0.0, "name": "4faa1affa23b9dff8e4ce13d4d98b652"}, {"type": "electric_scooter", "fusion_lon": 0.0, "bike_id": "92e630721f79fdbcf831be1ab958a654", "is_disabled": 0, "lat": 38.899360333333334, "rental_uris": {"ios": "https://dc.lft.to/lastmile_qr_scan", "android": "https://dc.lft.to/lastmile_qr_scan"}, "is_reserved": 0, "lon": -76.99733266666667, "fusion_lat": 0.0, "name": "92e630721f79fdbcf831be1ab958a654"}, {"type": "electric_bike", "fusion_lon": 0.0, "bike_id": "f0655a514d4de1e7414a5ca1a366a73b", "is_disabled": 0, "lat": 38.9677995, "rental_uris": {"ios": "https://dc.lft.to/lastmile_qr_scan", "android": "https://dc.lft.to/lastmile_qr_scan"}, "is_reserved": 0, "lon": -76.96264816666667, "fusion_lat": 0.0, "name": "f0655a514d4de1e7414a5ca1a366a73b"}, {"type": "electric_scooter", "fusion_lon": 0.0, "bike_id": "92c3fadfd4ac6293320d069a617aad2c", "is_disabled": 0, "lat": 38.93008316666667, "rental_uris": {"ios": "https://dc.lft.to/lastmile_qr_scan", "android": "https://dc.lft.to/lastmile_qr_scan"}, "is_reserved": 0, "lon": -77.037982, "fusion_lat": 0.0, "name": "92c3fadfd4ac6293320d069a617aad2c"}, {"type": "electric_scooter", "fusion_lon": 0.0, "bike_id": "00e3f0ebc89feacbb114147149030847", "is_disabled": 0, "lat": 38.903825499999996, "rental_uris": {"ios": "https://dc.lft.to/lastmile_qr_scan", "android": "https://dc.lft.to/lastmile_qr_scan"}, "is_reserved": 0, "lon": -77.04715716666666, "fusion_lat": 0.0, "name": "00e3f0ebc89feacbb114147149030847"}, {"type": "electric_scooter", "fusion_lon": 0.0, "bike_id": "f5d6e473e9782982126baa665513680d", "is_disabled": 0, "lat": 38.897250666666665, "rental_uris": {"ios": "https://dc.lft.to/lastmile_qr_scan", "android": "https://dc.lft.to/lastmile_qr_scan"}, "is_reserved": 0, "lon": -77.055128, "fusion_lat": 0.0, "name": "f5d6e473e9782982126baa665513680d"}, {"type": "electric_scooter", "fusion_lon": 0.0, "bike_id": "a9d2c792d3c086f13dbd105327da304d", "is_disabled": 0, "lat": 38.87826866666666, "rental_uris": {"ios": "https://dc.lft.to/lastmile_qr_scan", "android": "https://dc.lft.to/lastmile_qr_scan"}, "is_reserved": 0, "lon": -77.00034583333333, "fusion_lat": 0.0, "name": "a9d2c792d3c086f13dbd105327da304d"}, {"type": "electric_scooter", "fusion_lon": 0.0, "bike_id": "7427bed9be8261dc54f662b7a288a472", "is_disabled": 0, "lat": 38.9010855, "rental_uris": {"ios": "https://dc.lft.to/lastmile_qr_scan", "android": "https://dc.lft.to/lastmile_qr_scan"}, "is_reserved": 0, "lon": -77.04992633333333, "fusion_lat": 0.0, "name": "7427bed9be8261dc54f662b7a288a472"}, {"type": "electric_scooter", "fusion_lon": 0.0, "bike_id": "f513e22fbc707869f42f0684d4f8777f", "is_disabled": 0, "lat": 38.923775, "rental_uris": {"ios": "https://dc.lft.to/lastmile_qr_scan", "android": "https://dc.lft.to/lastmile_qr_scan"}, "is_reserved": 0, "lon": -77.03781983333333, "fusion_lat": 0.0, "name": "f513e22fbc707869f42f0684d4f8777f"}, {"type": "electric_scooter", "fusion_lon": 0.0, "bike_id": "e0d145911311735d72163e68ec479624", "is_disabled": 0, "lat": 38.94147366666667, "rental_uris": {"ios": "https://dc.lft.to/lastmile_qr_scan", "android": "https://dc.lft.to/lastmile_qr_scan"}, "is_reserved": 0, "lon": -77.001953, "fusion_lat": 0.0, "name": "e0d145911311735d72163e68ec479624"}, {"type": "electric_scooter", "fusion_lon": 0.0, "bike_id": "e0d6e714f5f3bc0f82fdad90864d420a", "is_disabled": 0, "lat": 38.920977666666666, "rental_uris": {"ios": "https://dc.lft.to/lastmile_qr_scan", "android": "https://dc.lft.to/lastmile_qr_scan"}, "is_reserved": 0, "lon": -77.04707833333333, "fusion_lat": 0.0, "name": "e0d6e714f5f3bc0f82fdad90864d420a"}, {"type": "electric_scooter", "fusion_lon": 0.0, "bike_id": "45e218d67905c4b4e5cc2997b239b041", "is_disabled": 0, "lat": 38.89934933333333, "rental_uris": {"ios": "https://dc.lft.to/lastmile_qr_scan", "android": "https://dc.lft.to/lastmile_qr_scan"}, "is_reserved": 0, "lon": -77.04142283333333, "fusion_lat": 0.0, "name": "45e218d67905c4b4e5cc2997b239b041"}, {"type": "electric_scooter", "fusion_lon": 0.0, "bike_id": "71d0793df332ca7d7cd8c0a5a142d3a4", "is_disabled": 0, "lat": 38.935300833333336, "rental_uris": {"ios": "https://dc.lft.to/lastmile_qr_scan", "android": "https://dc.lft.to/lastmile_qr_scan"}, "is_reserved": 0, "lon": -77.02859566666666, "fusion_lat": 0.0, "name": "71d0793df332ca7d7cd8c0a5a142d3a4"}, {"type": "electric_bike", "fusion_lon": 0.0, "bike_id": "1eca0c1d2a7aa16288a818ca9f8cafc6", "is_disabled": 0, "lat": 38.8757575, "rental_uris": {"ios": "https://dc.lft.to/lastmile_qr_scan", "android": "https://dc.lft.to/lastmile_qr_scan"}, "is_reserved": 0, "lon": -77.23408966666666, "fusion_lat": 0.0, "name": "1eca0c1d2a7aa16288a818ca9f8cafc6"}, {"type": "electric_scooter", "fusion_lon": 0.0, "bike_id": "26198c43fa8fb35b58a2b1155d79882f", "is_disabled": 0, "lat": 38.918107166666665, "rental_uris": {"ios": "https://dc.lft.to/lastmile_qr_scan", "android": "https://dc.lft.to/lastmile_qr_scan"}, "is_reserved": 0, "lon": -77.02886116666667, "fusion_lat": 0.0, "name": "26198c43fa8fb35b58a2b1155d79882f"}, {"type": "electric_scooter", "fusion_lon": 0.0, "bike_id": "3577623702bdffe083e0d0a686d9598b", "is_disabled": 0, "lat": 38.92155133333333, "rental_uris": {"ios": "https://dc.lft.to/lastmile_qr_scan", "android": "https://dc.lft.to/lastmile_qr_scan"}, "is_reserved": 0, "lon": -77.03837733333333, "fusion_lat": 0.0, "name": "3577623702bdffe083e0d0a686d9598b"}, {"type": "electric_scooter", "fusion_lon": 0.0, "bike_id": "9bf41eb5d320de8f1b34dd840eb51cdd", "is_disabled": 0, "lat": 38.911795166666664, "rental_uris": {"ios": "https://dc.lft.to/lastmile_qr_scan", "android": "https://dc.lft.to/lastmile_qr_scan"}, "is_reserved": 0, "lon": -77.039376, "fusion_lat": 0.0, "name": "9bf41eb5d320de8f1b34dd840eb51cdd"}, {"type": "electric_scooter", "fusion_lon": 0.0, "bike_id": "15c12223a810db6c99490225c95e0a81", "is_disabled": 0, "lat": 38.89869366666667, "rental_uris": {"ios": "https://dc.lft.to/lastmile_qr_scan", "android": "https://dc.lft.to/lastmile_qr_scan"}, "is_reserved": 0, "lon": -77.032986, "fusion_lat": 0.0, "name": "15c12223a810db6c99490225c95e0a81"}, {"type": "electric_scooter", "fusion_lon": 0.0, "bike_id": "b1a3766cfd6bf0a410ea5670b06fb975", "is_disabled": 0, "lat": 38.9542715, "rental_uris": {"ios": "https://dc.lft.to/lastmile_qr_scan", "android": "https://dc.lft.to/lastmile_qr_scan"}, "is_reserved": 0, "lon": -77.01853633333333, "fusion_lat": 0.0, "name": "b1a3766cfd6bf0a410ea5670b06fb975"}, {"type": "electric_scooter", "fusion_lon": 0.0, "bike_id": "8044c6fd3276627cb1023158377f1b8c", "is_disabled": 0, "lat": 38.914360333333335, "rental_uris": {"ios": "https://dc.lft.to/lastmile_qr_scan", "android": "https://dc.lft.to/lastmile_qr_scan"}, "is_reserved": 0, "lon": -77.0417675, "fusion_lat": 0.0, "name": "8044c6fd3276627cb1023158377f1b8c"}, {"type": "electric_scooter", "fusion_lon": 0.0, "bike_id": "22f1d3a7619980d0544ef8d5e8771e93", "is_disabled": 0, "lat": 38.90719983333334, "rental_uris": {"ios": "https://dc.lft.to/lastmile_qr_scan", "android": "https://dc.lft.to/lastmile_qr_scan"}, "is_reserved": 0, "lon": -77.05319466666667, "fusion_lat": 0.0, "name": "22f1d3a7619980d0544ef8d5e8771e93"}, {"type": "electric_scooter", "fusion_lon": 0.0, "bike_id": "f6d8237b3d281c2ad865562f875ab20e", "is_disabled": 0, "lat": 38.90801533333333, "rental_uris": {"ios": "https://dc.lft.to/lastmile_qr_scan", "android": "https://dc.lft.to/lastmile_qr_scan"}, "is_reserved": 0, "lon": -77.0306395, "fusion_lat": 0.0, "name": "f6d8237b3d281c2ad865562f875ab20e"}, {"type": "electric_scooter", "fusion_lon": 0.0, "bike_id": "76354f52106b9b4d1d45d398a730a3de", "is_disabled": 0, "lat": 38.9176455, "rental_uris": {"ios": "https://dc.lft.to/lastmile_qr_scan", "android": "https://dc.lft.to/lastmile_qr_scan"}, "is_reserved": 0, "lon": -77.0234185, "fusion_lat": 0.0, "name": "76354f52106b9b4d1d45d398a730a3de"}, {"type": "electric_scooter", "fusion_lon": 0.0, "bike_id": "fbfab606edbdd628c49456c17ff9754e", "is_disabled": 0, "lat": 38.91949616666667, "rental_uris": {"ios": "https://dc.lft.to/lastmile_qr_scan", "android": "https://dc.lft.to/lastmile_qr_scan"}, "is_reserved": 0, "lon": -77.01666, "fusion_lat": 0.0, "name": "fbfab606edbdd628c49456c17ff9754e"}, {"type": "electric_scooter", "fusion_lon": 0.0, "bike_id": "5b222f494ffb99da6d3386d64eb50d5e", "is_disabled": 0, "lat": 38.927036, "rental_uris": {"ios": "https://dc.lft.to/lastmile_qr_scan", "android": "https://dc.lft.to/lastmile_qr_scan"}, "is_reserved": 0, "lon": -77.02339966666666, "fusion_lat": 0.0, "name": "5b222f494ffb99da6d3386d64eb50d5e"}, {"type": "electric_scooter", "fusion_lon": 0.0, "bike_id": "416bddacc98f2ad3531212362c71e11b", "is_disabled": 0, "lat": 38.927083833333334, "rental_uris": {"ios": "https://dc.lft.to/lastmile_qr_scan", "android": "https://dc.lft.to/lastmile_qr_scan"}, "is_reserved": 0, "lon": -77.02080433333333, "fusion_lat": 0.0, "name": "416bddacc98f2ad3531212362c71e11b"}, {"type": "electric_scooter", "fusion_lon": 0.0, "bike_id": "862374d0794f01c19c7d408df6703798", "is_disabled": 0, "lat": 38.92363, "rental_uris": {"ios": "https://dc.lft.to/lastmile_qr_scan", "android": "https://dc.lft.to/lastmile_qr_scan"}, "is_reserved": 0, "lon": -77.04108283333333, "fusion_lat": 0.0, "name": "862374d0794f01c19c7d408df6703798"}, {"type": "electric_scooter", "fusion_lon": 0.0, "bike_id": "801adae2ca771bf237794721c1dec876", "is_disabled": 0, "lat": 38.89688366666667, "rental_uris": {"ios": "https://dc.lft.to/lastmile_qr_scan", "android": "https://dc.lft.to/lastmile_qr_scan"}, "is_reserved": 0, "lon": -77.04332233333334, "fusion_lat": 0.0, "name": "801adae2ca771bf237794721c1dec876"}, {"type": "electric_scooter", "fusion_lon": 0.0, "bike_id": "35355440454490ed91224236418cde14", "is_disabled": 0, "lat": 38.93536, "rental_uris": {"ios": "https://dc.lft.to/lastmile_qr_scan", "android": "https://dc.lft.to/lastmile_qr_scan"}, "is_reserved": 0, "lon": -77.02347316666666, "fusion_lat": 0.0, "name": "35355440454490ed91224236418cde14"}, {"type": "electric_scooter", "fusion_lon": 0.0, "bike_id": "98e9b7002b3ec8002e29571a255d8e4b", "is_disabled": 0, "lat": 38.92387016666667, "rental_uris": {"ios": "https://dc.lft.to/lastmile_qr_scan", "android": "https://dc.lft.to/lastmile_qr_scan"}, "is_reserved": 0, "lon": -77.04206183333334, "fusion_lat": 0.0, "name": "98e9b7002b3ec8002e29571a255d8e4b"}, {"type": "electric_scooter", "fusion_lon": 0.0, "bike_id": "251b66318221d9514e7ea85f9d846fab", "is_disabled": 0, "lat": 38.923326, "rental_uris": {"ios": "https://dc.lft.to/lastmile_qr_scan", "android": "https://dc.lft.to/lastmile_qr_scan"}, "is_reserved": 0, "lon": -77.03661683333333, "fusion_lat": 0.0, "name": "251b66318221d9514e7ea85f9d846fab"}, {"type": "electric_scooter", "fusion_lon": 0.0, "bike_id": "140b82ce64a3aa2bb52d7ac2e1dc46fe", "is_disabled": 0, "lat": 38.9246485, "rental_uris": {"ios": "https://dc.lft.to/lastmile_qr_scan", "android": "https://dc.lft.to/lastmile_qr_scan"}, "is_reserved": 0, "lon": -77.02219916666667, "fusion_lat": 0.0, "name": "140b82ce64a3aa2bb52d7ac2e1dc46fe"}, {"type": "electric_scooter", "fusion_lon": 0.0, "bike_id": "5cb555c12f5c8a65d16d8000001cb960", "is_disabled": 0, "lat": 38.89506133333333, "rental_uris": {"ios": "https://dc.lft.to/lastmile_qr_scan", "android": "https://dc.lft.to/lastmile_qr_scan"}, "is_reserved": 0, "lon": -77.02177733333333, "fusion_lat": 0.0, "name": "5cb555c12f5c8a65d16d8000001cb960"}, {"type": "electric_scooter", "fusion_lon": 0.0, "bike_id": "9a55886a50b24c7f5c5415653dcceb43", "is_disabled": 0, "lat": 38.915289, "rental_uris": {"ios": "https://dc.lft.to/lastmile_qr_scan", "android": "https://dc.lft.to/lastmile_qr_scan"}, "is_reserved": 0, "lon": -77.04630133333333, "fusion_lat": 0.0, "name": "9a55886a50b24c7f5c5415653dcceb43"}, {"type": "electric_bike", "fusion_lon": 0.0, "bike_id": "89e571029bc79cce6153a6f00f913b99", "is_disabled": 0, "lat": 38.842684, "rental_uris": {"ios": "https://dc.lft.to/lastmile_qr_scan", "android": "https://dc.lft.to/lastmile_qr_scan"}, "is_reserved": 0, "lon": -76.98818033333333, "fusion_lat": 0.0, "name": "89e571029bc79cce6153a6f00f913b99"}, {"type": "electric_scooter", "fusion_lon": 0.0, "bike_id": "436d80886a3d2c1f2166c99fd88a2e1c", "is_disabled": 0, "lat": 38.892168166666664, "rental_uris": {"ios": "https://dc.lft.to/lastmile_qr_scan", "android": "https://dc.lft.to/lastmile_qr_scan"}, "is_reserved": 0, "lon": -77.02369966666667, "fusion_lat": 0.0, "name": "436d80886a3d2c1f2166c99fd88a2e1c"}, {"type": "electric_scooter", "fusion_lon": 0.0, "bike_id": "bb15012089ff6984a6b5254baea93c3f", "is_disabled": 0, "lat": 38.89744016666667, "rental_uris": {"ios": "https://dc.lft.to/lastmile_qr_scan", "android": "https://dc.lft.to/lastmile_qr_scan"}, "is_reserved": 0, "lon": -77.04339033333333, "fusion_lat": 0.0, "name": "bb15012089ff6984a6b5254baea93c3f"}, {"type": "electric_scooter", "fusion_lon": 0.0, "bike_id": "0d7c6424e8b4d176f2c3ed814fd5f2ae", "is_disabled": 0, "lat": 38.92381783333333, "rental_uris": {"ios": "https://dc.lft.to/lastmile_qr_scan", "android": "https://dc.lft.to/lastmile_qr_scan"}, "is_reserved": 0, "lon": -77.0365705, "fusion_lat": 0.0, "name": "0d7c6424e8b4d176f2c3ed814fd5f2ae"}, {"type": "electric_bike", "fusion_lon": 0.0, "bike_id": "2598660420cb254371f6143a220e049b", "is_disabled": 0, "lat": 38.8427675, "rental_uris": {"ios": "https://dc.lft.to/lastmile_qr_scan", "android": "https://dc.lft.to/lastmile_qr_scan"}, "is_reserved": 0, "lon": -77.075199, "fusion_lat": 0.0, "name": "2598660420cb254371f6143a220e049b"}, {"type": "electric_scooter", "fusion_lon": 0.0, "bike_id": "8fb775fcb232108adad4a472617b7771", "is_disabled": 0, "lat": 38.902704, "rental_uris": {"ios": "https://dc.lft.to/lastmile_qr_scan", "android": "https://dc.lft.to/lastmile_qr_scan"}, "is_reserved": 0, "lon": -77.038398, "fusion_lat": 0.0, "name": "8fb775fcb232108adad4a472617b7771"}, {"type": "electric_bike", "fusion_lon": 0.0, "bike_id": "a3ee587cf470f5b6a5bfad439c19c68e", "is_disabled": 0, "lat": 38.93116033333333, "rental_uris": {"ios": "https://dc.lft.to/lastmile_qr_scan", "android": "https://dc.lft.to/lastmile_qr_scan"}, "is_reserved": 0, "lon": -77.0271075, "fusion_lat": 0.0, "name": "a3ee587cf470f5b6a5bfad439c19c68e"}, {"type": "electric_scooter", "fusion_lon": 0.0, "bike_id": "83a273447e9db9486293da0d83464ace", "is_disabled": 0, "lat": 38.883373166666665, "rental_uris": {"ios": "https://dc.lft.to/lastmile_qr_scan", "android": "https://dc.lft.to/lastmile_qr_scan"}, "is_reserved": 0, "lon": -77.00645566666667, "fusion_lat": 0.0, "name": "83a273447e9db9486293da0d83464ace"}, {"type": "electric_scooter", "fusion_lon": 0.0, "bike_id": "037c59e095bb0225f50d749ed002443d", "is_disabled": 0, "lat": 38.90123916666667, "rental_uris": {"ios": "https://dc.lft.to/lastmile_qr_scan", "android": "https://dc.lft.to/lastmile_qr_scan"}, "is_reserved": 0, "lon": -76.94565833333333, "fusion_lat": 0.0, "name": "037c59e095bb0225f50d749ed002443d"}, {"type": "electric_scooter", "fusion_lon": 0.0, "bike_id": "611bb9d602a39fe181bd7b1102b42e89", "is_disabled": 0, "lat": 38.907864333333336, "rental_uris": {"ios": "https://dc.lft.to/lastmile_qr_scan", "android": "https://dc.lft.to/lastmile_qr_scan"}, "is_reserved": 0, "lon": -77.0424675, "fusion_lat": 0.0, "name": "611bb9d602a39fe181bd7b1102b42e89"}, {"type": "electric_bike", "fusion_lon": 0.0, "bike_id": "4e3df7c5c1bec6a01e2093d865d11d78", "is_disabled": 0, "lat": 38.94257616666667, "rental_uris": {"ios": "https://dc.lft.to/lastmile_qr_scan", "android": "https://dc.lft.to/lastmile_qr_scan"}, "is_reserved": 0, "lon": -77.02840133333333, "fusion_lat": 0.0, "name": "4e3df7c5c1bec6a01e2093d865d11d78"}, {"type": "electric_scooter", "fusion_lon": 0.0, "bike_id": "f2f3ef34acb19784d6c235fa55422a1a", "is_disabled": 0, "lat": 38.87574216666667, "rental_uris": {"ios": "https://dc.lft.to/lastmile_qr_scan", "android": "https://dc.lft.to/lastmile_qr_scan"}, "is_reserved": 0, "lon": -77.005926, "fusion_lat": 0.0, "name": "f2f3ef34acb19784d6c235fa55422a1a"}, {"type": "electric_scooter", "fusion_lon": 0.0, "bike_id": "ddadc5aaf7bdc9cac6cf8f0cce1fb6d8", "is_disabled": 0, "lat": 38.93276433333333, "rental_uris": {"ios": "https://dc.lft.to/lastmile_qr_scan", "android": "https://dc.lft.to/lastmile_qr_scan"}, "is_reserved": 0, "lon": -77.03697216666667, "fusion_lat": 0.0, "name": "ddadc5aaf7bdc9cac6cf8f0cce1fb6d8"}, {"type": "electric_scooter", "fusion_lon": 0.0, "bike_id": "a387150eeae0d76ad8a94ff7493e5657", "is_disabled": 0, "lat": 38.887639666666665, "rental_uris": {"ios": "https://dc.lft.to/lastmile_qr_scan", "android": "https://dc.lft.to/lastmile_qr_scan"}, "is_reserved": 0, "lon": -77.02840583333334, "fusion_lat": 0.0, "name": "a387150eeae0d76ad8a94ff7493e5657"}, {"type": "electric_scooter", "fusion_lon": 0.0, "bike_id": "0583471ef05c892ba88e21b3bc8a9fca", "is_disabled": 0, "lat": 38.924363166666666, "rental_uris": {"ios": "https://dc.lft.to/lastmile_qr_scan", "android": "https://dc.lft.to/lastmile_qr_scan"}, "is_reserved": 0, "lon": -77.02029866666666, "fusion_lat": 0.0, "name": "0583471ef05c892ba88e21b3bc8a9fca"}, {"type": "electric_scooter", "fusion_lon": 0.0, "bike_id": "131632948334d816496976f9438219ef", "is_disabled": 0, "lat": 38.923277, "rental_uris": {"ios": "https://dc.lft.to/lastmile_qr_scan", "android": "https://dc.lft.to/lastmile_qr_scan"}, "is_reserved": 0, "lon": -77.0195745, "fusion_lat": 0.0, "name": "131632948334d816496976f9438219ef"}, {"type": "electric_scooter", "fusion_lon": 0.0, "bike_id": "5902172cad7fe31dd8abdb75aac6d0b3", "is_disabled": 0, "lat": 38.907864333333336, "rental_uris": {"ios": "https://dc.lft.to/lastmile_qr_scan", "android": "https://dc.lft.to/lastmile_qr_scan"}, "is_reserved": 0, "lon": -77.00962383333334, "fusion_lat": 0.0, "name": "5902172cad7fe31dd8abdb75aac6d0b3"}, {"type": "electric_scooter", "fusion_lon": 0.0, "bike_id": "24797295decc5dae20e716d7bcb4340a", "is_disabled": 0, "lat": 38.9012885, "rental_uris": {"ios": "https://dc.lft.to/lastmile_qr_scan", "android": "https://dc.lft.to/lastmile_qr_scan"}, "is_reserved": 0, "lon": -77.03956866666667, "fusion_lat": 0.0, "name": "24797295decc5dae20e716d7bcb4340a"}, {"type": "electric_scooter", "fusion_lon": 0.0, "bike_id": "410658b2107fd0471a76dfee3a08dee2", "is_disabled": 0, "lat": 38.93115916666667, "rental_uris": {"ios": "https://dc.lft.to/lastmile_qr_scan", "android": "https://dc.lft.to/lastmile_qr_scan"}, "is_reserved": 0, "lon": -77.05602233333333, "fusion_lat": 0.0, "name": "410658b2107fd0471a76dfee3a08dee2"}, {"type": "electric_scooter", "fusion_lon": 0.0, "bike_id": "221ef949e64001660b7cd404c36b9b2a", "is_disabled": 0, "lat": 38.887668, "rental_uris": {"ios": "https://dc.lft.to/lastmile_qr_scan", "android": "https://dc.lft.to/lastmile_qr_scan"}, "is_reserved": 0, "lon": -76.98350816666667, "fusion_lat": 0.0, "name": "221ef949e64001660b7cd404c36b9b2a"}, {"type": "electric_scooter", "fusion_lon": 0.0, "bike_id": "e71dea13ab164d91fce6ceb43b75dd1c", "is_disabled": 0, "lat": 38.896123833333334, "rental_uris": {"ios": "https://dc.lft.to/lastmile_qr_scan", "android": "https://dc.lft.to/lastmile_qr_scan"}, "is_reserved": 0, "lon": -77.0195905, "fusion_lat": 0.0, "name": "e71dea13ab164d91fce6ceb43b75dd1c"}, {"type": "electric_scooter", "fusion_lon": 0.0, "bike_id": "d0c1ee8ff408f8f0b46aaeab6d59a3f0", "is_disabled": 0, "lat": 38.89235983333333, "rental_uris": {"ios": "https://dc.lft.to/lastmile_qr_scan", "android": "https://dc.lft.to/lastmile_qr_scan"}, "is_reserved": 0, "lon": -77.03211083333333, "fusion_lat": 0.0, "name": "d0c1ee8ff408f8f0b46aaeab6d59a3f0"}, {"type": "electric_scooter", "fusion_lon": 0.0, "bike_id": "dddd58b44d26b4ec588a5c0339a70cbc", "is_disabled": 0, "lat": 38.9347175, "rental_uris": {"ios": "https://dc.lft.to/lastmile_qr_scan", "android": "https://dc.lft.to/lastmile_qr_scan"}, "is_reserved": 0, "lon": -77.072803, "fusion_lat": 0.0, "name": "dddd58b44d26b4ec588a5c0339a70cbc"}, {"type": "electric_scooter", "fusion_lon": 0.0, "bike_id": "fa2283116223f8a39f18a393e5e8ff91", "is_disabled": 0, "lat": 38.90332166666666, "rental_uris": {"ios": "https://dc.lft.to/lastmile_qr_scan", "android": "https://dc.lft.to/lastmile_qr_scan"}, "is_reserved": 0, "lon": -76.9293705, "fusion_lat": 0.0, "name": "fa2283116223f8a39f18a393e5e8ff91"}, {"type": "electric_scooter", "fusion_lon": 0.0, "bike_id": "74012a8724b518736c348509b54ef01c", "is_disabled": 0, "lat": 38.898299, "rental_uris": {"ios": "https://dc.lft.to/lastmile_qr_scan", "android": "https://dc.lft.to/lastmile_qr_scan"}, "is_reserved": 0, "lon": -76.946356, "fusion_lat": 0.0, "name": "74012a8724b518736c348509b54ef01c"}, {"type": "electric_scooter", "fusion_lon": 0.0, "bike_id": "54399a40e63b233075534fca6b398ebc", "is_disabled": 0, "lat": 38.921527, "rental_uris": {"ios": "https://dc.lft.to/lastmile_qr_scan", "android": "https://dc.lft.to/lastmile_qr_scan"}, "is_reserved": 0, "lon": -77.032888, "fusion_lat": 0.0, "name": "54399a40e63b233075534fca6b398ebc"}, {"type": "electric_scooter", "fusion_lon": 0.0, "bike_id": "2601d1f6af03288514c68004fc695880", "is_disabled": 0, "lat": 38.92698266666667, "rental_uris": {"ios": "https://dc.lft.to/lastmile_qr_scan", "android": "https://dc.lft.to/lastmile_qr_scan"}, "is_reserved": 0, "lon": -77.02389433333333, "fusion_lat": 0.0, "name": "2601d1f6af03288514c68004fc695880"}, {"type": "electric_scooter", "fusion_lon": 0.0, "bike_id": "622ccd837678bd942073607647868d53", "is_disabled": 0, "lat": 38.917543333333334, "rental_uris": {"ios": "https://dc.lft.to/lastmile_qr_scan", "android": "https://dc.lft.to/lastmile_qr_scan"}, "is_reserved": 0, "lon": -77.02275466666667, "fusion_lat": 0.0, "name": "622ccd837678bd942073607647868d53"}, {"type": "electric_scooter", "fusion_lon": 0.0, "bike_id": "edaa4a296099790144edc982cc5240fe", "is_disabled": 0, "lat": 38.92192283333333, "rental_uris": {"ios": "https://dc.lft.to/lastmile_qr_scan", "android": "https://dc.lft.to/lastmile_qr_scan"}, "is_reserved": 0, "lon": -77.04703966666666, "fusion_lat": 0.0, "name": "edaa4a296099790144edc982cc5240fe"}, {"type": "electric_scooter", "fusion_lon": 0.0, "bike_id": "5307b7529aae8b4a58db35897db81555", "is_disabled": 0, "lat": 38.9055205, "rental_uris": {"ios": "https://dc.lft.to/lastmile_qr_scan", "android": "https://dc.lft.to/lastmile_qr_scan"}, "is_reserved": 0, "lon": -77.0333265, "fusion_lat": 0.0, "name": "5307b7529aae8b4a58db35897db81555"}, {"type": "electric_scooter", "fusion_lon": 0.0, "bike_id": "3af63bf2bd7ece431c13a2bc4638ef4e", "is_disabled": 0, "lat": 38.923057666666665, "rental_uris": {"ios": "https://dc.lft.to/lastmile_qr_scan", "android": "https://dc.lft.to/lastmile_qr_scan"}, "is_reserved": 0, "lon": -77.04261466666667, "fusion_lat": 0.0, "name": "3af63bf2bd7ece431c13a2bc4638ef4e"}, {"type": "electric_scooter", "fusion_lon": 0.0, "bike_id": "225c1078e60805042e93912037033d26", "is_disabled": 0, "lat": 38.90376216666667, "rental_uris": {"ios": "https://dc.lft.to/lastmile_qr_scan", "android": "https://dc.lft.to/lastmile_qr_scan"}, "is_reserved": 0, "lon": -76.99512716666666, "fusion_lat": 0.0, "name": "225c1078e60805042e93912037033d26"}, {"type": "electric_scooter", "fusion_lon": 0.0, "bike_id": "13d890b634a58d5d170907586831aec9", "is_disabled": 0, "lat": 38.89854183333333, "rental_uris": {"ios": "https://dc.lft.to/lastmile_qr_scan", "android": "https://dc.lft.to/lastmile_qr_scan"}, "is_reserved": 0, "lon": -77.04877383333333, "fusion_lat": 0.0, "name": "13d890b634a58d5d170907586831aec9"}, {"type": "electric_scooter", "fusion_lon": 0.0, "bike_id": "470961bbfc484d4e58e427aca03f9c29", "is_disabled": 0, "lat": 38.87806966666667, "rental_uris": {"ios": "https://dc.lft.to/lastmile_qr_scan", "android": "https://dc.lft.to/lastmile_qr_scan"}, "is_reserved": 0, "lon": -77.00753966666667, "fusion_lat": 0.0, "name": "470961bbfc484d4e58e427aca03f9c29"}, {"type": "electric_bike", "fusion_lon": 0.0, "bike_id": "d12d193fc601cb6f7de7576ff8955969", "is_disabled": 0, "lat": 38.935459, "rental_uris": {"ios": "https://dc.lft.to/lastmile_qr_scan", "android": "https://dc.lft.to/lastmile_qr_scan"}, "is_reserved": 0, "lon": -77.08236866666667, "fusion_lat": 0.0, "name": "d12d193fc601cb6f7de7576ff8955969"}, {"type": "electric_scooter", "fusion_lon": 0.0, "bike_id": "bae3d50251da5fffb01fe3f5d007954b", "is_disabled": 0, "lat": 38.87543333333333, "rental_uris": {"ios": "https://dc.lft.to/lastmile_qr_scan", "android": "https://dc.lft.to/lastmile_qr_scan"}, "is_reserved": 0, "lon": -77.00535833333333, "fusion_lat": 0.0, "name": "bae3d50251da5fffb01fe3f5d007954b"}, {"type": "electric_scooter", "fusion_lon": 0.0, "bike_id": "1c4e832b752802ae05d465110fd1d8f1", "is_disabled": 0, "lat": 38.884445666666664, "rental_uris": {"ios": "https://dc.lft.to/lastmile_qr_scan", "android": "https://dc.lft.to/lastmile_qr_scan"}, "is_reserved": 0, "lon": -76.94227383333333, "fusion_lat": 0.0, "name": "1c4e832b752802ae05d465110fd1d8f1"}, {"type": "electric_scooter", "fusion_lon": 0.0, "bike_id": "5c600f3e18c93e27c231812b9762382a", "is_disabled": 0, "lat": 38.914876166666666, "rental_uris": {"ios": "https://dc.lft.to/lastmile_qr_scan", "android": "https://dc.lft.to/lastmile_qr_scan"}, "is_reserved": 0, "lon": -77.02586116666667, "fusion_lat": 0.0, "name": "5c600f3e18c93e27c231812b9762382a"}, {"type": "electric_scooter", "fusion_lon": 0.0, "bike_id": "4c210093ac6ab52f0af0f574196d53f6", "is_disabled": 0, "lat": 38.93395116666667, "rental_uris": {"ios": "https://dc.lft.to/lastmile_qr_scan", "android": "https://dc.lft.to/lastmile_qr_scan"}, "is_reserved": 0, "lon": -77.0573925, "fusion_lat": 0.0, "name": "4c210093ac6ab52f0af0f574196d53f6"}, {"type": "electric_scooter", "fusion_lon": 0.0, "bike_id": "d6c5ff58a8d7e0cb1ce2b056387b3526", "is_disabled": 0, "lat": 38.87372883333333, "rental_uris": {"ios": "https://dc.lft.to/lastmile_qr_scan", "android": "https://dc.lft.to/lastmile_qr_scan"}, "is_reserved": 0, "lon": -77.00128616666667, "fusion_lat": 0.0, "name": "d6c5ff58a8d7e0cb1ce2b056387b3526"}, {"type": "electric_scooter", "fusion_lon": 0.0, "bike_id": "7c6c3b3b241d556bb074277fbb56aaa4", "is_disabled": 0, "lat": 38.90991783333333, "rental_uris": {"ios": "https://dc.lft.to/lastmile_qr_scan", "android": "https://dc.lft.to/lastmile_qr_scan"}, "is_reserved": 0, "lon": -77.04009566666667, "fusion_lat": 0.0, "name": "7c6c3b3b241d556bb074277fbb56aaa4"}, {"type": "electric_scooter", "fusion_lon": 0.0, "bike_id": "d127ec4909c3ee5f76beccbdb8268076", "is_disabled": 0, "lat": 38.90553883333333, "rental_uris": {"ios": "https://dc.lft.to/lastmile_qr_scan", "android": "https://dc.lft.to/lastmile_qr_scan"}, "is_reserved": 0, "lon": -77.00599266666667, "fusion_lat": 0.0, "name": "d127ec4909c3ee5f76beccbdb8268076"}, {"type": "electric_scooter", "fusion_lon": 0.0, "bike_id": "75213482b82b03f0974c16fdff8dc557", "is_disabled": 0, "lat": 38.883736666666664, "rental_uris": {"ios": "https://dc.lft.to/lastmile_qr_scan", "android": "https://dc.lft.to/lastmile_qr_scan"}, "is_reserved": 0, "lon": -76.95706683333333, "fusion_lat": 0.0, "name": "75213482b82b03f0974c16fdff8dc557"}, {"type": "electric_scooter", "fusion_lon": 0.0, "bike_id": "4fcdf4b83f5eb776c078c535b60e6b26", "is_disabled": 0, "lat": 38.904073, "rental_uris": {"ios": "https://dc.lft.to/lastmile_qr_scan", "android": "https://dc.lft.to/lastmile_qr_scan"}, "is_reserved": 0, "lon": -77.02953633333334, "fusion_lat": 0.0, "name": "4fcdf4b83f5eb776c078c535b60e6b26"}, {"type": "electric_scooter", "fusion_lon": 0.0, "bike_id": "120e064f246e626e2d7aeedcaacd7c80", "is_disabled": 0, "lat": 38.91564316666667, "rental_uris": {"ios": "https://dc.lft.to/lastmile_qr_scan", "android": "https://dc.lft.to/lastmile_qr_scan"}, "is_reserved": 0, "lon": -77.020032, "fusion_lat": 0.0, "name": "120e064f246e626e2d7aeedcaacd7c80"}, {"type": "electric_scooter", "fusion_lon": 0.0, "bike_id": "a0a02ae1f9c7b5227968d7ee2de98f1b", "is_disabled": 0, "lat": 38.90872016666667, "rental_uris": {"ios": "https://dc.lft.to/lastmile_qr_scan", "android": "https://dc.lft.to/lastmile_qr_scan"}, "is_reserved": 0, "lon": -77.04340916666666, "fusion_lat": 0.0, "name": "a0a02ae1f9c7b5227968d7ee2de98f1b"}, {"type": "electric_scooter", "fusion_lon": 0.0, "bike_id": "266ad3a15646bd316767948ff12d464e", "is_disabled": 0, "lat": 38.90442616666667, "rental_uris": {"ios": "https://dc.lft.to/lastmile_qr_scan", "android": "https://dc.lft.to/lastmile_qr_scan"}, "is_reserved": 0, "lon": -76.98247816666667, "fusion_lat": 0.0, "name": "266ad3a15646bd316767948ff12d464e"}, {"type": "electric_scooter", "fusion_lon": 0.0, "bike_id": "383324d0686763c27038d9976565e87b", "is_disabled": 0, "lat": 38.8980205, "rental_uris": {"ios": "https://dc.lft.to/lastmile_qr_scan", "android": "https://dc.lft.to/lastmile_qr_scan"}, "is_reserved": 0, "lon": -76.979468, "fusion_lat": 0.0, "name": "383324d0686763c27038d9976565e87b"}, {"type": "electric_scooter", "fusion_lon": 0.0, "bike_id": "923c0e02ac0dcb73101e8b93dd921ded", "is_disabled": 0, "lat": 38.892422833333335, "rental_uris": {"ios": "https://dc.lft.to/lastmile_qr_scan", "android": "https://dc.lft.to/lastmile_qr_scan"}, "is_reserved": 0, "lon": -77.0334345, "fusion_lat": 0.0, "name": "923c0e02ac0dcb73101e8b93dd921ded"}, {"type": "electric_scooter", "fusion_lon": 0.0, "bike_id": "ed062ae66b12c2eb536f49ffd4f84184", "is_disabled": 0, "lat": 38.90467566666667, "rental_uris": {"ios": "https://dc.lft.to/lastmile_qr_scan", "android": "https://dc.lft.to/lastmile_qr_scan"}, "is_reserved": 0, "lon": -77.048622, "fusion_lat": 0.0, "name": "ed062ae66b12c2eb536f49ffd4f84184"}, {"type": "electric_scooter", "fusion_lon": 0.0, "bike_id": "648277f7e5ac776819406388419c9272", "is_disabled": 0, "lat": 38.892125, "rental_uris": {"ios": "https://dc.lft.to/lastmile_qr_scan", "android": "https://dc.lft.to/lastmile_qr_scan"}, "is_reserved": 0, "lon": -77.02625716666667, "fusion_lat": 0.0, "name": "648277f7e5ac776819406388419c9272"}, {"type": "electric_scooter", "fusion_lon": 0.0, "bike_id": "438b3162104eed306b9f23c9375cb011", "is_disabled": 0, "lat": 38.876581, "rental_uris": {"ios": "https://dc.lft.to/lastmile_qr_scan", "android": "https://dc.lft.to/lastmile_qr_scan"}, "is_reserved": 0, "lon": -77.00941483333334, "fusion_lat": 0.0, "name": "438b3162104eed306b9f23c9375cb011"}, {"type": "electric_scooter", "fusion_lon": 0.0, "bike_id": "43494fa3707d705a663c022b485e5832", "is_disabled": 0, "lat": 38.87375433333333, "rental_uris": {"ios": "https://dc.lft.to/lastmile_qr_scan", "android": "https://dc.lft.to/lastmile_qr_scan"}, "is_reserved": 0, "lon": -77.00132916666666, "fusion_lat": 0.0, "name": "43494fa3707d705a663c022b485e5832"}, {"type": "electric_scooter", "fusion_lon": 0.0, "bike_id": "3e4d4b5251b97192e676783b23ff2668", "is_disabled": 0, "lat": 38.908775166666665, "rental_uris": {"ios": "https://dc.lft.to/lastmile_qr_scan", "android": "https://dc.lft.to/lastmile_qr_scan"}, "is_reserved": 0, "lon": -77.0429115, "fusion_lat": 0.0, "name": "3e4d4b5251b97192e676783b23ff2668"}, {"type": "electric_scooter", "fusion_lon": 0.0, "bike_id": "700920ea43970c87fe783f520f5b5a03", "is_disabled": 0, "lat": 38.8993255, "rental_uris": {"ios": "https://dc.lft.to/lastmile_qr_scan", "android": "https://dc.lft.to/lastmile_qr_scan"}, "is_reserved": 0, "lon": -77.02081666666666, "fusion_lat": 0.0, "name": "700920ea43970c87fe783f520f5b5a03"}, {"type": "electric_scooter", "fusion_lon": 0.0, "bike_id": "75f484b783a7eaf84bb0d6550623f6d6", "is_disabled": 0, "lat": 38.91282866666667, "rental_uris": {"ios": "https://dc.lft.to/lastmile_qr_scan", "android": "https://dc.lft.to/lastmile_qr_scan"}, "is_reserved": 0, "lon": -77.04510366666666, "fusion_lat": 0.0, "name": "75f484b783a7eaf84bb0d6550623f6d6"}, {"type": "electric_scooter", "fusion_lon": 0.0, "bike_id": "507ad11f3e83fe8bcd527679068ddc8e", "is_disabled": 0, "lat": 38.900852666666665, "rental_uris": {"ios": "https://dc.lft.to/lastmile_qr_scan", "android": "https://dc.lft.to/lastmile_qr_scan"}, "is_reserved": 0, "lon": -77.02525, "fusion_lat": 0.0, "name": "507ad11f3e83fe8bcd527679068ddc8e"}, {"type": "electric_scooter", "fusion_lon": 0.0, "bike_id": "ee3e41e2d844432aebc723f54d484a26", "is_disabled": 0, "lat": 38.906619, "rental_uris": {"ios": "https://dc.lft.to/lastmile_qr_scan", "android": "https://dc.lft.to/lastmile_qr_scan"}, "is_reserved": 0, "lon": -77.02965266666666, "fusion_lat": 0.0, "name": "ee3e41e2d844432aebc723f54d484a26"}, {"type": "electric_scooter", "fusion_lon": 0.0, "bike_id": "54e24131fa72f7a9a7b637057d3be434", "is_disabled": 0, "lat": 38.92852166666667, "rental_uris": {"ios": "https://dc.lft.to/lastmile_qr_scan", "android": "https://dc.lft.to/lastmile_qr_scan"}, "is_reserved": 0, "lon": -77.01383866666667, "fusion_lat": 0.0, "name": "54e24131fa72f7a9a7b637057d3be434"}, {"type": "electric_scooter", "fusion_lon": 0.0, "bike_id": "544dc90f9be85af1f6a568ce6e061cd2", "is_disabled": 0, "lat": 38.911227333333336, "rental_uris": {"ios": "https://dc.lft.to/lastmile_qr_scan", "android": "https://dc.lft.to/lastmile_qr_scan"}, "is_reserved": 0, "lon": -77.02195866666666, "fusion_lat": 0.0, "name": "544dc90f9be85af1f6a568ce6e061cd2"}, {"type": "electric_scooter", "fusion_lon": 0.0, "bike_id": "60bf5f7a55b5e237d90a47b9ff65cfbc", "is_disabled": 0, "lat": 38.920304, "rental_uris": {"ios": "https://dc.lft.to/lastmile_qr_scan", "android": "https://dc.lft.to/lastmile_qr_scan"}, "is_reserved": 0, "lon": -77.01221533333333, "fusion_lat": 0.0, "name": "60bf5f7a55b5e237d90a47b9ff65cfbc"}, {"type": "electric_scooter", "fusion_lon": 0.0, "bike_id": "c53143b4cd378170106a72159211ffea", "is_disabled": 0, "lat": 38.93533766666667, "rental_uris": {"ios": "https://dc.lft.to/lastmile_qr_scan", "android": "https://dc.lft.to/lastmile_qr_scan"}, "is_reserved": 0, "lon": -77.02346816666666, "fusion_lat": 0.0, "name": "c53143b4cd378170106a72159211ffea"}, {"type": "electric_scooter", "fusion_lon": 0.0, "bike_id": "be51723373c4e282ac537657d62338c6", "is_disabled": 0, "lat": 38.8922055, "rental_uris": {"ios": "https://dc.lft.to/lastmile_qr_scan", "android": "https://dc.lft.to/lastmile_qr_scan"}, "is_reserved": 0, "lon": -77.0480695, "fusion_lat": 0.0, "name": "be51723373c4e282ac537657d62338c6"}, {"type": "electric_scooter", "fusion_lon": 0.0, "bike_id": "b56694c1236febf9b6fdec6e49f89446", "is_disabled": 0, "lat": 38.905409, "rental_uris": {"ios": "https://dc.lft.to/lastmile_qr_scan", "android": "https://dc.lft.to/lastmile_qr_scan"}, "is_reserved": 0, "lon": -77.0070435, "fusion_lat": 0.0, "name": "b56694c1236febf9b6fdec6e49f89446"}, {"type": "electric_scooter", "fusion_lon": 0.0, "bike_id": "d05a41b449e397b00d9c6240298d1261", "is_disabled": 0, "lat": 38.90503, "rental_uris": {"ios": "https://dc.lft.to/lastmile_qr_scan", "android": "https://dc.lft.to/lastmile_qr_scan"}, "is_reserved": 0, "lon": -77.04483166666667, "fusion_lat": 0.0, "name": "d05a41b449e397b00d9c6240298d1261"}, {"type": "electric_scooter", "fusion_lon": 0.0, "bike_id": "05898c0cfd633186935b262d533a74c9", "is_disabled": 0, "lat": 38.934303, "rental_uris": {"ios": "https://dc.lft.to/lastmile_qr_scan", "android": "https://dc.lft.to/lastmile_qr_scan"}, "is_reserved": 0, "lon": -77.03997766666667, "fusion_lat": 0.0, "name": "05898c0cfd633186935b262d533a74c9"}, {"type": "electric_scooter", "fusion_lon": 0.0, "bike_id": "d9e6c840afdeaf7a5c571bdba315bb5c", "is_disabled": 0, "lat": 38.8650145, "rental_uris": {"ios": "https://dc.lft.to/lastmile_qr_scan", "android": "https://dc.lft.to/lastmile_qr_scan"}, "is_reserved": 0, "lon": -76.9898355, "fusion_lat": 0.0, "name": "d9e6c840afdeaf7a5c571bdba315bb5c"}, {"type": "electric_scooter", "fusion_lon": 0.0, "bike_id": "795287e565c4d03b06757c6f00e7c5e9", "is_disabled": 0, "lat": 38.935945833333335, "rental_uris": {"ios": "https://dc.lft.to/lastmile_qr_scan", "android": "https://dc.lft.to/lastmile_qr_scan"}, "is_reserved": 0, "lon": -77.03801183333333, "fusion_lat": 0.0, "name": "795287e565c4d03b06757c6f00e7c5e9"}, {"type": "electric_scooter", "fusion_lon": 0.0, "bike_id": "5daba20f9b34c09980c36d3d5d567182", "is_disabled": 0, "lat": 38.92792933333333, "rental_uris": {"ios": "https://dc.lft.to/lastmile_qr_scan", "android": "https://dc.lft.to/lastmile_qr_scan"}, "is_reserved": 0, "lon": -77.0369315, "fusion_lat": 0.0, "name": "5daba20f9b34c09980c36d3d5d567182"}, {"type": "electric_scooter", "fusion_lon": 0.0, "bike_id": "110d28b1ef8dcf52b4a49b4e4c7f2aee", "is_disabled": 0, "lat": 38.957119666666664, "rental_uris": {"ios": "https://dc.lft.to/lastmile_qr_scan", "android": "https://dc.lft.to/lastmile_qr_scan"}, "is_reserved": 0, "lon": -77.02412583333333, "fusion_lat": 0.0, "name": "110d28b1ef8dcf52b4a49b4e4c7f2aee"}, {"type": "electric_scooter", "fusion_lon": 0.0, "bike_id": "3f6324429d6a131e3278a5c8946f2308", "is_disabled": 0, "lat": 38.89816166666667, "rental_uris": {"ios": "https://dc.lft.to/lastmile_qr_scan", "android": "https://dc.lft.to/lastmile_qr_scan"}, "is_reserved": 0, "lon": -77.029188, "fusion_lat": 0.0, "name": "3f6324429d6a131e3278a5c8946f2308"}, {"type": "electric_scooter", "fusion_lon": 0.0, "bike_id": "4ed2aa252f4e59bf4b3cd2ebaa8e1966", "is_disabled": 0, "lat": 38.89217383333333, "rental_uris": {"ios": "https://dc.lft.to/lastmile_qr_scan", "android": "https://dc.lft.to/lastmile_qr_scan"}, "is_reserved": 0, "lon": -77.03161316666667, "fusion_lat": 0.0, "name": "4ed2aa252f4e59bf4b3cd2ebaa8e1966"}, {"type": "electric_scooter", "fusion_lon": 0.0, "bike_id": "832785dae5203ae0c7bd51354c3c756b", "is_disabled": 0, "lat": 38.9215195, "rental_uris": {"ios": "https://dc.lft.to/lastmile_qr_scan", "android": "https://dc.lft.to/lastmile_qr_scan"}, "is_reserved": 0, "lon": -77.03231983333333, "fusion_lat": 0.0, "name": "832785dae5203ae0c7bd51354c3c756b"}, {"type": "electric_scooter", "fusion_lon": 0.0, "bike_id": "1bc67dcd96deaab9182dbbbd3a737316", "is_disabled": 0, "lat": 38.9259785, "rental_uris": {"ios": "https://dc.lft.to/lastmile_qr_scan", "android": "https://dc.lft.to/lastmile_qr_scan"}, "is_reserved": 0, "lon": -77.021516, "fusion_lat": 0.0, "name": "1bc67dcd96deaab9182dbbbd3a737316"}, {"type": "electric_scooter", "fusion_lon": 0.0, "bike_id": "fff0c067df632cf0aaf7c8b99f84cd51", "is_disabled": 0, "lat": 38.9541245, "rental_uris": {"ios": "https://dc.lft.to/lastmile_qr_scan", "android": "https://dc.lft.to/lastmile_qr_scan"}, "is_reserved": 0, "lon": -77.035163, "fusion_lat": 0.0, "name": "fff0c067df632cf0aaf7c8b99f84cd51"}, {"type": "electric_scooter", "fusion_lon": 0.0, "bike_id": "3ded8a530007a9c0d2c64beea0978cd1", "is_disabled": 0, "lat": 38.876597333333336, "rental_uris": {"ios": "https://dc.lft.to/lastmile_qr_scan", "android": "https://dc.lft.to/lastmile_qr_scan"}, "is_reserved": 0, "lon": -77.0006635, "fusion_lat": 0.0, "name": "3ded8a530007a9c0d2c64beea0978cd1"}, {"type": "electric_bike", "fusion_lon": 0.0, "bike_id": "e49e283b38a62e9b68151ea443b0b785", "is_disabled": 0, "lat": 38.80749766666667, "rental_uris": {"ios": "https://dc.lft.to/lastmile_qr_scan", "android": "https://dc.lft.to/lastmile_qr_scan"}, "is_reserved": 0, "lon": -77.09450566666666, "fusion_lat": 0.0, "name": "e49e283b38a62e9b68151ea443b0b785"}, {"type": "electric_scooter", "fusion_lon": 0.0, "bike_id": "e47d70b0ded251e09ec29627bf3e762d", "is_disabled": 0, "lat": 38.8831025, "rental_uris": {"ios": "https://dc.lft.to/lastmile_qr_scan", "android": "https://dc.lft.to/lastmile_qr_scan"}, "is_reserved": 0, "lon": -77.00359266666666, "fusion_lat": 0.0, "name": "e47d70b0ded251e09ec29627bf3e762d"}, {"type": "electric_scooter", "fusion_lon": 0.0, "bike_id": "9c617cdc52ed43ebc365998525c98e9b", "is_disabled": 0, "lat": 38.94607966666667, "rental_uris": {"ios": "https://dc.lft.to/lastmile_qr_scan", "android": "https://dc.lft.to/lastmile_qr_scan"}, "is_reserved": 0, "lon": -77.0787645, "fusion_lat": 0.0, "name": "9c617cdc52ed43ebc365998525c98e9b"}, {"type": "electric_scooter", "fusion_lon": 0.0, "bike_id": "a1d57d90dd6ed94dea113e13a20c496c", "is_disabled": 0, "lat": 38.88737716666667, "rental_uris": {"ios": "https://dc.lft.to/lastmile_qr_scan", "android": "https://dc.lft.to/lastmile_qr_scan"}, "is_reserved": 0, "lon": -77.03176683333334, "fusion_lat": 0.0, "name": "a1d57d90dd6ed94dea113e13a20c496c"}, {"type": "electric_bike", "fusion_lon": 0.0, "bike_id": "61d748d1dd78db6b80f2bbc80a25f8f0", "is_disabled": 0, "lat": 38.934938, "rental_uris": {"ios": "https://dc.lft.to/lastmile_qr_scan", "android": "https://dc.lft.to/lastmile_qr_scan"}, "is_reserved": 0, "lon": -77.04222183333333, "fusion_lat": 0.0, "name": "61d748d1dd78db6b80f2bbc80a25f8f0"}, {"type": "electric_scooter", "fusion_lon": 0.0, "bike_id": "9bb6d5186c27ce5b795773cfae4a9ed1", "is_disabled": 0, "lat": 38.92705016666667, "rental_uris": {"ios": "https://dc.lft.to/lastmile_qr_scan", "android": "https://dc.lft.to/lastmile_qr_scan"}, "is_reserved": 0, "lon": -77.03759066666667, "fusion_lat": 0.0, "name": "9bb6d5186c27ce5b795773cfae4a9ed1"}, {"type": "electric_scooter", "fusion_lon": 0.0, "bike_id": "97cfa711baa6c7b716cd54c83f54ffd7", "is_disabled": 0, "lat": 38.907240333333334, "rental_uris": {"ios": "https://dc.lft.to/lastmile_qr_scan", "android": "https://dc.lft.to/lastmile_qr_scan"}, "is_reserved": 0, "lon": -77.032092, "fusion_lat": 0.0, "name": "97cfa711baa6c7b716cd54c83f54ffd7"}, {"type": "electric_bike", "fusion_lon": 0.0, "bike_id": "f84dc12c6bf9b27ebb4f94f23509bc03", "is_disabled": 0, "lat": 38.88507633333333, "rental_uris": {"ios": "https://dc.lft.to/lastmile_qr_scan", "android": "https://dc.lft.to/lastmile_qr_scan"}, "is_reserved": 0, "lon": -77.02096166666666, "fusion_lat": 0.0, "name": "f84dc12c6bf9b27ebb4f94f23509bc03"}, {"type": "electric_scooter", "fusion_lon": 0.0, "bike_id": "53b491d3f675e09956059df1bed3604d", "is_disabled": 0, "lat": 38.89231483333333, "rental_uris": {"ios": "https://dc.lft.to/lastmile_qr_scan", "android": "https://dc.lft.to/lastmile_qr_scan"}, "is_reserved": 0, "lon": -77.00292083333333, "fusion_lat": 0.0, "name": "53b491d3f675e09956059df1bed3604d"}, {"type": "electric_scooter", "fusion_lon": 0.0, "bike_id": "3556e150423e67e9d8af5b0346334439", "is_disabled": 0, "lat": 38.92221466666667, "rental_uris": {"ios": "https://dc.lft.to/lastmile_qr_scan", "android": "https://dc.lft.to/lastmile_qr_scan"}, "is_reserved": 0, "lon": -77.04708133333334, "fusion_lat": 0.0, "name": "3556e150423e67e9d8af5b0346334439"}, {"type": "electric_scooter", "fusion_lon": 0.0, "bike_id": "d65754108fe52fbfb768b28b396b9119", "is_disabled": 0, "lat": 38.904106666666664, "rental_uris": {"ios": "https://dc.lft.to/lastmile_qr_scan", "android": "https://dc.lft.to/lastmile_qr_scan"}, "is_reserved": 0, "lon": -76.97326766666667, "fusion_lat": 0.0, "name": "d65754108fe52fbfb768b28b396b9119"}, {"type": "electric_scooter", "fusion_lon": 0.0, "bike_id": "25038fa4fd87d8bd48e89010d98b4de1", "is_disabled": 0, "lat": 38.92258316666667, "rental_uris": {"ios": "https://dc.lft.to/lastmile_qr_scan", "android": "https://dc.lft.to/lastmile_qr_scan"}, "is_reserved": 0, "lon": -77.01825366666667, "fusion_lat": 0.0, "name": "25038fa4fd87d8bd48e89010d98b4de1"}, {"type": "electric_scooter", "fusion_lon": 0.0, "bike_id": "5c03172006b30e22e5b309c99fb5a796", "is_disabled": 0, "lat": 38.88406666666667, "rental_uris": {"ios": "https://dc.lft.to/lastmile_qr_scan", "android": "https://dc.lft.to/lastmile_qr_scan"}, "is_reserved": 0, "lon": -77.02959216666666, "fusion_lat": 0.0, "name": "5c03172006b30e22e5b309c99fb5a796"}, {"type": "electric_scooter", "fusion_lon": 0.0, "bike_id": "9c939853df8865087705055b17bc088f", "is_disabled": 0, "lat": 38.885341, "rental_uris": {"ios": "https://dc.lft.to/lastmile_qr_scan", "android": "https://dc.lft.to/lastmile_qr_scan"}, "is_reserved": 0, "lon": -77.01100133333334, "fusion_lat": 0.0, "name": "9c939853df8865087705055b17bc088f"}, {"type": "electric_scooter", "fusion_lon": 0.0, "bike_id": "dc0ee047d6ef43edd394ec32d63367ed", "is_disabled": 0, "lat": 38.9102475, "rental_uris": {"ios": "https://dc.lft.to/lastmile_qr_scan", "android": "https://dc.lft.to/lastmile_qr_scan"}, "is_reserved": 0, "lon": -77.04650566666666, "fusion_lat": 0.0, "name": "dc0ee047d6ef43edd394ec32d63367ed"}, {"type": "electric_scooter", "fusion_lon": 0.0, "bike_id": "1d374dfea5577d88ddd8985a5187a5bf", "is_disabled": 0, "lat": 38.9262915, "rental_uris": {"ios": "https://dc.lft.to/lastmile_qr_scan", "android": "https://dc.lft.to/lastmile_qr_scan"}, "is_reserved": 0, "lon": -76.996178, "fusion_lat": 0.0, "name": "1d374dfea5577d88ddd8985a5187a5bf"}, {"type": "electric_scooter", "fusion_lon": 0.0, "bike_id": "a272b170355a411242879f8267e48eb5", "is_disabled": 0, "lat": 38.914115, "rental_uris": {"ios": "https://dc.lft.to/lastmile_qr_scan", "android": "https://dc.lft.to/lastmile_qr_scan"}, "is_reserved": 0, "lon": -77.0355165, "fusion_lat": 0.0, "name": "a272b170355a411242879f8267e48eb5"}, {"type": "electric_scooter", "fusion_lon": 0.0, "bike_id": "4db17bdf775adbc8c9976f7357bd2b6c", "is_disabled": 0, "lat": 38.89249, "rental_uris": {"ios": "https://dc.lft.to/lastmile_qr_scan", "android": "https://dc.lft.to/lastmile_qr_scan"}, "is_reserved": 0, "lon": -77.0220105, "fusion_lat": 0.0, "name": "4db17bdf775adbc8c9976f7357bd2b6c"}, {"type": "electric_scooter", "fusion_lon": 0.0, "bike_id": "f8a44d2e0bc1962addd8d3712e34bba7", "is_disabled": 0, "lat": 38.887318, "rental_uris": {"ios": "https://dc.lft.to/lastmile_qr_scan", "android": "https://dc.lft.to/lastmile_qr_scan"}, "is_reserved": 0, "lon": -77.03178816666667, "fusion_lat": 0.0, "name": "f8a44d2e0bc1962addd8d3712e34bba7"}, {"type": "electric_scooter", "fusion_lon": 0.0, "bike_id": "f9a4822ceb978602d7454e4b6b6d9489", "is_disabled": 0, "lat": 38.91407866666667, "rental_uris": {"ios": "https://dc.lft.to/lastmile_qr_scan", "android": "https://dc.lft.to/lastmile_qr_scan"}, "is_reserved": 0, "lon": -77.032648, "fusion_lat": 0.0, "name": "f9a4822ceb978602d7454e4b6b6d9489"}, {"type": "electric_scooter", "fusion_lon": 0.0, "bike_id": "55abe14226af89ccd50a5884ae0f73c1", "is_disabled": 0, "lat": 38.90140233333333, "rental_uris": {"ios": "https://dc.lft.to/lastmile_qr_scan", "android": "https://dc.lft.to/lastmile_qr_scan"}, "is_reserved": 0, "lon": -77.02277066666667, "fusion_lat": 0.0, "name": "55abe14226af89ccd50a5884ae0f73c1"}, {"type": "electric_scooter", "fusion_lon": 0.0, "bike_id": "d9aab22674e57d7276ba051209813cff", "is_disabled": 0, "lat": 38.924622, "rental_uris": {"ios": "https://dc.lft.to/lastmile_qr_scan", "android": "https://dc.lft.to/lastmile_qr_scan"}, "is_reserved": 0, "lon": -77.02712083333333, "fusion_lat": 0.0, "name": "d9aab22674e57d7276ba051209813cff"}, {"type": "electric_scooter", "fusion_lon": 0.0, "bike_id": "25b76ca3d3a290bb1b2bd82e1ee407fb", "is_disabled": 0, "lat": 38.900355, "rental_uris": {"ios": "https://dc.lft.to/lastmile_qr_scan", "android": "https://dc.lft.to/lastmile_qr_scan"}, "is_reserved": 0, "lon": -77.00196183333334, "fusion_lat": 0.0, "name": "25b76ca3d3a290bb1b2bd82e1ee407fb"}, {"type": "electric_scooter", "fusion_lon": 0.0, "bike_id": "b39aa1518f39c4677805c755e3e36b2c", "is_disabled": 0, "lat": 38.9024055, "rental_uris": {"ios": "https://dc.lft.to/lastmile_qr_scan", "android": "https://dc.lft.to/lastmile_qr_scan"}, "is_reserved": 0, "lon": -77.045446, "fusion_lat": 0.0, "name": "b39aa1518f39c4677805c755e3e36b2c"}, {"type": "electric_scooter", "fusion_lon": 0.0, "bike_id": "d8a5ac1200bf0a24e5895f6e280f32fa", "is_disabled": 0, "lat": 38.911965, "rental_uris": {"ios": "https://dc.lft.to/lastmile_qr_scan", "android": "https://dc.lft.to/lastmile_qr_scan"}, "is_reserved": 0, "lon": -77.045351, "fusion_lat": 0.0, "name": "d8a5ac1200bf0a24e5895f6e280f32fa"}, {"type": "electric_scooter", "fusion_lon": 0.0, "bike_id": "eeda0ab3d1b873962aa5367aab731c36", "is_disabled": 0, "lat": 38.897581333333335, "rental_uris": {"ios": "https://dc.lft.to/lastmile_qr_scan", "android": "https://dc.lft.to/lastmile_qr_scan"}, "is_reserved": 0, "lon": -76.98646866666667, "fusion_lat": 0.0, "name": "eeda0ab3d1b873962aa5367aab731c36"}, {"type": "electric_scooter", "fusion_lon": 0.0, "bike_id": "cebe31c1ec0d4b92a6558bad8cc9530d", "is_disabled": 0, "lat": 38.934356333333334, "rental_uris": {"ios": "https://dc.lft.to/lastmile_qr_scan", "android": "https://dc.lft.to/lastmile_qr_scan"}, "is_reserved": 0, "lon": -77.032752, "fusion_lat": 0.0, "name": "cebe31c1ec0d4b92a6558bad8cc9530d"}, {"type": "electric_scooter", "fusion_lon": 0.0, "bike_id": "d074a86d1d6c90ead677099b2e283d60", "is_disabled": 0, "lat": 38.89652266666667, "rental_uris": {"ios": "https://dc.lft.to/lastmile_qr_scan", "android": "https://dc.lft.to/lastmile_qr_scan"}, "is_reserved": 0, "lon": -77.04008366666666, "fusion_lat": 0.0, "name": "d074a86d1d6c90ead677099b2e283d60"}, {"type": "electric_scooter", "fusion_lon": 0.0, "bike_id": "63239123252ebb44482a94014e0dbda1", "is_disabled": 0, "lat": 38.906138166666665, "rental_uris": {"ios": "https://dc.lft.to/lastmile_qr_scan", "android": "https://dc.lft.to/lastmile_qr_scan"}, "is_reserved": 0, "lon": -77.05149716666666, "fusion_lat": 0.0, "name": "63239123252ebb44482a94014e0dbda1"}, {"type": "electric_scooter", "fusion_lon": 0.0, "bike_id": "95c9d8166f1e8d0acdd5fe440f60d788", "is_disabled": 0, "lat": 38.921292333333334, "rental_uris": {"ios": "https://dc.lft.to/lastmile_qr_scan", "android": "https://dc.lft.to/lastmile_qr_scan"}, "is_reserved": 0, "lon": -77.01802933333333, "fusion_lat": 0.0, "name": "95c9d8166f1e8d0acdd5fe440f60d788"}, {"type": "electric_scooter", "fusion_lon": 0.0, "bike_id": "d92a4d050d0a4defb2f3651c6be3f8d1", "is_disabled": 0, "lat": 38.934946, "rental_uris": {"ios": "https://dc.lft.to/lastmile_qr_scan", "android": "https://dc.lft.to/lastmile_qr_scan"}, "is_reserved": 0, "lon": -77.04373383333333, "fusion_lat": 0.0, "name": "d92a4d050d0a4defb2f3651c6be3f8d1"}, {"type": "electric_bike", "fusion_lon": 0.0, "bike_id": "07556f791854c604c888a8eed47a0253", "is_disabled": 0, "lat": 38.9937985, "rental_uris": {"ios": "https://dc.lft.to/lastmile_qr_scan", "android": "https://dc.lft.to/lastmile_qr_scan"}, "is_reserved": 0, "lon": -77.04072166666667, "fusion_lat": 0.0, "name": "07556f791854c604c888a8eed47a0253"}, {"type": "electric_scooter", "fusion_lon": 0.0, "bike_id": "f829615ba4da01fcadecc6ae6a0e806d", "is_disabled": 0, "lat": 38.898683166666665, "rental_uris": {"ios": "https://dc.lft.to/lastmile_qr_scan", "android": "https://dc.lft.to/lastmile_qr_scan"}, "is_reserved": 0, "lon": -76.946624, "fusion_lat": 0.0, "name": "f829615ba4da01fcadecc6ae6a0e806d"}, {"type": "electric_bike", "fusion_lon": 0.0, "bike_id": "b8ef7369abe7705e942688b3134d95f5", "is_disabled": 0, "lat": 38.988116833333336, "rental_uris": {"ios": "https://dc.lft.to/lastmile_qr_scan", "android": "https://dc.lft.to/lastmile_qr_scan"}, "is_reserved": 0, "lon": -76.93967683333334, "fusion_lat": 0.0, "name": "b8ef7369abe7705e942688b3134d95f5"}, {"type": "electric_scooter", "fusion_lon": 0.0, "bike_id": "2131721de88eb115b2075c5bf3737d9e", "is_disabled": 0, "lat": 38.9091965, "rental_uris": {"ios": "https://dc.lft.to/lastmile_qr_scan", "android": "https://dc.lft.to/lastmile_qr_scan"}, "is_reserved": 0, "lon": -76.999595, "fusion_lat": 0.0, "name": "2131721de88eb115b2075c5bf3737d9e"}, {"type": "electric_scooter", "fusion_lon": 0.0, "bike_id": "40adec536ef0eb12c9df624342d2ff4e", "is_disabled": 0, "lat": 38.8998305, "rental_uris": {"ios": "https://dc.lft.to/lastmile_qr_scan", "android": "https://dc.lft.to/lastmile_qr_scan"}, "is_reserved": 0, "lon": -77.00207166666667, "fusion_lat": 0.0, "name": "40adec536ef0eb12c9df624342d2ff4e"}, {"type": "electric_scooter", "fusion_lon": 0.0, "bike_id": "4e67be36ff05bf8695984dba0544351e", "is_disabled": 0, "lat": 38.928729, "rental_uris": {"ios": "https://dc.lft.to/lastmile_qr_scan", "android": "https://dc.lft.to/lastmile_qr_scan"}, "is_reserved": 0, "lon": -77.02965866666666, "fusion_lat": 0.0, "name": "4e67be36ff05bf8695984dba0544351e"}, {"type": "electric_scooter", "fusion_lon": 0.0, "bike_id": "595b9db460f7285014e7932fe41d76f3", "is_disabled": 0, "lat": 38.934659, "rental_uris": {"ios": "https://dc.lft.to/lastmile_qr_scan", "android": "https://dc.lft.to/lastmile_qr_scan"}, "is_reserved": 0, "lon": -77.04134816666667, "fusion_lat": 0.0, "name": "595b9db460f7285014e7932fe41d76f3"}, {"type": "electric_scooter", "fusion_lon": 0.0, "bike_id": "2bec4ad70ce71f24192290c63786527e", "is_disabled": 0, "lat": 38.9239635, "rental_uris": {"ios": "https://dc.lft.to/lastmile_qr_scan", "android": "https://dc.lft.to/lastmile_qr_scan"}, "is_reserved": 0, "lon": -77.026998, "fusion_lat": 0.0, "name": "2bec4ad70ce71f24192290c63786527e"}, {"type": "electric_scooter", "fusion_lon": 0.0, "bike_id": "c5439785bbc5fda6f6bc02a86297992e", "is_disabled": 0, "lat": 38.93956516666667, "rental_uris": {"ios": "https://dc.lft.to/lastmile_qr_scan", "android": "https://dc.lft.to/lastmile_qr_scan"}, "is_reserved": 0, "lon": -77.072424, "fusion_lat": 0.0, "name": "c5439785bbc5fda6f6bc02a86297992e"}, {"type": "electric_bike", "fusion_lon": 0.0, "bike_id": "8cd5a5c0bd7b31d5c45f354cac1d1801", "is_disabled": 0, "lat": 38.88465566666667, "rental_uris": {"ios": "https://dc.lft.to/lastmile_qr_scan", "android": "https://dc.lft.to/lastmile_qr_scan"}, "is_reserved": 0, "lon": -76.95240333333334, "fusion_lat": 0.0, "name": "8cd5a5c0bd7b31d5c45f354cac1d1801"}, {"type": "electric_scooter", "fusion_lon": 0.0, "bike_id": "bed9860791c52eca417c1c71a6029b13", "is_disabled": 0, "lat": 38.908032666666664, "rental_uris": {"ios": "https://dc.lft.to/lastmile_qr_scan", "android": "https://dc.lft.to/lastmile_qr_scan"}, "is_reserved": 0, "lon": -77.08398166666667, "fusion_lat": 0.0, "name": "bed9860791c52eca417c1c71a6029b13"}, {"type": "electric_scooter", "fusion_lon": 0.0, "bike_id": "f16143ed56a5c0d53eadf075e9540855", "is_disabled": 0, "lat": 38.900094, "rental_uris": {"ios": "https://dc.lft.to/lastmile_qr_scan", "android": "https://dc.lft.to/lastmile_qr_scan"}, "is_reserved": 0, "lon": -76.98900266666666, "fusion_lat": 0.0, "name": "f16143ed56a5c0d53eadf075e9540855"}, {"type": "electric_scooter", "fusion_lon": 0.0, "bike_id": "59ddb77b10ae0f9faf89fb206f32d05c", "is_disabled": 0, "lat": 38.9272985, "rental_uris": {"ios": "https://dc.lft.to/lastmile_qr_scan", "android": "https://dc.lft.to/lastmile_qr_scan"}, "is_reserved": 0, "lon": -77.034124, "fusion_lat": 0.0, "name": "59ddb77b10ae0f9faf89fb206f32d05c"}, {"type": "electric_bike", "fusion_lon": 0.0, "bike_id": "aab5071465976dad15798543239abf23", "is_disabled": 0, "lat": 38.9272685, "rental_uris": {"ios": "https://dc.lft.to/lastmile_qr_scan", "android": "https://dc.lft.to/lastmile_qr_scan"}, "is_reserved": 0, "lon": -76.99368516666667, "fusion_lat": 0.0, "name": "aab5071465976dad15798543239abf23"}, {"type": "electric_scooter", "fusion_lon": 0.0, "bike_id": "615b544e983115e6d4943b8f363ec119", "is_disabled": 0, "lat": 38.931545, "rental_uris": {"ios": "https://dc.lft.to/lastmile_qr_scan", "android": "https://dc.lft.to/lastmile_qr_scan"}, "is_reserved": 0, "lon": -77.02880816666666, "fusion_lat": 0.0, "name": "615b544e983115e6d4943b8f363ec119"}, {"type": "electric_scooter", "fusion_lon": 0.0, "bike_id": "1afc9994049f949ebe3a1942cfb2b7db", "is_disabled": 0, "lat": 38.91830316666667, "rental_uris": {"ios": "https://dc.lft.to/lastmile_qr_scan", "android": "https://dc.lft.to/lastmile_qr_scan"}, "is_reserved": 0, "lon": -77.022815, "fusion_lat": 0.0, "name": "1afc9994049f949ebe3a1942cfb2b7db"}, {"type": "electric_scooter", "fusion_lon": 0.0, "bike_id": "183b4ef24ba7e0ac2be417cc64b1ca43", "is_disabled": 0, "lat": 38.895038666666665, "rental_uris": {"ios": "https://dc.lft.to/lastmile_qr_scan", "android": "https://dc.lft.to/lastmile_qr_scan"}, "is_reserved": 0, "lon": -76.934772, "fusion_lat": 0.0, "name": "183b4ef24ba7e0ac2be417cc64b1ca43"}, {"type": "electric_scooter", "fusion_lon": 0.0, "bike_id": "1b3a66e13cec6af5aa630e9b73d686c4", "is_disabled": 0, "lat": 38.90351533333333, "rental_uris": {"ios": "https://dc.lft.to/lastmile_qr_scan", "android": "https://dc.lft.to/lastmile_qr_scan"}, "is_reserved": 0, "lon": -77.03446566666666, "fusion_lat": 0.0, "name": "1b3a66e13cec6af5aa630e9b73d686c4"}, {"type": "electric_scooter", "fusion_lon": 0.0, "bike_id": "50cd0c7a495f33d47783d957c9588f80", "is_disabled": 0, "lat": 38.90253083333333, "rental_uris": {"ios": "https://dc.lft.to/lastmile_qr_scan", "android": "https://dc.lft.to/lastmile_qr_scan"}, "is_reserved": 0, "lon": -77.0461095, "fusion_lat": 0.0, "name": "50cd0c7a495f33d47783d957c9588f80"}, {"type": "electric_scooter", "fusion_lon": 0.0, "bike_id": "eebf2374da821b4d6fb30829f1589f47", "is_disabled": 0, "lat": 38.90569033333333, "rental_uris": {"ios": "https://dc.lft.to/lastmile_qr_scan", "android": "https://dc.lft.to/lastmile_qr_scan"}, "is_reserved": 0, "lon": -77.00785016666667, "fusion_lat": 0.0, "name": "eebf2374da821b4d6fb30829f1589f47"}, {"type": "electric_scooter", "fusion_lon": 0.0, "bike_id": "5a58fa16eb027fce764870510ea54f23", "is_disabled": 0, "lat": 38.897176, "rental_uris": {"ios": "https://dc.lft.to/lastmile_qr_scan", "android": "https://dc.lft.to/lastmile_qr_scan"}, "is_reserved": 0, "lon": -77.030202, "fusion_lat": 0.0, "name": "5a58fa16eb027fce764870510ea54f23"}, {"type": "electric_bike", "fusion_lon": 0.0, "bike_id": "02e5432a1134650587650b5e6a39d48d", "is_disabled": 0, "lat": 38.980399166666665, "rental_uris": {"ios": "https://dc.lft.to/lastmile_qr_scan", "android": "https://dc.lft.to/lastmile_qr_scan"}, "is_reserved": 0, "lon": -76.95792233333333, "fusion_lat": 0.0, "name": "02e5432a1134650587650b5e6a39d48d"}, {"type": "electric_scooter", "fusion_lon": 0.0, "bike_id": "70c4faa02a49e97ca1db8c8f1e39d310", "is_disabled": 0, "lat": 38.903775333333336, "rental_uris": {"ios": "https://dc.lft.to/lastmile_qr_scan", "android": "https://dc.lft.to/lastmile_qr_scan"}, "is_reserved": 0, "lon": -77.00190216666667, "fusion_lat": 0.0, "name": "70c4faa02a49e97ca1db8c8f1e39d310"}, {"type": "electric_scooter", "fusion_lon": 0.0, "bike_id": "e74a09815b16878580a961ea6c8d4f07", "is_disabled": 0, "lat": 38.8737905, "rental_uris": {"ios": "https://dc.lft.to/lastmile_qr_scan", "android": "https://dc.lft.to/lastmile_qr_scan"}, "is_reserved": 0, "lon": -77.00128816666667, "fusion_lat": 0.0, "name": "e74a09815b16878580a961ea6c8d4f07"}, {"type": "electric_scooter", "fusion_lon": 0.0, "bike_id": "4a0f7d53e823785e1f6b460e751a1993", "is_disabled": 0, "lat": 38.963839, "rental_uris": {"ios": "https://dc.lft.to/lastmile_qr_scan", "android": "https://dc.lft.to/lastmile_qr_scan"}, "is_reserved": 0, "lon": -77.02594933333333, "fusion_lat": 0.0, "name": "4a0f7d53e823785e1f6b460e751a1993"}, {"type": "electric_scooter", "fusion_lon": 0.0, "bike_id": "bfe01a76198a1e214ae11398e5ac6951", "is_disabled": 0, "lat": 38.941928, "rental_uris": {"ios": "https://dc.lft.to/lastmile_qr_scan", "android": "https://dc.lft.to/lastmile_qr_scan"}, "is_reserved": 0, "lon": -77.02521333333334, "fusion_lat": 0.0, "name": "bfe01a76198a1e214ae11398e5ac6951"}, {"type": "electric_scooter", "fusion_lon": 0.0, "bike_id": "1489b66000bff431a8791d7905641ee9", "is_disabled": 0, "lat": 38.928444, "rental_uris": {"ios": "https://dc.lft.to/lastmile_qr_scan", "android": "https://dc.lft.to/lastmile_qr_scan"}, "is_reserved": 0, "lon": -77.015869, "fusion_lat": 0.0, "name": "1489b66000bff431a8791d7905641ee9"}, {"type": "electric_scooter", "fusion_lon": 0.0, "bike_id": "af10a38beda24831d04b5b4b1826d7e6", "is_disabled": 0, "lat": 38.90313883333334, "rental_uris": {"ios": "https://dc.lft.to/lastmile_qr_scan", "android": "https://dc.lft.to/lastmile_qr_scan"}, "is_reserved": 0, "lon": -77.02648066666667, "fusion_lat": 0.0, "name": "af10a38beda24831d04b5b4b1826d7e6"}, {"type": "electric_scooter", "fusion_lon": 0.0, "bike_id": "35f3f22831680748cac573eb3f1a80e4", "is_disabled": 0, "lat": 38.95621366666666, "rental_uris": {"ios": "https://dc.lft.to/lastmile_qr_scan", "android": "https://dc.lft.to/lastmile_qr_scan"}, "is_reserved": 0, "lon": -77.07013616666667, "fusion_lat": 0.0, "name": "35f3f22831680748cac573eb3f1a80e4"}, {"type": "electric_scooter", "fusion_lon": 0.0, "bike_id": "a26c5befd5dbc4e7a1ad4928adf53ed7", "is_disabled": 0, "lat": 38.929581, "rental_uris": {"ios": "https://dc.lft.to/lastmile_qr_scan", "android": "https://dc.lft.to/lastmile_qr_scan"}, "is_reserved": 0, "lon": -77.0114805, "fusion_lat": 0.0, "name": "a26c5befd5dbc4e7a1ad4928adf53ed7"}, {"type": "electric_scooter", "fusion_lon": 0.0, "bike_id": "7b140f224854f976481b9c476bcbe89c", "is_disabled": 0, "lat": 38.87627166666667, "rental_uris": {"ios": "https://dc.lft.to/lastmile_qr_scan", "android": "https://dc.lft.to/lastmile_qr_scan"}, "is_reserved": 0, "lon": -76.99799333333333, "fusion_lat": 0.0, "name": "7b140f224854f976481b9c476bcbe89c"}, {"type": "electric_scooter", "fusion_lon": 0.0, "bike_id": "f441f8ff9620617b51945486fbd3fb5e", "is_disabled": 0, "lat": 38.915968, "rental_uris": {"ios": "https://dc.lft.to/lastmile_qr_scan", "android": "https://dc.lft.to/lastmile_qr_scan"}, "is_reserved": 0, "lon": -77.03204633333333, "fusion_lat": 0.0, "name": "f441f8ff9620617b51945486fbd3fb5e"}, {"type": "electric_scooter", "fusion_lon": 0.0, "bike_id": "d3f8b3fa796090e4400af2e2bbeda497", "is_disabled": 0, "lat": 38.910492833333336, "rental_uris": {"ios": "https://dc.lft.to/lastmile_qr_scan", "android": "https://dc.lft.to/lastmile_qr_scan"}, "is_reserved": 0, "lon": -77.07537033333334, "fusion_lat": 0.0, "name": "d3f8b3fa796090e4400af2e2bbeda497"}, {"type": "electric_scooter", "fusion_lon": 0.0, "bike_id": "ea3daf6fc1ea3158918291612defdf47", "is_disabled": 0, "lat": 38.922633166666664, "rental_uris": {"ios": "https://dc.lft.to/lastmile_qr_scan", "android": "https://dc.lft.to/lastmile_qr_scan"}, "is_reserved": 0, "lon": -77.0224245, "fusion_lat": 0.0, "name": "ea3daf6fc1ea3158918291612defdf47"}, {"type": "electric_scooter", "fusion_lon": 0.0, "bike_id": "1e3ec24d451642d0da424b2b5f390e74", "is_disabled": 0, "lat": 38.918116166666664, "rental_uris": {"ios": "https://dc.lft.to/lastmile_qr_scan", "android": "https://dc.lft.to/lastmile_qr_scan"}, "is_reserved": 0, "lon": -77.04548566666666, "fusion_lat": 0.0, "name": "1e3ec24d451642d0da424b2b5f390e74"}, {"type": "electric_scooter", "fusion_lon": 0.0, "bike_id": "3b0ec56ee5535975e1a095bef6e97598", "is_disabled": 0, "lat": 38.96138066666666, "rental_uris": {"ios": "https://dc.lft.to/lastmile_qr_scan", "android": "https://dc.lft.to/lastmile_qr_scan"}, "is_reserved": 0, "lon": -77.02799866666666, "fusion_lat": 0.0, "name": "3b0ec56ee5535975e1a095bef6e97598"}, {"type": "electric_scooter", "fusion_lon": 0.0, "bike_id": "e2fb81d13bd963fa5a46a97a4ddbbd8c", "is_disabled": 0, "lat": 38.892198666666665, "rental_uris": {"ios": "https://dc.lft.to/lastmile_qr_scan", "android": "https://dc.lft.to/lastmile_qr_scan"}, "is_reserved": 0, "lon": -77.03217966666666, "fusion_lat": 0.0, "name": "e2fb81d13bd963fa5a46a97a4ddbbd8c"}, {"type": "electric_scooter", "fusion_lon": 0.0, "bike_id": "23dd17b20350cd50da63df88d8ae0404", "is_disabled": 0, "lat": 38.90577183333333, "rental_uris": {"ios": "https://dc.lft.to/lastmile_qr_scan", "android": "https://dc.lft.to/lastmile_qr_scan"}, "is_reserved": 0, "lon": -77.0435705, "fusion_lat": 0.0, "name": "23dd17b20350cd50da63df88d8ae0404"}, {"type": "electric_scooter", "fusion_lon": 0.0, "bike_id": "3884c017aa20d37fbd5522bc87f83f91", "is_disabled": 0, "lat": 38.894688, "rental_uris": {"ios": "https://dc.lft.to/lastmile_qr_scan", "android": "https://dc.lft.to/lastmile_qr_scan"}, "is_reserved": 0, "lon": -77.02179283333334, "fusion_lat": 0.0, "name": "3884c017aa20d37fbd5522bc87f83f91"}, {"type": "electric_scooter", "fusion_lon": 0.0, "bike_id": "20b000f8574c9f1df994611aa41fd415", "is_disabled": 0, "lat": 38.878679166666664, "rental_uris": {"ios": "https://dc.lft.to/lastmile_qr_scan", "android": "https://dc.lft.to/lastmile_qr_scan"}, "is_reserved": 0, "lon": -76.96257733333333, "fusion_lat": 0.0, "name": "20b000f8574c9f1df994611aa41fd415"}, {"type": "electric_scooter", "fusion_lon": 0.0, "bike_id": "1e54a5fbcbcda9a460367bc2c32e08a2", "is_disabled": 0, "lat": 38.91219616666667, "rental_uris": {"ios": "https://dc.lft.to/lastmile_qr_scan", "android": "https://dc.lft.to/lastmile_qr_scan"}, "is_reserved": 0, "lon": -77.04353116666667, "fusion_lat": 0.0, "name": "1e54a5fbcbcda9a460367bc2c32e08a2"}, {"type": "electric_scooter", "fusion_lon": 0.0, "bike_id": "d664718a19a108573ef682af8c6bf7e1", "is_disabled": 0, "lat": 38.9195035, "rental_uris": {"ios": "https://dc.lft.to/lastmile_qr_scan", "android": "https://dc.lft.to/lastmile_qr_scan"}, "is_reserved": 0, "lon": -77.01782966666667, "fusion_lat": 0.0, "name": "d664718a19a108573ef682af8c6bf7e1"}, {"type": "electric_scooter", "fusion_lon": 0.0, "bike_id": "fd00a86d1708aa931685d70f7309643b", "is_disabled": 0, "lat": 38.91805633333333, "rental_uris": {"ios": "https://dc.lft.to/lastmile_qr_scan", "android": "https://dc.lft.to/lastmile_qr_scan"}, "is_reserved": 0, "lon": -77.03120516666667, "fusion_lat": 0.0, "name": "fd00a86d1708aa931685d70f7309643b"}, {"type": "electric_scooter", "fusion_lon": 0.0, "bike_id": "73325d27ea02b5ba7e42d8c96c01a9d1", "is_disabled": 0, "lat": 38.8934555, "rental_uris": {"ios": "https://dc.lft.to/lastmile_qr_scan", "android": "https://dc.lft.to/lastmile_qr_scan"}, "is_reserved": 0, "lon": -76.95229283333333, "fusion_lat": 0.0, "name": "73325d27ea02b5ba7e42d8c96c01a9d1"}, {"type": "electric_scooter", "fusion_lon": 0.0, "bike_id": "6a81e7c76c8061ee25c5c5ee2c5d78c3", "is_disabled": 0, "lat": 38.897255666666666, "rental_uris": {"ios": "https://dc.lft.to/lastmile_qr_scan", "android": "https://dc.lft.to/lastmile_qr_scan"}, "is_reserved": 0, "lon": -77.0191235, "fusion_lat": 0.0, "name": "6a81e7c76c8061ee25c5c5ee2c5d78c3"}, {"type": "electric_scooter", "fusion_lon": 0.0, "bike_id": "548e7f3f0467bd787fbb85704feae11e", "is_disabled": 0, "lat": 38.90814483333333, "rental_uris": {"ios": "https://dc.lft.to/lastmile_qr_scan", "android": "https://dc.lft.to/lastmile_qr_scan"}, "is_reserved": 0, "lon": -77.0335795, "fusion_lat": 0.0, "name": "548e7f3f0467bd787fbb85704feae11e"}, {"type": "electric_scooter", "fusion_lon": 0.0, "bike_id": "b470bab8e749780f47ecf32f1e5c6de8", "is_disabled": 0, "lat": 38.91337633333333, "rental_uris": {"ios": "https://dc.lft.to/lastmile_qr_scan", "android": "https://dc.lft.to/lastmile_qr_scan"}, "is_reserved": 0, "lon": -77.03193733333333, "fusion_lat": 0.0, "name": "b470bab8e749780f47ecf32f1e5c6de8"}, {"type": "electric_scooter", "fusion_lon": 0.0, "bike_id": "f69e7648726bf500abe3bc898c2ca7ef", "is_disabled": 0, "lat": 38.876593, "rental_uris": {"ios": "https://dc.lft.to/lastmile_qr_scan", "android": "https://dc.lft.to/lastmile_qr_scan"}, "is_reserved": 0, "lon": -76.99625966666666, "fusion_lat": 0.0, "name": "f69e7648726bf500abe3bc898c2ca7ef"}, {"type": "electric_scooter", "fusion_lon": 0.0, "bike_id": "4dc6f0623a15a48338aa06d43e439370", "is_disabled": 0, "lat": 38.919466166666666, "rental_uris": {"ios": "https://dc.lft.to/lastmile_qr_scan", "android": "https://dc.lft.to/lastmile_qr_scan"},