{"data": {"bikes": [{"fusion_lat": 0.0, "name": "ac5797ba82e6bf7df51eb7b3b163f732", "is_disabled": 0, "rental_uris": {"android": "https://dc.lft.to/lastmile_qr_scan", "ios": "https://dc.lft.to/lastmile_qr_scan"}, "fusion_lon": 0.0, "lat": 38.91412866666667, "bike_id": "ac5797ba82e6bf7df51eb7b3b163f732", "type": "electric_scooter", "is_reserved": 0, "lon": -77.039362}, {"fusion_lat": 0.0, "name": "3a844d0e6525989851c85ae0b0bd8495", "is_disabled": 0, "rental_uris": {"android": "https://dc.lft.to/lastmile_qr_scan", "ios": "https://dc.lft.to/lastmile_qr_scan"}, "fusion_lon": 0.0, "lat": 38.917090333333334, "bike_id": "3a844d0e6525989851c85ae0b0bd8495", "type": "electric_scooter", "is_reserved": 0, "lon": -77.0346935}, {"fusion_lat": 0.0, "name": "5d1f988bf93c65cdfa72de136fdf3cd6", "is_disabled": 0, "rental_uris": {"android": "https://dc.lft.to/lastmile_qr_scan", "ios": "https://dc.lft.to/lastmile_qr_scan"}, "fusion_lon": 0.0, "lat": 38.898927, "bike_id": "5d1f988bf93c65cdfa72de136fdf3cd6", "type": "electric_scooter", "is_reserved": 0, "lon": -76.93359716666667}, {"fusion_lat": 0.0, "name": "63635a7bea30d52bc09bba624c65d48b", "is_disabled": 0, "rental_uris": {"android": "https://dc.lft.to/lastmile_qr_scan", "ios": "https://dc.lft.to/lastmile_qr_scan"}, "fusion_lon": 0.0, "lat": 38.9386485, "bike_id": "63635a7bea30d52bc09bba624c65d48b", "type": "electric_scooter", "is_reserved": 0, "lon": -77.03433933333334}, {"fusion_lat": 0.0, "name": "6a85ab3a5b55a120f989b916ea471da1", "is_disabled": 0, "rental_uris": {"android": "https://dc.lft.to/lastmile_qr_scan", "ios": "https://dc.lft.to/lastmile_qr_scan"}, "fusion_lon": 0.0, "lat": 38.905690166666666, "bike_id": "6a85ab3a5b55a120f989b916ea471da1", "type": "electric_scooter", "is_reserved": 0, "lon": -77.04667916666666}, {"fusion_lat": 0.0, "name": "1558889a2b0c92e00ab17372fa1fa35a", "is_disabled": 0, "rental_uris": {"android": "https://dc.lft.to/lastmile_qr_scan", "ios": "https://dc.lft.to/lastmile_qr_scan"}, "fusion_lon": 0.0, "lat": 38.897198833333334, "bike_id": "1558889a2b0c92e00ab17372fa1fa35a", "type": "electric_scooter", "is_reserved": 0, "lon": -77.02768283333333}, {"fusion_lat": 0.0, "name": "d79ad3e67681deed5871097094712319", "is_disabled": 0, "rental_uris": {"android": "https://dc.lft.to/lastmile_qr_scan", "ios": "https://dc.lft.to/lastmile_qr_scan"}, "fusion_lon": 0.0, "lat": 38.92482666666667, "bike_id": "d79ad3e67681deed5871097094712319", "type": "electric_scooter", "is_reserved": 0, "lon": -77.05210333333333}, {"fusion_lat": 0.0, "name": "e9f750b5eccdca3a2cce4b05df03650b", "is_disabled": 0, "rental_uris": {"android": "https://dc.lft.to/lastmile_qr_scan", "ios": "https://dc.lft.to/lastmile_qr_scan"}, "fusion_lon": 0.0, "lat": 38.93422, "bike_id": "e9f750b5eccdca3a2cce4b05df03650b", "type": "electric_scooter", "is_reserved": 0, "lon": -77.0415555}, {"fusion_lat": 0.0, "name": "d4f175f2ac5c3f70caabeb0f3dc4fc4e", "is_disabled": 0, "rental_uris": {"android": "https://dc.lft.to/lastmile_qr_scan", "ios": "https://dc.lft.to/lastmile_qr_scan"}, "fusion_lon": 0.0, "lat": 38.918499, "bike_id": "d4f175f2ac5c3f70caabeb0f3dc4fc4e", "type": "electric_scooter", "is_reserved": 0, "lon": -77.02450616666667}, {"fusion_lat": 0.0, "name": "4b811a8d0a5b1cb1e12a053d020f1c45", "is_disabled": 0, "rental_uris": {"android": "https://dc.lft.to/lastmile_qr_scan", "ios": "https://dc.lft.to/lastmile_qr_scan"}, "fusion_lon": 0.0, "lat": 38.92477916666667, "bike_id": "4b811a8d0a5b1cb1e12a053d020f1c45", "type": "electric_scooter", "is_reserved": 0, "lon": -77.052167}, {"fusion_lat": 0.0, "name": "52f51d412d16400ae39505ead33a49d8", "is_disabled": 0, "rental_uris": {"android": "https://dc.lft.to/lastmile_qr_scan", "ios": "https://dc.lft.to/lastmile_qr_scan"}, "fusion_lon": 0.0, "lat": 38.9201755, "bike_id": "52f51d412d16400ae39505ead33a49d8", "type": "electric_scooter", "is_reserved": 0, "lon": -77.03112666666667}, {"fusion_lat": 0.0, "name": "86acf304bed7e7b077b2061567332fd1", "is_disabled": 0, "rental_uris": {"android": "https://dc.lft.to/lastmile_qr_scan", "ios": "https://dc.lft.to/lastmile_qr_scan"}, "fusion_lon": 0.0, "lat": 38.90853083333333, "bike_id": "86acf304bed7e7b077b2061567332fd1", "type": "electric_scooter", "is_reserved": 0, "lon": -77.033023}, {"fusion_lat": 0.0, "name": "f86faca6888683ea0900a394310a342f", "is_disabled": 0, "rental_uris": {"android": "https://dc.lft.to/lastmile_qr_scan", "ios": "https://dc.lft.to/lastmile_qr_scan"}, "fusion_lon": 0.0, "lat": 38.89995033333334, "bike_id": "f86faca6888683ea0900a394310a342f", "type": "electric_scooter", "is_reserved": 0, "lon": -77.02705616666667}, {"fusion_lat": 0.0, "name": "85cdd947ef4229c920e2abafec52d129", "is_disabled": 0, "rental_uris": {"android": "https://dc.lft.to/lastmile_qr_scan", "ios": "https://dc.lft.to/lastmile_qr_scan"}, "fusion_lon": 0.0, "lat": 38.9209255, "bike_id": "85cdd947ef4229c920e2abafec52d129", "type": "electric_scooter", "is_reserved": 0, "lon": -77.02509416666666}, {"fusion_lat": 0.0, "name": "b680844a4ae70639950c22c092f409f4", "is_disabled": 0, "rental_uris": {"android": "https://dc.lft.to/lastmile_qr_scan", "ios": "https://dc.lft.to/lastmile_qr_scan"}, "fusion_lon": 0.0, "lat": 38.898920333333336, "bike_id": "b680844a4ae70639950c22c092f409f4", "type": "electric_scooter", "is_reserved": 0, "lon": -76.93368416666667}, {"fusion_lat": 0.0, "name": "c0f624016f25043dbf51b5a634387c97", "is_disabled": 0, "rental_uris": {"android": "https://dc.lft.to/lastmile_qr_scan", "ios": "https://dc.lft.to/lastmile_qr_scan"}, "fusion_lon": 0.0, "lat": 38.8853015, "bike_id": "c0f624016f25043dbf51b5a634387c97", "type": "electric_scooter", "is_reserved": 0, "lon": -76.92916316666667}, {"fusion_lat": 0.0, "name": "393900f66bf08a96291ad89e9c234e13", "is_disabled": 0, "rental_uris": {"android": "https://dc.lft.to/lastmile_qr_scan", "ios": "https://dc.lft.to/lastmile_qr_scan"}, "fusion_lon": 0.0, "lat": 38.91712616666667, "bike_id": "393900f66bf08a96291ad89e9c234e13", "type": "electric_scooter", "is_reserved": 0, "lon": -77.03348383333334}, {"fusion_lat": 0.0, "name": "70974584f02f865a3e4f0da41c657087", "is_disabled": 0, "rental_uris": {"android": "https://dc.lft.to/lastmile_qr_scan", "ios": "https://dc.lft.to/lastmile_qr_scan"}, "fusion_lon": 0.0, "lat": 38.90559866666667, "bike_id": "70974584f02f865a3e4f0da41c657087", "type": "electric_scooter", "is_reserved": 0, "lon": -77.0055805}, {"fusion_lat": 0.0, "name": "edb0bc377e865cb1de76c270eb68611a", "is_disabled": 0, "rental_uris": {"android": "https://dc.lft.to/lastmile_qr_scan", "ios": "https://dc.lft.to/lastmile_qr_scan"}, "fusion_lon": 0.0, "lat": 38.88838533333333, "bike_id": "edb0bc377e865cb1de76c270eb68611a", "type": "electric_scooter", "is_reserved": 0, "lon": -77.0491035}, {"fusion_lat": 0.0, "name": "9b75d0119060fc98121afd603692ddef", "is_disabled": 0, "rental_uris": {"android": "https://dc.lft.to/lastmile_qr_scan", "ios": "https://dc.lft.to/lastmile_qr_scan"}, "fusion_lon": 0.0, "lat": 38.89910366666667, "bike_id": "9b75d0119060fc98121afd603692ddef", "type": "electric_scooter", "is_reserved": 0, "lon": -76.94586333333334}, {"fusion_lat": 0.0, "name": "ef93292acd38745223da1abedf9a33f3", "is_disabled": 0, "rental_uris": {"android": "https://dc.lft.to/lastmile_qr_scan", "ios": "https://dc.lft.to/lastmile_qr_scan"}, "fusion_lon": 0.0, "lat": 38.92841283333333, "bike_id": "ef93292acd38745223da1abedf9a33f3", "type": "electric_scooter", "is_reserved": 0, "lon": -77.01583433333333}, {"fusion_lat": 0.0, "name": "bf44f75a2206283231e06962e8c23bd9", "is_disabled": 0, "rental_uris": {"android": "https://dc.lft.to/lastmile_qr_scan", "ios": "https://dc.lft.to/lastmile_qr_scan"}, "fusion_lon": 0.0, "lat": 38.93605183333333, "bike_id": "bf44f75a2206283231e06962e8c23bd9", "type": "electric_scooter", "is_reserved": 0, "lon": -77.05857433333334}, {"fusion_lat": 0.0, "name": "f014d9a70da6f4ba9b6e337126187a5f", "is_disabled": 0, "rental_uris": {"android": "https://dc.lft.to/lastmile_qr_scan", "ios": "https://dc.lft.to/lastmile_qr_scan"}, "fusion_lon": 0.0, "lat": 38.907764, "bike_id": "f014d9a70da6f4ba9b6e337126187a5f", "type": "electric_scooter", "is_reserved": 0, "lon": -77.04263916666666}, {"fusion_lat": 0.0, "name": "c0144f91c4f0fb69103fa24c35e7f496", "is_disabled": 0, "rental_uris": {"android": "https://dc.lft.to/lastmile_qr_scan", "ios": "https://dc.lft.to/lastmile_qr_scan"}, "fusion_lon": 0.0, "lat": 38.91093816666667, "bike_id": "c0144f91c4f0fb69103fa24c35e7f496", "type": "electric_scooter", "is_reserved": 0, "lon": -77.04479066666667}, {"fusion_lat": 0.0, "name": "3af87e03aa6e2bddca1ecc054842f98a", "is_disabled": 0, "rental_uris": {"android": "https://dc.lft.to/lastmile_qr_scan", "ios": "https://dc.lft.to/lastmile_qr_scan"}, "fusion_lon": 0.0, "lat": 38.87578283333333, "bike_id": "3af87e03aa6e2bddca1ecc054842f98a", "type": "electric_bike", "is_reserved": 0, "lon": -77.2340945}, {"fusion_lat": 0.0, "name": "2a44be1e774bcb5503e0360345824905", "is_disabled": 0, "rental_uris": {"android": "https://dc.lft.to/lastmile_qr_scan", "ios": "https://dc.lft.to/lastmile_qr_scan"}, "fusion_lon": 0.0, "lat": 38.88712916666667, "bike_id": "2a44be1e774bcb5503e0360345824905", "type": "electric_scooter", "is_reserved": 0, "lon": -77.02180216666666}, {"fusion_lat": 0.0, "name": "75bb0821c409a6ea969b40dc3d28dfb3", "is_disabled": 0, "rental_uris": {"android": "https://dc.lft.to/lastmile_qr_scan", "ios": "https://dc.lft.to/lastmile_qr_scan"}, "fusion_lon": 0.0, "lat": 38.9441125, "bike_id": "75bb0821c409a6ea969b40dc3d28dfb3", "type": "electric_scooter", "is_reserved": 0, "lon": -77.06320433333333}, {"fusion_lat": 0.0, "name": "cb7851897334393acdb5c50a99305747", "is_disabled": 0, "rental_uris": {"android": "https://dc.lft.to/lastmile_qr_scan", "ios": "https://dc.lft.to/lastmile_qr_scan"}, "fusion_lon": 0.0, "lat": 38.911140833333334, "bike_id": "cb7851897334393acdb5c50a99305747", "type": "electric_scooter", "is_reserved": 0, "lon": -77.0327775}, {"fusion_lat": 0.0, "name": "ad3b2bd5d265387f6988fbd2b3ff77e0", "is_disabled": 0, "rental_uris": {"android": "https://dc.lft.to/lastmile_qr_scan", "ios": "https://dc.lft.to/lastmile_qr_scan"}, "fusion_lon": 0.0, "lat": 38.95887333333334, "bike_id": "ad3b2bd5d265387f6988fbd2b3ff77e0", "type": "electric_scooter", "is_reserved": 0, "lon": -77.00282083333333}, {"fusion_lat": 0.0, "name": "5571594cfc737be5c25cd547a31c024b", "is_disabled": 0, "rental_uris": {"android": "https://dc.lft.to/lastmile_qr_scan", "ios": "https://dc.lft.to/lastmile_qr_scan"}, "fusion_lon": 0.0, "lat": 38.900796166666666, "bike_id": "5571594cfc737be5c25cd547a31c024b", "type": "electric_bike", "is_reserved": 0, "lon": -77.039347}, {"fusion_lat": 0.0, "name": "010a347d32fbb96e6d787eb52f016720", "is_disabled": 0, "rental_uris": {"android": "https://dc.lft.to/lastmile_qr_scan", "ios": "https://dc.lft.to/lastmile_qr_scan"}, "fusion_lon": 0.0, "lat": 38.8994025, "bike_id": "010a347d32fbb96e6d787eb52f016720", "type": "electric_scooter", "is_reserved": 0, "lon": -77.02186783333333}, {"fusion_lat": 0.0, "name": "df33f21f26072be099fd83b93ed9015f", "is_disabled": 0, "rental_uris": {"android": "https://dc.lft.to/lastmile_qr_scan", "ios": "https://dc.lft.to/lastmile_qr_scan"}, "fusion_lon": 0.0, "lat": 38.87664433333333, "bike_id": "df33f21f26072be099fd83b93ed9015f", "type": "electric_scooter", "is_reserved": 0, "lon": -77.004667}, {"fusion_lat": 0.0, "name": "c7a87b8f8625b46376bfa5f6eb41243b", "is_disabled": 0, "rental_uris": {"android": "https://dc.lft.to/lastmile_qr_scan", "ios": "https://dc.lft.to/lastmile_qr_scan"}, "fusion_lon": 0.0, "lat": 38.91688966666667, "bike_id": "c7a87b8f8625b46376bfa5f6eb41243b", "type": "electric_scooter", "is_reserved": 0, "lon": -77.025944}, {"fusion_lat": 0.0, "name": "d59e8bcf92a2253b2d185752dd2361cd", "is_disabled": 0, "rental_uris": {"android": "https://dc.lft.to/lastmile_qr_scan", "ios": "https://dc.lft.to/lastmile_qr_scan"}, "fusion_lon": 0.0, "lat": 38.92454516666667, "bike_id": "d59e8bcf92a2253b2d185752dd2361cd", "type": "electric_scooter", "is_reserved": 0, "lon": -77.039772}, {"fusion_lat": 0.0, "name": "ff29e46d4e2b3ff08e5d100ddfd7646b", "is_disabled": 0, "rental_uris": {"android": "https://dc.lft.to/lastmile_qr_scan", "ios": "https://dc.lft.to/lastmile_qr_scan"}, "fusion_lon": 0.0, "lat": 38.921307666666664, "bike_id": "ff29e46d4e2b3ff08e5d100ddfd7646b", "type": "electric_scooter", "is_reserved": 0, "lon": -77.04419933333334}, {"fusion_lat": 0.0, "name": "9b47aca5031328e3bcb396d7b4060787", "is_disabled": 0, "rental_uris": {"android": "https://dc.lft.to/lastmile_qr_scan", "ios": "https://dc.lft.to/lastmile_qr_scan"}, "fusion_lon": 0.0, "lat": 38.906692, "bike_id": "9b47aca5031328e3bcb396d7b4060787", "type": "electric_scooter", "is_reserved": 0, "lon": -77.02706316666666}, {"fusion_lat": 0.0, "name": "4dd80a23ba8675d35527f6780e54a603", "is_disabled": 0, "rental_uris": {"android": "https://dc.lft.to/lastmile_qr_scan", "ios": "https://dc.lft.to/lastmile_qr_scan"}, "fusion_lon": 0.0, "lat": 38.892417, "bike_id": "4dd80a23ba8675d35527f6780e54a603", "type": "electric_scooter", "is_reserved": 0, "lon": -77.03186783333334}, {"fusion_lat": 0.0, "name": "75e21456b87e9362ddf3d748f732d742", "is_disabled": 0, "rental_uris": {"android": "https://dc.lft.to/lastmile_qr_scan", "ios": "https://dc.lft.to/lastmile_qr_scan"}, "fusion_lon": 0.0, "lat": 38.92459916666667, "bike_id": "75e21456b87e9362ddf3d748f732d742", "type": "electric_scooter", "is_reserved": 0, "lon": -76.993302}, {"fusion_lat": 0.0, "name": "e31b699bee176674300a8fda939b65fd", "is_disabled": 0, "rental_uris": {"android": "https://dc.lft.to/lastmile_qr_scan", "ios": "https://dc.lft.to/lastmile_qr_scan"}, "fusion_lon": 0.0, "lat": 38.91026133333333, "bike_id": "e31b699bee176674300a8fda939b65fd", "type": "electric_scooter", "is_reserved": 0, "lon": -77.00758116666667}, {"fusion_lat": 0.0, "name": "9d0b09e9b7b5c5089beffad1dfcf7f71", "is_disabled": 0, "rental_uris": {"android": "https://dc.lft.to/lastmile_qr_scan", "ios": "https://dc.lft.to/lastmile_qr_scan"}, "fusion_lon": 0.0, "lat": 38.9198265, "bike_id": "9d0b09e9b7b5c5089beffad1dfcf7f71", "type": "electric_scooter", "is_reserved": 0, "lon": -77.04082166666667}, {"fusion_lat": 0.0, "name": "d3093e800f24c5a1b578742ad71b7366", "is_disabled": 0, "rental_uris": {"android": "https://dc.lft.to/lastmile_qr_scan", "ios": "https://dc.lft.to/lastmile_qr_scan"}, "fusion_lon": 0.0, "lat": 38.90118433333333, "bike_id": "d3093e800f24c5a1b578742ad71b7366", "type": "electric_scooter", "is_reserved": 0, "lon": -77.01988433333334}, {"fusion_lat": 0.0, "name": "38dc9d79c59c9aa033223085cc86f356", "is_disabled": 0, "rental_uris": {"android": "https://dc.lft.to/lastmile_qr_scan", "ios": "https://dc.lft.to/lastmile_qr_scan"}, "fusion_lon": 0.0, "lat": 38.89220266666667, "bike_id": "38dc9d79c59c9aa033223085cc86f356", "type": "electric_scooter", "is_reserved": 0, "lon": -77.022208}, {"fusion_lat": 0.0, "name": "8c9a2528213d608038cefc74e787dd04", "is_disabled": 0, "rental_uris": {"android": "https://dc.lft.to/lastmile_qr_scan", "ios": "https://dc.lft.to/lastmile_qr_scan"}, "fusion_lon": 0.0, "lat": 38.920652, "bike_id": "8c9a2528213d608038cefc74e787dd04", "type": "electric_scooter", "is_reserved": 0, "lon": -76.99860033333333}, {"fusion_lat": 0.0, "name": "2f5a93ab9dda49c37e7eaa3d378c4199", "is_disabled": 0, "rental_uris": {"android": "https://dc.lft.to/lastmile_qr_scan", "ios": "https://dc.lft.to/lastmile_qr_scan"}, "fusion_lon": 0.0, "lat": 38.91426166666667, "bike_id": "2f5a93ab9dda49c37e7eaa3d378c4199", "type": "electric_scooter", "is_reserved": 0, "lon": -77.0449775}, {"fusion_lat": 0.0, "name": "bac6d0d1bcb1c955a1366880acc1ef41", "is_disabled": 0, "rental_uris": {"android": "https://dc.lft.to/lastmile_qr_scan", "ios": "https://dc.lft.to/lastmile_qr_scan"}, "fusion_lon": 0.0, "lat": 38.86250233333333, "bike_id": "bac6d0d1bcb1c955a1366880acc1ef41", "type": "electric_bike", "is_reserved": 0, "lon": -76.98331333333333}, {"fusion_lat": 0.0, "name": "957df414b1e3e16644435c518c1c91a3", "is_disabled": 0, "rental_uris": {"android": "https://dc.lft.to/lastmile_qr_scan", "ios": "https://dc.lft.to/lastmile_qr_scan"}, "fusion_lon": 0.0, "lat": 38.88874766666667, "bike_id": "957df414b1e3e16644435c518c1c91a3", "type": "electric_scooter", "is_reserved": 0, "lon": -77.02855416666667}, {"fusion_lat": 0.0, "name": "150ff885a4d208d88acbd41d4db0ac10", "is_disabled": 0, "rental_uris": {"android": "https://dc.lft.to/lastmile_qr_scan", "ios": "https://dc.lft.to/lastmile_qr_scan"}, "fusion_lon": 0.0, "lat": 38.85792466666667, "bike_id": "150ff885a4d208d88acbd41d4db0ac10", "type": "electric_bike", "is_reserved": 0, "lon": -76.98725733333333}, {"fusion_lat": 0.0, "name": "b3a0199f691b32de57b8636cfac68a03", "is_disabled": 0, "rental_uris": {"android": "https://dc.lft.to/lastmile_qr_scan", "ios": "https://dc.lft.to/lastmile_qr_scan"}, "fusion_lon": 0.0, "lat": 38.941777, "bike_id": "b3a0199f691b32de57b8636cfac68a03", "type": "electric_scooter", "is_reserved": 0, "lon": -77.03654533333334}, {"fusion_lat": 0.0, "name": "3d8b69c776c50f867455ff6d45e98afe", "is_disabled": 0, "rental_uris": {"android": "https://dc.lft.to/lastmile_qr_scan", "ios": "https://dc.lft.to/lastmile_qr_scan"}, "fusion_lon": 0.0, "lat": 38.923329333333335, "bike_id": "3d8b69c776c50f867455ff6d45e98afe", "type": "electric_scooter", "is_reserved": 0, "lon": -77.03565883333333}, {"fusion_lat": 0.0, "name": "a681b20a5c9dca08a8af306774ad0e43", "is_disabled": 0, "rental_uris": {"android": "https://dc.lft.to/lastmile_qr_scan", "ios": "https://dc.lft.to/lastmile_qr_scan"}, "fusion_lon": 0.0, "lat": 38.917271, "bike_id": "a681b20a5c9dca08a8af306774ad0e43", "type": "electric_scooter", "is_reserved": 0, "lon": -77.00815166666666}, {"fusion_lat": 0.0, "name": "b10b81aba62fbe6c1a3e61c090b85514", "is_disabled": 0, "rental_uris": {"android": "https://dc.lft.to/lastmile_qr_scan", "ios": "https://dc.lft.to/lastmile_qr_scan"}, "fusion_lon": 0.0, "lat": 38.892356, "bike_id": "b10b81aba62fbe6c1a3e61c090b85514", "type": "electric_scooter", "is_reserved": 0, "lon": -77.04891616666667}, {"fusion_lat": 0.0, "name": "43eb546970a7b784ffce15bfafc5e8c8", "is_disabled": 0, "rental_uris": {"android": "https://dc.lft.to/lastmile_qr_scan", "ios": "https://dc.lft.to/lastmile_qr_scan"}, "fusion_lon": 0.0, "lat": 38.9053355, "bike_id": "43eb546970a7b784ffce15bfafc5e8c8", "type": "electric_bike", "is_reserved": 0, "lon": -77.059103}, {"fusion_lat": 0.0, "name": "ec98250c714ba87caa473fa292bc20f6", "is_disabled": 0, "rental_uris": {"android": "https://dc.lft.to/lastmile_qr_scan", "ios": "https://dc.lft.to/lastmile_qr_scan"}, "fusion_lon": 0.0, "lat": 38.87826066666667, "bike_id": "ec98250c714ba87caa473fa292bc20f6", "type": "electric_scooter", "is_reserved": 0, "lon": -77.00127583333334}, {"fusion_lat": 0.0, "name": "d3d138f399e7dd13d422d0778c78a690", "is_disabled": 0, "rental_uris": {"android": "https://dc.lft.to/lastmile_qr_scan", "ios": "https://dc.lft.to/lastmile_qr_scan"}, "fusion_lon": 0.0, "lat": 38.917164666666665, "bike_id": "d3d138f399e7dd13d422d0778c78a690", "type": "electric_scooter", "is_reserved": 0, "lon": -77.031883}, {"fusion_lat": 0.0, "name": "8402d4dc39e590cb091757dd29c0af82", "is_disabled": 0, "rental_uris": {"android": "https://dc.lft.to/lastmile_qr_scan", "ios": "https://dc.lft.to/lastmile_qr_scan"}, "fusion_lon": 0.0, "lat": 38.92809033333333, "bike_id": "8402d4dc39e590cb091757dd29c0af82", "type": "electric_scooter", "is_reserved": 0, "lon": -77.04354766666667}, {"fusion_lat": 0.0, "name": "f420a3451ea40765176131500f047f0c", "is_disabled": 0, "rental_uris": {"android": "https://dc.lft.to/lastmile_qr_scan", "ios": "https://dc.lft.to/lastmile_qr_scan"}, "fusion_lon": 0.0, "lat": 38.91923933333333, "bike_id": "f420a3451ea40765176131500f047f0c", "type": "electric_scooter", "is_reserved": 0, "lon": -77.0319395}, {"fusion_lat": 0.0, "name": "723a1b4d853e810670492425a839f866", "is_disabled": 0, "rental_uris": {"android": "https://dc.lft.to/lastmile_qr_scan", "ios": "https://dc.lft.to/lastmile_qr_scan"}, "fusion_lon": 0.0, "lat": 38.9148455, "bike_id": "723a1b4d853e810670492425a839f866", "type": "electric_scooter", "is_reserved": 0, "lon": -77.02180966666667}, {"fusion_lat": 0.0, "name": "3dcdc9930c3bcddd3a93d4ee0134c5c3", "is_disabled": 0, "rental_uris": {"android": "https://dc.lft.to/lastmile_qr_scan", "ios": "https://dc.lft.to/lastmile_qr_scan"}, "fusion_lon": 0.0, "lat": 38.907772333333334, "bike_id": "3dcdc9930c3bcddd3a93d4ee0134c5c3", "type": "electric_scooter", "is_reserved": 0, "lon": -77.03586533333333}, {"fusion_lat": 0.0, "name": "c5b0b2e575d25b05bee1c7aaaffd1f8f", "is_disabled": 0, "rental_uris": {"android": "https://dc.lft.to/lastmile_qr_scan", "ios": "https://dc.lft.to/lastmile_qr_scan"}, "fusion_lon": 0.0, "lat": 38.91763433333333, "bike_id": "c5b0b2e575d25b05bee1c7aaaffd1f8f", "type": "electric_scooter", "is_reserved": 0, "lon": -77.023029}, {"fusion_lat": 0.0, "name": "fe7bd57675d9b5573f1e5fb2faaffe47", "is_disabled": 0, "rental_uris": {"android": "https://dc.lft.to/lastmile_qr_scan", "ios": "https://dc.lft.to/lastmile_qr_scan"}, "fusion_lon": 0.0, "lat": 38.8491165, "bike_id": "fe7bd57675d9b5573f1e5fb2faaffe47", "type": "electric_bike", "is_reserved": 0, "lon": -77.09978266666667}, {"fusion_lat": 0.0, "name": "9d3527c92b77b433ebb7bcc9c3a64a78", "is_disabled": 0, "rental_uris": {"android": "https://dc.lft.to/lastmile_qr_scan", "ios": "https://dc.lft.to/lastmile_qr_scan"}, "fusion_lon": 0.0, "lat": 38.885805500000004, "bike_id": "9d3527c92b77b433ebb7bcc9c3a64a78", "type": "electric_scooter", "is_reserved": 0, "lon": -76.996076}, {"fusion_lat": 0.0, "name": "fb9ad31fe5b66ba230fe774138a7caf0", "is_disabled": 0, "rental_uris": {"android": "https://dc.lft.to/lastmile_qr_scan", "ios": "https://dc.lft.to/lastmile_qr_scan"}, "fusion_lon": 0.0, "lat": 38.91215033333334, "bike_id": "fb9ad31fe5b66ba230fe774138a7caf0", "type": "electric_scooter", "is_reserved": 0, "lon": -77.03178016666666}, {"fusion_lat": 0.0, "name": "95aa42264abe92c4bd345840c54279dc", "is_disabled": 0, "rental_uris": {"android": "https://dc.lft.to/lastmile_qr_scan", "ios": "https://dc.lft.to/lastmile_qr_scan"}, "fusion_lon": 0.0, "lat": 38.91666516666667, "bike_id": "95aa42264abe92c4bd345840c54279dc", "type": "electric_scooter", "is_reserved": 0, "lon": -77.03855533333333}, {"fusion_lat": 0.0, "name": "6b7ba848f51d2197c708b39e61c6a291", "is_disabled": 0, "rental_uris": {"android": "https://dc.lft.to/lastmile_qr_scan", "ios": "https://dc.lft.to/lastmile_qr_scan"}, "fusion_lon": 0.0, "lat": 38.8651265, "bike_id": "6b7ba848f51d2197c708b39e61c6a291", "type": "electric_bike", "is_reserved": 0, "lon": -76.9732835}, {"fusion_lat": 0.0, "name": "f015c8c89bae5fb7b60c7fe157af0d24", "is_disabled": 0, "rental_uris": {"android": "https://dc.lft.to/lastmile_qr_scan", "ios": "https://dc.lft.to/lastmile_qr_scan"}, "fusion_lon": 0.0, "lat": 38.9170445, "bike_id": "f015c8c89bae5fb7b60c7fe157af0d24", "type": "electric_scooter", "is_reserved": 0, "lon": -77.03865533333334}, {"fusion_lat": 0.0, "name": "14abb3ced221fb77acb75fca83ded6b4", "is_disabled": 0, "rental_uris": {"android": "https://dc.lft.to/lastmile_qr_scan", "ios": "https://dc.lft.to/lastmile_qr_scan"}, "fusion_lon": 0.0, "lat": 38.887418833333335, "bike_id": "14abb3ced221fb77acb75fca83ded6b4", "type": "electric_scooter", "is_reserved": 0, "lon": -77.02225233333333}, {"fusion_lat": 0.0, "name": "6fee976002fe0cac368be4f4f357b7e3", "is_disabled": 0, "rental_uris": {"android": "https://dc.lft.to/lastmile_qr_scan", "ios": "https://dc.lft.to/lastmile_qr_scan"}, "fusion_lon": 0.0, "lat": 38.9132825, "bike_id": "6fee976002fe0cac368be4f4f357b7e3", "type": "electric_scooter", "is_reserved": 0, "lon": -77.01503783333334}, {"fusion_lat": 0.0, "name": "169b152190c3318758b69416fd3c2ba0", "is_disabled": 0, "rental_uris": {"android": "https://dc.lft.to/lastmile_qr_scan", "ios": "https://dc.lft.to/lastmile_qr_scan"}, "fusion_lon": 0.0, "lat": 38.91413583333333, "bike_id": "169b152190c3318758b69416fd3c2ba0", "type": "electric_scooter", "is_reserved": 0, "lon": -77.04073083333333}, {"fusion_lat": 0.0, "name": "ca92e34157fd758d2077713c2c89d1eb", "is_disabled": 0, "rental_uris": {"android": "https://dc.lft.to/lastmile_qr_scan", "ios": "https://dc.lft.to/lastmile_qr_scan"}, "fusion_lon": 0.0, "lat": 38.91768033333334, "bike_id": "ca92e34157fd758d2077713c2c89d1eb", "type": "electric_scooter", "is_reserved": 0, "lon": -77.03638983333333}, {"fusion_lat": 0.0, "name": "36e8477a2e4cd9286c3bd2f950b19791", "is_disabled": 0, "rental_uris": {"android": "https://dc.lft.to/lastmile_qr_scan", "ios": "https://dc.lft.to/lastmile_qr_scan"}, "fusion_lon": 0.0, "lat": 38.90645633333333, "bike_id": "36e8477a2e4cd9286c3bd2f950b19791", "type": "electric_scooter", "is_reserved": 0, "lon": -77.0414485}, {"fusion_lat": 0.0, "name": "534dd52bf2b6fc298e4af5b493ac4187", "is_disabled": 0, "rental_uris": {"android": "https://dc.lft.to/lastmile_qr_scan", "ios": "https://dc.lft.to/lastmile_qr_scan"}, "fusion_lon": 0.0, "lat": 38.9111125, "bike_id": "534dd52bf2b6fc298e4af5b493ac4187", "type": "electric_scooter", "is_reserved": 0, "lon": -77.01389433333334}, {"fusion_lat": 0.0, "name": "989428bff7b098981bb7942842f98ab3", "is_disabled": 0, "rental_uris": {"android": "https://dc.lft.to/lastmile_qr_scan", "ios": "https://dc.lft.to/lastmile_qr_scan"}, "fusion_lon": 0.0, "lat": 38.9008685, "bike_id": "989428bff7b098981bb7942842f98ab3", "type": "electric_scooter", "is_reserved": 0, "lon": -77.02195933333333}, {"fusion_lat": 0.0, "name": "2454a665f9fca30fdf89a325b3ea0f63", "is_disabled": 0, "rental_uris": {"android": "https://dc.lft.to/lastmile_qr_scan", "ios": "https://dc.lft.to/lastmile_qr_scan"}, "fusion_lon": 0.0, "lat": 38.9419595, "bike_id": "2454a665f9fca30fdf89a325b3ea0f63", "type": "electric_scooter", "is_reserved": 0, "lon": -77.02591633333333}, {"fusion_lat": 0.0, "name": "0211bbff9993a2cda30362cd26f8e98a", "is_disabled": 0, "rental_uris": {"android": "https://dc.lft.to/lastmile_qr_scan", "ios": "https://dc.lft.to/lastmile_qr_scan"}, "fusion_lon": 0.0, "lat": 38.90736166666667, "bike_id": "0211bbff9993a2cda30362cd26f8e98a", "type": "electric_scooter", "is_reserved": 0, "lon": -77.028011}, {"fusion_lat": 0.0, "name": "c284123ae5c17a0baab1fcce7f6f0085", "is_disabled": 0, "rental_uris": {"android": "https://dc.lft.to/lastmile_qr_scan", "ios": "https://dc.lft.to/lastmile_qr_scan"}, "fusion_lon": 0.0, "lat": 38.91989683333333, "bike_id": "c284123ae5c17a0baab1fcce7f6f0085", "type": "electric_scooter", "is_reserved": 0, "lon": -77.03274433333333}, {"fusion_lat": 0.0, "name": "3b3381d6526750cea5ae46731db29934", "is_disabled": 0, "rental_uris": {"android": "https://dc.lft.to/lastmile_qr_scan", "ios": "https://dc.lft.to/lastmile_qr_scan"}, "fusion_lon": 0.0, "lat": 38.84506833333333, "bike_id": "3b3381d6526750cea5ae46731db29934", "type": "electric_bike", "is_reserved": 0, "lon": -76.99350033333333}, {"fusion_lat": 0.0, "name": "7a47959da23553688874a8975dfcf90c", "is_disabled": 0, "rental_uris": {"android": "https://dc.lft.to/lastmile_qr_scan", "ios": "https://dc.lft.to/lastmile_qr_scan"}, "fusion_lon": 0.0, "lat": 38.8738245, "bike_id": "7a47959da23553688874a8975dfcf90c", "type": "electric_scooter", "is_reserved": 0, "lon": -77.000688}, {"fusion_lat": 0.0, "name": "854e9382439a3005d7cff59dd6fbe15e", "is_disabled": 0, "rental_uris": {"android": "https://dc.lft.to/lastmile_qr_scan", "ios": "https://dc.lft.to/lastmile_qr_scan"}, "fusion_lon": 0.0, "lat": 38.909771, "bike_id": "854e9382439a3005d7cff59dd6fbe15e", "type": "electric_scooter", "is_reserved": 0, "lon": -77.034513}, {"fusion_lat": 0.0, "name": "ca6be2e6f012ed7282f7fb69a922d089", "is_disabled": 0, "rental_uris": {"android": "https://dc.lft.to/lastmile_qr_scan", "ios": "https://dc.lft.to/lastmile_qr_scan"}, "fusion_lon": 0.0, "lat": 38.8947275, "bike_id": "ca6be2e6f012ed7282f7fb69a922d089", "type": "electric_scooter", "is_reserved": 0, "lon": -77.017675}, {"fusion_lat": 0.0, "name": "a84e20a4987a22b7425e82923b630cbf", "is_disabled": 0, "rental_uris": {"android": "https://dc.lft.to/lastmile_qr_scan", "ios": "https://dc.lft.to/lastmile_qr_scan"}, "fusion_lon": 0.0, "lat": 38.887434, "bike_id": "a84e20a4987a22b7425e82923b630cbf", "type": "electric_scooter", "is_reserved": 0, "lon": -77.02227016666667}, {"fusion_lat": 0.0, "name": "d92025cb8e04b4d9c205e3d205d844f8", "is_disabled": 0, "rental_uris": {"android": "https://dc.lft.to/lastmile_qr_scan", "ios": "https://dc.lft.to/lastmile_qr_scan"}, "fusion_lon": 0.0, "lat": 38.923331, "bike_id": "d92025cb8e04b4d9c205e3d205d844f8", "type": "electric_scooter", "is_reserved": 0, "lon": -77.03614683333333}, {"fusion_lat": 0.0, "name": "773d60b3677f08b6eaab316c4abe3409", "is_disabled": 0, "rental_uris": {"android": "https://dc.lft.to/lastmile_qr_scan", "ios": "https://dc.lft.to/lastmile_qr_scan"}, "fusion_lon": 0.0, "lat": 38.90767433333333, "bike_id": "773d60b3677f08b6eaab316c4abe3409", "type": "electric_scooter", "is_reserved": 0, "lon": -77.0358355}, {"fusion_lat": 0.0, "name": "abcedd841cac33b3f2405abfe98eb7ec", "is_disabled": 0, "rental_uris": {"android": "https://dc.lft.to/lastmile_qr_scan", "ios": "https://dc.lft.to/lastmile_qr_scan"}, "fusion_lon": 0.0, "lat": 38.93531766666667, "bike_id": "abcedd841cac33b3f2405abfe98eb7ec", "type": "electric_scooter", "is_reserved": 0, "lon": -77.02339316666666}, {"fusion_lat": 0.0, "name": "7aa4e50078514b62e26d3e4517ed37bb", "is_disabled": 0, "rental_uris": {"android": "https://dc.lft.to/lastmile_qr_scan", "ios": "https://dc.lft.to/lastmile_qr_scan"}, "fusion_lon": 0.0, "lat": 38.905094, "bike_id": "7aa4e50078514b62e26d3e4517ed37bb", "type": "electric_scooter", "is_reserved": 0, "lon": -77.04841033333334}, {"fusion_lat": 0.0, "name": "b33d44b3ded195061bc098c295086307", "is_disabled": 0, "rental_uris": {"android": "https://dc.lft.to/lastmile_qr_scan", "ios": "https://dc.lft.to/lastmile_qr_scan"}, "fusion_lon": 0.0, "lat": 38.89279116666667, "bike_id": "b33d44b3ded195061bc098c295086307", "type": "electric_scooter", "is_reserved": 0, "lon": -77.0319865}, {"fusion_lat": 0.0, "name": "e3c3bba47f26c0fa0ca38f050e9b390c", "is_disabled": 0, "rental_uris": {"android": "https://dc.lft.to/lastmile_qr_scan", "ios": "https://dc.lft.to/lastmile_qr_scan"}, "fusion_lon": 0.0, "lat": 38.9314585, "bike_id": "e3c3bba47f26c0fa0ca38f050e9b390c", "type": "electric_scooter", "is_reserved": 0, "lon": -77.02140383333334}, {"fusion_lat": 0.0, "name": "132393611bc77ac5e384a24a713b952f", "is_disabled": 0, "rental_uris": {"android": "https://dc.lft.to/lastmile_qr_scan", "ios": "https://dc.lft.to/lastmile_qr_scan"}, "fusion_lon": 0.0, "lat": 38.922967166666666, "bike_id": "132393611bc77ac5e384a24a713b952f", "type": "electric_scooter", "is_reserved": 0, "lon": -77.0420785}, {"fusion_lat": 0.0, "name": "9bdefae1c8303606012b2985da1c13fc", "is_disabled": 0, "rental_uris": {"android": "https://dc.lft.to/lastmile_qr_scan", "ios": "https://dc.lft.to/lastmile_qr_scan"}, "fusion_lon": 0.0, "lat": 38.902422, "bike_id": "9bdefae1c8303606012b2985da1c13fc", "type": "electric_scooter", "is_reserved": 0, "lon": -77.00198266666666}, {"fusion_lat": 0.0, "name": "1100f034b9f6b19a818708284d29e658", "is_disabled": 0, "rental_uris": {"android": "https://dc.lft.to/lastmile_qr_scan", "ios": "https://dc.lft.to/lastmile_qr_scan"}, "fusion_lon": 0.0, "lat": 38.926506833333335, "bike_id": "1100f034b9f6b19a818708284d29e658", "type": "electric_scooter", "is_reserved": 0, "lon": -77.04138266666666}, {"fusion_lat": 0.0, "name": "5aa79a410631a7a8cd68a3ac91047a56", "is_disabled": 0, "rental_uris": {"android": "https://dc.lft.to/lastmile_qr_scan", "ios": "https://dc.lft.to/lastmile_qr_scan"}, "fusion_lon": 0.0, "lat": 38.93999, "bike_id": "5aa79a410631a7a8cd68a3ac91047a56", "type": "electric_scooter", "is_reserved": 0, "lon": -77.0842615}, {"fusion_lat": 0.0, "name": "bacbc817c82a04da26d75fc16b4f7626", "is_disabled": 0, "rental_uris": {"android": "https://dc.lft.to/lastmile_qr_scan", "ios": "https://dc.lft.to/lastmile_qr_scan"}, "fusion_lon": 0.0, "lat": 38.942711, "bike_id": "bacbc817c82a04da26d75fc16b4f7626", "type": "electric_scooter", "is_reserved": 0, "lon": -77.03255183333333}, {"fusion_lat": 0.0, "name": "24cb12e90cd95d55ede2ba1c56bba3d1", "is_disabled": 0, "rental_uris": {"android": "https://dc.lft.to/lastmile_qr_scan", "ios": "https://dc.lft.to/lastmile_qr_scan"}, "fusion_lon": 0.0, "lat": 38.906789833333335, "bike_id": "24cb12e90cd95d55ede2ba1c56bba3d1", "type": "electric_scooter", "is_reserved": 0, "lon": -77.07211616666666}, {"fusion_lat": 0.0, "name": "2876f1765af2764ce7d5141196b539aa", "is_disabled": 0, "rental_uris": {"android": "https://dc.lft.to/lastmile_qr_scan", "ios": "https://dc.lft.to/lastmile_qr_scan"}, "fusion_lon": 0.0, "lat": 38.8922565, "bike_id": "2876f1765af2764ce7d5141196b539aa", "type": "electric_scooter", "is_reserved": 0, "lon": -77.043187}, {"fusion_lat": 0.0, "name": "2791a43ce4abd4903c073800fa80ce7f", "is_disabled": 0, "rental_uris": {"android": "https://dc.lft.to/lastmile_qr_scan", "ios": "https://dc.lft.to/lastmile_qr_scan"}, "fusion_lon": 0.0, "lat": 38.902339833333336, "bike_id": "2791a43ce4abd4903c073800fa80ce7f", "type": "electric_scooter", "is_reserved": 0, "lon": -77.04337866666667}, {"fusion_lat": 0.0, "name": "d429ebddf237e8ac9ee14f3937797024", "is_disabled": 0, "rental_uris": {"android": "https://dc.lft.to/lastmile_qr_scan", "ios": "https://dc.lft.to/lastmile_qr_scan"}, "fusion_lon": 0.0, "lat": 38.91266733333333, "bike_id": "d429ebddf237e8ac9ee14f3937797024", "type": "electric_scooter", "is_reserved": 0, "lon": -77.0383085}, {"fusion_lat": 0.0, "name": "38585f4124c65d9e97a446360b0fe3cc", "is_disabled": 0, "rental_uris": {"android": "https://dc.lft.to/lastmile_qr_scan", "ios": "https://dc.lft.to/lastmile_qr_scan"}, "fusion_lon": 0.0, "lat": 38.835115, "bike_id": "38585f4124c65d9e97a446360b0fe3cc", "type": "electric_bike", "is_reserved": 0, "lon": -76.98678733333334}, {"fusion_lat": 0.0, "name": "be129094e1b53aa49402435041ef065f", "is_disabled": 0, "rental_uris": {"android": "https://dc.lft.to/lastmile_qr_scan", "ios": "https://dc.lft.to/lastmile_qr_scan"}, "fusion_lon": 0.0, "lat": 38.929289, "bike_id": "be129094e1b53aa49402435041ef065f", "type": "electric_scooter", "is_reserved": 0, "lon": -77.032753}, {"fusion_lat": 0.0, "name": "0c9ff498ee1307346a60a0fe6acaf5b3", "is_disabled": 0, "rental_uris": {"android": "https://dc.lft.to/lastmile_qr_scan", "ios": "https://dc.lft.to/lastmile_qr_scan"}, "fusion_lon": 0.0, "lat": 38.9006245, "bike_id": "0c9ff498ee1307346a60a0fe6acaf5b3", "type": "electric_scooter", "is_reserved": 0, "lon": -76.93388233333333}, {"fusion_lat": 0.0, "name": "ef164fc4fa188c7deddd94ab3844739c", "is_disabled": 0, "rental_uris": {"android": "https://dc.lft.to/lastmile_qr_scan", "ios": "https://dc.lft.to/lastmile_qr_scan"}, "fusion_lon": 0.0, "lat": 38.91551333333334, "bike_id": "ef164fc4fa188c7deddd94ab3844739c", "type": "electric_scooter", "is_reserved": 0, "lon": -77.01129883333333}, {"fusion_lat": 0.0, "name": "fb61890b8d20e7a6fea8c423c44cb342", "is_disabled": 0, "rental_uris": {"android": "https://dc.lft.to/lastmile_qr_scan", "ios": "https://dc.lft.to/lastmile_qr_scan"}, "fusion_lon": 0.0, "lat": 38.9072365, "bike_id": "fb61890b8d20e7a6fea8c423c44cb342", "type": "electric_scooter", "is_reserved": 0, "lon": -77.07604716666667}, {"fusion_lat": 0.0, "name": "711985001bce2fba3cfff03cf73be185", "is_disabled": 0, "rental_uris": {"android": "https://dc.lft.to/lastmile_qr_scan", "ios": "https://dc.lft.to/lastmile_qr_scan"}, "fusion_lon": 0.0, "lat": 38.9199645, "bike_id": "711985001bce2fba3cfff03cf73be185", "type": "electric_scooter", "is_reserved": 0, "lon": -77.023875}, {"fusion_lat": 0.0, "name": "a810ea7773f29165a5e15eba1a4296dc", "is_disabled": 0, "rental_uris": {"android": "https://dc.lft.to/lastmile_qr_scan", "ios": "https://dc.lft.to/lastmile_qr_scan"}, "fusion_lon": 0.0, "lat": 38.907360833333335, "bike_id": "a810ea7773f29165a5e15eba1a4296dc", "type": "electric_scooter", "is_reserved": 0, "lon": -77.043403}, {"fusion_lat": 0.0, "name": "cd14a8f7d20fa7c001d7ab11200fdf82", "is_disabled": 0, "rental_uris": {"android": "https://dc.lft.to/lastmile_qr_scan", "ios": "https://dc.lft.to/lastmile_qr_scan"}, "fusion_lon": 0.0, "lat": 38.907154166666665, "bike_id": "cd14a8f7d20fa7c001d7ab11200fdf82", "type": "electric_scooter", "is_reserved": 0, "lon": -77.03440783333333}, {"fusion_lat": 0.0, "name": "a560b9c1dcb7ce3e303c4d4ae03b7781", "is_disabled": 0, "rental_uris": {"android": "https://dc.lft.to/lastmile_qr_scan", "ios": "https://dc.lft.to/lastmile_qr_scan"}, "fusion_lon": 0.0, "lat": 38.90731616666667, "bike_id": "a560b9c1dcb7ce3e303c4d4ae03b7781", "type": "electric_scooter", "is_reserved": 0, "lon": -77.04335483333334}, {"fusion_lat": 0.0, "name": "405aa6eeac8d1ad8e5877a7020303705", "is_disabled": 0, "rental_uris": {"android": "https://dc.lft.to/lastmile_qr_scan", "ios": "https://dc.lft.to/lastmile_qr_scan"}, "fusion_lon": 0.0, "lat": 38.9006065, "bike_id": "405aa6eeac8d1ad8e5877a7020303705", "type": "electric_scooter", "is_reserved": 0, "lon": -77.0418065}, {"fusion_lat": 0.0, "name": "3e5e0fa3685b89f8fc857722d66f9fb7", "is_disabled": 0, "rental_uris": {"android": "https://dc.lft.to/lastmile_qr_scan", "ios": "https://dc.lft.to/lastmile_qr_scan"}, "fusion_lon": 0.0, "lat": 38.91843633333333, "bike_id": "3e5e0fa3685b89f8fc857722d66f9fb7", "type": "electric_scooter", "is_reserved": 0, "lon": -77.02298866666666}, {"fusion_lat": 0.0, "name": "92e91ab8d83d56a34b6c256702934e63", "is_disabled": 0, "rental_uris": {"android": "https://dc.lft.to/lastmile_qr_scan", "ios": "https://dc.lft.to/lastmile_qr_scan"}, "fusion_lon": 0.0, "lat": 38.935034, "bike_id": "92e91ab8d83d56a34b6c256702934e63", "type": "electric_scooter", "is_reserved": 0, "lon": -77.03636066666667}, {"fusion_lat": 0.0, "name": "765ccd886c21fa080826febecf3c3be5", "is_disabled": 0, "rental_uris": {"android": "https://dc.lft.to/lastmile_qr_scan", "ios": "https://dc.lft.to/lastmile_qr_scan"}, "fusion_lon": 0.0, "lat": 38.92398083333333, "bike_id": "765ccd886c21fa080826febecf3c3be5", "type": "electric_scooter", "is_reserved": 0, "lon": -77.02052633333334}, {"fusion_lat": 0.0, "name": "770f48faa9ecc6937ac62c8d14c9de72", "is_disabled": 0, "rental_uris": {"android": "https://dc.lft.to/lastmile_qr_scan", "ios": "https://dc.lft.to/lastmile_qr_scan"}, "fusion_lon": 0.0, "lat": 38.89232483333333, "bike_id": "770f48faa9ecc6937ac62c8d14c9de72", "type": "electric_scooter", "is_reserved": 0, "lon": -77.0251085}, {"fusion_lat": 0.0, "name": "25239e9f5aaef7e3798e2f40bc6f4e30", "is_disabled": 0, "rental_uris": {"android": "https://dc.lft.to/lastmile_qr_scan", "ios": "https://dc.lft.to/lastmile_qr_scan"}, "fusion_lon": 0.0, "lat": 38.9207395, "bike_id": "25239e9f5aaef7e3798e2f40bc6f4e30", "type": "electric_scooter", "is_reserved": 0, "lon": -77.01393483333334}, {"fusion_lat": 0.0, "name": "d70ba5bdb3cfb07bd0a8d0af9ae17396", "is_disabled": 0, "rental_uris": {"android": "https://dc.lft.to/lastmile_qr_scan", "ios": "https://dc.lft.to/lastmile_qr_scan"}, "fusion_lon": 0.0, "lat": 38.934661, "bike_id": "d70ba5bdb3cfb07bd0a8d0af9ae17396", "type": "electric_scooter", "is_reserved": 0, "lon": -77.072133}, {"fusion_lat": 0.0, "name": "11a805bb4046b5227a93a98c21dc2426", "is_disabled": 0, "rental_uris": {"android": "https://dc.lft.to/lastmile_qr_scan", "ios": "https://dc.lft.to/lastmile_qr_scan"}, "fusion_lon": 0.0, "lat": 38.90088733333333, "bike_id": "11a805bb4046b5227a93a98c21dc2426", "type": "electric_scooter", "is_reserved": 0, "lon": -76.98329633333333}, {"fusion_lat": 0.0, "name": "40bffc98b227720f8ad1ea9be2ea6bd1", "is_disabled": 0, "rental_uris": {"android": "https://dc.lft.to/lastmile_qr_scan", "ios": "https://dc.lft.to/lastmile_qr_scan"}, "fusion_lon": 0.0, "lat": 38.901296333333335, "bike_id": "40bffc98b227720f8ad1ea9be2ea6bd1", "type": "electric_scooter", "is_reserved": 0, "lon": -77.04180683333334}, {"fusion_lat": 0.0, "name": "2364113d7f27a58e54e143993f01158a", "is_disabled": 0, "rental_uris": {"android": "https://dc.lft.to/lastmile_qr_scan", "ios": "https://dc.lft.to/lastmile_qr_scan"}, "fusion_lon": 0.0, "lat": 38.902145, "bike_id": "2364113d7f27a58e54e143993f01158a", "type": "electric_scooter", "is_reserved": 0, "lon": -77.04553933333334}, {"fusion_lat": 0.0, "name": "0130fb827a5381ab86c89b9bae57a563", "is_disabled": 0, "rental_uris": {"android": "https://dc.lft.to/lastmile_qr_scan", "ios": "https://dc.lft.to/lastmile_qr_scan"}, "fusion_lon": 0.0, "lat": 38.85322033333333, "bike_id": "0130fb827a5381ab86c89b9bae57a563", "type": "electric_scooter", "is_reserved": 0, "lon": -76.98008433333334}, {"fusion_lat": 0.0, "name": "58ff4c0134a515850476dd4d7e5e4973", "is_disabled": 0, "rental_uris": {"android": "https://dc.lft.to/lastmile_qr_scan", "ios": "https://dc.lft.to/lastmile_qr_scan"}, "fusion_lon": 0.0, "lat": 38.911295333333335, "bike_id": "58ff4c0134a515850476dd4d7e5e4973", "type": "electric_scooter", "is_reserved": 0, "lon": -77.05269183333333}, {"fusion_lat": 0.0, "name": "1c2acedf947b4587f765e1373d85ee5c", "is_disabled": 0, "rental_uris": {"android": "https://dc.lft.to/lastmile_qr_scan", "ios": "https://dc.lft.to/lastmile_qr_scan"}, "fusion_lon": 0.0, "lat": 38.905795833333336, "bike_id": "1c2acedf947b4587f765e1373d85ee5c", "type": "electric_scooter", "is_reserved": 0, "lon": -77.02205016666667}, {"fusion_lat": 0.0, "name": "46f5ae624c4b40f9b59732a31f986f7e", "is_disabled": 0, "rental_uris": {"android": "https://dc.lft.to/lastmile_qr_scan", "ios": "https://dc.lft.to/lastmile_qr_scan"}, "fusion_lon": 0.0, "lat": 38.91743066666667, "bike_id": "46f5ae624c4b40f9b59732a31f986f7e", "type": "electric_scooter", "is_reserved": 0, "lon": -76.97571166666667}, {"fusion_lat": 0.0, "name": "ada502430f3d5c99f215ec3c75ce593f", "is_disabled": 0, "rental_uris": {"android": "https://dc.lft.to/lastmile_qr_scan", "ios": "https://dc.lft.to/lastmile_qr_scan"}, "fusion_lon": 0.0, "lat": 38.9231915, "bike_id": "ada502430f3d5c99f215ec3c75ce593f", "type": "electric_scooter", "is_reserved": 0, "lon": -77.04045}, {"fusion_lat": 0.0, "name": "b7caa845c31041a38ff8d64a85d9cc05", "is_disabled": 0, "rental_uris": {"android": "https://dc.lft.to/lastmile_qr_scan", "ios": "https://dc.lft.to/lastmile_qr_scan"}, "fusion_lon": 0.0, "lat": 38.93177166666667, "bike_id": "b7caa845c31041a38ff8d64a85d9cc05", "type": "electric_scooter", "is_reserved": 0, "lon": -77.02001583333333}, {"fusion_lat": 0.0, "name": "562aab74068723053e8fdde91afac1c7", "is_disabled": 0, "rental_uris": {"android": "https://dc.lft.to/lastmile_qr_scan", "ios": "https://dc.lft.to/lastmile_qr_scan"}, "fusion_lon": 0.0, "lat": 38.9234085, "bike_id": "562aab74068723053e8fdde91afac1c7", "type": "electric_scooter", "is_reserved": 0, "lon": -77.0521825}, {"fusion_lat": 0.0, "name": "b76f32da59231308704737ba854c66c5", "is_disabled": 0, "rental_uris": {"android": "https://dc.lft.to/lastmile_qr_scan", "ios": "https://dc.lft.to/lastmile_qr_scan"}, "fusion_lon": 0.0, "lat": 38.903532166666665, "bike_id": "b76f32da59231308704737ba854c66c5", "type": "electric_scooter", "is_reserved": 0, "lon": -76.97477133333334}, {"fusion_lat": 0.0, "name": "c72762095ea7581ba574668b92ed825d", "is_disabled": 0, "rental_uris": {"android": "https://dc.lft.to/lastmile_qr_scan", "ios": "https://dc.lft.to/lastmile_qr_scan"}, "fusion_lon": 0.0, "lat": 38.917767833333336, "bike_id": "c72762095ea7581ba574668b92ed825d", "type": "electric_scooter", "is_reserved": 0, "lon": -77.02312616666667}, {"fusion_lat": 0.0, "name": "3934b0c23a5f752b4dd2c6102aaa6c89", "is_disabled": 0, "rental_uris": {"android": "https://dc.lft.to/lastmile_qr_scan", "ios": "https://dc.lft.to/lastmile_qr_scan"}, "fusion_lon": 0.0, "lat": 38.90791733333333, "bike_id": "3934b0c23a5f752b4dd2c6102aaa6c89", "type": "electric_scooter", "is_reserved": 0, "lon": -77.0423875}, {"fusion_lat": 0.0, "name": "420769208ee20b5eae34fac64d097b60", "is_disabled": 0, "rental_uris": {"android": "https://dc.lft.to/lastmile_qr_scan", "ios": "https://dc.lft.to/lastmile_qr_scan"}, "fusion_lon": 0.0, "lat": 38.887353, "bike_id": "420769208ee20b5eae34fac64d097b60", "type": "electric_scooter", "is_reserved": 0, "lon": -77.0151175}, {"fusion_lat": 0.0, "name": "d35cb793ebc86653ab5c0913e7de4d54", "is_disabled": 0, "rental_uris": {"android": "https://dc.lft.to/lastmile_qr_scan", "ios": "https://dc.lft.to/lastmile_qr_scan"}, "fusion_lon": 0.0, "lat": 38.924673166666665, "bike_id": "d35cb793ebc86653ab5c0913e7de4d54", "type": "electric_scooter", "is_reserved": 0, "lon": -77.0207025}, {"fusion_lat": 0.0, "name": "7bbaa3cb78d7783bc43c155910fe6a73", "is_disabled": 0, "rental_uris": {"android": "https://dc.lft.to/lastmile_qr_scan", "ios": "https://dc.lft.to/lastmile_qr_scan"}, "fusion_lon": 0.0, "lat": 38.930869666666666, "bike_id": "7bbaa3cb78d7783bc43c155910fe6a73", "type": "electric_scooter", "is_reserved": 0, "lon": -77.02003983333333}, {"fusion_lat": 0.0, "name": "2a14af29bac7c9bbb8e851cbd3e97539", "is_disabled": 0, "rental_uris": {"android": "https://dc.lft.to/lastmile_qr_scan", "ios": "https://dc.lft.to/lastmile_qr_scan"}, "fusion_lon": 0.0, "lat": 38.93461533333333, "bike_id": "2a14af29bac7c9bbb8e851cbd3e97539", "type": "electric_scooter", "is_reserved": 0, "lon": -77.04113016666666}, {"fusion_lat": 0.0, "name": "5b22a95d4190b0b67fbb687d5cdc161d", "is_disabled": 0, "rental_uris": {"android": "https://dc.lft.to/lastmile_qr_scan", "ios": "https://dc.lft.to/lastmile_qr_scan"}, "fusion_lon": 0.0, "lat": 38.901038666666665, "bike_id": "5b22a95d4190b0b67fbb687d5cdc161d", "type": "electric_scooter", "is_reserved": 0, "lon": -76.93042783333334}, {"fusion_lat": 0.0, "name": "84d1755304baa7d5b793b21e7992ec15", "is_disabled": 0, "rental_uris": {"android": "https://dc.lft.to/lastmile_qr_scan", "ios": "https://dc.lft.to/lastmile_qr_scan"}, "fusion_lon": 0.0, "lat": 38.91179566666667, "bike_id": "84d1755304baa7d5b793b21e7992ec15", "type": "electric_scooter", "is_reserved": 0, "lon": -77.029532}, {"fusion_lat": 0.0, "name": "2448d8ee6766286c668e1bd46de38640", "is_disabled": 0, "rental_uris": {"android": "https://dc.lft.to/lastmile_qr_scan", "ios": "https://dc.lft.to/lastmile_qr_scan"}, "fusion_lon": 0.0, "lat": 38.897003, "bike_id": "2448d8ee6766286c668e1bd46de38640", "type": "electric_scooter", "is_reserved": 0, "lon": -77.0245075}, {"fusion_lat": 0.0, "name": "01bf7bf22dc0d41cf4c9039ed49a5b8d", "is_disabled": 0, "rental_uris": {"android": "https://dc.lft.to/lastmile_qr_scan", "ios": "https://dc.lft.to/lastmile_qr_scan"}, "fusion_lon": 0.0, "lat": 38.904001666666666, "bike_id": "01bf7bf22dc0d41cf4c9039ed49a5b8d", "type": "electric_scooter", "is_reserved": 0, "lon": -77.01763783333334}, {"fusion_lat": 0.0, "name": "5ce66276f26f1457c7f8e5c168354f90", "is_disabled": 0, "rental_uris": {"android": "https://dc.lft.to/lastmile_qr_scan", "ios": "https://dc.lft.to/lastmile_qr_scan"}, "fusion_lon": 0.0, "lat": 38.899756833333335, "bike_id": "5ce66276f26f1457c7f8e5c168354f90", "type": "electric_scooter", "is_reserved": 0, "lon": -77.05268333333333}, {"fusion_lat": 0.0, "name": "b417c41033ed05f4d8bd4b04a89d1cd9", "is_disabled": 0, "rental_uris": {"android": "https://dc.lft.to/lastmile_qr_scan", "ios": "https://dc.lft.to/lastmile_qr_scan"}, "fusion_lon": 0.0, "lat": 38.90245316666667, "bike_id": "b417c41033ed05f4d8bd4b04a89d1cd9", "type": "electric_scooter", "is_reserved": 0, "lon": -77.06333866666667}, {"fusion_lat": 0.0, "name": "e41d73589fc47be29225a64db2e13937", "is_disabled": 0, "rental_uris": {"android": "https://dc.lft.to/lastmile_qr_scan", "ios": "https://dc.lft.to/lastmile_qr_scan"}, "fusion_lon": 0.0, "lat": 38.918952, "bike_id": "e41d73589fc47be29225a64db2e13937", "type": "electric_scooter", "is_reserved": 0, "lon": -77.00043283333333}, {"fusion_lat": 0.0, "name": "bc12b22dc46ebf88d07dd240cb916752", "is_disabled": 0, "rental_uris": {"android": "https://dc.lft.to/lastmile_qr_scan", "ios": "https://dc.lft.to/lastmile_qr_scan"}, "fusion_lon": 0.0, "lat": 38.9666575, "bike_id": "bc12b22dc46ebf88d07dd240cb916752", "type": "electric_scooter", "is_reserved": 0, "lon": -77.02548183333333}, {"fusion_lat": 0.0, "name": "e8ad475297e6120d3fad22e7c174034e", "is_disabled": 0, "rental_uris": {"android": "https://dc.lft.to/lastmile_qr_scan", "ios": "https://dc.lft.to/lastmile_qr_scan"}, "fusion_lon": 0.0, "lat": 38.89197216666667, "bike_id": "e8ad475297e6120d3fad22e7c174034e", "type": "electric_scooter", "is_reserved": 0, "lon": -77.0226115}, {"fusion_lat": 0.0, "name": "7895fd733a314c472506d54da83fac2c", "is_disabled": 0, "rental_uris": {"android": "https://dc.lft.to/lastmile_qr_scan", "ios": "https://dc.lft.to/lastmile_qr_scan"}, "fusion_lon": 0.0, "lat": 38.915348333333334, "bike_id": "7895fd733a314c472506d54da83fac2c", "type": "electric_scooter", "is_reserved": 0, "lon": -77.012206}, {"fusion_lat": 0.0, "name": "f8bb209131d50244e0d307edf2531929", "is_disabled": 0, "rental_uris": {"android": "https://dc.lft.to/lastmile_qr_scan", "ios": "https://dc.lft.to/lastmile_qr_scan"}, "fusion_lon": 0.0, "lat": 38.88988766666667, "bike_id": "f8bb209131d50244e0d307edf2531929", "type": "electric_scooter", "is_reserved": 0, "lon": -76.992464}, {"fusion_lat": 0.0, "name": "0fa920cd474d81b284a3877cbcafce73", "is_disabled": 0, "rental_uris": {"android": "https://dc.lft.to/lastmile_qr_scan", "ios": "https://dc.lft.to/lastmile_qr_scan"}, "fusion_lon": 0.0, "lat": 38.90561116666667, "bike_id": "0fa920cd474d81b284a3877cbcafce73", "type": "electric_scooter", "is_reserved": 0, "lon": -77.04665433333334}, {"fusion_lat": 0.0, "name": "25469cb17291f56b7bb50d3042cc751f", "is_disabled": 0, "rental_uris": {"android": "https://dc.lft.to/lastmile_qr_scan", "ios": "https://dc.lft.to/lastmile_qr_scan"}, "fusion_lon": 0.0, "lat": 38.902145833333336, "bike_id": "25469cb17291f56b7bb50d3042cc751f", "type": "electric_scooter", "is_reserved": 0, "lon": -77.01881066666667}, {"fusion_lat": 0.0, "name": "6ed068859b26a017a3bad562f417d206", "is_disabled": 0, "rental_uris": {"android": "https://dc.lft.to/lastmile_qr_scan", "ios": "https://dc.lft.to/lastmile_qr_scan"}, "fusion_lon": 0.0, "lat": 38.85354016666667, "bike_id": "6ed068859b26a017a3bad562f417d206", "type": "electric_bike", "is_reserved": 0, "lon": -77.13466}, {"fusion_lat": 0.0, "name": "5a4cc484baa8ec5a0f861e68dbef6901", "is_disabled": 0, "rental_uris": {"android": "https://dc.lft.to/lastmile_qr_scan", "ios": "https://dc.lft.to/lastmile_qr_scan"}, "fusion_lon": 0.0, "lat": 38.925517666666664, "bike_id": "5a4cc484baa8ec5a0f861e68dbef6901", "type": "electric_scooter", "is_reserved": 0, "lon": -77.0333475}, {"fusion_lat": 0.0, "name": "2fbc5e05442421f1ef566d1bc6ad8e62", "is_disabled": 0, "rental_uris": {"android": "https://dc.lft.to/lastmile_qr_scan", "ios": "https://dc.lft.to/lastmile_qr_scan"}, "fusion_lon": 0.0, "lat": 38.912562, "bike_id": "2fbc5e05442421f1ef566d1bc6ad8e62", "type": "electric_scooter", "is_reserved": 0, "lon": -77.038639}, {"fusion_lat": 0.0, "name": "26efe7fe13d47a760f9967baaf27e74c", "is_disabled": 0, "rental_uris": {"android": "https://dc.lft.to/lastmile_qr_scan", "ios": "https://dc.lft.to/lastmile_qr_scan"}, "fusion_lon": 0.0, "lat": 38.892200333333335, "bike_id": "26efe7fe13d47a760f9967baaf27e74c", "type": "electric_scooter", "is_reserved": 0, "lon": -77.04120833333333}, {"fusion_lat": 0.0, "name": "0ded62a485b36adfa66d8cbf52b64bbe", "is_disabled": 0, "rental_uris": {"android": "https://dc.lft.to/lastmile_qr_scan", "ios": "https://dc.lft.to/lastmile_qr_scan"}, "fusion_lon": 0.0, "lat": 38.91437833333333, "bike_id": "0ded62a485b36adfa66d8cbf52b64bbe", "type": "electric_scooter", "is_reserved": 0, "lon": -77.01216683333334}, {"fusion_lat": 0.0, "name": "ee4747e6c475ebe45fb28cfcfcd0660e", "is_disabled": 0, "rental_uris": {"android": "https://dc.lft.to/lastmile_qr_scan", "ios": "https://dc.lft.to/lastmile_qr_scan"}, "fusion_lon": 0.0, "lat": 38.8475645, "bike_id": "ee4747e6c475ebe45fb28cfcfcd0660e", "type": "electric_scooter", "is_reserved": 0, "lon": -76.99502983333333}, {"fusion_lat": 0.0, "name": "9d6fd917c350be91b3e093dbb3e0eacc", "is_disabled": 0, "rental_uris": {"android": "https://dc.lft.to/lastmile_qr_scan", "ios": "https://dc.lft.to/lastmile_qr_scan"}, "fusion_lon": 0.0, "lat": 38.91487016666667, "bike_id": "9d6fd917c350be91b3e093dbb3e0eacc", "type": "electric_scooter", "is_reserved": 0, "lon": -77.021816}, {"fusion_lat": 0.0, "name": "966ebac74c20a3310c76e9adbf7ba5dd", "is_disabled": 0, "rental_uris": {"android": "https://dc.lft.to/lastmile_qr_scan", "ios": "https://dc.lft.to/lastmile_qr_scan"}, "fusion_lon": 0.0, "lat": 38.87502383333333, "bike_id": "966ebac74c20a3310c76e9adbf7ba5dd", "type": "electric_scooter", "is_reserved": 0, "lon": -77.00017666666666}, {"fusion_lat": 0.0, "name": "abf43420d6fc4388993146d1027fc544", "is_disabled": 0, "rental_uris": {"android": "https://dc.lft.to/lastmile_qr_scan", "ios": "https://dc.lft.to/lastmile_qr_scan"}, "fusion_lon": 0.0, "lat": 38.915971666666664, "bike_id": "abf43420d6fc4388993146d1027fc544", "type": "electric_scooter", "is_reserved": 0, "lon": -76.99362516666666}, {"fusion_lat": 0.0, "name": "03177d6c252651b8ad37a237e6827425", "is_disabled": 0, "rental_uris": {"android": "https://dc.lft.to/lastmile_qr_scan", "ios": "https://dc.lft.to/lastmile_qr_scan"}, "fusion_lon": 0.0, "lat": 38.89517266666667, "bike_id": "03177d6c252651b8ad37a237e6827425", "type": "electric_scooter", "is_reserved": 0, "lon": -77.02198916666667}, {"fusion_lat": 0.0, "name": "51c5a0387f274eed0a909aeb052d213b", "is_disabled": 0, "rental_uris": {"android": "https://dc.lft.to/lastmile_qr_scan", "ios": "https://dc.lft.to/lastmile_qr_scan"}, "fusion_lon": 0.0, "lat": 38.915979166666666, "bike_id": "51c5a0387f274eed0a909aeb052d213b", "type": "electric_scooter", "is_reserved": 0, "lon": -77.0466335}, {"fusion_lat": 0.0, "name": "da828267abad172a1afee74c7d0b7dfe", "is_disabled": 0, "rental_uris": {"android": "https://dc.lft.to/lastmile_qr_scan", "ios": "https://dc.lft.to/lastmile_qr_scan"}, "fusion_lon": 0.0, "lat": 38.9129215, "bike_id": "da828267abad172a1afee74c7d0b7dfe", "type": "electric_scooter", "is_reserved": 0, "lon": -77.008916}, {"fusion_lat": 0.0, "name": "c0711c8b48cdec0a366c8ef5767f592e", "is_disabled": 0, "rental_uris": {"android": "https://dc.lft.to/lastmile_qr_scan", "ios": "https://dc.lft.to/lastmile_qr_scan"}, "fusion_lon": 0.0, "lat": 38.925985833333336, "bike_id": "c0711c8b48cdec0a366c8ef5767f592e", "type": "electric_scooter", "is_reserved": 0, "lon": -77.03742016666666}, {"fusion_lat": 0.0, "name": "2502959d5e92eeea39191777bcac3f41", "is_disabled": 0, "rental_uris": {"android": "https://dc.lft.to/lastmile_qr_scan", "ios": "https://dc.lft.to/lastmile_qr_scan"}, "fusion_lon": 0.0, "lat": 38.90971166666667, "bike_id": "2502959d5e92eeea39191777bcac3f41", "type": "electric_scooter", "is_reserved": 0, "lon": -77.02161016666666}, {"fusion_lat": 0.0, "name": "116bde605efd44b3d1ac04d548464e1b", "is_disabled": 0, "rental_uris": {"android": "https://dc.lft.to/lastmile_qr_scan", "ios": "https://dc.lft.to/lastmile_qr_scan"}, "fusion_lon": 0.0, "lat": 38.88208316666667, "bike_id": "116bde605efd44b3d1ac04d548464e1b", "type": "electric_scooter", "is_reserved": 0, "lon": -77.01760633333333}, {"fusion_lat": 0.0, "name": "1d53c4a57cdd6adb39d7e61ab6241763", "is_disabled": 0, "rental_uris": {"android": "https://dc.lft.to/lastmile_qr_scan", "ios": "https://dc.lft.to/lastmile_qr_scan"}, "fusion_lon": 0.0, "lat": 38.827867, "bike_id": "1d53c4a57cdd6adb39d7e61ab6241763", "type": "electric_bike", "is_reserved": 0, "lon": -77.12484383333333}, {"fusion_lat": 0.0, "name": "dca5ef22f35f5cdf6b7b7ac01a92ab78", "is_disabled": 0, "rental_uris": {"android": "https://dc.lft.to/lastmile_qr_scan", "ios": "https://dc.lft.to/lastmile_qr_scan"}, "fusion_lon": 0.0, "lat": 38.897577, "bike_id": "dca5ef22f35f5cdf6b7b7ac01a92ab78", "type": "electric_scooter", "is_reserved": 0, "lon": -77.026874}, {"fusion_lat": 0.0, "name": "bc224b6b634db6c8143fbbe05825e792", "is_disabled": 0, "rental_uris": {"android": "https://dc.lft.to/lastmile_qr_scan", "ios": "https://dc.lft.to/lastmile_qr_scan"}, "fusion_lon": 0.0, "lat": 38.8850015, "bike_id": "bc224b6b634db6c8143fbbe05825e792", "type": "electric_scooter", "is_reserved": 0, "lon": -77.01732883333334}, {"fusion_lat": 0.0, "name": "06024b60fcfe53a6982f9d986ace6f64", "is_disabled": 0, "rental_uris": {"android": "https://dc.lft.to/lastmile_qr_scan", "ios": "https://dc.lft.to/lastmile_qr_scan"}, "fusion_lon": 0.0, "lat": 38.9096425, "bike_id": "06024b60fcfe53a6982f9d986ace6f64", "type": "electric_scooter", "is_reserved": 0, "lon": -77.04834816666667}, {"fusion_lat": 0.0, "name": "65ccda6455bb8a7162fe2f5b3fc1d2fa", "is_disabled": 0, "rental_uris": {"android": "https://dc.lft.to/lastmile_qr_scan", "ios": "https://dc.lft.to/lastmile_qr_scan"}, "fusion_lon": 0.0, "lat": 38.8921965, "bike_id": "65ccda6455bb8a7162fe2f5b3fc1d2fa", "type": "electric_scooter", "is_reserved": 0, "lon": -77.02655733333333}, {"fusion_lat": 0.0, "name": "5d6f56ba41e294fb1d47055b2746c46d", "is_disabled": 0, "rental_uris": {"android": "https://dc.lft.to/lastmile_qr_scan", "ios": "https://dc.lft.to/lastmile_qr_scan"}, "fusion_lon": 0.0, "lat": 38.939652333333335, "bike_id": "5d6f56ba41e294fb1d47055b2746c46d", "type": "electric_scooter", "is_reserved": 0, "lon": -77.03284766666667}, {"fusion_lat": 0.0, "name": "b5eec440d592138f3f859bc805dc60b2", "is_disabled": 0, "rental_uris": {"android": "https://dc.lft.to/lastmile_qr_scan", "ios": "https://dc.lft.to/lastmile_qr_scan"}, "fusion_lon": 0.0, "lat": 38.89758283333333, "bike_id": "b5eec440d592138f3f859bc805dc60b2", "type": "electric_scooter", "is_reserved": 0, "lon": -77.0219125}, {"fusion_lat": 0.0, "name": "4702cc46aebe66cfa4a7c71b4a7c72b2", "is_disabled": 0, "rental_uris": {"android": "https://dc.lft.to/lastmile_qr_scan", "ios": "https://dc.lft.to/lastmile_qr_scan"}, "fusion_lon": 0.0, "lat": 38.89241633333334, "bike_id": "4702cc46aebe66cfa4a7c71b4a7c72b2", "type": "electric_scooter", "is_reserved": 0, "lon": -77.03188333333334}, {"fusion_lat": 0.0, "name": "af1109159afedfcf872bc144b428fb42", "is_disabled": 0, "rental_uris": {"android": "https://dc.lft.to/lastmile_qr_scan", "ios": "https://dc.lft.to/lastmile_qr_scan"}, "fusion_lon": 0.0, "lat": 38.844267, "bike_id": "af1109159afedfcf872bc144b428fb42", "type": "electric_scooter", "is_reserved": 0, "lon": -76.99777966666667}, {"fusion_lat": 0.0, "name": "23612185cd34a5a8591255cb59f21928", "is_disabled": 0, "rental_uris": {"android": "https://dc.lft.to/lastmile_qr_scan", "ios": "https://dc.lft.to/lastmile_qr_scan"}, "fusion_lon": 0.0, "lat": 38.8932385, "bike_id": "23612185cd34a5a8591255cb59f21928", "type": "electric_bike", "is_reserved": 0, "lon": -76.95122766666667}, {"fusion_lat": 0.0, "name": "8e6dee28f7c6bc9cb751a71550eb532b", "is_disabled": 0, "rental_uris": {"android": "https://dc.lft.to/lastmile_qr_scan", "ios": "https://dc.lft.to/lastmile_qr_scan"}, "fusion_lon": 0.0, "lat": 38.931193666666665, "bike_id": "8e6dee28f7c6bc9cb751a71550eb532b", "type": "electric_scooter", "is_reserved": 0, "lon": -77.02084966666666}, {"fusion_lat": 0.0, "name": "2984b0a1bef4c01cf426f5fd56a711b8", "is_disabled": 0, "rental_uris": {"android": "https://dc.lft.to/lastmile_qr_scan", "ios": "https://dc.lft.to/lastmile_qr_scan"}, "fusion_lon": 0.0, "lat": 38.885239166666665, "bike_id": "2984b0a1bef4c01cf426f5fd56a711b8", "type": "electric_scooter", "is_reserved": 0, "lon": -76.97710216666667}, {"fusion_lat": 0.0, "name": "3ae8410e4320367ccd3b9bd4f4287c80", "is_disabled": 0, "rental_uris": {"android": "https://dc.lft.to/lastmile_qr_scan", "ios": "https://dc.lft.to/lastmile_qr_scan"}, "fusion_lon": 0.0, "lat": 38.897588, "bike_id": "3ae8410e4320367ccd3b9bd4f4287c80", "type": "electric_scooter", "is_reserved": 0, "lon": -77.021912}, {"fusion_lat": 0.0, "name": "7642e91782f205fe3b109a98bdf6916f", "is_disabled": 0, "rental_uris": {"android": "https://dc.lft.to/lastmile_qr_scan", "ios": "https://dc.lft.to/lastmile_qr_scan"}, "fusion_lon": 0.0, "lat": 38.915002, "bike_id": "7642e91782f205fe3b109a98bdf6916f", "type": "electric_scooter", "is_reserved": 0, "lon": -77.032004}, {"fusion_lat": 0.0, "name": "ed2da03a6d40c99bdd9eb74cb3161dbd", "is_disabled": 0, "rental_uris": {"android": "https://dc.lft.to/lastmile_qr_scan", "ios": "https://dc.lft.to/lastmile_qr_scan"}, "fusion_lon": 0.0, "lat": 38.91114916666667, "bike_id": "ed2da03a6d40c99bdd9eb74cb3161dbd", "type": "electric_scooter", "is_reserved": 0, "lon": -77.08127183333333}, {"fusion_lat": 0.0, "name": "41c3f015b3414c4e2aa420864a65dafe", "is_disabled": 0, "rental_uris": {"android": "https://dc.lft.to/lastmile_qr_scan", "ios": "https://dc.lft.to/lastmile_qr_scan"}, "fusion_lon": 0.0, "lat": 38.907807, "bike_id": "41c3f015b3414c4e2aa420864a65dafe", "type": "electric_scooter", "is_reserved": 0, "lon": -77.038367}, {"fusion_lat": 0.0, "name": "000c174b8e6eedef138d7841a1d15b84", "is_disabled": 0, "rental_uris": {"android": "https://dc.lft.to/lastmile_qr_scan", "ios": "https://dc.lft.to/lastmile_qr_scan"}, "fusion_lon": 0.0, "lat": 38.91752016666667, "bike_id": "000c174b8e6eedef138d7841a1d15b84", "type": "electric_scooter", "is_reserved": 0, "lon": -77.01220083333334}, {"fusion_lat": 0.0, "name": "9cdff46b9eaa8541132e80693b733420", "is_disabled": 0, "rental_uris": {"android": "https://dc.lft.to/lastmile_qr_scan", "ios": "https://dc.lft.to/lastmile_qr_scan"}, "fusion_lon": 0.0, "lat": 38.876527, "bike_id": "9cdff46b9eaa8541132e80693b733420", "type": "electric_scooter", "is_reserved": 0, "lon": -77.00658916666667}, {"fusion_lat": 0.0, "name": "ccfe79ce3914a0f05890feb47ee95063", "is_disabled": 0, "rental_uris": {"android": "https://dc.lft.to/lastmile_qr_scan", "ios": "https://dc.lft.to/lastmile_qr_scan"}, "fusion_lon": 0.0, "lat": 38.90037, "bike_id": "ccfe79ce3914a0f05890feb47ee95063", "type": "electric_scooter", "is_reserved": 0, "lon": -77.0020925}, {"fusion_lat": 0.0, "name": "1bc4320bf5b600c2f47c7ed917738bec", "is_disabled": 0, "rental_uris": {"android": "https://dc.lft.to/lastmile_qr_scan", "ios": "https://dc.lft.to/lastmile_qr_scan"}, "fusion_lon": 0.0, "lat": 38.90587333333333, "bike_id": "1bc4320bf5b600c2f47c7ed917738bec", "type": "electric_scooter", "is_reserved": 0, "lon": -77.01606516666666}, {"fusion_lat": 0.0, "name": "f680d2790f3bdb74ffc0e364e5bba968", "is_disabled": 0, "rental_uris": {"android": "https://dc.lft.to/lastmile_qr_scan", "ios": "https://dc.lft.to/lastmile_qr_scan"}, "fusion_lon": 0.0, "lat": 38.901259, "bike_id": "f680d2790f3bdb74ffc0e364e5bba968", "type": "electric_scooter", "is_reserved": 0, "lon": -77.01818116666666}, {"fusion_lat": 0.0, "name": "319189bb7c828774904dd1660b732458", "is_disabled": 0, "rental_uris": {"android": "https://dc.lft.to/lastmile_qr_scan", "ios": "https://dc.lft.to/lastmile_qr_scan"}, "fusion_lon": 0.0, "lat": 38.92350366666667, "bike_id": "319189bb7c828774904dd1660b732458", "type": "electric_scooter", "is_reserved": 0, "lon": -77.03905683333333}, {"fusion_lat": 0.0, "name": "919cff3e6c731e791b78245a591b0243", "is_disabled": 0, "rental_uris": {"android": "https://dc.lft.to/lastmile_qr_scan", "ios": "https://dc.lft.to/lastmile_qr_scan"}, "fusion_lon": 0.0, "lat": 38.89224816666667, "bike_id": "919cff3e6c731e791b78245a591b0243", "type": "electric_scooter", "is_reserved": 0, "lon": -77.04323683333334}, {"fusion_lat": 0.0, "name": "2441774f8412b1f39366d0b68a4d9e3b", "is_disabled": 0, "rental_uris": {"android": "https://dc.lft.to/lastmile_qr_scan", "ios": "https://dc.lft.to/lastmile_qr_scan"}, "fusion_lon": 0.0, "lat": 38.904732833333334, "bike_id": "2441774f8412b1f39366d0b68a4d9e3b", "type": "electric_scooter", "is_reserved": 0, "lon": -76.95199116666667}, {"fusion_lat": 0.0, "name": "0fcdbca8eae99817f232ad4c5d0765e4", "is_disabled": 0, "rental_uris": {"android": "https://dc.lft.to/lastmile_qr_scan", "ios": "https://dc.lft.to/lastmile_qr_scan"}, "fusion_lon": 0.0, "lat": 38.922178, "bike_id": "0fcdbca8eae99817f232ad4c5d0765e4", "type": "electric_bike", "is_reserved": 0, "lon": -77.081944}, {"fusion_lat": 0.0, "name": "8e860d835c4b3028053f6846054d8e5e", "is_disabled": 0, "rental_uris": {"android": "https://dc.lft.to/lastmile_qr_scan", "ios": "https://dc.lft.to/lastmile_qr_scan"}, "fusion_lon": 0.0, "lat": 38.9427315, "bike_id": "8e860d835c4b3028053f6846054d8e5e", "type": "electric_scooter", "is_reserved": 0, "lon": -77.032581}, {"fusion_lat": 0.0, "name": "4cf043b0ca2ba68f145750b957f1b10d", "is_disabled": 0, "rental_uris": {"android": "https://dc.lft.to/lastmile_qr_scan", "ios": "https://dc.lft.to/lastmile_qr_scan"}, "fusion_lon": 0.0, "lat": 38.934854, "bike_id": "4cf043b0ca2ba68f145750b957f1b10d", "type": "electric_scooter", "is_reserved": 0, "lon": -77.07277}, {"fusion_lat": 0.0, "name": "d9a8fe9961b8a5c2a9a81ae7fecbc3f2", "is_disabled": 0, "rental_uris": {"android": "https://dc.lft.to/lastmile_qr_scan", "ios": "https://dc.lft.to/lastmile_qr_scan"}, "fusion_lon": 0.0, "lat": 38.9046535, "bike_id": "d9a8fe9961b8a5c2a9a81ae7fecbc3f2", "type": "electric_scooter", "is_reserved": 0, "lon": -77.0533865}, {"fusion_lat": 0.0, "name": "74216337cff9d1003eecbf54292fa04a", "is_disabled": 0, "rental_uris": {"android": "https://dc.lft.to/lastmile_qr_scan", "ios": "https://dc.lft.to/lastmile_qr_scan"}, "fusion_lon": 0.0, "lat": 38.92608933333333, "bike_id": "74216337cff9d1003eecbf54292fa04a", "type": "electric_scooter", "is_reserved": 0, "lon": -77.03961983333333}, {"fusion_lat": 0.0, "name": "f45eeb92ebbcfced390b6253f383a57c", "is_disabled": 0, "rental_uris": {"android": "https://dc.lft.to/lastmile_qr_scan", "ios": "https://dc.lft.to/lastmile_qr_scan"}, "fusion_lon": 0.0, "lat": 38.94182333333333, "bike_id": "f45eeb92ebbcfced390b6253f383a57c", "type": "electric_scooter", "is_reserved": 0, "lon": -77.0249045}, {"fusion_lat": 0.0, "name": "265174be73e88822dbe3531464caa804", "is_disabled": 0, "rental_uris": {"android": "https://dc.lft.to/lastmile_qr_scan", "ios": "https://dc.lft.to/lastmile_qr_scan"}, "fusion_lon": 0.0, "lat": 38.91253583333334, "bike_id": "265174be73e88822dbe3531464caa804", "type": "electric_scooter", "is_reserved": 0, "lon": -77.00669083333334}, {"fusion_lat": 0.0, "name": "b76fadd6368990d368f09817c5cb85db", "is_disabled": 0, "rental_uris": {"android": "https://dc.lft.to/lastmile_qr_scan", "ios": "https://dc.lft.to/lastmile_qr_scan"}, "fusion_lon": 0.0, "lat": 38.84426666666667, "bike_id": "b76fadd6368990d368f09817c5cb85db", "type": "electric_scooter", "is_reserved": 0, "lon": -76.99777}, {"fusion_lat": 0.0, "name": "72caa78b131f701f35bf33de28af084f", "is_disabled": 0, "rental_uris": {"android": "https://dc.lft.to/lastmile_qr_scan", "ios": "https://dc.lft.to/lastmile_qr_scan"}, "fusion_lon": 0.0, "lat": 38.895397333333335, "bike_id": "72caa78b131f701f35bf33de28af084f", "type": "electric_scooter", "is_reserved": 0, "lon": -77.03055016666667}, {"fusion_lat": 0.0, "name": "1b5c9490f93eb02cdf7c35c622ddf7b5", "is_disabled": 0, "rental_uris": {"android": "https://dc.lft.to/lastmile_qr_scan", "ios": "https://dc.lft.to/lastmile_qr_scan"}, "fusion_lon": 0.0, "lat": 38.92903966666667, "bike_id": "1b5c9490f93eb02cdf7c35c622ddf7b5", "type": "electric_scooter", "is_reserved": 0, "lon": -77.03264366666667}, {"fusion_lat": 0.0, "name": "f5267b5925f186223615ca3f88ad8e3f", "is_disabled": 0, "rental_uris": {"android": "https://dc.lft.to/lastmile_qr_scan", "ios": "https://dc.lft.to/lastmile_qr_scan"}, "fusion_lon": 0.0, "lat": 38.92080033333333, "bike_id": "f5267b5925f186223615ca3f88ad8e3f", "type": "electric_scooter", "is_reserved": 0, "lon": -77.02510066666666}, {"fusion_lat": 0.0, "name": "ae3fcb56d7a4bdbc18f21dab651c6db9", "is_disabled": 0, "rental_uris": {"android": "https://dc.lft.to/lastmile_qr_scan", "ios": "https://dc.lft.to/lastmile_qr_scan"}, "fusion_lon": 0.0, "lat": 38.87717416666667, "bike_id": "ae3fcb56d7a4bdbc18f21dab651c6db9", "type": "electric_scooter", "is_reserved": 0, "lon": -77.01760466666667}, {"fusion_lat": 0.0, "name": "8d6320e601a7984208db06c1fbb9d42d", "is_disabled": 0, "rental_uris": {"android": "https://dc.lft.to/lastmile_qr_scan", "ios": "https://dc.lft.to/lastmile_qr_scan"}, "fusion_lon": 0.0, "lat": 38.898512833333335, "bike_id": "8d6320e601a7984208db06c1fbb9d42d", "type": "electric_scooter", "is_reserved": 0, "lon": -77.0393035}, {"fusion_lat": 0.0, "name": "77c0cafc10de2eed40c2d8d54a663f18", "is_disabled": 0, "rental_uris": {"android": "https://dc.lft.to/lastmile_qr_scan", "ios": "https://dc.lft.to/lastmile_qr_scan"}, "fusion_lon": 0.0, "lat": 38.900054, "bike_id": "77c0cafc10de2eed40c2d8d54a663f18", "type": "electric_bike", "is_reserved": 0, "lon": -76.99848316666667}, {"fusion_lat": 0.0, "name": "adbfaa1494a1909ff8c6b4d17b77887d", "is_disabled": 0, "rental_uris": {"android": "https://dc.lft.to/lastmile_qr_scan", "ios": "https://dc.lft.to/lastmile_qr_scan"}, "fusion_lon": 0.0, "lat": 38.89779733333334, "bike_id": "adbfaa1494a1909ff8c6b4d17b77887d", "type": "electric_scooter", "is_reserved": 0, "lon": -77.02727066666667}, {"fusion_lat": 0.0, "name": "9b405213ab9b21f851662a936095bd86", "is_disabled": 0, "rental_uris": {"android": "https://dc.lft.to/lastmile_qr_scan", "ios": "https://dc.lft.to/lastmile_qr_scan"}, "fusion_lon": 0.0, "lat": 38.8889095, "bike_id": "9b405213ab9b21f851662a936095bd86", "type": "electric_bike", "is_reserved": 0, "lon": -77.11526383333333}, {"fusion_lat": 0.0, "name": "c6d59822f59cdaba5ff0100d3cb0ac74", "is_disabled": 0, "rental_uris": {"android": "https://dc.lft.to/lastmile_qr_scan", "ios": "https://dc.lft.to/lastmile_qr_scan"}, "fusion_lon": 0.0, "lat": 38.921776333333334, "bike_id": "c6d59822f59cdaba5ff0100d3cb0ac74", "type": "electric_scooter", "is_reserved": 0, "lon": -77.02659583333333}, {"fusion_lat": 0.0, "name": "3bb9887950b3ef6dc724219645206f5a", "is_disabled": 0, "rental_uris": {"android": "https://dc.lft.to/lastmile_qr_scan", "ios": "https://dc.lft.to/lastmile_qr_scan"}, "fusion_lon": 0.0, "lat": 38.90137133333333, "bike_id": "3bb9887950b3ef6dc724219645206f5a", "type": "electric_scooter", "is_reserved": 0, "lon": -77.03642316666667}, {"fusion_lat": 0.0, "name": "4c03d5b741959f70c0c707df2e6e9ae4", "is_disabled": 0, "rental_uris": {"android": "https://dc.lft.to/lastmile_qr_scan", "ios": "https://dc.lft.to/lastmile_qr_scan"}, "fusion_lon": 0.0, "lat": 38.90026833333334, "bike_id": "4c03d5b741959f70c0c707df2e6e9ae4", "type": "electric_scooter", "is_reserved": 0, "lon": -77.0240265}, {"fusion_lat": 0.0, "name": "358d46079345b11c83e3e8ede89af773", "is_disabled": 0, "rental_uris": {"android": "https://dc.lft.to/lastmile_qr_scan", "ios": "https://dc.lft.to/lastmile_qr_scan"}, "fusion_lon": 0.0, "lat": 38.899524166666666, "bike_id": "358d46079345b11c83e3e8ede89af773", "type": "electric_scooter", "is_reserved": 0, "lon": -76.98553683333333}, {"fusion_lat": 0.0, "name": "7f804e21688a00a5dc22a02a352aaf51", "is_disabled": 0, "rental_uris": {"android": "https://dc.lft.to/lastmile_qr_scan", "ios": "https://dc.lft.to/lastmile_qr_scan"}, "fusion_lon": 0.0, "lat": 38.929885666666664, "bike_id": "7f804e21688a00a5dc22a02a352aaf51", "type": "electric_scooter", "is_reserved": 0, "lon": -77.034729}, {"fusion_lat": 0.0, "name": "b0227672d1d62f6c6fb910d98f3b22fc", "is_disabled": 0, "rental_uris": {"android": "https://dc.lft.to/lastmile_qr_scan", "ios": "https://dc.lft.to/lastmile_qr_scan"}, "fusion_lon": 0.0, "lat": 38.8970825, "bike_id": "b0227672d1d62f6c6fb910d98f3b22fc", "type": "electric_scooter", "is_reserved": 0, "lon": -77.02585833333333}, {"fusion_lat": 0.0, "name": "a96b1d7e3c72ad7e89c13be0f2fa3808", "is_disabled": 0, "rental_uris": {"android": "https://dc.lft.to/lastmile_qr_scan", "ios": "https://dc.lft.to/lastmile_qr_scan"}, "fusion_lon": 0.0, "lat": 38.90790066666667, "bike_id": "a96b1d7e3c72ad7e89c13be0f2fa3808", "type": "electric_scooter", "is_reserved": 0, "lon": -77.043353}, {"fusion_lat": 0.0, "name": "27d076434e01309d4b08cdfde18f955b", "is_disabled": 0, "rental_uris": {"android": "https://dc.lft.to/lastmile_qr_scan", "ios": "https://dc.lft.to/lastmile_qr_scan"}, "fusion_lon": 0.0, "lat": 38.9320155, "bike_id": "27d076434e01309d4b08cdfde18f955b", "type": "electric_scooter", "is_reserved": 0, "lon": -77.0365205}, {"fusion_lat": 0.0, "name": "5f0197129e0d1536e6ca3c37c185b64e", "is_disabled": 0, "rental_uris": {"android": "https://dc.lft.to/lastmile_qr_scan", "ios": "https://dc.lft.to/lastmile_qr_scan"}, "fusion_lon": 0.0, "lat": 38.914986666666664, "bike_id": "5f0197129e0d1536e6ca3c37c185b64e", "type": "electric_scooter", "is_reserved": 0, "lon": -77.03205666666666}, {"fusion_lat": 0.0, "name": "0a7b4d145217a222aa313ceb16806cb1", "is_disabled": 0, "rental_uris": {"android": "https://dc.lft.to/lastmile_qr_scan", "ios": "https://dc.lft.to/lastmile_qr_scan"}, "fusion_lon": 0.0, "lat": 38.8359945, "bike_id": "0a7b4d145217a222aa313ceb16806cb1", "type": "electric_bike", "is_reserved": 0, "lon": -77.00377716666667}, {"fusion_lat": 0.0, "name": "264ae29febb71559d3e692023731acfb", "is_disabled": 0, "rental_uris": {"android": "https://dc.lft.to/lastmile_qr_scan", "ios": "https://dc.lft.to/lastmile_qr_scan"}, "fusion_lon": 0.0, "lat": 38.8762885, "bike_id": "264ae29febb71559d3e692023731acfb", "type": "electric_scooter", "is_reserved": 0, "lon": -77.00114666666667}, {"fusion_lat": 0.0, "name": "c3150744114aa7b09f7ffd8cc679e47b", "is_disabled": 0, "rental_uris": {"android": "https://dc.lft.to/lastmile_qr_scan", "ios": "https://dc.lft.to/lastmile_qr_scan"}, "fusion_lon": 0.0, "lat": 38.921249833333334, "bike_id": "c3150744114aa7b09f7ffd8cc679e47b", "type": "electric_scooter", "is_reserved": 0, "lon": -77.044356}, {"fusion_lat": 0.0, "name": "a328d5382a659df226db0ef0e8a5adbd", "is_disabled": 0, "rental_uris": {"android": "https://dc.lft.to/lastmile_qr_scan", "ios": "https://dc.lft.to/lastmile_qr_scan"}, "fusion_lon": 0.0, "lat": 38.887939, "bike_id": "a328d5382a659df226db0ef0e8a5adbd", "type": "electric_bike", "is_reserved": 0, "lon": -76.92989083333333}, {"fusion_lat": 0.0, "name": "1854aa671e39d21b6ffa52af53a26ac3", "is_disabled": 0, "rental_uris": {"android": "https://dc.lft.to/lastmile_qr_scan", "ios": "https://dc.lft.to/lastmile_qr_scan"}, "fusion_lon": 0.0, "lat": 38.9351075, "bike_id": "1854aa671e39d21b6ffa52af53a26ac3", "type": "electric_scooter", "is_reserved": 0, "lon": -77.03287916666666}, {"fusion_lat": 0.0, "name": "b824a89aae971bf37e2104b9b0568fe1", "is_disabled": 0, "rental_uris": {"android": "https://dc.lft.to/lastmile_qr_scan", "ios": "https://dc.lft.to/lastmile_qr_scan"}, "fusion_lon": 0.0, "lat": 38.905678333333334, "bike_id": "b824a89aae971bf37e2104b9b0568fe1", "type": "electric_scooter", "is_reserved": 0, "lon": -77.0432975}, {"fusion_lat": 0.0, "name": "89f428204993082956a67340e3bde7e8", "is_disabled": 0, "rental_uris": {"android": "https://dc.lft.to/lastmile_qr_scan", "ios": "https://dc.lft.to/lastmile_qr_scan"}, "fusion_lon": 0.0, "lat": 38.94415266666667, "bike_id": "89f428204993082956a67340e3bde7e8", "type": "electric_scooter", "is_reserved": 0, "lon": -77.06320966666667}, {"fusion_lat": 0.0, "name": "7293f78f593267cb2524c9317e2afcdb", "is_disabled": 0, "rental_uris": {"android": "https://dc.lft.to/lastmile_qr_scan", "ios": "https://dc.lft.to/lastmile_qr_scan"}, "fusion_lon": 0.0, "lat": 38.897313, "bike_id": "7293f78f593267cb2524c9317e2afcdb", "type": "electric_scooter", "is_reserved": 0, "lon": -76.99136416666667}, {"fusion_lat": 0.0, "name": "aa9cb3ca0739395fe481fbbdc44c7b9e", "is_disabled": 0, "rental_uris": {"android": "https://dc.lft.to/lastmile_qr_scan", "ios": "https://dc.lft.to/lastmile_qr_scan"}, "fusion_lon": 0.0, "lat": 38.950864, "bike_id": "aa9cb3ca0739395fe481fbbdc44c7b9e", "type": "electric_bike", "is_reserved": 0, "lon": -77.01227533333333}, {"fusion_lat": 0.0, "name": "a55d7e89c7cd03448dffb11a869ad9e2", "is_disabled": 0, "rental_uris": {"android": "https://dc.lft.to/lastmile_qr_scan", "ios": "https://dc.lft.to/lastmile_qr_scan"}, "fusion_lon": 0.0, "lat": 38.91546733333333, "bike_id": "a55d7e89c7cd03448dffb11a869ad9e2", "type": "electric_scooter", "is_reserved": 0, "lon": -77.03849083333333}, {"fusion_lat": 0.0, "name": "fcbac70deed29edcc653f1c1fa80cfdc", "is_disabled": 0, "rental_uris": {"android": "https://dc.lft.to/lastmile_qr_scan", "ios": "https://dc.lft.to/lastmile_qr_scan"}, "fusion_lon": 0.0, "lat": 38.90688883333333, "bike_id": "fcbac70deed29edcc653f1c1fa80cfdc", "type": "electric_scooter", "is_reserved": 0, "lon": -77.01013983333333}, {"fusion_lat": 0.0, "name": "7e9ebbb0cb4646be861add5e9879680e", "is_disabled": 0, "rental_uris": {"android": "https://dc.lft.to/lastmile_qr_scan", "ios": "https://dc.lft.to/lastmile_qr_scan"}, "fusion_lon": 0.0, "lat": 38.920974333333334, "bike_id": "7e9ebbb0cb4646be861add5e9879680e", "type": "electric_scooter", "is_reserved": 0, "lon": -77.02513483333334}, {"fusion_lat": 0.0, "name": "e51817cf384a04613a6f12f240f450e0", "is_disabled": 0, "rental_uris": {"android": "https://dc.lft.to/lastmile_qr_scan", "ios": "https://dc.lft.to/lastmile_qr_scan"}, "fusion_lon": 0.0, "lat": 38.87936216666667, "bike_id": "e51817cf384a04613a6f12f240f450e0", "type": "electric_scooter", "is_reserved": 0, "lon": -77.0237175}, {"fusion_lat": 0.0, "name": "c34dd53737a8844c86e01e160d8cacc0", "is_disabled": 0, "rental_uris": {"android": "https://dc.lft.to/lastmile_qr_scan", "ios": "https://dc.lft.to/lastmile_qr_scan"}, "fusion_lon": 0.0, "lat": 38.9046005, "bike_id": "c34dd53737a8844c86e01e160d8cacc0", "type": "electric_scooter", "is_reserved": 0, "lon": -77.00351433333333}, {"fusion_lat": 0.0, "name": "d5942dd6d6df5613e427db5f07369b87", "is_disabled": 0, "rental_uris": {"android": "https://dc.lft.to/lastmile_qr_scan", "ios": "https://dc.lft.to/lastmile_qr_scan"}, "fusion_lon": 0.0, "lat": 38.9072545, "bike_id": "d5942dd6d6df5613e427db5f07369b87", "type": "electric_scooter", "is_reserved": 0, "lon": -77.04341516666666}, {"fusion_lat": 0.0, "name": "754609800bfff12ba931de92ec468986", "is_disabled": 0, "rental_uris": {"android": "https://dc.lft.to/lastmile_qr_scan", "ios": "https://dc.lft.to/lastmile_qr_scan"}, "fusion_lon": 0.0, "lat": 38.9126295, "bike_id": "754609800bfff12ba931de92ec468986", "type": "electric_scooter", "is_reserved": 0, "lon": -77.03149916666666}, {"fusion_lat": 0.0, "name": "197a603ca9ea9640cd4ab1c378503ac0", "is_disabled": 0, "rental_uris": {"android": "https://dc.lft.to/lastmile_qr_scan", "ios": "https://dc.lft.to/lastmile_qr_scan"}, "fusion_lon": 0.0, "lat": 38.881808, "bike_id": "197a603ca9ea9640cd4ab1c378503ac0", "type": "electric_bike", "is_reserved": 0, "lon": -77.08630516666666}, {"fusion_lat": 0.0, "name": "1ade3e00b69ad3c8e982d8a67710fc6c", "is_disabled": 0, "rental_uris": {"android": "https://dc.lft.to/lastmile_qr_scan", "ios": "https://dc.lft.to/lastmile_qr_scan"}, "fusion_lon": 0.0, "lat": 38.92339183333333, "bike_id": "1ade3e00b69ad3c8e982d8a67710fc6c", "type": "electric_scooter", "is_reserved": 0, "lon": -77.053005}, {"fusion_lat": 0.0, "name": "368530c4b893cc12366611a72bc1dde1", "is_disabled": 0, "rental_uris": {"android": "https://dc.lft.to/lastmile_qr_scan", "ios": "https://dc.lft.to/lastmile_qr_scan"}, "fusion_lon": 0.0, "lat": 38.92054316666667, "bike_id": "368530c4b893cc12366611a72bc1dde1", "type": "electric_scooter", "is_reserved": 0, "lon": -77.02381983333333}, {"fusion_lat": 0.0, "name": "aca6b5aea0765c035804625a27f11033", "is_disabled": 0, "rental_uris": {"android": "https://dc.lft.to/lastmile_qr_scan", "ios": "https://dc.lft.to/lastmile_qr_scan"}, "fusion_lon": 0.0, "lat": 38.9035345, "bike_id": "aca6b5aea0765c035804625a27f11033", "type": "electric_scooter", "is_reserved": 0, "lon": -77.0450505}, {"fusion_lat": 0.0, "name": "8a486c58a6ed7b223c7d6e60a6360c88", "is_disabled": 0, "rental_uris": {"android": "https://dc.lft.to/lastmile_qr_scan", "ios": "https://dc.lft.to/lastmile_qr_scan"}, "fusion_lon": 0.0, "lat": 38.89547566666667, "bike_id": "8a486c58a6ed7b223c7d6e60a6360c88", "type": "electric_scooter", "is_reserved": 0, "lon": -76.98336583333334}, {"fusion_lat": 0.0, "name": "1338759f216c15fcd5a3f779823a0b19", "is_disabled": 0, "rental_uris": {"android": "https://dc.lft.to/lastmile_qr_scan", "ios": "https://dc.lft.to/lastmile_qr_scan"}, "fusion_lon": 0.0, "lat": 38.908403166666666, "bike_id": "1338759f216c15fcd5a3f779823a0b19", "type": "electric_scooter", "is_reserved": 0, "lon": -77.02325366666666}, {"fusion_lat": 0.0, "name": "a13138af24faf0c50fefef5e9cc1b783", "is_disabled": 0, "rental_uris": {"android": "https://dc.lft.to/lastmile_qr_scan", "ios": "https://dc.lft.to/lastmile_qr_scan"}, "fusion_lon": 0.0, "lat": 38.918400166666665, "bike_id": "a13138af24faf0c50fefef5e9cc1b783", "type": "electric_scooter", "is_reserved": 0, "lon": -77.0161045}, {"fusion_lat": 0.0, "name": "f7320b1af1d377318458484edcf88dec", "is_disabled": 0, "rental_uris": {"android": "https://dc.lft.to/lastmile_qr_scan", "ios": "https://dc.lft.to/lastmile_qr_scan"}, "fusion_lon": 0.0, "lat": 38.9337365, "bike_id": "f7320b1af1d377318458484edcf88dec", "type": "electric_scooter", "is_reserved": 0, "lon": -77.05729983333333}, {"fusion_lat": 0.0, "name": "e0c23f7651804ea22ff1371dfab12660", "is_disabled": 0, "rental_uris": {"android": "https://dc.lft.to/lastmile_qr_scan", "ios": "https://dc.lft.to/lastmile_qr_scan"}, "fusion_lon": 0.0, "lat": 38.920194333333335, "bike_id": "e0c23f7651804ea22ff1371dfab12660", "type": "electric_scooter", "is_reserved": 0, "lon": -77.0818775}, {"fusion_lat": 0.0, "name": "19156f6dc49f74ed3f5273e4737084c6", "is_disabled": 0, "rental_uris": {"android": "https://dc.lft.to/lastmile_qr_scan", "ios": "https://dc.lft.to/lastmile_qr_scan"}, "fusion_lon": 0.0, "lat": 38.91446933333334, "bike_id": "19156f6dc49f74ed3f5273e4737084c6", "type": "electric_scooter", "is_reserved": 0, "lon": -77.02188666666666}, {"fusion_lat": 0.0, "name": "b8a7575f0946d9ab5871cfb8f6e1a533", "is_disabled": 0, "rental_uris": {"android": "https://dc.lft.to/lastmile_qr_scan", "ios": "https://dc.lft.to/lastmile_qr_scan"}, "fusion_lon": 0.0, "lat": 38.96442666666667, "bike_id": "b8a7575f0946d9ab5871cfb8f6e1a533", "type": "electric_bike", "is_reserved": 0, "lon": -77.0206735}, {"fusion_lat": 0.0, "name": "ba1e977fe3f33788cc931c3f25fe15c2", "is_disabled": 0, "rental_uris": {"android": "https://dc.lft.to/lastmile_qr_scan", "ios": "https://dc.lft.to/lastmile_qr_scan"}, "fusion_lon": 0.0, "lat": 38.90621733333333, "bike_id": "ba1e977fe3f33788cc931c3f25fe15c2", "type": "electric_scooter", "is_reserved": 0, "lon": -77.0056975}, {"fusion_lat": 0.0, "name": "e39c3b0cf40286cf12ea38cb3cbb183e", "is_disabled": 0, "rental_uris": {"android": "https://dc.lft.to/lastmile_qr_scan", "ios": "https://dc.lft.to/lastmile_qr_scan"}, "fusion_lon": 0.0, "lat": 38.931000166666664, "bike_id": "e39c3b0cf40286cf12ea38cb3cbb183e", "type": "electric_scooter", "is_reserved": 0, "lon": -77.038098}, {"fusion_lat": 0.0, "name": "76b1deaedc323d8b85e03d6dea62c208", "is_disabled": 0, "rental_uris": {"android": "https://dc.lft.to/lastmile_qr_scan", "ios": "https://dc.lft.to/lastmile_qr_scan"}, "fusion_lon": 0.0, "lat": 38.90828916666667, "bike_id": "76b1deaedc323d8b85e03d6dea62c208", "type": "electric_scooter", "is_reserved": 0, "lon": -77.03652866666667}, {"fusion_lat": 0.0, "name": "c7c6eabe484be551ed83b3cf78d4a5cd", "is_disabled": 0, "rental_uris": {"android": "https://dc.lft.to/lastmile_qr_scan", "ios": "https://dc.lft.to/lastmile_qr_scan"}, "fusion_lon": 0.0, "lat": 38.89751433333333, "bike_id": "c7c6eabe484be551ed83b3cf78d4a5cd", "type": "electric_scooter", "is_reserved": 0, "lon": -77.0489245}, {"fusion_lat": 0.0, "name": "c79312389b72766330e79344bc5bc200", "is_disabled": 0, "rental_uris": {"android": "https://dc.lft.to/lastmile_qr_scan", "ios": "https://dc.lft.to/lastmile_qr_scan"}, "fusion_lon": 0.0, "lat": 38.9170675, "bike_id": "c79312389b72766330e79344bc5bc200", "type": "electric_scooter", "is_reserved": 0, "lon": -77.024213}, {"fusion_lat": 0.0, "name": "876aca0d804d8438fcd373a48b040128", "is_disabled": 0, "rental_uris": {"android": "https://dc.lft.to/lastmile_qr_scan", "ios": "https://dc.lft.to/lastmile_qr_scan"}, "fusion_lon": 0.0, "lat": 38.84836816666667, "bike_id": "876aca0d804d8438fcd373a48b040128", "type": "electric_bike", "is_reserved": 0, "lon": -77.07923066666666}, {"fusion_lat": 0.0, "name": "1d075799c9a7c130238f2c1db313d733", "is_disabled": 0, "rental_uris": {"android": "https://dc.lft.to/lastmile_qr_scan", "ios": "https://dc.lft.to/lastmile_qr_scan"}, "fusion_lon": 0.0, "lat": 38.92922733333333, "bike_id": "1d075799c9a7c130238f2c1db313d733", "type": "electric_scooter", "is_reserved": 0, "lon": -77.03279066666667}, {"fusion_lat": 0.0, "name": "665d252eea6578ab3d21b958d0b4611f", "is_disabled": 0, "rental_uris": {"android": "https://dc.lft.to/lastmile_qr_scan", "ios": "https://dc.lft.to/lastmile_qr_scan"}, "fusion_lon": 0.0, "lat": 38.938614333333334, "bike_id": "665d252eea6578ab3d21b958d0b4611f", "type": "electric_scooter", "is_reserved": 0, "lon": -77.02943}, {"fusion_lat": 0.0, "name": "08afd8a6e5182e858300b4808642d3fd", "is_disabled": 0, "rental_uris": {"android": "https://dc.lft.to/lastmile_qr_scan", "ios": "https://dc.lft.to/lastmile_qr_scan"}, "fusion_lon": 0.0, "lat": 38.91607616666667, "bike_id": "08afd8a6e5182e858300b4808642d3fd", "type": "electric_scooter", "is_reserved": 0, "lon": -77.02163683333333}, {"fusion_lat": 0.0, "name": "ecce648e8c4232c591a08f18fceed017", "is_disabled": 0, "rental_uris": {"android": "https://dc.lft.to/lastmile_qr_scan", "ios": "https://dc.lft.to/lastmile_qr_scan"}, "fusion_lon": 0.0, "lat": 38.949243333333335, "bike_id": "ecce648e8c4232c591a08f18fceed017", "type": "electric_bike", "is_reserved": 0, "lon": -77.00799816666667}, {"fusion_lat": 0.0, "name": "613684108ba8ecdf3f27804d509041a7", "is_disabled": 0, "rental_uris": {"android": "https://dc.lft.to/lastmile_qr_scan", "ios": "https://dc.lft.to/lastmile_qr_scan"}, "fusion_lon": 0.0, "lat": 38.9070385, "bike_id": "613684108ba8ecdf3f27804d509041a7", "type": "electric_scooter", "is_reserved": 0, "lon": -76.99835616666667}, {"fusion_lat": 0.0, "name": "d71fe56b97a2cd4bfac660184df9ba97", "is_disabled": 0, "rental_uris": {"android": "https://dc.lft.to/lastmile_qr_scan", "ios": "https://dc.lft.to/lastmile_qr_scan"}, "fusion_lon": 0.0, "lat": 38.912760666666664, "bike_id": "d71fe56b97a2cd4bfac660184df9ba97", "type": "electric_scooter", "is_reserved": 0, "lon": -77.02244166666667}, {"fusion_lat": 0.0, "name": "b7514ef24ddcc4f243506cb2c0a0b6e2", "is_disabled": 0, "rental_uris": {"android": "https://dc.lft.to/lastmile_qr_scan", "ios": "https://dc.lft.to/lastmile_qr_scan"}, "fusion_lon": 0.0, "lat": 38.9174865, "bike_id": "b7514ef24ddcc4f243506cb2c0a0b6e2", "type": "electric_scooter", "is_reserved": 0, "lon": -77.0457505}, {"fusion_lat": 0.0, "name": "a425f3eb31869acd5683190cca546714", "is_disabled": 0, "rental_uris": {"android": "https://dc.lft.to/lastmile_qr_scan", "ios": "https://dc.lft.to/lastmile_qr_scan"}, "fusion_lon": 0.0, "lat": 38.922435, "bike_id": "a425f3eb31869acd5683190cca546714", "type": "electric_scooter", "is_reserved": 0, "lon": -77.03881983333333}, {"fusion_lat": 0.0, "name": "e3d5c367af05c816020290adcecdb13c", "is_disabled": 0, "rental_uris": {"android": "https://dc.lft.to/lastmile_qr_scan", "ios": "https://dc.lft.to/lastmile_qr_scan"}, "fusion_lon": 0.0, "lat": 38.941225833333334, "bike_id": "e3d5c367af05c816020290adcecdb13c", "type": "electric_bike", "is_reserved": 0, "lon": -76.99031783333334}, {"fusion_lat": 0.0, "name": "39514b9017534c9da4d17923baa27a2d", "is_disabled": 0, "rental_uris": {"android": "https://dc.lft.to/lastmile_qr_scan", "ios": "https://dc.lft.to/lastmile_qr_scan"}, "fusion_lon": 0.0, "lat": 38.916222, "bike_id": "39514b9017534c9da4d17923baa27a2d", "type": "electric_scooter", "is_reserved": 0, "lon": -77.096492}, {"fusion_lat": 0.0, "name": "91efcf1a17e9f5484131350e9b102edf", "is_disabled": 0, "rental_uris": {"android": "https://dc.lft.to/lastmile_qr_scan", "ios": "https://dc.lft.to/lastmile_qr_scan"}, "fusion_lon": 0.0, "lat": 38.903902333333335, "bike_id": "91efcf1a17e9f5484131350e9b102edf", "type": "electric_scooter", "is_reserved": 0, "lon": -77.03836616666666}, {"fusion_lat": 0.0, "name": "41a6537cf80df68a4be3f8755b15a320", "is_disabled": 0, "rental_uris": {"android": "https://dc.lft.to/lastmile_qr_scan", "ios": "https://dc.lft.to/lastmile_qr_scan"}, "fusion_lon": 0.0, "lat": 38.90973483333333, "bike_id": "41a6537cf80df68a4be3f8755b15a320", "type": "electric_scooter", "is_reserved": 0, "lon": -77.031964}, {"fusion_lat": 0.0, "name": "7133416fd18afcf39111370763ba8ad4", "is_disabled": 0, "rental_uris": {"android": "https://dc.lft.to/lastmile_qr_scan", "ios": "https://dc.lft.to/lastmile_qr_scan"}, "fusion_lon": 0.0, "lat": 38.92790133333333, "bike_id": "7133416fd18afcf39111370763ba8ad4", "type": "electric_scooter", "is_reserved": 0, "lon": -77.022538}, {"fusion_lat": 0.0, "name": "d1d9b44ac5aa64e6f5746536c64b8ad5", "is_disabled": 0, "rental_uris": {"android": "https://dc.lft.to/lastmile_qr_scan", "ios": "https://dc.lft.to/lastmile_qr_scan"}, "fusion_lon": 0.0, "lat": 38.877218, "bike_id": "d1d9b44ac5aa64e6f5746536c64b8ad5", "type": "electric_scooter", "is_reserved": 0, "lon": -77.0176295}, {"fusion_lat": 0.0, "name": "476c827692fc046914b14a7a2a882cf0", "is_disabled": 0, "rental_uris": {"android": "https://dc.lft.to/lastmile_qr_scan", "ios": "https://dc.lft.to/lastmile_qr_scan"}, "fusion_lon": 0.0, "lat": 38.906065, "bike_id": "476c827692fc046914b14a7a2a882cf0", "type": "electric_scooter", "is_reserved": 0, "lon": -77.06286433333334}, {"fusion_lat": 0.0, "name": "b38d90549a0364bf7500f76c14d32a6b", "is_disabled": 0, "rental_uris": {"android": "https://dc.lft.to/lastmile_qr_scan", "ios": "https://dc.lft.to/lastmile_qr_scan"}, "fusion_lon": 0.0, "lat": 38.900642, "bike_id": "b38d90549a0364bf7500f76c14d32a6b", "type": "electric_scooter", "is_reserved": 0, "lon": -76.927449}, {"fusion_lat": 0.0, "name": "f788756333ff51a0a760574000316181", "is_disabled": 0, "rental_uris": {"android": "https://dc.lft.to/lastmile_qr_scan", "ios": "https://dc.lft.to/lastmile_qr_scan"}, "fusion_lon": 0.0, "lat": 38.927549666666664, "bike_id": "f788756333ff51a0a760574000316181", "type": "electric_scooter", "is_reserved": 0, "lon": -77.02427183333333}, {"fusion_lat": 0.0, "name": "59cea981cbcbb51183b1a7dbd25f9fb3", "is_disabled": 0, "rental_uris": {"android": "https://dc.lft.to/lastmile_qr_scan", "ios": "https://dc.lft.to/lastmile_qr_scan"}, "fusion_lon": 0.0, "lat": 38.89670783333333, "bike_id": "59cea981cbcbb51183b1a7dbd25f9fb3", "type": "electric_scooter", "is_reserved": 0, "lon": -77.05134233333334}, {"fusion_lat": 0.0, "name": "4b0812a20268b75da014a72f83246f86", "is_disabled": 0, "rental_uris": {"android": "https://dc.lft.to/lastmile_qr_scan", "ios": "https://dc.lft.to/lastmile_qr_scan"}, "fusion_lon": 0.0, "lat": 38.87534133333333, "bike_id": "4b0812a20268b75da014a72f83246f86", "type": "electric_scooter", "is_reserved": 0, "lon": -77.00505483333333}, {"fusion_lat": 0.0, "name": "979b6c39881a0a2c36e34560867260af", "is_disabled": 0, "rental_uris": {"android": "https://dc.lft.to/lastmile_qr_scan", "ios": "https://dc.lft.to/lastmile_qr_scan"}, "fusion_lon": 0.0, "lat": 38.8954315, "bike_id": "979b6c39881a0a2c36e34560867260af", "type": "electric_scooter", "is_reserved": 0, "lon": -76.94950316666667}, {"fusion_lat": 0.0, "name": "b0cb3e0d2c08e3c324e2667f9e3a63a6", "is_disabled": 0, "rental_uris": {"android": "https://dc.lft.to/lastmile_qr_scan", "ios": "https://dc.lft.to/lastmile_qr_scan"}, "fusion_lon": 0.0, "lat": 38.95752233333333, "bike_id": "b0cb3e0d2c08e3c324e2667f9e3a63a6", "type": "electric_scooter", "is_reserved": 0, "lon": -77.02051133333333}, {"fusion_lat": 0.0, "name": "a7c06ed47b3de5aa8b42eab83fe7663e", "is_disabled": 0, "rental_uris": {"android": "https://dc.lft.to/lastmile_qr_scan", "ios": "https://dc.lft.to/lastmile_qr_scan"}, "fusion_lon": 0.0, "lat": 38.90266416666667, "bike_id": "a7c06ed47b3de5aa8b42eab83fe7663e", "type": "electric_scooter", "is_reserved": 0, "lon": -77.03970833333334}, {"fusion_lat": 0.0, "name": "0706fec46813f9f150315e5203f40e49", "is_disabled": 0, "rental_uris": {"android": "https://dc.lft.to/lastmile_qr_scan", "ios": "https://dc.lft.to/lastmile_qr_scan"}, "fusion_lon": 0.0, "lat": 38.875150166666664, "bike_id": "0706fec46813f9f150315e5203f40e49", "type": "electric_scooter", "is_reserved": 0, "lon": -77.00107516666667}, {"fusion_lat": 0.0, "name": "e227fd110b07aea96b2a5283ec70b1c2", "is_disabled": 0, "rental_uris": {"android": "https://dc.lft.to/lastmile_qr_scan", "ios": "https://dc.lft.to/lastmile_qr_scan"}, "fusion_lon": 0.0, "lat": 38.9232105, "bike_id": "e227fd110b07aea96b2a5283ec70b1c2", "type": "electric_scooter", "is_reserved": 0, "lon": -77.0441105}, {"fusion_lat": 0.0, "name": "923434ff88d744b9d2ac5027461266c6", "is_disabled": 0, "rental_uris": {"android": "https://dc.lft.to/lastmile_qr_scan", "ios": "https://dc.lft.to/lastmile_qr_scan"}, "fusion_lon": 0.0, "lat": 38.8766645, "bike_id": "923434ff88d744b9d2ac5027461266c6", "type": "electric_scooter", "is_reserved": 0, "lon": -76.99625983333334}, {"fusion_lat": 0.0, "name": "db4bad10d76d26da73f2510d7b9a513e", "is_disabled": 0, "rental_uris": {"android": "https://dc.lft.to/lastmile_qr_scan", "ios": "https://dc.lft.to/lastmile_qr_scan"}, "fusion_lon": 0.0, "lat": 38.8738765, "bike_id": "db4bad10d76d26da73f2510d7b9a513e", "type": "electric_scooter", "is_reserved": 0, "lon": -77.00038216666667}, {"fusion_lat": 0.0, "name": "40882446f817de702877f515f27506ad", "is_disabled": 0, "rental_uris": {"android": "https://dc.lft.to/lastmile_qr_scan", "ios": "https://dc.lft.to/lastmile_qr_scan"}, "fusion_lon": 0.0, "lat": 38.92601916666667, "bike_id": "40882446f817de702877f515f27506ad", "type": "electric_scooter", "is_reserved": 0, "lon": -77.02155333333333}, {"fusion_lat": 0.0, "name": "28bfdb18a4ac9cfacf11c76791fa7d39", "is_disabled": 0, "rental_uris": {"android": "https://dc.lft.to/lastmile_qr_scan", "ios": "https://dc.lft.to/lastmile_qr_scan"}, "fusion_lon": 0.0, "lat": 38.9161425, "bike_id": "28bfdb18a4ac9cfacf11c76791fa7d39", "type": "electric_scooter", "is_reserved": 0, "lon": -77.04553933333334}, {"fusion_lat": 0.0, "name": "4ea1ca4b360c2184b4fedd71a297ff94", "is_disabled": 0, "rental_uris": {"android": "https://dc.lft.to/lastmile_qr_scan", "ios": "https://dc.lft.to/lastmile_qr_scan"}, "fusion_lon": 0.0, "lat": 38.914906, "bike_id": "4ea1ca4b360c2184b4fedd71a297ff94", "type": "electric_scooter", "is_reserved": 0, "lon": -77.0427775}, {"fusion_lat": 0.0, "name": "d0c4fbfa70ab04a986350e78aad8c939", "is_disabled": 0, "rental_uris": {"android": "https://dc.lft.to/lastmile_qr_scan", "ios": "https://dc.lft.to/lastmile_qr_scan"}, "fusion_lon": 0.0, "lat": 38.8930535, "bike_id": "d0c4fbfa70ab04a986350e78aad8c939", "type": "electric_scooter", "is_reserved": 0, "lon": -77.0259015}, {"fusion_lat": 0.0, "name": "33097b640f998787f5763d6a3a07ae8a", "is_disabled": 0, "rental_uris": {"android": "https://dc.lft.to/lastmile_qr_scan", "ios": "https://dc.lft.to/lastmile_qr_scan"}, "fusion_lon": 0.0, "lat": 38.887484, "bike_id": "33097b640f998787f5763d6a3a07ae8a", "type": "electric_scooter", "is_reserved": 0, "lon": -77.01781716666666}, {"fusion_lat": 0.0, "name": "7e2d8c6457c9c553f2fe16a00e0fbe0d", "is_disabled": 0, "rental_uris": {"android": "https://dc.lft.to/lastmile_qr_scan", "ios": "https://dc.lft.to/lastmile_qr_scan"}, "fusion_lon": 0.0, "lat": 38.9010675, "bike_id": "7e2d8c6457c9c553f2fe16a00e0fbe0d", "type": "electric_scooter", "is_reserved": 0, "lon": -77.05902066666667}, {"fusion_lat": 0.0, "name": "aabacf9003b5aaefddcb2488285463ab", "is_disabled": 0, "rental_uris": {"android": "https://dc.lft.to/lastmile_qr_scan", "ios": "https://dc.lft.to/lastmile_qr_scan"}, "fusion_lon": 0.0, "lat": 38.899047833333334, "bike_id": "aabacf9003b5aaefddcb2488285463ab", "type": "electric_scooter", "is_reserved": 0, "lon": -76.993917}, {"fusion_lat": 0.0, "name": "4cf77331c360bbce29e603135204afea", "is_disabled": 0, "rental_uris": {"android": "https://dc.lft.to/lastmile_qr_scan", "ios": "https://dc.lft.to/lastmile_qr_scan"}, "fusion_lon": 0.0, "lat": 38.91690633333333, "bike_id": "4cf77331c360bbce29e603135204afea", "type": "electric_scooter", "is_reserved": 0, "lon": -77.037539}, {"fusion_lat": 0.0, "name": "bc7615e2021dbdfefb99817c478cfa83", "is_disabled": 0, "rental_uris": {"android": "https://dc.lft.to/lastmile_qr_scan", "ios": "https://dc.lft.to/lastmile_qr_scan"}, "fusion_lon": 0.0, "lat": 38.9005335, "bike_id": "bc7615e2021dbdfefb99817c478cfa83", "type": "electric_scooter", "is_reserved": 0, "lon": -77.03920666666667}, {"fusion_lat": 0.0, "name": "398547b6d752353a66577af9dc1b4901", "is_disabled": 0, "rental_uris": {"android": "https://dc.lft.to/lastmile_qr_scan", "ios": "https://dc.lft.to/lastmile_qr_scan"}, "fusion_lon": 0.0, "lat": 38.95636966666667, "bike_id": "398547b6d752353a66577af9dc1b4901", "type": "electric_bike", "is_reserved": 0, "lon": -76.93866316666667}, {"fusion_lat": 0.0, "name": "382c9909249fb037482c7885d0f314d2", "is_disabled": 0, "rental_uris": {"android": "https://dc.lft.to/lastmile_qr_scan", "ios": "https://dc.lft.to/lastmile_qr_scan"}, "fusion_lon": 0.0, "lat": 38.89527566666667, "bike_id": "382c9909249fb037482c7885d0f314d2", "type": "electric_scooter", "is_reserved": 0, "lon": -76.9341135}, {"fusion_lat": 0.0, "name": "3b1ea3a9a27329b51f34d99579c33781", "is_disabled": 0, "rental_uris": {"android": "https://dc.lft.to/lastmile_qr_scan", "ios": "https://dc.lft.to/lastmile_qr_scan"}, "fusion_lon": 0.0, "lat": 38.907249666666665, "bike_id": "3b1ea3a9a27329b51f34d99579c33781", "type": "electric_scooter", "is_reserved": 0, "lon": -77.0407955}, {"fusion_lat": 0.0, "name": "70acd6b4bc517b5fbfb2b524aa0b810c", "is_disabled": 0, "rental_uris": {"android": "https://dc.lft.to/lastmile_qr_scan", "ios": "https://dc.lft.to/lastmile_qr_scan"}, "fusion_lon": 0.0, "lat": 38.907598166666666, "bike_id": "70acd6b4bc517b5fbfb2b524aa0b810c", "type": "electric_scooter", "is_reserved": 0, "lon": -77.035841}, {"fusion_lat": 0.0, "name": "5d9a1efed1726f95e79021c74335849d", "is_disabled": 0, "rental_uris": {"android": "https://dc.lft.to/lastmile_qr_scan", "ios": "https://dc.lft.to/lastmile_qr_scan"}, "fusion_lon": 0.0, "lat": 38.924018, "bike_id": "5d9a1efed1726f95e79021c74335849d", "type": "electric_scooter", "is_reserved": 0, "lon": -77.0255655}, {"fusion_lat": 0.0, "name": "694c27d652a2501d11676e2f8f936f4e", "is_disabled": 0, "rental_uris": {"android": "https://dc.lft.to/lastmile_qr_scan", "ios": "https://dc.lft.to/lastmile_qr_scan"}, "fusion_lon": 0.0, "lat": 38.90954766666667, "bike_id": "694c27d652a2501d11676e2f8f936f4e", "type": "electric_scooter", "is_reserved": 0, "lon": -77.023061}, {"fusion_lat": 0.0, "name": "f06b00b6847778709580030fd2617686", "is_disabled": 0, "rental_uris": {"android": "https://dc.lft.to/lastmile_qr_scan", "ios": "https://dc.lft.to/lastmile_qr_scan"}, "fusion_lon": 0.0, "lat": 38.8919975, "bike_id": "f06b00b6847778709580030fd2617686", "type": "electric_scooter", "is_reserved": 0, "lon": -77.04334533333333}, {"fusion_lat": 0.0, "name": "349805f9fbb02d75b58dc8abc1de0e09", "is_disabled": 0, "rental_uris": {"android": "https://dc.lft.to/lastmile_qr_scan", "ios": "https://dc.lft.to/lastmile_qr_scan"}, "fusion_lon": 0.0, "lat": 38.912674833333334, "bike_id": "349805f9fbb02d75b58dc8abc1de0e09", "type": "electric_scooter", "is_reserved": 0, "lon": -77.01930633333333}, {"fusion_lat": 0.0, "name": "f9d32dbc1b311dd214f64288da561c13", "is_disabled": 0, "rental_uris": {"android": "https://dc.lft.to/lastmile_qr_scan", "ios": "https://dc.lft.to/lastmile_qr_scan"}, "fusion_lon": 0.0, "lat": 38.90156866666667, "bike_id": "f9d32dbc1b311dd214f64288da561c13", "type": "electric_scooter", "is_reserved": 0, "lon": -77.02296316666667}, {"fusion_lat": 0.0, "name": "62402bc5ab72766ef7127fbdbe5a394b", "is_disabled": 0, "rental_uris": {"android": "https://dc.lft.to/lastmile_qr_scan", "ios": "https://dc.lft.to/lastmile_qr_scan"},