{"data": {"bikes": [{"fusion_lat": 0.0, "bike_id": "700f92bbdb49524731362e0b7d21208b", "fusion_lon": 0.0, "lon": -77.0272705, "lat": 38.89746783333333, "is_reserved": 0, "is_disabled": 0, "rental_uris": {"android": "https://dc.lft.to/lastmile_qr_scan", "ios": "https://dc.lft.to/lastmile_qr_scan"}, "name": "700f92bbdb49524731362e0b7d21208b", "type": "electric_scooter"}, {"fusion_lat": 0.0, "bike_id": "b8af9b514105c2ab8fd5c2b5755372e0", "fusion_lon": 0.0, "lon": -77.06465483333334, "lat": 38.9460425, "is_reserved": 0, "is_disabled": 0, "rental_uris": {"android": "https://dc.lft.to/lastmile_qr_scan", "ios": "https://dc.lft.to/lastmile_qr_scan"}, "name": "b8af9b514105c2ab8fd5c2b5755372e0", "type": "electric_bike"}, {"fusion_lat": 0.0, "bike_id": "218536052d9fd3330ea68dda838e01e2", "fusion_lon": 0.0, "lon": -77.03187433333333, "lat": 38.887392, "is_reserved": 0, "is_disabled": 0, "rental_uris": {"android": "https://dc.lft.to/lastmile_qr_scan", "ios": "https://dc.lft.to/lastmile_qr_scan"}, "name": "218536052d9fd3330ea68dda838e01e2", "type": "electric_scooter"}, {"fusion_lat": 0.0, "bike_id": "910f1d7364d6f5d18648217120112663", "fusion_lon": 0.0, "lon": -77.02804683333333, "lat": 38.9122095, "is_reserved": 0, "is_disabled": 0, "rental_uris": {"android": "https://dc.lft.to/lastmile_qr_scan", "ios": "https://dc.lft.to/lastmile_qr_scan"}, "name": "910f1d7364d6f5d18648217120112663", "type": "electric_scooter"}, {"fusion_lat": 0.0, "bike_id": "170239f1635770dc36722d29c7193cdf", "fusion_lon": 0.0, "lon": -77.0296815, "lat": 38.926672, "is_reserved": 0, "is_disabled": 0, "rental_uris": {"android": "https://dc.lft.to/lastmile_qr_scan", "ios": "https://dc.lft.to/lastmile_qr_scan"}, "name": "170239f1635770dc36722d29c7193cdf", "type": "electric_scooter"}, {"fusion_lat": 0.0, "bike_id": "5c2017ac62c95e8e699c80040ca9333a", "fusion_lon": 0.0, "lon": -77.02793216666667, "lat": 38.954021, "is_reserved": 0, "is_disabled": 0, "rental_uris": {"android": "https://dc.lft.to/lastmile_qr_scan", "ios": "https://dc.lft.to/lastmile_qr_scan"}, "name": "5c2017ac62c95e8e699c80040ca9333a", "type": "electric_scooter"}, {"fusion_lat": 0.0, "bike_id": "4309fb347bb50ede79670c98270e544b", "fusion_lon": 0.0, "lon": -77.03185766666667, "lat": 38.910028, "is_reserved": 0, "is_disabled": 0, "rental_uris": {"android": "https://dc.lft.to/lastmile_qr_scan", "ios": "https://dc.lft.to/lastmile_qr_scan"}, "name": "4309fb347bb50ede79670c98270e544b", "type": "electric_scooter"}, {"fusion_lat": 0.0, "bike_id": "08cd48ad769710931555a21fdf945b9b", "fusion_lon": 0.0, "lon": -77.0196855, "lat": 38.9193255, "is_reserved": 0, "is_disabled": 0, "rental_uris": {"android": "https://dc.lft.to/lastmile_qr_scan", "ios": "https://dc.lft.to/lastmile_qr_scan"}, "name": "08cd48ad769710931555a21fdf945b9b", "type": "electric_scooter"}, {"fusion_lat": 0.0, "bike_id": "4224919cbb45b02518f3e2f598e420b4", "fusion_lon": 0.0, "lon": -77.02719916666666, "lat": 38.90669316666666, "is_reserved": 0, "is_disabled": 0, "rental_uris": {"android": "https://dc.lft.to/lastmile_qr_scan", "ios": "https://dc.lft.to/lastmile_qr_scan"}, "name": "4224919cbb45b02518f3e2f598e420b4", "type": "electric_scooter"}, {"fusion_lat": 0.0, "bike_id": "56de045841a11f6a27d9d9cf5f0577b8", "fusion_lon": 0.0, "lon": -77.00742233333334, "lat": 38.925334666666664, "is_reserved": 0, "is_disabled": 0, "rental_uris": {"android": "https://dc.lft.to/lastmile_qr_scan", "ios": "https://dc.lft.to/lastmile_qr_scan"}, "name": "56de045841a11f6a27d9d9cf5f0577b8", "type": "electric_scooter"}, {"fusion_lat": 0.0, "bike_id": "f0d7490758115f4a04ec082dc53ef95c", "fusion_lon": 0.0, "lon": -77.02249766666667, "lat": 38.892059, "is_reserved": 0, "is_disabled": 0, "rental_uris": {"android": "https://dc.lft.to/lastmile_qr_scan", "ios": "https://dc.lft.to/lastmile_qr_scan"}, "name": "f0d7490758115f4a04ec082dc53ef95c", "type": "electric_scooter"}, {"fusion_lat": 0.0, "bike_id": "012199661d83d3a650b0156feea4773b", "fusion_lon": 0.0, "lon": -77.04146766666666, "lat": 38.92298316666667, "is_reserved": 0, "is_disabled": 0, "rental_uris": {"android": "https://dc.lft.to/lastmile_qr_scan", "ios": "https://dc.lft.to/lastmile_qr_scan"}, "name": "012199661d83d3a650b0156feea4773b", "type": "electric_scooter"}, {"fusion_lat": 0.0, "bike_id": "1f766d3536af4360f9aad910e458fc3b", "fusion_lon": 0.0, "lon": -76.963907, "lat": 38.951696, "is_reserved": 0, "is_disabled": 0, "rental_uris": {"android": "https://dc.lft.to/lastmile_qr_scan", "ios": "https://dc.lft.to/lastmile_qr_scan"}, "name": "1f766d3536af4360f9aad910e458fc3b", "type": "electric_bike"}, {"fusion_lat": 0.0, "bike_id": "f891cb9159cdb18e5e69876c2764a1af", "fusion_lon": 0.0, "lon": -76.99037466666667, "lat": 38.9028835, "is_reserved": 0, "is_disabled": 0, "rental_uris": {"android": "https://dc.lft.to/lastmile_qr_scan", "ios": "https://dc.lft.to/lastmile_qr_scan"}, "name": "f891cb9159cdb18e5e69876c2764a1af", "type": "electric_scooter"}, {"fusion_lat": 0.0, "bike_id": "08f60787cd07db3defbde76393236572", "fusion_lon": 0.0, "lon": -77.2280055, "lat": 38.910146166666664, "is_reserved": 0, "is_disabled": 0, "rental_uris": {"android": "https://dc.lft.to/lastmile_qr_scan", "ios": "https://dc.lft.to/lastmile_qr_scan"}, "name": "08f60787cd07db3defbde76393236572", "type": "electric_bike"}, {"fusion_lat": 0.0, "bike_id": "119f50e2097805a044cb0c1f1e7a9696", "fusion_lon": 0.0, "lon": -77.0467325, "lat": 38.899537, "is_reserved": 0, "is_disabled": 0, "rental_uris": {"android": "https://dc.lft.to/lastmile_qr_scan", "ios": "https://dc.lft.to/lastmile_qr_scan"}, "name": "119f50e2097805a044cb0c1f1e7a9696", "type": "electric_scooter"}, {"fusion_lat": 0.0, "bike_id": "949852e4ce6afd800ea4a917e0dffd79", "fusion_lon": 0.0, "lon": -76.93754533333333, "lat": 38.890388, "is_reserved": 0, "is_disabled": 0, "rental_uris": {"android": "https://dc.lft.to/lastmile_qr_scan", "ios": "https://dc.lft.to/lastmile_qr_scan"}, "name": "949852e4ce6afd800ea4a917e0dffd79", "type": "electric_scooter"}, {"fusion_lat": 0.0, "bike_id": "d35b9a3608760557fe724d4884914b88", "fusion_lon": 0.0, "lon": -77.0418475, "lat": 38.8925345, "is_reserved": 0, "is_disabled": 0, "rental_uris": {"android": "https://dc.lft.to/lastmile_qr_scan", "ios": "https://dc.lft.to/lastmile_qr_scan"}, "name": "d35b9a3608760557fe724d4884914b88", "type": "electric_scooter"}, {"fusion_lat": 0.0, "bike_id": "f79f319bce7be4543333faa91e23b13b", "fusion_lon": 0.0, "lon": -77.02718316666666, "lat": 38.90670166666666, "is_reserved": 0, "is_disabled": 0, "rental_uris": {"android": "https://dc.lft.to/lastmile_qr_scan", "ios": "https://dc.lft.to/lastmile_qr_scan"}, "name": "f79f319bce7be4543333faa91e23b13b", "type": "electric_scooter"}, {"fusion_lat": 0.0, "bike_id": "987f74f85590785c70629a5541ad4b3a", "fusion_lon": 0.0, "lon": -77.01956166666666, "lat": 38.923146, "is_reserved": 0, "is_disabled": 0, "rental_uris": {"android": "https://dc.lft.to/lastmile_qr_scan", "ios": "https://dc.lft.to/lastmile_qr_scan"}, "name": "987f74f85590785c70629a5541ad4b3a", "type": "electric_scooter"}, {"fusion_lat": 0.0, "bike_id": "4a7a8eb3cb38993fde59d3e92b0e60d4", "fusion_lon": 0.0, "lon": -77.06617233333333, "lat": 38.91217366666667, "is_reserved": 0, "is_disabled": 0, "rental_uris": {"android": "https://dc.lft.to/lastmile_qr_scan", "ios": "https://dc.lft.to/lastmile_qr_scan"}, "name": "4a7a8eb3cb38993fde59d3e92b0e60d4", "type": "electric_scooter"}, {"fusion_lat": 0.0, "bike_id": "c3ae9e0f2052eecaafbbc1bbb3313624", "fusion_lon": 0.0, "lon": -77.02124933333333, "lat": 38.92233983333333, "is_reserved": 0, "is_disabled": 0, "rental_uris": {"android": "https://dc.lft.to/lastmile_qr_scan", "ios": "https://dc.lft.to/lastmile_qr_scan"}, "name": "c3ae9e0f2052eecaafbbc1bbb3313624", "type": "electric_scooter"}, {"fusion_lat": 0.0, "bike_id": "c7223c859759d151d399af24ac321c5c", "fusion_lon": 0.0, "lon": -77.02898316666666, "lat": 38.917131499999996, "is_reserved": 0, "is_disabled": 0, "rental_uris": {"android": "https://dc.lft.to/lastmile_qr_scan", "ios": "https://dc.lft.to/lastmile_qr_scan"}, "name": "c7223c859759d151d399af24ac321c5c", "type": "electric_scooter"}, {"fusion_lat": 0.0, "bike_id": "8f615518b72ee5610ff1f2cce5ddccf0", "fusion_lon": 0.0, "lon": -77.07536583333334, "lat": 38.910692, "is_reserved": 0, "is_disabled": 0, "rental_uris": {"android": "https://dc.lft.to/lastmile_qr_scan", "ios": "https://dc.lft.to/lastmile_qr_scan"}, "name": "8f615518b72ee5610ff1f2cce5ddccf0", "type": "electric_bike"}, {"fusion_lat": 0.0, "bike_id": "f922552522c269a210b4a431e0e816b9", "fusion_lon": 0.0, "lon": -77.0311845, "lat": 38.915703666666666, "is_reserved": 0, "is_disabled": 0, "rental_uris": {"android": "https://dc.lft.to/lastmile_qr_scan", "ios": "https://dc.lft.to/lastmile_qr_scan"}, "name": "f922552522c269a210b4a431e0e816b9", "type": "electric_scooter"}, {"fusion_lat": 0.0, "bike_id": "739e9dcf1e2acf3eb7cb025831c3aca7", "fusion_lon": 0.0, "lon": -77.0292475, "lat": 38.934597, "is_reserved": 0, "is_disabled": 0, "rental_uris": {"android": "https://dc.lft.to/lastmile_qr_scan", "ios": "https://dc.lft.to/lastmile_qr_scan"}, "name": "739e9dcf1e2acf3eb7cb025831c3aca7", "type": "electric_scooter"}, {"fusion_lat": 0.0, "bike_id": "d2dd1953acf74846083ea83d244a6578", "fusion_lon": 0.0, "lon": -76.98777316666667, "lat": 38.86735933333333, "is_reserved": 0, "is_disabled": 0, "rental_uris": {"android": "https://dc.lft.to/lastmile_qr_scan", "ios": "https://dc.lft.to/lastmile_qr_scan"}, "name": "d2dd1953acf74846083ea83d244a6578", "type": "electric_scooter"}, {"fusion_lat": 0.0, "bike_id": "17b47b1f15894e772c5637bb0d46bcda", "fusion_lon": 0.0, "lon": -76.97672, "lat": 38.952461, "is_reserved": 0, "is_disabled": 0, "rental_uris": {"android": "https://dc.lft.to/lastmile_qr_scan", "ios": "https://dc.lft.to/lastmile_qr_scan"}, "name": "17b47b1f15894e772c5637bb0d46bcda", "type": "electric_bike"}, {"fusion_lat": 0.0, "bike_id": "5b51f4fa981c08b8a98925cd7433e129", "fusion_lon": 0.0, "lon": -77.05237583333333, "lat": 38.925511166666666, "is_reserved": 0, "is_disabled": 0, "rental_uris": {"android": "https://dc.lft.to/lastmile_qr_scan", "ios": "https://dc.lft.to/lastmile_qr_scan"}, "name": "5b51f4fa981c08b8a98925cd7433e129", "type": "electric_scooter"}, {"fusion_lat": 0.0, "bike_id": "29ee65dea70434e54b4acf16cc3ca3d9", "fusion_lon": 0.0, "lon": -77.02841116666667, "lat": 38.932766, "is_reserved": 0, "is_disabled": 0, "rental_uris": {"android": "https://dc.lft.to/lastmile_qr_scan", "ios": "https://dc.lft.to/lastmile_qr_scan"}, "name": "29ee65dea70434e54b4acf16cc3ca3d9", "type": "electric_scooter"}, {"fusion_lat": 0.0, "bike_id": "b3b205e17562fa92ad7bd9f806d7b955", "fusion_lon": 0.0, "lon": -77.03836616666666, "lat": 38.9119765, "is_reserved": 0, "is_disabled": 0, "rental_uris": {"android": "https://dc.lft.to/lastmile_qr_scan", "ios": "https://dc.lft.to/lastmile_qr_scan"}, "name": "b3b205e17562fa92ad7bd9f806d7b955", "type": "electric_scooter"}, {"fusion_lat": 0.0, "bike_id": "cda80a6598cf8be5e9bc7c917e404b15", "fusion_lon": 0.0, "lon": -77.03832883333334, "lat": 38.90677483333333, "is_reserved": 0, "is_disabled": 0, "rental_uris": {"android": "https://dc.lft.to/lastmile_qr_scan", "ios": "https://dc.lft.to/lastmile_qr_scan"}, "name": "cda80a6598cf8be5e9bc7c917e404b15", "type": "electric_scooter"}, {"fusion_lat": 0.0, "bike_id": "d68f7ffc8b3f60d95c11c36e8c735f60", "fusion_lon": 0.0, "lon": -77.0391745, "lat": 38.89920883333333, "is_reserved": 0, "is_disabled": 0, "rental_uris": {"android": "https://dc.lft.to/lastmile_qr_scan", "ios": "https://dc.lft.to/lastmile_qr_scan"}, "name": "d68f7ffc8b3f60d95c11c36e8c735f60", "type": "electric_scooter"}, {"fusion_lat": 0.0, "bike_id": "44ffe17cecd809e426dca1f3885762ef", "fusion_lon": 0.0, "lon": -77.00986616666667, "lat": 38.872949, "is_reserved": 0, "is_disabled": 0, "rental_uris": {"android": "https://dc.lft.to/lastmile_qr_scan", "ios": "https://dc.lft.to/lastmile_qr_scan"}, "name": "44ffe17cecd809e426dca1f3885762ef", "type": "electric_scooter"}, {"fusion_lat": 0.0, "bike_id": "4e93e021c00f495cae324fcaa64f1e20", "fusion_lon": 0.0, "lon": -77.03444766666667, "lat": 38.90739033333333, "is_reserved": 0, "is_disabled": 0, "rental_uris": {"android": "https://dc.lft.to/lastmile_qr_scan", "ios": "https://dc.lft.to/lastmile_qr_scan"}, "name": "4e93e021c00f495cae324fcaa64f1e20", "type": "electric_scooter"}, {"fusion_lat": 0.0, "bike_id": "728ddd53c9889a96b3d7fd4e566be076", "fusion_lon": 0.0, "lon": -77.02980683333334, "lat": 38.924575, "is_reserved": 0, "is_disabled": 0, "rental_uris": {"android": "https://dc.lft.to/lastmile_qr_scan", "ios": "https://dc.lft.to/lastmile_qr_scan"}, "name": "728ddd53c9889a96b3d7fd4e566be076", "type": "electric_scooter"}, {"fusion_lat": 0.0, "bike_id": "43a9d2f5262ba6fbed2c678fd097637b", "fusion_lon": 0.0, "lon": -77.0320415, "lat": 38.91306866666667, "is_reserved": 0, "is_disabled": 0, "rental_uris": {"android": "https://dc.lft.to/lastmile_qr_scan", "ios": "https://dc.lft.to/lastmile_qr_scan"}, "name": "43a9d2f5262ba6fbed2c678fd097637b", "type": "electric_scooter"}, {"fusion_lat": 0.0, "bike_id": "b0bae573406c3643f9bca7ddfd3c66e6", "fusion_lon": 0.0, "lon": -77.01216233333334, "lat": 38.896946, "is_reserved": 0, "is_disabled": 0, "rental_uris": {"android": "https://dc.lft.to/lastmile_qr_scan", "ios": "https://dc.lft.to/lastmile_qr_scan"}, "name": "b0bae573406c3643f9bca7ddfd3c66e6", "type": "electric_scooter"}, {"fusion_lat": 0.0, "bike_id": "fed91fc35c1485d49022cdd7f8928069", "fusion_lon": 0.0, "lon": -77.0069945, "lat": 38.90928233333333, "is_reserved": 0, "is_disabled": 0, "rental_uris": {"android": "https://dc.lft.to/lastmile_qr_scan", "ios": "https://dc.lft.to/lastmile_qr_scan"}, "name": "fed91fc35c1485d49022cdd7f8928069", "type": "electric_scooter"}, {"fusion_lat": 0.0, "bike_id": "6a22bf6dbb5c41697871b40456864ded", "fusion_lon": 0.0, "lon": -77.03989416666667, "lat": 38.908532666666666, "is_reserved": 0, "is_disabled": 0, "rental_uris": {"android": "https://dc.lft.to/lastmile_qr_scan", "ios": "https://dc.lft.to/lastmile_qr_scan"}, "name": "6a22bf6dbb5c41697871b40456864ded", "type": "electric_scooter"}, {"fusion_lat": 0.0, "bike_id": "01745c3543f6253b44b20a3166ed6fe4", "fusion_lon": 0.0, "lon": -76.998081, "lat": 38.905008333333335, "is_reserved": 0, "is_disabled": 0, "rental_uris": {"android": "https://dc.lft.to/lastmile_qr_scan", "ios": "https://dc.lft.to/lastmile_qr_scan"}, "name": "01745c3543f6253b44b20a3166ed6fe4", "type": "electric_bike"}, {"fusion_lat": 0.0, "bike_id": "85f4bc62c163f9aed83856a7e495a9f0", "fusion_lon": 0.0, "lon": -77.02400883333334, "lat": 38.882850166666664, "is_reserved": 0, "is_disabled": 0, "rental_uris": {"android": "https://dc.lft.to/lastmile_qr_scan", "ios": "https://dc.lft.to/lastmile_qr_scan"}, "name": "85f4bc62c163f9aed83856a7e495a9f0", "type": "electric_scooter"}, {"fusion_lat": 0.0, "bike_id": "95db3a395c3bd80a10f3012be2c409d5", "fusion_lon": 0.0, "lon": -77.01956316666667, "lat": 38.923285666666665, "is_reserved": 0, "is_disabled": 0, "rental_uris": {"android": "https://dc.lft.to/lastmile_qr_scan", "ios": "https://dc.lft.to/lastmile_qr_scan"}, "name": "95db3a395c3bd80a10f3012be2c409d5", "type": "electric_scooter"}, {"fusion_lat": 0.0, "bike_id": "bd1aec5fc7f2dcf432dfd33fd5be9dc6", "fusion_lon": 0.0, "lon": -77.0282165, "lat": 38.9508385, "is_reserved": 0, "is_disabled": 0, "rental_uris": {"android": "https://dc.lft.to/lastmile_qr_scan", "ios": "https://dc.lft.to/lastmile_qr_scan"}, "name": "bd1aec5fc7f2dcf432dfd33fd5be9dc6", "type": "electric_scooter"}, {"fusion_lat": 0.0, "bike_id": "47ae340a407cb73156ae1a94da59087d", "fusion_lon": 0.0, "lon": -76.94981483333333, "lat": 38.893702833333336, "is_reserved": 0, "is_disabled": 0, "rental_uris": {"android": "https://dc.lft.to/lastmile_qr_scan", "ios": "https://dc.lft.to/lastmile_qr_scan"}, "name": "47ae340a407cb73156ae1a94da59087d", "type": "electric_scooter"}, {"fusion_lat": 0.0, "bike_id": "02e0ec419ed00f5e5417c65fd7c2f7eb", "fusion_lon": 0.0, "lon": -76.997389, "lat": 39.0423925, "is_reserved": 0, "is_disabled": 0, "rental_uris": {"android": "https://dc.lft.to/lastmile_qr_scan", "ios": "https://dc.lft.to/lastmile_qr_scan"}, "name": "02e0ec419ed00f5e5417c65fd7c2f7eb", "type": "electric_bike"}, {"fusion_lat": 0.0, "bike_id": "e33656d8d02254e3e04e0e388a2429a4", "fusion_lon": 0.0, "lon": -76.93540916666667, "lat": 38.896828666666664, "is_reserved": 0, "is_disabled": 0, "rental_uris": {"android": "https://dc.lft.to/lastmile_qr_scan", "ios": "https://dc.lft.to/lastmile_qr_scan"}, "name": "e33656d8d02254e3e04e0e388a2429a4", "type": "electric_scooter"}, {"fusion_lat": 0.0, "bike_id": "648f76965db7b3af622d5073b5f45a38", "fusion_lon": 0.0, "lon": -77.023866, "lat": 38.90799033333333, "is_reserved": 0, "is_disabled": 0, "rental_uris": {"android": "https://dc.lft.to/lastmile_qr_scan", "ios": "https://dc.lft.to/lastmile_qr_scan"}, "name": "648f76965db7b3af622d5073b5f45a38", "type": "electric_scooter"}, {"fusion_lat": 0.0, "bike_id": "123521677837e433d29b79914632e00c", "fusion_lon": 0.0, "lon": -77.025987, "lat": 38.94206416666667, "is_reserved": 0, "is_disabled": 0, "rental_uris": {"android": "https://dc.lft.to/lastmile_qr_scan", "ios": "https://dc.lft.to/lastmile_qr_scan"}, "name": "123521677837e433d29b79914632e00c", "type": "electric_scooter"}, {"fusion_lat": 0.0, "bike_id": "ce3605c12ea51eb8c80f9596243fcc43", "fusion_lon": 0.0, "lon": -76.9331275, "lat": 38.900971, "is_reserved": 0, "is_disabled": 0, "rental_uris": {"android": "https://dc.lft.to/lastmile_qr_scan", "ios": "https://dc.lft.to/lastmile_qr_scan"}, "name": "ce3605c12ea51eb8c80f9596243fcc43", "type": "electric_scooter"}, {"fusion_lat": 0.0, "bike_id": "ba2e74bb00378423742d5f042b80fd17", "fusion_lon": 0.0, "lon": -77.008895, "lat": 38.9611495, "is_reserved": 0, "is_disabled": 0, "rental_uris": {"android": "https://dc.lft.to/lastmile_qr_scan", "ios": "https://dc.lft.to/lastmile_qr_scan"}, "name": "ba2e74bb00378423742d5f042b80fd17", "type": "electric_scooter"}, {"fusion_lat": 0.0, "bike_id": "a43cdcd730e8571471acf35bc1aaf06b", "fusion_lon": 0.0, "lon": -77.01069183333334, "lat": 38.907289166666665, "is_reserved": 0, "is_disabled": 0, "rental_uris": {"android": "https://dc.lft.to/lastmile_qr_scan", "ios": "https://dc.lft.to/lastmile_qr_scan"}, "name": "a43cdcd730e8571471acf35bc1aaf06b", "type": "electric_bike"}, {"fusion_lat": 0.0, "bike_id": "7bb9951daf89587fb3d476d520a4dd84", "fusion_lon": 0.0, "lon": -77.023151, "lat": 38.887404833333335, "is_reserved": 0, "is_disabled": 0, "rental_uris": {"android": "https://dc.lft.to/lastmile_qr_scan", "ios": "https://dc.lft.to/lastmile_qr_scan"}, "name": "7bb9951daf89587fb3d476d520a4dd84", "type": "electric_scooter"}, {"fusion_lat": 0.0, "bike_id": "11fca2e84e541bf8b42a11fae250d8fa", "fusion_lon": 0.0, "lon": -77.04714283333334, "lat": 38.90320966666667, "is_reserved": 0, "is_disabled": 0, "rental_uris": {"android": "https://dc.lft.to/lastmile_qr_scan", "ios": "https://dc.lft.to/lastmile_qr_scan"}, "name": "11fca2e84e541bf8b42a11fae250d8fa", "type": "electric_scooter"}, {"fusion_lat": 0.0, "bike_id": "c7bb97fd181faac36178bbcf4eed5174", "fusion_lon": 0.0, "lon": -76.9939255, "lat": 38.892099, "is_reserved": 0, "is_disabled": 0, "rental_uris": {"android": "https://dc.lft.to/lastmile_qr_scan", "ios": "https://dc.lft.to/lastmile_qr_scan"}, "name": "c7bb97fd181faac36178bbcf4eed5174", "type": "electric_scooter"}, {"fusion_lat": 0.0, "bike_id": "d6426aa5e529a607d11ae24f6bad3730", "fusion_lon": 0.0, "lon": -77.02949266666667, "lat": 38.91696316666667, "is_reserved": 0, "is_disabled": 0, "rental_uris": {"android": "https://dc.lft.to/lastmile_qr_scan", "ios": "https://dc.lft.to/lastmile_qr_scan"}, "name": "d6426aa5e529a607d11ae24f6bad3730", "type": "electric_scooter"}, {"fusion_lat": 0.0, "bike_id": "0532392038bad0aaa23e00f39de53311", "fusion_lon": 0.0, "lon": -77.032253, "lat": 38.914019, "is_reserved": 0, "is_disabled": 0, "rental_uris": {"android": "https://dc.lft.to/lastmile_qr_scan", "ios": "https://dc.lft.to/lastmile_qr_scan"}, "name": "0532392038bad0aaa23e00f39de53311", "type": "electric_scooter"}, {"fusion_lat": 0.0, "bike_id": "5ad1bccef9063a9bde65f3c74a0c2ff9", "fusion_lon": 0.0, "lon": -77.016089, "lat": 38.876965, "is_reserved": 0, "is_disabled": 0, "rental_uris": {"android": "https://dc.lft.to/lastmile_qr_scan", "ios": "https://dc.lft.to/lastmile_qr_scan"}, "name": "5ad1bccef9063a9bde65f3c74a0c2ff9", "type": "electric_scooter"}, {"fusion_lat": 0.0, "bike_id": "c794e2e8a956c306a55f9b454c9b0d76", "fusion_lon": 0.0, "lon": -77.0328205, "lat": 38.9013955, "is_reserved": 0, "is_disabled": 0, "rental_uris": {"android": "https://dc.lft.to/lastmile_qr_scan", "ios": "https://dc.lft.to/lastmile_qr_scan"}, "name": "c794e2e8a956c306a55f9b454c9b0d76", "type": "electric_scooter"}, {"fusion_lat": 0.0, "bike_id": "8bd85c7c7203dfd92e4352a047e1020e", "fusion_lon": 0.0, "lon": -77.028316, "lat": 38.887335666666665, "is_reserved": 0, "is_disabled": 0, "rental_uris": {"android": "https://dc.lft.to/lastmile_qr_scan", "ios": "https://dc.lft.to/lastmile_qr_scan"}, "name": "8bd85c7c7203dfd92e4352a047e1020e", "type": "electric_scooter"}, {"fusion_lat": 0.0, "bike_id": "7a865d8372667882f98c02feaecec2b5", "fusion_lon": 0.0, "lon": -77.0266825, "lat": 38.91705416666667, "is_reserved": 0, "is_disabled": 0, "rental_uris": {"android": "https://dc.lft.to/lastmile_qr_scan", "ios": "https://dc.lft.to/lastmile_qr_scan"}, "name": "7a865d8372667882f98c02feaecec2b5", "type": "electric_scooter"}, {"fusion_lat": 0.0, "bike_id": "95c9084fe7f978052ad2ebab1e03ecf2", "fusion_lon": 0.0, "lon": -77.03211166666667, "lat": 38.928713, "is_reserved": 0, "is_disabled": 0, "rental_uris": {"android": "https://dc.lft.to/lastmile_qr_scan", "ios": "https://dc.lft.to/lastmile_qr_scan"}, "name": "95c9084fe7f978052ad2ebab1e03ecf2", "type": "electric_scooter"}, {"fusion_lat": 0.0, "bike_id": "47723e44ab13950eae900e12981c9788", "fusion_lon": 0.0, "lon": -77.05767266666666, "lat": 38.933922, "is_reserved": 0, "is_disabled": 0, "rental_uris": {"android": "https://dc.lft.to/lastmile_qr_scan", "ios": "https://dc.lft.to/lastmile_qr_scan"}, "name": "47723e44ab13950eae900e12981c9788", "type": "electric_scooter"}, {"fusion_lat": 0.0, "bike_id": "11444817023cfda5a9ab908a2f6534e7", "fusion_lon": 0.0, "lon": -77.03267933333333, "lat": 38.89847533333333, "is_reserved": 0, "is_disabled": 0, "rental_uris": {"android": "https://dc.lft.to/lastmile_qr_scan", "ios": "https://dc.lft.to/lastmile_qr_scan"}, "name": "11444817023cfda5a9ab908a2f6534e7", "type": "electric_scooter"}, {"fusion_lat": 0.0, "bike_id": "1e1bea81414b2d1a80363c5d24d2be92", "fusion_lon": 0.0, "lon": -77.02716516666666, "lat": 38.92522833333334, "is_reserved": 0, "is_disabled": 0, "rental_uris": {"android": "https://dc.lft.to/lastmile_qr_scan", "ios": "https://dc.lft.to/lastmile_qr_scan"}, "name": "1e1bea81414b2d1a80363c5d24d2be92", "type": "electric_scooter"}, {"fusion_lat": 0.0, "bike_id": "a9cd6eb92742798e5c335134a509daaa", "fusion_lon": 0.0, "lon": -77.0327135, "lat": 38.9308015, "is_reserved": 0, "is_disabled": 0, "rental_uris": {"android": "https://dc.lft.to/lastmile_qr_scan", "ios": "https://dc.lft.to/lastmile_qr_scan"}, "name": "a9cd6eb92742798e5c335134a509daaa", "type": "electric_scooter"}, {"fusion_lat": 0.0, "bike_id": "15146252fc3a1cce855821dbafa5200e", "fusion_lon": 0.0, "lon": -77.02583283333334, "lat": 38.88739183333333, "is_reserved": 0, "is_disabled": 0, "rental_uris": {"android": "https://dc.lft.to/lastmile_qr_scan", "ios": "https://dc.lft.to/lastmile_qr_scan"}, "name": "15146252fc3a1cce855821dbafa5200e", "type": "electric_scooter"}, {"fusion_lat": 0.0, "bike_id": "e23d1d8588657de4555df42c54f7b859", "fusion_lon": 0.0, "lon": -76.99353466666666, "lat": 38.8450695, "is_reserved": 0, "is_disabled": 0, "rental_uris": {"android": "https://dc.lft.to/lastmile_qr_scan", "ios": "https://dc.lft.to/lastmile_qr_scan"}, "name": "e23d1d8588657de4555df42c54f7b859", "type": "electric_bike"}, {"fusion_lat": 0.0, "bike_id": "75617be261705ad262e29e813bd2dbe1", "fusion_lon": 0.0, "lon": -77.05938833333333, "lat": 38.903147, "is_reserved": 0, "is_disabled": 0, "rental_uris": {"android": "https://dc.lft.to/lastmile_qr_scan", "ios": "https://dc.lft.to/lastmile_qr_scan"}, "name": "75617be261705ad262e29e813bd2dbe1", "type": "electric_scooter"}, {"fusion_lat": 0.0, "bike_id": "da64ff5555cf7da6bbc65e30bce96704", "fusion_lon": 0.0, "lon": -77.03112783333333, "lat": 38.915664666666665, "is_reserved": 0, "is_disabled": 0, "rental_uris": {"android": "https://dc.lft.to/lastmile_qr_scan", "ios": "https://dc.lft.to/lastmile_qr_scan"}, "name": "da64ff5555cf7da6bbc65e30bce96704", "type": "electric_scooter"}, {"fusion_lat": 0.0, "bike_id": "5a325083e87a608a0fe907c0913f70e1", "fusion_lon": 0.0, "lon": -76.983666, "lat": 38.91551783333333, "is_reserved": 0, "is_disabled": 0, "rental_uris": {"android": "https://dc.lft.to/lastmile_qr_scan", "ios": "https://dc.lft.to/lastmile_qr_scan"}, "name": "5a325083e87a608a0fe907c0913f70e1", "type": "electric_scooter"}, {"fusion_lat": 0.0, "bike_id": "8e2ad84711cef1b3bdecccfcd96d1803", "fusion_lon": 0.0, "lon": -76.99885666666667, "lat": 38.92058766666667, "is_reserved": 0, "is_disabled": 0, "rental_uris": {"android": "https://dc.lft.to/lastmile_qr_scan", "ios": "https://dc.lft.to/lastmile_qr_scan"}, "name": "8e2ad84711cef1b3bdecccfcd96d1803", "type": "electric_scooter"}, {"fusion_lat": 0.0, "bike_id": "17645a65e876ef7bf9f7c5ebd63f3a65", "fusion_lon": 0.0, "lon": -77.026521, "lat": 38.93868916666667, "is_reserved": 0, "is_disabled": 0, "rental_uris": {"android": "https://dc.lft.to/lastmile_qr_scan", "ios": "https://dc.lft.to/lastmile_qr_scan"}, "name": "17645a65e876ef7bf9f7c5ebd63f3a65", "type": "electric_scooter"}, {"fusion_lat": 0.0, "bike_id": "a005bb58e37f9f0a06b6ef272702df8a", "fusion_lon": 0.0, "lon": -77.04379033333333, "lat": 38.92071966666666, "is_reserved": 0, "is_disabled": 0, "rental_uris": {"android": "https://dc.lft.to/lastmile_qr_scan", "ios": "https://dc.lft.to/lastmile_qr_scan"}, "name": "a005bb58e37f9f0a06b6ef272702df8a", "type": "electric_scooter"}, {"fusion_lat": 0.0, "bike_id": "03e1dd472abc2709594e2de99280a83a", "fusion_lon": 0.0, "lon": -77.015338, "lat": 38.887428666666665, "is_reserved": 0, "is_disabled": 0, "rental_uris": {"android": "https://dc.lft.to/lastmile_qr_scan", "ios": "https://dc.lft.to/lastmile_qr_scan"}, "name": "03e1dd472abc2709594e2de99280a83a", "type": "electric_scooter"}, {"fusion_lat": 0.0, "bike_id": "e58f41787e75867b9010dd60ed4b0464", "fusion_lon": 0.0, "lon": -76.97863766666667, "lat": 38.87200766666667, "is_reserved": 0, "is_disabled": 0, "rental_uris": {"android": "https://dc.lft.to/lastmile_qr_scan", "ios": "https://dc.lft.to/lastmile_qr_scan"}, "name": "e58f41787e75867b9010dd60ed4b0464", "type": "electric_scooter"}, {"fusion_lat": 0.0, "bike_id": "b614b04ac915bd46f6d1cd276856f967", "fusion_lon": 0.0, "lon": -77.047545, "lat": 38.905489333333335, "is_reserved": 0, "is_disabled": 0, "rental_uris": {"android": "https://dc.lft.to/lastmile_qr_scan", "ios": "https://dc.lft.to/lastmile_qr_scan"}, "name": "b614b04ac915bd46f6d1cd276856f967", "type": "electric_scooter"}, {"fusion_lat": 0.0, "bike_id": "591341aeb5cc339966cddb03dc007cdb", "fusion_lon": 0.0, "lon": -77.04439183333334, "lat": 38.9216005, "is_reserved": 0, "is_disabled": 0, "rental_uris": {"android": "https://dc.lft.to/lastmile_qr_scan", "ios": "https://dc.lft.to/lastmile_qr_scan"}, "name": "591341aeb5cc339966cddb03dc007cdb", "type": "electric_scooter"}, {"fusion_lat": 0.0, "bike_id": "a685d854f2e1ba5122ef04a07fb8ef79", "fusion_lon": 0.0, "lon": -77.05139016666666, "lat": 38.90509383333333, "is_reserved": 0, "is_disabled": 0, "rental_uris": {"android": "https://dc.lft.to/lastmile_qr_scan", "ios": "https://dc.lft.to/lastmile_qr_scan"}, "name": "a685d854f2e1ba5122ef04a07fb8ef79", "type": "electric_scooter"}, {"fusion_lat": 0.0, "bike_id": "e99d654fdc8a875abcce656dee8a59b4", "fusion_lon": 0.0, "lon": -77.02096216666666, "lat": 38.921554666666665, "is_reserved": 0, "is_disabled": 0, "rental_uris": {"android": "https://dc.lft.to/lastmile_qr_scan", "ios": "https://dc.lft.to/lastmile_qr_scan"}, "name": "e99d654fdc8a875abcce656dee8a59b4", "type": "electric_scooter"}, {"fusion_lat": 0.0, "bike_id": "dc54087f96b1e4f1f896b6384bdad3c0", "fusion_lon": 0.0, "lon": -77.04129383333333, "lat": 38.9272265, "is_reserved": 0, "is_disabled": 0, "rental_uris": {"android": "https://dc.lft.to/lastmile_qr_scan", "ios": "https://dc.lft.to/lastmile_qr_scan"}, "name": "dc54087f96b1e4f1f896b6384bdad3c0", "type": "electric_scooter"}, {"fusion_lat": 0.0, "bike_id": "5292dc13926b98fcd2781967dc97c60a", "fusion_lon": 0.0, "lon": -77.02201783333334, "lat": 38.91135333333333, "is_reserved": 0, "is_disabled": 0, "rental_uris": {"android": "https://dc.lft.to/lastmile_qr_scan", "ios": "https://dc.lft.to/lastmile_qr_scan"}, "name": "5292dc13926b98fcd2781967dc97c60a", "type": "electric_scooter"}, {"fusion_lat": 0.0, "bike_id": "88c692ac44d45a3fe1d414fbe71ab589", "fusion_lon": 0.0, "lon": -77.00714066666667, "lat": 38.94605, "is_reserved": 0, "is_disabled": 0, "rental_uris": {"android": "https://dc.lft.to/lastmile_qr_scan", "ios": "https://dc.lft.to/lastmile_qr_scan"}, "name": "88c692ac44d45a3fe1d414fbe71ab589", "type": "electric_bike"}, {"fusion_lat": 0.0, "bike_id": "747fe0fe98d8e2a45f844b67b9818a70", "fusion_lon": 0.0, "lon": -76.977451, "lat": 38.864945166666665, "is_reserved": 0, "is_disabled": 0, "rental_uris": {"android": "https://dc.lft.to/lastmile_qr_scan", "ios": "https://dc.lft.to/lastmile_qr_scan"}, "name": "747fe0fe98d8e2a45f844b67b9818a70", "type": "electric_bike"}, {"fusion_lat": 0.0, "bike_id": "9f29f8d0c617e48687fe8808cb38331b", "fusion_lon": 0.0, "lon": -77.00659583333334, "lat": 38.944648, "is_reserved": 0, "is_disabled": 0, "rental_uris": {"android": "https://dc.lft.to/lastmile_qr_scan", "ios": "https://dc.lft.to/lastmile_qr_scan"}, "name": "9f29f8d0c617e48687fe8808cb38331b", "type": "electric_scooter"}, {"fusion_lat": 0.0, "bike_id": "c57f9ca419871824485f6bc68c8c02f5", "fusion_lon": 0.0, "lon": -77.18563633333333, "lat": 39.09977516666667, "is_reserved": 0, "is_disabled": 0, "rental_uris": {"android": "https://dc.lft.to/lastmile_qr_scan", "ios": "https://dc.lft.to/lastmile_qr_scan"}, "name": "c57f9ca419871824485f6bc68c8c02f5", "type": "electric_bike"}, {"fusion_lat": 0.0, "bike_id": "1ab11c4ce4e533f8e83f04f5ea55f757", "fusion_lon": 0.0, "lon": -77.03534466666666, "lat": 38.925897166666665, "is_reserved": 0, "is_disabled": 0, "rental_uris": {"android": "https://dc.lft.to/lastmile_qr_scan", "ios": "https://dc.lft.to/lastmile_qr_scan"}, "name": "1ab11c4ce4e533f8e83f04f5ea55f757", "type": "electric_scooter"}, {"fusion_lat": 0.0, "bike_id": "1f800d4614fed2205e971f8a83466cb0", "fusion_lon": 0.0, "lon": -77.01301483333333, "lat": 38.93033333333333, "is_reserved": 0, "is_disabled": 0, "rental_uris": {"android": "https://dc.lft.to/lastmile_qr_scan", "ios": "https://dc.lft.to/lastmile_qr_scan"}, "name": "1f800d4614fed2205e971f8a83466cb0", "type": "electric_scooter"}, {"fusion_lat": 0.0, "bike_id": "52e28fa79d838697617d7dbc34457e78", "fusion_lon": 0.0, "lon": -77.07770333333333, "lat": 38.930484, "is_reserved": 0, "is_disabled": 0, "rental_uris": {"android": "https://dc.lft.to/lastmile_qr_scan", "ios": "https://dc.lft.to/lastmile_qr_scan"}, "name": "52e28fa79d838697617d7dbc34457e78", "type": "electric_scooter"}, {"fusion_lat": 0.0, "bike_id": "c0b6e2d696fd11a1212aa7ca5db348d0", "fusion_lon": 0.0, "lon": -76.948845, "lat": 38.8951475, "is_reserved": 0, "is_disabled": 0, "rental_uris": {"android": "https://dc.lft.to/lastmile_qr_scan", "ios": "https://dc.lft.to/lastmile_qr_scan"}, "name": "c0b6e2d696fd11a1212aa7ca5db348d0", "type": "electric_scooter"}, {"fusion_lat": 0.0, "bike_id": "dba301d975ad09039ebeaf88b248dada", "fusion_lon": 0.0, "lon": -77.0026115, "lat": 38.95226266666667, "is_reserved": 0, "is_disabled": 0, "rental_uris": {"android": "https://dc.lft.to/lastmile_qr_scan", "ios": "https://dc.lft.to/lastmile_qr_scan"}, "name": "dba301d975ad09039ebeaf88b248dada", "type": "electric_scooter"}, {"fusion_lat": 0.0, "bike_id": "0084e3b1b395260fb3ea00fe227714fc", "fusion_lon": 0.0, "lon": -77.03370216666667, "lat": 38.92165266666667, "is_reserved": 0, "is_disabled": 0, "rental_uris": {"android": "https://dc.lft.to/lastmile_qr_scan", "ios": "https://dc.lft.to/lastmile_qr_scan"}, "name": "0084e3b1b395260fb3ea00fe227714fc", "type": "electric_scooter"}, {"fusion_lat": 0.0, "bike_id": "f5b3f77c2760afd408cbbf4d4ceed0ce", "fusion_lon": 0.0, "lon": -77.03474283333334, "lat": 38.9072825, "is_reserved": 0, "is_disabled": 0, "rental_uris": {"android": "https://dc.lft.to/lastmile_qr_scan", "ios": "https://dc.lft.to/lastmile_qr_scan"}, "name": "f5b3f77c2760afd408cbbf4d4ceed0ce", "type": "electric_scooter"}, {"fusion_lat": 0.0, "bike_id": "898faad392bd0ff13f82949bc5fcea0b", "fusion_lon": 0.0, "lon": -77.03654516666667, "lat": 38.90465233333333, "is_reserved": 0, "is_disabled": 0, "rental_uris": {"android": "https://dc.lft.to/lastmile_qr_scan", "ios": "https://dc.lft.to/lastmile_qr_scan"}, "name": "898faad392bd0ff13f82949bc5fcea0b", "type": "electric_scooter"}, {"fusion_lat": 0.0, "bike_id": "50df723b5e0e9112bf7d7fe0da629311", "fusion_lon": 0.0, "lon": -77.03259283333334, "lat": 38.936564833333335, "is_reserved": 0, "is_disabled": 0, "rental_uris": {"android": "https://dc.lft.to/lastmile_qr_scan", "ios": "https://dc.lft.to/lastmile_qr_scan"}, "name": "50df723b5e0e9112bf7d7fe0da629311", "type": "electric_scooter"}, {"fusion_lat": 0.0, "bike_id": "bf51fec52f011915df86876fa489712e", "fusion_lon": 0.0, "lon": -77.02721083333333, "lat": 38.911447333333335, "is_reserved": 0, "is_disabled": 0, "rental_uris": {"android": "https://dc.lft.to/lastmile_qr_scan", "ios": "https://dc.lft.to/lastmile_qr_scan"}, "name": "bf51fec52f011915df86876fa489712e", "type": "electric_scooter"}, {"fusion_lat": 0.0, "bike_id": "e5052dd6886fdc996675130e6d5f3e87", "fusion_lon": 0.0, "lon": -77.0551275, "lat": 38.915330833333336, "is_reserved": 0, "is_disabled": 0, "rental_uris": {"android": "https://dc.lft.to/lastmile_qr_scan", "ios": "https://dc.lft.to/lastmile_qr_scan"}, "name": "e5052dd6886fdc996675130e6d5f3e87", "type": "electric_scooter"}, {"fusion_lat": 0.0, "bike_id": "5f79ce246985c33c4bc600e715ddd518", "fusion_lon": 0.0, "lon": -77.02164133333333, "lat": 38.9261295, "is_reserved": 0, "is_disabled": 0, "rental_uris": {"android": "https://dc.lft.to/lastmile_qr_scan", "ios": "https://dc.lft.to/lastmile_qr_scan"}, "name": "5f79ce246985c33c4bc600e715ddd518", "type": "electric_scooter"}, {"fusion_lat": 0.0, "bike_id": "78b4873158d12dd47cb38d445358d7a9", "fusion_lon": 0.0, "lon": -77.04481566666666, "lat": 38.900550333333335, "is_reserved": 0, "is_disabled": 0, "rental_uris": {"android": "https://dc.lft.to/lastmile_qr_scan", "ios": "https://dc.lft.to/lastmile_qr_scan"}, "name": "78b4873158d12dd47cb38d445358d7a9", "type": "electric_scooter"}, {"fusion_lat": 0.0, "bike_id": "0e7cc932f185c5bde709e264832c7724", "fusion_lon": 0.0, "lon": -77.04676566666667, "lat": 38.8945705, "is_reserved": 0, "is_disabled": 0, "rental_uris": {"android": "https://dc.lft.to/lastmile_qr_scan", "ios": "https://dc.lft.to/lastmile_qr_scan"}, "name": "0e7cc932f185c5bde709e264832c7724", "type": "electric_scooter"}, {"fusion_lat": 0.0, "bike_id": "182f63837da9f211ebc010cbd52b4876", "fusion_lon": 0.0, "lon": -77.04637016666666, "lat": 38.921144, "is_reserved": 0, "is_disabled": 0, "rental_uris": {"android": "https://dc.lft.to/lastmile_qr_scan", "ios": "https://dc.lft.to/lastmile_qr_scan"}, "name": "182f63837da9f211ebc010cbd52b4876", "type": "electric_scooter"}, {"fusion_lat": 0.0, "bike_id": "e51168c701f333ad03fb96836bde5064", "fusion_lon": 0.0, "lon": -77.061083, "lat": 38.937082833333335, "is_reserved": 0, "is_disabled": 0, "rental_uris": {"android": "https://dc.lft.to/lastmile_qr_scan", "ios": "https://dc.lft.to/lastmile_qr_scan"}, "name": "e51168c701f333ad03fb96836bde5064", "type": "electric_scooter"}, {"fusion_lat": 0.0, "bike_id": "0268fd60600be2f160200a1966eff0a2", "fusion_lon": 0.0, "lon": -77.053389, "lat": 38.852622, "is_reserved": 0, "is_disabled": 0, "rental_uris": {"android": "https://dc.lft.to/lastmile_qr_scan", "ios": "https://dc.lft.to/lastmile_qr_scan"}, "name": "0268fd60600be2f160200a1966eff0a2", "type": "electric_bike"}, {"fusion_lat": 0.0, "bike_id": "d0ce6920b92c7501eb81de1807f5319d", "fusion_lon": 0.0, "lon": -76.99018966666667, "lat": 38.8827305, "is_reserved": 0, "is_disabled": 0, "rental_uris": {"android": "https://dc.lft.to/lastmile_qr_scan", "ios": "https://dc.lft.to/lastmile_qr_scan"}, "name": "d0ce6920b92c7501eb81de1807f5319d", "type": "electric_scooter"}, {"fusion_lat": 0.0, "bike_id": "81afc64639d92552f0da073ee7f0efee", "fusion_lon": 0.0, "lon": -77.00435233333333, "lat": 38.877497166666664, "is_reserved": 0, "is_disabled": 0, "rental_uris": {"android": "https://dc.lft.to/lastmile_qr_scan", "ios": "https://dc.lft.to/lastmile_qr_scan"}, "name": "81afc64639d92552f0da073ee7f0efee", "type": "electric_scooter"}, {"fusion_lat": 0.0, "bike_id": "c48fbcbfef65dd18a96013d3d33135b7", "fusion_lon": 0.0, "lon": -77.02780933333334, "lat": 38.89201533333333, "is_reserved": 0, "is_disabled": 0, "rental_uris": {"android": "https://dc.lft.to/lastmile_qr_scan", "ios": "https://dc.lft.to/lastmile_qr_scan"}, "name": "c48fbcbfef65dd18a96013d3d33135b7", "type": "electric_scooter"}, {"fusion_lat": 0.0, "bike_id": "edc8ee87d1bef5ecf0b806e4eb39d315", "fusion_lon": 0.0, "lon": -77.01957483333334, "lat": 38.9234305, "is_reserved": 0, "is_disabled": 0, "rental_uris": {"android": "https://dc.lft.to/lastmile_qr_scan", "ios": "https://dc.lft.to/lastmile_qr_scan"}, "name": "edc8ee87d1bef5ecf0b806e4eb39d315", "type": "electric_scooter"}, {"fusion_lat": 0.0, "bike_id": "05921f5e16dbf1975aeb214214123bcd", "fusion_lon": 0.0, "lon": -76.98392483333333, "lat": 38.866407833333334, "is_reserved": 0, "is_disabled": 0, "rental_uris": {"android": "https://dc.lft.to/lastmile_qr_scan", "ios": "https://dc.lft.to/lastmile_qr_scan"}, "name": "05921f5e16dbf1975aeb214214123bcd", "type": "electric_scooter"}, {"fusion_lat": 0.0, "bike_id": "3e7a2587468214d1912e7fd2bb411f13", "fusion_lon": 0.0, "lon": -77.07904816666667, "lat": 38.8393335, "is_reserved": 0, "is_disabled": 0, "rental_uris": {"android": "https://dc.lft.to/lastmile_qr_scan", "ios": "https://dc.lft.to/lastmile_qr_scan"}, "name": "3e7a2587468214d1912e7fd2bb411f13", "type": "electric_bike"}, {"fusion_lat": 0.0, "bike_id": "6b50755a637d0336e4ed32c114209227", "fusion_lon": 0.0, "lon": -77.03629183333334, "lat": 38.93476666666667, "is_reserved": 0, "is_disabled": 0, "rental_uris": {"android": "https://dc.lft.to/lastmile_qr_scan", "ios": "https://dc.lft.to/lastmile_qr_scan"}, "name": "6b50755a637d0336e4ed32c114209227", "type": "electric_scooter"}, {"fusion_lat": 0.0, "bike_id": "b7a0e17355665ad0af74c257e6e5fd65", "fusion_lon": 0.0, "lon": -76.93190716666666, "lat": 38.898776, "is_reserved": 0, "is_disabled": 0, "rental_uris": {"android": "https://dc.lft.to/lastmile_qr_scan", "ios": "https://dc.lft.to/lastmile_qr_scan"}, "name": "b7a0e17355665ad0af74c257e6e5fd65", "type": "electric_scooter"}, {"fusion_lat": 0.0, "bike_id": "6e80dd63acf26575dbbe8ae39a64fc2e", "fusion_lon": 0.0, "lon": -77.040117, "lat": 38.901214, "is_reserved": 0, "is_disabled": 0, "rental_uris": {"android": "https://dc.lft.to/lastmile_qr_scan", "ios": "https://dc.lft.to/lastmile_qr_scan"}, "name": "6e80dd63acf26575dbbe8ae39a64fc2e", "type": "electric_scooter"}, {"fusion_lat": 0.0, "bike_id": "c228aae63def8b6044f9b1e6e931c5d9", "fusion_lon": 0.0, "lon": -77.04158116666666, "lat": 38.91989266666667, "is_reserved": 0, "is_disabled": 0, "rental_uris": {"android": "https://dc.lft.to/lastmile_qr_scan", "ios": "https://dc.lft.to/lastmile_qr_scan"}, "name": "c228aae63def8b6044f9b1e6e931c5d9", "type": "electric_scooter"}, {"fusion_lat": 0.0, "bike_id": "4e2fa35ef49ba4ceab2c84c2e70804f3", "fusion_lon": 0.0, "lon": -77.04269833333333, "lat": 38.922374, "is_reserved": 0, "is_disabled": 0, "rental_uris": {"android": "https://dc.lft.to/lastmile_qr_scan", "ios": "https://dc.lft.to/lastmile_qr_scan"}, "name": "4e2fa35ef49ba4ceab2c84c2e70804f3", "type": "electric_scooter"}, {"fusion_lat": 0.0, "bike_id": "3803ef144b323091e67ea570b86aea54", "fusion_lon": 0.0, "lon": -77.01189633333334, "lat": 38.90035233333333, "is_reserved": 0, "is_disabled": 0, "rental_uris": {"android": "https://dc.lft.to/lastmile_qr_scan", "ios": "https://dc.lft.to/lastmile_qr_scan"}, "name": "3803ef144b323091e67ea570b86aea54", "type": "electric_scooter"}, {"fusion_lat": 0.0, "bike_id": "1d059b72f50a611f967d0ea20810ce43", "fusion_lon": 0.0, "lon": -77.03375833333334, "lat": 38.901137, "is_reserved": 0, "is_disabled": 0, "rental_uris": {"android": "https://dc.lft.to/lastmile_qr_scan", "ios": "https://dc.lft.to/lastmile_qr_scan"}, "name": "1d059b72f50a611f967d0ea20810ce43", "type": "electric_scooter"}, {"fusion_lat": 0.0, "bike_id": "75718ac1d24355b1b6868f76a32a03e1", "fusion_lon": 0.0, "lon": -76.93362766666667, "lat": 38.88796133333334, "is_reserved": 0, "is_disabled": 0, "rental_uris": {"android": "https://dc.lft.to/lastmile_qr_scan", "ios": "https://dc.lft.to/lastmile_qr_scan"}, "name": "75718ac1d24355b1b6868f76a32a03e1", "type": "electric_scooter"}, {"fusion_lat": 0.0, "bike_id": "91c8639353be91cd7933f1b34ee64e57", "fusion_lon": 0.0, "lon": -77.01453416666666, "lat": 38.92981233333333, "is_reserved": 0, "is_disabled": 0, "rental_uris": {"android": "https://dc.lft.to/lastmile_qr_scan", "ios": "https://dc.lft.to/lastmile_qr_scan"}, "name": "91c8639353be91cd7933f1b34ee64e57", "type": "electric_scooter"}, {"fusion_lat": 0.0, "bike_id": "7ca587732e6cfd1a4acfaaf2d93009c3", "fusion_lon": 0.0, "lon": -77.0272505, "lat": 38.897655666666665, "is_reserved": 0, "is_disabled": 0, "rental_uris": {"android": "https://dc.lft.to/lastmile_qr_scan", "ios": "https://dc.lft.to/lastmile_qr_scan"}, "name": "7ca587732e6cfd1a4acfaaf2d93009c3", "type": "electric_scooter"}, {"fusion_lat": 0.0, "bike_id": "cd5d75b7d5142cd5b83826f09c8d60b1", "fusion_lon": 0.0, "lon": -77.0280285, "lat": 38.916946, "is_reserved": 0, "is_disabled": 0, "rental_uris": {"android": "https://dc.lft.to/lastmile_qr_scan", "ios": "https://dc.lft.to/lastmile_qr_scan"}, "name": "cd5d75b7d5142cd5b83826f09c8d60b1", "type": "electric_scooter"}, {"fusion_lat": 0.0, "bike_id": "04d219c29cbb38dbcd1a8add75266d09", "fusion_lon": 0.0, "lon": -77.0460115, "lat": 38.90254516666667, "is_reserved": 0, "is_disabled": 0, "rental_uris": {"android": "https://dc.lft.to/lastmile_qr_scan", "ios": "https://dc.lft.to/lastmile_qr_scan"}, "name": "04d219c29cbb38dbcd1a8add75266d09", "type": "electric_scooter"}, {"fusion_lat": 0.0, "bike_id": "4def108cbfdf4798805f100dee131cba", "fusion_lon": 0.0, "lon": -77.0245125, "lat": 38.90326183333333, "is_reserved": 0, "is_disabled": 0, "rental_uris": {"android": "https://dc.lft.to/lastmile_qr_scan", "ios": "https://dc.lft.to/lastmile_qr_scan"}, "name": "4def108cbfdf4798805f100dee131cba", "type": "electric_scooter"}, {"fusion_lat": 0.0, "bike_id": "70317744746ff1b6b3ab03e1a7b6a17f", "fusion_lon": 0.0, "lon": -77.029541, "lat": 38.916775333333334, "is_reserved": 0, "is_disabled": 0, "rental_uris": {"android": "https://dc.lft.to/lastmile_qr_scan", "ios": "https://dc.lft.to/lastmile_qr_scan"}, "name": "70317744746ff1b6b3ab03e1a7b6a17f", "type": "electric_scooter"}, {"fusion_lat": 0.0, "bike_id": "6b0347b360bbb72383a91be55fabfbef", "fusion_lon": 0.0, "lon": -76.994846, "lat": 38.84217816666666, "is_reserved": 0, "is_disabled": 0, "rental_uris": {"android": "https://dc.lft.to/lastmile_qr_scan", "ios": "https://dc.lft.to/lastmile_qr_scan"}, "name": "6b0347b360bbb72383a91be55fabfbef", "type": "electric_scooter"}, {"fusion_lat": 0.0, "bike_id": "2bb19078978a6183c9cad9e0cba98260", "fusion_lon": 0.0, "lon": -77.04347516666667, "lat": 38.93328983333333, "is_reserved": 0, "is_disabled": 0, "rental_uris": {"android": "https://dc.lft.to/lastmile_qr_scan", "ios": "https://dc.lft.to/lastmile_qr_scan"}, "name": "2bb19078978a6183c9cad9e0cba98260", "type": "electric_scooter"}, {"fusion_lat": 0.0, "bike_id": "2e89df4ca9e01e66da3cc443f6552229", "fusion_lon": 0.0, "lon": -77.10744266666667, "lat": 38.9650105, "is_reserved": 0, "is_disabled": 0, "rental_uris": {"android": "https://dc.lft.to/lastmile_qr_scan", "ios": "https://dc.lft.to/lastmile_qr_scan"}, "name": "2e89df4ca9e01e66da3cc443f6552229", "type": "electric_bike"}, {"fusion_lat": 0.0, "bike_id": "37bbaa11ef0dc174a7e896d3a2600b84", "fusion_lon": 0.0, "lon": -77.04983933333334, "lat": 39.03555216666667, "is_reserved": 0, "is_disabled": 0, "rental_uris": {"android": "https://dc.lft.to/lastmile_qr_scan", "ios": "https://dc.lft.to/lastmile_qr_scan"}, "name": "37bbaa11ef0dc174a7e896d3a2600b84", "type": "electric_bike"}, {"fusion_lat": 0.0, "bike_id": "14a85f16a77e4a0c643bd83850a3c262", "fusion_lon": 0.0, "lon": -77.03076566666667, "lat": 38.880379166666664, "is_reserved": 0, "is_disabled": 0, "rental_uris": {"android": "https://dc.lft.to/lastmile_qr_scan", "ios": "https://dc.lft.to/lastmile_qr_scan"}, "name": "14a85f16a77e4a0c643bd83850a3c262", "type": "electric_scooter"}, {"fusion_lat": 0.0, "bike_id": "1dcd5b7d413a53951d8eb78366460bac", "fusion_lon": 0.0, "lon": -77.03269816666666, "lat": 38.91993133333333, "is_reserved": 0, "is_disabled": 0, "rental_uris": {"android": "https://dc.lft.to/lastmile_qr_scan", "ios": "https://dc.lft.to/lastmile_qr_scan"}, "name": "1dcd5b7d413a53951d8eb78366460bac", "type": "electric_scooter"}, {"fusion_lat": 0.0, "bike_id": "3e9934a418d3b87ac7543187512d0be8", "fusion_lon": 0.0, "lon": -77.02731333333334, "lat": 38.943843, "is_reserved": 0, "is_disabled": 0, "rental_uris": {"android": "https://dc.lft.to/lastmile_qr_scan", "ios": "https://dc.lft.to/lastmile_qr_scan"}, "name": "3e9934a418d3b87ac7543187512d0be8", "type": "electric_scooter"}, {"fusion_lat": 0.0, "bike_id": "6eb3aa6970ed0e511e98a3e20d0c893c", "fusion_lon": 0.0, "lon": -77.02315833333333, "lat": 38.918496166666664, "is_reserved": 0, "is_disabled": 0, "rental_uris": {"android": "https://dc.lft.to/lastmile_qr_scan", "ios": "https://dc.lft.to/lastmile_qr_scan"}, "name": "6eb3aa6970ed0e511e98a3e20d0c893c", "type": "electric_scooter"}, {"fusion_lat": 0.0, "bike_id": "669a309670690ad82a1e2fda0c4df823", "fusion_lon": 0.0, "lon": -77.00033266666667, "lat": 38.90816266666667, "is_reserved": 0, "is_disabled": 0, "rental_uris": {"android": "https://dc.lft.to/lastmile_qr_scan", "ios": "https://dc.lft.to/lastmile_qr_scan"}, "name": "669a309670690ad82a1e2fda0c4df823", "type": "electric_scooter"}, {"fusion_lat": 0.0, "bike_id": "e24acaab860ea7bf831cfa75dcf9896c", "fusion_lon": 0.0, "lon": -77.03089633333333, "lat": 38.919206833333334, "is_reserved": 0, "is_disabled": 0, "rental_uris": {"android": "https://dc.lft.to/lastmile_qr_scan", "ios": "https://dc.lft.to/lastmile_qr_scan"}, "name": "e24acaab860ea7bf831cfa75dcf9896c", "type": "electric_scooter"}, {"fusion_lat": 0.0, "bike_id": "9745b4b5e677aa2d02849ce523f2cbbc", "fusion_lon": 0.0, "lon": -77.0178515, "lat": 38.9204315, "is_reserved": 0, "is_disabled": 0, "rental_uris": {"android": "https://dc.lft.to/lastmile_qr_scan", "ios": "https://dc.lft.to/lastmile_qr_scan"}, "name": "9745b4b5e677aa2d02849ce523f2cbbc", "type": "electric_scooter"}, {"fusion_lat": 0.0, "bike_id": "1b70410d240d4598797db698dab26361", "fusion_lon": 0.0, "lon": -77.03267916666667, "lat": 38.90147433333333, "is_reserved": 0, "is_disabled": 0, "rental_uris": {"android": "https://dc.lft.to/lastmile_qr_scan", "ios": "https://dc.lft.to/lastmile_qr_scan"}, "name": "1b70410d240d4598797db698dab26361", "type": "electric_scooter"}, {"fusion_lat": 0.0, "bike_id": "6ca1f97915a9ff5698ccd21dd0277920", "fusion_lon": 0.0, "lon": -77.038418, "lat": 38.908849833333335, "is_reserved": 0, "is_disabled": 0, "rental_uris": {"android": "https://dc.lft.to/lastmile_qr_scan", "ios": "https://dc.lft.to/lastmile_qr_scan"}, "name": "6ca1f97915a9ff5698ccd21dd0277920", "type": "electric_scooter"}, {"fusion_lat": 0.0, "bike_id": "fd26a73551c522b45adab7747afb4ee5", "fusion_lon": 0.0, "lon": -77.031201, "lat": 38.88759983333333, "is_reserved": 0, "is_disabled": 0, "rental_uris": {"android": "https://dc.lft.to/lastmile_qr_scan", "ios": "https://dc.lft.to/lastmile_qr_scan"}, "name": "fd26a73551c522b45adab7747afb4ee5", "type": "electric_scooter"}, {"fusion_lat": 0.0, "bike_id": "4fc10c54e301be8f28931da8a275efed", "fusion_lon": 0.0, "lon": -77.0383175, "lat": 38.94501283333334, "is_reserved": 0, "is_disabled": 0, "rental_uris": {"android": "https://dc.lft.to/lastmile_qr_scan", "ios": "https://dc.lft.to/lastmile_qr_scan"}, "name": "4fc10c54e301be8f28931da8a275efed", "type": "electric_scooter"}, {"fusion_lat": 0.0, "bike_id": "3a120cdf3fe9a6a01180afd5c7132e55", "fusion_lon": 0.0, "lon": -77.04154116666666, "lat": 38.89938216666667, "is_reserved": 0, "is_disabled": 0, "rental_uris": {"android": "https://dc.lft.to/lastmile_qr_scan", "ios": "https://dc.lft.to/lastmile_qr_scan"}, "name": "3a120cdf3fe9a6a01180afd5c7132e55", "type": "electric_scooter"}, {"fusion_lat": 0.0, "bike_id": "a1e215968507b14b70c882d9d83f0f67", "fusion_lon": 0.0, "lon": -76.97533983333334, "lat": 38.92228016666667, "is_reserved": 0, "is_disabled": 0, "rental_uris": {"android": "https://dc.lft.to/lastmile_qr_scan", "ios": "https://dc.lft.to/lastmile_qr_scan"}, "name": "a1e215968507b14b70c882d9d83f0f67", "type": "electric_scooter"}, {"fusion_lat": 0.0, "bike_id": "b97da64533b8d988907bd15e0a8f3185", "fusion_lon": 0.0, "lon": -77.012079, "lat": 38.8855385, "is_reserved": 0, "is_disabled": 0, "rental_uris": {"android": "https://dc.lft.to/lastmile_qr_scan", "ios": "https://dc.lft.to/lastmile_qr_scan"}, "name": "b97da64533b8d988907bd15e0a8f3185", "type": "electric_scooter"}, {"fusion_lat": 0.0, "bike_id": "6d8e1cefa6cc924e8a93790e242b1426", "fusion_lon": 0.0, "lon": -77.015848, "lat": 38.876577166666664, "is_reserved": 0, "is_disabled": 0, "rental_uris": {"android": "https://dc.lft.to/lastmile_qr_scan", "ios": "https://dc.lft.to/lastmile_qr_scan"}, "name": "6d8e1cefa6cc924e8a93790e242b1426", "type": "electric_scooter"}, {"fusion_lat": 0.0, "bike_id": "c01c2b05d03cb3cda710b0aa52c90cb0", "fusion_lon": 0.0, "lon": -76.98937366666667, "lat": 38.8655585, "is_reserved": 0, "is_disabled": 0, "rental_uris": {"android": "https://dc.lft.to/lastmile_qr_scan", "ios": "https://dc.lft.to/lastmile_qr_scan"}, "name": "c01c2b05d03cb3cda710b0aa52c90cb0", "type": "electric_scooter"}, {"fusion_lat": 0.0, "bike_id": "33cef43ba7c26471ce06401828891763", "fusion_lon": 0.0, "lon": -77.01129116666667, "lat": 38.90034416666667, "is_reserved": 0, "is_disabled": 0, "rental_uris": {"android": "https://dc.lft.to/lastmile_qr_scan", "ios": "https://dc.lft.to/lastmile_qr_scan"}, "name": "33cef43ba7c26471ce06401828891763", "type": "electric_scooter"}, {"fusion_lat": 0.0, "bike_id": "ba7e3b90145c41a8024adc1d5c1406a0", "fusion_lon": 0.0, "lon": -76.97547966666667, "lat": 38.90323033333333, "is_reserved": 0, "is_disabled": 0, "rental_uris": {"android": "https://dc.lft.to/lastmile_qr_scan", "ios": "https://dc.lft.to/lastmile_qr_scan"}, "name": "ba7e3b90145c41a8024adc1d5c1406a0", "type": "electric_scooter"}, {"fusion_lat": 0.0, "bike_id": "5233dcf791189b8a1142f49e5e80bbec", "fusion_lon": 0.0, "lon": -76.97393816666667, "lat": 38.90556333333333, "is_reserved": 0, "is_disabled": 0, "rental_uris": {"android": "https://dc.lft.to/lastmile_qr_scan", "ios": "https://dc.lft.to/lastmile_qr_scan"}, "name": "5233dcf791189b8a1142f49e5e80bbec", "type": "electric_scooter"}, {"fusion_lat": 0.0, "bike_id": "dec3c6d43f34432a3c618c48e435b1cf", "fusion_lon": 0.0, "lon": -77.02305916666667, "lat": 38.940898, "is_reserved": 0, "is_disabled": 0, "rental_uris": {"android": "https://dc.lft.to/lastmile_qr_scan", "ios": "https://dc.lft.to/lastmile_qr_scan"}, "name": "dec3c6d43f34432a3c618c48e435b1cf", "type": "electric_scooter"}, {"fusion_lat": 0.0, "bike_id": "6e25c5143fde9c29cc4a123256779f8e", "fusion_lon": 0.0, "lon": -77.0045835, "lat": 38.87662616666667, "is_reserved": 0, "is_disabled": 0, "rental_uris": {"android": "https://dc.lft.to/lastmile_qr_scan", "ios": "https://dc.lft.to/lastmile_qr_scan"}, "name": "6e25c5143fde9c29cc4a123256779f8e", "type": "electric_scooter"}, {"fusion_lat": 0.0, "bike_id": "a9d1bf3b16d64c59cf8e2bfb8d415faf", "fusion_lon": 0.0, "lon": -77.02828483333333, "lat": 38.88746183333333, "is_reserved": 0, "is_disabled": 0, "rental_uris": {"android": "https://dc.lft.to/lastmile_qr_scan", "ios": "https://dc.lft.to/lastmile_qr_scan"}, "name": "a9d1bf3b16d64c59cf8e2bfb8d415faf", "type": "electric_scooter"}, {"fusion_lat": 0.0, "bike_id": "987a9003bfba7bace88f175017a063cd", "fusion_lon": 0.0, "lon": -77.02146283333333, "lat": 38.8972525, "is_reserved": 0, "is_disabled": 0, "rental_uris": {"android": "https://dc.lft.to/lastmile_qr_scan", "ios": "https://dc.lft.to/lastmile_qr_scan"}, "name": "987a9003bfba7bace88f175017a063cd", "type": "electric_scooter"}, {"fusion_lat": 0.0, "bike_id": "f07aeee1def9b9c7d7ba22b9ed670957", "fusion_lon": 0.0, "lon": -77.02404166666666, "lat": 38.9275535, "is_reserved": 0, "is_disabled": 0, "rental_uris": {"android": "https://dc.lft.to/lastmile_qr_scan", "ios": "https://dc.lft.to/lastmile_qr_scan"}, "name": "f07aeee1def9b9c7d7ba22b9ed670957", "type": "electric_scooter"}, {"fusion_lat": 0.0, "bike_id": "088cd7b6f9c8f99bccb89572337293ee", "fusion_lon": 0.0, "lon": -77.09845716666666, "lat": 38.8484615, "is_reserved": 0, "is_disabled": 0, "rental_uris": {"android": "https://dc.lft.to/lastmile_qr_scan", "ios": "https://dc.lft.to/lastmile_qr_scan"}, "name": "088cd7b6f9c8f99bccb89572337293ee", "type": "electric_bike"}, {"fusion_lat": 0.0, "bike_id": "d253a7acbd51a8586da52f861a49b1a0", "fusion_lon": 0.0, "lon": -77.06336566666667, "lat": 38.906810166666666, "is_reserved": 0, "is_disabled": 0, "rental_uris": {"android": "https://dc.lft.to/lastmile_qr_scan", "ios": "https://dc.lft.to/lastmile_qr_scan"}, "name": "d253a7acbd51a8586da52f861a49b1a0", "type": "electric_scooter"}, {"fusion_lat": 0.0, "bike_id": "0306727f052dfc4b3481f4bdc013f168", "fusion_lon": 0.0, "lon": -77.03501483333334, "lat": 38.93754666666667, "is_reserved": 0, "is_disabled": 0, "rental_uris": {"android": "https://dc.lft.to/lastmile_qr_scan", "ios": "https://dc.lft.to/lastmile_qr_scan"}, "name": "0306727f052dfc4b3481f4bdc013f168", "type": "electric_scooter"}, {"fusion_lat": 0.0, "bike_id": "312d0b0c04b6f911044bfa2468668d46", "fusion_lon": 0.0, "lon": -76.98351383333333, "lat": 38.8877195, "is_reserved": 0, "is_disabled": 0, "rental_uris": {"android": "https://dc.lft.to/lastmile_qr_scan", "ios": "https://dc.lft.to/lastmile_qr_scan"}, "name": "312d0b0c04b6f911044bfa2468668d46", "type": "electric_scooter"}, {"fusion_lat": 0.0, "bike_id": "d6c70146101f6397ec1b66200276beaf", "fusion_lon": 0.0, "lon": -77.03435966666666, "lat": 38.922467, "is_reserved": 0, "is_disabled": 0, "rental_uris": {"android": "https://dc.lft.to/lastmile_qr_scan", "ios": "https://dc.lft.to/lastmile_qr_scan"}, "name": "d6c70146101f6397ec1b66200276beaf", "type": "electric_scooter"}, {"fusion_lat": 0.0, "bike_id": "56366a22178496cbbce581683dfeaa62", "fusion_lon": 0.0, "lon": -77.03861983333333, "lat": 38.910197333333336, "is_reserved": 0, "is_disabled": 0, "rental_uris": {"android": "https://dc.lft.to/lastmile_qr_scan", "ios": "https://dc.lft.to/lastmile_qr_scan"}, "name": "56366a22178496cbbce581683dfeaa62", "type": "electric_scooter"}, {"fusion_lat": 0.0, "bike_id": "d2bae43261f2d0dfcd8bc6940c522d44", "fusion_lon": 0.0, "lon": -76.9463665, "lat": 38.89833333333333, "is_reserved": 0, "is_disabled": 0, "rental_uris": {"android": "https://dc.lft.to/lastmile_qr_scan", "ios": "https://dc.lft.to/lastmile_qr_scan"}, "name": "d2bae43261f2d0dfcd8bc6940c522d44", "type": "electric_scooter"}, {"fusion_lat": 0.0, "bike_id": "b74ad338edf50c607b83640e18ce71e6", "fusion_lon": 0.0, "lon": -77.04391166666667, "lat": 38.921007833333334, "is_reserved": 0, "is_disabled": 0, "rental_uris": {"android": "https://dc.lft.to/lastmile_qr_scan", "ios": "https://dc.lft.to/lastmile_qr_scan"}, "name": "b74ad338edf50c607b83640e18ce71e6", "type": "electric_scooter"}, {"fusion_lat": 0.0, "bike_id": "7d3ab7daa3d8c1efd88765f96f522eb2", "fusion_lon": 0.0, "lon": -77.02591583333333, "lat": 38.94202466666667, "is_reserved": 0, "is_disabled": 0, "rental_uris": {"android": "https://dc.lft.to/lastmile_qr_scan", "ios": "https://dc.lft.to/lastmile_qr_scan"}, "name": "7d3ab7daa3d8c1efd88765f96f522eb2", "type": "electric_scooter"}, {"fusion_lat": 0.0, "bike_id": "9cf54185b353c4b632269b9d2ed725af", "fusion_lon": 0.0, "lon": -76.97768366666666, "lat": 38.951517333333335, "is_reserved": 0, "is_disabled": 0, "rental_uris": {"android": "https://dc.lft.to/lastmile_qr_scan", "ios": "https://dc.lft.to/lastmile_qr_scan"}, "name": "9cf54185b353c4b632269b9d2ed725af", "type": "electric_bike"}, {"fusion_lat": 0.0, "bike_id": "19b2dfb8f96793868b8b52b244dd1297", "fusion_lon": 0.0, "lon": -77.0072865, "lat": 38.88494033333333, "is_reserved": 0, "is_disabled": 0, "rental_uris": {"android": "https://dc.lft.to/lastmile_qr_scan", "ios": "https://dc.lft.to/lastmile_qr_scan"}, "name": "19b2dfb8f96793868b8b52b244dd1297", "type": "electric_scooter"}, {"fusion_lat": 0.0, "bike_id": "6152ba5206fd35b0a82d542b1fc9e7fd", "fusion_lon": 0.0, "lon": -77.0321995, "lat": 38.898551166666664, "is_reserved": 0, "is_disabled": 0, "rental_uris": {"android": "https://dc.lft.to/lastmile_qr_scan", "ios": "https://dc.lft.to/lastmile_qr_scan"}, "name": "6152ba5206fd35b0a82d542b1fc9e7fd", "type": "electric_scooter"}, {"fusion_lat": 0.0, "bike_id": "8db5790b2003a161911dd0c8677bbbb1", "fusion_lon": 0.0, "lon": -77.033294, "lat": 38.909751166666666, "is_reserved": 0, "is_disabled": 0, "rental_uris": {"android": "https://dc.lft.to/lastmile_qr_scan", "ios": "https://dc.lft.to/lastmile_qr_scan"}, "name": "8db5790b2003a161911dd0c8677bbbb1", "type": "electric_scooter"}, {"fusion_lat": 0.0, "bike_id": "e58c4f521ee34687e10dbe20b7503b83", "fusion_lon": 0.0, "lon": -77.0380285, "lat": 38.9206675, "is_reserved": 0, "is_disabled": 0, "rental_uris": {"android": "https://dc.lft.to/lastmile_qr_scan", "ios": "https://dc.lft.to/lastmile_qr_scan"}, "name": "e58c4f521ee34687e10dbe20b7503b83", "type": "electric_scooter"}, {"fusion_lat": 0.0, "bike_id": "fa238eeaff92652de07e30d64f4043da", "fusion_lon": 0.0, "lon": -77.1084345, "lat": 38.81204116666667, "is_reserved": 0, "is_disabled": 0, "rental_uris": {"android": "https://dc.lft.to/lastmile_qr_scan", "ios": "https://dc.lft.to/lastmile_qr_scan"}, "name": "fa238eeaff92652de07e30d64f4043da", "type": "electric_bike"}, {"fusion_lat": 0.0, "bike_id": "0d6ef8c2a29c913aa89c40e3fbcbe049", "fusion_lon": 0.0, "lon": -76.98906366666667, "lat": 38.8666785, "is_reserved": 0, "is_disabled": 0, "rental_uris": {"android": "https://dc.lft.to/lastmile_qr_scan", "ios": "https://dc.lft.to/lastmile_qr_scan"}, "name": "0d6ef8c2a29c913aa89c40e3fbcbe049", "type": "electric_scooter"}, {"fusion_lat": 0.0, "bike_id": "58602920fbecb8052b6ac5b54e7ffc36", "fusion_lon": 0.0, "lon": -77.0255275, "lat": 38.9308725, "is_reserved": 0, "is_disabled": 0, "rental_uris": {"android": "https://dc.lft.to/lastmile_qr_scan", "ios": "https://dc.lft.to/lastmile_qr_scan"}, "name": "58602920fbecb8052b6ac5b54e7ffc36", "type": "electric_scooter"}, {"fusion_lat": 0.0, "bike_id": "8541b35502811e35e1a57463d3b413f9", "fusion_lon": 0.0, "lon": -77.04652683333333, "lat": 38.898292833333336, "is_reserved": 0, "is_disabled": 0, "rental_uris": {"android": "https://dc.lft.to/lastmile_qr_scan", "ios": "https://dc.lft.to/lastmile_qr_scan"}, "name": "8541b35502811e35e1a57463d3b413f9", "type": "electric_scooter"}, {"fusion_lat": 0.0, "bike_id": "ab8d8d6d853b224f8420080f6039b20a", "fusion_lon": 0.0, "lon": -77.02804083333334, "lat": 38.893967, "is_reserved": 0, "is_disabled": 0, "rental_uris": {"android": "https://dc.lft.to/lastmile_qr_scan", "ios": "https://dc.lft.to/lastmile_qr_scan"}, "name": "ab8d8d6d853b224f8420080f6039b20a", "type": "electric_scooter"}, {"fusion_lat": 0.0, "bike_id": "98f2e3ac5e535f1a34934a7411446e1e", "fusion_lon": 0.0, "lon": -77.02669216666666, "lat": 38.89551216666667, "is_reserved": 0, "is_disabled": 0, "rental_uris": {"android": "https://dc.lft.to/lastmile_qr_scan", "ios": "https://dc.lft.to/lastmile_qr_scan"}, "name": "98f2e3ac5e535f1a34934a7411446e1e", "type": "electric_scooter"}, {"fusion_lat": 0.0, "bike_id": "ad9ed0ebe7505a408b4eaf45d8c83c25", "fusion_lon": 0.0, "lon": -77.043421, "lat": 38.911112, "is_reserved": 0, "is_disabled": 0, "rental_uris": {"android": "https://dc.lft.to/lastmile_qr_scan", "ios": "https://dc.lft.to/lastmile_qr_scan"}, "name": "ad9ed0ebe7505a408b4eaf45d8c83c25", "type": "electric_scooter"}, {"fusion_lat": 0.0, "bike_id": "17b28937e5e5ba87af35bab01c94f48b", "fusion_lon": 0.0, "lon": -77.039303, "lat": 38.89912283333334, "is_reserved": 0, "is_disabled": 0, "rental_uris": {"android": "https://dc.lft.to/lastmile_qr_scan", "ios": "https://dc.lft.to/lastmile_qr_scan"}, "name": "17b28937e5e5ba87af35bab01c94f48b", "type": "electric_scooter"}, {"fusion_lat": 0.0, "bike_id": "c61d9b008e13abbadc34a5379758696f", "fusion_lon": 0.0, "lon": -77.033082, "lat": 38.89820916666667, "is_reserved": 0, "is_disabled": 0, "rental_uris": {"android": "https://dc.lft.to/lastmile_qr_scan", "ios": "https://dc.lft.to/lastmile_qr_scan"}, "name": "c61d9b008e13abbadc34a5379758696f", "type": "electric_scooter"}, {"fusion_lat": 0.0, "bike_id": "98b676b918c0f158b1d18b1dd9b9b886", "fusion_lon": 0.0, "lon": -76.9373755, "lat": 38.89018, "is_reserved": 0, "is_disabled": 0, "rental_uris": {"android": "https://dc.lft.to/lastmile_qr_scan", "ios": "https://dc.lft.to/lastmile_qr_scan"}, "name": "98b676b918c0f158b1d18b1dd9b9b886", "type": "electric_scooter"}, {"fusion_lat": 0.0, "bike_id": "f19a632c6dfe0746d6e1f22a4ec4c8b8", "fusion_lon": 0.0, "lon": -77.0268335, "lat": 38.91711633333333, "is_reserved": 0, "is_disabled": 0, "rental_uris": {"android": "https://dc.lft.to/lastmile_qr_scan", "ios": "https://dc.lft.to/lastmile_qr_scan"}, "name": "f19a632c6dfe0746d6e1f22a4ec4c8b8", "type": "electric_scooter"}, {"fusion_lat": 0.0, "bike_id": "90903d7d63963e6e4717829e4e04e45f", "fusion_lon": 0.0, "lon": -76.980807, "lat": 38.90707616666667, "is_reserved": 0, "is_disabled": 0, "rental_uris": {"android": "https://dc.lft.to/lastmile_qr_scan", "ios": "https://dc.lft.to/lastmile_qr_scan"}, "name": "90903d7d63963e6e4717829e4e04e45f", "type": "electric_scooter"}, {"fusion_lat": 0.0, "bike_id": "534e5c7f463e06da2a6450f7c300ed76", "fusion_lon": 0.0, "lon": -77.02695266666667, "lat": 38.906286333333334, "is_reserved": 0, "is_disabled": 0, "rental_uris": {"android": "https://dc.lft.to/lastmile_qr_scan", "ios": "https://dc.lft.to/lastmile_qr_scan"}, "name": "534e5c7f463e06da2a6450f7c300ed76", "type": "electric_scooter"}, {"fusion_lat": 0.0, "bike_id": "19ed18b9cc7d10e4fda0e7c9a020d3d7", "fusion_lon": 0.0, "lon": -77.038426, "lat": 38.913221666666665, "is_reserved": 0, "is_disabled": 0, "rental_uris": {"android": "https://dc.lft.to/lastmile_qr_scan", "ios": "https://dc.lft.to/lastmile_qr_scan"}, "name": "19ed18b9cc7d10e4fda0e7c9a020d3d7", "type": "electric_scooter"}, {"fusion_lat": 0.0, "bike_id": "c374adbfc65a97785e8dfdec34cb9d99", "fusion_lon": 0.0, "lon": -77.0396995, "lat": 38.89220866666667, "is_reserved": 0, "is_disabled": 0, "rental_uris": {"android": "https://dc.lft.to/lastmile_qr_scan", "ios": "https://dc.lft.to/lastmile_qr_scan"}, "name": "c374adbfc65a97785e8dfdec34cb9d99", "type": "electric_scooter"}, {"fusion_lat": 0.0, "bike_id": "26db9aec32171042db4de01291831113", "fusion_lon": 0.0, "lon": -76.99004483333333, "lat": 38.8650615, "is_reserved": 0, "is_disabled": 0, "rental_uris": {"android": "https://dc.lft.to/lastmile_qr_scan", "ios": "https://dc.lft.to/lastmile_qr_scan"}, "name": "26db9aec32171042db4de01291831113", "type": "electric_scooter"}, {"fusion_lat": 0.0, "bike_id": "84b2cc4c31f34668345bbd6367c3e3b2", "fusion_lon": 0.0, "lon": -76.99482583333334, "lat": 38.8860805, "is_reserved": 0, "is_disabled": 0, "rental_uris": {"android": "https://dc.lft.to/lastmile_qr_scan", "ios": "https://dc.lft.to/lastmile_qr_scan"}, "name": "84b2cc4c31f34668345bbd6367c3e3b2", "type": "electric_scooter"}, {"fusion_lat": 0.0, "bike_id": "179bfc41ab83c2bd520582657b387944", "fusion_lon": 0.0, "lon": -77.06095116666667, "lat": 38.90527, "is_reserved": 0, "is_disabled": 0, "rental_uris": {"android": "https://dc.lft.to/lastmile_qr_scan", "ios": "https://dc.lft.to/lastmile_qr_scan"}, "name": "179bfc41ab83c2bd520582657b387944", "type": "electric_scooter"}, {"fusion_lat": 0.0, "bike_id": "c409a25055ee5b43087db147f6296b75", "fusion_lon": 0.0, "lon": -77.0178255, "lat": 38.883899666666665, "is_reserved": 0, "is_disabled": 0, "rental_uris": {"android": "https://dc.lft.to/lastmile_qr_scan", "ios": "https://dc.lft.to/lastmile_qr_scan"}, "name": "c409a25055ee5b43087db147f6296b75", "type": "electric_scooter"}, {"fusion_lat": 0.0, "bike_id": "59d2869626173992b9c019693d180fab", "fusion_lon": 0.0, "lon": -77.023025, "lat": 38.908769, "is_reserved": 0, "is_disabled": 0, "rental_uris": {"android": "https://dc.lft.to/lastmile_qr_scan", "ios": "https://dc.lft.to/lastmile_qr_scan"}, "name": "59d2869626173992b9c019693d180fab", "type": "electric_scooter"}, {"fusion_lat": 0.0, "bike_id": "b185bdfe8097f8c55e9000d93ddcaec5", "fusion_lon": 0.0, "lon": -77.04156916666666, "lat": 38.92331183333334, "is_reserved": 0, "is_disabled": 0, "rental_uris": {"android": "https://dc.lft.to/lastmile_qr_scan", "ios": "https://dc.lft.to/lastmile_qr_scan"}, "name": "b185bdfe8097f8c55e9000d93ddcaec5", "type": "electric_scooter"}, {"fusion_lat": 0.0, "bike_id": "12b8be379ee62205c22cb9bea1fea1de", "fusion_lon": 0.0, "lon": -77.0217605, "lat": 38.88719283333333, "is_reserved": 0, "is_disabled": 0, "rental_uris": {"android": "https://dc.lft.to/lastmile_qr_scan", "ios": "https://dc.lft.to/lastmile_qr_scan"}, "name": "12b8be379ee62205c22cb9bea1fea1de", "type": "electric_scooter"}, {"fusion_lat": 0.0, "bike_id": "645efea1e904b4fd874f1e7ce64f014f", "fusion_lon": 0.0, "lon": -77.0487755, "lat": 38.892329333333336, "is_reserved": 0, "is_disabled": 0, "rental_uris": {"android": "https://dc.lft.to/lastmile_qr_scan", "ios": "https://dc.lft.to/lastmile_qr_scan"}, "name": "645efea1e904b4fd874f1e7ce64f014f", "type": "electric_scooter"}, {"fusion_lat": 0.0, "bike_id": "62b6adc9a0cfe9a039b3be5c4a1a7d8b", "fusion_lon": 0.0, "lon": -77.03229133333333, "lat": 38.914062666666666, "is_reserved": 0, "is_disabled": 0, "rental_uris": {"android": "https://dc.lft.to/lastmile_qr_scan", "ios": "https://dc.lft.to/lastmile_qr_scan"}, "name": "62b6adc9a0cfe9a039b3be5c4a1a7d8b", "type": "electric_scooter"}, {"fusion_lat": 0.0, "bike_id": "7522b2f5ac28e76eff5c00903eaf3f68", "fusion_lon": 0.0, "lon": -77.05665383333333, "lat": 38.89551266666667, "is_reserved": 0, "is_disabled": 0, "rental_uris": {"android": "https://dc.lft.to/lastmile_qr_scan", "ios": "https://dc.lft.to/lastmile_qr_scan"}, "name": "7522b2f5ac28e76eff5c00903eaf3f68", "type": "electric_scooter"}, {"fusion_lat": 0.0, "bike_id": "a4566600e292bace89ed65e1a1f71138", "fusion_lon": 0.0, "lon": -77.22568816666667, "lat": 38.929677, "is_reserved": 0, "is_disabled": 0, "rental_uris": {"android": "https://dc.lft.to/lastmile_qr_scan", "ios": "https://dc.lft.to/lastmile_qr_scan"}, "name": "a4566600e292bace89ed65e1a1f71138", "type": "electric_bike"}, {"fusion_lat": 0.0, "bike_id": "3b99201571aabe624e680526c0bf98b0", "fusion_lon": 0.0, "lon": -77.0207165, "lat": 38.9270095, "is_reserved": 0, "is_disabled": 0, "rental_uris": {"android": "https://dc.lft.to/lastmile_qr_scan", "ios": "https://dc.lft.to/lastmile_qr_scan"}, "name": "3b99201571aabe624e680526c0bf98b0", "type": "electric_scooter"}, {"fusion_lat": 0.0, "bike_id": "b62bc580f79cea7ffb0de74b9cb16edc", "fusion_lon": 0.0, "lon": -77.0258305, "lat": 38.887472833333334, "is_reserved": 0, "is_disabled": 0, "rental_uris": {"android": "https://dc.lft.to/lastmile_qr_scan", "ios": "https://dc.lft.to/lastmile_qr_scan"}, "name": "b62bc580f79cea7ffb0de74b9cb16edc", "type": "electric_scooter"}, {"fusion_lat": 0.0, "bike_id": "8ddcbca409dcbfe7e7d475a51e693f9a", "fusion_lon": 0.0, "lon": -77.05466316666667, "lat": 38.90435466666667, "is_reserved": 0, "is_disabled": 0, "rental_uris": {"android": "https://dc.lft.to/lastmile_qr_scan", "ios": "https://dc.lft.to/lastmile_qr_scan"}, "name": "8ddcbca409dcbfe7e7d475a51e693f9a", "type": "electric_scooter"}, {"fusion_lat": 0.0, "bike_id": "ce5c88c91454dc6311b44a9f5f9c9c3d", "fusion_lon": 0.0, "lon": -76.97239616666667, "lat": 38.90354033333333, "is_reserved": 0, "is_disabled": 0, "rental_uris": {"android": "https://dc.lft.to/lastmile_qr_scan", "ios": "https://dc.lft.to/lastmile_qr_scan"}, "name": "ce5c88c91454dc6311b44a9f5f9c9c3d", "type": "electric_scooter"}, {"fusion_lat": 0.0, "bike_id": "7c9e40e8738c28048821aab225cce43f", "fusion_lon": 0.0, "lon": -76.98529483333333, "lat": 38.866856, "is_reserved": 0, "is_disabled": 0, "rental_uris": {"android": "https://dc.lft.to/lastmile_qr_scan", "ios": "https://dc.lft.to/lastmile_qr_scan"}, "name": "7c9e40e8738c28048821aab225cce43f", "type": "electric_scooter"}, {"fusion_lat": 0.0, "bike_id": "e8925a211126cc3b9b57acdb6a4e439c", "fusion_lon": 0.0, "lon": -77.0328785, "lat": 38.93760566666667, "is_reserved": 0, "is_disabled": 0, "rental_uris": {"android": "https://dc.lft.to/lastmile_qr_scan", "ios": "https://dc.lft.to/lastmile_qr_scan"}, "name": "e8925a211126cc3b9b57acdb6a4e439c", "type": "electric_scooter"}, {"fusion_lat": 0.0, "bike_id": "822da72b08b2361b147ec67ae3801973", "fusion_lon": 0.0, "lon": -77.03217466666666, "lat": 38.89218533333333, "is_reserved": 0, "is_disabled": 0, "rental_uris": {"android": "https://dc.lft.to/lastmile_qr_scan", "ios": "https://dc.lft.to/lastmile_qr_scan"}, "name": "822da72b08b2361b147ec67ae3801973", "type": "electric_scooter"}, {"fusion_lat": 0.0, "bike_id": "2404e0150c1a155c6b03ce869df566da", "fusion_lon": 0.0, "lon": -76.99460883333333, "lat": 38.903688833333334, "is_reserved": 0, "is_disabled": 0, "rental_uris": {"android": "https://dc.lft.to/lastmile_qr_scan", "ios": "https://dc.lft.to/lastmile_qr_scan"}, "name": "2404e0150c1a155c6b03ce869df566da", "type": "electric_scooter"}, {"fusion_lat": 0.0, "bike_id": "6f634fc3fd3cca199dcbcb8adfb713d2", "fusion_lon": 0.0, "lon": -77.01995716666667, "lat": 38.966275, "is_reserved": 0, "is_disabled": 0, "rental_uris": {"android": "https://dc.lft.to/lastmile_qr_scan", "ios": "https://dc.lft.to/lastmile_qr_scan"}, "name": "6f634fc3fd3cca199dcbcb8adfb713d2", "type": "electric_scooter"}, {"fusion_lat": 0.0, "bike_id": "16a84908ca1831c0d2ad531c8cc99c06", "fusion_lon": 0.0, "lon": -77.0280665, "lat": 38.914243166666665, "is_reserved": 0, "is_disabled": 0, "rental_uris": {"android": "https://dc.lft.to/lastmile_qr_scan", "ios": "https://dc.lft.to/lastmile_qr_scan"}, "name": "16a84908ca1831c0d2ad531c8cc99c06", "type": "electric_scooter"}, {"fusion_lat": 0.0, "bike_id": "7b1f7650ca3b0c3888e55a71a0a8923e", "fusion_lon": 0.0, "lon": -76.99675, "lat": 38.8383345, "is_reserved": 0, "is_disabled": 0, "rental_uris": {"android": "https://dc.lft.to/lastmile_qr_scan", "ios": "https://dc.lft.to/lastmile_qr_scan"}, "name": "7b1f7650ca3b0c3888e55a71a0a8923e", "type": "electric_bike"}, {"fusion_lat": 0.0, "bike_id": "a18acf75fdb157ede27512ac36129558", "fusion_lon": 0.0, "lon": -77.01959966666666, "lat": 38.92331033333333, "is_reserved": 0, "is_disabled": 0, "rental_uris": {"android": "https://dc.lft.to/lastmile_qr_scan", "ios": "https://dc.lft.to/lastmile_qr_scan"}, "name": "a18acf75fdb157ede27512ac36129558", "type": "electric_scooter"}, {"fusion_lat": 0.0, "bike_id": "475a97fa724d38869c4931663bfc5b2e", "fusion_lon": 0.0, "lon": -77.07236766666666, "lat": 38.89890466666667, "is_reserved": 0, "is_disabled": 0, "rental_uris": {"android": "https://dc.lft.to/lastmile_qr_scan", "ios": "https://dc.lft.to/lastmile_qr_scan"}, "name": "475a97fa724d38869c4931663bfc5b2e", "type": "electric_scooter"}, {"fusion_lat": 0.0, "bike_id": "913d3c1dee29084dbf7d9a367df5a47b", "fusion_lon": 0.0, "lon": -76.9938545, "lat": 38.899001, "is_reserved": 0, "is_disabled": 0, "rental_uris": {"android": "https://dc.lft.to/lastmile_qr_scan", "ios": "https://dc.lft.to/lastmile_qr_scan"}, "name": "913d3c1dee29084dbf7d9a367df5a47b", "type": "electric_scooter"}, {"fusion_lat": 0.0, "bike_id": "ce1c4ff0ba5e16ff1f9ba3348c29c1c4", "fusion_lon": 0.0, "lon": -77.075931, "lat": 38.91217733333333, "is_reserved": 0, "is_disabled": 0, "rental_uris": {"android": "https://dc.lft.to/lastmile_qr_scan", "ios": "https://dc.lft.to/lastmile_qr_scan"}, "name": "ce1c4ff0ba5e16ff1f9ba3348c29c1c4", "type": "electric_scooter"}, {"fusion_lat": 0.0, "bike_id": "7f5080f12da0d77a6af68ef2410fae7d", "fusion_lon": 0.0, "lon": -77.03945283333333, "lat": 38.90471733333333, "is_reserved": 0, "is_disabled": 0, "rental_uris": {"android": "https://dc.lft.to/lastmile_qr_scan", "ios": "https://dc.lft.to/lastmile_qr_scan"}, "name": "7f5080f12da0d77a6af68ef2410fae7d", "type": "electric_scooter"}, {"fusion_lat": 0.0, "bike_id": "2cef88464d9f7d08cfadcb637e232298", "fusion_lon": 0.0, "lon": -77.03410616666666, "lat": 38.923184666666664, "is_reserved": 0, "is_disabled": 0, "rental_uris": {"android": "https://dc.lft.to/lastmile_qr_scan", "ios": "https://dc.lft.to/lastmile_qr_scan"}, "name": "2cef88464d9f7d08cfadcb637e232298", "type": "electric_scooter"}, {"fusion_lat": 0.0, "bike_id": "b2d059b2c1d4247a9ceddf6fa1bfb608", "fusion_lon": 0.0, "lon": -77.03172366666666, "lat": 38.920939833333335, "is_reserved": 0, "is_disabled": 0, "rental_uris": {"android": "https://dc.lft.to/lastmile_qr_scan", "ios": "https://dc.lft.to/lastmile_qr_scan"}, "name": "b2d059b2c1d4247a9ceddf6fa1bfb608", "type": "electric_scooter"}, {"fusion_lat": 0.0, "bike_id": "de09c842f1146fe68c5a7dfc6dc81e7d", "fusion_lon": 0.0, "lon": -77.02473833333333, "lat": 38.901011, "is_reserved": 0, "is_disabled": 0, "rental_uris": {"android": "https://dc.lft.to/lastmile_qr_scan", "ios": "https://dc.lft.to/lastmile_qr_scan"}, "name": "de09c842f1146fe68c5a7dfc6dc81e7d", "type": "electric_scooter"}, {"fusion_lat": 0.0, "bike_id": "68b173c1c5792366132ff58a5bc1826b", "fusion_lon": 0.0, "lon": -77.03434916666667, "lat": 38.90982866666667, "is_reserved": 0, "is_disabled": 0, "rental_uris": {"android": "https://dc.lft.to/lastmile_qr_scan", "ios": "https://dc.lft.to/lastmile_qr_scan"}, "name": "68b173c1c5792366132ff58a5bc1826b", "type": "electric_scooter"}, {"fusion_lat": 0.0, "bike_id": "2158972754158c38f52a0bb9bcf163f8", "fusion_lon": 0.0, "lon": -77.02636516666666, "lat": 38.91691633333333, "is_reserved": 0, "is_disabled": 0, "rental_uris": {"android": "https://dc.lft.to/lastmile_qr_scan", "ios": "https://dc.lft.to/lastmile_qr_scan"}, "name": "2158972754158c38f52a0bb9bcf163f8", "type": "electric_scooter"}, {"fusion_lat": 0.0, "bike_id": "df633f28da955232fa479db197e4d288", "fusion_lon": 0.0, "lon": -77.00503816666667, "lat": 38.91255016666667, "is_reserved": 0, "is_disabled": 0, "rental_uris": {"android": "https://dc.lft.to/lastmile_qr_scan", "ios": "https://dc.lft.to/lastmile_qr_scan"}, "name": "df633f28da955232fa479db197e4d288", "type": "electric_scooter"}, {"fusion_lat": 0.0, "bike_id": "27eb07cdcdcdb3f5d46bc5253f01ce78", "fusion_lon": 0.0, "lon": -77.04645983333333, "lat": 38.915937666666665, "is_reserved": 0, "is_disabled": 0, "rental_uris": {"android": "https://dc.lft.to/lastmile_qr_scan", "ios": "https://dc.lft.to/lastmile_qr_scan"}, "name": "27eb07cdcdcdb3f5d46bc5253f01ce78", "type": "electric_scooter"}, {"fusion_lat": 0.0, "bike_id": "1682a49e77efb46b3c769141de665027", "fusion_lon": 0.0, "lon": -77.02362466666666, "lat": 38.892174, "is_reserved": 0, "is_disabled": 0, "rental_uris": {"android": "https://dc.lft.to/lastmile_qr_scan", "ios": "https://dc.lft.to/lastmile_qr_scan"}, "name": "1682a49e77efb46b3c769141de665027", "type": "electric_scooter"}, {"fusion_lat": 0.0, "bike_id": "156843d586896ae8e09ebb1450fb2b04", "fusion_lon": 0.0, "lon": -77.03829433333334, "lat": 38.90678116666667, "is_reserved": 0, "is_disabled": 0, "rental_uris": {"android": "https://dc.lft.to/lastmile_qr_scan", "ios": "https://dc.lft.to/lastmile_qr_scan"}, "name": "156843d586896ae8e09ebb1450fb2b04", "type": "electric_scooter"}, {"fusion_lat": 0.0, "bike_id": "a968b81fc62616fe84c6bed8b964363c", "fusion_lon": 0.0, "lon": -77.020524, "lat": 38.909689666666665, "is_reserved": 0, "is_disabled": 0, "rental_uris": {"android": "https://dc.lft.to/lastmile_qr_scan", "ios": "https://dc.lft.to/lastmile_qr_scan"}, "name": "a968b81fc62616fe84c6bed8b964363c", "type": "electric_scooter"}, {"fusion_lat": 0.0, "bike_id": "676b3c50b0b62b7514ad679c70c95ad9", "fusion_lon": 0.0, "lon": -77.02162816666667, "lat": 38.92498583333333, "is_reserved": 0, "is_disabled": 0, "rental_uris": {"android": "https://dc.lft.to/lastmile_qr_scan", "ios": "https://dc.lft.to/lastmile_qr_scan"}, "name": "676b3c50b0b62b7514ad679c70c95ad9", "type": "electric_scooter"}, {"fusion_lat": 0.0, "bike_id": "d80612e6faebae07aaa759bed612a320", "fusion_lon": 0.0, "lon": -77.03065066666667, "lat": 38.88048883333333, "is_reserved": 0, "is_disabled": 0, "rental_uris": {"android": "https://dc.lft.to/lastmile_qr_scan", "ios": "https://dc.lft.to/lastmile_qr_scan"}, "name": "d80612e6faebae07aaa759bed612a320", "type": "electric_scooter"}, {"fusion_lat": 0.0, "bike_id": "6673b33e11b3ab667d509e3f1b59e4ce", "fusion_lon": 0.0, "lon": -77.02393616666667, "lat": 38.91680866666667, "is_reserved": 0, "is_disabled": 0, "rental_uris": {"android": "https://dc.lft.to/lastmile_qr_scan", "ios": "https://dc.lft.to/lastmile_qr_scan"}, "name": "6673b33e11b3ab667d509e3f1b59e4ce", "type": "electric_scooter"}, {"fusion_lat": 0.0, "bike_id": "b5d12d38043fe12feade1252a2acf635", "fusion_lon": 0.0, "lon": -77.02632316666667, "lat": 38.91707016666667, "is_reserved": 0, "is_disabled": 0, "rental_uris": {"android": "https://dc.lft.to/lastmile_qr_scan", "ios": "https://dc.lft.to/lastmile_qr_scan"}, "name": "b5d12d38043fe12feade1252a2acf635", "type": "electric_scooter"}, {"fusion_lat": 0.0, "bike_id": "3c1dc5d8de1c5018d789ce949c0ad6a9", "fusion_lon": 0.0, "lon": -77.018383, "lat": 38.90932333333333, "is_reserved": 0, "is_disabled": 0, "rental_uris": {"android": "https://dc.lft.to/lastmile_qr_scan", "ios": "https://dc.lft.to/lastmile_qr_scan"}, "name": "3c1dc5d8de1c5018d789ce949c0ad6a9", "type": "electric_scooter"}, {"fusion_lat": 0.0, "bike_id": "fdeba93f2a52b5020f1fe934a6455779", "fusion_lon": 0.0, "lon": -76.99074833333333, "lat": 38.89822233333334, "is_reserved": 0, "is_disabled": 0, "rental_uris": {"android": "https://dc.lft.to/lastmile_qr_scan", "ios": "https://dc.lft.to/lastmile_qr_scan"}, "name": "fdeba93f2a52b5020f1fe934a6455779", "type": "electric_bike"}, {"fusion_lat": 0.0, "bike_id": "5beae767858f0be45645e38ce83844ec", "fusion_lon": 0.0, "lon": -77.032637, "lat": 38.932139166666666, "is_reserved": 0, "is_disabled": 0, "rental_uris": {"android": "https://dc.lft.to/lastmile_qr_scan", "ios": "https://dc.lft.to/lastmile_qr_scan"}, "name": "5beae767858f0be45645e38ce83844ec", "type": "electric_scooter"}, {"fusion_lat": 0.0, "bike_id": "8d1a6c55e44a29063216416f2348510d", "fusion_lon": 0.0, "lon": -77.04519966666666, "lat": 38.90270733333333, "is_reserved": 0, "is_disabled": 0, "rental_uris": {"android": "https://dc.lft.to/lastmile_qr_scan", "ios": "https://dc.lft.to/lastmile_qr_scan"}, "name": "8d1a6c55e44a29063216416f2348510d", "type": "electric_scooter"}, {"fusion_lat": 0.0, "bike_id": "d4c8460eb809b9de2f38212735fc48e3", "fusion_lon": 0.0, "lon": -77.01702683333333, "lat": 38.90465783333333, "is_reserved": 0, "is_disabled": 0, "rental_uris": {"android": "https://dc.lft.to/lastmile_qr_scan", "ios": "https://dc.lft.to/lastmile_qr_scan"}, "name": "d4c8460eb809b9de2f38212735fc48e3", "type": "electric_scooter"}, {"fusion_lat": 0.0, "bike_id": "57affa691187d17bcbe607b08b5766fb", "fusion_lon": 0.0, "lon": -77.01840116666666, "lat": 38.90959866666667, "is_reserved": 0, "is_disabled": 0, "rental_uris": {"android": "https://dc.lft.to/lastmile_qr_scan", "ios": "https://dc.lft.to/lastmile_qr_scan"}, "name": "57affa691187d17bcbe607b08b5766fb", "type": "electric_scooter"}, {"fusion_lat": 0.0, "bike_id": "f768674b2db281d6791a6716fd51f3df", "fusion_lon": 0.0, "lon": -77.034145, "lat": 38.92752316666667, "is_reserved": 0, "is_disabled": 0, "rental_uris": {"android": "https://dc.lft.to/lastmile_qr_scan", "ios": "https://dc.lft.to/lastmile_qr_scan"}, "name": "f768674b2db281d6791a6716fd51f3df", "type": "electric_scooter"}, {"fusion_lat": 0.0, "bike_id": "dd4e38c35dd4fae8577d0bfdd4c0fa1c", "fusion_lon": 0.0, "lon": -77.0518005, "lat": 38.923868666666664, "is_reserved": 0, "is_disabled": 0, "rental_uris": {"android": "https://dc.lft.to/lastmile_qr_scan", "ios": "https://dc.lft.to/lastmile_qr_scan"}, "name": "dd4e38c35dd4fae8577d0bfdd4c0fa1c", "type": "electric_scooter"}, {"fusion_lat": 0.0, "bike_id": "dabb6561717c2a1acbb9339897777d92", "fusion_lon": 0.0, "lon": -77.03444016666667, "lat": 38.90737016666667, "is_reserved": 0, "is_disabled": 0, "rental_uris": {"android": "https://dc.lft.to/lastmile_qr_scan", "ios": "https://dc.lft.to/lastmile_qr_scan"}, "name": "dabb6561717c2a1acbb9339897777d92", "type": "electric_scooter"}, {"fusion_lat": 0.0, "bike_id": "406286feed3676ba6780de288217979f", "fusion_lon": 0.0, "lon": -77.01413083333334, "lat": 38.92808466666666, "is_reserved": 0, "is_disabled": 0, "rental_uris": {"android": "https://dc.lft.to/lastmile_qr_scan", "ios": "https://dc.lft.to/lastmile_qr_scan"}, "name": "406286feed3676ba6780de288217979f", "type": "electric_scooter"}, {"fusion_lat": 0.0, "bike_id": "1611a9760fa71093b089ed37095dc09a", "fusion_lon": 0.0, "lon": -77.032677, "lat": 38.931011, "is_reserved": 0, "is_disabled": 0, "rental_uris": {"android": "https://dc.lft.to/lastmile_qr_scan", "ios": "https://dc.lft.to/lastmile_qr_scan"}, "name": "1611a9760fa71093b089ed37095dc09a", "type": "electric_scooter"}, {"fusion_lat": 0.0, "bike_id": "24d17fbec56f35a48a4386e5fb0cbeed", "fusion_lon": 0.0, "lon": -77.01357666666667, "lat": 38.89816, "is_reserved": 0, "is_disabled": 0, "rental_uris": {"android": "https://dc.lft.to/lastmile_qr_scan", "ios": "https://dc.lft.to/lastmile_qr_scan"}, "name": "24d17fbec56f35a48a4386e5fb0cbeed", "type": "electric_scooter"}, {"fusion_lat": 0.0, "bike_id": "fa410be5dde5410ba8f7fcca35114d94", "fusion_lon": 0.0, "lon": -77.03223183333333, "lat": 38.91377683333333, "is_reserved": 0, "is_disabled": 0, "rental_uris": {"android": "https://dc.lft.to/lastmile_qr_scan", "ios": "https://dc.lft.to/lastmile_qr_scan"}, "name": "fa410be5dde5410ba8f7fcca35114d94", "type": "electric_scooter"}, {"fusion_lat": 0.0, "bike_id": "e4903ba91a2f0d8e243580d220870abe", "fusion_lon": 0.0, "lon": -77.058956, "lat": 38.936144666666664, "is_reserved": 0, "is_disabled": 0, "rental_uris": {"android": "https://dc.lft.to/lastmile_qr_scan", "ios": "https://dc.lft.to/lastmile_qr_scan"}, "name": "e4903ba91a2f0d8e243580d220870abe", "type": "electric_scooter"}, {"fusion_lat": 0.0, "bike_id": "87b7528f16afad6a7254d1a6e6f15d14", "fusion_lon": 0.0, "lon": -76.9009685, "lat": 38.88743083333333, "is_reserved": 0, "is_disabled": 0, "rental_uris": {"android": "https://dc.lft.to/lastmile_qr_scan", "ios": "https://dc.lft.to/lastmile_qr_scan"}, "name": "87b7528f16afad6a7254d1a6e6f15d14", "type": "electric_bike"}, {"fusion_lat": 0.0, "bike_id": "c66d27724c9c32640d0cc216faff7857", "fusion_lon": 0.0, "lon": -77.021042, "lat": 38.92176583333333, "is_reserved": 0, "is_disabled": 0, "rental_uris": {"android": "https://dc.lft.to/lastmile_qr_scan", "ios": "https://dc.lft.to/lastmile_qr_scan"}, "name": "c66d27724c9c32640d0cc216faff7857", "type": "electric_scooter"}, {"fusion_lat": 0.0, "bike_id": "c9e5fcc868fcea30da259c631cb447a5", "fusion_lon": 0.0, "lon": -77.0349985, "lat": 38.92155266666666, "is_reserved": 0, "is_disabled": 0, "rental_uris": {"android": "https://dc.lft.to/lastmile_qr_scan", "ios": "https://dc.lft.to/lastmile_qr_scan"}, "name": "c9e5fcc868fcea30da259c631cb447a5", "type": "electric_scooter"}, {"fusion_lat": 0.0, "bike_id": "54a5dd562232e87291202efd23152ec2", "fusion_lon": 0.0, "lon": -77.0278255, "lat": 38.89220983333333, "is_reserved": 0, "is_disabled": 0, "rental_uris": {"android": "https://dc.lft.to/lastmile_qr_scan", "ios": "https://dc.lft.to/lastmile_qr_scan"}, "name": "54a5dd562232e87291202efd23152ec2", "type": "electric_scooter"}, {"fusion_lat": 0.0, "bike_id": "29acab35bab9e7f2e767af8c2da6a9a5", "fusion_lon": 0.0, "lon": -77.04602583333333, "lat": 38.90254016666667, "is_reserved": 0, "is_disabled": 0, "rental_uris": {"android": "https://dc.lft.to/lastmile_qr_scan", "ios": "https://dc.lft.to/lastmile_qr_scan"}, "name": "29acab35bab9e7f2e767af8c2da6a9a5", "type": "electric_scooter"}, {"fusion_lat": 0.0, "bike_id": "606899dc78c1f3a6117898bcb00ca77a", "fusion_lon": 0.0, "lon": -77.04422583333333, "lat": 38.911302, "is_reserved": 0, "is_disabled": 0, "rental_uris": {"android": "https://dc.lft.to/lastmile_qr_scan", "ios": "https://dc.lft.to/lastmile_qr_scan"}, "name": "606899dc78c1f3a6117898bcb00ca77a", "type": "electric_scooter"}, {"fusion_lat": 0.0, "bike_id": "78390af636c17ee8de7faaf2b9470e97", "fusion_lon": 0.0, "lon": -77.08189933333334, "lat": 38.93511783333334, "is_reserved": 0, "is_disabled": 0, "rental_uris": {"android": "https://dc.lft.to/lastmile_qr_scan", "ios": "https://dc.lft.to/lastmile_qr_scan"}, "name": "78390af636c17ee8de7faaf2b9470e97", "type": "electric_scooter"}, {"fusion_lat": 0.0, "bike_id": "36e2d6196d0bb5354dd26b4f8c4d3bca", "fusion_lon": 0.0, "lon": -77.04863333333333, "lat": 38.90646916666667, "is_reserved": 0, "is_disabled": 0, "rental_uris": {"android": "https://dc.lft.to/lastmile_qr_scan", "ios": "https://dc.lft.to/lastmile_qr_scan"}, "name": "36e2d6196d0bb5354dd26b4f8c4d3bca", "type": "electric_scooter"}, {"fusion_lat": 0.0, "bike_id": "22d744e02e5977b7723ff326657da35d", "fusion_lon": 0.0, "lon": -77.04463816666667, "lat": 38.90543566666667, "is_reserved": 0, "is_disabled": 0, "rental_uris": {"android": "https://dc.lft.to/lastmile_qr_scan", "ios": "https://dc.lft.to/lastmile_qr_scan"}, "name": "22d744e02e5977b7723ff326657da35d", "type": "electric_scooter"}, {"fusion_lat": 0.0, "bike_id": "2a24be350ab57def2d93ec7c780e9f46", "fusion_lon": 0.0, "lon": -77.02817066666667, "lat": 38.931712166666664, "is_reserved": 0, "is_disabled": 0, "rental_uris": {"android": "https://dc.lft.to/lastmile_qr_scan", "ios": "https://dc.lft.to/lastmile_qr_scan"}, "name": "2a24be350ab57def2d93ec7c780e9f46", "type": "electric_scooter"}, {"fusion_lat": 0.0, "bike_id": "807a01f055125b0133a3185ee0225c24", "fusion_lon": 0.0, "lon": -77.02227816666667, "lat": 38.893246500000004, "is_reserved": 0, "is_disabled": 0, "rental_uris": {"android": "https://dc.lft.to/lastmile_qr_scan", "ios": "https://dc.lft.to/lastmile_qr_scan"}, "name": "807a01f055125b0133a3185ee0225c24", "type": "electric_scooter"}, {"fusion_lat": 0.0, "bike_id": "4948e7c6186e48d05a28d79f8fc36450", "fusion_lon": 0.0, "lon": -77.0149775, "lat": 38.89219583333333, "is_reserved": 0, "is_disabled": 0, "rental_uris": {"android": "https://dc.lft.to/lastmile_qr_scan", "ios": "https://dc.lft.to/lastmile_qr_scan"}, "name": "4948e7c6186e48d05a28d79f8fc36450", "type": "electric_scooter"}, {"fusion_lat": 0.0, "bike_id": "7c92d10b68932823f05c02145351aaef", "fusion_lon": 0.0, "lon": -76.93032133333334, "lat": 38.900167833333334, "is_reserved": 0, "is_disabled": 0, "rental_uris": {"android": "https://dc.lft.to/lastmile_qr_scan", "ios": "https://dc.lft.to/lastmile_qr_scan"}, "name": "7c92d10b68932823f05c02145351aaef", "type": "electric_scooter"}, {"fusion_lat": 0.0, "bike_id": "0afa36645c8a150d78a9ceaa32770f6e", "fusion_lon": 0.0, "lon": -77.03938066666667, "lat": 38.915643833333334, "is_reserved": 0, "is_disabled": 0, "rental_uris": {"android": "https://dc.lft.to/lastmile_qr_scan", "ios": "https://dc.lft.to/lastmile_qr_scan"}, "name": "0afa36645c8a150d78a9ceaa32770f6e", "type": "electric_scooter"}, {"fusion_lat": 0.0, "bike_id": "9cefc9f5748c3ffc0dbb35970562ef51", "fusion_lon": 0.0, "lon": -77.02578033333333, "lat": 38.903595833333334, "is_reserved": 0, "is_disabled": 0, "rental_uris": {"android": "https://dc.lft.to/lastmile_qr_scan", "ios": "https://dc.lft.to/lastmile_qr_scan"}, "name": "9cefc9f5748c3ffc0dbb35970562ef51", "type": "electric_scooter"}, {"fusion_lat": 0.0, "bike_id": "b890e000eea5ab6a802deeaa67a75fa9", "fusion_lon": 0.0, "lon": -76.94629166666667, "lat": 38.832320833333334, "is_reserved": 0, "is_disabled": 0, "rental_uris": {"android": "https://dc.lft.to/lastmile_qr_scan", "ios": "https://dc.lft.to/lastmile_qr_scan"}, "name": "b890e000eea5ab6a802deeaa67a75fa9", "type": "electric_bike"}, {"fusion_lat": 0.0, "bike_id": "7a3c8204287044c176946174d495ebfe", "fusion_lon": 0.0, "lon": -77.03208516666666, "lat": 38.915838666666666, "is_reserved": 0, "is_disabled": 0, "rental_uris": {"android": "https://dc.lft.to/lastmile_qr_scan", "ios": "https://dc.lft.to/lastmile_qr_scan"}, "name": "7a3c8204287044c176946174d495ebfe", "type": "electric_scooter"}, {"fusion_lat": 0.0, "bike_id": "4e55eeb3f164d45f5afc989316e5cf31", "fusion_lon": 0.0, "lon": -77.00364266666666, "lat": 38.907509833333336, "is_reserved": 0, "is_disabled": 0, "rental_uris": {"android": "https://dc.lft.to/lastmile_qr_scan", "ios": "https://dc.lft.to/lastmile_qr_scan"}, "name": "4e55eeb3f164d45f5afc989316e5cf31", "type": "electric_scooter"}, {"fusion_lat": 0.0, "bike_id": "47d4a50a69e76f5d36954007955c1410", "fusion_lon": 0.0, "lon": -77.02948283333333, "lat": 38.8965825, "is_reserved": 0, "is_disabled": 0, "rental_uris": {"android": "https://dc.lft.to/lastmile_qr_scan", "ios": "https://dc.lft.to/lastmile_qr_scan"}, "name": "47d4a50a69e76f5d36954007955c1410", "type": "electric_scooter"}, {"fusion_lat": 0.0, "bike_id": "f57c3594a8276b6eba407de281b3493d", "fusion_lon": 0.0, "lon": -77.03445083333334, "lat": 38.907355833333334, "is_reserved": 0, "is_disabled": 0, "rental_uris": {"android": "https://dc.lft.to/lastmile_qr_scan", "ios": "https://dc.lft.to/lastmile_qr_scan"}, "name": "f57c3594a8276b6eba407de281b3493d", "type": "electric_scooter"}, {"fusion_lat": 0.0, "bike_id": "dbab05ad076a0b4897b44412b39a401f", "fusion_lon": 0.0, "lon": -77.036317, "lat": 38.915527833333336, "is_reserved": 0, "is_disabled": 0, "rental_uris": {"android": "https://dc.lft.to/lastmile_qr_scan", "ios": "https://dc.lft.to/lastmile_qr_scan"}, "name": "dbab05ad076a0b4897b44412b39a401f", "type": "electric_scooter"}, {"fusion_lat": 0.0, "bike_id": "bf02d046e71c78f7ac77e19931f6309a", "fusion_lon": 0.0, "lon": -76.932794, "lat": 38.95425683333333, "is_reserved": 0, "is_disabled": 0, "rental_uris": {"android": "https://dc.lft.to/lastmile_qr_scan", "ios": "https://dc.lft.to/lastmile_qr_scan"}, "name": "bf02d046e71c78f7ac77e19931f6309a", "type": "electric_bike"}, {"fusion_lat": 0.0, "bike_id": "61df381bd3019ff9e0b0c650d7b62133", "fusion_lon": 0.0, "lon": -77.0350335, "lat": 38.91183, "is_reserved": 0, "is_disabled": 0, "rental_uris": {"android": "https://dc.lft.to/lastmile_qr_scan", "ios": "https://dc.lft.to/lastmile_qr_scan"}, "name": "61df381bd3019ff9e0b0c650d7b62133", "type": "electric_scooter"}, {"fusion_lat": 0.0, "bike_id": "33b350395cbdaa4fe04dd00df3b00695", "fusion_lon": 0.0, "lon": -77.06194433333333, "lat": 38.944541, "is_reserved": 0, "is_disabled": 0, "rental_uris": {"android": "https://dc.lft.to/lastmile_qr_scan", "ios": "https://dc.lft.to/lastmile_qr_scan"}, "name": "33b350395cbdaa4fe04dd00df3b00695", "type": "electric_scooter"}, {"fusion_lat": 0.0, "bike_id": "3218e883cb54a6496672ed68c1508f89", "fusion_lon": 0.0, "lon": -77.02826833333333, "lat": 38.9224365, "is_reserved": 0, "is_disabled": 0, "rental_uris": {"android": "https://dc.lft.to/lastmile_qr_scan", "ios": "https://dc.lft.to/lastmile_qr_scan"}, "name": "3218e883cb54a6496672ed68c1508f89", "type": "electric_scooter"}, {"fusion_lat": 0.0, "bike_id": "96aec1ff177e211bef5edb07e5b5bb3e", "fusion_lon": 0.0, "lon": -77.019989, "lat": 38.9115615, "is_reserved": 0, "is_disabled": 0, "rental_uris": {"android": "https://dc.lft.to/lastmile_qr_scan", "ios": "https://dc.lft.to/lastmile_qr_scan"}, "name": "96aec1ff177e211bef5edb07e5b5bb3e", "type": "electric_scooter"}, {"fusion_lat": 0.0, "bike_id": "c7bc1bd56ed5558b63bc9a5815c9b770", "fusion_lon": 0.0, "lon": -77.03184983333334, "lat": 38.892286, "is_reserved": 0, "is_disabled": 0, "rental_uris": {"android": "https://dc.lft.to/lastmile_qr_scan", "ios": "https://dc.lft.to/lastmile_qr_scan"}, "name": "c7bc1bd56ed5558b63bc9a5815c9b770", "type": "electric_scooter"}, {"fusion_lat": 0.0, "bike_id": "9672bb445e72a80f6f5dcf68de02588f", "fusion_lon": 0.0, "lon": -77.00130483333334, "lat": 38.87821, "is_reserved": 0, "is_disabled": 0, "rental_uris": {"android": "https://dc.lft.to/lastmile_qr_scan", "ios": "https://dc.lft.to/lastmile_qr_scan"}, "name": "9672bb445e72a80f6f5dcf68de02588f", "type": "electric_scooter"}, {"fusion_lat": 0.0, "bike_id": "616cf71d3d0de778fed2ddabbd597d3f", "fusion_lon": 0.0, "lon": -77.01661316666667, "lat": 38.87705283333333, "is_reserved": 0, "is_disabled": 0, "rental_uris": {"android": "https://dc.lft.to/lastmile_qr_scan", "ios": "https://dc.lft.to/lastmile_qr_scan"}, "name": "616cf71d3d0de778fed2ddabbd597d3f", "type": "electric_scooter"}, {"fusion_lat": 0.0, "bike_id": "827cc7410ac4aef041b720efe505fce9", "fusion_lon": 0.0, "lon": -77.06101133333334, "lat": 38.90528283333333, "is_reserved": 0, "is_disabled": 0, "rental_uris": {"android": "https://dc.lft.to/lastmile_qr_scan", "ios": "https://dc.lft.to/lastmile_qr_scan"}, "name": "827cc7410ac4aef041b720efe505fce9", "type": "electric_scooter"}, {"fusion_lat": 0.0, "bike_id": "cbcdabc9f66c3a41d7f861d3f19b546f", "fusion_lon": 0.0, "lon": -77.02383833333333, "lat": 38.8923405, "is_reserved": 0, "is_disabled": 0, "rental_uris": {"android": "https://dc.lft.to/lastmile_qr_scan", "ios": "https://dc.lft.to/lastmile_qr_scan"}, "name": "cbcdabc9f66c3a41d7f861d3f19b546f", "type": "electric_scooter"}, {"fusion_lat": 0.0, "bike_id": "ce66b83a8d9a1addb3159856ec10dfff", "fusion_lon": 0.0, "lon": -77.03291883333333, "lat": 38.901320166666665, "is_reserved": 0, "is_disabled": 0, "rental_uris": {"android": "https://dc.lft.to/lastmile_qr_scan", "ios": "https://dc.lft.to/lastmile_qr_scan"}, "name": "ce66b83a8d9a1addb3159856ec10dfff", "type": "electric_scooter"}, {"fusion_lat": 0.0, "bike_id": "36d63e6fe4114baa8f76771e72a4df26", "fusion_lon": 0.0, "lon": -77.00209133333334, "lat": 38.902433333333335, "is_reserved": 0, "is_disabled": 0, "rental_uris": {"android": "https://dc.lft.to/lastmile_qr_scan", "ios": "https://dc.lft.to/lastmile_qr_scan"}, "name": "36d63e6fe4114baa8f76771e72a4df26", "type": "electric_scooter"}, {"fusion_lat": 0.0, "bike_id": "0f45986bb2a3892efa9db4bcfcd05098", "fusion_lon": 0.0, "lon": -77.050464, "lat": 38.92361483333333, "is_reserved": 0, "is_disabled": 0, "rental_uris": {"android": "https://dc.lft.to/lastmile_qr_scan", "ios": "https://dc.lft.to/lastmile_qr_scan"}, "name": "0f45986bb2a3892efa9db4bcfcd05098", "type": "electric_scooter"}, {"fusion_lat": 0.0, "bike_id": "e3273632138e90ec71d279424cbb7cec", "fusion_lon": 0.0, "lon": -77.03665733333334, "lat": 38.92141733333333, "is_reserved": 0, "is_disabled": 0, "rental_uris": {"android": "https://dc.lft.to/lastmile_qr_scan", "ios": "https://dc.lft.to/lastmile_qr_scan"}, "name": "e3273632138e90ec71d279424cbb7cec", "type": "electric_scooter"}, {"fusion_lat": 0.0, "bike_id": "b4d6f7e426d280b1edff501cfa6bcbb8", "fusion_lon": 0.0, "lon": -77.02662266666667, "lat": 38.92788733333333, "is_reserved": 0, "is_disabled": 0, "rental_uris": {"android": "https://dc.lft.to/lastmile_qr_scan", "ios": "https://dc.lft.to/lastmile_qr_scan"}, "name": "b4d6f7e426d280b1edff501cfa6bcbb8", "type": "electric_scooter"}, {"fusion_lat": 0.0, "bike_id": "870b74ca060a222afaa9e16573675f25", "fusion_lon": 0.0, "lon": -77.03007783333334, "lat": 38.896098333333335, "is_reserved": 0, "is_disabled": 0, "rental_uris": {"android": "https://dc.lft.to/lastmile_qr_scan", "ios": "https://dc.lft.to/lastmile_qr_scan"}, "name": "870b74ca060a222afaa9e16573675f25", "type": "electric_scooter"}, {"fusion_lat": 0.0, "bike_id": "f2d70c6e52aecd54e4645a38fd145338", "fusion_lon": 0.0, "lon": -77.03878583333334, "lat": 38.92962033333333, "is_reserved": 0, "is_disabled": 0, "rental_uris": {"android": "https://dc.lft.to/lastmile_qr_scan", "ios": "https://dc.lft.to/lastmile_qr_scan"}, "name": "f2d70c6e52aecd54e4645a38fd145338", "type": "electric_scooter"}, {"fusion_lat": 0.0, "bike_id": "677c98928e448935e52686130e3dd767", "fusion_lon": 0.0, "lon": -77.00049366666667, "lat": 38.96772983333334, "is_reserved": 0, "is_disabled": 0, "rental_uris": {"android": "https://dc.lft.to/lastmile_qr_scan", "ios": "https://dc.lft.to/lastmile_qr_scan"}, "name": "677c98928e448935e52686130e3dd767", "type": "electric_bike"}, {"fusion_lat": 0.0, "bike_id": "488c27fa7317c88b362db1f252ccee90", "fusion_lon": 0.0, "lon": -77.04330083333333, "lat": 38.9069565, "is_reserved": 0, "is_disabled": 0, "rental_uris": {"android": "https://dc.lft.to/lastmile_qr_scan", "ios": "https://dc.lft.to/lastmile_qr_scan"}, "name": "488c27fa7317c88b362db1f252ccee90", "type": "electric_scooter"}, {"fusion_lat": 0.0, "bike_id": "aec6a2b50c17dad7a521d394f9e72f77", "fusion_lon": 0.0, "lon": -77.03192466666667, "lat": 38.917429166666665, "is_reserved": 0, "is_disabled": 0, "rental_uris": {"android": "https://dc.lft.to/lastmile_qr_scan", "ios": "https://dc.lft.to/lastmile_qr_scan"}, "name": "aec6a2b50c17dad7a521d394f9e72f77", "type": "electric_scooter"}, {"fusion_lat": 0.0, "bike_id": "68cbedf6576d88313c9a21779734d7c0", "fusion_lon": 0.0, "lon": -77.05688816666667, "lat": 38.864934833333336, "is_reserved": 0, "is_disabled": 0, "rental_uris": {"android": "https://dc.lft.to/lastmile_qr_scan", "ios": "https://dc.lft.to/lastmile_qr_scan"}, "name": "68cbedf6576d88313c9a21779734d7c0", "type": "electric_bike"}, {"fusion_lat": 0.0, "bike_id": "fd5f95be0b74a49a4d7607044570fa33", "fusion_lon": 0.0, "lon": -77.03453183333333, "lat": 38.910271333333334, "is_reserved": 0, "is_disabled": 0, "rental_uris": {"android": "https://dc.lft.to/lastmile_qr_scan", "ios": "https://dc.lft.to/lastmile_qr_scan"}, "name": "fd5f95be0b74a49a4d7607044570fa33", "type": "electric_scooter"}, {"fusion_lat": 0.0, "bike_id": "a6f9d93f5b86666580f04030d2cc9a81", "fusion_lon": 0.0, "lon": -77.02502866666667, "lat": 38.9310315, "is_reserved": 0, "is_disabled": 0, "rental_uris": {"android": "https://dc.lft.to/lastmile_qr_scan", "ios": "https://dc.lft.to/lastmile_qr_scan"}, "name": "a6f9d93f5b86666580f04030d2cc9a81", "type": "electric_scooter"}, {"fusion_lat": 0.0, "bike_id": "9be96a69745c2976bb4d93fcab07aec9", "fusion_lon": 0.0, "lon": -77.04242533333333, "lat": 38.89988966666667, "is_reserved": 0, "is_disabled": 0, "rental_uris": {"android": "https://dc.lft.to/lastmile_qr_scan", "ios": "https://dc.lft.to/lastmile_qr_scan"}, "name": "9be96a69745c2976bb4d93fcab07aec9", "type": "electric_scooter"}, {"fusion_lat": 0.0, "bike_id": "83d187b960bd833dcd13cc10a919c679", "fusion_lon": 0.0, "lon": -77.03391366666666, "lat": 38.9026575, "is_reserved": 0, "is_disabled": 0, "rental_uris": {"android": "https://dc.lft.to/lastmile_qr_scan", "ios": "https://dc.lft.to/lastmile_qr_scan"}, "name": "83d187b960bd833dcd13cc10a919c679", "type": "electric_scooter"}, {"fusion_lat": 0.0, "bike_id": "4e09b053939b3daffe681d87335597d8", "fusion_lon": 0.0, "lon": -77.04907016666667, "lat": 38.88844316666667, "is_reserved": 0, "is_disabled": 0, "rental_uris": {"android": "https://dc.lft.to/lastmile_qr_scan", "ios": "https://dc.lft.to/lastmile_qr_scan"}, "name": "4e09b053939b3daffe681d87335597d8", "type": "electric_scooter"},