{"data": {"bikes": [{"is_reserved": 0, "type": "electric_bike", "bike_id": "51bc36a21cbe20bda9502a738512da09", "lat": 38.80388816666667, "lon": -76.9881535, "rental_uris": {"android": "https://dc.lft.to/lastmile_qr_scan", "ios": "https://dc.lft.to/lastmile_qr_scan"}, "is_disabled": 0, "fusion_lat": 0.0, "name": "51bc36a21cbe20bda9502a738512da09", "fusion_lon": 0.0}, {"is_reserved": 0, "type": "electric_scooter", "bike_id": "bf3ba1ca4a17fdc4741dadba4253560d", "lat": 38.891862833333334, "lon": -77.015922, "rental_uris": {"android": "https://dc.lft.to/lastmile_qr_scan", "ios": "https://dc.lft.to/lastmile_qr_scan"}, "is_disabled": 0, "fusion_lat": 0.0, "name": "bf3ba1ca4a17fdc4741dadba4253560d", "fusion_lon": 0.0}, {"is_reserved": 0, "type": "electric_scooter", "bike_id": "49e665823c715acc1ce3a7c95cccfabe", "lat": 38.93206133333333, "lon": -77.03856583333334, "rental_uris": {"android": "https://dc.lft.to/lastmile_qr_scan", "ios": "https://dc.lft.to/lastmile_qr_scan"}, "is_disabled": 0, "fusion_lat": 0.0, "name": "49e665823c715acc1ce3a7c95cccfabe", "fusion_lon": 0.0}, {"is_reserved": 0, "type": "electric_scooter", "bike_id": "e5d304aa1564bcd7d4b2c3a0e2dbd42e", "lat": 38.84817233333333, "lon": -76.97819966666667, "rental_uris": {"android": "https://dc.lft.to/lastmile_qr_scan", "ios": "https://dc.lft.to/lastmile_qr_scan"}, "is_disabled": 0, "fusion_lat": 0.0, "name": "e5d304aa1564bcd7d4b2c3a0e2dbd42e", "fusion_lon": 0.0}, {"is_reserved": 0, "type": "electric_scooter", "bike_id": "08d7402b03571c3eb853cd3bfcddd40e", "lat": 38.927665166666664, "lon": -77.02880466666667, "rental_uris": {"android": "https://dc.lft.to/lastmile_qr_scan", "ios": "https://dc.lft.to/lastmile_qr_scan"}, "is_disabled": 0, "fusion_lat": 0.0, "name": "08d7402b03571c3eb853cd3bfcddd40e", "fusion_lon": 0.0}, {"is_reserved": 0, "type": "electric_scooter", "bike_id": "c642f776c6d498a069b41daf48c7267e", "lat": 38.9263295, "lon": -77.03783866666667, "rental_uris": {"android": "https://dc.lft.to/lastmile_qr_scan", "ios": "https://dc.lft.to/lastmile_qr_scan"}, "is_disabled": 0, "fusion_lat": 0.0, "name": "c642f776c6d498a069b41daf48c7267e", "fusion_lon": 0.0}, {"is_reserved": 0, "type": "electric_scooter", "bike_id": "9bbf8fb20f95d75149dee2e2e4b25797", "lat": 38.903719, "lon": -77.04180283333334, "rental_uris": {"android": "https://dc.lft.to/lastmile_qr_scan", "ios": "https://dc.lft.to/lastmile_qr_scan"}, "is_disabled": 0, "fusion_lat": 0.0, "name": "9bbf8fb20f95d75149dee2e2e4b25797", "fusion_lon": 0.0}, {"is_reserved": 0, "type": "electric_scooter", "bike_id": "a489a54026190649b66a0581cd95fc58", "lat": 38.937075, "lon": -77.02396716666667, "rental_uris": {"android": "https://dc.lft.to/lastmile_qr_scan", "ios": "https://dc.lft.to/lastmile_qr_scan"}, "is_disabled": 0, "fusion_lat": 0.0, "name": "a489a54026190649b66a0581cd95fc58", "fusion_lon": 0.0}, {"is_reserved": 0, "type": "electric_scooter", "bike_id": "a7e0c51248e851f2f62bdecc1ef4a556", "lat": 38.9004435, "lon": -77.00194266666666, "rental_uris": {"android": "https://dc.lft.to/lastmile_qr_scan", "ios": "https://dc.lft.to/lastmile_qr_scan"}, "is_disabled": 0, "fusion_lat": 0.0, "name": "a7e0c51248e851f2f62bdecc1ef4a556", "fusion_lon": 0.0}, {"is_reserved": 0, "type": "electric_scooter", "bike_id": "602b3c0b5eb3dbcf7073857ab65e414a", "lat": 38.912122833333335, "lon": -77.02006483333334, "rental_uris": {"android": "https://dc.lft.to/lastmile_qr_scan", "ios": "https://dc.lft.to/lastmile_qr_scan"}, "is_disabled": 0, "fusion_lat": 0.0, "name": "602b3c0b5eb3dbcf7073857ab65e414a", "fusion_lon": 0.0}, {"is_reserved": 0, "type": "electric_scooter", "bike_id": "b349d4628a4255f5a065b3575d8507b0", "lat": 38.928542, "lon": -77.02736233333333, "rental_uris": {"android": "https://dc.lft.to/lastmile_qr_scan", "ios": "https://dc.lft.to/lastmile_qr_scan"}, "is_disabled": 0, "fusion_lat": 0.0, "name": "b349d4628a4255f5a065b3575d8507b0", "fusion_lon": 0.0}, {"is_reserved": 0, "type": "electric_bike", "bike_id": "b564866b0ecf637437619e90097143a7", "lat": 38.8025195, "lon": -77.11441016666667, "rental_uris": {"android": "https://dc.lft.to/lastmile_qr_scan", "ios": "https://dc.lft.to/lastmile_qr_scan"}, "is_disabled": 0, "fusion_lat": 0.0, "name": "b564866b0ecf637437619e90097143a7", "fusion_lon": 0.0}, {"is_reserved": 0, "type": "electric_scooter", "bike_id": "14bad7a24cdad77ff27986e502a3913c", "lat": 38.9170775, "lon": -77.0314025, "rental_uris": {"android": "https://dc.lft.to/lastmile_qr_scan", "ios": "https://dc.lft.to/lastmile_qr_scan"}, "is_disabled": 0, "fusion_lat": 0.0, "name": "14bad7a24cdad77ff27986e502a3913c", "fusion_lon": 0.0}, {"is_reserved": 0, "type": "electric_scooter", "bike_id": "d1528dfde7f5f1bd008f72d1f47b0279", "lat": 38.90965116666667, "lon": -77.04572116666667, "rental_uris": {"android": "https://dc.lft.to/lastmile_qr_scan", "ios": "https://dc.lft.to/lastmile_qr_scan"}, "is_disabled": 0, "fusion_lat": 0.0, "name": "d1528dfde7f5f1bd008f72d1f47b0279", "fusion_lon": 0.0}, {"is_reserved": 0, "type": "electric_scooter", "bike_id": "21081bcebb349fc80437bbacd5209187", "lat": 38.9180735, "lon": -77.02487016666667, "rental_uris": {"android": "https://dc.lft.to/lastmile_qr_scan", "ios": "https://dc.lft.to/lastmile_qr_scan"}, "is_disabled": 0, "fusion_lat": 0.0, "name": "21081bcebb349fc80437bbacd5209187", "fusion_lon": 0.0}, {"is_reserved": 0, "type": "electric_scooter", "bike_id": "a48d762da95255ca41fdd8b720298787", "lat": 38.921576, "lon": -77.03487033333333, "rental_uris": {"android": "https://dc.lft.to/lastmile_qr_scan", "ios": "https://dc.lft.to/lastmile_qr_scan"}, "is_disabled": 0, "fusion_lat": 0.0, "name": "a48d762da95255ca41fdd8b720298787", "fusion_lon": 0.0}, {"is_reserved": 0, "type": "electric_scooter", "bike_id": "61d21f18dfba88ddbd2fcc39bb1bb42e", "lat": 38.927307166666665, "lon": -77.0355275, "rental_uris": {"android": "https://dc.lft.to/lastmile_qr_scan", "ios": "https://dc.lft.to/lastmile_qr_scan"}, "is_disabled": 0, "fusion_lat": 0.0, "name": "61d21f18dfba88ddbd2fcc39bb1bb42e", "fusion_lon": 0.0}, {"is_reserved": 0, "type": "electric_scooter", "bike_id": "cd667a2125409444985f1ef8df1ecfa9", "lat": 38.90063383333333, "lon": -76.99839316666667, "rental_uris": {"android": "https://dc.lft.to/lastmile_qr_scan", "ios": "https://dc.lft.to/lastmile_qr_scan"}, "is_disabled": 0, "fusion_lat": 0.0, "name": "cd667a2125409444985f1ef8df1ecfa9", "fusion_lon": 0.0}, {"is_reserved": 0, "type": "electric_scooter", "bike_id": "323630bc7ecfcd2f8cbbdf9c5febfb56", "lat": 38.905707166666666, "lon": -77.00428933333333, "rental_uris": {"android": "https://dc.lft.to/lastmile_qr_scan", "ios": "https://dc.lft.to/lastmile_qr_scan"}, "is_disabled": 0, "fusion_lat": 0.0, "name": "323630bc7ecfcd2f8cbbdf9c5febfb56", "fusion_lon": 0.0}, {"is_reserved": 0, "type": "electric_scooter", "bike_id": "ad0d16901283185665a22afc271f28cf", "lat": 38.93529516666667, "lon": -77.01955283333334, "rental_uris": {"android": "https://dc.lft.to/lastmile_qr_scan", "ios": "https://dc.lft.to/lastmile_qr_scan"}, "is_disabled": 0, "fusion_lat": 0.0, "name": "ad0d16901283185665a22afc271f28cf", "fusion_lon": 0.0}, {"is_reserved": 0, "type": "electric_scooter", "bike_id": "f36e7d64f590419e6b3a6df9e9fb8085", "lat": 38.906933, "lon": -77.06256283333333, "rental_uris": {"android": "https://dc.lft.to/lastmile_qr_scan", "ios": "https://dc.lft.to/lastmile_qr_scan"}, "is_disabled": 0, "fusion_lat": 0.0, "name": "f36e7d64f590419e6b3a6df9e9fb8085", "fusion_lon": 0.0}, {"is_reserved": 0, "type": "electric_scooter", "bike_id": "d1ca1ec9763a2cb931c90eae76e6dbca", "lat": 38.8937955, "lon": -77.02826383333333, "rental_uris": {"android": "https://dc.lft.to/lastmile_qr_scan", "ios": "https://dc.lft.to/lastmile_qr_scan"}, "is_disabled": 0, "fusion_lat": 0.0, "name": "d1ca1ec9763a2cb931c90eae76e6dbca", "fusion_lon": 0.0}, {"is_reserved": 0, "type": "electric_scooter", "bike_id": "275312e2df932f09ece8952be820eac5", "lat": 38.91106933333333, "lon": -77.0364195, "rental_uris": {"android": "https://dc.lft.to/lastmile_qr_scan", "ios": "https://dc.lft.to/lastmile_qr_scan"}, "is_disabled": 0, "fusion_lat": 0.0, "name": "275312e2df932f09ece8952be820eac5", "fusion_lon": 0.0}, {"is_reserved": 0, "type": "electric_scooter", "bike_id": "8682dd1760c4ff95b7ec772656567355", "lat": 38.90603183333333, "lon": -77.0412285, "rental_uris": {"android": "https://dc.lft.to/lastmile_qr_scan", "ios": "https://dc.lft.to/lastmile_qr_scan"}, "is_disabled": 0, "fusion_lat": 0.0, "name": "8682dd1760c4ff95b7ec772656567355", "fusion_lon": 0.0}, {"is_reserved": 0, "type": "electric_scooter", "bike_id": "22da1be57b242b21911fdd90d171e810", "lat": 38.91124883333333, "lon": -77.03837866666667, "rental_uris": {"android": "https://dc.lft.to/lastmile_qr_scan", "ios": "https://dc.lft.to/lastmile_qr_scan"}, "is_disabled": 0, "fusion_lat": 0.0, "name": "22da1be57b242b21911fdd90d171e810", "fusion_lon": 0.0}, {"is_reserved": 0, "type": "electric_bike", "bike_id": "8fb92f4830294bc955c39f544710139c", "lat": 38.8086785, "lon": -77.11254333333333, "rental_uris": {"android": "https://dc.lft.to/lastmile_qr_scan", "ios": "https://dc.lft.to/lastmile_qr_scan"}, "is_disabled": 0, "fusion_lat": 0.0, "name": "8fb92f4830294bc955c39f544710139c", "fusion_lon": 0.0}, {"is_reserved": 0, "type": "electric_scooter", "bike_id": "acca233e7331ed6a40f8d5e57b4b57ed", "lat": 38.872764833333335, "lon": -77.01704083333334, "rental_uris": {"android": "https://dc.lft.to/lastmile_qr_scan", "ios": "https://dc.lft.to/lastmile_qr_scan"}, "is_disabled": 0, "fusion_lat": 0.0, "name": "acca233e7331ed6a40f8d5e57b4b57ed", "fusion_lon": 0.0}, {"is_reserved": 0, "type": "electric_scooter", "bike_id": "235788d3110201c75c0521f1d801f987", "lat": 38.905232833333336, "lon": -77.0566555, "rental_uris": {"android": "https://dc.lft.to/lastmile_qr_scan", "ios": "https://dc.lft.to/lastmile_qr_scan"}, "is_disabled": 0, "fusion_lat": 0.0, "name": "235788d3110201c75c0521f1d801f987", "fusion_lon": 0.0}, {"is_reserved": 0, "type": "electric_bike", "bike_id": "02e2441909a8949e19e4a3dda01e9bc5", "lat": 38.949683666666665, "lon": -76.9609745, "rental_uris": {"android": "https://dc.lft.to/lastmile_qr_scan", "ios": "https://dc.lft.to/lastmile_qr_scan"}, "is_disabled": 0, "fusion_lat": 0.0, "name": "02e2441909a8949e19e4a3dda01e9bc5", "fusion_lon": 0.0}, {"is_reserved": 0, "type": "electric_scooter", "bike_id": "6e830e561daaa19e3284e0433f494ddc", "lat": 38.911179, "lon": -77.04383783333333, "rental_uris": {"android": "https://dc.lft.to/lastmile_qr_scan", "ios": "https://dc.lft.to/lastmile_qr_scan"}, "is_disabled": 0, "fusion_lat": 0.0, "name": "6e830e561daaa19e3284e0433f494ddc", "fusion_lon": 0.0}, {"is_reserved": 0, "type": "electric_scooter", "bike_id": "d6167add5ebeb5b3d120b480b6a09d36", "lat": 38.90089183333333, "lon": -77.05738316666667, "rental_uris": {"android": "https://dc.lft.to/lastmile_qr_scan", "ios": "https://dc.lft.to/lastmile_qr_scan"}, "is_disabled": 0, "fusion_lat": 0.0, "name": "d6167add5ebeb5b3d120b480b6a09d36", "fusion_lon": 0.0}, {"is_reserved": 0, "type": "electric_scooter", "bike_id": "b615779b622a8bf92a9a9cbb99cdae5e", "lat": 38.871578666666665, "lon": -77.0131215, "rental_uris": {"android": "https://dc.lft.to/lastmile_qr_scan", "ios": "https://dc.lft.to/lastmile_qr_scan"}, "is_disabled": 0, "fusion_lat": 0.0, "name": "b615779b622a8bf92a9a9cbb99cdae5e", "fusion_lon": 0.0}, {"is_reserved": 0, "type": "electric_scooter", "bike_id": "76efeac36fba4be0a14068d3e7e2d197", "lat": 38.90075183333333, "lon": -77.04930933333333, "rental_uris": {"android": "https://dc.lft.to/lastmile_qr_scan", "ios": "https://dc.lft.to/lastmile_qr_scan"}, "is_disabled": 0, "fusion_lat": 0.0, "name": "76efeac36fba4be0a14068d3e7e2d197", "fusion_lon": 0.0}, {"is_reserved": 0, "type": "electric_scooter", "bike_id": "14b821f62767df29050e21b928eba6df", "lat": 38.901060333333334, "lon": -77.01609516666667, "rental_uris": {"android": "https://dc.lft.to/lastmile_qr_scan", "ios": "https://dc.lft.to/lastmile_qr_scan"}, "is_disabled": 0, "fusion_lat": 0.0, "name": "14b821f62767df29050e21b928eba6df", "fusion_lon": 0.0}, {"is_reserved": 0, "type": "electric_scooter", "bike_id": "20f9862c9ada6661d06480dde8288096", "lat": 38.920111166666665, "lon": -77.07144366666667, "rental_uris": {"android": "https://dc.lft.to/lastmile_qr_scan", "ios": "https://dc.lft.to/lastmile_qr_scan"}, "is_disabled": 0, "fusion_lat": 0.0, "name": "20f9862c9ada6661d06480dde8288096", "fusion_lon": 0.0}, {"is_reserved": 0, "type": "electric_scooter", "bike_id": "f3f78c909115dad58685452f05f25f7d", "lat": 38.880235666666664, "lon": -77.019864, "rental_uris": {"android": "https://dc.lft.to/lastmile_qr_scan", "ios": "https://dc.lft.to/lastmile_qr_scan"}, "is_disabled": 0, "fusion_lat": 0.0, "name": "f3f78c909115dad58685452f05f25f7d", "fusion_lon": 0.0}, {"is_reserved": 0, "type": "electric_scooter", "bike_id": "79cea0a4a854709781b9189529ba0688", "lat": 38.90390416666666, "lon": -77.03139083333333, "rental_uris": {"android": "https://dc.lft.to/lastmile_qr_scan", "ios": "https://dc.lft.to/lastmile_qr_scan"}, "is_disabled": 0, "fusion_lat": 0.0, "name": "79cea0a4a854709781b9189529ba0688", "fusion_lon": 0.0}, {"is_reserved": 0, "type": "electric_scooter", "bike_id": "6f0dd331fd109805f2e46a9d7f3753b9", "lat": 38.915824, "lon": -77.01996883333334, "rental_uris": {"android": "https://dc.lft.to/lastmile_qr_scan", "ios": "https://dc.lft.to/lastmile_qr_scan"}, "is_disabled": 0, "fusion_lat": 0.0, "name": "6f0dd331fd109805f2e46a9d7f3753b9", "fusion_lon": 0.0}, {"is_reserved": 0, "type": "electric_scooter", "bike_id": "89bbd82d28bf5cc1e91a2e46fa4ff2e6", "lat": 38.92019, "lon": -77.0312405, "rental_uris": {"android": "https://dc.lft.to/lastmile_qr_scan", "ios": "https://dc.lft.to/lastmile_qr_scan"}, "is_disabled": 0, "fusion_lat": 0.0, "name": "89bbd82d28bf5cc1e91a2e46fa4ff2e6", "fusion_lon": 0.0}, {"is_reserved": 0, "type": "electric_scooter", "bike_id": "91325399b850dcba479779fa7f759fb8", "lat": 38.913987, "lon": -77.02000883333334, "rental_uris": {"android": "https://dc.lft.to/lastmile_qr_scan", "ios": "https://dc.lft.to/lastmile_qr_scan"}, "is_disabled": 0, "fusion_lat": 0.0, "name": "91325399b850dcba479779fa7f759fb8", "fusion_lon": 0.0}, {"is_reserved": 0, "type": "electric_scooter", "bike_id": "821aa38d61abbe2867559908901d711d", "lat": 38.90136233333333, "lon": -77.04994533333333, "rental_uris": {"android": "https://dc.lft.to/lastmile_qr_scan", "ios": "https://dc.lft.to/lastmile_qr_scan"}, "is_disabled": 0, "fusion_lat": 0.0, "name": "821aa38d61abbe2867559908901d711d", "fusion_lon": 0.0}, {"is_reserved": 0, "type": "electric_scooter", "bike_id": "832155c0541be7e4060576fc965516fc", "lat": 38.918492666666666, "lon": -77.0228115, "rental_uris": {"android": "https://dc.lft.to/lastmile_qr_scan", "ios": "https://dc.lft.to/lastmile_qr_scan"}, "is_disabled": 0, "fusion_lat": 0.0, "name": "832155c0541be7e4060576fc965516fc", "fusion_lon": 0.0}, {"is_reserved": 0, "type": "electric_scooter", "bike_id": "1108771b271f997fea529a0ac15194d5", "lat": 38.8840995, "lon": -77.03050583333334, "rental_uris": {"android": "https://dc.lft.to/lastmile_qr_scan", "ios": "https://dc.lft.to/lastmile_qr_scan"}, "is_disabled": 0, "fusion_lat": 0.0, "name": "1108771b271f997fea529a0ac15194d5", "fusion_lon": 0.0}, {"is_reserved": 0, "type": "electric_scooter", "bike_id": "8a873afec15bea6a332b0878d7eef512", "lat": 38.918258333333334, "lon": -77.02589833333333, "rental_uris": {"android": "https://dc.lft.to/lastmile_qr_scan", "ios": "https://dc.lft.to/lastmile_qr_scan"}, "is_disabled": 0, "fusion_lat": 0.0, "name": "8a873afec15bea6a332b0878d7eef512", "fusion_lon": 0.0}, {"is_reserved": 0, "type": "electric_scooter", "bike_id": "0119948a7683800094854455a9ac0438", "lat": 38.910541333333335, "lon": -77.0151635, "rental_uris": {"android": "https://dc.lft.to/lastmile_qr_scan", "ios": "https://dc.lft.to/lastmile_qr_scan"}, "is_disabled": 0, "fusion_lat": 0.0, "name": "0119948a7683800094854455a9ac0438", "fusion_lon": 0.0}, {"is_reserved": 0, "type": "electric_bike", "bike_id": "40c870957eb3563f59c5dbc56bc65bda", "lat": 38.80259233333334, "lon": -77.1217355, "rental_uris": {"android": "https://dc.lft.to/lastmile_qr_scan", "ios": "https://dc.lft.to/lastmile_qr_scan"}, "is_disabled": 0, "fusion_lat": 0.0, "name": "40c870957eb3563f59c5dbc56bc65bda", "fusion_lon": 0.0}, {"is_reserved": 0, "type": "electric_scooter", "bike_id": "b56947ff196ec4ddf1252d03b4876dbc", "lat": 38.949813166666665, "lon": -77.0244255, "rental_uris": {"android": "https://dc.lft.to/lastmile_qr_scan", "ios": "https://dc.lft.to/lastmile_qr_scan"}, "is_disabled": 0, "fusion_lat": 0.0, "name": "b56947ff196ec4ddf1252d03b4876dbc", "fusion_lon": 0.0}, {"is_reserved": 0, "type": "electric_scooter", "bike_id": "7a2d164cc114ed11a8e954225819b8dd", "lat": 38.926140833333335, "lon": -77.05702, "rental_uris": {"android": "https://dc.lft.to/lastmile_qr_scan", "ios": "https://dc.lft.to/lastmile_qr_scan"}, "is_disabled": 0, "fusion_lat": 0.0, "name": "7a2d164cc114ed11a8e954225819b8dd", "fusion_lon": 0.0}, {"is_reserved": 0, "type": "electric_bike", "bike_id": "6c11698bc0f590772aeee374c6dd1d78", "lat": 38.95156433333333, "lon": -76.93331383333333, "rental_uris": {"android": "https://dc.lft.to/lastmile_qr_scan", "ios": "https://dc.lft.to/lastmile_qr_scan"}, "is_disabled": 0, "fusion_lat": 0.0, "name": "6c11698bc0f590772aeee374c6dd1d78", "fusion_lon": 0.0}, {"is_reserved": 0, "type": "electric_scooter", "bike_id": "8cf868335fcf45cfb7d5ffdacf95b6a2", "lat": 38.91131933333333, "lon": -77.044152, "rental_uris": {"android": "https://dc.lft.to/lastmile_qr_scan", "ios": "https://dc.lft.to/lastmile_qr_scan"}, "is_disabled": 0, "fusion_lat": 0.0, "name": "8cf868335fcf45cfb7d5ffdacf95b6a2", "fusion_lon": 0.0}, {"is_reserved": 0, "type": "electric_scooter", "bike_id": "9ce52c3ee5ff5d6567aa39291c2f1833", "lat": 38.89922083333333, "lon": -76.978375, "rental_uris": {"android": "https://dc.lft.to/lastmile_qr_scan", "ios": "https://dc.lft.to/lastmile_qr_scan"}, "is_disabled": 0, "fusion_lat": 0.0, "name": "9ce52c3ee5ff5d6567aa39291c2f1833", "fusion_lon": 0.0}, {"is_reserved": 0, "type": "electric_scooter", "bike_id": "59b7e66fb8220144137fd3d9898d3d96", "lat": 38.89223333333333, "lon": -77.02221, "rental_uris": {"android": "https://dc.lft.to/lastmile_qr_scan", "ios": "https://dc.lft.to/lastmile_qr_scan"}, "is_disabled": 0, "fusion_lat": 0.0, "name": "59b7e66fb8220144137fd3d9898d3d96", "fusion_lon": 0.0}, {"is_reserved": 0, "type": "electric_scooter", "bike_id": "2020b7d703b1d885897d47ae2dbe2fb4", "lat": 38.91122516666667, "lon": -77.0449875, "rental_uris": {"android": "https://dc.lft.to/lastmile_qr_scan", "ios": "https://dc.lft.to/lastmile_qr_scan"}, "is_disabled": 0, "fusion_lat": 0.0, "name": "2020b7d703b1d885897d47ae2dbe2fb4", "fusion_lon": 0.0}, {"is_reserved": 0, "type": "electric_scooter", "bike_id": "71c0db47b9fba9fc9124aacc65e20174", "lat": 38.92581766666667, "lon": -76.99497466666666, "rental_uris": {"android": "https://dc.lft.to/lastmile_qr_scan", "ios": "https://dc.lft.to/lastmile_qr_scan"}, "is_disabled": 0, "fusion_lat": 0.0, "name": "71c0db47b9fba9fc9124aacc65e20174", "fusion_lon": 0.0}, {"is_reserved": 0, "type": "electric_scooter", "bike_id": "7b87181d003022243035ac0bd0dcaf29", "lat": 38.896137333333336, "lon": -77.04682516666666, "rental_uris": {"android": "https://dc.lft.to/lastmile_qr_scan", "ios": "https://dc.lft.to/lastmile_qr_scan"}, "is_disabled": 0, "fusion_lat": 0.0, "name": "7b87181d003022243035ac0bd0dcaf29", "fusion_lon": 0.0}, {"is_reserved": 0, "type": "electric_scooter", "bike_id": "6ffb83b612d96b030d7fd95fff05cc2b", "lat": 38.947001666666665, "lon": -77.07452666666667, "rental_uris": {"android": "https://dc.lft.to/lastmile_qr_scan", "ios": "https://dc.lft.to/lastmile_qr_scan"}, "is_disabled": 0, "fusion_lat": 0.0, "name": "6ffb83b612d96b030d7fd95fff05cc2b", "fusion_lon": 0.0}, {"is_reserved": 0, "type": "electric_scooter", "bike_id": "8f3c3a822b0dc067730cee72c55222ba", "lat": 38.90554916666667, "lon": -77.04153733333334, "rental_uris": {"android": "https://dc.lft.to/lastmile_qr_scan", "ios": "https://dc.lft.to/lastmile_qr_scan"}, "is_disabled": 0, "fusion_lat": 0.0, "name": "8f3c3a822b0dc067730cee72c55222ba", "fusion_lon": 0.0}, {"is_reserved": 0, "type": "electric_scooter", "bike_id": "29b4744725fbb380ca7e137dad179621", "lat": 38.967975333333335, "lon": -77.024269, "rental_uris": {"android": "https://dc.lft.to/lastmile_qr_scan", "ios": "https://dc.lft.to/lastmile_qr_scan"}, "is_disabled": 0, "fusion_lat": 0.0, "name": "29b4744725fbb380ca7e137dad179621", "fusion_lon": 0.0}, {"is_reserved": 0, "type": "electric_scooter", "bike_id": "d57ef31014a4ba904f991601b92e9e34", "lat": 38.9278945, "lon": -77.027818, "rental_uris": {"android": "https://dc.lft.to/lastmile_qr_scan", "ios": "https://dc.lft.to/lastmile_qr_scan"}, "is_disabled": 0, "fusion_lat": 0.0, "name": "d57ef31014a4ba904f991601b92e9e34", "fusion_lon": 0.0}, {"is_reserved": 0, "type": "electric_scooter", "bike_id": "e64b38fbdc31a816cf615b9b79788de9", "lat": 38.924463833333334, "lon": -77.0201815, "rental_uris": {"android": "https://dc.lft.to/lastmile_qr_scan", "ios": "https://dc.lft.to/lastmile_qr_scan"}, "is_disabled": 0, "fusion_lat": 0.0, "name": "e64b38fbdc31a816cf615b9b79788de9", "fusion_lon": 0.0}, {"is_reserved": 0, "type": "electric_scooter", "bike_id": "c1d33defa4bcd436064ddb68e11714d9", "lat": 38.934151166666666, "lon": -77.032654, "rental_uris": {"android": "https://dc.lft.to/lastmile_qr_scan", "ios": "https://dc.lft.to/lastmile_qr_scan"}, "is_disabled": 0, "fusion_lat": 0.0, "name": "c1d33defa4bcd436064ddb68e11714d9", "fusion_lon": 0.0}, {"is_reserved": 0, "type": "electric_scooter", "bike_id": "c876ccae0866ffc34f1ea316daa4eab6", "lat": 38.90341866666667, "lon": -77.02568666666667, "rental_uris": {"android": "https://dc.lft.to/lastmile_qr_scan", "ios": "https://dc.lft.to/lastmile_qr_scan"}, "is_disabled": 0, "fusion_lat": 0.0, "name": "c876ccae0866ffc34f1ea316daa4eab6", "fusion_lon": 0.0}, {"is_reserved": 0, "type": "electric_scooter", "bike_id": "207ab97e9c5ce4da23d7ea11aab543ba", "lat": 38.917201166666665, "lon": -77.0727905, "rental_uris": {"android": "https://dc.lft.to/lastmile_qr_scan", "ios": "https://dc.lft.to/lastmile_qr_scan"}, "is_disabled": 0, "fusion_lat": 0.0, "name": "207ab97e9c5ce4da23d7ea11aab543ba", "fusion_lon": 0.0}, {"is_reserved": 0, "type": "electric_scooter", "bike_id": "bf9e16b211bf99d4013c084f2f146199", "lat": 38.89338933333333, "lon": -77.022182, "rental_uris": {"android": "https://dc.lft.to/lastmile_qr_scan", "ios": "https://dc.lft.to/lastmile_qr_scan"}, "is_disabled": 0, "fusion_lat": 0.0, "name": "bf9e16b211bf99d4013c084f2f146199", "fusion_lon": 0.0}, {"is_reserved": 0, "type": "electric_scooter", "bike_id": "cab6e6d2bab145e44f21b0faeff06107", "lat": 38.93334866666667, "lon": -77.02912433333333, "rental_uris": {"android": "https://dc.lft.to/lastmile_qr_scan", "ios": "https://dc.lft.to/lastmile_qr_scan"}, "is_disabled": 0, "fusion_lat": 0.0, "name": "cab6e6d2bab145e44f21b0faeff06107", "fusion_lon": 0.0}, {"is_reserved": 0, "type": "electric_scooter", "bike_id": "56a3879c9c202b997c02d621af2b7c5c", "lat": 38.91640816666666, "lon": -77.0427075, "rental_uris": {"android": "https://dc.lft.to/lastmile_qr_scan", "ios": "https://dc.lft.to/lastmile_qr_scan"}, "is_disabled": 0, "fusion_lat": 0.0, "name": "56a3879c9c202b997c02d621af2b7c5c", "fusion_lon": 0.0}, {"is_reserved": 0, "type": "electric_scooter", "bike_id": "fbd58a1e15ad8cffa30ef05cf219d320", "lat": 38.949797, "lon": -77.0244665, "rental_uris": {"android": "https://dc.lft.to/lastmile_qr_scan", "ios": "https://dc.lft.to/lastmile_qr_scan"}, "is_disabled": 0, "fusion_lat": 0.0, "name": "fbd58a1e15ad8cffa30ef05cf219d320", "fusion_lon": 0.0}, {"is_reserved": 0, "type": "electric_scooter", "bike_id": "cec3461a52023b3eb2063d2685f21bd2", "lat": 38.907414333333335, "lon": -77.02182766666667, "rental_uris": {"android": "https://dc.lft.to/lastmile_qr_scan", "ios": "https://dc.lft.to/lastmile_qr_scan"}, "is_disabled": 0, "fusion_lat": 0.0, "name": "cec3461a52023b3eb2063d2685f21bd2", "fusion_lon": 0.0}, {"is_reserved": 0, "type": "electric_scooter", "bike_id": "27de84145401a1e1076b74211a0210ad", "lat": 38.907878333333336, "lon": -77.00961716666667, "rental_uris": {"android": "https://dc.lft.to/lastmile_qr_scan", "ios": "https://dc.lft.to/lastmile_qr_scan"}, "is_disabled": 0, "fusion_lat": 0.0, "name": "27de84145401a1e1076b74211a0210ad", "fusion_lon": 0.0}, {"is_reserved": 0, "type": "electric_scooter", "bike_id": "97d5951129fa8aab359e3a9e2367fcec", "lat": 38.879973166666666, "lon": -77.00856433333334, "rental_uris": {"android": "https://dc.lft.to/lastmile_qr_scan", "ios": "https://dc.lft.to/lastmile_qr_scan"}, "is_disabled": 0, "fusion_lat": 0.0, "name": "97d5951129fa8aab359e3a9e2367fcec", "fusion_lon": 0.0}, {"is_reserved": 0, "type": "electric_bike", "bike_id": "beb7dbe8f0015083118e4c7ece7c1798", "lat": 38.9081315, "lon": -77.03194266666667, "rental_uris": {"android": "https://dc.lft.to/lastmile_qr_scan", "ios": "https://dc.lft.to/lastmile_qr_scan"}, "is_disabled": 0, "fusion_lat": 0.0, "name": "beb7dbe8f0015083118e4c7ece7c1798", "fusion_lon": 0.0}, {"is_reserved": 0, "type": "electric_scooter", "bike_id": "ce2417c6795608e4dc154b3e31b7ba92", "lat": 38.90815166666667, "lon": -77.04890133333333, "rental_uris": {"android": "https://dc.lft.to/lastmile_qr_scan", "ios": "https://dc.lft.to/lastmile_qr_scan"}, "is_disabled": 0, "fusion_lat": 0.0, "name": "ce2417c6795608e4dc154b3e31b7ba92", "fusion_lon": 0.0}, {"is_reserved": 0, "type": "electric_scooter", "bike_id": "b0e4d9aed899826484c1fccaa5d2b3e2", "lat": 38.910168, "lon": -77.022059, "rental_uris": {"android": "https://dc.lft.to/lastmile_qr_scan", "ios": "https://dc.lft.to/lastmile_qr_scan"}, "is_disabled": 0, "fusion_lat": 0.0, "name": "b0e4d9aed899826484c1fccaa5d2b3e2", "fusion_lon": 0.0}, {"is_reserved": 0, "type": "electric_bike", "bike_id": "3e3d4eaade832f1a61204472103cdd6c", "lat": 38.91543816666667, "lon": -77.00765283333334, "rental_uris": {"android": "https://dc.lft.to/lastmile_qr_scan", "ios": "https://dc.lft.to/lastmile_qr_scan"}, "is_disabled": 0, "fusion_lat": 0.0, "name": "3e3d4eaade832f1a61204472103cdd6c", "fusion_lon": 0.0}, {"is_reserved": 0, "type": "electric_scooter", "bike_id": "0f835a3f507b2e1d9022cc4a952a8a16", "lat": 38.875651833333336, "lon": -77.00600216666666, "rental_uris": {"android": "https://dc.lft.to/lastmile_qr_scan", "ios": "https://dc.lft.to/lastmile_qr_scan"}, "is_disabled": 0, "fusion_lat": 0.0, "name": "0f835a3f507b2e1d9022cc4a952a8a16", "fusion_lon": 0.0}, {"is_reserved": 0, "type": "electric_scooter", "bike_id": "3b6f164138890d8adbb84ca36cfbbf82", "lat": 38.917668666666664, "lon": -77.00451733333334, "rental_uris": {"android": "https://dc.lft.to/lastmile_qr_scan", "ios": "https://dc.lft.to/lastmile_qr_scan"}, "is_disabled": 0, "fusion_lat": 0.0, "name": "3b6f164138890d8adbb84ca36cfbbf82", "fusion_lon": 0.0}, {"is_reserved": 0, "type": "electric_scooter", "bike_id": "2daccf3174721c0734b542d36d89bb58", "lat": 38.926104, "lon": -77.073335, "rental_uris": {"android": "https://dc.lft.to/lastmile_qr_scan", "ios": "https://dc.lft.to/lastmile_qr_scan"}, "is_disabled": 0, "fusion_lat": 0.0, "name": "2daccf3174721c0734b542d36d89bb58", "fusion_lon": 0.0}, {"is_reserved": 0, "type": "electric_scooter", "bike_id": "8ca0ff7033e122e6f2f45662ce669a0e", "lat": 38.898096833333334, "lon": -76.994988, "rental_uris": {"android": "https://dc.lft.to/lastmile_qr_scan", "ios": "https://dc.lft.to/lastmile_qr_scan"}, "is_disabled": 0, "fusion_lat": 0.0, "name": "8ca0ff7033e122e6f2f45662ce669a0e", "fusion_lon": 0.0}, {"is_reserved": 0, "type": "electric_scooter", "bike_id": "b82d28adaa0195e5ede293fc2cedcf8d", "lat": 38.920290333333334, "lon": -77.01854416666667, "rental_uris": {"android": "https://dc.lft.to/lastmile_qr_scan", "ios": "https://dc.lft.to/lastmile_qr_scan"}, "is_disabled": 0, "fusion_lat": 0.0, "name": "b82d28adaa0195e5ede293fc2cedcf8d", "fusion_lon": 0.0}, {"is_reserved": 0, "type": "electric_scooter", "bike_id": "53cf90d467fde9ccec922b85c840592f", "lat": 38.90724083333333, "lon": -77.0225275, "rental_uris": {"android": "https://dc.lft.to/lastmile_qr_scan", "ios": "https://dc.lft.to/lastmile_qr_scan"}, "is_disabled": 0, "fusion_lat": 0.0, "name": "53cf90d467fde9ccec922b85c840592f", "fusion_lon": 0.0}, {"is_reserved": 0, "type": "electric_scooter", "bike_id": "3bc50133223b5cffdcc5f625c860927c", "lat": 38.9182235, "lon": -77.045141, "rental_uris": {"android": "https://dc.lft.to/lastmile_qr_scan", "ios": "https://dc.lft.to/lastmile_qr_scan"}, "is_disabled": 0, "fusion_lat": 0.0, "name": "3bc50133223b5cffdcc5f625c860927c", "fusion_lon": 0.0}, {"is_reserved": 0, "type": "electric_bike", "bike_id": "39e6602d628a88b74aa8afa767b73f78", "lat": 38.921176, "lon": -76.988823, "rental_uris": {"android": "https://dc.lft.to/lastmile_qr_scan", "ios": "https://dc.lft.to/lastmile_qr_scan"}, "is_disabled": 0, "fusion_lat": 0.0, "name": "39e6602d628a88b74aa8afa767b73f78", "fusion_lon": 0.0}, {"is_reserved": 0, "type": "electric_scooter", "bike_id": "e8525ed9b483fe22b0c9e79c51f2830f", "lat": 38.90783716666667, "lon": -77.003723, "rental_uris": {"android": "https://dc.lft.to/lastmile_qr_scan", "ios": "https://dc.lft.to/lastmile_qr_scan"}, "is_disabled": 0, "fusion_lat": 0.0, "name": "e8525ed9b483fe22b0c9e79c51f2830f", "fusion_lon": 0.0}, {"is_reserved": 0, "type": "electric_scooter", "bike_id": "6122eb0eea30f71673bdbd4f7429f937", "lat": 38.94182266666667, "lon": -77.0256515, "rental_uris": {"android": "https://dc.lft.to/lastmile_qr_scan", "ios": "https://dc.lft.to/lastmile_qr_scan"}, "is_disabled": 0, "fusion_lat": 0.0, "name": "6122eb0eea30f71673bdbd4f7429f937", "fusion_lon": 0.0}, {"is_reserved": 0, "type": "electric_scooter", "bike_id": "c27c333535e5b8dc37e14580f68e9d63", "lat": 38.92450733333333, "lon": -77.02029883333333, "rental_uris": {"android": "https://dc.lft.to/lastmile_qr_scan", "ios": "https://dc.lft.to/lastmile_qr_scan"}, "is_disabled": 0, "fusion_lat": 0.0, "name": "c27c333535e5b8dc37e14580f68e9d63", "fusion_lon": 0.0}, {"is_reserved": 0, "type": "electric_bike", "bike_id": "e8e69456d6ab8f0503724d25c442aa7f", "lat": 38.9584855, "lon": -76.98613233333333, "rental_uris": {"android": "https://dc.lft.to/lastmile_qr_scan", "ios": "https://dc.lft.to/lastmile_qr_scan"}, "is_disabled": 0, "fusion_lat": 0.0, "name": "e8e69456d6ab8f0503724d25c442aa7f", "fusion_lon": 0.0}, {"is_reserved": 0, "type": "electric_scooter", "bike_id": "f5608c834a184cdba46844c646c1146f", "lat": 38.898911, "lon": -76.99358833333334, "rental_uris": {"android": "https://dc.lft.to/lastmile_qr_scan", "ios": "https://dc.lft.to/lastmile_qr_scan"}, "is_disabled": 0, "fusion_lat": 0.0, "name": "f5608c834a184cdba46844c646c1146f", "fusion_lon": 0.0}, {"is_reserved": 0, "type": "electric_scooter", "bike_id": "b5318776fe4791b43dece54486e74afc", "lat": 38.93375533333333, "lon": -77.0346615, "rental_uris": {"android": "https://dc.lft.to/lastmile_qr_scan", "ios": "https://dc.lft.to/lastmile_qr_scan"}, "is_disabled": 0, "fusion_lat": 0.0, "name": "b5318776fe4791b43dece54486e74afc", "fusion_lon": 0.0}, {"is_reserved": 0, "type": "electric_scooter", "bike_id": "0faa761ed3708daaecd4a4f587c3a96e", "lat": 38.924187, "lon": -77.02010166666666, "rental_uris": {"android": "https://dc.lft.to/lastmile_qr_scan", "ios": "https://dc.lft.to/lastmile_qr_scan"}, "is_disabled": 0, "fusion_lat": 0.0, "name": "0faa761ed3708daaecd4a4f587c3a96e", "fusion_lon": 0.0}, {"is_reserved": 0, "type": "electric_bike", "bike_id": "04969f191cd2cec20b80ef6fdf5753e2", "lat": 38.877370166666665, "lon": -77.11849683333334, "rental_uris": {"android": "https://dc.lft.to/lastmile_qr_scan", "ios": "https://dc.lft.to/lastmile_qr_scan"}, "is_disabled": 0, "fusion_lat": 0.0, "name": "04969f191cd2cec20b80ef6fdf5753e2", "fusion_lon": 0.0}, {"is_reserved": 0, "type": "electric_bike", "bike_id": "8e4e4eca3c217891293530d275a2285b", "lat": 38.922065, "lon": -77.04293883333334, "rental_uris": {"android": "https://dc.lft.to/lastmile_qr_scan", "ios": "https://dc.lft.to/lastmile_qr_scan"}, "is_disabled": 0, "fusion_lat": 0.0, "name": "8e4e4eca3c217891293530d275a2285b", "fusion_lon": 0.0}, {"is_reserved": 0, "type": "electric_scooter", "bike_id": "7b154396a6cc6dd3f1f8c3bc1a843fd2", "lat": 38.884128833333335, "lon": -77.030022, "rental_uris": {"android": "https://dc.lft.to/lastmile_qr_scan", "ios": "https://dc.lft.to/lastmile_qr_scan"}, "is_disabled": 0, "fusion_lat": 0.0, "name": "7b154396a6cc6dd3f1f8c3bc1a843fd2", "fusion_lon": 0.0}, {"is_reserved": 0, "type": "electric_scooter", "bike_id": "a78eeab0d9ad0dbe143b02dbaba01981", "lat": 38.933993666666666, "lon": -77.02843533333333, "rental_uris": {"android": "https://dc.lft.to/lastmile_qr_scan", "ios": "https://dc.lft.to/lastmile_qr_scan"}, "is_disabled": 0, "fusion_lat": 0.0, "name": "a78eeab0d9ad0dbe143b02dbaba01981", "fusion_lon": 0.0}, {"is_reserved": 0, "type": "electric_scooter", "bike_id": "d769daf15718b104ec3724914ed610c3", "lat": 38.9066925, "lon": -77.0363865, "rental_uris": {"android": "https://dc.lft.to/lastmile_qr_scan", "ios": "https://dc.lft.to/lastmile_qr_scan"}, "is_disabled": 0, "fusion_lat": 0.0, "name": "d769daf15718b104ec3724914ed610c3", "fusion_lon": 0.0}, {"is_reserved": 0, "type": "electric_scooter", "bike_id": "f7e19b341fff140ff9a76aabf95d76ea", "lat": 38.887404333333336, "lon": -77.023964, "rental_uris": {"android": "https://dc.lft.to/lastmile_qr_scan", "ios": "https://dc.lft.to/lastmile_qr_scan"}, "is_disabled": 0, "fusion_lat": 0.0, "name": "f7e19b341fff140ff9a76aabf95d76ea", "fusion_lon": 0.0}, {"is_reserved": 0, "type": "electric_scooter", "bike_id": "3531f44660fdcddecb596fc960edb980", "lat": 38.8923065, "lon": -77.04487466666667, "rental_uris": {"android": "https://dc.lft.to/lastmile_qr_scan", "ios": "https://dc.lft.to/lastmile_qr_scan"}, "is_disabled": 0, "fusion_lat": 0.0, "name": "3531f44660fdcddecb596fc960edb980", "fusion_lon": 0.0}, {"is_reserved": 0, "type": "electric_scooter", "bike_id": "9482e7ee0750079974da2119ecbef8a7", "lat": 38.91470616666667, "lon": -77.04580466666667, "rental_uris": {"android": "https://dc.lft.to/lastmile_qr_scan", "ios": "https://dc.lft.to/lastmile_qr_scan"}, "is_disabled": 0, "fusion_lat": 0.0, "name": "9482e7ee0750079974da2119ecbef8a7", "fusion_lon": 0.0}, {"is_reserved": 0, "type": "electric_scooter", "bike_id": "b9cf8059c3d402eda632613b5a9c8eff", "lat": 38.921255, "lon": -77.01781633333333, "rental_uris": {"android": "https://dc.lft.to/lastmile_qr_scan", "ios": "https://dc.lft.to/lastmile_qr_scan"}, "is_disabled": 0, "fusion_lat": 0.0, "name": "b9cf8059c3d402eda632613b5a9c8eff", "fusion_lon": 0.0}, {"is_reserved": 0, "type": "electric_scooter", "bike_id": "a4bb61bb5eaa4c896dab3b0236b1bba9", "lat": 38.94247333333333, "lon": -77.03583683333333, "rental_uris": {"android": "https://dc.lft.to/lastmile_qr_scan", "ios": "https://dc.lft.to/lastmile_qr_scan"}, "is_disabled": 0, "fusion_lat": 0.0, "name": "a4bb61bb5eaa4c896dab3b0236b1bba9", "fusion_lon": 0.0}, {"is_reserved": 0, "type": "electric_scooter", "bike_id": "33c16329e182ed0697d4b250d928f1b7", "lat": 38.877681, "lon": -76.9942785, "rental_uris": {"android": "https://dc.lft.to/lastmile_qr_scan", "ios": "https://dc.lft.to/lastmile_qr_scan"}, "is_disabled": 0, "fusion_lat": 0.0, "name": "33c16329e182ed0697d4b250d928f1b7", "fusion_lon": 0.0}, {"is_reserved": 0, "type": "electric_scooter", "bike_id": "f3e4e824a6880668b88915b0a7773bb9", "lat": 38.89888416666667, "lon": -76.93175766666667, "rental_uris": {"android": "https://dc.lft.to/lastmile_qr_scan", "ios": "https://dc.lft.to/lastmile_qr_scan"}, "is_disabled": 0, "fusion_lat": 0.0, "name": "f3e4e824a6880668b88915b0a7773bb9", "fusion_lon": 0.0}, {"is_reserved": 0, "type": "electric_scooter", "bike_id": "7d8f168e1c6f329806eedafc7ac84284", "lat": 38.915864666666664, "lon": -77.01230533333333, "rental_uris": {"android": "https://dc.lft.to/lastmile_qr_scan", "ios": "https://dc.lft.to/lastmile_qr_scan"}, "is_disabled": 0, "fusion_lat": 0.0, "name": "7d8f168e1c6f329806eedafc7ac84284", "fusion_lon": 0.0}, {"is_reserved": 0, "type": "electric_bike", "bike_id": "a281e77af8f1d9266d1aa125f51f69ba", "lat": 38.94374883333333, "lon": -77.0774495, "rental_uris": {"android": "https://dc.lft.to/lastmile_qr_scan", "ios": "https://dc.lft.to/lastmile_qr_scan"}, "is_disabled": 0, "fusion_lat": 0.0, "name": "a281e77af8f1d9266d1aa125f51f69ba", "fusion_lon": 0.0}, {"is_reserved": 0, "type": "electric_scooter", "bike_id": "d764f7fc372fa0928185cb3d3acd6b70", "lat": 38.89235633333333, "lon": -77.03350033333334, "rental_uris": {"android": "https://dc.lft.to/lastmile_qr_scan", "ios": "https://dc.lft.to/lastmile_qr_scan"}, "is_disabled": 0, "fusion_lat": 0.0, "name": "d764f7fc372fa0928185cb3d3acd6b70", "fusion_lon": 0.0}, {"is_reserved": 0, "type": "electric_scooter", "bike_id": "f782b35db72f4b80c52a2f9a600ebcaa", "lat": 38.91705683333333, "lon": -77.03870666666667, "rental_uris": {"android": "https://dc.lft.to/lastmile_qr_scan", "ios": "https://dc.lft.to/lastmile_qr_scan"}, "is_disabled": 0, "fusion_lat": 0.0, "name": "f782b35db72f4b80c52a2f9a600ebcaa", "fusion_lon": 0.0}, {"is_reserved": 0, "type": "electric_scooter", "bike_id": "e4ccdbb9f58c104a395f0277e626d183", "lat": 38.91996, "lon": -77.02888666666666, "rental_uris": {"android": "https://dc.lft.to/lastmile_qr_scan", "ios": "https://dc.lft.to/lastmile_qr_scan"}, "is_disabled": 0, "fusion_lat": 0.0, "name": "e4ccdbb9f58c104a395f0277e626d183", "fusion_lon": 0.0}, {"is_reserved": 0, "type": "electric_scooter", "bike_id": "b3e5a78a24af0142b012b0fd319f594e", "lat": 38.940784, "lon": -77.03329333333333, "rental_uris": {"android": "https://dc.lft.to/lastmile_qr_scan", "ios": "https://dc.lft.to/lastmile_qr_scan"}, "is_disabled": 0, "fusion_lat": 0.0, "name": "b3e5a78a24af0142b012b0fd319f594e", "fusion_lon": 0.0}, {"is_reserved": 0, "type": "electric_scooter", "bike_id": "66b7ebd1241db5e46feba33f84dea5bd", "lat": 38.884010833333335, "lon": -76.98982116666667, "rental_uris": {"android": "https://dc.lft.to/lastmile_qr_scan", "ios": "https://dc.lft.to/lastmile_qr_scan"}, "is_disabled": 0, "fusion_lat": 0.0, "name": "66b7ebd1241db5e46feba33f84dea5bd", "fusion_lon": 0.0}, {"is_reserved": 0, "type": "electric_scooter", "bike_id": "61abef9215d7dd98949d85e428fed637", "lat": 38.8874905, "lon": -77.01740433333333, "rental_uris": {"android": "https://dc.lft.to/lastmile_qr_scan", "ios": "https://dc.lft.to/lastmile_qr_scan"}, "is_disabled": 0, "fusion_lat": 0.0, "name": "61abef9215d7dd98949d85e428fed637", "fusion_lon": 0.0}, {"is_reserved": 0, "type": "electric_scooter", "bike_id": "02de4ed85c469b9550f2045812b60db2", "lat": 38.937862, "lon": -77.0745145, "rental_uris": {"android": "https://dc.lft.to/lastmile_qr_scan", "ios": "https://dc.lft.to/lastmile_qr_scan"}, "is_disabled": 0, "fusion_lat": 0.0, "name": "02de4ed85c469b9550f2045812b60db2", "fusion_lon": 0.0}, {"is_reserved": 0, "type": "electric_scooter", "bike_id": "1b556209d6ffc09ee2314d334d43effe", "lat": 38.912447, "lon": -77.0385435, "rental_uris": {"android": "https://dc.lft.to/lastmile_qr_scan", "ios": "https://dc.lft.to/lastmile_qr_scan"}, "is_disabled": 0, "fusion_lat": 0.0, "name": "1b556209d6ffc09ee2314d334d43effe", "fusion_lon": 0.0}, {"is_reserved": 0, "type": "electric_scooter", "bike_id": "4ecededd6a5e5b81dd8cd4b7f1a6d76e", "lat": 38.905703333333335, "lon": -76.99780733333333, "rental_uris": {"android": "https://dc.lft.to/lastmile_qr_scan", "ios": "https://dc.lft.to/lastmile_qr_scan"}, "is_disabled": 0, "fusion_lat": 0.0, "name": "4ecededd6a5e5b81dd8cd4b7f1a6d76e", "fusion_lon": 0.0}, {"is_reserved": 0, "type": "electric_scooter", "bike_id": "76087ef538f6c6867bc851a11577a42e", "lat": 38.949798666666666, "lon": -77.02447333333333, "rental_uris": {"android": "https://dc.lft.to/lastmile_qr_scan", "ios": "https://dc.lft.to/lastmile_qr_scan"}, "is_disabled": 0, "fusion_lat": 0.0, "name": "76087ef538f6c6867bc851a11577a42e", "fusion_lon": 0.0}, {"is_reserved": 0, "type": "electric_bike", "bike_id": "41ab9d9e6b65cee5a696e5ada8a4cb6a", "lat": 38.908085666666665, "lon": -77.02387566666667, "rental_uris": {"android": "https://dc.lft.to/lastmile_qr_scan", "ios": "https://dc.lft.to/lastmile_qr_scan"}, "is_disabled": 0, "fusion_lat": 0.0, "name": "41ab9d9e6b65cee5a696e5ada8a4cb6a", "fusion_lon": 0.0}, {"is_reserved": 0, "type": "electric_scooter", "bike_id": "9c0f8aad88dddf8d7300f8b82a331ee4", "lat": 38.899559833333335, "lon": -77.05390983333334, "rental_uris": {"android": "https://dc.lft.to/lastmile_qr_scan", "ios": "https://dc.lft.to/lastmile_qr_scan"}, "is_disabled": 0, "fusion_lat": 0.0, "name": "9c0f8aad88dddf8d7300f8b82a331ee4", "fusion_lon": 0.0}, {"is_reserved": 0, "type": "electric_scooter", "bike_id": "dbc720b08f0eb4ea2fdc306e1f847a91", "lat": 38.92873066666667, "lon": -77.0344125, "rental_uris": {"android": "https://dc.lft.to/lastmile_qr_scan", "ios": "https://dc.lft.to/lastmile_qr_scan"}, "is_disabled": 0, "fusion_lat": 0.0, "name": "dbc720b08f0eb4ea2fdc306e1f847a91", "fusion_lon": 0.0}, {"is_reserved": 0, "type": "electric_scooter", "bike_id": "9768b014014f157e1918eb0b19ffcdf0", "lat": 38.940093, "lon": -77.02737016666667, "rental_uris": {"android": "https://dc.lft.to/lastmile_qr_scan", "ios": "https://dc.lft.to/lastmile_qr_scan"}, "is_disabled": 0, "fusion_lat": 0.0, "name": "9768b014014f157e1918eb0b19ffcdf0", "fusion_lon": 0.0}, {"is_reserved": 0, "type": "electric_scooter", "bike_id": "628b7d4a008572fd4f8146e406b2c0c8", "lat": 38.90462683333333, "lon": -77.00330283333334, "rental_uris": {"android": "https://dc.lft.to/lastmile_qr_scan", "ios": "https://dc.lft.to/lastmile_qr_scan"}, "is_disabled": 0, "fusion_lat": 0.0, "name": "628b7d4a008572fd4f8146e406b2c0c8", "fusion_lon": 0.0}, {"is_reserved": 0, "type": "electric_bike", "bike_id": "469cff765ea14e3ad428b6c708602ca6", "lat": 38.956011333333336, "lon": -76.99532916666666, "rental_uris": {"android": "https://dc.lft.to/lastmile_qr_scan", "ios": "https://dc.lft.to/lastmile_qr_scan"}, "is_disabled": 0, "fusion_lat": 0.0, "name": "469cff765ea14e3ad428b6c708602ca6", "fusion_lon": 0.0}, {"is_reserved": 0, "type": "electric_scooter", "bike_id": "dee095ebdca3029f59c824b802caada3", "lat": 38.9245355, "lon": -77.020323, "rental_uris": {"android": "https://dc.lft.to/lastmile_qr_scan", "ios": "https://dc.lft.to/lastmile_qr_scan"}, "is_disabled": 0, "fusion_lat": 0.0, "name": "dee095ebdca3029f59c824b802caada3", "fusion_lon": 0.0}, {"is_reserved": 0, "type": "electric_scooter", "bike_id": "2f1da8b1fd74de91ca3910d3910c7e2e", "lat": 38.913218, "lon": -77.01445266666667, "rental_uris": {"android": "https://dc.lft.to/lastmile_qr_scan", "ios": "https://dc.lft.to/lastmile_qr_scan"}, "is_disabled": 0, "fusion_lat": 0.0, "name": "2f1da8b1fd74de91ca3910d3910c7e2e", "fusion_lon": 0.0}, {"is_reserved": 0, "type": "electric_scooter", "bike_id": "6f6e9ee452d93ad28097fcf447671250", "lat": 38.90108733333334, "lon": -77.01622816666666, "rental_uris": {"android": "https://dc.lft.to/lastmile_qr_scan", "ios": "https://dc.lft.to/lastmile_qr_scan"}, "is_disabled": 0, "fusion_lat": 0.0, "name": "6f6e9ee452d93ad28097fcf447671250", "fusion_lon": 0.0}, {"is_reserved": 0, "type": "electric_scooter", "bike_id": "549372f83579427ec0bf0fb3e5c7c389", "lat": 38.90721383333333, "lon": -77.04614766666667, "rental_uris": {"android": "https://dc.lft.to/lastmile_qr_scan", "ios": "https://dc.lft.to/lastmile_qr_scan"}, "is_disabled": 0, "fusion_lat": 0.0, "name": "549372f83579427ec0bf0fb3e5c7c389", "fusion_lon": 0.0}, {"is_reserved": 0, "type": "electric_scooter", "bike_id": "9a92e2b4143d1748b0d8f2c61f5afeed", "lat": 38.92153016666666, "lon": -77.033892, "rental_uris": {"android": "https://dc.lft.to/lastmile_qr_scan", "ios": "https://dc.lft.to/lastmile_qr_scan"}, "is_disabled": 0, "fusion_lat": 0.0, "name": "9a92e2b4143d1748b0d8f2c61f5afeed", "fusion_lon": 0.0}, {"is_reserved": 0, "type": "electric_scooter", "bike_id": "d5071a6ca3cb90a4a5c2e91aa9c7938f", "lat": 38.92758416666667, "lon": -77.02310083333333, "rental_uris": {"android": "https://dc.lft.to/lastmile_qr_scan", "ios": "https://dc.lft.to/lastmile_qr_scan"}, "is_disabled": 0, "fusion_lat": 0.0, "name": "d5071a6ca3cb90a4a5c2e91aa9c7938f", "fusion_lon": 0.0}, {"is_reserved": 0, "type": "electric_scooter", "bike_id": "6672b5eecfa9c562735c31b64e207a08", "lat": 38.854555, "lon": -76.97234983333334, "rental_uris": {"android": "https://dc.lft.to/lastmile_qr_scan", "ios": "https://dc.lft.to/lastmile_qr_scan"}, "is_disabled": 0, "fusion_lat": 0.0, "name": "6672b5eecfa9c562735c31b64e207a08", "fusion_lon": 0.0}, {"is_reserved": 0, "type": "electric_scooter", "bike_id": "360341fa07ad49547c2c8d66a5667f3c", "lat": 38.90791516666667, "lon": -76.99976566666666, "rental_uris": {"android": "https://dc.lft.to/lastmile_qr_scan", "ios": "https://dc.lft.to/lastmile_qr_scan"}, "is_disabled": 0, "fusion_lat": 0.0, "name": "360341fa07ad49547c2c8d66a5667f3c", "fusion_lon": 0.0}, {"is_reserved": 0, "type": "electric_bike", "bike_id": "44ea0c54150083375b8753d06dc30857", "lat": 38.88936133333333, "lon": -76.91323516666667, "rental_uris": {"android": "https://dc.lft.to/lastmile_qr_scan", "ios": "https://dc.lft.to/lastmile_qr_scan"}, "is_disabled": 0, "fusion_lat": 0.0, "name": "44ea0c54150083375b8753d06dc30857", "fusion_lon": 0.0}, {"is_reserved": 0, "type": "electric_scooter", "bike_id": "bad6326435ab6c643880ddf0fcb67c16", "lat": 38.90147283333334, "lon": -77.05124583333334, "rental_uris": {"android": "https://dc.lft.to/lastmile_qr_scan", "ios": "https://dc.lft.to/lastmile_qr_scan"}, "is_disabled": 0, "fusion_lat": 0.0, "name": "bad6326435ab6c643880ddf0fcb67c16", "fusion_lon": 0.0}, {"is_reserved": 0, "type": "electric_scooter", "bike_id": "f2b23f484a0b11ba1fc082088ae22935", "lat": 38.9072175, "lon": -77.02543916666667, "rental_uris": {"android": "https://dc.lft.to/lastmile_qr_scan", "ios": "https://dc.lft.to/lastmile_qr_scan"}, "is_disabled": 0, "fusion_lat": 0.0, "name": "f2b23f484a0b11ba1fc082088ae22935", "fusion_lon": 0.0}, {"is_reserved": 0, "type": "electric_scooter", "bike_id": "31daea58d1e1d79dfa7560ebca6049ab", "lat": 38.9040075, "lon": -77.02739983333333, "rental_uris": {"android": "https://dc.lft.to/lastmile_qr_scan", "ios": "https://dc.lft.to/lastmile_qr_scan"}, "is_disabled": 0, "fusion_lat": 0.0, "name": "31daea58d1e1d79dfa7560ebca6049ab", "fusion_lon": 0.0}, {"is_reserved": 0, "type": "electric_scooter", "bike_id": "171a37a39c976c7fbd6dd72471285826", "lat": 38.922837333333334, "lon": -77.04027933333333, "rental_uris": {"android": "https://dc.lft.to/lastmile_qr_scan", "ios": "https://dc.lft.to/lastmile_qr_scan"}, "is_disabled": 0, "fusion_lat": 0.0, "name": "171a37a39c976c7fbd6dd72471285826", "fusion_lon": 0.0}, {"is_reserved": 0, "type": "electric_scooter", "bike_id": "9cc87f20fb28b89a301048445694ea1f", "lat": 38.903864, "lon": -77.05349283333334, "rental_uris": {"android": "https://dc.lft.to/lastmile_qr_scan", "ios": "https://dc.lft.to/lastmile_qr_scan"}, "is_disabled": 0, "fusion_lat": 0.0, "name": "9cc87f20fb28b89a301048445694ea1f", "fusion_lon": 0.0}, {"is_reserved": 0, "type": "electric_scooter", "bike_id": "ac075031320a3cefd44a64092c9d591e", "lat": 38.91636783333333, "lon": -77.03198566666667, "rental_uris": {"android": "https://dc.lft.to/lastmile_qr_scan", "ios": "https://dc.lft.to/lastmile_qr_scan"}, "is_disabled": 0, "fusion_lat": 0.0, "name": "ac075031320a3cefd44a64092c9d591e", "fusion_lon": 0.0}, {"is_reserved": 0, "type": "electric_scooter", "bike_id": "6c3d270975e04dbce8943bb5a3f22b2d", "lat": 38.9404525, "lon": -77.02907833333333, "rental_uris": {"android": "https://dc.lft.to/lastmile_qr_scan", "ios": "https://dc.lft.to/lastmile_qr_scan"}, "is_disabled": 0, "fusion_lat": 0.0, "name": "6c3d270975e04dbce8943bb5a3f22b2d", "fusion_lon": 0.0}, {"is_reserved": 0, "type": "electric_scooter", "bike_id": "618952086d4bb3356ea38550adc2e61b", "lat": 38.87490066666667, "lon": -77.0003395, "rental_uris": {"android": "https://dc.lft.to/lastmile_qr_scan", "ios": "https://dc.lft.to/lastmile_qr_scan"}, "is_disabled": 0, "fusion_lat": 0.0, "name": "618952086d4bb3356ea38550adc2e61b", "fusion_lon": 0.0}, {"is_reserved": 0, "type": "electric_scooter", "bike_id": "97c7afd0b335d8ffbc5cacc2675b50d1", "lat": 38.900058666666666, "lon": -77.04031016666667, "rental_uris": {"android": "https://dc.lft.to/lastmile_qr_scan", "ios": "https://dc.lft.to/lastmile_qr_scan"}, "is_disabled": 0, "fusion_lat": 0.0, "name": "97c7afd0b335d8ffbc5cacc2675b50d1", "fusion_lon": 0.0}, {"is_reserved": 0, "type": "electric_scooter", "bike_id": "af6bb6707c6a3371ff151a281ba1314d", "lat": 38.89715133333333, "lon": -77.007974, "rental_uris": {"android": "https://dc.lft.to/lastmile_qr_scan", "ios": "https://dc.lft.to/lastmile_qr_scan"}, "is_disabled": 0, "fusion_lat": 0.0, "name": "af6bb6707c6a3371ff151a281ba1314d", "fusion_lon": 0.0}, {"is_reserved": 0, "type": "electric_scooter", "bike_id": "a98374d6b2be1f8a78e41dd878521480", "lat": 38.887429833333336, "lon": -77.01350383333333, "rental_uris": {"android": "https://dc.lft.to/lastmile_qr_scan", "ios": "https://dc.lft.to/lastmile_qr_scan"}, "is_disabled": 0, "fusion_lat": 0.0, "name": "a98374d6b2be1f8a78e41dd878521480", "fusion_lon": 0.0}, {"is_reserved": 0, "type": "electric_bike", "bike_id": "52f058328f9459e0bb5ad1e299a90c35", "lat": 38.905428, "lon": -77.04179916666666, "rental_uris": {"android": "https://dc.lft.to/lastmile_qr_scan", "ios": "https://dc.lft.to/lastmile_qr_scan"}, "is_disabled": 0, "fusion_lat": 0.0, "name": "52f058328f9459e0bb5ad1e299a90c35", "fusion_lon": 0.0}, {"is_reserved": 0, "type": "electric_scooter", "bike_id": "6fffd809fef4eada884e04f7f3d20258", "lat": 38.906171, "lon": -77.00922283333334, "rental_uris": {"android": "https://dc.lft.to/lastmile_qr_scan", "ios": "https://dc.lft.to/lastmile_qr_scan"}, "is_disabled": 0, "fusion_lat": 0.0, "name": "6fffd809fef4eada884e04f7f3d20258", "fusion_lon": 0.0}, {"is_reserved": 0, "type": "electric_scooter", "bike_id": "65b58b3e11e8f7b1ab7025ec7bbbe53b", "lat": 38.9141855, "lon": -77.02212233333333, "rental_uris": {"android": "https://dc.lft.to/lastmile_qr_scan", "ios": "https://dc.lft.to/lastmile_qr_scan"}, "is_disabled": 0, "fusion_lat": 0.0, "name": "65b58b3e11e8f7b1ab7025ec7bbbe53b", "fusion_lon": 0.0}, {"is_reserved": 0, "type": "electric_scooter", "bike_id": "95a5b3c49b18da04d727087e6c8b83d5", "lat": 38.89365216666667, "lon": -76.9868475, "rental_uris": {"android": "https://dc.lft.to/lastmile_qr_scan", "ios": "https://dc.lft.to/lastmile_qr_scan"}, "is_disabled": 0, "fusion_lat": 0.0, "name": "95a5b3c49b18da04d727087e6c8b83d5", "fusion_lon": 0.0}, {"is_reserved": 0, "type": "electric_scooter", "bike_id": "5ae9540d683e8865e0af8c7d29fb1b09", "lat": 38.92443883333333, "lon": -77.020258, "rental_uris": {"android": "https://dc.lft.to/lastmile_qr_scan", "ios": "https://dc.lft.to/lastmile_qr_scan"}, "is_disabled": 0, "fusion_lat": 0.0, "name": "5ae9540d683e8865e0af8c7d29fb1b09", "fusion_lon": 0.0}, {"is_reserved": 0, "type": "electric_scooter", "bike_id": "240ee56ce346c9e2bf6237bd12553235", "lat": 38.912684166666665, "lon": -77.038732, "rental_uris": {"android": "https://dc.lft.to/lastmile_qr_scan", "ios": "https://dc.lft.to/lastmile_qr_scan"}, "is_disabled": 0, "fusion_lat": 0.0, "name": "240ee56ce346c9e2bf6237bd12553235", "fusion_lon": 0.0}, {"is_reserved": 0, "type": "electric_scooter", "bike_id": "39d66eb0e828de8a7958f292d838d8b7", "lat": 38.91712916666667, "lon": -77.0387665, "rental_uris": {"android": "https://dc.lft.to/lastmile_qr_scan", "ios": "https://dc.lft.to/lastmile_qr_scan"}, "is_disabled": 0, "fusion_lat": 0.0, "name": "39d66eb0e828de8a7958f292d838d8b7", "fusion_lon": 0.0}, {"is_reserved": 0, "type": "electric_scooter", "bike_id": "2ee47c69f1adabcd7903ee758b5b7bd2", "lat": 38.89493866666667, "lon": -76.9278665, "rental_uris": {"android": "https://dc.lft.to/lastmile_qr_scan", "ios": "https://dc.lft.to/lastmile_qr_scan"}, "is_disabled": 0, "fusion_lat": 0.0, "name": "2ee47c69f1adabcd7903ee758b5b7bd2", "fusion_lon": 0.0}, {"is_reserved": 0, "type": "electric_scooter", "bike_id": "a660fe7d5bfd4ab19e1c68b5d1c7979b", "lat": 38.989936666666665, "lon": -77.0336325, "rental_uris": {"android": "https://dc.lft.to/lastmile_qr_scan", "ios": "https://dc.lft.to/lastmile_qr_scan"}, "is_disabled": 0, "fusion_lat": 0.0, "name": "a660fe7d5bfd4ab19e1c68b5d1c7979b", "fusion_lon": 0.0}, {"is_reserved": 0, "type": "electric_scooter", "bike_id": "3dafa549d9a20a214a7d69cae5cbd7ca", "lat": 38.922892833333336, "lon": -77.03664083333334, "rental_uris": {"android": "https://dc.lft.to/lastmile_qr_scan", "ios": "https://dc.lft.to/lastmile_qr_scan"}, "is_disabled": 0, "fusion_lat": 0.0, "name": "3dafa549d9a20a214a7d69cae5cbd7ca", "fusion_lon": 0.0}, {"is_reserved": 0, "type": "electric_scooter", "bike_id": "bea638ba450018a6cd42fd64c4747b0d", "lat": 38.935862166666666, "lon": -77.032638, "rental_uris": {"android": "https://dc.lft.to/lastmile_qr_scan", "ios": "https://dc.lft.to/lastmile_qr_scan"}, "is_disabled": 0, "fusion_lat": 0.0, "name": "bea638ba450018a6cd42fd64c4747b0d", "fusion_lon": 0.0}, {"is_reserved": 0, "type": "electric_scooter", "bike_id": "a31781ac954acaf00f9b3bdbd8ad62de", "lat": 38.912707166666664, "lon": -77.03867633333333, "rental_uris": {"android": "https://dc.lft.to/lastmile_qr_scan", "ios": "https://dc.lft.to/lastmile_qr_scan"}, "is_disabled": 0, "fusion_lat": 0.0, "name": "a31781ac954acaf00f9b3bdbd8ad62de", "fusion_lon": 0.0}, {"is_reserved": 0, "type": "electric_scooter", "bike_id": "0c2a2310455b0596e0c0944407558e9f", "lat": 38.8987905, "lon": -76.931856, "rental_uris": {"android": "https://dc.lft.to/lastmile_qr_scan", "ios": "https://dc.lft.to/lastmile_qr_scan"}, "is_disabled": 0, "fusion_lat": 0.0, "name": "0c2a2310455b0596e0c0944407558e9f", "fusion_lon": 0.0}, {"is_reserved": 0, "type": "electric_scooter", "bike_id": "fee43fcadf9272ca46a7e0d6b6534755", "lat": 38.92630416666667, "lon": -77.035051, "rental_uris": {"android": "https://dc.lft.to/lastmile_qr_scan", "ios": "https://dc.lft.to/lastmile_qr_scan"}, "is_disabled": 0, "fusion_lat": 0.0, "name": "fee43fcadf9272ca46a7e0d6b6534755", "fusion_lon": 0.0}, {"is_reserved": 0, "type": "electric_scooter", "bike_id": "7b8a0b097acd12985bb902e8d0bd4fa4", "lat": 38.906518166666665, "lon": -76.9837595, "rental_uris": {"android": "https://dc.lft.to/lastmile_qr_scan", "ios": "https://dc.lft.to/lastmile_qr_scan"}, "is_disabled": 0, "fusion_lat": 0.0, "name": "7b8a0b097acd12985bb902e8d0bd4fa4", "fusion_lon": 0.0}, {"is_reserved": 0, "type": "electric_scooter", "bike_id": "888caaf365bc4f37a669fc35a09cb4d6", "lat": 38.90912733333333, "lon": -77.03969066666667, "rental_uris": {"android": "https://dc.lft.to/lastmile_qr_scan", "ios": "https://dc.lft.to/lastmile_qr_scan"}, "is_disabled": 0, "fusion_lat": 0.0, "name": "888caaf365bc4f37a669fc35a09cb4d6", "fusion_lon": 0.0}, {"is_reserved": 0, "type": "electric_scooter", "bike_id": "052b9ae6063b63d67f213f1e555d06cd", "lat": 38.935291666666664, "lon": -77.01943016666667, "rental_uris": {"android": "https://dc.lft.to/lastmile_qr_scan", "ios": "https://dc.lft.to/lastmile_qr_scan"}, "is_disabled": 0, "fusion_lat": 0.0, "name": "052b9ae6063b63d67f213f1e555d06cd", "fusion_lon": 0.0}, {"is_reserved": 0, "type": "electric_scooter", "bike_id": "991a962392a7d1d47a2d2dcbe2f6fafe", "lat": 38.9086235, "lon": -77.0434795, "rental_uris": {"android": "https://dc.lft.to/lastmile_qr_scan", "ios": "https://dc.lft.to/lastmile_qr_scan"}, "is_disabled": 0, "fusion_lat": 0.0, "name": "991a962392a7d1d47a2d2dcbe2f6fafe", "fusion_lon": 0.0}, {"is_reserved": 0, "type": "electric_scooter", "bike_id": "b299d5004bf0bef161d44ea9b7a17819", "lat": 38.911323, "lon": -77.038377, "rental_uris": {"android": "https://dc.lft.to/lastmile_qr_scan", "ios": "https://dc.lft.to/lastmile_qr_scan"}, "is_disabled": 0, "fusion_lat": 0.0, "name": "b299d5004bf0bef161d44ea9b7a17819", "fusion_lon": 0.0}, {"is_reserved": 0, "type": "electric_scooter", "bike_id": "3ee47ae79fa588f5df04f4a1d064af0a", "lat": 38.89955583333333, "lon": -76.979113, "rental_uris": {"android": "https://dc.lft.to/lastmile_qr_scan", "ios": "https://dc.lft.to/lastmile_qr_scan"}, "is_disabled": 0, "fusion_lat": 0.0, "name": "3ee47ae79fa588f5df04f4a1d064af0a", "fusion_lon": 0.0}, {"is_reserved": 0, "type": "electric_scooter", "bike_id": "10f942284359831e0d12f21fc7e488ae", "lat": 38.905579833333334, "lon": -77.057011, "rental_uris": {"android": "https://dc.lft.to/lastmile_qr_scan", "ios": "https://dc.lft.to/lastmile_qr_scan"}, "is_disabled": 0, "fusion_lat": 0.0, "name": "10f942284359831e0d12f21fc7e488ae", "fusion_lon": 0.0}, {"is_reserved": 0, "type": "electric_scooter", "bike_id": "475ae85bce8d2944b1414e1427e5bbc6", "lat": 38.872143666666666, "lon": -77.01355066666666, "rental_uris": {"android": "https://dc.lft.to/lastmile_qr_scan", "ios": "https://dc.lft.to/lastmile_qr_scan"}, "is_disabled": 0, "fusion_lat": 0.0, "name": "475ae85bce8d2944b1414e1427e5bbc6", "fusion_lon": 0.0}, {"is_reserved": 0, "type": "electric_scooter", "bike_id": "7550dbc8915ab0d582432eb2a70f7025", "lat": 38.909333333333336, "lon": -76.99630233333333, "rental_uris": {"android": "https://dc.lft.to/lastmile_qr_scan", "ios": "https://dc.lft.to/lastmile_qr_scan"}, "is_disabled": 0, "fusion_lat": 0.0, "name": "7550dbc8915ab0d582432eb2a70f7025", "fusion_lon": 0.0}, {"is_reserved": 0, "type": "electric_scooter", "bike_id": "a520ec510ad9999d00df4a1954d222ad", "lat": 38.90730966666667, "lon": -77.01430383333333, "rental_uris": {"android": "https://dc.lft.to/lastmile_qr_scan", "ios": "https://dc.lft.to/lastmile_qr_scan"}, "is_disabled": 0, "fusion_lat": 0.0, "name": "a520ec510ad9999d00df4a1954d222ad", "fusion_lon": 0.0}, {"is_reserved": 0, "type": "electric_bike", "bike_id": "0ac387491562c17794544795325bbd3a", "lat": 38.8405525, "lon": -77.05599183333334, "rental_uris": {"android": "https://dc.lft.to/lastmile_qr_scan", "ios": "https://dc.lft.to/lastmile_qr_scan"}, "is_disabled": 0, "fusion_lat": 0.0, "name": "0ac387491562c17794544795325bbd3a", "fusion_lon": 0.0}, {"is_reserved": 0, "type": "electric_scooter", "bike_id": "0d5a6aceb7974208ecd1c311955c6898", "lat": 38.92374316666667, "lon": -77.03662016666667, "rental_uris": {"android": "https://dc.lft.to/lastmile_qr_scan", "ios": "https://dc.lft.to/lastmile_qr_scan"}, "is_disabled": 0, "fusion_lat": 0.0, "name": "0d5a6aceb7974208ecd1c311955c6898", "fusion_lon": 0.0}, {"is_reserved": 0, "type": "electric_scooter", "bike_id": "e06925a1c72d5c966a3796b2953c3765", "lat": 38.92104466666667, "lon": -77.04188466666666, "rental_uris": {"android": "https://dc.lft.to/lastmile_qr_scan", "ios": "https://dc.lft.to/lastmile_qr_scan"}, "is_disabled": 0, "fusion_lat": 0.0, "name": "e06925a1c72d5c966a3796b2953c3765", "fusion_lon": 0.0}, {"is_reserved": 0, "type": "electric_scooter", "bike_id": "f322872526675b7f35d5c27412942634", "lat": 38.92154683333333, "lon": -77.0350755, "rental_uris": {"android": "https://dc.lft.to/lastmile_qr_scan", "ios": "https://dc.lft.to/lastmile_qr_scan"}, "is_disabled": 0, "fusion_lat": 0.0, "name": "f322872526675b7f35d5c27412942634", "fusion_lon": 0.0}, {"is_reserved": 0, "type": "electric_scooter", "bike_id": "8561f843782d867f1914698241d6205a", "lat": 38.9057075, "lon": -77.0059785, "rental_uris": {"android": "https://dc.lft.to/lastmile_qr_scan", "ios": "https://dc.lft.to/lastmile_qr_scan"}, "is_disabled": 0, "fusion_lat": 0.0, "name": "8561f843782d867f1914698241d6205a", "fusion_lon": 0.0}, {"is_reserved": 0, "type": "electric_scooter", "bike_id": "c71e9255330b77ed1e2113d7d12c83be", "lat": 38.93573116666666, "lon": -77.03263366666667, "rental_uris": {"android": "https://dc.lft.to/lastmile_qr_scan", "ios": "https://dc.lft.to/lastmile_qr_scan"}, "is_disabled": 0, "fusion_lat": 0.0, "name": "c71e9255330b77ed1e2113d7d12c83be", "fusion_lon": 0.0}, {"is_reserved": 0, "type": "electric_scooter", "bike_id": "62509ed20926daa5432706e3f4df0a2a", "lat": 38.90519783333333, "lon": -77.06376266666666, "rental_uris": {"android": "https://dc.lft.to/lastmile_qr_scan", "ios": "https://dc.lft.to/lastmile_qr_scan"}, "is_disabled": 0, "fusion_lat": 0.0, "name": "62509ed20926daa5432706e3f4df0a2a", "fusion_lon": 0.0}, {"is_reserved": 0, "type": "electric_scooter", "bike_id": "6969a7f7d50f3f620ac866c791fbbdd1", "lat": 38.8994765, "lon": -77.03219416666667, "rental_uris": {"android": "https://dc.lft.to/lastmile_qr_scan", "ios": "https://dc.lft.to/lastmile_qr_scan"}, "is_disabled": 0, "fusion_lat": 0.0, "name": "6969a7f7d50f3f620ac866c791fbbdd1", "fusion_lon": 0.0}, {"is_reserved": 0, "type": "electric_scooter", "bike_id": "e919c9750b47fd015bcb3be502f2cfdb", "lat": 38.925874666666665, "lon": -77.01219433333333, "rental_uris": {"android": "https://dc.lft.to/lastmile_qr_scan", "ios": "https://dc.lft.to/lastmile_qr_scan"}, "is_disabled": 0, "fusion_lat": 0.0, "name": "e919c9750b47fd015bcb3be502f2cfdb", "fusion_lon": 0.0}, {"is_reserved": 0, "type": "electric_scooter", "bike_id": "3b56b791ca68f0dee7c43cc6ecdd49cb", "lat": 38.8874155, "lon": -77.01530666666666, "rental_uris": {"android": "https://dc.lft.to/lastmile_qr_scan", "ios": "https://dc.lft.to/lastmile_qr_scan"}, "is_disabled": 0, "fusion_lat": 0.0, "name": "3b56b791ca68f0dee7c43cc6ecdd49cb", "fusion_lon": 0.0}, {"is_reserved": 0, "type": "electric_scooter", "bike_id": "5425c452669ed373d1199c27bf06d0d2", "lat": 38.926691, "lon": -77.01469433333334, "rental_uris": {"android": "https://dc.lft.to/lastmile_qr_scan", "ios": "https://dc.lft.to/lastmile_qr_scan"}, "is_disabled": 0, "fusion_lat": 0.0, "name": "5425c452669ed373d1199c27bf06d0d2", "fusion_lon": 0.0}, {"is_reserved": 0, "type": "electric_scooter", "bike_id": "1c7b7743bb9f60c237fd17077007fd79", "lat": 38.91336783333333, "lon": -77.02445433333334, "rental_uris": {"android": "https://dc.lft.to/lastmile_qr_scan", "ios": "https://dc.lft.to/lastmile_qr_scan"}, "is_disabled": 0, "fusion_lat": 0.0, "name": "1c7b7743bb9f60c237fd17077007fd79", "fusion_lon": 0.0}, {"is_reserved": 0, "type": "electric_scooter", "bike_id": "9c89264b7e3aeeb1d622a0cc96d703fc", "lat": 38.90345216666667, "lon": -77.0257545, "rental_uris": {"android": "https://dc.lft.to/lastmile_qr_scan", "ios": "https://dc.lft.to/lastmile_qr_scan"}, "is_disabled": 0, "fusion_lat": 0.0, "name": "9c89264b7e3aeeb1d622a0cc96d703fc", "fusion_lon": 0.0}, {"is_reserved": 0, "type": "electric_scooter", "bike_id": "ff24492b43d79f5bd82e9eebe9887ede", "lat": 38.90054283333333, "lon": -77.00210483333333, "rental_uris": {"android": "https://dc.lft.to/lastmile_qr_scan", "ios": "https://dc.lft.to/lastmile_qr_scan"}, "is_disabled": 0, "fusion_lat": 0.0, "name": "ff24492b43d79f5bd82e9eebe9887ede", "fusion_lon": 0.0}, {"is_reserved": 0, "type": "electric_scooter", "bike_id": "93fd9e4707e6ad2178ac4f1d0d8894ef", "lat": 38.89270033333333, "lon": -76.9299435, "rental_uris": {"android": "https://dc.lft.to/lastmile_qr_scan", "ios": "https://dc.lft.to/lastmile_qr_scan"}, "is_disabled": 0, "fusion_lat": 0.0, "name": "93fd9e4707e6ad2178ac4f1d0d8894ef", "fusion_lon": 0.0}, {"is_reserved": 0, "type": "electric_scooter", "bike_id": "52cfa7d648199c70c5cb632cd09e02cb", "lat": 38.8840265, "lon": -76.93047366666667, "rental_uris": {"android": "https://dc.lft.to/lastmile_qr_scan", "ios": "https://dc.lft.to/lastmile_qr_scan"}, "is_disabled": 0, "fusion_lat": 0.0, "name": "52cfa7d648199c70c5cb632cd09e02cb", "fusion_lon": 0.0}, {"is_reserved": 0, "type": "electric_scooter", "bike_id": "c535f00caad5224548f9cfebb45bda11", "lat": 38.900934166666666, "lon": -77.0573625, "rental_uris": {"android": "https://dc.lft.to/lastmile_qr_scan", "ios": "https://dc.lft.to/lastmile_qr_scan"}, "is_disabled": 0, "fusion_lat": 0.0, "name": "c535f00caad5224548f9cfebb45bda11", "fusion_lon": 0.0}, {"is_reserved": 0, "type": "electric_scooter", "bike_id": "355af49a3283115cf4633be15c9d991f", "lat": 38.8975145, "lon": -77.030235, "rental_uris": {"android": "https://dc.lft.to/lastmile_qr_scan", "ios": "https://dc.lft.to/lastmile_qr_scan"}, "is_disabled": 0, "fusion_lat": 0.0, "name": "355af49a3283115cf4633be15c9d991f", "fusion_lon": 0.0}, {"is_reserved": 0, "type": "electric_scooter", "bike_id": "d863cab821a3c3330edbe7418a5d7eb3", "lat": 38.929760333333334, "lon": -77.03929866666667, "rental_uris": {"android": "https://dc.lft.to/lastmile_qr_scan", "ios": "https://dc.lft.to/lastmile_qr_scan"}, "is_disabled": 0, "fusion_lat": 0.0, "name": "d863cab821a3c3330edbe7418a5d7eb3", "fusion_lon": 0.0}, {"is_reserved": 0, "type": "electric_scooter", "bike_id": "324891f20c0cb1a0db104cfafd5fbb26", "lat": 38.908789166666665, "lon": -76.99113783333334, "rental_uris": {"android": "https://dc.lft.to/lastmile_qr_scan", "ios": "https://dc.lft.to/lastmile_qr_scan"}, "is_disabled": 0, "fusion_lat": 0.0, "name": "324891f20c0cb1a0db104cfafd5fbb26", "fusion_lon": 0.0}, {"is_reserved": 0, "type": "electric_scooter", "bike_id": "cbe8b2ea811ef27bce561c491537bbc6", "lat": 38.89824733333333, "lon": -77.03346333333333, "rental_uris": {"android": "https://dc.lft.to/lastmile_qr_scan", "ios": "https://dc.lft.to/lastmile_qr_scan"}, "is_disabled": 0, "fusion_lat": 0.0, "name": "cbe8b2ea811ef27bce561c491537bbc6", "fusion_lon": 0.0}, {"is_reserved": 0, "type": "electric_scooter", "bike_id": "de419cee4500e1da3cea7ed546461bdb", "lat": 38.896872, "lon": -76.93532333333333, "rental_uris": {"android": "https://dc.lft.to/lastmile_qr_scan", "ios": "https://dc.lft.to/lastmile_qr_scan"}, "is_disabled": 0, "fusion_lat": 0.0, "name": "de419cee4500e1da3cea7ed546461bdb", "fusion_lon": 0.0}, {"is_reserved": 0, "type": "electric_scooter", "bike_id": "de3663aed47fb885abb16f66c48f309f", "lat": 38.896172166666666, "lon": -76.976839, "rental_uris": {"android": "https://dc.lft.to/lastmile_qr_scan", "ios": "https://dc.lft.to/lastmile_qr_scan"}, "is_disabled": 0, "fusion_lat": 0.0, "name": "de3663aed47fb885abb16f66c48f309f", "fusion_lon": 0.0}, {"is_reserved": 0, "type": "electric_scooter", "bike_id": "7c69e0438caa64641d7ef4cc4cd59cc5", "lat": 38.905489833333334, "lon": -77.0592135, "rental_uris": {"android": "https://dc.lft.to/lastmile_qr_scan", "ios": "https://dc.lft.to/lastmile_qr_scan"}, "is_disabled": 0, "fusion_lat": 0.0, "name": "7c69e0438caa64641d7ef4cc4cd59cc5", "fusion_lon": 0.0}, {"is_reserved": 0, "type": "electric_scooter", "bike_id": "58941961083c929d43732ce2e9777cc0", "lat": 38.90542716666667, "lon": -77.05805866666667, "rental_uris": {"android": "https://dc.lft.to/lastmile_qr_scan", "ios": "https://dc.lft.to/lastmile_qr_scan"}, "is_disabled": 0, "fusion_lat": 0.0, "name": "58941961083c929d43732ce2e9777cc0", "fusion_lon": 0.0}, {"is_reserved": 0, "type": "electric_scooter", "bike_id": "4a920af1960fc3a3d4332f19db4d2c09", "lat": 38.892765, "lon": -77.0321225, "rental_uris": {"android": "https://dc.lft.to/lastmile_qr_scan", "ios": "https://dc.lft.to/lastmile_qr_scan"}, "is_disabled": 0, "fusion_lat": 0.0, "name": "4a920af1960fc3a3d4332f19db4d2c09", "fusion_lon": 0.0}, {"is_reserved": 0, "type": "electric_scooter", "bike_id": "fbae3790b76f5d8f539acd8511bbf6f0", "lat": 38.9112295, "lon": -77.04382266666667, "rental_uris": {"android": "https://dc.lft.to/lastmile_qr_scan", "ios": "https://dc.lft.to/lastmile_qr_scan"}, "is_disabled": 0, "fusion_lat": 0.0, "name": "fbae3790b76f5d8f539acd8511bbf6f0", "fusion_lon": 0.0}, {"is_reserved": 0, "type": "electric_scooter", "bike_id": "00b18e6fe97643ad84bd143c083aa7a6", "lat": 38.924479833333336, "lon": -77.02025966666666, "rental_uris": {"android": "https://dc.lft.to/lastmile_qr_scan", "ios": "https://dc.lft.to/lastmile_qr_scan"}, "is_disabled": 0, "fusion_lat": 0.0, "name": "00b18e6fe97643ad84bd143c083aa7a6", "fusion_lon": 0.0}, {"is_reserved": 0, "type": "electric_scooter", "bike_id": "3856787fd78ef7dac2c23ce82d3278c4", "lat": 38.92414316666667, "lon": -77.020082, "rental_uris": {"android": "https://dc.lft.to/lastmile_qr_scan", "ios": "https://dc.lft.to/lastmile_qr_scan"}, "is_disabled": 0, "fusion_lat": 0.0, "name": "3856787fd78ef7dac2c23ce82d3278c4", "fusion_lon": 0.0}, {"is_reserved": 0, "type": "electric_scooter", "bike_id": "9ccebd92544e9960400d3aa191f2ef27", "lat": 38.936425666666665, "lon": -77.083192, "rental_uris": {"android": "https://dc.lft.to/lastmile_qr_scan", "ios": "https://dc.lft.to/lastmile_qr_scan"}, "is_disabled": 0, "fusion_lat": 0.0, "name": "9ccebd92544e9960400d3aa191f2ef27", "fusion_lon": 0.0}, {"is_reserved": 0, "type": "electric_scooter", "bike_id": "5c5ff9e4831b3ba81546a1430c1ad54c", "lat": 38.92254583333333, "lon": -77.04246983333333, "rental_uris": {"android": "https://dc.lft.to/lastmile_qr_scan", "ios": "https://dc.lft.to/lastmile_qr_scan"}, "is_disabled": 0, "fusion_lat": 0.0, "name": "5c5ff9e4831b3ba81546a1430c1ad54c", "fusion_lon": 0.0}, {"is_reserved": 0, "type": "electric_scooter", "bike_id": "b0835664f475b6b4bd836a50d55c3b21", "lat": 38.907950166666666, "lon": -77.02811233333334, "rental_uris": {"android": "https://dc.lft.to/lastmile_qr_scan", "ios": "https://dc.lft.to/lastmile_qr_scan"}, "is_disabled": 0, "fusion_lat": 0.0, "name": "b0835664f475b6b4bd836a50d55c3b21", "fusion_lon": 0.0}, {"is_reserved": 0, "type": "electric_scooter", "bike_id": "f2328be215f20070273d65cea243f7e9", "lat": 38.90230316666667, "lon": -77.05127766666666, "rental_uris": {"android": "https://dc.lft.to/lastmile_qr_scan", "ios": "https://dc.lft.to/lastmile_qr_scan"}, "is_disabled": 0, "fusion_lat": 0.0, "name": "f2328be215f20070273d65cea243f7e9", "fusion_lon": 0.0}, {"is_reserved": 0, "type": "electric_scooter", "bike_id": "755116253ab9534732d109aa3fe3a377", "lat": 38.9025645, "lon": -77.04141116666666, "rental_uris": {"android": "https://dc.lft.to/lastmile_qr_scan", "ios": "https://dc.lft.to/lastmile_qr_scan"}, "is_disabled": 0, "fusion_lat": 0.0, "name": "755116253ab9534732d109aa3fe3a377", "fusion_lon": 0.0}, {"is_reserved": 0, "type": "electric_scooter", "bike_id": "12928b67a23d03f36dd7591faef11a53", "lat": 38.9070395, "lon": -77.02963266666667, "rental_uris": {"android": "https://dc.lft.to/lastmile_qr_scan", "ios": "https://dc.lft.to/lastmile_qr_scan"}, "is_disabled": 0, "fusion_lat": 0.0, "name": "12928b67a23d03f36dd7591faef11a53", "fusion_lon": 0.0}, {"is_reserved": 0, "type": "electric_scooter", "bike_id": "4a0e00fb143d5dc7cc2f3449bcf52669", "lat": 38.8830245, "lon": -76.94853683333334, "rental_uris": {"android": "https://dc.lft.to/lastmile_qr_scan", "ios": "https://dc.lft.to/lastmile_qr_scan"}, "is_disabled": 0, "fusion_lat": 0.0, "name": "4a0e00fb143d5dc7cc2f3449bcf52669", "fusion_lon": 0.0}, {"is_reserved": 0, "type": "electric_scooter", "bike_id": "250ae02cb3f798389950589a38c3d8dd", "lat": 38.9101065, "lon": -76.99411066666667, "rental_uris": {"android": "https://dc.lft.to/lastmile_qr_scan", "ios": "https://dc.lft.to/lastmile_qr_scan"}, "is_disabled": 0, "fusion_lat": 0.0, "name": "250ae02cb3f798389950589a38c3d8dd", "fusion_lon": 0.0}, {"is_reserved": 0, "type": "electric_bike", "bike_id": "fbfc7299de1938aa5fcfeab76467e37f", "lat": 38.94565016666667, "lon": -76.95838783333333, "rental_uris": {"android": "https://dc.lft.to/lastmile_qr_scan", "ios": "https://dc.lft.to/lastmile_qr_scan"}, "is_disabled": 0, "fusion_lat": 0.0, "name": "fbfc7299de1938aa5fcfeab76467e37f", "fusion_lon": 0.0}, {"is_reserved": 0, "type": "electric_scooter", "bike_id": "9c09a25915ec1d2febd82453df7c8d63", "lat": 38.8794295, "lon": -77.0166585, "rental_uris": {"android": "https://dc.lft.to/lastmile_qr_scan", "ios": "https://dc.lft.to/lastmile_qr_scan"}, "is_disabled": 0, "fusion_lat": 0.0, "name": "9c09a25915ec1d2febd82453df7c8d63", "fusion_lon": 0.0}, {"is_reserved": 0, "type": "electric_scooter", "bike_id": "65be78545197679a812282a293684951", "lat": 38.89726916666667, "lon": -77.021663, "rental_uris": {"android": "https://dc.lft.to/lastmile_qr_scan", "ios": "https://dc.lft.to/lastmile_qr_scan"}, "is_disabled": 0, "fusion_lat": 0.0, "name": "65be78545197679a812282a293684951", "fusion_lon": 0.0}, {"is_reserved": 0, "type": "electric_scooter", "bike_id": "a4acd3deb805b43450edccb027c931b8", "lat": 38.874711166666664, "lon": -77.0054835, "rental_uris": {"android": "https://dc.lft.to/lastmile_qr_scan", "ios": "https://dc.lft.to/lastmile_qr_scan"}, "is_disabled": 0, "fusion_lat": 0.0, "name": "a4acd3deb805b43450edccb027c931b8", "fusion_lon": 0.0}, {"is_reserved": 0, "type": "electric_scooter", "bike_id": "a6c03aa9829b5837fede98c3d7a0e9af", "lat": 38.923842666666665, "lon": -77.02886, "rental_uris": {"android": "https://dc.lft.to/lastmile_qr_scan", "ios": "https://dc.lft.to/lastmile_qr_scan"}, "is_disabled": 0, "fusion_lat": 0.0, "name": "a6c03aa9829b5837fede98c3d7a0e9af", "fusion_lon": 0.0}, {"is_reserved": 0, "type": "electric_scooter", "bike_id": "ec2e3fcf4c9c0a8cd93e8d182738cec9", "lat": 38.91931833333334, "lon": -77.04623283333333, "rental_uris": {"android": "https://dc.lft.to/lastmile_qr_scan", "ios": "https://dc.lft.to/lastmile_qr_scan"}, "is_disabled": 0, "fusion_lat": 0.0, "name": "ec2e3fcf4c9c0a8cd93e8d182738cec9", "fusion_lon": 0.0}, {"is_reserved": 0, "type": "electric_scooter", "bike_id": "a5c1f893efe70833ec66a6a574c2aade", "lat": 38.89957183333333, "lon": -77.05391016666667, "rental_uris": {"android": "https://dc.lft.to/lastmile_qr_scan", "ios": "https://dc.lft.to/lastmile_qr_scan"}, "is_disabled": 0, "fusion_lat": 0.0, "name": "a5c1f893efe70833ec66a6a574c2aade", "fusion_lon": 0.0}, {"is_reserved": 0, "type": "electric_bike", "bike_id": "816c4c7da7ed3c94dcac472bd2b3b711", "lat": 38.958747333333335, "lon": -76.97055116666667, "rental_uris": {"android": "https://dc.lft.to/lastmile_qr_scan", "ios": "https://dc.lft.to/lastmile_qr_scan"}, "is_disabled": 0, "fusion_lat": 0.0, "name": "816c4c7da7ed3c94dcac472bd2b3b711", "fusion_lon": 0.0}, {"is_reserved": 0, "type": "electric_scooter", "bike_id": "bfabd8e4c94612d168bfcc00cdf6dc5b", "lat": 38.90106383333333, "lon": -76.98100966666667, "rental_uris": {"android": "https://dc.lft.to/lastmile_qr_scan", "ios": "https://dc.lft.to/lastmile_qr_scan"}, "is_disabled": 0, "fusion_lat": 0.0, "name": "bfabd8e4c94612d168bfcc00cdf6dc5b", "fusion_lon": 0.0}, {"is_reserved": 0, "type": "electric_bike", "bike_id": "09a271486743e704389575d7a2c4714c", "lat": 38.84111433333333, "lon": -77.08942916666666, "rental_uris": {"android": "https://dc.lft.to/lastmile_qr_scan", "ios": "https://dc.lft.to/lastmile_qr_scan"}, "is_disabled": 0, "fusion_lat": 0.0, "name": "09a271486743e704389575d7a2c4714c", "fusion_lon": 0.0}, {"is_reserved": 0, "type": "electric_scooter", "bike_id": "c564c78e965b8dc0b564d8d76e9606de", "lat": 38.896193333333336, "lon": -76.99725733333334, "rental_uris": {"android": "https://dc.lft.to/lastmile_qr_scan", "ios": "https://dc.lft.to/lastmile_qr_scan"}, "is_disabled": 0, "fusion_lat": 0.0, "name": "c564c78e965b8dc0b564d8d76e9606de", "fusion_lon": 0.0}, {"is_reserved": 0, "type": "electric_scooter", "bike_id": "7e2426665fd5ab8cb56d6661873df4ba", "lat": 38.901326166666664, "lon": -77.03471283333333, "rental_uris": {"android": "https://dc.lft.to/lastmile_qr_scan", "ios": "https://dc.lft.to/lastmile_qr_scan"}, "is_disabled": 0, "fusion_lat": 0.0, "name": "7e2426665fd5ab8cb56d6661873df4ba", "fusion_lon": 0.0}, {"is_reserved": 0, "type": "electric_scooter", "bike_id": "102853c7b9c9331b5da3ce44554784dc", "lat": 38.93125083333334, "lon": -77.02315283333333, "rental_uris": {"android": "https://dc.lft.to/lastmile_qr_scan", "ios": "https://dc.lft.to/lastmile_qr_scan"}, "is_disabled": 0, "fusion_lat": 0.0, "name": "102853c7b9c9331b5da3ce44554784dc", "fusion_lon": 0.0}, {"is_reserved": 0, "type": "electric_scooter", "bike_id": "286e67173361a71a188a7d33ecae5d62", "lat": 38.9363185, "lon": -77.05905733333333, "rental_uris": {"android": "https://dc.lft.to/lastmile_qr_scan", "ios": "https://dc.lft.to/lastmile_qr_scan"}, "is_disabled": 0, "fusion_lat": 0.0, "name": "286e67173361a71a188a7d33ecae5d62", "fusion_lon": 0.0}, {"is_reserved": 0, "type": "electric_scooter", "bike_id": "9f3489725b2b9ebbb55e7f97ab14a70b", "lat": 38.8877235, "lon": -76.99159333333333, "rental_uris": {"android": "https://dc.lft.to/lastmile_qr_scan", "ios": "https://dc.lft.to/lastmile_qr_scan"}, "is_disabled": 0, "fusion_lat": 0.0, "name": "9f3489725b2b9ebbb55e7f97ab14a70b", "fusion_lon": 0.0}, {"is_reserved": 0, "type": "electric_scooter", "bike_id": "a4a344e40b39fe838c08bb3bc395a6b5", "lat": 38.9001625, "lon": -76.9916875, "rental_uris": {"android": "https://dc.lft.to/lastmile_qr_scan", "ios": "https://dc.lft.to/lastmile_qr_scan"}, "is_disabled": 0, "fusion_lat": 0.0, "name": "a4a344e40b39fe838c08bb3bc395a6b5", "fusion_lon": 0.0}, {"is_reserved": 0, "type": "electric_scooter", "bike_id": "a6ba1b72d4ed0f4905715ab4aa6ab317", "lat": 38.909683333333334, "lon": -77.0231045, "rental_uris": {"android": "https://dc.lft.to/lastmile_qr_scan", "ios": "https://dc.lft.to/lastmile_qr_scan"}, "is_disabled": 0, "fusion_lat": 0.0, "name": "a6ba1b72d4ed0f4905715ab4aa6ab317", "fusion_lon": 0.0}, {"is_reserved": 0, "type": "electric_scooter", "bike_id": "6bed62325405a78c8fc575d443811e66", "lat": 38.93464616666667, "lon": -77.0208995, "rental_uris": {"android": "https://dc.lft.to/lastmile_qr_scan", "ios": "https://dc.lft.to/lastmile_qr_scan"}, "is_disabled": 0, "fusion_lat": 0.0, "name": "6bed62325405a78c8fc575d443811e66", "fusion_lon": 0.0}, {"is_reserved": 0, "type": "electric_bike", "bike_id": "222d61252b19e4fad4105107ab4e5997", "lat": 39.0843725, "lon": -76.95146566666666, "rental_uris": {"android": "https://dc.lft.to/lastmile_qr_scan", "ios": "https://dc.lft.to/lastmile_qr_scan"}, "is_disabled": 0, "fusion_lat": 0.0, "name": "222d61252b19e4fad4105107ab4e5997", "fusion_lon": 0.0}, {"is_reserved": 0, "type": "electric_scooter", "bike_id": "c0b9e4b23abe0f536d1f1f407aaf3d7e", "lat": 38.889919166666665, "lon": -76.99298133333333, "rental_uris": {"android": "https://dc.lft.to/lastmile_qr_scan", "ios": "https://dc.lft.to/lastmile_qr_scan"}, "is_disabled": 0, "fusion_lat": 0.0, "name": "c0b9e4b23abe0f536d1f1f407aaf3d7e", "fusion_lon": 0.0}, {"is_reserved": 0, "type": "electric_scooter", "bike_id": "9de23bf638aedd79f8edd44453511d8f", "lat": 38.900329666666664, "lon": -76.99633, "rental_uris": {"android": "https://dc.lft.to/lastmile_qr_scan", "ios": "https://dc.lft.to/lastmile_qr_scan"}, "is_disabled": 0, "fusion_lat": 0.0, "name": "9de23bf638aedd79f8edd44453511d8f", "fusion_lon": 0.0}, {"is_reserved": 0, "type": "electric_bike", "bike_id": "7a20510a9ccbf0ad5f889cb5adbd4d09", "lat": 38.945423166666664, "lon": -77.34458783333334, "rental_uris": {"android": "https://dc.lft.to/lastmile_qr_scan", "ios": "https://dc.lft.to/lastmile_qr_scan"}, "is_disabled": 0, "fusion_lat": 0.0, "name": "7a20510a9ccbf0ad5f889cb5adbd4d09", "fusion_lon": 0.0}, {"is_reserved": 0, "type": "electric_scooter", "bike_id": "aec0b1a68e14011eb22e3c21a5c1eeae", "lat": 38.882824666666664, "lon": -76.99487133333334, "rental_uris": {"android": "https://dc.lft.to/lastmile_qr_scan", "ios": "https://dc.lft.to/lastmile_qr_scan"}, "is_disabled": 0, "fusion_lat": 0.0, "name": "aec0b1a68e14011eb22e3c21a5c1eeae", "fusion_lon": 0.0}, {"is_reserved": 0, "type": "electric_bike", "bike_id": "a1c5b13def9412433600d3c9a00aac6a", "lat": 38.81942183333334, "lon": -77.002023, "rental_uris": {"android": "https://dc.lft.to/lastmile_qr_scan", "ios": "https://dc.lft.to/lastmile_qr_scan"}, "is_disabled": 0, "fusion_lat": 0.0, "name": "a1c5b13def9412433600d3c9a00aac6a", "fusion_lon": 0.0}, {"is_reserved": 0, "type": "electric_scooter", "bike_id": "653a7a9d7affb1b472e373b52371090d", "lat": 38.912699, "lon": -77.0386575, "rental_uris": {"android": "https://dc.lft.to/lastmile_qr_scan", "ios": "https://dc.lft.to/lastmile_qr_scan"}, "is_disabled": 0, "fusion_lat": 0.0, "name": "653a7a9d7affb1b472e373b52371090d", "fusion_lon": 0.0}, {"is_reserved": 0, "type": "electric_scooter", "bike_id": "38dde86db44e31e11b73331d8227c720", "lat": 38.91116366666667, "lon": -77.03826816666667, "rental_uris": {"android": "https://dc.lft.to/lastmile_qr_scan", "ios": "https://dc.lft.to/lastmile_qr_scan"}, "is_disabled": 0, "fusion_lat": 0.0, "name": "38dde86db44e31e11b73331d8227c720", "fusion_lon": 0.0}, {"is_reserved": 0, "type": "electric_scooter", "bike_id": "9b94e3b36e810bfc3a74703ebb62fa99", "lat": 38.900357, "lon": -76.9876715, "rental_uris": {"android": "https://dc.lft.to/lastmile_qr_scan", "ios": "https://dc.lft.to/lastmile_qr_scan"}, "is_disabled": 0, "fusion_lat": 0.0, "name": "9b94e3b36e810bfc3a74703ebb62fa99", "fusion_lon": 0.0}, {"is_reserved": 0, "type": "electric_scooter", "bike_id": "572b4d9085b223d8f2cde47c11ab80c7", "lat": 38.917766, "lon": -77.023128, "rental_uris": {"android": "https://dc.lft.to/lastmile_qr_scan", "ios": "https://dc.lft.to/lastmile_qr_scan"}, "is_disabled": 0, "fusion_lat": 0.0, "name": "572b4d9085b223d8f2cde47c11ab80c7", "fusion_lon": 0.0}, {"is_reserved": 0, "type": "electric_scooter", "bike_id": "322bb78a4c558f87f876cafd8e238e05", "lat": 38.929399, "lon": -77.03773033333333, "rental_uris": {"android": "https://dc.lft.to/lastmile_qr_scan", "ios": "https://dc.lft.to/lastmile_qr_scan"}, "is_disabled": 0, "fusion_lat": 0.0, "name": "322bb78a4c558f87f876cafd8e238e05", "fusion_lon": 0.0}, {"is_reserved": 0, "type": "electric_scooter", "bike_id": "5d2c971b65af6970f3bde6201a996b94", "lat": 38.93484383333333, "lon": -77.03606366666666, "rental_uris": {"android": "https://dc.lft.to/lastmile_qr_scan", "ios": "https://dc.lft.to/lastmile_qr_scan"}, "is_disabled": 0, "fusion_lat": 0.0, "name": "5d2c971b65af6970f3bde6201a996b94", "fusion_lon": 0.0}, {"is_reserved": 0, "type": "electric_scooter", "bike_id": "1192e4ff303b1f39b0b88decde13364a", "lat": 38.92485683333334, "lon": -77.02725066666666, "rental_uris": {"android": "https://dc.lft.to/lastmile_qr_scan", "ios": "https://dc.lft.to/lastmile_qr_scan"}, "is_disabled": 0, "fusion_lat": 0.0, "name": "1192e4ff303b1f39b0b88decde13364a", "fusion_lon": 0.0}, {"is_reserved": 0, "type": "electric_scooter", "bike_id": "b33f6f58df2a173b160b3db81c104765", "lat": 38.90578466666667, "lon": -77.00591416666667, "rental_uris": {"android": "https://dc.lft.to/lastmile_qr_scan", "ios": "https://dc.lft.to/lastmile_qr_scan"}, "is_disabled": 0, "fusion_lat": 0.0, "name": "b33f6f58df2a173b160b3db81c104765", "fusion_lon": 0.0}, {"is_reserved": 0, "type": "electric_scooter", "bike_id": "99b1a2751abfd37bb0b5abde65b71df0", "lat": 38.887863833333334, "lon": -77.00337516666667, "rental_uris": {"android": "https://dc.lft.to/lastmile_qr_scan", "ios": "https://dc.lft.to/lastmile_qr_scan"}, "is_disabled": 0, "fusion_lat": 0.0, "name": "99b1a2751abfd37bb0b5abde65b71df0", "fusion_lon": 0.0}, {"is_reserved": 0, "type": "electric_scooter", "bike_id": "b3a2e77190d5068b6d540fe1ddf6f17b", "lat": 38.897029, "lon": -77.05025716666667, "rental_uris": {"android": "https://dc.lft.to/lastmile_qr_scan", "ios": "https://dc.lft.to/lastmile_qr_scan"}, "is_disabled": 0, "fusion_lat": 0.0, "name": "b3a2e77190d5068b6d540fe1ddf6f17b", "fusion_lon": 0.0}, {"is_reserved": 0, "type": "electric_scooter", "bike_id": "bd652286c3a2c29dbd13465115c2b902", "lat": 38.8989315, "lon": -77.03320366666667, "rental_uris": {"android": "https://dc.lft.to/lastmile_qr_scan", "ios": "https://dc.lft.to/lastmile_qr_scan"}, "is_disabled": 0, "fusion_lat": 0.0, "name": "bd652286c3a2c29dbd13465115c2b902", "fusion_lon": 0.0}, {"is_reserved": 0, "type": "electric_scooter", "bike_id": "054832266ac0db9854d4bb9d8c950df4", "lat": 38.9212755, "lon": -77.03206683333333, "rental_uris": {"android": "https://dc.lft.to/lastmile_qr_scan", "ios": "https://dc.lft.to/lastmile_qr_scan"}, "is_disabled": 0, "fusion_lat": 0.0, "name": "054832266ac0db9854d4bb9d8c950df4", "fusion_lon": 0.0}, {"is_reserved": 0, "type": "electric_scooter", "bike_id": "57314e6f3671f9dc7eb800f141936ffb", "lat": 38.92161633333333, "lon": -77.03387366666666, "rental_uris": {"android": "https://dc.lft.to/lastmile_qr_scan", "ios": "https://dc.lft.to/lastmile_qr_scan"}, "is_disabled": 0, "fusion_lat": 0.0, "name": "57314e6f3671f9dc7eb800f141936ffb", "fusion_lon": 0.0}, {"is_reserved": 0, "type": "electric_scooter", "bike_id": "7244bfed679fedbd347c59e7f4e70b7f", "lat": 38.88016416666667, "lon": -76.997467, "rental_uris": {"android": "https://dc.lft.to/lastmile_qr_scan", "ios": "https://dc.lft.to/lastmile_qr_scan"}, "is_disabled": 0, "fusion_lat": 0.0, "name": "7244bfed679fedbd347c59e7f4e70b7f", "fusion_lon": 0.0}, {"is_reserved": 0, "type": "electric_scooter", "bike_id": "f57ff80c4cdc794c6950db4b01214d8d", "lat": 38.914701666666666, "lon": -77.00208466666666, "rental_uris": {"android": "https://dc.lft.to/lastmile_qr_scan", "ios": "https://dc.lft.to/lastmile_qr_scan"}, "is_disabled": 0, "fusion_lat": 0.0, "name": "f57ff80c4cdc794c6950db4b01214d8d", "fusion_lon": 0.0}, {"is_reserved": 0, "type": "electric_bike", "bike_id": "247f1f183fced93b9b1ce3bb3b2c2249", "lat": 38.912262166666665, "lon": -77.06597433333333, "rental_uris": {"android": "https://dc.lft.to/lastmile_qr_scan", "ios": "https://dc.lft.to/lastmile_qr_scan"}, "is_disabled": 0, "fusion_lat": 0.0, "name": "247f1f183fced93b9b1ce3bb3b2c2249", "fusion_lon": 0.0}, {"is_reserved": 0, "type": "electric_scooter", "bike_id": "c5eae2eff093cd3768f611b2a12cfb65", "lat": 38.892238666666664, "lon": -77.02228983333333, "rental_uris": {"android": "https://dc.lft.to/lastmile_qr_scan", "ios": "https://dc.lft.to/lastmile_qr_scan"}, "is_disabled": 0, "fusion_lat": 0.0, "name": "c5eae2eff093cd3768f611b2a12cfb65", "fusion_lon": 0.0}, {"is_reserved": 0, "type": "electric_scooter", "bike_id": "725d5594f7e7c0b28f4c1d8b369139b2", "lat": 38.9073355, "lon": -77.04508, "rental_uris": {"android": "https://dc.lft.to/lastmile_qr_scan", "ios": "https://dc.lft.to/lastmile_qr_scan"}, "is_disabled": 0, "fusion_lat": 0.0, "name": "725d5594f7e7c0b28f4c1d8b369139b2", "fusion_lon": 0.0}, {"is_reserved": 0, "type": "electric_scooter", "bike_id": "84ff94ddb570525ef78d88a8b5de64e5", "lat": 38.898732, "lon": -77.019835, "rental_uris": {"android": "https://dc.lft.to/lastmile_qr_scan", "ios": "https://dc.lft.to/lastmile_qr_scan"}, "is_disabled": 0, "fusion_lat": 0.0, "name": "84ff94ddb570525ef78d88a8b5de64e5", "fusion_lon": 0.0}, {"is_reserved": 0, "type": "electric_scooter", "bike_id": "79f5e72cb61e80a25a6477a70478ecec", "lat": 38.90719266666667, "lon": -77.047506, "rental_uris": {"android": "https://dc.lft.to/lastmile_qr_scan", "ios": "https://dc.lft.to/lastmile_qr_scan"}, "is_disabled": 0, "fusion_lat": 0.0, "name": "79f5e72cb61e80a25a6477a70478ecec", "fusion_lon": 0.0}, {"is_reserved": 0, "type": "electric_scooter", "bike_id": "c57bf9549809e909a3fb1e92527a0438", "lat": 38.92917033333333, "lon": -77.02192483333333, "rental_uris": {"android": "https://dc.lft.to/lastmile_qr_scan", "ios": "https://dc.lft.to/lastmile_qr_scan"}, "is_disabled": 0, "fusion_lat": 0.0, "name": "c57bf9549809e909a3fb1e92527a0438", "fusion_lon": 0.0}, {"is_reserved": 0, "type": "electric_scooter", "bike_id": "2001a9e27d65c0372820a9c03b4eebd0", "lat": 38.8899805, "lon": -77.00156416666667, "rental_uris": {"android": "https://dc.lft.to/lastmile_qr_scan", "ios": "https://dc.lft.to/lastmile_qr_scan"}, "is_disabled": 0, "fusion_lat": 0.0, "name": "2001a9e27d65c0372820a9c03b4eebd0", "fusion_lon": 0.0}, {"is_reserved": 0, "type": "electric_scooter", "bike_id": "08e5455113ec2ab02d7e46b5b125d7ec", "lat": 38.918198833333335, "lon": -77.03963183333333, "rental_uris": {"android": "https://dc.lft.to/lastmile_qr_scan", "ios": "https://dc.lft.to/lastmile_qr_scan"}, "is_disabled": 0, "fusion_lat": 0.0, "name": "08e5455113ec2ab02d7e46b5b125d7ec", "fusion_lon": 0.0}, {"is_reserved": 0, "type": "electric_bike", "bike_id": "fa0a2ac9d24dd09537beddb5cf8e189b", "lat": 38.875034666666664, "lon": -77.13688383333333, "rental_uris": {"android": "https://dc.lft.to/lastmile_qr_scan", "ios": "https://dc.lft.to/lastmile_qr_scan"}, "is_disabled": 0, "fusion_lat": 0.0, "name": "fa0a2ac9d24dd09537beddb5cf8e189b", "fusion_lon": 0.0}, {"is_reserved": 0, "type": "electric_scooter", "bike_id": "2ea2e1bdc17256c70c26d80354d1cd8f", "lat": 38.9245055, "lon": -77.04027016666667, "rental_uris": {"android": "https://dc.lft.to/lastmile_qr_scan", "ios": "https://dc.lft.to/lastmile_qr_scan"}, "is_disabled": 0, "fusion_lat": 0.0, "name": "2ea2e1bdc17256c70c26d80354d1cd8f", "fusion_lon": 0.0}, {"is_reserved": 0, "type": "electric_bike", "bike_id": "ddfc7635913f5c5cdef062eaf5c79fde", "lat": 38.912538833333336, "lon": -77.04659483333333, "rental_uris": {"android": "https://dc.lft.to/lastmile_qr_scan", "ios": "https://dc.lft.to/lastmile_qr_scan"}, "is_disabled": 0, "fusion_lat": 0.0, "name": "ddfc7635913f5c5cdef062eaf5c79fde", "fusion_lon": 0.0}, {"is_reserved": 0, "type": "electric_scooter", "bike_id": "b76a8ea07edf8fa4b3eca2e3e67a7487", "lat": 38.90071566666667, "lon": -77.04537233333333, "rental_uris": {"android": "https://dc.lft.to/lastmile_qr_scan", "ios": "https://dc.lft.to/lastmile_qr_scan"}, "is_disabled": 0, "fusion_lat": 0.0, "name": "b76a8ea07edf8fa4b3eca2e3e67a7487", "fusion_lon": 0.0}, {"is_reserved": 0, "type": "electric_scooter", "bike_id": "ae928a00e6e3292333e8a61533f35dee", "lat": 38.883812166666665, "lon": -77.04611283333334, "rental_uris": {"android": "https://dc.lft.to/lastmile_qr_scan", "ios": "https://dc.lft.to/lastmile_qr_scan"}, "is_disabled": 0, "fusion_lat": 0.0, "name": "ae928a00e6e3292333e8a61533f35dee", "fusion_lon": 0.0}, {"is_reserved": 0, "type": "electric_scooter", "bike_id": "e87cdf6eb3c73f47664af95ff5edc15b", "lat": 38.88772383333333, "lon": -76.93262066666666, "rental_uris": {"android": "https://dc.lft.to/lastmile_qr_scan", "ios": "https://dc.lft.to/lastmile_qr_scan"}, "is_disabled": 0, "fusion_lat": 0.0, "name": "e87cdf6eb3c73f47664af95ff5edc15b", "fusion_lon": 0.0}, {"is_reserved": 0, "type": "electric_bike", "bike_id": "edf1ec0b0a77d61764cc9da0d8499352", "lat": 38.92507633333334, "lon": -76.98227816666666, "rental_uris": {"android": "https://dc.lft.to/lastmile_qr_scan", "ios": "https://dc.lft.to/lastmile_qr_scan"}, "is_disabled": 0, "fusion_lat": 0.0, "name": "edf1ec0b0a77d61764cc9da0d8499352", "fusion_lon": 0.0}, {"is_reserved": 0, "type": "electric_scooter", "bike_id": "bde5a9752a0152b4674719854f545857", "lat": 38.919157166666665, "lon": -77.00991116666667, "rental_uris": {"android": "https://dc.lft.to/lastmile_qr_scan", "ios": "https://dc.lft.to/lastmile_qr_scan"}, "is_disabled": 0, "fusion_lat": 0.0, "name": "bde5a9752a0152b4674719854f545857", "fusion_lon": 0.0}, {"is_reserved": 0, "type": "electric_scooter", "bike_id": "3e487d7ef23e5acc22372502bc8ae9db", "lat": 38.905789666666664, "lon": -77.0185405, "rental_uris": {"android": "https://dc.lft.to/lastmile_qr_scan", "ios": "https://dc.lft.to/lastmile_qr_scan"}, "is_disabled": 0, "fusion_lat": 0.0, "name": "3e487d7ef23e5acc22372502bc8ae9db", "fusion_lon": 0.0}, {"is_reserved": 0, "type": "electric_scooter", "bike_id": "9f76ca58b12a4dbf8fb01c51c818a1eb", "lat": 38.9126955, "lon": -77.0184115, "rental_uris": {"android": "https://dc.lft.to/lastmile_qr_scan", "ios": "https://dc.lft.to/lastmile_qr_scan"}, "is_disabled": 0, "fusion_lat": 0.0, "name": "9f76ca58b12a4dbf8fb01c51c818a1eb", "fusion_lon": 0.0}, {"is_reserved": 0, "type": "electric_scooter", "bike_id": "2e9f0e796a27fbd629ebc769634e3790", "lat": 38.8909105, "lon": -76.999378, "rental_uris": {"android": "https://dc.lft.to/lastmile_qr_scan", "ios": "https://dc.lft.to/lastmile_qr_scan"}, "is_disabled": 0, "fusion_lat": 0.0, "name": "2e9f0e796a27fbd629ebc769634e3790", "fusion_lon": 0.0}, {"is_reserved": 0, "type": "electric_scooter", "bike_id": "768c54a3eeeb873574db35dd8a59bb32", "lat": 38.89221716666667, "lon": -77.0242545, "rental_uris": {"android": "https://dc.lft.to/lastmile_qr_scan", "ios": "https://dc.lft.to/lastmile_qr_scan"}, "is_disabled": 0, "fusion_lat": 0.0, "name": "768c54a3eeeb873574db35dd8a59bb32", "fusion_lon": 0.0}, {"is_reserved": 0, "type": "electric_bike", "bike_id": "2c566796cb1b713111604ab721393d5c", "lat": 38.86759633333333, "lon": -76.94531933333333, "rental_uris": {"android": "https://dc.lft.to/lastmile_qr_scan", "ios": "https://dc.lft.to/lastmile_qr_scan"}, "is_disabled": 0, "fusion_lat": 0.0, "name": "2c566796cb1b713111604ab721393d5c", "fusion_lon": 0.0}, {"is_reserved": 0, "type": "electric_scooter", "bike_id": "c717057a6c5316fd638693c18ee6d52f", "lat": 38.8812195, "lon": -77.019749, "rental_uris": {"android": "https://dc.lft.to/lastmile_qr_scan", "ios": "https://dc.lft.to/lastmile_qr_scan"}, "is_disabled": 0, "fusion_lat": 0.0, "name": "c717057a6c5316fd638693c18ee6d52f", "fusion_lon": 0.0}, {"is_reserved": 0, "type": "electric_scooter", "bike_id": "f0fce00e7299c5322b5af65f7a2618e8", "lat": 38.930244, "lon": -77.03789666666667, "rental_uris": {"android": "https://dc.lft.to/lastmile_qr_scan", "ios": "https://dc.lft.to/lastmile_qr_scan"}, "is_disabled": 0, "fusion_lat": 0.0, "name": "f0fce00e7299c5322b5af65f7a2618e8", "fusion_lon": 0.0}, {"is_reserved": 0, "type": "electric_scooter", "bike_id": "a0a8c28f90ce17b84a0ab6385cf3705f", "lat": 38.914123333333336, "lon": -77.02726616666666, "rental_uris": {"android": "https://dc.lft.to/lastmile_qr_scan", "ios": "https://dc.lft.to/lastmile_qr_scan"}, "is_disabled": 0, "fusion_lat": 0.0, "name": "a0a8c28f90ce17b84a0ab6385cf3705f", "fusion_lon": 0.0}, {"is_reserved": 0, "type": "electric_scooter", "bike_id": "0928a58854bd434f5410a0ab4085833d", "lat": 38.950948, "lon": -77.02536816666667, "rental_uris": {"android": "https://dc.lft.to/lastmile_qr_scan", "ios": "https://dc.lft.to/lastmile_qr_scan"}, "is_disabled": 0, "fusion_lat": 0.0, "name": "0928a58854bd434f5410a0ab4085833d", "fusion_lon": 0.0}, {"is_reserved": 0, "type": "electric_scooter", "bike_id": "08b4d620da74ae7d9cf54e8493d29bac", "lat": 38.934682, "lon": -77.027682, "rental_uris": {"android": "https://dc.lft.to/lastmile_qr_scan", "ios": "https://dc.lft.to/lastmile_qr_scan"}, "is_disabled": 0, "fusion_lat": 0.0, "name": "08b4d620da74ae7d9cf54e8493d29bac", "fusion_lon": 0.0}, {"is_reserved": 0, "type": "electric_scooter", "bike_id": "5e1aafb0f8a6cc34473cabc66f75b34f", "lat": 38.90737016666667, "lon": -77.02944083333334, "rental_uris": {"android": "https://dc.lft.to/lastmile_qr_scan", "ios": "https://dc.lft.to/lastmile_qr_scan"}, "is_disabled": 0, "fusion_lat": 0.0, "name": "5e1aafb0f8a6cc34473cabc66f75b34f", "fusion_lon": 0.0}, {"is_reserved": 0, "type": "electric_scooter", "bike_id": "657c3b4a22775bac9a165344c00ea32a", "lat": 38.91569366666667, "lon": -77.02970566666667, "rental_uris": {"android": "https://dc.lft.to/lastmile_qr_scan", "ios": "https://dc.lft.to/lastmile_qr_scan"}, "is_disabled": 0, "fusion_lat": 0.0, "name": "657c3b4a22775bac9a165344c00ea32a", "fusion_lon": 0.0}, {"is_reserved": 0, "type": "electric_scooter", "bike_id": "a88e89de70360a82f1bcd49b3220061e", "lat": 38.89785783333333, "lon": -77.02701816666666, "rental_uris": {"android": "https://dc.lft.to/lastmile_qr_scan", "ios": "https://dc.lft.to/lastmile_qr_scan"}, "is_disabled": 0, "fusion_lat": 0.0, "name": "a88e89de70360a82f1bcd49b3220061e", "fusion_lon": 0.0}, {"is_reserved": 0, "type": "electric_scooter", "bike_id": "caaebcf87fff7d88f2bf783fb50f4e1b", "lat": 38.89730516666667, "lon": -77.02166983333333, "rental_uris": {"android": "https://dc.lft.to/lastmile_qr_scan", "ios": "https://dc.lft.to/lastmile_qr_scan"}, "is_disabled": 0, "fusion_lat": 0.0, "name": "caaebcf87fff7d88f2bf783fb50f4e1b", "fusion_lon": 0.0}, {"is_reserved": 0, "type": "electric_scooter", "bike_id": "454a0f2d54886e6bab816de06438e2b3", "lat": 38.9258705, "lon": -77.029354, "rental_uris": {"android": "https://dc.lft.to/lastmile_qr_scan", "ios": "https://dc.lft.to/lastmile_qr_scan"}, "is_disabled": 0, "fusion_lat": 0.0, "name": "454a0f2d54886e6bab816de06438e2b3", "fusion_lon": 0.0}, {"is_reserved": 0, "type": "electric_bike", "bike_id": "c9ab1cedf106727a7d343ab884ce7b8b", "lat": 38.91194866666667, "lon": -77.00453066666667, "rental_uris": {"android": "https://dc.lft.to/lastmile_qr_scan", "ios": "https://dc.lft.to/lastmile_qr_scan"}, "is_disabled": 0, "fusion_lat": 0.0, "name": "c9ab1cedf106727a7d343ab884ce7b8b", "fusion_lon": 0.0}, {"is_reserved": 0, "type": "electric_scooter", "bike_id": "a5b5a2143deedee6753f92adb9e9c460", "lat": 38.90537966666667, "lon": -76.988307, "rental_uris": {"android": "https://dc.lft.to/lastmile_qr_scan", "ios": "https://dc.lft.to/lastmile_qr_scan"}, "is_disabled": 0, "fusion_lat": 0.0, "name": "a5b5a2143deedee6753f92adb9e9c460", "fusion_lon": 0.0}, {"is_reserved": 0, "type": "electric_scooter", "bike_id": "bde181df6020c141764703c267f46096", "lat": 38.91817266666666, "lon": -77.04521016666666, "rental_uris": {"android": "https://dc.lft.to/lastmile_qr_scan", "ios": "https://dc.lft.to/lastmile_qr_scan"}, "is_disabled": 0, "fusion_lat": 0.0, "name": "bde181df6020c141764703c267f46096", "fusion_lon": 0.0}, {"is_reserved": 0, "type": "electric_scooter", "bike_id": "22cb2ce5d3dd2642b4110e3474ddcddd", "lat": 38.89959916666667, "lon": -77.02643066666667, "rental_uris": {"android": "https://dc.lft.to/lastmile_qr_scan", "ios": "https://dc.lft.to/lastmile_qr_scan"}, "is_disabled": 0, "fusion_lat": 0.0, "name": "22cb2ce5d3dd2642b4110e3474ddcddd", "fusion_lon": 0.0}, {"is_reserved": 0, "type": "electric_scooter", "bike_id": "cb19cb2f22789179e1a5c418629ef352", "lat": 38.9225065, "lon": -77.027263, "rental_uris": {"android": "https://dc.lft.to/lastmile_qr_scan", "ios": "https://dc.lft.to/lastmile_qr_scan"}, "is_disabled": 0, "fusion_lat": 0.0, "name": "cb19cb2f22789179e1a5c418629ef352", "fusion_lon": 0.0}, {"is_reserved": 0, "type": "electric_scooter", "bike_id": "3e68416ea32dce791201984166f6aef5", "lat": 38.915213666666666, "lon": -77.00340183333333, "rental_uris": {"android": "https://dc.lft.to/lastmile_qr_scan", "ios": "https://dc.lft.to/lastmile_qr_scan"}, "is_disabled": 0, "fusion_lat": 0.0, "name": "3e68416ea32dce791201984166f6aef5", "fusion_lon": 0.0}, {"is_reserved": 0, "type": "electric_scooter", "bike_id": "937daa3c1d7098f2e7f7fbbdd7041f6e", "lat": 38.9209395, "lon": -77.022132, "rental_uris": {"android": "https://dc.lft.to/lastmile_qr_scan", "ios": "https://dc.lft.to/lastmile_qr_scan"}, "is_disabled": 0, "fusion_lat": 0.0, "name": "937daa3c1d7098f2e7f7fbbdd7041f6e", "fusion_lon": 0.0}, {"is_reserved": 0, "type": "electric_bike", "bike_id": "ac4df1bef3d3aaa9cd04e344068e88d1", "lat": 38.909853166666664, "lon": -76.98520416666666, "rental_uris": {"android": "https://dc.lft.to/lastmile_qr_scan", "ios": "https://dc.lft.to/lastmile_qr_scan"}, "is_disabled": 0, "fusion_lat": 0.0, "name": "ac4df1bef3d3aaa9cd04e344068e88d1", "fusion_lon": 0.0}, {"is_reserved": 0, "type": "electric_scooter", "bike_id": "b71d4fd76035dd569acec09e58aa55b6", "lat": 38.8960235, "lon": -76.9298785, "rental_uris": {"android": "https://dc.lft.to/lastmile_qr_scan", "ios": "https://dc.lft.to/lastmile_qr_scan"}, "is_disabled": 0, "fusion_lat": 0.0, "name": "b71d4fd76035dd569acec09e58aa55b6", "fusion_lon": 0.0}, {"is_reserved": 0, "type": "electric_bike", "bike_id": "c305e67029f3d89e0bd51cdf349ab541", "lat": 38.8243385, "lon": -77.12038, "rental_uris": {"android": "https://dc.lft.to/lastmile_qr_scan", "ios": "https://dc.lft.to/lastmile_qr_scan"}, "is_disabled": 0, "fusion_lat": 0.0, "name": "c305e67029f3d89e0bd51cdf349ab541", "fusion_lon": 0.0}, {"is_reserved": 0, "type": "electric_scooter", "bike_id": "b178b7963c51ebfd37fb5f08839fda61", "lat": 38.920228333333334, "lon": -77.0204815, "rental_uris": {"android": "https://dc.lft.to/lastmile_qr_scan", "ios": "https://dc.lft.to/lastmile_qr_scan"}, "is_disabled": 0, "fusion_lat": 0.0, "name": "b178b7963c51ebfd37fb5f08839fda61", "fusion_lon": 0.0}, {"is_reserved": 0, "type": "electric_scooter", "bike_id": "b09b8508433f29135b40e5f125bd5b6e", "lat": 38.892317166666665, "lon": -77.04686716666667, "rental_uris": {"android": "https://dc.lft.to/lastmile_qr_scan", "ios": "https://dc.lft.to/lastmile_qr_scan"}, "is_disabled": 0, "fusion_lat": 0.0, "name": "b09b8508433f29135b40e5f125bd5b6e", "fusion_lon": 0.0},