{"data": {"bikes": [{"bike_id": "0bb79be7312388c85ca295423274b81a", "is_reserved": 0, "fusion_lon": 0.0, "lat": 38.92242816666667, "is_disabled": 0, "name": "0bb79be7312388c85ca295423274b81a", "fusion_lat": 0.0, "rental_uris": {"ios": "https://dc.lft.to/lastmile_qr_scan", "android": "https://dc.lft.to/lastmile_qr_scan"}, "lon": -77.03662483333333, "type": "electric_scooter"}, {"bike_id": "4c5ef43973d079b5c5c97c64915fd9ae", "is_reserved": 0, "fusion_lon": 0.0, "lat": 38.95909616666667, "is_disabled": 0, "name": "4c5ef43973d079b5c5c97c64915fd9ae", "fusion_lat": 0.0, "rental_uris": {"ios": "https://dc.lft.to/lastmile_qr_scan", "android": "https://dc.lft.to/lastmile_qr_scan"}, "lon": -77.001522, "type": "electric_bike"}, {"bike_id": "19f7fbf7a706b70c911277a1543595cf", "is_reserved": 0, "fusion_lon": 0.0, "lat": 38.936688833333335, "is_disabled": 0, "name": "19f7fbf7a706b70c911277a1543595cf", "fusion_lat": 0.0, "rental_uris": {"ios": "https://dc.lft.to/lastmile_qr_scan", "android": "https://dc.lft.to/lastmile_qr_scan"}, "lon": -77.03634583333333, "type": "electric_scooter"}, {"bike_id": "60b3bd5cbed4bb3b1fd3b5d1613963a4", "is_reserved": 0, "fusion_lon": 0.0, "lat": 38.90371566666666, "is_disabled": 0, "name": "60b3bd5cbed4bb3b1fd3b5d1613963a4", "fusion_lat": 0.0, "rental_uris": {"ios": "https://dc.lft.to/lastmile_qr_scan", "android": "https://dc.lft.to/lastmile_qr_scan"}, "lon": -77.039866, "type": "electric_scooter"}, {"bike_id": "7a9e01c80ecaf76a0cb9b7d10d490970", "is_reserved": 0, "fusion_lon": 0.0, "lat": 38.88737883333334, "is_disabled": 0, "name": "7a9e01c80ecaf76a0cb9b7d10d490970", "fusion_lat": 0.0, "rental_uris": {"ios": "https://dc.lft.to/lastmile_qr_scan", "android": "https://dc.lft.to/lastmile_qr_scan"}, "lon": -77.01530266666667, "type": "electric_scooter"}, {"bike_id": "2f866e46944a400713b18496cf92edfb", "is_reserved": 0, "fusion_lon": 0.0, "lat": 38.897846333333334, "is_disabled": 0, "name": "2f866e46944a400713b18496cf92edfb", "fusion_lat": 0.0, "rental_uris": {"ios": "https://dc.lft.to/lastmile_qr_scan", "android": "https://dc.lft.to/lastmile_qr_scan"}, "lon": -77.00738833333334, "type": "electric_scooter"}, {"bike_id": "5aed4614ac44fdfafe9cd4a6ff94e06b", "is_reserved": 0, "fusion_lon": 0.0, "lat": 38.874582, "is_disabled": 0, "name": "5aed4614ac44fdfafe9cd4a6ff94e06b", "fusion_lat": 0.0, "rental_uris": {"ios": "https://dc.lft.to/lastmile_qr_scan", "android": "https://dc.lft.to/lastmile_qr_scan"}, "lon": -77.005414, "type": "electric_scooter"}, {"bike_id": "8b8ee0fdd9058acf9cbc6d960923df77", "is_reserved": 0, "fusion_lon": 0.0, "lat": 38.90610516666667, "is_disabled": 0, "name": "8b8ee0fdd9058acf9cbc6d960923df77", "fusion_lat": 0.0, "rental_uris": {"ios": "https://dc.lft.to/lastmile_qr_scan", "android": "https://dc.lft.to/lastmile_qr_scan"}, "lon": -77.039593, "type": "electric_scooter"}, {"bike_id": "d37db76a022a0c161707ef6a703ca731", "is_reserved": 0, "fusion_lon": 0.0, "lat": 38.923182, "is_disabled": 0, "name": "d37db76a022a0c161707ef6a703ca731", "fusion_lat": 0.0, "rental_uris": {"ios": "https://dc.lft.to/lastmile_qr_scan", "android": "https://dc.lft.to/lastmile_qr_scan"}, "lon": -77.03668, "type": "electric_scooter"}, {"bike_id": "0b383e07f5c762945494c3b85d2cdcca", "is_reserved": 0, "fusion_lon": 0.0, "lat": 38.903245, "is_disabled": 0, "name": "0b383e07f5c762945494c3b85d2cdcca", "fusion_lat": 0.0, "rental_uris": {"ios": "https://dc.lft.to/lastmile_qr_scan", "android": "https://dc.lft.to/lastmile_qr_scan"}, "lon": -77.037859, "type": "electric_scooter"}, {"bike_id": "eb2afd5fd55155aed9dac98d918bab87", "is_reserved": 0, "fusion_lon": 0.0, "lat": 38.9389565, "is_disabled": 0, "name": "eb2afd5fd55155aed9dac98d918bab87", "fusion_lat": 0.0, "rental_uris": {"ios": "https://dc.lft.to/lastmile_qr_scan", "android": "https://dc.lft.to/lastmile_qr_scan"}, "lon": -77.03314316666666, "type": "electric_scooter"}, {"bike_id": "c1b60cf450918877c8503e1745c6a4ed", "is_reserved": 0, "fusion_lon": 0.0, "lat": 38.92148383333333, "is_disabled": 0, "name": "c1b60cf450918877c8503e1745c6a4ed", "fusion_lat": 0.0, "rental_uris": {"ios": "https://dc.lft.to/lastmile_qr_scan", "android": "https://dc.lft.to/lastmile_qr_scan"}, "lon": -77.03528616666667, "type": "electric_scooter"}, {"bike_id": "81d0ce64a6b677ac5545f043a255933b", "is_reserved": 0, "fusion_lon": 0.0, "lat": 38.88502783333333, "is_disabled": 0, "name": "81d0ce64a6b677ac5545f043a255933b", "fusion_lat": 0.0, "rental_uris": {"ios": "https://dc.lft.to/lastmile_qr_scan", "android": "https://dc.lft.to/lastmile_qr_scan"}, "lon": -77.00564833333334, "type": "electric_scooter"}, {"bike_id": "c681df3104994395e132c25e69a67223", "is_reserved": 0, "fusion_lon": 0.0, "lat": 38.92883416666667, "is_disabled": 0, "name": "c681df3104994395e132c25e69a67223", "fusion_lat": 0.0, "rental_uris": {"ios": "https://dc.lft.to/lastmile_qr_scan", "android": "https://dc.lft.to/lastmile_qr_scan"}, "lon": -77.037608, "type": "electric_scooter"}, {"bike_id": "d72a2b0549e273a547868d2679d9600f", "is_reserved": 0, "fusion_lon": 0.0, "lat": 38.90972083333333, "is_disabled": 0, "name": "d72a2b0549e273a547868d2679d9600f", "fusion_lat": 0.0, "rental_uris": {"ios": "https://dc.lft.to/lastmile_qr_scan", "android": "https://dc.lft.to/lastmile_qr_scan"}, "lon": -77.02722466666667, "type": "electric_scooter"}, {"bike_id": "6d8011bffbc116e46887cdf3225f89cc", "is_reserved": 0, "fusion_lon": 0.0, "lat": 38.9203575, "is_disabled": 0, "name": "6d8011bffbc116e46887cdf3225f89cc", "fusion_lat": 0.0, "rental_uris": {"ios": "https://dc.lft.to/lastmile_qr_scan", "android": "https://dc.lft.to/lastmile_qr_scan"}, "lon": -76.979014, "type": "electric_scooter"}, {"bike_id": "0cfe8b28d232aa3ecf84ad5499ff7116", "is_reserved": 0, "fusion_lon": 0.0, "lat": 38.91843216666667, "is_disabled": 0, "name": "0cfe8b28d232aa3ecf84ad5499ff7116", "fusion_lat": 0.0, "rental_uris": {"ios": "https://dc.lft.to/lastmile_qr_scan", "android": "https://dc.lft.to/lastmile_qr_scan"}, "lon": -77.0229625, "type": "electric_scooter"}, {"bike_id": "c8a772614396179bb7639a97f6080675", "is_reserved": 0, "fusion_lon": 0.0, "lat": 38.91609833333333, "is_disabled": 0, "name": "c8a772614396179bb7639a97f6080675", "fusion_lat": 0.0, "rental_uris": {"ios": "https://dc.lft.to/lastmile_qr_scan", "android": "https://dc.lft.to/lastmile_qr_scan"}, "lon": -77.04343233333333, "type": "electric_scooter"}, {"bike_id": "892e41c80bc602823692cd45f028e8c4", "is_reserved": 0, "fusion_lon": 0.0, "lat": 38.92855733333333, "is_disabled": 0, "name": "892e41c80bc602823692cd45f028e8c4", "fusion_lat": 0.0, "rental_uris": {"ios": "https://dc.lft.to/lastmile_qr_scan", "android": "https://dc.lft.to/lastmile_qr_scan"}, "lon": -77.0359755, "type": "electric_scooter"}, {"bike_id": "b853ef21898a69a5555307df911552a7", "is_reserved": 0, "fusion_lon": 0.0, "lat": 38.905532666666666, "is_disabled": 0, "name": "b853ef21898a69a5555307df911552a7", "fusion_lat": 0.0, "rental_uris": {"ios": "https://dc.lft.to/lastmile_qr_scan", "android": "https://dc.lft.to/lastmile_qr_scan"}, "lon": -77.00573516666667, "type": "electric_scooter"}, {"bike_id": "417c41d055f8a1bdd6b035edfe30df0a", "is_reserved": 0, "fusion_lon": 0.0, "lat": 38.883339666666664, "is_disabled": 0, "name": "417c41d055f8a1bdd6b035edfe30df0a", "fusion_lat": 0.0, "rental_uris": {"ios": "https://dc.lft.to/lastmile_qr_scan", "android": "https://dc.lft.to/lastmile_qr_scan"}, "lon": -77.01749933333333, "type": "electric_scooter"}, {"bike_id": "c1ae44cbbf7ba3158052dafbab23ce13", "is_reserved": 0, "fusion_lon": 0.0, "lat": 38.918412333333336, "is_disabled": 0, "name": "c1ae44cbbf7ba3158052dafbab23ce13", "fusion_lat": 0.0, "rental_uris": {"ios": "https://dc.lft.to/lastmile_qr_scan", "android": "https://dc.lft.to/lastmile_qr_scan"}, "lon": -77.03897183333333, "type": "electric_scooter"}, {"bike_id": "896e461fda54691ebee4b098a2d4992d", "is_reserved": 0, "fusion_lon": 0.0, "lat": 38.916969333333334, "is_disabled": 0, "name": "896e461fda54691ebee4b098a2d4992d", "fusion_lat": 0.0, "rental_uris": {"ios": "https://dc.lft.to/lastmile_qr_scan", "android": "https://dc.lft.to/lastmile_qr_scan"}, "lon": -77.02287283333334, "type": "electric_scooter"}, {"bike_id": "2ced3ec8351a73ac67e1f5cd7314f8de", "is_reserved": 0, "fusion_lon": 0.0, "lat": 38.89745516666667, "is_disabled": 0, "name": "2ced3ec8351a73ac67e1f5cd7314f8de", "fusion_lat": 0.0, "rental_uris": {"ios": "https://dc.lft.to/lastmile_qr_scan", "android": "https://dc.lft.to/lastmile_qr_scan"}, "lon": -77.02673733333333, "type": "electric_scooter"}, {"bike_id": "31cd5fbb89aa29f9e232ea18db92b6d7", "is_reserved": 0, "fusion_lon": 0.0, "lat": 38.885029333333335, "is_disabled": 0, "name": "31cd5fbb89aa29f9e232ea18db92b6d7", "fusion_lat": 0.0, "rental_uris": {"ios": "https://dc.lft.to/lastmile_qr_scan", "android": "https://dc.lft.to/lastmile_qr_scan"}, "lon": -77.005708, "type": "electric_scooter"}, {"bike_id": "326a711e085df6eeabaaab8fddc446b2", "is_reserved": 0, "fusion_lon": 0.0, "lat": 38.934466666666665, "is_disabled": 0, "name": "326a711e085df6eeabaaab8fddc446b2", "fusion_lat": 0.0, "rental_uris": {"ios": "https://dc.lft.to/lastmile_qr_scan", "android": "https://dc.lft.to/lastmile_qr_scan"}, "lon": -77.02842416666667, "type": "electric_scooter"}, {"bike_id": "1cc9b97394b3636db2b19eb995125a0d", "is_reserved": 0, "fusion_lon": 0.0, "lat": 38.897854833333334, "is_disabled": 0, "name": "1cc9b97394b3636db2b19eb995125a0d", "fusion_lat": 0.0, "rental_uris": {"ios": "https://dc.lft.to/lastmile_qr_scan", "android": "https://dc.lft.to/lastmile_qr_scan"}, "lon": -76.90446833333333, "type": "electric_bike"}, {"bike_id": "5b45c9a3e3e88634bfa8880b00dfdee6", "is_reserved": 0, "fusion_lon": 0.0, "lat": 38.871734000000004, "is_disabled": 0, "name": "5b45c9a3e3e88634bfa8880b00dfdee6", "fusion_lat": 0.0, "rental_uris": {"ios": "https://dc.lft.to/lastmile_qr_scan", "android": "https://dc.lft.to/lastmile_qr_scan"}, "lon": -77.00623933333334, "type": "electric_scooter"}, {"bike_id": "3ce3047de5c100ac5d6c144f2d9837e3", "is_reserved": 0, "fusion_lon": 0.0, "lat": 38.92830566666667, "is_disabled": 0, "name": "3ce3047de5c100ac5d6c144f2d9837e3", "fusion_lat": 0.0, "rental_uris": {"ios": "https://dc.lft.to/lastmile_qr_scan", "android": "https://dc.lft.to/lastmile_qr_scan"}, "lon": -77.05503616666667, "type": "electric_scooter"}, {"bike_id": "31365d48eedcb32c5305b13f5b49fb92", "is_reserved": 0, "fusion_lon": 0.0, "lat": 38.86723766666667, "is_disabled": 0, "name": "31365d48eedcb32c5305b13f5b49fb92", "fusion_lat": 0.0, "rental_uris": {"ios": "https://dc.lft.to/lastmile_qr_scan", "android": "https://dc.lft.to/lastmile_qr_scan"}, "lon": -76.98785016666666, "type": "electric_scooter"}, {"bike_id": "b13f4e55814dbce1064812355df3ebc4", "is_reserved": 0, "fusion_lon": 0.0, "lat": 38.866275333333334, "is_disabled": 0, "name": "b13f4e55814dbce1064812355df3ebc4", "fusion_lat": 0.0, "rental_uris": {"ios": "https://dc.lft.to/lastmile_qr_scan", "android": "https://dc.lft.to/lastmile_qr_scan"}, "lon": -76.98715633333333, "type": "electric_scooter"}, {"bike_id": "3e5ee8402b7185a6068a82f3e8dfd407", "is_reserved": 0, "fusion_lon": 0.0, "lat": 38.88036433333333, "is_disabled": 0, "name": "3e5ee8402b7185a6068a82f3e8dfd407", "fusion_lat": 0.0, "rental_uris": {"ios": "https://dc.lft.to/lastmile_qr_scan", "android": "https://dc.lft.to/lastmile_qr_scan"}, "lon": -77.02512966666667, "type": "electric_scooter"}, {"bike_id": "ebff281579aa78537459f30f9feab4c4", "is_reserved": 0, "fusion_lon": 0.0, "lat": 38.89005133333333, "is_disabled": 0, "name": "ebff281579aa78537459f30f9feab4c4", "fusion_lat": 0.0, "rental_uris": {"ios": "https://dc.lft.to/lastmile_qr_scan", "android": "https://dc.lft.to/lastmile_qr_scan"}, "lon": -76.93742066666667, "type": "electric_scooter"}, {"bike_id": "51c72c8ad5a283e6e311f756a209a522", "is_reserved": 0, "fusion_lon": 0.0, "lat": 38.906623833333335, "is_disabled": 0, "name": "51c72c8ad5a283e6e311f756a209a522", "fusion_lat": 0.0, "rental_uris": {"ios": "https://dc.lft.to/lastmile_qr_scan", "android": "https://dc.lft.to/lastmile_qr_scan"}, "lon": -77.0270835, "type": "electric_scooter"}, {"bike_id": "35d67bdb7245340b7b5fd0a89cd8513e", "is_reserved": 0, "fusion_lon": 0.0, "lat": 38.970503, "is_disabled": 0, "name": "35d67bdb7245340b7b5fd0a89cd8513e", "fusion_lat": 0.0, "rental_uris": {"ios": "https://dc.lft.to/lastmile_qr_scan", "android": "https://dc.lft.to/lastmile_qr_scan"}, "lon": -76.93621583333334, "type": "electric_bike"}, {"bike_id": "76fade0d3df34d1b8270b8c51f499708", "is_reserved": 0, "fusion_lon": 0.0, "lat": 38.89479166666667, "is_disabled": 0, "name": "76fade0d3df34d1b8270b8c51f499708", "fusion_lat": 0.0, "rental_uris": {"ios": "https://dc.lft.to/lastmile_qr_scan", "android": "https://dc.lft.to/lastmile_qr_scan"}, "lon": -77.02298216666667, "type": "electric_scooter"}, {"bike_id": "1b4155893aa47ce9ed7d95e511889851", "is_reserved": 0, "fusion_lon": 0.0, "lat": 38.914165, "is_disabled": 0, "name": "1b4155893aa47ce9ed7d95e511889851", "fusion_lat": 0.0, "rental_uris": {"ios": "https://dc.lft.to/lastmile_qr_scan", "android": "https://dc.lft.to/lastmile_qr_scan"}, "lon": -77.03805666666666, "type": "electric_scooter"}, {"bike_id": "2ed42af325d3bcde6ae25917c45ab528", "is_reserved": 0, "fusion_lon": 0.0, "lat": 38.91677716666667, "is_disabled": 0, "name": "2ed42af325d3bcde6ae25917c45ab528", "fusion_lat": 0.0, "rental_uris": {"ios": "https://dc.lft.to/lastmile_qr_scan", "android": "https://dc.lft.to/lastmile_qr_scan"}, "lon": -77.029585, "type": "electric_scooter"}, {"bike_id": "0008ddfcb3d73b6f9a78ed10f866b92f", "is_reserved": 0, "fusion_lon": 0.0, "lat": 38.9015175, "is_disabled": 0, "name": "0008ddfcb3d73b6f9a78ed10f866b92f", "fusion_lat": 0.0, "rental_uris": {"ios": "https://dc.lft.to/lastmile_qr_scan", "android": "https://dc.lft.to/lastmile_qr_scan"}, "lon": -77.02856716666666, "type": "electric_scooter"}, {"bike_id": "f07382d4ab599eb0a15be293f7e6b9e8", "is_reserved": 0, "fusion_lon": 0.0, "lat": 38.93082966666667, "is_disabled": 0, "name": "f07382d4ab599eb0a15be293f7e6b9e8", "fusion_lat": 0.0, "rental_uris": {"ios": "https://dc.lft.to/lastmile_qr_scan", "android": "https://dc.lft.to/lastmile_qr_scan"}, "lon": -77.02795116666667, "type": "electric_scooter"}, {"bike_id": "5e235f3fbbfcfc2939792a0ac6b7d444", "is_reserved": 0, "fusion_lon": 0.0, "lat": 38.90279133333333, "is_disabled": 0, "name": "5e235f3fbbfcfc2939792a0ac6b7d444", "fusion_lat": 0.0, "rental_uris": {"ios": "https://dc.lft.to/lastmile_qr_scan", "android": "https://dc.lft.to/lastmile_qr_scan"}, "lon": -77.039645, "type": "electric_scooter"}, {"bike_id": "f14553ed44e3919dcfd1b825eb7dd065", "is_reserved": 0, "fusion_lon": 0.0, "lat": 38.866574166666666, "is_disabled": 0, "name": "f14553ed44e3919dcfd1b825eb7dd065", "fusion_lat": 0.0, "rental_uris": {"ios": "https://dc.lft.to/lastmile_qr_scan", "android": "https://dc.lft.to/lastmile_qr_scan"}, "lon": -76.99015866666667, "type": "electric_scooter"}, {"bike_id": "1943791ce4ab483af27d9937f6739eab", "is_reserved": 0, "fusion_lon": 0.0, "lat": 38.90032733333334, "is_disabled": 0, "name": "1943791ce4ab483af27d9937f6739eab", "fusion_lat": 0.0, "rental_uris": {"ios": "https://dc.lft.to/lastmile_qr_scan", "android": "https://dc.lft.to/lastmile_qr_scan"}, "lon": -77.05054783333334, "type": "electric_scooter"}, {"bike_id": "bf7337380e68da1bf567aefe525701d1", "is_reserved": 0, "fusion_lon": 0.0, "lat": 38.89821933333333, "is_disabled": 0, "name": "bf7337380e68da1bf567aefe525701d1", "fusion_lat": 0.0, "rental_uris": {"ios": "https://dc.lft.to/lastmile_qr_scan", "android": "https://dc.lft.to/lastmile_qr_scan"}, "lon": -76.94651066666667, "type": "electric_scooter"}, {"bike_id": "460a76c41b7fd3018063768f1ea0917f", "is_reserved": 0, "fusion_lon": 0.0, "lat": 38.90495716666667, "is_disabled": 0, "name": "460a76c41b7fd3018063768f1ea0917f", "fusion_lat": 0.0, "rental_uris": {"ios": "https://dc.lft.to/lastmile_qr_scan", "android": "https://dc.lft.to/lastmile_qr_scan"}, "lon": -77.05741666666667, "type": "electric_scooter"}, {"bike_id": "9f0361f88efdd7da5c63e634f4c996e3", "is_reserved": 0, "fusion_lon": 0.0, "lat": 38.8399165, "is_disabled": 0, "name": "9f0361f88efdd7da5c63e634f4c996e3", "fusion_lat": 0.0, "rental_uris": {"ios": "https://dc.lft.to/lastmile_qr_scan", "android": "https://dc.lft.to/lastmile_qr_scan"}, "lon": -77.005653, "type": "electric_bike"}, {"bike_id": "03bcbbcbf680f69556f92422b21c4445", "is_reserved": 0, "fusion_lon": 0.0, "lat": 38.914289, "is_disabled": 0, "name": "03bcbbcbf680f69556f92422b21c4445", "fusion_lat": 0.0, "rental_uris": {"ios": "https://dc.lft.to/lastmile_qr_scan", "android": "https://dc.lft.to/lastmile_qr_scan"}, "lon": -77.04156716666667, "type": "electric_scooter"}, {"bike_id": "7035f944878be74fad5cbea623a48250", "is_reserved": 0, "fusion_lon": 0.0, "lat": 38.881319833333336, "is_disabled": 0, "name": "7035f944878be74fad5cbea623a48250", "fusion_lat": 0.0, "rental_uris": {"ios": "https://dc.lft.to/lastmile_qr_scan", "android": "https://dc.lft.to/lastmile_qr_scan"}, "lon": -76.98093616666667, "type": "electric_bike"}, {"bike_id": "b66e8f60b9ff14bdd48879d6e6a0307b", "is_reserved": 0, "fusion_lon": 0.0, "lat": 38.900521, "is_disabled": 0, "name": "b66e8f60b9ff14bdd48879d6e6a0307b", "fusion_lat": 0.0, "rental_uris": {"ios": "https://dc.lft.to/lastmile_qr_scan", "android": "https://dc.lft.to/lastmile_qr_scan"}, "lon": -77.05138083333334, "type": "electric_scooter"}, {"bike_id": "355d0e87c5c979cba41ab9419c26848c", "is_reserved": 0, "fusion_lon": 0.0, "lat": 38.94084083333333, "is_disabled": 0, "name": "355d0e87c5c979cba41ab9419c26848c", "fusion_lat": 0.0, "rental_uris": {"ios": "https://dc.lft.to/lastmile_qr_scan", "android": "https://dc.lft.to/lastmile_qr_scan"}, "lon": -77.06190083333334, "type": "electric_scooter"}, {"bike_id": "de09a4f854ca33652fc943dd67e19656", "is_reserved": 0, "fusion_lon": 0.0, "lat": 38.916109, "is_disabled": 0, "name": "de09a4f854ca33652fc943dd67e19656", "fusion_lat": 0.0, "rental_uris": {"ios": "https://dc.lft.to/lastmile_qr_scan", "android": "https://dc.lft.to/lastmile_qr_scan"}, "lon": -77.0457975, "type": "electric_scooter"}, {"bike_id": "007b4f6446f4702ee40e7afba334e8ae", "is_reserved": 0, "fusion_lon": 0.0, "lat": 38.89733316666667, "is_disabled": 0, "name": "007b4f6446f4702ee40e7afba334e8ae", "fusion_lat": 0.0, "rental_uris": {"ios": "https://dc.lft.to/lastmile_qr_scan", "android": "https://dc.lft.to/lastmile_qr_scan"}, "lon": -77.04625866666666, "type": "electric_scooter"}, {"bike_id": "e1d1a82b40a4c61112c30066c6653546", "is_reserved": 0, "fusion_lon": 0.0, "lat": 38.89277116666667, "is_disabled": 0, "name": "e1d1a82b40a4c61112c30066c6653546", "fusion_lat": 0.0, "rental_uris": {"ios": "https://dc.lft.to/lastmile_qr_scan", "android": "https://dc.lft.to/lastmile_qr_scan"}, "lon": -77.02600966666667, "type": "electric_scooter"}, {"bike_id": "168d122e764d9922959b43653726998a", "is_reserved": 0, "fusion_lon": 0.0, "lat": 38.861994333333335, "is_disabled": 0, "name": "168d122e764d9922959b43653726998a", "fusion_lat": 0.0, "rental_uris": {"ios": "https://dc.lft.to/lastmile_qr_scan", "android": "https://dc.lft.to/lastmile_qr_scan"}, "lon": -76.99463616666667, "type": "electric_scooter"}, {"bike_id": "7d206f6e7fee556ba57922caf24b2bd4", "is_reserved": 0, "fusion_lon": 0.0, "lat": 38.86522216666667, "is_disabled": 0, "name": "7d206f6e7fee556ba57922caf24b2bd4", "fusion_lat": 0.0, "rental_uris": {"ios": "https://dc.lft.to/lastmile_qr_scan", "android": "https://dc.lft.to/lastmile_qr_scan"}, "lon": -76.9903055, "type": "electric_scooter"}, {"bike_id": "6b4c2707ee6440451fe349fb353d4583", "is_reserved": 0, "fusion_lon": 0.0, "lat": 38.90474116666667, "is_disabled": 0, "name": "6b4c2707ee6440451fe349fb353d4583", "fusion_lat": 0.0, "rental_uris": {"ios": "https://dc.lft.to/lastmile_qr_scan", "android": "https://dc.lft.to/lastmile_qr_scan"}, "lon": -77.0465145, "type": "electric_scooter"}, {"bike_id": "69608500cea17b42f1e68772cdc17ac7", "is_reserved": 0, "fusion_lon": 0.0, "lat": 38.9017885, "is_disabled": 0, "name": "69608500cea17b42f1e68772cdc17ac7", "fusion_lat": 0.0, "rental_uris": {"ios": "https://dc.lft.to/lastmile_qr_scan", "android": "https://dc.lft.to/lastmile_qr_scan"}, "lon": -77.02209083333334, "type": "electric_scooter"}, {"bike_id": "b1d91b2dd55d71e373753b628c290232", "is_reserved": 0, "fusion_lon": 0.0, "lat": 38.9138345, "is_disabled": 0, "name": "b1d91b2dd55d71e373753b628c290232", "fusion_lat": 0.0, "rental_uris": {"ios": "https://dc.lft.to/lastmile_qr_scan", "android": "https://dc.lft.to/lastmile_qr_scan"}, "lon": -77.01793233333333, "type": "electric_scooter"}, {"bike_id": "f50a8eec0c1dac32c5ebdc3ace286bf6", "is_reserved": 0, "fusion_lon": 0.0, "lat": 38.91406666666666, "is_disabled": 0, "name": "f50a8eec0c1dac32c5ebdc3ace286bf6", "fusion_lat": 0.0, "rental_uris": {"ios": "https://dc.lft.to/lastmile_qr_scan", "android": "https://dc.lft.to/lastmile_qr_scan"}, "lon": -77.04141516666667, "type": "electric_scooter"}, {"bike_id": "bd618d080c0856cb582ddae4c09b5949", "is_reserved": 0, "fusion_lon": 0.0, "lat": 38.90867766666667, "is_disabled": 0, "name": "bd618d080c0856cb582ddae4c09b5949", "fusion_lat": 0.0, "rental_uris": {"ios": "https://dc.lft.to/lastmile_qr_scan", "android": "https://dc.lft.to/lastmile_qr_scan"}, "lon": -77.00629016666667, "type": "electric_scooter"}, {"bike_id": "feb319832321a18f59f6123e8c67f0d6", "is_reserved": 0, "fusion_lon": 0.0, "lat": 38.91806666666667, "is_disabled": 0, "name": "feb319832321a18f59f6123e8c67f0d6", "fusion_lat": 0.0, "rental_uris": {"ios": "https://dc.lft.to/lastmile_qr_scan", "android": "https://dc.lft.to/lastmile_qr_scan"}, "lon": -77.034336, "type": "electric_scooter"}, {"bike_id": "2fb2e05f1c207cdfb1c2093c0ab16372", "is_reserved": 0, "fusion_lon": 0.0, "lat": 38.903037833333336, "is_disabled": 0, "name": "2fb2e05f1c207cdfb1c2093c0ab16372", "fusion_lat": 0.0, "rental_uris": {"ios": "https://dc.lft.to/lastmile_qr_scan", "android": "https://dc.lft.to/lastmile_qr_scan"}, "lon": -76.99835233333333, "type": "electric_bike"}, {"bike_id": "cb0ea8425632076bb016928e5f9f670e", "is_reserved": 0, "fusion_lon": 0.0, "lat": 38.917746, "is_disabled": 0, "name": "cb0ea8425632076bb016928e5f9f670e", "fusion_lat": 0.0, "rental_uris": {"ios": "https://dc.lft.to/lastmile_qr_scan", "android": "https://dc.lft.to/lastmile_qr_scan"}, "lon": -77.0405565, "type": "electric_scooter"}, {"bike_id": "a8e6e491ded39a16b2d9c700cb4e4aad", "is_reserved": 0, "fusion_lon": 0.0, "lat": 38.842927333333336, "is_disabled": 0, "name": "a8e6e491ded39a16b2d9c700cb4e4aad", "fusion_lat": 0.0, "rental_uris": {"ios": "https://dc.lft.to/lastmile_qr_scan", "android": "https://dc.lft.to/lastmile_qr_scan"}, "lon": -76.99948133333334, "type": "electric_scooter"}, {"bike_id": "1af160d1723a52dd16a7f3f12e426729", "is_reserved": 0, "fusion_lon": 0.0, "lat": 38.92414866666667, "is_disabled": 0, "name": "1af160d1723a52dd16a7f3f12e426729", "fusion_lat": 0.0, "rental_uris": {"ios": "https://dc.lft.to/lastmile_qr_scan", "android": "https://dc.lft.to/lastmile_qr_scan"}, "lon": -76.99735916666667, "type": "electric_bike"}, {"bike_id": "58225b5fc6900897c18c7597442baa03", "is_reserved": 0, "fusion_lon": 0.0, "lat": 38.936745333333334, "is_disabled": 0, "name": "58225b5fc6900897c18c7597442baa03", "fusion_lat": 0.0, "rental_uris": {"ios": "https://dc.lft.to/lastmile_qr_scan", "android": "https://dc.lft.to/lastmile_qr_scan"}, "lon": -77.035922, "type": "electric_scooter"}, {"bike_id": "51baf0357897b1c57b125e43ea7d20f3", "is_reserved": 0, "fusion_lon": 0.0, "lat": 38.90333433333333, "is_disabled": 0, "name": "51baf0357897b1c57b125e43ea7d20f3", "fusion_lat": 0.0, "rental_uris": {"ios": "https://dc.lft.to/lastmile_qr_scan", "android": "https://dc.lft.to/lastmile_qr_scan"}, "lon": -77.06590233333333, "type": "electric_scooter"}, {"bike_id": "564c2a3e4429d7f6f6d71af92c5450b6", "is_reserved": 0, "fusion_lon": 0.0, "lat": 38.89842683333333, "is_disabled": 0, "name": "564c2a3e4429d7f6f6d71af92c5450b6", "fusion_lat": 0.0, "rental_uris": {"ios": "https://dc.lft.to/lastmile_qr_scan", "android": "https://dc.lft.to/lastmile_qr_scan"}, "lon": -77.007524, "type": "electric_scooter"}, {"bike_id": "d04220527fc23a6acebf49c75a2dd002", "is_reserved": 0, "fusion_lon": 0.0, "lat": 38.90671916666667, "is_disabled": 0, "name": "d04220527fc23a6acebf49c75a2dd002", "fusion_lat": 0.0, "rental_uris": {"ios": "https://dc.lft.to/lastmile_qr_scan", "android": "https://dc.lft.to/lastmile_qr_scan"}, "lon": -77.00030616666666, "type": "electric_scooter"}, {"bike_id": "0199ce8b19798d713eed57ca5de9d649", "is_reserved": 0, "fusion_lon": 0.0, "lat": 38.924579, "is_disabled": 0, "name": "0199ce8b19798d713eed57ca5de9d649", "fusion_lat": 0.0, "rental_uris": {"ios": "https://dc.lft.to/lastmile_qr_scan", "android": "https://dc.lft.to/lastmile_qr_scan"}, "lon": -76.99910116666666, "type": "electric_scooter"}, {"bike_id": "830062a5bed7578b99229fe365b9ab1c", "is_reserved": 0, "fusion_lon": 0.0, "lat": 38.813355666666666, "is_disabled": 0, "name": "830062a5bed7578b99229fe365b9ab1c", "fusion_lat": 0.0, "rental_uris": {"ios": "https://dc.lft.to/lastmile_qr_scan", "android": "https://dc.lft.to/lastmile_qr_scan"}, "lon": -77.05109533333334, "type": "electric_bike"}, {"bike_id": "66586075f7e6dc33820966b64b9a25bb", "is_reserved": 0, "fusion_lon": 0.0, "lat": 38.90730033333333, "is_disabled": 0, "name": "66586075f7e6dc33820966b64b9a25bb", "fusion_lat": 0.0, "rental_uris": {"ios": "https://dc.lft.to/lastmile_qr_scan", "android": "https://dc.lft.to/lastmile_qr_scan"}, "lon": -77.04348433333334, "type": "electric_scooter"}, {"bike_id": "b141de41f340d2b3f08f619cc355901e", "is_reserved": 0, "fusion_lon": 0.0, "lat": 38.91786916666667, "is_disabled": 0, "name": "b141de41f340d2b3f08f619cc355901e", "fusion_lat": 0.0, "rental_uris": {"ios": "https://dc.lft.to/lastmile_qr_scan", "android": "https://dc.lft.to/lastmile_qr_scan"}, "lon": -77.02694283333334, "type": "electric_scooter"}, {"bike_id": "8489f3eaf87f98020445d6acc6f8eb27", "is_reserved": 0, "fusion_lon": 0.0, "lat": 38.886393, "is_disabled": 0, "name": "8489f3eaf87f98020445d6acc6f8eb27", "fusion_lat": 0.0, "rental_uris": {"ios": "https://dc.lft.to/lastmile_qr_scan", "android": "https://dc.lft.to/lastmile_qr_scan"}, "lon": -77.021376, "type": "electric_scooter"}, {"bike_id": "5a69e1d149b0e2776ccd8fd7de062058", "is_reserved": 0, "fusion_lon": 0.0, "lat": 38.90365533333333, "is_disabled": 0, "name": "5a69e1d149b0e2776ccd8fd7de062058", "fusion_lat": 0.0, "rental_uris": {"ios": "https://dc.lft.to/lastmile_qr_scan", "android": "https://dc.lft.to/lastmile_qr_scan"}, "lon": -77.039061, "type": "electric_scooter"}, {"bike_id": "7f98602e1373528a9846237e9190e5c6", "is_reserved": 0, "fusion_lon": 0.0, "lat": 38.937724833333334, "is_disabled": 0, "name": "7f98602e1373528a9846237e9190e5c6", "fusion_lat": 0.0, "rental_uris": {"ios": "https://dc.lft.to/lastmile_qr_scan", "android": "https://dc.lft.to/lastmile_qr_scan"}, "lon": -77.01912866666666, "type": "electric_bike"}, {"bike_id": "c5c5fd5e59b3f655fa3ec1c647165d75", "is_reserved": 0, "fusion_lon": 0.0, "lat": 38.930819666666665, "is_disabled": 0, "name": "c5c5fd5e59b3f655fa3ec1c647165d75", "fusion_lat": 0.0, "rental_uris": {"ios": "https://dc.lft.to/lastmile_qr_scan", "android": "https://dc.lft.to/lastmile_qr_scan"}, "lon": -77.027977, "type": "electric_scooter"}, {"bike_id": "621a4d50853aebaed66dfec722486c6a", "is_reserved": 0, "fusion_lon": 0.0, "lat": 38.95644, "is_disabled": 0, "name": "621a4d50853aebaed66dfec722486c6a", "fusion_lat": 0.0, "rental_uris": {"ios": "https://dc.lft.to/lastmile_qr_scan", "android": "https://dc.lft.to/lastmile_qr_scan"}, "lon": -76.99790483333334, "type": "electric_scooter"}, {"bike_id": "61839e97a3bcd6bb7d69fec8b88f8f71", "is_reserved": 0, "fusion_lon": 0.0, "lat": 38.887544, "is_disabled": 0, "name": "61839e97a3bcd6bb7d69fec8b88f8f71", "fusion_lat": 0.0, "rental_uris": {"ios": "https://dc.lft.to/lastmile_qr_scan", "android": "https://dc.lft.to/lastmile_qr_scan"}, "lon": -77.03128033333333, "type": "electric_scooter"}, {"bike_id": "e007968cc534bde5e54410c1974033b6", "is_reserved": 0, "fusion_lon": 0.0, "lat": 38.91274116666666, "is_disabled": 0, "name": "e007968cc534bde5e54410c1974033b6", "fusion_lat": 0.0, "rental_uris": {"ios": "https://dc.lft.to/lastmile_qr_scan", "android": "https://dc.lft.to/lastmile_qr_scan"}, "lon": -77.016084, "type": "electric_scooter"}, {"bike_id": "5c147ac8e1774c3b571a6039604fcde5", "is_reserved": 0, "fusion_lon": 0.0, "lat": 38.889667833333334, "is_disabled": 0, "name": "5c147ac8e1774c3b571a6039604fcde5", "fusion_lat": 0.0, "rental_uris": {"ios": "https://dc.lft.to/lastmile_qr_scan", "android": "https://dc.lft.to/lastmile_qr_scan"}, "lon": -76.98036383333333, "type": "electric_bike"}, {"bike_id": "34bb3550616f895d5bda879bce7dd48a", "is_reserved": 0, "fusion_lon": 0.0, "lat": 38.895056833333335, "is_disabled": 0, "name": "34bb3550616f895d5bda879bce7dd48a", "fusion_lat": 0.0, "rental_uris": {"ios": "https://dc.lft.to/lastmile_qr_scan", "android": "https://dc.lft.to/lastmile_qr_scan"}, "lon": -77.00279816666666, "type": "electric_scooter"}, {"bike_id": "b051c2213332da7f4203039906a447c3", "is_reserved": 0, "fusion_lon": 0.0, "lat": 38.930014666666665, "is_disabled": 0, "name": "b051c2213332da7f4203039906a447c3", "fusion_lat": 0.0, "rental_uris": {"ios": "https://dc.lft.to/lastmile_qr_scan", "android": "https://dc.lft.to/lastmile_qr_scan"}, "lon": -77.05538766666666, "type": "electric_scooter"}, {"bike_id": "1ce2f3069b1eee2b12b2ef14b747bcfa", "is_reserved": 0, "fusion_lon": 0.0, "lat": 38.882323666666665, "is_disabled": 0, "name": "1ce2f3069b1eee2b12b2ef14b747bcfa", "fusion_lat": 0.0, "rental_uris": {"ios": "https://dc.lft.to/lastmile_qr_scan", "android": "https://dc.lft.to/lastmile_qr_scan"}, "lon": -76.990854, "type": "electric_scooter"}, {"bike_id": "cdfe01a0010526556318ecbae19b15da", "is_reserved": 0, "fusion_lon": 0.0, "lat": 38.924111833333335, "is_disabled": 0, "name": "cdfe01a0010526556318ecbae19b15da", "fusion_lat": 0.0, "rental_uris": {"ios": "https://dc.lft.to/lastmile_qr_scan", "android": "https://dc.lft.to/lastmile_qr_scan"}, "lon": -77.01944933333333, "type": "electric_scooter"}, {"bike_id": "a27cb97201b30f97d0d05f121f467036", "is_reserved": 0, "fusion_lon": 0.0, "lat": 38.887458, "is_disabled": 0, "name": "a27cb97201b30f97d0d05f121f467036", "fusion_lat": 0.0, "rental_uris": {"ios": "https://dc.lft.to/lastmile_qr_scan", "android": "https://dc.lft.to/lastmile_qr_scan"}, "lon": -77.020272, "type": "electric_scooter"}, {"bike_id": "479b787fd9deb40240dda6c4dfa9f5fb", "is_reserved": 0, "fusion_lon": 0.0, "lat": 38.88494683333333, "is_disabled": 0, "name": "479b787fd9deb40240dda6c4dfa9f5fb", "fusion_lat": 0.0, "rental_uris": {"ios": "https://dc.lft.to/lastmile_qr_scan", "android": "https://dc.lft.to/lastmile_qr_scan"}, "lon": -77.00730116666666, "type": "electric_scooter"}, {"bike_id": "924aa7aa47e3038c5da8a4a16d4ee4fa", "is_reserved": 0, "fusion_lon": 0.0, "lat": 38.90999433333333, "is_disabled": 0, "name": "924aa7aa47e3038c5da8a4a16d4ee4fa", "fusion_lat": 0.0, "rental_uris": {"ios": "https://dc.lft.to/lastmile_qr_scan", "android": "https://dc.lft.to/lastmile_qr_scan"}, "lon": -77.0400425, "type": "electric_scooter"}, {"bike_id": "3058d2a9e962b25701dbaba79157793b", "is_reserved": 0, "fusion_lon": 0.0, "lat": 38.9248685, "is_disabled": 0, "name": "3058d2a9e962b25701dbaba79157793b", "fusion_lat": 0.0, "rental_uris": {"ios": "https://dc.lft.to/lastmile_qr_scan", "android": "https://dc.lft.to/lastmile_qr_scan"}, "lon": -77.02713183333333, "type": "electric_scooter"}, {"bike_id": "8b08bcf419959082f4b0bd5b4807888e", "is_reserved": 0, "fusion_lon": 0.0, "lat": 38.915517333333334, "is_disabled": 0, "name": "8b08bcf419959082f4b0bd5b4807888e", "fusion_lat": 0.0, "rental_uris": {"ios": "https://dc.lft.to/lastmile_qr_scan", "android": "https://dc.lft.to/lastmile_qr_scan"}, "lon": -77.03927266666666, "type": "electric_scooter"}, {"bike_id": "7e67a3d92e94322f527113652f2ddc00", "is_reserved": 0, "fusion_lon": 0.0, "lat": 38.89222483333333, "is_disabled": 0, "name": "7e67a3d92e94322f527113652f2ddc00", "fusion_lat": 0.0, "rental_uris": {"ios": "https://dc.lft.to/lastmile_qr_scan", "android": "https://dc.lft.to/lastmile_qr_scan"}, "lon": -77.0433585, "type": "electric_scooter"}, {"bike_id": "fd7826d06d119ab929310210c2e53dc2", "is_reserved": 0, "fusion_lon": 0.0, "lat": 38.93427166666667, "is_disabled": 0, "name": "fd7826d06d119ab929310210c2e53dc2", "fusion_lat": 0.0, "rental_uris": {"ios": "https://dc.lft.to/lastmile_qr_scan", "android": "https://dc.lft.to/lastmile_qr_scan"}, "lon": -77.04314583333333, "type": "electric_scooter"}, {"bike_id": "30d2178ae3b8725f8dca2b2a1e9e16e2", "is_reserved": 0, "fusion_lon": 0.0, "lat": 38.91463616666667, "is_disabled": 0, "name": "30d2178ae3b8725f8dca2b2a1e9e16e2", "fusion_lat": 0.0, "rental_uris": {"ios": "https://dc.lft.to/lastmile_qr_scan", "android": "https://dc.lft.to/lastmile_qr_scan"}, "lon": -77.03214233333334, "type": "electric_scooter"}, {"bike_id": "2f4d58f0910b9d63522223765d32ab5d", "is_reserved": 0, "fusion_lon": 0.0, "lat": 38.8983155, "is_disabled": 0, "name": "2f4d58f0910b9d63522223765d32ab5d", "fusion_lat": 0.0, "rental_uris": {"ios": "https://dc.lft.to/lastmile_qr_scan", "android": "https://dc.lft.to/lastmile_qr_scan"}, "lon": -76.9463195, "type": "electric_scooter"}, {"bike_id": "4d4443f6d598b23845400f99bd44484e", "is_reserved": 0, "fusion_lon": 0.0, "lat": 38.90578933333333, "is_disabled": 0, "name": "4d4443f6d598b23845400f99bd44484e", "fusion_lat": 0.0, "rental_uris": {"ios": "https://dc.lft.to/lastmile_qr_scan", "android": "https://dc.lft.to/lastmile_qr_scan"}, "lon": -77.005841, "type": "electric_scooter"}, {"bike_id": "95f0d493b4e0d5ad67af4d185e77e695", "is_reserved": 0, "fusion_lon": 0.0, "lat": 38.9154585, "is_disabled": 0, "name": "95f0d493b4e0d5ad67af4d185e77e695", "fusion_lat": 0.0, "rental_uris": {"ios": "https://dc.lft.to/lastmile_qr_scan", "android": "https://dc.lft.to/lastmile_qr_scan"}, "lon": -77.038552, "type": "electric_scooter"}, {"bike_id": "d50f658be2fbf76afd67d2daa8556229", "is_reserved": 0, "fusion_lon": 0.0, "lat": 38.89603533333333, "is_disabled": 0, "name": "d50f658be2fbf76afd67d2daa8556229", "fusion_lat": 0.0, "rental_uris": {"ios": "https://dc.lft.to/lastmile_qr_scan", "android": "https://dc.lft.to/lastmile_qr_scan"}, "lon": -77.00926816666667, "type": "electric_scooter"}, {"bike_id": "c9bbb6bc614905edaa08582fea26643e", "is_reserved": 0, "fusion_lon": 0.0, "lat": 38.882083333333334, "is_disabled": 0, "name": "c9bbb6bc614905edaa08582fea26643e", "fusion_lat": 0.0, "rental_uris": {"ios": "https://dc.lft.to/lastmile_qr_scan", "android": "https://dc.lft.to/lastmile_qr_scan"}, "lon": -76.92700683333334, "type": "electric_scooter"}, {"bike_id": "3ed2908a0d738cd2c5a33d3ac83d23b0", "is_reserved": 0, "fusion_lon": 0.0, "lat": 38.93332933333333, "is_disabled": 0, "name": "3ed2908a0d738cd2c5a33d3ac83d23b0", "fusion_lat": 0.0, "rental_uris": {"ios": "https://dc.lft.to/lastmile_qr_scan", "android": "https://dc.lft.to/lastmile_qr_scan"}, "lon": -77.03264416666667, "type": "electric_scooter"}, {"bike_id": "88b48b70b4983ae56b13441b35d080b5", "is_reserved": 0, "fusion_lon": 0.0, "lat": 38.90151733333333, "is_disabled": 0, "name": "88b48b70b4983ae56b13441b35d080b5", "fusion_lat": 0.0, "rental_uris": {"ios": "https://dc.lft.to/lastmile_qr_scan", "android": "https://dc.lft.to/lastmile_qr_scan"}, "lon": -77.04234983333333, "type": "electric_scooter"}, {"bike_id": "ad6859ec8f3f8de5f0448c98bc8cd121", "is_reserved": 0, "fusion_lon": 0.0, "lat": 39.052051, "is_disabled": 0, "name": "ad6859ec8f3f8de5f0448c98bc8cd121", "fusion_lat": 0.0, "rental_uris": {"ios": "https://dc.lft.to/lastmile_qr_scan", "android": "https://dc.lft.to/lastmile_qr_scan"}, "lon": -77.10906966666667, "type": "electric_bike"}, {"bike_id": "5327d27b7ad359472c230a7e9caf5a18", "is_reserved": 0, "fusion_lon": 0.0, "lat": 38.9221285, "is_disabled": 0, "name": "5327d27b7ad359472c230a7e9caf5a18", "fusion_lat": 0.0, "rental_uris": {"ios": "https://dc.lft.to/lastmile_qr_scan", "android": "https://dc.lft.to/lastmile_qr_scan"}, "lon": -77.03656333333333, "type": "electric_scooter"}, {"bike_id": "2eb32f1e8111328bd5fda9eea9060c55", "is_reserved": 0, "fusion_lon": 0.0, "lat": 38.906977, "is_disabled": 0, "name": "2eb32f1e8111328bd5fda9eea9060c55", "fusion_lat": 0.0, "rental_uris": {"ios": "https://dc.lft.to/lastmile_qr_scan", "android": "https://dc.lft.to/lastmile_qr_scan"}, "lon": -77.075273, "type": "electric_scooter"}, {"bike_id": "301796ba422f06f096c26d8d1f2eb1ba", "is_reserved": 0, "fusion_lon": 0.0, "lat": 38.86419733333334, "is_disabled": 0, "name": "301796ba422f06f096c26d8d1f2eb1ba", "fusion_lat": 0.0, "rental_uris": {"ios": "https://dc.lft.to/lastmile_qr_scan", "android": "https://dc.lft.to/lastmile_qr_scan"}, "lon": -76.9805045, "type": "electric_scooter"}, {"bike_id": "61fd5ebc6c3abd7e487e07100364fd99", "is_reserved": 0, "fusion_lon": 0.0, "lat": 38.8859155, "is_disabled": 0, "name": "61fd5ebc6c3abd7e487e07100364fd99", "fusion_lat": 0.0, "rental_uris": {"ios": "https://dc.lft.to/lastmile_qr_scan", "android": "https://dc.lft.to/lastmile_qr_scan"}, "lon": -76.95264166666666, "type": "electric_scooter"}, {"bike_id": "c1376bcfc49e88802acffa295ddb1c76", "is_reserved": 0, "fusion_lon": 0.0, "lat": 38.919567666666666, "is_disabled": 0, "name": "c1376bcfc49e88802acffa295ddb1c76", "fusion_lat": 0.0, "rental_uris": {"ios": "https://dc.lft.to/lastmile_qr_scan", "android": "https://dc.lft.to/lastmile_qr_scan"}, "lon": -77.03181683333334, "type": "electric_scooter"}, {"bike_id": "f1109c775be8647822a1ce02487152e4", "is_reserved": 0, "fusion_lon": 0.0, "lat": 38.9451325, "is_disabled": 0, "name": "f1109c775be8647822a1ce02487152e4", "fusion_lat": 0.0, "rental_uris": {"ios": "https://dc.lft.to/lastmile_qr_scan", "android": "https://dc.lft.to/lastmile_qr_scan"}, "lon": -77.00670616666666, "type": "electric_bike"}, {"bike_id": "5bcc8d13fe62ce5ffb362ea8baa0a3de", "is_reserved": 0, "fusion_lon": 0.0, "lat": 38.864211833333336, "is_disabled": 0, "name": "5bcc8d13fe62ce5ffb362ea8baa0a3de", "fusion_lat": 0.0, "rental_uris": {"ios": "https://dc.lft.to/lastmile_qr_scan", "android": "https://dc.lft.to/lastmile_qr_scan"}, "lon": -76.97439566666667, "type": "electric_scooter"}, {"bike_id": "6d196fa98fd583eef5a034091481a387", "is_reserved": 0, "fusion_lon": 0.0, "lat": 38.895294, "is_disabled": 0, "name": "6d196fa98fd583eef5a034091481a387", "fusion_lat": 0.0, "rental_uris": {"ios": "https://dc.lft.to/lastmile_qr_scan", "android": "https://dc.lft.to/lastmile_qr_scan"}, "lon": -77.0334645, "type": "electric_scooter"}, {"bike_id": "95150b455952b52d3221e2c3f14d6ea3", "is_reserved": 0, "fusion_lon": 0.0, "lat": 38.924482, "is_disabled": 0, "name": "95150b455952b52d3221e2c3f14d6ea3", "fusion_lat": 0.0, "rental_uris": {"ios": "https://dc.lft.to/lastmile_qr_scan", "android": "https://dc.lft.to/lastmile_qr_scan"}, "lon": -77.02033583333333, "type": "electric_scooter"}, {"bike_id": "adde80aa63abb1be7a523510361a4421", "is_reserved": 0, "fusion_lon": 0.0, "lat": 38.83237166666667, "is_disabled": 0, "name": "adde80aa63abb1be7a523510361a4421", "fusion_lat": 0.0, "rental_uris": {"ios": "https://dc.lft.to/lastmile_qr_scan", "android": "https://dc.lft.to/lastmile_qr_scan"}, "lon": -76.946219, "type": "electric_bike"}, {"bike_id": "3b580f984e3483818cb0a59fe02048f6", "is_reserved": 0, "fusion_lon": 0.0, "lat": 38.91405366666667, "is_disabled": 0, "name": "3b580f984e3483818cb0a59fe02048f6", "fusion_lat": 0.0, "rental_uris": {"ios": "https://dc.lft.to/lastmile_qr_scan", "android": "https://dc.lft.to/lastmile_qr_scan"}, "lon": -77.04567933333334, "type": "electric_scooter"}, {"bike_id": "e956b3c283cf66378494b20adf252359", "is_reserved": 0, "fusion_lon": 0.0, "lat": 38.924463, "is_disabled": 0, "name": "e956b3c283cf66378494b20adf252359", "fusion_lat": 0.0, "rental_uris": {"ios": "https://dc.lft.to/lastmile_qr_scan", "android": "https://dc.lft.to/lastmile_qr_scan"}, "lon": -77.03369816666667, "type": "electric_scooter"}, {"bike_id": "384979238a4a09e27e210bf0853b7b0f", "is_reserved": 0, "fusion_lon": 0.0, "lat": 38.94092633333333, "is_disabled": 0, "name": "384979238a4a09e27e210bf0853b7b0f", "fusion_lat": 0.0, "rental_uris": {"ios": "https://dc.lft.to/lastmile_qr_scan", "android": "https://dc.lft.to/lastmile_qr_scan"}, "lon": -77.03274266666666, "type": "electric_scooter"}, {"bike_id": "f7eac0053e174da476dbbca2b8374da9", "is_reserved": 0, "fusion_lon": 0.0, "lat": 38.908334333333336, "is_disabled": 0, "name": "f7eac0053e174da476dbbca2b8374da9", "fusion_lat": 0.0, "rental_uris": {"ios": "https://dc.lft.to/lastmile_qr_scan", "android": "https://dc.lft.to/lastmile_qr_scan"}, "lon": -77.04461266666667, "type": "electric_scooter"}, {"bike_id": "5d133a7278617db7f1e575450846ce57", "is_reserved": 0, "fusion_lon": 0.0, "lat": 38.910486, "is_disabled": 0, "name": "5d133a7278617db7f1e575450846ce57", "fusion_lat": 0.0, "rental_uris": {"ios": "https://dc.lft.to/lastmile_qr_scan", "android": "https://dc.lft.to/lastmile_qr_scan"}, "lon": -77.015122, "type": "electric_scooter"}, {"bike_id": "d27d111c4ab046cbdf4a4fb79c621d15", "is_reserved": 0, "fusion_lon": 0.0, "lat": 38.9723835, "is_disabled": 0, "name": "d27d111c4ab046cbdf4a4fb79c621d15", "fusion_lat": 0.0, "rental_uris": {"ios": "https://dc.lft.to/lastmile_qr_scan", "android": "https://dc.lft.to/lastmile_qr_scan"}, "lon": -77.0271465, "type": "electric_scooter"}, {"bike_id": "f9e9bc6884a8d5440d5d94d62f2c66ef", "is_reserved": 0, "fusion_lon": 0.0, "lat": 38.93200733333333, "is_disabled": 0, "name": "f9e9bc6884a8d5440d5d94d62f2c66ef", "fusion_lat": 0.0, "rental_uris": {"ios": "https://dc.lft.to/lastmile_qr_scan", "android": "https://dc.lft.to/lastmile_qr_scan"}, "lon": -77.03852483333333, "type": "electric_scooter"}, {"bike_id": "23cc0fb6c7312ca2dd0b96ff0b55b311", "is_reserved": 0, "fusion_lon": 0.0, "lat": 38.907963, "is_disabled": 0, "name": "23cc0fb6c7312ca2dd0b96ff0b55b311", "fusion_lat": 0.0, "rental_uris": {"ios": "https://dc.lft.to/lastmile_qr_scan", "android": "https://dc.lft.to/lastmile_qr_scan"}, "lon": -77.0487355, "type": "electric_scooter"}, {"bike_id": "9925eab1f9937a281e41b2f8264008f2", "is_reserved": 0, "fusion_lon": 0.0, "lat": 38.90355366666667, "is_disabled": 0, "name": "9925eab1f9937a281e41b2f8264008f2", "fusion_lat": 0.0, "rental_uris": {"ios": "https://dc.lft.to/lastmile_qr_scan", "android": "https://dc.lft.to/lastmile_qr_scan"}, "lon": -77.040428, "type": "electric_scooter"}, {"bike_id": "fcfb37911a00e895756c852c978ab7e5", "is_reserved": 0, "fusion_lon": 0.0, "lat": 38.90622283333333, "is_disabled": 0, "name": "fcfb37911a00e895756c852c978ab7e5", "fusion_lat": 0.0, "rental_uris": {"ios": "https://dc.lft.to/lastmile_qr_scan", "android": "https://dc.lft.to/lastmile_qr_scan"}, "lon": -77.041184, "type": "electric_scooter"}, {"bike_id": "341ed55c1ea17e13cb51b894eaeb858b", "is_reserved": 0, "fusion_lon": 0.0, "lat": 38.94012816666667, "is_disabled": 0, "name": "341ed55c1ea17e13cb51b894eaeb858b", "fusion_lat": 0.0, "rental_uris": {"ios": "https://dc.lft.to/lastmile_qr_scan", "android": "https://dc.lft.to/lastmile_qr_scan"}, "lon": -77.07166783333334, "type": "electric_scooter"}, {"bike_id": "c7eaca32c729dea7c8a38d18bd7e1de8", "is_reserved": 0, "fusion_lon": 0.0, "lat": 38.915653, "is_disabled": 0, "name": "c7eaca32c729dea7c8a38d18bd7e1de8", "fusion_lat": 0.0, "rental_uris": {"ios": "https://dc.lft.to/lastmile_qr_scan", "android": "https://dc.lft.to/lastmile_qr_scan"}, "lon": -77.03765366666667, "type": "electric_scooter"}, {"bike_id": "80fceeb4dcccb9364942cb32120b088c", "is_reserved": 0, "fusion_lon": 0.0, "lat": 38.907835666666664, "is_disabled": 0, "name": "80fceeb4dcccb9364942cb32120b088c", "fusion_lat": 0.0, "rental_uris": {"ios": "https://dc.lft.to/lastmile_qr_scan", "android": "https://dc.lft.to/lastmile_qr_scan"}, "lon": -77.03857966666666, "type": "electric_scooter"}, {"bike_id": "14caae536f39c26a78ce8c6b1206f8c3", "is_reserved": 0, "fusion_lon": 0.0, "lat": 38.924701, "is_disabled": 0, "name": "14caae536f39c26a78ce8c6b1206f8c3", "fusion_lat": 0.0, "rental_uris": {"ios": "https://dc.lft.to/lastmile_qr_scan", "android": "https://dc.lft.to/lastmile_qr_scan"}, "lon": -77.0376515, "type": "electric_scooter"}, {"bike_id": "95ab245c715f31febfb9ef312dabc273", "is_reserved": 0, "fusion_lon": 0.0, "lat": 38.905190833333336, "is_disabled": 0, "name": "95ab245c715f31febfb9ef312dabc273", "fusion_lat": 0.0, "rental_uris": {"ios": "https://dc.lft.to/lastmile_qr_scan", "android": "https://dc.lft.to/lastmile_qr_scan"}, "lon": -77.05043633333334, "type": "electric_scooter"}, {"bike_id": "f9da9ecf0fd275e3bb9e2aa6b37b4386", "is_reserved": 0, "fusion_lon": 0.0, "lat": 38.9308835, "is_disabled": 0, "name": "f9da9ecf0fd275e3bb9e2aa6b37b4386", "fusion_lat": 0.0, "rental_uris": {"ios": "https://dc.lft.to/lastmile_qr_scan", "android": "https://dc.lft.to/lastmile_qr_scan"}, "lon": -77.025157, "type": "electric_scooter"}, {"bike_id": "6062c12c7d375969d68cedf1e409f9fd", "is_reserved": 0, "fusion_lon": 0.0, "lat": 38.898284833333335, "is_disabled": 0, "name": "6062c12c7d375969d68cedf1e409f9fd", "fusion_lat": 0.0, "rental_uris": {"ios": "https://dc.lft.to/lastmile_qr_scan", "android": "https://dc.lft.to/lastmile_qr_scan"}, "lon": -77.0060055, "type": "electric_bike"}, {"bike_id": "ff7638b1a1d915092c96febedb92b22c", "is_reserved": 0, "fusion_lon": 0.0, "lat": 38.907282333333335, "is_disabled": 0, "name": "ff7638b1a1d915092c96febedb92b22c", "fusion_lat": 0.0, "rental_uris": {"ios": "https://dc.lft.to/lastmile_qr_scan", "android": "https://dc.lft.to/lastmile_qr_scan"}, "lon": -77.04235366666667, "type": "electric_scooter"}, {"bike_id": "37ccaf47b0838e3d46ca9f41fea7aa72", "is_reserved": 0, "fusion_lon": 0.0, "lat": 38.85070316666667, "is_disabled": 0, "name": "37ccaf47b0838e3d46ca9f41fea7aa72", "fusion_lat": 0.0, "rental_uris": {"ios": "https://dc.lft.to/lastmile_qr_scan", "android": "https://dc.lft.to/lastmile_qr_scan"}, "lon": -76.9734205, "type": "electric_bike"}, {"bike_id": "e3ab0e8b7e68c9b79e241bfe2c8ab36b", "is_reserved": 0, "fusion_lon": 0.0, "lat": 38.90364983333333, "is_disabled": 0, "name": "e3ab0e8b7e68c9b79e241bfe2c8ab36b", "fusion_lat": 0.0, "rental_uris": {"ios": "https://dc.lft.to/lastmile_qr_scan", "android": "https://dc.lft.to/lastmile_qr_scan"}, "lon": -77.04540366666667, "type": "electric_scooter"}, {"bike_id": "6b65e59ba57babe56e58e2535f781af4", "is_reserved": 0, "fusion_lon": 0.0, "lat": 39.0885175, "is_disabled": 0, "name": "6b65e59ba57babe56e58e2535f781af4", "fusion_lat": 0.0, "rental_uris": {"ios": "https://dc.lft.to/lastmile_qr_scan", "android": "https://dc.lft.to/lastmile_qr_scan"}, "lon": -77.17837683333333, "type": "electric_bike"}, {"bike_id": "74c89d4039f31482d417634e9f13346b", "is_reserved": 0, "fusion_lon": 0.0, "lat": 38.9285565, "is_disabled": 0, "name": "74c89d4039f31482d417634e9f13346b", "fusion_lat": 0.0, "rental_uris": {"ios": "https://dc.lft.to/lastmile_qr_scan", "android": "https://dc.lft.to/lastmile_qr_scan"}, "lon": -77.22219666666666, "type": "electric_bike"}, {"bike_id": "26e1d135c93d6636f5bf8696aa010965", "is_reserved": 0, "fusion_lon": 0.0, "lat": 38.95749466666667, "is_disabled": 0, "name": "26e1d135c93d6636f5bf8696aa010965", "fusion_lat": 0.0, "rental_uris": {"ios": "https://dc.lft.to/lastmile_qr_scan", "android": "https://dc.lft.to/lastmile_qr_scan"}, "lon": -77.0241565, "type": "electric_scooter"}, {"bike_id": "c1cedf07bd2e7a9aee74899d39fdb79f", "is_reserved": 0, "fusion_lon": 0.0, "lat": 38.90942716666667, "is_disabled": 0, "name": "c1cedf07bd2e7a9aee74899d39fdb79f", "fusion_lat": 0.0, "rental_uris": {"ios": "https://dc.lft.to/lastmile_qr_scan", "android": "https://dc.lft.to/lastmile_qr_scan"}, "lon": -77.0486375, "type": "electric_scooter"}, {"bike_id": "1a53299a194ffa6ece8d132588b56f9e", "is_reserved": 0, "fusion_lon": 0.0, "lat": 38.90662233333333, "is_disabled": 0, "name": "1a53299a194ffa6ece8d132588b56f9e", "fusion_lat": 0.0, "rental_uris": {"ios": "https://dc.lft.to/lastmile_qr_scan", "android": "https://dc.lft.to/lastmile_qr_scan"}, "lon": -77.038132, "type": "electric_scooter"}, {"bike_id": "1e8e242a8bf5b40127373d4c16e2cc55", "is_reserved": 0, "fusion_lon": 0.0, "lat": 38.923628, "is_disabled": 0, "name": "1e8e242a8bf5b40127373d4c16e2cc55", "fusion_lat": 0.0, "rental_uris": {"ios": "https://dc.lft.to/lastmile_qr_scan", "android": "https://dc.lft.to/lastmile_qr_scan"}, "lon": -77.043769, "type": "electric_scooter"}, {"bike_id": "1be00bdf58c4b73c1e5a0b3e341842e9", "is_reserved": 0, "fusion_lon": 0.0, "lat": 38.88742466666667, "is_disabled": 0, "name": "1be00bdf58c4b73c1e5a0b3e341842e9", "fusion_lat": 0.0, "rental_uris": {"ios": "https://dc.lft.to/lastmile_qr_scan", "android": "https://dc.lft.to/lastmile_qr_scan"}, "lon": -77.02265633333333, "type": "electric_bike"}, {"bike_id": "9466d2da634986e9623492c4d2b4f37d", "is_reserved": 0, "fusion_lon": 0.0, "lat": 38.9056955, "is_disabled": 0, "name": "9466d2da634986e9623492c4d2b4f37d", "fusion_lat": 0.0, "rental_uris": {"ios": "https://dc.lft.to/lastmile_qr_scan", "android": "https://dc.lft.to/lastmile_qr_scan"}, "lon": -77.02172966666667, "type": "electric_scooter"}, {"bike_id": "c3e48145a69d18ddc1b5f13b2e53752a", "is_reserved": 0, "fusion_lon": 0.0, "lat": 38.91709183333333, "is_disabled": 0, "name": "c3e48145a69d18ddc1b5f13b2e53752a", "fusion_lat": 0.0, "rental_uris": {"ios": "https://dc.lft.to/lastmile_qr_scan", "android": "https://dc.lft.to/lastmile_qr_scan"}, "lon": -77.02288133333333, "type": "electric_scooter"}, {"bike_id": "be7bdddb3db35041b8bd0254e18dcd81", "is_reserved": 0, "fusion_lon": 0.0, "lat": 38.956509, "is_disabled": 0, "name": "be7bdddb3db35041b8bd0254e18dcd81", "fusion_lat": 0.0, "rental_uris": {"ios": "https://dc.lft.to/lastmile_qr_scan", "android": "https://dc.lft.to/lastmile_qr_scan"}, "lon": -77.03290166666666, "type": "electric_scooter"}, {"bike_id": "afc7ae4ba5f984dc7f831c7351596ef9", "is_reserved": 0, "fusion_lon": 0.0, "lat": 38.953339, "is_disabled": 0, "name": "afc7ae4ba5f984dc7f831c7351596ef9", "fusion_lat": 0.0, "rental_uris": {"ios": "https://dc.lft.to/lastmile_qr_scan", "android": "https://dc.lft.to/lastmile_qr_scan"}, "lon": -77.0095865, "type": "electric_bike"}, {"bike_id": "a8c837ee8a97fc50f14581a8b73fde78", "is_reserved": 0, "fusion_lon": 0.0, "lat": 38.915520666666666, "is_disabled": 0, "name": "a8c837ee8a97fc50f14581a8b73fde78", "fusion_lat": 0.0, "rental_uris": {"ios": "https://dc.lft.to/lastmile_qr_scan", "android": "https://dc.lft.to/lastmile_qr_scan"}, "lon": -77.0386615, "type": "electric_scooter"}, {"bike_id": "2f441065d50a446f4d08b8a21214a360", "is_reserved": 0, "fusion_lon": 0.0, "lat": 38.911937, "is_disabled": 0, "name": "2f441065d50a446f4d08b8a21214a360", "fusion_lat": 0.0, "rental_uris": {"ios": "https://dc.lft.to/lastmile_qr_scan", "android": "https://dc.lft.to/lastmile_qr_scan"}, "lon": -77.00723733333334, "type": "electric_scooter"}, {"bike_id": "f27c92f284857dfcb81238de97b0be37", "is_reserved": 0, "fusion_lon": 0.0, "lat": 38.882199, "is_disabled": 0, "name": "f27c92f284857dfcb81238de97b0be37", "fusion_lat": 0.0, "rental_uris": {"ios": "https://dc.lft.to/lastmile_qr_scan", "android": "https://dc.lft.to/lastmile_qr_scan"}, "lon": -76.94176433333334, "type": "electric_scooter"}, {"bike_id": "c46900306b68209fe80a4ed969eb12ee", "is_reserved": 0, "fusion_lon": 0.0, "lat": 38.87898166666667, "is_disabled": 0, "name": "c46900306b68209fe80a4ed969eb12ee", "fusion_lat": 0.0, "rental_uris": {"ios": "https://dc.lft.to/lastmile_qr_scan", "android": "https://dc.lft.to/lastmile_qr_scan"}, "lon": -76.9916935, "type": "electric_scooter"}, {"bike_id": "098e629b3dcef7d1d46f09323390f4a1", "is_reserved": 0, "fusion_lon": 0.0, "lat": 38.904674, "is_disabled": 0, "name": "098e629b3dcef7d1d46f09323390f4a1", "fusion_lat": 0.0, "rental_uris": {"ios": "https://dc.lft.to/lastmile_qr_scan", "android": "https://dc.lft.to/lastmile_qr_scan"}, "lon": -77.0294135, "type": "electric_scooter"}, {"bike_id": "0009357fd4f0d39a8ed764541e8d21ae", "is_reserved": 0, "fusion_lon": 0.0, "lat": 38.90304716666667, "is_disabled": 0, "name": "0009357fd4f0d39a8ed764541e8d21ae", "fusion_lat": 0.0, "rental_uris": {"ios": "https://dc.lft.to/lastmile_qr_scan", "android": "https://dc.lft.to/lastmile_qr_scan"}, "lon": -77.03421633333333, "type": "electric_scooter"}, {"bike_id": "d5df5e4c300de84382cbf3d5c24acbd3", "is_reserved": 0, "fusion_lon": 0.0, "lat": 38.90284116666667, "is_disabled": 0, "name": "d5df5e4c300de84382cbf3d5c24acbd3", "fusion_lat": 0.0, "rental_uris": {"ios": "https://dc.lft.to/lastmile_qr_scan", "android": "https://dc.lft.to/lastmile_qr_scan"}, "lon": -77.036447, "type": "electric_scooter"}, {"bike_id": "9f0cc447c00236c27933151e51f6dd96", "is_reserved": 0, "fusion_lon": 0.0, "lat": 38.915797833333336, "is_disabled": 0, "name": "9f0cc447c00236c27933151e51f6dd96", "fusion_lat": 0.0, "rental_uris": {"ios": "https://dc.lft.to/lastmile_qr_scan", "android": "https://dc.lft.to/lastmile_qr_scan"}, "lon": -77.046814, "type": "electric_scooter"}, {"bike_id": "8656e3db01affe59099bd251d3334861", "is_reserved": 0, "fusion_lon": 0.0, "lat": 38.9231965, "is_disabled": 0, "name": "8656e3db01affe59099bd251d3334861", "fusion_lat": 0.0, "rental_uris": {"ios": "https://dc.lft.to/lastmile_qr_scan", "android": "https://dc.lft.to/lastmile_qr_scan"}, "lon": -77.03668466666667, "type": "electric_scooter"}, {"bike_id": "4a65420a2284702d76032ce8eb313aa2", "is_reserved": 0, "fusion_lon": 0.0, "lat": 38.902421833333335, "is_disabled": 0, "name": "4a65420a2284702d76032ce8eb313aa2", "fusion_lat": 0.0, "rental_uris": {"ios": "https://dc.lft.to/lastmile_qr_scan", "android": "https://dc.lft.to/lastmile_qr_scan"}, "lon": -77.03414233333334, "type": "electric_scooter"}, {"bike_id": "617d9aa6794bd6b1863cfc293a730880", "is_reserved": 0, "fusion_lon": 0.0, "lat": 38.92766683333333, "is_disabled": 0, "name": "617d9aa6794bd6b1863cfc293a730880", "fusion_lat": 0.0, "rental_uris": {"ios": "https://dc.lft.to/lastmile_qr_scan", "android": "https://dc.lft.to/lastmile_qr_scan"}, "lon": -77.03244333333333, "type": "electric_scooter"}, {"bike_id": "88d10b45cd043caa3b22a26a7ed1b007", "is_reserved": 0, "fusion_lon": 0.0, "lat": 38.896525833333335, "is_disabled": 0, "name": "88d10b45cd043caa3b22a26a7ed1b007", "fusion_lat": 0.0, "rental_uris": {"ios": "https://dc.lft.to/lastmile_qr_scan", "android": "https://dc.lft.to/lastmile_qr_scan"}, "lon": -77.0433885, "type": "electric_scooter"}, {"bike_id": "ace664ffe55af86e5d55602fd9bdebc0", "is_reserved": 0, "fusion_lon": 0.0, "lat": 38.9348665, "is_disabled": 0, "name": "ace664ffe55af86e5d55602fd9bdebc0", "fusion_lat": 0.0, "rental_uris": {"ios": "https://dc.lft.to/lastmile_qr_scan", "android": "https://dc.lft.to/lastmile_qr_scan"}, "lon": -77.03516683333334, "type": "electric_scooter"}, {"bike_id": "d14874a79f34e7e682e9e29c97b5f51f", "is_reserved": 0, "fusion_lon": 0.0, "lat": 38.910399166666664, "is_disabled": 0, "name": "d14874a79f34e7e682e9e29c97b5f51f", "fusion_lat": 0.0, "rental_uris": {"ios": "https://dc.lft.to/lastmile_qr_scan", "android": "https://dc.lft.to/lastmile_qr_scan"}, "lon": -77.02811433333333, "type": "electric_scooter"}, {"bike_id": "b8dba92594794eaab7accdbe0415578e", "is_reserved": 0, "fusion_lon": 0.0, "lat": 38.9310615, "is_disabled": 0, "name": "b8dba92594794eaab7accdbe0415578e", "fusion_lat": 0.0, "rental_uris": {"ios": "https://dc.lft.to/lastmile_qr_scan", "android": "https://dc.lft.to/lastmile_qr_scan"}, "lon": -77.02403916666667, "type": "electric_scooter"}, {"bike_id": "bac032c59f3cf1fba7944bb89da4f2d3", "is_reserved": 0, "fusion_lon": 0.0, "lat": 38.95083233333333, "is_disabled": 0, "name": "bac032c59f3cf1fba7944bb89da4f2d3", "fusion_lat": 0.0, "rental_uris": {"ios": "https://dc.lft.to/lastmile_qr_scan", "android": "https://dc.lft.to/lastmile_qr_scan"}, "lon": -77.02829283333334, "type": "electric_scooter"}, {"bike_id": "5a029b63ef194b974608a70309491e2d", "is_reserved": 0, "fusion_lon": 0.0, "lat": 38.915659166666664, "is_disabled": 0, "name": "5a029b63ef194b974608a70309491e2d", "fusion_lat": 0.0, "rental_uris": {"ios": "https://dc.lft.to/lastmile_qr_scan", "android": "https://dc.lft.to/lastmile_qr_scan"}, "lon": -77.03900833333333, "type": "electric_scooter"}, {"bike_id": "54b0c7dcf704c394cd3cdf033aa971e9", "is_reserved": 0, "fusion_lon": 0.0, "lat": 38.930667666666665, "is_disabled": 0, "name": "54b0c7dcf704c394cd3cdf033aa971e9", "fusion_lat": 0.0, "rental_uris": {"ios": "https://dc.lft.to/lastmile_qr_scan", "android": "https://dc.lft.to/lastmile_qr_scan"}, "lon": -77.02977516666667, "type": "electric_scooter"}, {"bike_id": "1883c313bebfed881eec7ecb6c481152", "is_reserved": 0, "fusion_lon": 0.0, "lat": 38.921914, "is_disabled": 0, "name": "1883c313bebfed881eec7ecb6c481152", "fusion_lat": 0.0, "rental_uris": {"ios": "https://dc.lft.to/lastmile_qr_scan", "android": "https://dc.lft.to/lastmile_qr_scan"}, "lon": -77.0425435, "type": "electric_scooter"}, {"bike_id": "ebfec76744273b2a02dc1206cc6fbd40", "is_reserved": 0, "fusion_lon": 0.0, "lat": 38.892290333333335, "is_disabled": 0, "name": "ebfec76744273b2a02dc1206cc6fbd40", "fusion_lat": 0.0, "rental_uris": {"ios": "https://dc.lft.to/lastmile_qr_scan", "android": "https://dc.lft.to/lastmile_qr_scan"}, "lon": -77.02174316666667, "type": "electric_scooter"}, {"bike_id": "a959cc149c42c173f21ffdb59f5b7d28", "is_reserved": 0, "fusion_lon": 0.0, "lat": 38.909151666666666, "is_disabled": 0, "name": "a959cc149c42c173f21ffdb59f5b7d28", "fusion_lat": 0.0, "rental_uris": {"ios": "https://dc.lft.to/lastmile_qr_scan", "android": "https://dc.lft.to/lastmile_qr_scan"}, "lon": -77.03134966666667, "type": "electric_scooter"}, {"bike_id": "76118b13f61d35b927935479ca002993", "is_reserved": 0, "fusion_lon": 0.0, "lat": 38.90956883333333, "is_disabled": 0, "name": "76118b13f61d35b927935479ca002993", "fusion_lat": 0.0, "rental_uris": {"ios": "https://dc.lft.to/lastmile_qr_scan", "android": "https://dc.lft.to/lastmile_qr_scan"}, "lon": -77.01998416666666, "type": "electric_scooter"}, {"bike_id": "397f4e93518dec5f2b7be7c206133a35", "is_reserved": 0, "fusion_lon": 0.0, "lat": 38.898442, "is_disabled": 0, "name": "397f4e93518dec5f2b7be7c206133a35", "fusion_lat": 0.0, "rental_uris": {"ios": "https://dc.lft.to/lastmile_qr_scan", "android": "https://dc.lft.to/lastmile_qr_scan"}, "lon": -77.03347616666667, "type": "electric_scooter"}, {"bike_id": "cf3bd3de115c49f6e3a15568990042e2", "is_reserved": 0, "fusion_lon": 0.0, "lat": 38.92182416666667, "is_disabled": 0, "name": "cf3bd3de115c49f6e3a15568990042e2", "fusion_lat": 0.0, "rental_uris": {"ios": "https://dc.lft.to/lastmile_qr_scan", "android": "https://dc.lft.to/lastmile_qr_scan"}, "lon": -77.04284616666666, "type": "electric_scooter"}, {"bike_id": "fbc7ee67252e822f04f7ca4db5131444", "is_reserved": 0, "fusion_lon": 0.0, "lat": 38.922682333333334, "is_disabled": 0, "name": "fbc7ee67252e822f04f7ca4db5131444", "fusion_lat": 0.0, "rental_uris": {"ios": "https://dc.lft.to/lastmile_qr_scan", "android": "https://dc.lft.to/lastmile_qr_scan"}, "lon": -77.01823933333333, "type": "electric_scooter"}, {"bike_id": "df6f5c729eba34a1b1d4ff2205e953e0", "is_reserved": 0, "fusion_lon": 0.0, "lat": 38.8995175, "is_disabled": 0, "name": "df6f5c729eba34a1b1d4ff2205e953e0", "fusion_lat": 0.0, "rental_uris": {"ios": "https://dc.lft.to/lastmile_qr_scan", "android": "https://dc.lft.to/lastmile_qr_scan"}, "lon": -77.0527, "type": "electric_scooter"}, {"bike_id": "4aee79cfd1440e3c38b3ff7ad13d6d4d", "is_reserved": 0, "fusion_lon": 0.0, "lat": 38.901297666666665, "is_disabled": 0, "name": "4aee79cfd1440e3c38b3ff7ad13d6d4d", "fusion_lat": 0.0, "rental_uris": {"ios": "https://dc.lft.to/lastmile_qr_scan", "android": "https://dc.lft.to/lastmile_qr_scan"}, "lon": -76.99709983333334, "type": "electric_scooter"}, {"bike_id": "4710291c1c75133551c5104f801c87f4", "is_reserved": 0, "fusion_lon": 0.0, "lat": 38.92714566666667, "is_disabled": 0, "name": "4710291c1c75133551c5104f801c87f4", "fusion_lat": 0.0, "rental_uris": {"ios": "https://dc.lft.to/lastmile_qr_scan", "android": "https://dc.lft.to/lastmile_qr_scan"}, "lon": -77.04049233333333, "type": "electric_scooter"}, {"bike_id": "05f21bdbf1ad07dc572fc12719dfab15", "is_reserved": 0, "fusion_lon": 0.0, "lat": 38.9056945, "is_disabled": 0, "name": "05f21bdbf1ad07dc572fc12719dfab15", "fusion_lat": 0.0, "rental_uris": {"ios": "https://dc.lft.to/lastmile_qr_scan", "android": "https://dc.lft.to/lastmile_qr_scan"}, "lon": -77.03470933333334, "type": "electric_scooter"}, {"bike_id": "870a9aa3c4a9c06f112cf83a748aa768", "is_reserved": 0, "fusion_lon": 0.0, "lat": 38.91487583333333, "is_disabled": 0, "name": "870a9aa3c4a9c06f112cf83a748aa768", "fusion_lat": 0.0, "rental_uris": {"ios": "https://dc.lft.to/lastmile_qr_scan", "android": "https://dc.lft.to/lastmile_qr_scan"}, "lon": -77.04083016666667, "type": "electric_scooter"}, {"bike_id": "6f7ad44effa65ef2e51311798c83b1a0", "is_reserved": 0, "fusion_lon": 0.0, "lat": 38.91417083333333, "is_disabled": 0, "name": "6f7ad44effa65ef2e51311798c83b1a0", "fusion_lat": 0.0, "rental_uris": {"ios": "https://dc.lft.to/lastmile_qr_scan", "android": "https://dc.lft.to/lastmile_qr_scan"}, "lon": -77.03902383333333, "type": "electric_scooter"}, {"bike_id": "409652634e4e8311be70beec367e2a4c", "is_reserved": 0, "fusion_lon": 0.0, "lat": 38.942134833333334, "is_disabled": 0, "name": "409652634e4e8311be70beec367e2a4c", "fusion_lat": 0.0, "rental_uris": {"ios": "https://dc.lft.to/lastmile_qr_scan", "android": "https://dc.lft.to/lastmile_qr_scan"}, "lon": -77.03589866666667, "type": "electric_scooter"}, {"bike_id": "670e7d000a9c1cdb40e0465b533c2f31", "is_reserved": 0, "fusion_lon": 0.0, "lat": 38.91418216666667, "is_disabled": 0, "name": "670e7d000a9c1cdb40e0465b533c2f31", "fusion_lat": 0.0, "rental_uris": {"ios": "https://dc.lft.to/lastmile_qr_scan", "android": "https://dc.lft.to/lastmile_qr_scan"}, "lon": -77.03906066666667, "type": "electric_scooter"}, {"bike_id": "15536685f4ca430c54223a855ac8d827", "is_reserved": 0, "fusion_lon": 0.0, "lat": 38.89961683333333, "is_disabled": 0, "name": "15536685f4ca430c54223a855ac8d827", "fusion_lat": 0.0, "rental_uris": {"ios": "https://dc.lft.to/lastmile_qr_scan", "android": "https://dc.lft.to/lastmile_qr_scan"}, "lon": -77.01626816666666, "type": "electric_scooter"}, {"bike_id": "6dff041eafdafbb9002da0ef9c23e72b", "is_reserved": 0, "fusion_lon": 0.0, "lat": 38.91581083333333, "is_disabled": 0, "name": "6dff041eafdafbb9002da0ef9c23e72b", "fusion_lat": 0.0, "rental_uris": {"ios": "https://dc.lft.to/lastmile_qr_scan", "android": "https://dc.lft.to/lastmile_qr_scan"}, "lon": -77.05017583333333, "type": "electric_bike"}, {"bike_id": "c4f59c2948fc2059221bed3a697bd874", "is_reserved": 0, "fusion_lon": 0.0, "lat": 38.8768525, "is_disabled": 0, "name": "c4f59c2948fc2059221bed3a697bd874", "fusion_lat": 0.0, "rental_uris": {"ios": "https://dc.lft.to/lastmile_qr_scan", "android": "https://dc.lft.to/lastmile_qr_scan"}, "lon": -77.00728366666667, "type": "electric_scooter"}, {"bike_id": "b9f45fbe19c0c22de122cd206d569c80", "is_reserved": 0, "fusion_lon": 0.0, "lat": 38.8840875, "is_disabled": 0, "name": "b9f45fbe19c0c22de122cd206d569c80", "fusion_lat": 0.0, "rental_uris": {"ios": "https://dc.lft.to/lastmile_qr_scan", "android": "https://dc.lft.to/lastmile_qr_scan"}, "lon": -77.02576566666667, "type": "electric_scooter"}, {"bike_id": "1fcd987d65e616de34581be837a3f387", "is_reserved": 0, "fusion_lon": 0.0, "lat": 38.907199, "is_disabled": 0, "name": "1fcd987d65e616de34581be837a3f387", "fusion_lat": 0.0, "rental_uris": {"ios": "https://dc.lft.to/lastmile_qr_scan", "android": "https://dc.lft.to/lastmile_qr_scan"}, "lon": -77.02539583333333, "type": "electric_scooter"}, {"bike_id": "71a2c900098727d84b1f61f50bd95f92", "is_reserved": 0, "fusion_lon": 0.0, "lat": 38.908975833333336, "is_disabled": 0, "name": "71a2c900098727d84b1f61f50bd95f92", "fusion_lat": 0.0, "rental_uris": {"ios": "https://dc.lft.to/lastmile_qr_scan", "android": "https://dc.lft.to/lastmile_qr_scan"}, "lon": -77.032153, "type": "electric_bike"}, {"bike_id": "e87ee716a3e4587845662739595ac8ad", "is_reserved": 0, "fusion_lon": 0.0, "lat": 38.90183066666667, "is_disabled": 0, "name": "e87ee716a3e4587845662739595ac8ad", "fusion_lat": 0.0, "rental_uris": {"ios": "https://dc.lft.to/lastmile_qr_scan", "android": "https://dc.lft.to/lastmile_qr_scan"}, "lon": -76.92994866666666, "type": "electric_scooter"}, {"bike_id": "c1b12b721717cc6e9f86491fa3471ea6", "is_reserved": 0, "fusion_lon": 0.0, "lat": 38.900288, "is_disabled": 0, "name": "c1b12b721717cc6e9f86491fa3471ea6", "fusion_lat": 0.0, "rental_uris": {"ios": "https://dc.lft.to/lastmile_qr_scan", "android": "https://dc.lft.to/lastmile_qr_scan"}, "lon": -76.98796683333333, "type": "electric_scooter"}, {"bike_id": "b5ad90ae174341d5c9405aeb6027ac2e", "is_reserved": 0, "fusion_lon": 0.0, "lat": 38.904338333333335, "is_disabled": 0, "name": "b5ad90ae174341d5c9405aeb6027ac2e", "fusion_lat": 0.0, "rental_uris": {"ios": "https://dc.lft.to/lastmile_qr_scan", "android": "https://dc.lft.to/lastmile_qr_scan"}, "lon": -76.97912883333333, "type": "electric_scooter"}, {"bike_id": "3c7f53b3b9230bdee3f0e2dcbd0fb3d7", "is_reserved": 0, "fusion_lon": 0.0, "lat": 38.90845983333333, "is_disabled": 0, "name": "3c7f53b3b9230bdee3f0e2dcbd0fb3d7", "fusion_lat": 0.0, "rental_uris": {"ios": "https://dc.lft.to/lastmile_qr_scan", "android": "https://dc.lft.to/lastmile_qr_scan"}, "lon": -77.02592833333334, "type": "electric_scooter"}, {"bike_id": "b24c3a0c6f75254617b84c89f0d38ff7", "is_reserved": 0, "fusion_lon": 0.0, "lat": 38.93285733333333, "is_disabled": 0, "name": "b24c3a0c6f75254617b84c89f0d38ff7", "fusion_lat": 0.0, "rental_uris": {"ios": "https://dc.lft.to/lastmile_qr_scan", "android": "https://dc.lft.to/lastmile_qr_scan"}, "lon": -77.03633266666667, "type": "electric_bike"}, {"bike_id": "25b01f47fb3a0ecb7c5e0f325bb702f0", "is_reserved": 0, "fusion_lon": 0.0, "lat": 38.90570116666667, "is_disabled": 0, "name": "25b01f47fb3a0ecb7c5e0f325bb702f0", "fusion_lat": 0.0, "rental_uris": {"ios": "https://dc.lft.to/lastmile_qr_scan", "android": "https://dc.lft.to/lastmile_qr_scan"}, "lon": -77.03827733333334, "type": "electric_scooter"}, {"bike_id": "1c054a4a359649f1a55844b40ffb1c33", "is_reserved": 0, "fusion_lon": 0.0, "lat": 38.91335466666666, "is_disabled": 0, "name": "1c054a4a359649f1a55844b40ffb1c33", "fusion_lat": 0.0, "rental_uris": {"ios": "https://dc.lft.to/lastmile_qr_scan", "android": "https://dc.lft.to/lastmile_qr_scan"}, "lon": -77.048399, "type": "electric_scooter"}, {"bike_id": "4a9b9b42439ba80fb03409d8079b062a", "is_reserved": 0, "fusion_lon": 0.0, "lat": 38.937881, "is_disabled": 0, "name": "4a9b9b42439ba80fb03409d8079b062a", "fusion_lat": 0.0, "rental_uris": {"ios": "https://dc.lft.to/lastmile_qr_scan", "android": "https://dc.lft.to/lastmile_qr_scan"}, "lon": -77.02333833333333, "type": "electric_scooter"}, {"bike_id": "e49050d065ca6189d1f167a886f37f98", "is_reserved": 0, "fusion_lon": 0.0, "lat": 38.89086266666666, "is_disabled": 0, "name": "e49050d065ca6189d1f167a886f37f98", "fusion_lat": 0.0, "rental_uris": {"ios": "https://dc.lft.to/lastmile_qr_scan", "android": "https://dc.lft.to/lastmile_qr_scan"}, "lon": -76.98746666666666, "type": "electric_scooter"}, {"bike_id": "cafc570a4a9c7e37d096678b1b478690", "is_reserved": 0, "fusion_lon": 0.0, "lat": 38.909724833333335, "is_disabled": 0, "name": "cafc570a4a9c7e37d096678b1b478690", "fusion_lat": 0.0, "rental_uris": {"ios": "https://dc.lft.to/lastmile_qr_scan", "android": "https://dc.lft.to/lastmile_qr_scan"}, "lon": -77.04867883333333, "type": "electric_scooter"}, {"bike_id": "f098093227e9929235bde2b7d0ba3e9e", "is_reserved": 0, "fusion_lon": 0.0, "lat": 38.90380116666667, "is_disabled": 0, "name": "f098093227e9929235bde2b7d0ba3e9e", "fusion_lat": 0.0, "rental_uris": {"ios": "https://dc.lft.to/lastmile_qr_scan", "android": "https://dc.lft.to/lastmile_qr_scan"}, "lon": -77.04362966666666, "type": "electric_scooter"}, {"bike_id": "927c293d47d8c3180d7a1fd2be02c740", "is_reserved": 0, "fusion_lon": 0.0, "lat": 38.89795266666667, "is_disabled": 0, "name": "927c293d47d8c3180d7a1fd2be02c740", "fusion_lat": 0.0, "rental_uris": {"ios": "https://dc.lft.to/lastmile_qr_scan", "android": "https://dc.lft.to/lastmile_qr_scan"}, "lon": -77.00646966666666, "type": "electric_scooter"}, {"bike_id": "8437ed25270a1e0b211dc1ef46ebe7d2", "is_reserved": 0, "fusion_lon": 0.0, "lat": 38.90474716666667, "is_disabled": 0, "name": "8437ed25270a1e0b211dc1ef46ebe7d2", "fusion_lat": 0.0, "rental_uris": {"ios": "https://dc.lft.to/lastmile_qr_scan", "android": "https://dc.lft.to/lastmile_qr_scan"}, "lon": -77.00723683333334, "type": "electric_scooter"}, {"bike_id": "1f33d754130ed020d70412fd61c62892", "is_reserved": 0, "fusion_lon": 0.0, "lat": 38.926668, "is_disabled": 0, "name": "1f33d754130ed020d70412fd61c62892", "fusion_lat": 0.0, "rental_uris": {"ios": "https://dc.lft.to/lastmile_qr_scan", "android": "https://dc.lft.to/lastmile_qr_scan"}, "lon": -77.031204, "type": "electric_scooter"}, {"bike_id": "99dbaf4bcef65110927b056ab8c5b819", "is_reserved": 0, "fusion_lon": 0.0, "lat": 38.838608666666666, "is_disabled": 0, "name": "99dbaf4bcef65110927b056ab8c5b819", "fusion_lat": 0.0, "rental_uris": {"ios": "https://dc.lft.to/lastmile_qr_scan", "android": "https://dc.lft.to/lastmile_qr_scan"}, "lon": -77.08864066666666, "type": "electric_bike"}, {"bike_id": "2ccdfc6445e928cff190cf63a4888833", "is_reserved": 0, "fusion_lon": 0.0, "lat": 38.92871233333334, "is_disabled": 0, "name": "2ccdfc6445e928cff190cf63a4888833", "fusion_lat": 0.0, "rental_uris": {"ios": "https://dc.lft.to/lastmile_qr_scan", "android": "https://dc.lft.to/lastmile_qr_scan"}, "lon": -77.0273145, "type": "electric_scooter"}, {"bike_id": "5ea18a79fb738bc578a0e0698ba5fea9", "is_reserved": 0, "fusion_lon": 0.0, "lat": 38.917168833333335, "is_disabled": 0, "name": "5ea18a79fb738bc578a0e0698ba5fea9", "fusion_lat": 0.0, "rental_uris": {"ios": "https://dc.lft.to/lastmile_qr_scan", "android": "https://dc.lft.to/lastmile_qr_scan"}, "lon": -77.03246133333333, "type": "electric_scooter"}, {"bike_id": "92a8bb28cd508f8ed01533fabc35d8ed", "is_reserved": 0, "fusion_lon": 0.0, "lat": 38.9732605, "is_disabled": 0, "name": "92a8bb28cd508f8ed01533fabc35d8ed", "fusion_lat": 0.0, "rental_uris": {"ios": "https://dc.lft.to/lastmile_qr_scan", "android": "https://dc.lft.to/lastmile_qr_scan"}, "lon": -77.02151066666667, "type": "electric_bike"}, {"bike_id": "baabc7cdfc9e71d2ab5ed12dc43c1131", "is_reserved": 0, "fusion_lon": 0.0, "lat": 38.90299266666667, "is_disabled": 0, "name": "baabc7cdfc9e71d2ab5ed12dc43c1131", "fusion_lat": 0.0, "rental_uris": {"ios": "https://dc.lft.to/lastmile_qr_scan", "android": "https://dc.lft.to/lastmile_qr_scan"}, "lon": -77.03825283333333, "type": "electric_scooter"}, {"bike_id": "0a16283ddd21a79ea6e21702656161f9", "is_reserved": 0, "fusion_lon": 0.0, "lat": 38.91102983333333, "is_disabled": 0, "name": "0a16283ddd21a79ea6e21702656161f9", "fusion_lat": 0.0, "rental_uris": {"ios": "https://dc.lft.to/lastmile_qr_scan", "android": "https://dc.lft.to/lastmile_qr_scan"}, "lon": -77.00214133333333, "type": "electric_scooter"}, {"bike_id": "cbd1fb7d2de5fdef5f4c779f741d41bd", "is_reserved": 0, "fusion_lon": 0.0, "lat": 38.900336833333334, "is_disabled": 0, "name": "cbd1fb7d2de5fdef5f4c779f741d41bd", "fusion_lat": 0.0, "rental_uris": {"ios": "https://dc.lft.to/lastmile_qr_scan", "android": "https://dc.lft.to/lastmile_qr_scan"}, "lon": -76.99798883333334, "type": "electric_scooter"}, {"bike_id": "379d66bfd53b9860f5689c8091363204", "is_reserved": 0, "fusion_lon": 0.0, "lat": 38.90023433333333, "is_disabled": 0, "name": "379d66bfd53b9860f5689c8091363204", "fusion_lat": 0.0, "rental_uris": {"ios": "https://dc.lft.to/lastmile_qr_scan", "android": "https://dc.lft.to/lastmile_qr_scan"}, "lon": -76.99773666666667, "type": "electric_scooter"}, {"bike_id": "8f98a35e43220758998ffb21c1cae5db", "is_reserved": 0, "fusion_lon": 0.0, "lat": 38.92584166666666, "is_disabled": 0, "name": "8f98a35e43220758998ffb21c1cae5db", "fusion_lat": 0.0, "rental_uris": {"ios": "https://dc.lft.to/lastmile_qr_scan", "android": "https://dc.lft.to/lastmile_qr_scan"}, "lon": -77.00469283333334, "type": "electric_scooter"}, {"bike_id": "086d4e87887797c807a0f4d94d06b08f", "is_reserved": 0, "fusion_lon": 0.0, "lat": 38.935867, "is_disabled": 0, "name": "086d4e87887797c807a0f4d94d06b08f", "fusion_lat": 0.0, "rental_uris": {"ios": "https://dc.lft.to/lastmile_qr_scan", "android": "https://dc.lft.to/lastmile_qr_scan"}, "lon": -77.027614, "type": "electric_scooter"}, {"bike_id": "2845533d68390b611009b09a67956826", "is_reserved": 0, "fusion_lon": 0.0, "lat": 38.893397, "is_disabled": 0, "name": "2845533d68390b611009b09a67956826", "fusion_lat": 0.0, "rental_uris": {"ios": "https://dc.lft.to/lastmile_qr_scan", "android": "https://dc.lft.to/lastmile_qr_scan"}, "lon": -76.98457383333333, "type": "electric_scooter"}, {"bike_id": "0ce35806bf05daeff6583919c83a81b9", "is_reserved": 0, "fusion_lon": 0.0, "lat": 38.8851665, "is_disabled": 0, "name": "0ce35806bf05daeff6583919c83a81b9", "fusion_lat": 0.0, "rental_uris": {"ios": "https://dc.lft.to/lastmile_qr_scan", "android": "https://dc.lft.to/lastmile_qr_scan"}, "lon": -77.01544, "type": "electric_scooter"}, {"bike_id": "d6d184e334f582e05978043faeae63ed", "is_reserved": 0, "fusion_lon": 0.0, "lat": 38.91331483333333, "is_disabled": 0, "name": "d6d184e334f582e05978043faeae63ed", "fusion_lat": 0.0, "rental_uris": {"ios": "https://dc.lft.to/lastmile_qr_scan", "android": "https://dc.lft.to/lastmile_qr_scan"}, "lon": -77.04864516666666, "type": "electric_scooter"}, {"bike_id": "cb9db10e327e78112badf687d0ac08e2", "is_reserved": 0, "fusion_lon": 0.0, "lat": 38.91715633333333, "is_disabled": 0, "name": "cb9db10e327e78112badf687d0ac08e2", "fusion_lat": 0.0, "rental_uris": {"ios": "https://dc.lft.to/lastmile_qr_scan", "android": "https://dc.lft.to/lastmile_qr_scan"}, "lon": -77.03463066666667, "type": "electric_scooter"}, {"bike_id": "84ee50b68affc3041798f656d153e8fd", "is_reserved": 0, "fusion_lon": 0.0, "lat": 38.9264995, "is_disabled": 0, "name": "84ee50b68affc3041798f656d153e8fd", "fusion_lat": 0.0, "rental_uris": {"ios": "https://dc.lft.to/lastmile_qr_scan", "android": "https://dc.lft.to/lastmile_qr_scan"}, "lon": -77.03710233333334, "type": "electric_scooter"}, {"bike_id": "ef14f7a7309137b02a19151be2802c4c", "is_reserved": 0, "fusion_lon": 0.0, "lat": 38.878534, "is_disabled": 0, "name": "ef14f7a7309137b02a19151be2802c4c", "fusion_lat": 0.0, "rental_uris": {"ios": "https://dc.lft.to/lastmile_qr_scan", "android": "https://dc.lft.to/lastmile_qr_scan"}, "lon": -77.00508833333333, "type": "electric_scooter"}, {"bike_id": "f7627243930ee4687098b09e17f7d8c5", "is_reserved": 0, "fusion_lon": 0.0, "lat": 38.97091666666667, "is_disabled": 0, "name": "f7627243930ee4687098b09e17f7d8c5", "fusion_lat": 0.0, "rental_uris": {"ios": "https://dc.lft.to/lastmile_qr_scan", "android": "https://dc.lft.to/lastmile_qr_scan"}, "lon": -77.069656, "type": "electric_bike"}, {"bike_id": "030445615e349265082a46a080ef4bc1", "is_reserved": 0, "fusion_lon": 0.0, "lat": 38.927727, "is_disabled": 0, "name": "030445615e349265082a46a080ef4bc1", "fusion_lat": 0.0, "rental_uris": {"ios": "https://dc.lft.to/lastmile_qr_scan", "android": "https://dc.lft.to/lastmile_qr_scan"}, "lon": -77.02676133333334, "type": "electric_scooter"}, {"bike_id": "966c3b260d22bd10160a7664c9b8683f", "is_reserved": 0, "fusion_lon": 0.0, "lat": 38.89030916666667, "is_disabled": 0, "name": "966c3b260d22bd10160a7664c9b8683f", "fusion_lat": 0.0, "rental_uris": {"ios": "https://dc.lft.to/lastmile_qr_scan", "android": "https://dc.lft.to/lastmile_qr_scan"}, "lon": -76.93629516666667, "type": "electric_scooter"}, {"bike_id": "96497c5bc9f8aaf43b141e9f7441f728", "is_reserved": 0, "fusion_lon": 0.0, "lat": 38.923860833333336, "is_disabled": 0, "name": "96497c5bc9f8aaf43b141e9f7441f728", "fusion_lat": 0.0, "rental_uris": {"ios": "https://dc.lft.to/lastmile_qr_scan", "android": "https://dc.lft.to/lastmile_qr_scan"}, "lon": -77.22351916666666, "type": "electric_bike"}, {"bike_id": "3f5a59b919cd67b917c94900a5d49e2a", "is_reserved": 0, "fusion_lon": 0.0, "lat": 38.898739166666665, "is_disabled": 0, "name": "3f5a59b919cd67b917c94900a5d49e2a", "fusion_lat": 0.0, "rental_uris": {"ios": "https://dc.lft.to/lastmile_qr_scan", "android": "https://dc.lft.to/lastmile_qr_scan"}, "lon": -77.03272733333333, "type": "electric_scooter"}, {"bike_id": "f483b917f3df842256864506fbd7d091", "is_reserved": 0, "fusion_lon": 0.0, "lat": 38.924055, "is_disabled": 0, "name": "f483b917f3df842256864506fbd7d091", "fusion_lat": 0.0, "rental_uris": {"ios": "https://dc.lft.to/lastmile_qr_scan", "android": "https://dc.lft.to/lastmile_qr_scan"}, "lon": -77.02961566666667, "type": "electric_scooter"}, {"bike_id": "c2982731fe4803c29f3ac6fd2ffac1ed", "is_reserved": 0, "fusion_lon": 0.0, "lat": 38.853103833333336, "is_disabled": 0, "name": "c2982731fe4803c29f3ac6fd2ffac1ed", "fusion_lat": 0.0, "rental_uris": {"ios": "https://dc.lft.to/lastmile_qr_scan", "android": "https://dc.lft.to/lastmile_qr_scan"}, "lon": -76.98028083333334, "type": "electric_bike"}, {"bike_id": "a5e180a496c959e22a824bda845a3ad0", "is_reserved": 0, "fusion_lon": 0.0, "lat": 38.86507, "is_disabled": 0, "name": "a5e180a496c959e22a824bda845a3ad0", "fusion_lat": 0.0, "rental_uris": {"ios": "https://dc.lft.to/lastmile_qr_scan", "android": "https://dc.lft.to/lastmile_qr_scan"}, "lon": -76.98981616666667, "type": "electric_scooter"}, {"bike_id": "713351bf910d239163102c917d39f42c", "is_reserved": 0, "fusion_lon": 0.0, "lat": 38.926222333333335, "is_disabled": 0, "name": "713351bf910d239163102c917d39f42c", "fusion_lat": 0.0, "rental_uris": {"ios": "https://dc.lft.to/lastmile_qr_scan", "android": "https://dc.lft.to/lastmile_qr_scan"}, "lon": -77.0377995, "type": "electric_scooter"}, {"bike_id": "2eafc14727a6df2e9bb79c0a82dca595", "is_reserved": 0, "fusion_lon": 0.0, "lat": 38.90259833333333, "is_disabled": 0, "name": "2eafc14727a6df2e9bb79c0a82dca595", "fusion_lat": 0.0, "rental_uris": {"ios": "https://dc.lft.to/lastmile_qr_scan", "android": "https://dc.lft.to/lastmile_qr_scan"}, "lon": -77.03969483333333, "type": "electric_scooter"}, {"bike_id": "dc2f89da3ca1c39bdf4c9d72f7ac8017", "is_reserved": 0, "fusion_lon": 0.0, "lat": 38.900647, "is_disabled": 0, "name": "dc2f89da3ca1c39bdf4c9d72f7ac8017", "fusion_lat": 0.0, "rental_uris": {"ios": "https://dc.lft.to/lastmile_qr_scan", "android": "https://dc.lft.to/lastmile_qr_scan"}, "lon": -76.98712566666667, "type": "electric_scooter"}, {"bike_id": "dce8e37ea2d96bd9cad44925a4c58633", "is_reserved": 0, "fusion_lon": 0.0, "lat": 38.8624195, "is_disabled": 0, "name": "dce8e37ea2d96bd9cad44925a4c58633", "fusion_lat": 0.0, "rental_uris": {"ios": "https://dc.lft.to/lastmile_qr_scan", "android": "https://dc.lft.to/lastmile_qr_scan"}, "lon": -76.99493583333333, "type": "electric_scooter"}, {"bike_id": "8c0bc55b985b526412d02e3304569768", "is_reserved": 0, "fusion_lon": 0.0, "lat": 38.869895, "is_disabled": 0, "name": "8c0bc55b985b526412d02e3304569768", "fusion_lat": 0.0, "rental_uris": {"ios": "https://dc.lft.to/lastmile_qr_scan", "android": "https://dc.lft.to/lastmile_qr_scan"}, "lon": -76.95989166666666, "type": "electric_bike"}, {"bike_id": "c824f88e73776783143e39aa8d482475", "is_reserved": 0, "fusion_lon": 0.0, "lat": 38.893868, "is_disabled": 0, "name": "c824f88e73776783143e39aa8d482475", "fusion_lat": 0.0, "rental_uris": {"ios": "https://dc.lft.to/lastmile_qr_scan", "android": "https://dc.lft.to/lastmile_qr_scan"}, "lon": -77.00597933333333, "type": "electric_scooter"}, {"bike_id": "7213f9a60ed144d971e120447340c741", "is_reserved": 0, "fusion_lon": 0.0, "lat": 38.91668, "is_disabled": 0, "name": "7213f9a60ed144d971e120447340c741", "fusion_lat": 0.0, "rental_uris": {"ios": "https://dc.lft.to/lastmile_qr_scan", "android": "https://dc.lft.to/lastmile_qr_scan"}, "lon": -77.02710866666666, "type": "electric_scooter"}, {"bike_id": "4742432d0ca61e1ba41b3a46cb9ff90d", "is_reserved": 0, "fusion_lon": 0.0, "lat": 38.8226475, "is_disabled": 0, "name": "4742432d0ca61e1ba41b3a46cb9ff90d", "fusion_lat": 0.0, "rental_uris": {"ios": "https://dc.lft.to/lastmile_qr_scan", "android": "https://dc.lft.to/lastmile_qr_scan"}, "lon": -77.05814733333334, "type": "electric_bike"}, {"bike_id": "db35a8c0eaa0881d011bd059b64a4867", "is_reserved": 0, "fusion_lon": 0.0, "lat": 38.9850335, "is_disabled": 0, "name": "db35a8c0eaa0881d011bd059b64a4867", "fusion_lat": 0.0, "rental_uris": {"ios": "https://dc.lft.to/lastmile_qr_scan", "android": "https://dc.lft.to/lastmile_qr_scan"}, "lon": -76.98206533333334, "type": "electric_bike"}, {"bike_id": "dc17a903fc882add283c41b49d2a93b6", "is_reserved": 0, "fusion_lon": 0.0, "lat": 38.907943, "is_disabled": 0, "name": "dc17a903fc882add283c41b49d2a93b6", "fusion_lat": 0.0, "rental_uris": {"ios": "https://dc.lft.to/lastmile_qr_scan", "android": "https://dc.lft.to/lastmile_qr_scan"}, "lon": -77.03648533333333, "type": "electric_scooter"}, {"bike_id": "2defc6494a58064a6eabaf935c79bda7", "is_reserved": 0, "fusion_lon": 0.0, "lat": 38.911114833333336, "is_disabled": 0, "name": "2defc6494a58064a6eabaf935c79bda7", "fusion_lat": 0.0, "rental_uris": {"ios": "https://dc.lft.to/lastmile_qr_scan", "android": "https://dc.lft.to/lastmile_qr_scan"}, "lon": -77.037284, "type": "electric_scooter"}, {"bike_id": "2f149804350d0f8f8a49f3a2026e2a39", "is_reserved": 0, "fusion_lon": 0.0, "lat": 38.906650666666664, "is_disabled": 0, "name": "2f149804350d0f8f8a49f3a2026e2a39", "fusion_lat": 0.0, "rental_uris": {"ios": "https://dc.lft.to/lastmile_qr_scan", "android": "https://dc.lft.to/lastmile_qr_scan"}, "lon": -77.02707266666667, "type": "electric_scooter"}, {"bike_id": "96017a55df735bbdd954acc96e9dbf61", "is_reserved": 0, "fusion_lon": 0.0, "lat": 38.93234533333333, "is_disabled": 0, "name": "96017a55df735bbdd954acc96e9dbf61", "fusion_lat": 0.0, "rental_uris": {"ios": "https://dc.lft.to/lastmile_qr_scan", "android": "https://dc.lft.to/lastmile_qr_scan"}, "lon": -77.03825766666667, "type": "electric_scooter"}, {"bike_id": "0934a0e61d2c5a3d9e0fb64fbd7e3e80", "is_reserved": 0, "fusion_lon": 0.0, "lat": 38.86426216666667, "is_disabled": 0, "name": "0934a0e61d2c5a3d9e0fb64fbd7e3e80", "fusion_lat": 0.0, "rental_uris": {"ios": "https://dc.lft.to/lastmile_qr_scan", "android": "https://dc.lft.to/lastmile_qr_scan"}, "lon": -76.98575483333333, "type": "electric_scooter"}, {"bike_id": "68015607cd8da378ba9300f76c874024", "is_reserved": 0, "fusion_lon": 0.0, "lat": 38.8937125, "is_disabled": 0, "name": "68015607cd8da378ba9300f76c874024", "fusion_lat": 0.0, "rental_uris": {"ios": "https://dc.lft.to/lastmile_qr_scan", "android": "https://dc.lft.to/lastmile_qr_scan"}, "lon": -77.02838433333334, "type": "electric_scooter"}, {"bike_id": "48690dc9d07f08f87a19ce5458720036", "is_reserved": 0, "fusion_lon": 0.0, "lat": 38.93075966666667, "is_disabled": 0, "name": "48690dc9d07f08f87a19ce5458720036", "fusion_lat": 0.0, "rental_uris": {"ios": "https://dc.lft.to/lastmile_qr_scan", "android": "https://dc.lft.to/lastmile_qr_scan"}, "lon": -77.03416933333334, "type": "electric_scooter"}, {"bike_id": "7ae4a1c96aad6569257f2bf623f66eb0", "is_reserved": 0, "fusion_lon": 0.0, "lat": 38.907187666666665, "is_disabled": 0, "name": "7ae4a1c96aad6569257f2bf623f66eb0", "fusion_lat": 0.0, "rental_uris": {"ios": "https://dc.lft.to/lastmile_qr_scan", "android": "https://dc.lft.to/lastmile_qr_scan"}, "lon": -77.03223933333334, "type": "electric_scooter"}, {"bike_id": "a1aa9d765308b635c723be647aa9802a", "is_reserved": 0, "fusion_lon": 0.0, "lat": 38.90786033333333, "is_disabled": 0, "name": "a1aa9d765308b635c723be647aa9802a", "fusion_lat": 0.0, "rental_uris": {"ios": "https://dc.lft.to/lastmile_qr_scan", "android": "https://dc.lft.to/lastmile_qr_scan"}, "lon": -77.03855633333333, "type": "electric_scooter"}, {"bike_id": "af2ecba6d340ac55c4309eda6dbf8303", "is_reserved": 0, "fusion_lon": 0.0, "lat": 38.895312833333335, "is_disabled": 0, "name": "af2ecba6d340ac55c4309eda6dbf8303", "fusion_lat": 0.0, "rental_uris": {"ios": "https://dc.lft.to/lastmile_qr_scan", "android": "https://dc.lft.to/lastmile_qr_scan"}, "lon": -76.94885916666667, "type": "electric_scooter"}, {"bike_id": "2d9f884899a1d0b00896025d891d1179", "is_reserved": 0, "fusion_lon": 0.0, "lat": 38.89456233333333, "is_disabled": 0, "name": "2d9f884899a1d0b00896025d891d1179", "fusion_lat": 0.0, "rental_uris": {"ios": "https://dc.lft.to/lastmile_qr_scan", "android": "https://dc.lft.to/lastmile_qr_scan"}, "lon": -76.97036266666667, "type": "electric_bike"}, {"bike_id": "564778540d350807f293256367458edf", "is_reserved": 0, "fusion_lon": 0.0, "lat": 38.92653633333333, "is_disabled": 0, "name": "564778540d350807f293256367458edf", "fusion_lat": 0.0, "rental_uris": {"ios": "https://dc.lft.to/lastmile_qr_scan", "android": "https://dc.lft.to/lastmile_qr_scan"}, "lon": -77.03715266666667, "type": "electric_scooter"}, {"bike_id": "819f1dea0d0427f76741b188bb52fda5", "is_reserved": 0, "fusion_lon": 0.0, "lat": 38.9184075, "is_disabled": 0, "name": "819f1dea0d0427f76741b188bb52fda5", "fusion_lat": 0.0, "rental_uris": {"ios": "https://dc.lft.to/lastmile_qr_scan", "android": "https://dc.lft.to/lastmile_qr_scan"}, "lon": -77.0260585, "type": "electric_scooter"}, {"bike_id": "e72b3ac75ea7c9799fa68d8b8955c4c1", "is_reserved": 0, "fusion_lon": 0.0, "lat": 38.90054, "is_disabled": 0, "name": "e72b3ac75ea7c9799fa68d8b8955c4c1", "fusion_lat": 0.0, "rental_uris": {"ios": "https://dc.lft.to/lastmile_qr_scan", "android": "https://dc.lft.to/lastmile_qr_scan"}, "lon": -77.03172716666667, "type": "electric_scooter"}, {"bike_id": "43df8bcd2c8f200ce9726d83fb23fcfe", "is_reserved": 0, "fusion_lon": 0.0, "lat": 38.913883, "is_disabled": 0, "name": "43df8bcd2c8f200ce9726d83fb23fcfe", "fusion_lat": 0.0, "rental_uris": {"ios": "https://dc.lft.to/lastmile_qr_scan", "android": "https://dc.lft.to/lastmile_qr_scan"}, "lon": -77.04616966666667, "type": "electric_scooter"}, {"bike_id": "66efa427565dd0c6d18d9473120937ba", "is_reserved": 0, "fusion_lon": 0.0, "lat": 38.9336155, "is_disabled": 0, "name": "66efa427565dd0c6d18d9473120937ba", "fusion_lat": 0.0, "rental_uris": {"ios": "https://dc.lft.to/lastmile_qr_scan", "android": "https://dc.lft.to/lastmile_qr_scan"}, "lon": -77.05723133333333, "type": "electric_scooter"}, {"bike_id": "a2aa17530c3bf897828c19afb854f253", "is_reserved": 0, "fusion_lon": 0.0, "lat": 38.9149325, "is_disabled": 0, "name": "a2aa17530c3bf897828c19afb854f253", "fusion_lat": 0.0, "rental_uris": {"ios": "https://dc.lft.to/lastmile_qr_scan", "android": "https://dc.lft.to/lastmile_qr_scan"}, "lon": -76.98372566666667, "type": "electric_scooter"}, {"bike_id": "ee185afa9e04370763ae254fe9e891ea", "is_reserved": 0, "fusion_lon": 0.0, "lat": 38.885927333333335, "is_disabled": 0, "name": "ee185afa9e04370763ae254fe9e891ea", "fusion_lat": 0.0, "rental_uris": {"ios": "https://dc.lft.to/lastmile_qr_scan", "android": "https://dc.lft.to/lastmile_qr_scan"}, "lon": -77.01765083333333, "type": "electric_scooter"}, {"bike_id": "f795fc09bb0906f3142cd481dd5fc39b", "is_reserved": 0, "fusion_lon": 0.0, "lat": 38.91580416666667, "is_disabled": 0, "name": "f795fc09bb0906f3142cd481dd5fc39b", "fusion_lat": 0.0, "rental_uris": {"ios": "https://dc.lft.to/lastmile_qr_scan", "android": "https://dc.lft.to/lastmile_qr_scan"}, "lon": -77.01234316666667, "type": "electric_scooter"}, {"bike_id": "c85ed1b5697ea837f3d0683a5eb8daff", "is_reserved": 0, "fusion_lon": 0.0, "lat": 38.91040183333333, "is_disabled": 0, "name": "c85ed1b5697ea837f3d0683a5eb8daff", "fusion_lat": 0.0, "rental_uris": {"ios": "https://dc.lft.to/lastmile_qr_scan", "android": "https://dc.lft.to/lastmile_qr_scan"}, "lon": -77.0358015, "type": "electric_scooter"}, {"bike_id": "ca909fbcd69dee6b8f0a0c8be60ad80d", "is_reserved": 0, "fusion_lon": 0.0, "lat": 38.82264283333333, "is_disabled": 0, "name": "ca909fbcd69dee6b8f0a0c8be60ad80d", "fusion_lat": 0.0, "rental_uris": {"ios": "https://dc.lft.to/lastmile_qr_scan", "android": "https://dc.lft.to/lastmile_qr_scan"}, "lon": -77.00552483333334, "type": "electric_bike"}, {"bike_id": "953f52b37b8d2ccaf96366365fa5f2c9", "is_reserved": 0, "fusion_lon": 0.0, "lat": 38.907772, "is_disabled": 0, "name": "953f52b37b8d2ccaf96366365fa5f2c9", "fusion_lat": 0.0, "rental_uris": {"ios": "https://dc.lft.to/lastmile_qr_scan", "android": "https://dc.lft.to/lastmile_qr_scan"}, "lon": -77.0382155, "type": "electric_scooter"}, {"bike_id": "2297429d7176f7172129b71b159594c2", "is_reserved": 0, "fusion_lon": 0.0, "lat": 38.905757, "is_disabled": 0, "name": "2297429d7176f7172129b71b159594c2", "fusion_lat": 0.0, "rental_uris": {"ios": "https://dc.lft.to/lastmile_qr_scan", "android": "https://dc.lft.to/lastmile_qr_scan"}, "lon": -77.0347865, "type": "electric_scooter"}, {"bike_id": "587043b59c7c31a387610eb3b32888f9", "is_reserved": 0, "fusion_lon": 0.0, "lat": 38.90366616666667, "is_disabled": 0, "name": "587043b59c7c31a387610eb3b32888f9", "fusion_lat": 0.0, "rental_uris": {"ios": "https://dc.lft.to/lastmile_qr_scan", "android": "https://dc.lft.to/lastmile_qr_scan"}, "lon": -77.03920983333333, "type": "electric_scooter"}, {"bike_id": "c345c165c9c7fcd981b1b5c3b458211b", "is_reserved": 0, "fusion_lon": 0.0, "lat": 38.880063, "is_disabled": 0, "name": "c345c165c9c7fcd981b1b5c3b458211b", "fusion_lat": 0.0, "rental_uris": {"ios": "https://dc.lft.to/lastmile_qr_scan", "android": "https://dc.lft.to/lastmile_qr_scan"}, "lon": -76.91593166666667, "type": "electric_bike"}, {"bike_id": "72e764b2156b1c9d292561bae7fda66e", "is_reserved": 0, "fusion_lon": 0.0, "lat": 38.923505, "is_disabled": 0, "name": "72e764b2156b1c9d292561bae7fda66e", "fusion_lat": 0.0, "rental_uris": {"ios": "https://dc.lft.to/lastmile_qr_scan", "android": "https://dc.lft.to/lastmile_qr_scan"}, "lon": -77.0350635, "type": "electric_scooter"}, {"bike_id": "b7ff7a9762ee91632ebf5f4f3ceb7019", "is_reserved": 0, "fusion_lon": 0.0, "lat": 38.90899783333333, "is_disabled": 0, "name": "b7ff7a9762ee91632ebf5f4f3ceb7019", "fusion_lat": 0.0, "rental_uris": {"ios": "https://dc.lft.to/lastmile_qr_scan", "android": "https://dc.lft.to/lastmile_qr_scan"}, "lon": -77.08618716666666, "type": "electric_scooter"}, {"bike_id": "8ff03c93c9c07574e48f95663e7004c8", "is_reserved": 0, "fusion_lon": 0.0, "lat": 38.88380383333333, "is_disabled": 0, "name": "8ff03c93c9c07574e48f95663e7004c8", "fusion_lat": 0.0, "rental_uris": {"ios": "https://dc.lft.to/lastmile_qr_scan", "android": "https://dc.lft.to/lastmile_qr_scan"}, "lon": -76.949227, "type": "electric_scooter"}, {"bike_id": "7ed266f173f59ecf4f92eeb50094edd5", "is_reserved": 0, "fusion_lon": 0.0, "lat": 38.935190166666665, "is_disabled": 0, "name": "7ed266f173f59ecf4f92eeb50094edd5", "fusion_lat": 0.0, "rental_uris": {"ios": "https://dc.lft.to/lastmile_qr_scan", "android": "https://dc.lft.to/lastmile_qr_scan"}, "lon": -77.03342116666667, "type": "electric_scooter"}, {"bike_id": "71d4b63062ca02909df2f69fb001e60a", "is_reserved": 0, "fusion_lon": 0.0, "lat": 38.892506833333336, "is_disabled": 0, "name": "71d4b63062ca02909df2f69fb001e60a", "fusion_lat": 0.0, "rental_uris": {"ios": "https://dc.lft.to/lastmile_qr_scan", "android": "https://dc.lft.to/lastmile_qr_scan"}, "lon": -77.03188766666666, "type": "electric_scooter"}, {"bike_id": "98959b4d4513cd5b96a6a4d888b52c5c", "is_reserved": 0, "fusion_lon": 0.0, "lat": 38.91719716666667, "is_disabled": 0, "name": "98959b4d4513cd5b96a6a4d888b52c5c", "fusion_lat": 0.0, "rental_uris": {"ios": "https://dc.lft.to/lastmile_qr_scan", "android": "https://dc.lft.to/lastmile_qr_scan"}, "lon": -77.03835933333333, "type": "electric_scooter"}, {"bike_id": "c8f52377417856d20c09808318a1214f", "is_reserved": 0, "fusion_lon": 0.0, "lat": 38.920849, "is_disabled": 0, "name": "c8f52377417856d20c09808318a1214f", "fusion_lat": 0.0, "rental_uris": {"ios": "https://dc.lft.to/lastmile_qr_scan", "android": "https://dc.lft.to/lastmile_qr_scan"}, "lon": -77.02416533333333, "type": "electric_scooter"}, {"bike_id": "dcde69bdf74f9b2a9522b299adc6f6e5", "is_reserved": 0, "fusion_lon": 0.0, "lat": 38.90284666666667, "is_disabled": 0, "name": "dcde69bdf74f9b2a9522b299adc6f6e5", "fusion_lat": 0.0, "rental_uris": {"ios": "https://dc.lft.to/lastmile_qr_scan", "android": "https://dc.lft.to/lastmile_qr_scan"}, "lon": -77.0366335, "type": "electric_scooter"}, {"bike_id": "0fdfacfe5083c5576bd7bb4c8fa37696", "is_reserved": 0, "fusion_lon": 0.0, "lat": 38.82448633333333, "is_disabled": 0, "name": "0fdfacfe5083c5576bd7bb4c8fa37696", "fusion_lat": 0.0, "rental_uris": {"ios": "https://dc.lft.to/lastmile_qr_scan", "android": "https://dc.lft.to/lastmile_qr_scan"}, "lon": -77.07042383333334, "type": "electric_bike"}, {"bike_id": "8a8734321f2acaecd1544553320167cd", "is_reserved": 0, "fusion_lon": 0.0, "lat": 38.9333515, "is_disabled": 0, "name": "8a8734321f2acaecd1544553320167cd", "fusion_lat": 0.0, "rental_uris": {"ios": "https://dc.lft.to/lastmile_qr_scan", "android": "https://dc.lft.to/lastmile_qr_scan"}, "lon": -77.0420295, "type": "electric_bike"}, {"bike_id": "b1108b0266334716a3f53fe0a4fd55bc", "is_reserved": 0, "fusion_lon": 0.0, "lat": 38.92574833333333, "is_disabled": 0, "name": "b1108b0266334716a3f53fe0a4fd55bc", "fusion_lat": 0.0, "rental_uris": {"ios": "https://dc.lft.to/lastmile_qr_scan", "android": "https://dc.lft.to/lastmile_qr_scan"}, "lon": -77.0378655, "type": "electric_scooter"}, {"bike_id": "702d7449c032b57208adc706ec87cede", "is_reserved": 0, "fusion_lon": 0.0, "lat": 38.918535166666665, "is_disabled": 0, "name": "702d7449c032b57208adc706ec87cede", "fusion_lat": 0.0, "rental_uris": {"ios": "https://dc.lft.to/lastmile_qr_scan", "android": "https://dc.lft.to/lastmile_qr_scan"}, "lon": -76.96092233333333, "type": "electric_bike"}, {"bike_id": "63298f72018e53fe3a8195f0a9ec1c77", "is_reserved": 0, "fusion_lon": 0.0, "lat": 38.955512666666664, "is_disabled": 0, "name": "63298f72018e53fe3a8195f0a9ec1c77", "fusion_lat": 0.0, "rental_uris": {"ios": "https://dc.lft.to/lastmile_qr_scan", "android": "https://dc.lft.to/lastmile_qr_scan"}, "lon": -76.94008883333333, "type": "electric_bike"}, {"bike_id": "693125436e1651fe5b690b8c48b58040", "is_reserved": 0, "fusion_lon": 0.0, "lat": 38.922310833333334, "is_disabled": 0, "name": "693125436e1651fe5b690b8c48b58040", "fusion_lat": 0.0, "rental_uris": {"ios": "https://dc.lft.to/lastmile_qr_scan", "android": "https://dc.lft.to/lastmile_qr_scan"}, "lon": -77.04128933333334, "type": "electric_scooter"}, {"bike_id": "1cac3bf2033b4356acaafac08d9378b5", "is_reserved": 0, "fusion_lon": 0.0, "lat": 38.901760833333334, "is_disabled": 0, "name": "1cac3bf2033b4356acaafac08d9378b5", "fusion_lat": 0.0, "rental_uris": {"ios": "https://dc.lft.to/lastmile_qr_scan", "android": "https://dc.lft.to/lastmile_qr_scan"}, "lon": -77.02195833333333, "type": "electric_scooter"}, {"bike_id": "1248ea2254f33e64166fc8eaac1d0df3", "is_reserved": 0, "fusion_lon": 0.0, "lat": 38.941799, "is_disabled": 0, "name": "1248ea2254f33e64166fc8eaac1d0df3", "fusion_lat": 0.0, "rental_uris": {"ios": "https://dc.lft.to/lastmile_qr_scan", "android": "https://dc.lft.to/lastmile_qr_scan"}, "lon": -77.02528833333334, "type": "electric_scooter"}, {"bike_id": "1cbfe1f00d5ca5f75db1603758fc9a65", "is_reserved": 0, "fusion_lon": 0.0, "lat": 38.897361333333336, "is_disabled": 0, "name": "1cbfe1f00d5ca5f75db1603758fc9a65", "fusion_lat": 0.0, "rental_uris": {"ios": "https://dc.lft.to/lastmile_qr_scan", "android": "https://dc.lft.to/lastmile_qr_scan"}, "lon": -77.02756116666667, "type": "electric_scooter"}, {"bike_id": "c3d0ddcdfdc270ff3e234a6ea85fb7e4", "is_reserved": 0, "fusion_lon": 0.0, "lat": 38.89226766666667, "is_disabled": 0, "name": "c3d0ddcdfdc270ff3e234a6ea85fb7e4", "fusion_lat": 0.0, "rental_uris": {"ios": "https://dc.lft.to/lastmile_qr_scan", "android": "https://dc.lft.to/lastmile_qr_scan"}, "lon": -77.0258245, "type": "electric_scooter"}, {"bike_id": "07a0082a9a934a02c1b04e55491ea531", "is_reserved": 0, "fusion_lon": 0.0, "lat": 38.919809, "is_disabled": 0, "name": "07a0082a9a934a02c1b04e55491ea531", "fusion_lat": 0.0, "rental_uris": {"ios": "https://dc.lft.to/lastmile_qr_scan", "android": "https://dc.lft.to/lastmile_qr_scan"}, "lon": -77.02402783333334, "type": "electric_scooter"}, {"bike_id": "485687577e8aff82cb5918f0a819bd6e", "is_reserved": 0, "fusion_lon": 0.0, "lat": 38.902769166666666, "is_disabled": 0, "name": "485687577e8aff82cb5918f0a819bd6e", "fusion_lat": 0.0, "rental_uris": {"ios": "https://dc.lft.to/lastmile_qr_scan", "android": "https://dc.lft.to/lastmile_qr_scan"}, "lon": -77.04055766666667, "type": "electric_scooter"}, {"bike_id": "27fb3d37b1d20390d11e970fe994c2e5", "is_reserved": 0, "fusion_lon": 0.0, "lat": 38.916581666666666, "is_disabled": 0, "name": "27fb3d37b1d20390d11e970fe994c2e5", "fusion_lat": 0.0, "rental_uris": {"ios": "https://dc.lft.to/lastmile_qr_scan", "android": "https://dc.lft.to/lastmile_qr_scan"}, "lon": -77.0363885, "type": "electric_scooter"}, {"bike_id": "8aef9ef983a6ad9c7c641bbf3e3a4601", "is_reserved": 0, "fusion_lon": 0.0, "lat": 38.865898, "is_disabled": 0, "name": "8aef9ef983a6ad9c7c641bbf3e3a4601", "fusion_lat": 0.0, "rental_uris": {"ios": "https://dc.lft.to/lastmile_qr_scan", "android": "https://dc.lft.to/lastmile_qr_scan"}, "lon": -76.93225116666666, "type": "electric_bike"}, {"bike_id": "6f93eec5706744c5ede21d72e61c2134", "is_reserved": 0, "fusion_lon": 0.0, "lat": 38.93953833333333, "is_disabled": 0, "name": "6f93eec5706744c5ede21d72e61c2134", "fusion_lat": 0.0, "rental_uris": {"ios": "https://dc.lft.to/lastmile_qr_scan", "android": "https://dc.lft.to/lastmile_qr_scan"}, "lon": -77.032657, "type": "electric_scooter"}, {"bike_id": "71a43c463d6264305f37a0372fcba285", "is_reserved": 0, "fusion_lon": 0.0, "lat": 38.80694, "is_disabled": 0, "name": "71a43c463d6264305f37a0372fcba285", "fusion_lat": 0.0, "rental_uris": {"ios": "https://dc.lft.to/lastmile_qr_scan", "android": "https://dc.lft.to/lastmile_qr_scan"}, "lon": -77.05962216666667, "type": "electric_bike"}, {"bike_id": "9d0b5f4cf3ee8b4be05c6e9acf478c04", "is_reserved": 0, "fusion_lon": 0.0, "lat": 38.852245833333335, "is_disabled": 0, "name": "9d0b5f4cf3ee8b4be05c6e9acf478c04", "fusion_lat": 0.0, "rental_uris": {"ios": "https://dc.lft.to/lastmile_qr_scan", "android": "https://dc.lft.to/lastmile_qr_scan"}, "lon": -77.12959916666667, "type": "electric_bike"}, {"bike_id": "89d6a0a03d844d71fbf8dff7c07b1423", "is_reserved": 0, "fusion_lon": 0.0, "lat": 38.927649833333334, "is_disabled": 0, "name": "89d6a0a03d844d71fbf8dff7c07b1423", "fusion_lat": 0.0, "rental_uris": {"ios": "https://dc.lft.to/lastmile_qr_scan", "android": "https://dc.lft.to/lastmile_qr_scan"}, "lon": -77.05378233333333, "type": "electric_scooter"}, {"bike_id": "b0da15606a6976ebbaec6ba9517404a6", "is_reserved": 0, "fusion_lon": 0.0, "lat": 38.920972166666665, "is_disabled": 0, "name": "b0da15606a6976ebbaec6ba9517404a6", "fusion_lat": 0.0, "rental_uris": {"ios": "https://dc.lft.to/lastmile_qr_scan", "android": "https://dc.lft.to/lastmile_qr_scan"}, "lon": -77.025139, "type": "electric_scooter"}, {"bike_id": "29ba24be43490df8134f7fc58c090551", "is_reserved": 0, "fusion_lon": 0.0, "lat": 38.927947333333336, "is_disabled": 0, "name": "29ba24be43490df8134f7fc58c090551", "fusion_lat": 0.0, "rental_uris": {"ios": "https://dc.lft.to/lastmile_qr_scan", "android": "https://dc.lft.to/lastmile_qr_scan"}, "lon": -77.03150683333334, "type": "electric_scooter"}, {"bike_id": "39663d0ff3e4f6e5d8ede5b1526cb0df", "is_reserved": 0, "fusion_lon": 0.0, "lat": 38.865623666666664, "is_disabled": 0, "name": "39663d0ff3e4f6e5d8ede5b1526cb0df", "fusion_lat": 0.0, "rental_uris": {"ios": "https://dc.lft.to/lastmile_qr_scan", "android": "https://dc.lft.to/lastmile_qr_scan"}, "lon": -76.98943733333333, "type": "electric_scooter"},