{"data": {"bikes": [{"bike_id": "33a4dbb748a018aa5a25c52efde7d400", "is_reserved": 0, "fusion_lon": 0.0, "lat": 38.852896666666666, "is_disabled": 0, "name": "33a4dbb748a018aa5a25c52efde7d400", "fusion_lat": 0.0, "rental_uris": {"ios": "https://dc.lft.to/lastmile_qr_scan", "android": "https://dc.lft.to/lastmile_qr_scan"}, "lon": -77.05273166666667, "type": "electric_bike"}, {"bike_id": "baa212517243ff2507db9f73ce043cee", "is_reserved": 0, "fusion_lon": 0.0, "lat": 38.856849, "is_disabled": 0, "name": "baa212517243ff2507db9f73ce043cee", "fusion_lat": 0.0, "rental_uris": {"ios": "https://dc.lft.to/lastmile_qr_scan", "android": "https://dc.lft.to/lastmile_qr_scan"}, "lon": -77.085681, "type": "electric_bike"}, {"bike_id": "57ac6f970a2f62bc89ec71dac36d3be2", "is_reserved": 0, "fusion_lon": 0.0, "lat": 38.8637855, "is_disabled": 0, "name": "57ac6f970a2f62bc89ec71dac36d3be2", "fusion_lat": 0.0, "rental_uris": {"ios": "https://dc.lft.to/lastmile_qr_scan", "android": "https://dc.lft.to/lastmile_qr_scan"}, "lon": -76.99055583333333, "type": "electric_scooter"}, {"bike_id": "980de6049f2776fb131529ff4e27cc85", "is_reserved": 0, "fusion_lon": 0.0, "lat": 38.900353, "is_disabled": 0, "name": "980de6049f2776fb131529ff4e27cc85", "fusion_lat": 0.0, "rental_uris": {"ios": "https://dc.lft.to/lastmile_qr_scan", "android": "https://dc.lft.to/lastmile_qr_scan"}, "lon": -76.99847666666666, "type": "electric_scooter"}, {"bike_id": "905e33c55b74ac7627f51150f375a34f", "is_reserved": 0, "fusion_lon": 0.0, "lat": 38.865266166666665, "is_disabled": 0, "name": "905e33c55b74ac7627f51150f375a34f", "fusion_lat": 0.0, "rental_uris": {"ios": "https://dc.lft.to/lastmile_qr_scan", "android": "https://dc.lft.to/lastmile_qr_scan"}, "lon": -76.9903, "type": "electric_scooter"}, {"bike_id": "1737d92ad8f7b7b6a54b5ef4e9685e35", "is_reserved": 0, "fusion_lon": 0.0, "lat": 38.918349, "is_disabled": 0, "name": "1737d92ad8f7b7b6a54b5ef4e9685e35", "fusion_lat": 0.0, "rental_uris": {"ios": "https://dc.lft.to/lastmile_qr_scan", "android": "https://dc.lft.to/lastmile_qr_scan"}, "lon": -77.0321425, "type": "electric_scooter"}, {"bike_id": "2245b9cbe3c02c80a7afbd728a8dfedb", "is_reserved": 0, "fusion_lon": 0.0, "lat": 38.88375216666667, "is_disabled": 0, "name": "2245b9cbe3c02c80a7afbd728a8dfedb", "fusion_lat": 0.0, "rental_uris": {"ios": "https://dc.lft.to/lastmile_qr_scan", "android": "https://dc.lft.to/lastmile_qr_scan"}, "lon": -76.99517833333333, "type": "electric_scooter"}, {"bike_id": "d74e129210660221ce96bc3abc082210", "is_reserved": 0, "fusion_lon": 0.0, "lat": 38.91031066666667, "is_disabled": 0, "name": "d74e129210660221ce96bc3abc082210", "fusion_lat": 0.0, "rental_uris": {"ios": "https://dc.lft.to/lastmile_qr_scan", "android": "https://dc.lft.to/lastmile_qr_scan"}, "lon": -77.03860566666667, "type": "electric_scooter"}, {"bike_id": "e63e26984f3f41ccff0a45f390336f95", "is_reserved": 0, "fusion_lon": 0.0, "lat": 38.9288285, "is_disabled": 0, "name": "e63e26984f3f41ccff0a45f390336f95", "fusion_lat": 0.0, "rental_uris": {"ios": "https://dc.lft.to/lastmile_qr_scan", "android": "https://dc.lft.to/lastmile_qr_scan"}, "lon": -77.03257033333334, "type": "electric_scooter"}, {"bike_id": "3cd5e57b9ad7f3e6e58c9ce54e67ecc0", "is_reserved": 0, "fusion_lon": 0.0, "lat": 38.871179, "is_disabled": 0, "name": "3cd5e57b9ad7f3e6e58c9ce54e67ecc0", "fusion_lat": 0.0, "rental_uris": {"ios": "https://dc.lft.to/lastmile_qr_scan", "android": "https://dc.lft.to/lastmile_qr_scan"}, "lon": -76.97746133333334, "type": "electric_scooter"}, {"bike_id": "02dce212c694e74297ed96d1617d4cac", "is_reserved": 0, "fusion_lon": 0.0, "lat": 38.924777, "is_disabled": 0, "name": "02dce212c694e74297ed96d1617d4cac", "fusion_lat": 0.0, "rental_uris": {"ios": "https://dc.lft.to/lastmile_qr_scan", "android": "https://dc.lft.to/lastmile_qr_scan"}, "lon": -77.05212916666666, "type": "electric_scooter"}, {"bike_id": "a99c323856aa63fafab604fda8ab0507", "is_reserved": 0, "fusion_lon": 0.0, "lat": 38.8984505, "is_disabled": 0, "name": "a99c323856aa63fafab604fda8ab0507", "fusion_lat": 0.0, "rental_uris": {"ios": "https://dc.lft.to/lastmile_qr_scan", "android": "https://dc.lft.to/lastmile_qr_scan"}, "lon": -77.03272633333333, "type": "electric_scooter"}, {"bike_id": "7c677da1b3e056e924d9a219d8625857", "is_reserved": 0, "fusion_lon": 0.0, "lat": 38.907967166666666, "is_disabled": 0, "name": "7c677da1b3e056e924d9a219d8625857", "fusion_lat": 0.0, "rental_uris": {"ios": "https://dc.lft.to/lastmile_qr_scan", "android": "https://dc.lft.to/lastmile_qr_scan"}, "lon": -76.99699583333333, "type": "electric_scooter"}, {"bike_id": "61305fc780bf4ccb98e0a476351ef11b", "is_reserved": 0, "fusion_lon": 0.0, "lat": 38.920361, "is_disabled": 0, "name": "61305fc780bf4ccb98e0a476351ef11b", "fusion_lat": 0.0, "rental_uris": {"ios": "https://dc.lft.to/lastmile_qr_scan", "android": "https://dc.lft.to/lastmile_qr_scan"}, "lon": -77.03383333333333, "type": "electric_scooter"}, {"bike_id": "46463f4071a6a09b9a7cc7818041b22f", "is_reserved": 0, "fusion_lon": 0.0, "lat": 38.94184116666667, "is_disabled": 0, "name": "46463f4071a6a09b9a7cc7818041b22f", "fusion_lat": 0.0, "rental_uris": {"ios": "https://dc.lft.to/lastmile_qr_scan", "android": "https://dc.lft.to/lastmile_qr_scan"}, "lon": -77.03092733333334, "type": "electric_scooter"}, {"bike_id": "bdf22311c1745499157ee2ee55d049d5", "is_reserved": 0, "fusion_lon": 0.0, "lat": 38.858107333333336, "is_disabled": 0, "name": "bdf22311c1745499157ee2ee55d049d5", "fusion_lat": 0.0, "rental_uris": {"ios": "https://dc.lft.to/lastmile_qr_scan", "android": "https://dc.lft.to/lastmile_qr_scan"}, "lon": -76.98660966666667, "type": "electric_scooter"}, {"bike_id": "a764beca78900bf20064d64a817d5f9e", "is_reserved": 0, "fusion_lon": 0.0, "lat": 38.9232375, "is_disabled": 0, "name": "a764beca78900bf20064d64a817d5f9e", "fusion_lat": 0.0, "rental_uris": {"ios": "https://dc.lft.to/lastmile_qr_scan", "android": "https://dc.lft.to/lastmile_qr_scan"}, "lon": -77.039038, "type": "electric_scooter"}, {"bike_id": "c975fe4ec4c7252529add8ca29fa7f0e", "is_reserved": 0, "fusion_lon": 0.0, "lat": 38.9087735, "is_disabled": 0, "name": "c975fe4ec4c7252529add8ca29fa7f0e", "fusion_lat": 0.0, "rental_uris": {"ios": "https://dc.lft.to/lastmile_qr_scan", "android": "https://dc.lft.to/lastmile_qr_scan"}, "lon": -77.0859075, "type": "electric_scooter"}, {"bike_id": "21a20105807e16c1cf6b64b96cc713e3", "is_reserved": 0, "fusion_lon": 0.0, "lat": 38.92042216666667, "is_disabled": 0, "name": "21a20105807e16c1cf6b64b96cc713e3", "fusion_lat": 0.0, "rental_uris": {"ios": "https://dc.lft.to/lastmile_qr_scan", "android": "https://dc.lft.to/lastmile_qr_scan"}, "lon": -77.04185983333333, "type": "electric_scooter"}, {"bike_id": "912126517b368d339bb5e80b5f940326", "is_reserved": 0, "fusion_lon": 0.0, "lat": 38.92479383333333, "is_disabled": 0, "name": "912126517b368d339bb5e80b5f940326", "fusion_lat": 0.0, "rental_uris": {"ios": "https://dc.lft.to/lastmile_qr_scan", "android": "https://dc.lft.to/lastmile_qr_scan"}, "lon": -77.0314635, "type": "electric_scooter"}, {"bike_id": "9ae47d28ce1d46b5cc629cbf10cd637d", "is_reserved": 0, "fusion_lon": 0.0, "lat": 38.899581, "is_disabled": 0, "name": "9ae47d28ce1d46b5cc629cbf10cd637d", "fusion_lat": 0.0, "rental_uris": {"ios": "https://dc.lft.to/lastmile_qr_scan", "android": "https://dc.lft.to/lastmile_qr_scan"}, "lon": -77.05056933333333, "type": "electric_scooter"}, {"bike_id": "3279b3416f653219de9ff5b2ac0dc569", "is_reserved": 0, "fusion_lon": 0.0, "lat": 38.90197666666667, "is_disabled": 0, "name": "3279b3416f653219de9ff5b2ac0dc569", "fusion_lat": 0.0, "rental_uris": {"ios": "https://dc.lft.to/lastmile_qr_scan", "android": "https://dc.lft.to/lastmile_qr_scan"}, "lon": -76.94194516666667, "type": "electric_scooter"}, {"bike_id": "84cbc1a25e58fa6754b7a0a468a996bd", "is_reserved": 0, "fusion_lon": 0.0, "lat": 38.89336266666667, "is_disabled": 0, "name": "84cbc1a25e58fa6754b7a0a468a996bd", "fusion_lat": 0.0, "rental_uris": {"ios": "https://dc.lft.to/lastmile_qr_scan", "android": "https://dc.lft.to/lastmile_qr_scan"}, "lon": -76.928935, "type": "electric_scooter"}, {"bike_id": "39cf427c524c2b98e033ae7e52f6c46a", "is_reserved": 0, "fusion_lon": 0.0, "lat": 38.917175666666665, "is_disabled": 0, "name": "39cf427c524c2b98e033ae7e52f6c46a", "fusion_lat": 0.0, "rental_uris": {"ios": "https://dc.lft.to/lastmile_qr_scan", "android": "https://dc.lft.to/lastmile_qr_scan"}, "lon": -77.02402533333333, "type": "electric_scooter"}, {"bike_id": "bbe2763cf2424c280e4afa6cc29d0846", "is_reserved": 0, "fusion_lon": 0.0, "lat": 38.901354833333336, "is_disabled": 0, "name": "bbe2763cf2424c280e4afa6cc29d0846", "fusion_lat": 0.0, "rental_uris": {"ios": "https://dc.lft.to/lastmile_qr_scan", "android": "https://dc.lft.to/lastmile_qr_scan"}, "lon": -77.0403335, "type": "electric_scooter"}, {"bike_id": "b4feebe3fee88ff0982fed5d53d7cc3a", "is_reserved": 0, "fusion_lon": 0.0, "lat": 38.899121666666666, "is_disabled": 0, "name": "b4feebe3fee88ff0982fed5d53d7cc3a", "fusion_lat": 0.0, "rental_uris": {"ios": "https://dc.lft.to/lastmile_qr_scan", "android": "https://dc.lft.to/lastmile_qr_scan"}, "lon": -76.93352533333334, "type": "electric_scooter"}, {"bike_id": "76c99260272edab17d66576c8471c283", "is_reserved": 0, "fusion_lon": 0.0, "lat": 38.871878333333335, "is_disabled": 0, "name": "76c99260272edab17d66576c8471c283", "fusion_lat": 0.0, "rental_uris": {"ios": "https://dc.lft.to/lastmile_qr_scan", "android": "https://dc.lft.to/lastmile_qr_scan"}, "lon": -77.012187, "type": "electric_scooter"}, {"bike_id": "3bffdf2cd1822afeef14c3c6514a716d", "is_reserved": 0, "fusion_lon": 0.0, "lat": 38.90948783333333, "is_disabled": 0, "name": "3bffdf2cd1822afeef14c3c6514a716d", "fusion_lat": 0.0, "rental_uris": {"ios": "https://dc.lft.to/lastmile_qr_scan", "android": "https://dc.lft.to/lastmile_qr_scan"}, "lon": -77.04864166666667, "type": "electric_scooter"}, {"bike_id": "ff4d111bbe2daaf20dbd992b930a078e", "is_reserved": 0, "fusion_lon": 0.0, "lat": 38.9565445, "is_disabled": 0, "name": "ff4d111bbe2daaf20dbd992b930a078e", "fusion_lat": 0.0, "rental_uris": {"ios": "https://dc.lft.to/lastmile_qr_scan", "android": "https://dc.lft.to/lastmile_qr_scan"}, "lon": -77.01967216666667, "type": "electric_scooter"}, {"bike_id": "5f06e7a5ba97b3694824e36c708e17ed", "is_reserved": 0, "fusion_lon": 0.0, "lat": 38.958037, "is_disabled": 0, "name": "5f06e7a5ba97b3694824e36c708e17ed", "fusion_lat": 0.0, "rental_uris": {"ios": "https://dc.lft.to/lastmile_qr_scan", "android": "https://dc.lft.to/lastmile_qr_scan"}, "lon": -77.00188833333333, "type": "electric_bike"}, {"bike_id": "703fed30ce4052f97f19ff07ae4a12b0", "is_reserved": 0, "fusion_lon": 0.0, "lat": 38.9017885, "is_disabled": 0, "name": "703fed30ce4052f97f19ff07ae4a12b0", "fusion_lat": 0.0, "rental_uris": {"ios": "https://dc.lft.to/lastmile_qr_scan", "android": "https://dc.lft.to/lastmile_qr_scan"}, "lon": -77.0160945, "type": "electric_bike"}, {"bike_id": "837d0f6ca1e977147be4cdef9eb0baaa", "is_reserved": 0, "fusion_lon": 0.0, "lat": 38.917158666666666, "is_disabled": 0, "name": "837d0f6ca1e977147be4cdef9eb0baaa", "fusion_lat": 0.0, "rental_uris": {"ios": "https://dc.lft.to/lastmile_qr_scan", "android": "https://dc.lft.to/lastmile_qr_scan"}, "lon": -77.02287516666667, "type": "electric_scooter"}, {"bike_id": "c571875eec6e7af1909a82bbb4827474", "is_reserved": 0, "fusion_lon": 0.0, "lat": 39.0885785, "is_disabled": 0, "name": "c571875eec6e7af1909a82bbb4827474", "fusion_lat": 0.0, "rental_uris": {"ios": "https://dc.lft.to/lastmile_qr_scan", "android": "https://dc.lft.to/lastmile_qr_scan"}, "lon": -77.17843066666667, "type": "electric_bike"}, {"bike_id": "aed5bed93ac8b0c1d19bf9711e74ddc5", "is_reserved": 0, "fusion_lon": 0.0, "lat": 38.9030615, "is_disabled": 0, "name": "aed5bed93ac8b0c1d19bf9711e74ddc5", "fusion_lat": 0.0, "rental_uris": {"ios": "https://dc.lft.to/lastmile_qr_scan", "android": "https://dc.lft.to/lastmile_qr_scan"}, "lon": -77.04612383333334, "type": "electric_scooter"}, {"bike_id": "b336ca86f50bab7639e0e786fc42172b", "is_reserved": 0, "fusion_lon": 0.0, "lat": 38.916908166666666, "is_disabled": 0, "name": "b336ca86f50bab7639e0e786fc42172b", "fusion_lat": 0.0, "rental_uris": {"ios": "https://dc.lft.to/lastmile_qr_scan", "android": "https://dc.lft.to/lastmile_qr_scan"}, "lon": -77.02975033333334, "type": "electric_scooter"}, {"bike_id": "76272e8171b04ff23d3b572b49037414", "is_reserved": 0, "fusion_lon": 0.0, "lat": 38.90592516666667, "is_disabled": 0, "name": "76272e8171b04ff23d3b572b49037414", "fusion_lat": 0.0, "rental_uris": {"ios": "https://dc.lft.to/lastmile_qr_scan", "android": "https://dc.lft.to/lastmile_qr_scan"}, "lon": -77.0405115, "type": "electric_scooter"}, {"bike_id": "1278ea34598c6cd556c3fa146cc3b7a3", "is_reserved": 0, "fusion_lon": 0.0, "lat": 38.94056366666667, "is_disabled": 0, "name": "1278ea34598c6cd556c3fa146cc3b7a3", "fusion_lat": 0.0, "rental_uris": {"ios": "https://dc.lft.to/lastmile_qr_scan", "android": "https://dc.lft.to/lastmile_qr_scan"}, "lon": -76.95382083333334, "type": "electric_bike"}, {"bike_id": "6fe39e03ca56a35e08dce46064d105d4", "is_reserved": 0, "fusion_lon": 0.0, "lat": 38.915315, "is_disabled": 0, "name": "6fe39e03ca56a35e08dce46064d105d4", "fusion_lat": 0.0, "rental_uris": {"ios": "https://dc.lft.to/lastmile_qr_scan", "android": "https://dc.lft.to/lastmile_qr_scan"}, "lon": -77.021975, "type": "electric_scooter"}, {"bike_id": "d63c00c934fa5941653bcc0a6a7f9118", "is_reserved": 0, "fusion_lon": 0.0, "lat": 38.905140833333334, "is_disabled": 0, "name": "d63c00c934fa5941653bcc0a6a7f9118", "fusion_lat": 0.0, "rental_uris": {"ios": "https://dc.lft.to/lastmile_qr_scan", "android": "https://dc.lft.to/lastmile_qr_scan"}, "lon": -77.0434425, "type": "electric_scooter"}, {"bike_id": "539b83a7958500e5c3a6834e418f463e", "is_reserved": 0, "fusion_lon": 0.0, "lat": 38.928582, "is_disabled": 0, "name": "539b83a7958500e5c3a6834e418f463e", "fusion_lat": 0.0, "rental_uris": {"ios": "https://dc.lft.to/lastmile_qr_scan", "android": "https://dc.lft.to/lastmile_qr_scan"}, "lon": -77.22217133333334, "type": "electric_bike"}, {"bike_id": "5fba032db91cdf195cd26766abcbcebf", "is_reserved": 0, "fusion_lon": 0.0, "lat": 38.921639666666664, "is_disabled": 0, "name": "5fba032db91cdf195cd26766abcbcebf", "fusion_lat": 0.0, "rental_uris": {"ios": "https://dc.lft.to/lastmile_qr_scan", "android": "https://dc.lft.to/lastmile_qr_scan"}, "lon": -77.0354575, "type": "electric_scooter"}, {"bike_id": "64099f10ff7a14dd84e47acc72bf3fa7", "is_reserved": 0, "fusion_lon": 0.0, "lat": 38.903349166666665, "is_disabled": 0, "name": "64099f10ff7a14dd84e47acc72bf3fa7", "fusion_lat": 0.0, "rental_uris": {"ios": "https://dc.lft.to/lastmile_qr_scan", "android": "https://dc.lft.to/lastmile_qr_scan"}, "lon": -77.03753633333334, "type": "electric_scooter"}, {"bike_id": "dda7ad90a6bfddebe65b77c383c21818", "is_reserved": 0, "fusion_lon": 0.0, "lat": 38.910490833333334, "is_disabled": 0, "name": "dda7ad90a6bfddebe65b77c383c21818", "fusion_lat": 0.0, "rental_uris": {"ios": "https://dc.lft.to/lastmile_qr_scan", "android": "https://dc.lft.to/lastmile_qr_scan"}, "lon": -77.02685716666667, "type": "electric_scooter"}, {"bike_id": "a78a3aa54cb219d42f7e2ee2f102c927", "is_reserved": 0, "fusion_lon": 0.0, "lat": 38.92041916666667, "is_disabled": 0, "name": "a78a3aa54cb219d42f7e2ee2f102c927", "fusion_lat": 0.0, "rental_uris": {"ios": "https://dc.lft.to/lastmile_qr_scan", "android": "https://dc.lft.to/lastmile_qr_scan"}, "lon": -76.9790905, "type": "electric_scooter"}, {"bike_id": "026967e25b5fc3e736939edc87949e31", "is_reserved": 0, "fusion_lon": 0.0, "lat": 38.90283216666667, "is_disabled": 0, "name": "026967e25b5fc3e736939edc87949e31", "fusion_lat": 0.0, "rental_uris": {"ios": "https://dc.lft.to/lastmile_qr_scan", "android": "https://dc.lft.to/lastmile_qr_scan"}, "lon": -77.03852466666666, "type": "electric_scooter"}, {"bike_id": "ec83dfb71475e0cd37ab63831ba3b1c1", "is_reserved": 0, "fusion_lon": 0.0, "lat": 38.906310500000004, "is_disabled": 0, "name": "ec83dfb71475e0cd37ab63831ba3b1c1", "fusion_lat": 0.0, "rental_uris": {"ios": "https://dc.lft.to/lastmile_qr_scan", "android": "https://dc.lft.to/lastmile_qr_scan"}, "lon": -77.03966783333334, "type": "electric_scooter"}, {"bike_id": "97f5018e946e1edc0f1f39ee3ccd22de", "is_reserved": 0, "fusion_lon": 0.0, "lat": 38.884942333333335, "is_disabled": 0, "name": "97f5018e946e1edc0f1f39ee3ccd22de", "fusion_lat": 0.0, "rental_uris": {"ios": "https://dc.lft.to/lastmile_qr_scan", "android": "https://dc.lft.to/lastmile_qr_scan"}, "lon": -77.00715916666667, "type": "electric_scooter"}, {"bike_id": "291d418f736e069662fea067bc8fc5f3", "is_reserved": 0, "fusion_lon": 0.0, "lat": 38.89923916666667, "is_disabled": 0, "name": "291d418f736e069662fea067bc8fc5f3", "fusion_lat": 0.0, "rental_uris": {"ios": "https://dc.lft.to/lastmile_qr_scan", "android": "https://dc.lft.to/lastmile_qr_scan"}, "lon": -77.04661516666667, "type": "electric_scooter"}, {"bike_id": "92ada119d8a75539f0b634f57af56759", "is_reserved": 0, "fusion_lon": 0.0, "lat": 38.8851175, "is_disabled": 0, "name": "92ada119d8a75539f0b634f57af56759", "fusion_lat": 0.0, "rental_uris": {"ios": "https://dc.lft.to/lastmile_qr_scan", "android": "https://dc.lft.to/lastmile_qr_scan"}, "lon": -77.00567016666666, "type": "electric_scooter"}, {"bike_id": "2c373880788f90281bc1380169474d07", "is_reserved": 0, "fusion_lon": 0.0, "lat": 38.87888316666667, "is_disabled": 0, "name": "2c373880788f90281bc1380169474d07", "fusion_lat": 0.0, "rental_uris": {"ios": "https://dc.lft.to/lastmile_qr_scan", "android": "https://dc.lft.to/lastmile_qr_scan"}, "lon": -76.9915235, "type": "electric_scooter"}, {"bike_id": "a95dee224eee5fee3b4a66d1e6555463", "is_reserved": 0, "fusion_lon": 0.0, "lat": 38.91729433333333, "is_disabled": 0, "name": "a95dee224eee5fee3b4a66d1e6555463", "fusion_lat": 0.0, "rental_uris": {"ios": "https://dc.lft.to/lastmile_qr_scan", "android": "https://dc.lft.to/lastmile_qr_scan"}, "lon": -77.03666833333334, "type": "electric_scooter"}, {"bike_id": "ba1d3047da5672aed7c35b6c098eb470", "is_reserved": 0, "fusion_lon": 0.0, "lat": 38.902294, "is_disabled": 0, "name": "ba1d3047da5672aed7c35b6c098eb470", "fusion_lat": 0.0, "rental_uris": {"ios": "https://dc.lft.to/lastmile_qr_scan", "android": "https://dc.lft.to/lastmile_qr_scan"}, "lon": -77.03423933333333, "type": "electric_scooter"}, {"bike_id": "af92387caa072d33bec601ede8a7535f", "is_reserved": 0, "fusion_lon": 0.0, "lat": 38.92138816666667, "is_disabled": 0, "name": "af92387caa072d33bec601ede8a7535f", "fusion_lat": 0.0, "rental_uris": {"ios": "https://dc.lft.to/lastmile_qr_scan", "android": "https://dc.lft.to/lastmile_qr_scan"}, "lon": -77.01789116666667, "type": "electric_scooter"}, {"bike_id": "74d1c6e71ff97db9b7eb2d17afe1153e", "is_reserved": 0, "fusion_lon": 0.0, "lat": 38.920389166666666, "is_disabled": 0, "name": "74d1c6e71ff97db9b7eb2d17afe1153e", "fusion_lat": 0.0, "rental_uris": {"ios": "https://dc.lft.to/lastmile_qr_scan", "android": "https://dc.lft.to/lastmile_qr_scan"}, "lon": -76.99943533333334, "type": "electric_scooter"}, {"bike_id": "13f370a49709873579eab24bd3582862", "is_reserved": 0, "fusion_lon": 0.0, "lat": 38.908513, "is_disabled": 0, "name": "13f370a49709873579eab24bd3582862", "fusion_lat": 0.0, "rental_uris": {"ios": "https://dc.lft.to/lastmile_qr_scan", "android": "https://dc.lft.to/lastmile_qr_scan"}, "lon": -76.9980685, "type": "electric_scooter"}, {"bike_id": "2c450ac6eb04073f77178087a3adaba6", "is_reserved": 0, "fusion_lon": 0.0, "lat": 38.903878666666664, "is_disabled": 0, "name": "2c450ac6eb04073f77178087a3adaba6", "fusion_lat": 0.0, "rental_uris": {"ios": "https://dc.lft.to/lastmile_qr_scan", "android": "https://dc.lft.to/lastmile_qr_scan"}, "lon": -77.04489983333333, "type": "electric_scooter"}, {"bike_id": "2199354f1decf3049a6cbd241ab558f1", "is_reserved": 0, "fusion_lon": 0.0, "lat": 38.923642, "is_disabled": 0, "name": "2199354f1decf3049a6cbd241ab558f1", "fusion_lat": 0.0, "rental_uris": {"ios": "https://dc.lft.to/lastmile_qr_scan", "android": "https://dc.lft.to/lastmile_qr_scan"}, "lon": -77.05134033333333, "type": "electric_scooter"}, {"bike_id": "6c2f789aa466dec8dcf22a9832c3afea", "is_reserved": 0, "fusion_lon": 0.0, "lat": 38.872470666666665, "is_disabled": 0, "name": "6c2f789aa466dec8dcf22a9832c3afea", "fusion_lat": 0.0, "rental_uris": {"ios": "https://dc.lft.to/lastmile_qr_scan", "android": "https://dc.lft.to/lastmile_qr_scan"}, "lon": -76.97726883333333, "type": "electric_scooter"}, {"bike_id": "3eab9a26a38c40079942100aa0f64986", "is_reserved": 0, "fusion_lon": 0.0, "lat": 38.90383116666667, "is_disabled": 0, "name": "3eab9a26a38c40079942100aa0f64986", "fusion_lat": 0.0, "rental_uris": {"ios": "https://dc.lft.to/lastmile_qr_scan", "android": "https://dc.lft.to/lastmile_qr_scan"}, "lon": -77.04493116666667, "type": "electric_scooter"}, {"bike_id": "ee6265b7cfb5f7cfe89beafb8d451497", "is_reserved": 0, "fusion_lon": 0.0, "lat": 38.86375816666666, "is_disabled": 0, "name": "ee6265b7cfb5f7cfe89beafb8d451497", "fusion_lat": 0.0, "rental_uris": {"ios": "https://dc.lft.to/lastmile_qr_scan", "android": "https://dc.lft.to/lastmile_qr_scan"}, "lon": -76.99037433333334, "type": "electric_scooter"}, {"bike_id": "95f5789d39576123772fdb34f313d8bd", "is_reserved": 0, "fusion_lon": 0.0, "lat": 38.943281666666664, "is_disabled": 0, "name": "95f5789d39576123772fdb34f313d8bd", "fusion_lat": 0.0, "rental_uris": {"ios": "https://dc.lft.to/lastmile_qr_scan", "android": "https://dc.lft.to/lastmile_qr_scan"}, "lon": -77.07391083333333, "type": "electric_scooter"}, {"bike_id": "2223568d7ce2b2fa75486648fb975bf2", "is_reserved": 0, "fusion_lon": 0.0, "lat": 38.90857066666667, "is_disabled": 0, "name": "2223568d7ce2b2fa75486648fb975bf2", "fusion_lat": 0.0, "rental_uris": {"ios": "https://dc.lft.to/lastmile_qr_scan", "android": "https://dc.lft.to/lastmile_qr_scan"}, "lon": -77.02451916666666, "type": "electric_scooter"}, {"bike_id": "0d464bd57861b2a080bbf6fe7eeb42e2", "is_reserved": 0, "fusion_lon": 0.0, "lat": 38.909848833333335, "is_disabled": 0, "name": "0d464bd57861b2a080bbf6fe7eeb42e2", "fusion_lat": 0.0, "rental_uris": {"ios": "https://dc.lft.to/lastmile_qr_scan", "android": "https://dc.lft.to/lastmile_qr_scan"}, "lon": -77.06718133333334, "type": "electric_scooter"}, {"bike_id": "3eb048e3ef98d87eba5525f2c97a500d", "is_reserved": 0, "fusion_lon": 0.0, "lat": 38.916248333333336, "is_disabled": 0, "name": "3eb048e3ef98d87eba5525f2c97a500d", "fusion_lat": 0.0, "rental_uris": {"ios": "https://dc.lft.to/lastmile_qr_scan", "android": "https://dc.lft.to/lastmile_qr_scan"}, "lon": -77.03638966666666, "type": "electric_scooter"}, {"bike_id": "3eda39a8185029c53874581714cc9b46", "is_reserved": 0, "fusion_lon": 0.0, "lat": 38.92623666666667, "is_disabled": 0, "name": "3eda39a8185029c53874581714cc9b46", "fusion_lat": 0.0, "rental_uris": {"ios": "https://dc.lft.to/lastmile_qr_scan", "android": "https://dc.lft.to/lastmile_qr_scan"}, "lon": -77.00558733333334, "type": "electric_scooter"}, {"bike_id": "3325a4e6e20201ac4e24b67bdd8ba6de", "is_reserved": 0, "fusion_lon": 0.0, "lat": 38.936462, "is_disabled": 0, "name": "3325a4e6e20201ac4e24b67bdd8ba6de", "fusion_lat": 0.0, "rental_uris": {"ios": "https://dc.lft.to/lastmile_qr_scan", "android": "https://dc.lft.to/lastmile_qr_scan"}, "lon": -77.02087266666666, "type": "electric_scooter"}, {"bike_id": "b32282ef8b3fe87ca72ccf94a4322fe2", "is_reserved": 0, "fusion_lon": 0.0, "lat": 38.875713166666664, "is_disabled": 0, "name": "b32282ef8b3fe87ca72ccf94a4322fe2", "fusion_lat": 0.0, "rental_uris": {"ios": "https://dc.lft.to/lastmile_qr_scan", "android": "https://dc.lft.to/lastmile_qr_scan"}, "lon": -77.00599066666666, "type": "electric_scooter"}, {"bike_id": "9335048b93757195f75502621820e5bf", "is_reserved": 0, "fusion_lon": 0.0, "lat": 38.882873000000004, "is_disabled": 0, "name": "9335048b93757195f75502621820e5bf", "fusion_lat": 0.0, "rental_uris": {"ios": "https://dc.lft.to/lastmile_qr_scan", "android": "https://dc.lft.to/lastmile_qr_scan"}, "lon": -77.04155266666666, "type": "electric_scooter"}, {"bike_id": "7052af1a8528f853a6d70384c629462d", "is_reserved": 0, "fusion_lon": 0.0, "lat": 38.88842783333333, "is_disabled": 0, "name": "7052af1a8528f853a6d70384c629462d", "fusion_lat": 0.0, "rental_uris": {"ios": "https://dc.lft.to/lastmile_qr_scan", "android": "https://dc.lft.to/lastmile_qr_scan"}, "lon": -77.04910833333334, "type": "electric_scooter"}, {"bike_id": "f3ce14a932ece18fa2e140ffddbc977a", "is_reserved": 0, "fusion_lon": 0.0, "lat": 38.902853, "is_disabled": 0, "name": "f3ce14a932ece18fa2e140ffddbc977a", "fusion_lat": 0.0, "rental_uris": {"ios": "https://dc.lft.to/lastmile_qr_scan", "android": "https://dc.lft.to/lastmile_qr_scan"}, "lon": -77.03845183333334, "type": "electric_scooter"}, {"bike_id": "72b3d6b9810a6eff3c024700c7a48801", "is_reserved": 0, "fusion_lon": 0.0, "lat": 38.9187975, "is_disabled": 0, "name": "72b3d6b9810a6eff3c024700c7a48801", "fusion_lat": 0.0, "rental_uris": {"ios": "https://dc.lft.to/lastmile_qr_scan", "android": "https://dc.lft.to/lastmile_qr_scan"}, "lon": -76.9715075, "type": "electric_scooter"}, {"bike_id": "166cc634f9c9e658c78019c967b66598", "is_reserved": 0, "fusion_lon": 0.0, "lat": 38.9462615, "is_disabled": 0, "name": "166cc634f9c9e658c78019c967b66598", "fusion_lat": 0.0, "rental_uris": {"ios": "https://dc.lft.to/lastmile_qr_scan", "android": "https://dc.lft.to/lastmile_qr_scan"}, "lon": -77.0350415, "type": "electric_scooter"}, {"bike_id": "58a376e1ccb4e751e4b26e491d96cd60", "is_reserved": 0, "fusion_lon": 0.0, "lat": 38.899251, "is_disabled": 0, "name": "58a376e1ccb4e751e4b26e491d96cd60", "fusion_lat": 0.0, "rental_uris": {"ios": "https://dc.lft.to/lastmile_qr_scan", "android": "https://dc.lft.to/lastmile_qr_scan"}, "lon": -77.05435533333333, "type": "electric_scooter"}, {"bike_id": "9b385575fae1da3c2288e26f5138e088", "is_reserved": 0, "fusion_lon": 0.0, "lat": 38.90602966666667, "is_disabled": 0, "name": "9b385575fae1da3c2288e26f5138e088", "fusion_lat": 0.0, "rental_uris": {"ios": "https://dc.lft.to/lastmile_qr_scan", "android": "https://dc.lft.to/lastmile_qr_scan"}, "lon": -77.06297666666667, "type": "electric_scooter"}, {"bike_id": "dd8beb13d5ec4150febb9da980d71374", "is_reserved": 0, "fusion_lon": 0.0, "lat": 38.844318, "is_disabled": 0, "name": "dd8beb13d5ec4150febb9da980d71374", "fusion_lat": 0.0, "rental_uris": {"ios": "https://dc.lft.to/lastmile_qr_scan", "android": "https://dc.lft.to/lastmile_qr_scan"}, "lon": -76.99780816666667, "type": "electric_scooter"}, {"bike_id": "ba79b86aac08a97673d98482f5d9e93a", "is_reserved": 0, "fusion_lon": 0.0, "lat": 38.9070735, "is_disabled": 0, "name": "ba79b86aac08a97673d98482f5d9e93a", "fusion_lat": 0.0, "rental_uris": {"ios": "https://dc.lft.to/lastmile_qr_scan", "android": "https://dc.lft.to/lastmile_qr_scan"}, "lon": -77.0239405, "type": "electric_scooter"}, {"bike_id": "e7857992ae16a5eb53341eb12d28ab2c", "is_reserved": 0, "fusion_lon": 0.0, "lat": 38.90237916666667, "is_disabled": 0, "name": "e7857992ae16a5eb53341eb12d28ab2c", "fusion_lat": 0.0, "rental_uris": {"ios": "https://dc.lft.to/lastmile_qr_scan", "android": "https://dc.lft.to/lastmile_qr_scan"}, "lon": -77.00200616666666, "type": "electric_scooter"}, {"bike_id": "6bd2b8312dcdc618df92a7e8759d7f48", "is_reserved": 0, "fusion_lon": 0.0, "lat": 38.89835516666667, "is_disabled": 0, "name": "6bd2b8312dcdc618df92a7e8759d7f48", "fusion_lat": 0.0, "rental_uris": {"ios": "https://dc.lft.to/lastmile_qr_scan", "android": "https://dc.lft.to/lastmile_qr_scan"}, "lon": -76.946346, "type": "electric_scooter"}, {"bike_id": "02b6bfb2c73a69508a03aa45b2ee7a0f", "is_reserved": 0, "fusion_lon": 0.0, "lat": 38.94551716666667, "is_disabled": 0, "name": "02b6bfb2c73a69508a03aa45b2ee7a0f", "fusion_lat": 0.0, "rental_uris": {"ios": "https://dc.lft.to/lastmile_qr_scan", "android": "https://dc.lft.to/lastmile_qr_scan"}, "lon": -76.89537083333333, "type": "electric_bike"}, {"bike_id": "3d5c9d940fb3585c16082d3eccf7b224", "is_reserved": 0, "fusion_lon": 0.0, "lat": 38.95261716666667, "is_disabled": 0, "name": "3d5c9d940fb3585c16082d3eccf7b224", "fusion_lat": 0.0, "rental_uris": {"ios": "https://dc.lft.to/lastmile_qr_scan", "android": "https://dc.lft.to/lastmile_qr_scan"}, "lon": -77.06969783333334, "type": "electric_scooter"}, {"bike_id": "41768d9ddf058ef6b06797db27c92813", "is_reserved": 0, "fusion_lon": 0.0, "lat": 38.9162295, "is_disabled": 0, "name": "41768d9ddf058ef6b06797db27c92813", "fusion_lat": 0.0, "rental_uris": {"ios": "https://dc.lft.to/lastmile_qr_scan", "android": "https://dc.lft.to/lastmile_qr_scan"}, "lon": -77.031435, "type": "electric_scooter"}, {"bike_id": "d3c1dd5c9cc78c436f8e3e0650882b38", "is_reserved": 0, "fusion_lon": 0.0, "lat": 38.89223883333333, "is_disabled": 0, "name": "d3c1dd5c9cc78c436f8e3e0650882b38", "fusion_lat": 0.0, "rental_uris": {"ios": "https://dc.lft.to/lastmile_qr_scan", "android": "https://dc.lft.to/lastmile_qr_scan"}, "lon": -77.04366983333334, "type": "electric_scooter"}, {"bike_id": "5f6c246c7e6cb2b4beb090cc6881831b", "is_reserved": 0, "fusion_lon": 0.0, "lat": 38.865643166666665, "is_disabled": 0, "name": "5f6c246c7e6cb2b4beb090cc6881831b", "fusion_lat": 0.0, "rental_uris": {"ios": "https://dc.lft.to/lastmile_qr_scan", "android": "https://dc.lft.to/lastmile_qr_scan"}, "lon": -76.9895105, "type": "electric_scooter"}, {"bike_id": "721ccfd1fb7620ce638c5b1d30905e68", "is_reserved": 0, "fusion_lon": 0.0, "lat": 38.912698166666665, "is_disabled": 0, "name": "721ccfd1fb7620ce638c5b1d30905e68", "fusion_lat": 0.0, "rental_uris": {"ios": "https://dc.lft.to/lastmile_qr_scan", "android": "https://dc.lft.to/lastmile_qr_scan"}, "lon": -77.03634366666667, "type": "electric_scooter"}, {"bike_id": "43c51268514139847f122cf4302d1662", "is_reserved": 0, "fusion_lon": 0.0, "lat": 38.861791333333336, "is_disabled": 0, "name": "43c51268514139847f122cf4302d1662", "fusion_lat": 0.0, "rental_uris": {"ios": "https://dc.lft.to/lastmile_qr_scan", "android": "https://dc.lft.to/lastmile_qr_scan"}, "lon": -76.96910233333334, "type": "electric_scooter"}, {"bike_id": "3d9fabc08404a10492f2bcc2214d0dcc", "is_reserved": 0, "fusion_lon": 0.0, "lat": 38.89830216666667, "is_disabled": 0, "name": "3d9fabc08404a10492f2bcc2214d0dcc", "fusion_lat": 0.0, "rental_uris": {"ios": "https://dc.lft.to/lastmile_qr_scan", "android": "https://dc.lft.to/lastmile_qr_scan"}, "lon": -77.033439, "type": "electric_scooter"}, {"bike_id": "1b189f685fe494bd67ec416f7358964b", "is_reserved": 0, "fusion_lon": 0.0, "lat": 38.880238, "is_disabled": 0, "name": "1b189f685fe494bd67ec416f7358964b", "fusion_lat": 0.0, "rental_uris": {"ios": "https://dc.lft.to/lastmile_qr_scan", "android": "https://dc.lft.to/lastmile_qr_scan"}, "lon": -77.02492916666667, "type": "electric_scooter"}, {"bike_id": "12010370ec717436bf3cd3d9631ca613", "is_reserved": 0, "fusion_lon": 0.0, "lat": 38.905553833333336, "is_disabled": 0, "name": "12010370ec717436bf3cd3d9631ca613", "fusion_lat": 0.0, "rental_uris": {"ios": "https://dc.lft.to/lastmile_qr_scan", "android": "https://dc.lft.to/lastmile_qr_scan"}, "lon": -77.0057265, "type": "electric_scooter"}, {"bike_id": "4ec8388b34618888ce69445c10a319b5", "is_reserved": 0, "fusion_lon": 0.0, "lat": 38.91703, "is_disabled": 0, "name": "4ec8388b34618888ce69445c10a319b5", "fusion_lat": 0.0, "rental_uris": {"ios": "https://dc.lft.to/lastmile_qr_scan", "android": "https://dc.lft.to/lastmile_qr_scan"}, "lon": -77.02244383333333, "type": "electric_scooter"}, {"bike_id": "321e24493f4195bf7e313a7e26e04d57", "is_reserved": 0, "fusion_lon": 0.0, "lat": 38.97329633333333, "is_disabled": 0, "name": "321e24493f4195bf7e313a7e26e04d57", "fusion_lat": 0.0, "rental_uris": {"ios": "https://dc.lft.to/lastmile_qr_scan", "android": "https://dc.lft.to/lastmile_qr_scan"}, "lon": -77.021541, "type": "electric_bike"}, {"bike_id": "1b43042653fb7c31f2d33178d05a06eb", "is_reserved": 0, "fusion_lon": 0.0, "lat": 38.903820333333336, "is_disabled": 0, "name": "1b43042653fb7c31f2d33178d05a06eb", "fusion_lat": 0.0, "rental_uris": {"ios": "https://dc.lft.to/lastmile_qr_scan", "android": "https://dc.lft.to/lastmile_qr_scan"}, "lon": -77.04482133333333, "type": "electric_scooter"}, {"bike_id": "f6bf04e5d2e7a9ca9152c03ad2eb8a00", "is_reserved": 0, "fusion_lon": 0.0, "lat": 38.89736283333333, "is_disabled": 0, "name": "f6bf04e5d2e7a9ca9152c03ad2eb8a00", "fusion_lat": 0.0, "rental_uris": {"ios": "https://dc.lft.to/lastmile_qr_scan", "android": "https://dc.lft.to/lastmile_qr_scan"}, "lon": -77.05566616666667, "type": "electric_scooter"}, {"bike_id": "12876790f8af9744e3d898af625902d5", "is_reserved": 0, "fusion_lon": 0.0, "lat": 38.948085666666664, "is_disabled": 0, "name": "12876790f8af9744e3d898af625902d5", "fusion_lat": 0.0, "rental_uris": {"ios": "https://dc.lft.to/lastmile_qr_scan", "android": "https://dc.lft.to/lastmile_qr_scan"}, "lon": -77.07911166666666, "type": "electric_scooter"}, {"bike_id": "796c1997719d63f1d4d3ff17cc1a72b0", "is_reserved": 0, "fusion_lon": 0.0, "lat": 38.94974916666666, "is_disabled": 0, "name": "796c1997719d63f1d4d3ff17cc1a72b0", "fusion_lat": 0.0, "rental_uris": {"ios": "https://dc.lft.to/lastmile_qr_scan", "android": "https://dc.lft.to/lastmile_qr_scan"}, "lon": -76.97284183333333, "type": "electric_bike"}, {"bike_id": "000dd0fdbde369ef8b0311ab9d654cb9", "is_reserved": 0, "fusion_lon": 0.0, "lat": 38.93057366666667, "is_disabled": 0, "name": "000dd0fdbde369ef8b0311ab9d654cb9", "fusion_lat": 0.0, "rental_uris": {"ios": "https://dc.lft.to/lastmile_qr_scan", "android": "https://dc.lft.to/lastmile_qr_scan"}, "lon": -77.03127683333334, "type": "electric_scooter"}, {"bike_id": "948a59adbee1053996b294fce6d786df", "is_reserved": 0, "fusion_lon": 0.0, "lat": 38.902951333333334, "is_disabled": 0, "name": "948a59adbee1053996b294fce6d786df", "fusion_lat": 0.0, "rental_uris": {"ios": "https://dc.lft.to/lastmile_qr_scan", "android": "https://dc.lft.to/lastmile_qr_scan"}, "lon": -76.99035033333334, "type": "electric_scooter"}, {"bike_id": "84e70726a62cbeb730a5756d950fdad8", "is_reserved": 0, "fusion_lon": 0.0, "lat": 38.9198285, "is_disabled": 0, "name": "84e70726a62cbeb730a5756d950fdad8", "fusion_lat": 0.0, "rental_uris": {"ios": "https://dc.lft.to/lastmile_qr_scan", "android": "https://dc.lft.to/lastmile_qr_scan"}, "lon": -77.04166233333333, "type": "electric_scooter"}, {"bike_id": "ee2d0f0470548864f9b7c8f5e829c3d9", "is_reserved": 0, "fusion_lon": 0.0, "lat": 38.89371883333333, "is_disabled": 0, "name": "ee2d0f0470548864f9b7c8f5e829c3d9", "fusion_lat": 0.0, "rental_uris": {"ios": "https://dc.lft.to/lastmile_qr_scan", "android": "https://dc.lft.to/lastmile_qr_scan"}, "lon": -77.047838, "type": "electric_scooter"}, {"bike_id": "9a91f0cec4d7e6d7da66be863618e46e", "is_reserved": 0, "fusion_lon": 0.0, "lat": 38.866207333333335, "is_disabled": 0, "name": "9a91f0cec4d7e6d7da66be863618e46e", "fusion_lat": 0.0, "rental_uris": {"ios": "https://dc.lft.to/lastmile_qr_scan", "android": "https://dc.lft.to/lastmile_qr_scan"}, "lon": -76.94572933333333, "type": "electric_bike"}, {"bike_id": "a7219ff4bfbd9abdb239f2c81948a4da", "is_reserved": 0, "fusion_lon": 0.0, "lat": 38.9287065, "is_disabled": 0, "name": "a7219ff4bfbd9abdb239f2c81948a4da", "fusion_lat": 0.0, "rental_uris": {"ios": "https://dc.lft.to/lastmile_qr_scan", "android": "https://dc.lft.to/lastmile_qr_scan"}, "lon": -77.02726183333333, "type": "electric_scooter"}, {"bike_id": "70e5b9a13cd120e6ee51c75532d51bb5", "is_reserved": 0, "fusion_lon": 0.0, "lat": 38.902862666666664, "is_disabled": 0, "name": "70e5b9a13cd120e6ee51c75532d51bb5", "fusion_lat": 0.0, "rental_uris": {"ios": "https://dc.lft.to/lastmile_qr_scan", "android": "https://dc.lft.to/lastmile_qr_scan"}, "lon": -77.03442683333333, "type": "electric_scooter"}, {"bike_id": "71dcc2bb41613a350cf30724d79d44ff", "is_reserved": 0, "fusion_lon": 0.0, "lat": 38.973273666666664, "is_disabled": 0, "name": "71dcc2bb41613a350cf30724d79d44ff", "fusion_lat": 0.0, "rental_uris": {"ios": "https://dc.lft.to/lastmile_qr_scan", "android": "https://dc.lft.to/lastmile_qr_scan"}, "lon": -77.02149283333334, "type": "electric_bike"}, {"bike_id": "880976eaf4ce97f8d41f227c018bad2e", "is_reserved": 0, "fusion_lon": 0.0, "lat": 38.95885666666667, "is_disabled": 0, "name": "880976eaf4ce97f8d41f227c018bad2e", "fusion_lat": 0.0, "rental_uris": {"ios": "https://dc.lft.to/lastmile_qr_scan", "android": "https://dc.lft.to/lastmile_qr_scan"}, "lon": -76.92497283333333, "type": "electric_bike"}, {"bike_id": "935844123f38e571203b3eb98520fb3c", "is_reserved": 0, "fusion_lon": 0.0, "lat": 38.9033005, "is_disabled": 0, "name": "935844123f38e571203b3eb98520fb3c", "fusion_lat": 0.0, "rental_uris": {"ios": "https://dc.lft.to/lastmile_qr_scan", "android": "https://dc.lft.to/lastmile_qr_scan"}, "lon": -77.03850833333334, "type": "electric_scooter"}, {"bike_id": "c99ec90abda39b080abc5f626b1d6909", "is_reserved": 0, "fusion_lon": 0.0, "lat": 38.90067916666667, "is_disabled": 0, "name": "c99ec90abda39b080abc5f626b1d6909", "fusion_lat": 0.0, "rental_uris": {"ios": "https://dc.lft.to/lastmile_qr_scan", "android": "https://dc.lft.to/lastmile_qr_scan"}, "lon": -76.99821516666667, "type": "electric_scooter"}, {"bike_id": "9615fc3308dba7ae7b13201b25e773f2", "is_reserved": 0, "fusion_lon": 0.0, "lat": 38.9182215, "is_disabled": 0, "name": "9615fc3308dba7ae7b13201b25e773f2", "fusion_lat": 0.0, "rental_uris": {"ios": "https://dc.lft.to/lastmile_qr_scan", "android": "https://dc.lft.to/lastmile_qr_scan"}, "lon": -77.01020116666666, "type": "electric_scooter"}, {"bike_id": "3a93b94bc5c9da738c0e5c88b6d3c445", "is_reserved": 0, "fusion_lon": 0.0, "lat": 38.925490833333335, "is_disabled": 0, "name": "3a93b94bc5c9da738c0e5c88b6d3c445", "fusion_lat": 0.0, "rental_uris": {"ios": "https://dc.lft.to/lastmile_qr_scan", "android": "https://dc.lft.to/lastmile_qr_scan"}, "lon": -76.98123683333333, "type": "electric_scooter"}, {"bike_id": "d5310aee2fa00625dd0e6dec8de6f825", "is_reserved": 0, "fusion_lon": 0.0, "lat": 38.89222933333333, "is_disabled": 0, "name": "d5310aee2fa00625dd0e6dec8de6f825", "fusion_lat": 0.0, "rental_uris": {"ios": "https://dc.lft.to/lastmile_qr_scan", "android": "https://dc.lft.to/lastmile_qr_scan"}, "lon": -77.04870233333334, "type": "electric_scooter"}, {"bike_id": "3c6d25efac3075ede29cc6507e3fb285", "is_reserved": 0, "fusion_lon": 0.0, "lat": 38.90630516666667, "is_disabled": 0, "name": "3c6d25efac3075ede29cc6507e3fb285", "fusion_lat": 0.0, "rental_uris": {"ios": "https://dc.lft.to/lastmile_qr_scan", "android": "https://dc.lft.to/lastmile_qr_scan"}, "lon": -77.051326, "type": "electric_scooter"}, {"bike_id": "8e693803ed4f56e010d6a6429cf32eea", "is_reserved": 0, "fusion_lon": 0.0, "lat": 38.91114133333333, "is_disabled": 0, "name": "8e693803ed4f56e010d6a6429cf32eea", "fusion_lat": 0.0, "rental_uris": {"ios": "https://dc.lft.to/lastmile_qr_scan", "android": "https://dc.lft.to/lastmile_qr_scan"}, "lon": -77.00355733333333, "type": "electric_scooter"}, {"bike_id": "ffea8a611b79e47f526090466cb239c0", "is_reserved": 0, "fusion_lon": 0.0, "lat": 38.91015083333333, "is_disabled": 0, "name": "ffea8a611b79e47f526090466cb239c0", "fusion_lat": 0.0, "rental_uris": {"ios": "https://dc.lft.to/lastmile_qr_scan", "android": "https://dc.lft.to/lastmile_qr_scan"}, "lon": -76.99388, "type": "electric_scooter"}, {"bike_id": "38945ebdfa974b95611a9a3eb5124b13", "is_reserved": 0, "fusion_lon": 0.0, "lat": 38.86109483333333, "is_disabled": 0, "name": "38945ebdfa974b95611a9a3eb5124b13", "fusion_lat": 0.0, "rental_uris": {"ios": "https://dc.lft.to/lastmile_qr_scan", "android": "https://dc.lft.to/lastmile_qr_scan"}, "lon": -76.98364, "type": "electric_scooter"}, {"bike_id": "dca29de0263b5e62b1176fd7bf9b5022", "is_reserved": 0, "fusion_lon": 0.0, "lat": 38.9237075, "is_disabled": 0, "name": "dca29de0263b5e62b1176fd7bf9b5022", "fusion_lat": 0.0, "rental_uris": {"ios": "https://dc.lft.to/lastmile_qr_scan", "android": "https://dc.lft.to/lastmile_qr_scan"}, "lon": -77.051278, "type": "electric_scooter"}, {"bike_id": "40e9fd24540805ed631bb54a156fbea2", "is_reserved": 0, "fusion_lon": 0.0, "lat": 38.88161383333333, "is_disabled": 0, "name": "40e9fd24540805ed631bb54a156fbea2", "fusion_lat": 0.0, "rental_uris": {"ios": "https://dc.lft.to/lastmile_qr_scan", "android": "https://dc.lft.to/lastmile_qr_scan"}, "lon": -77.0273975, "type": "electric_scooter"}, {"bike_id": "11c12d09f6b8ab1c4abf3134954a4a2e", "is_reserved": 0, "fusion_lon": 0.0, "lat": 38.90590533333334, "is_disabled": 0, "name": "11c12d09f6b8ab1c4abf3134954a4a2e", "fusion_lat": 0.0, "rental_uris": {"ios": "https://dc.lft.to/lastmile_qr_scan", "android": "https://dc.lft.to/lastmile_qr_scan"}, "lon": -77.0627755, "type": "electric_scooter"}, {"bike_id": "4b0154586a3b3c413d2f5edfcde3e8a5", "is_reserved": 0, "fusion_lon": 0.0, "lat": 38.92343566666667, "is_disabled": 0, "name": "4b0154586a3b3c413d2f5edfcde3e8a5", "fusion_lat": 0.0, "rental_uris": {"ios": "https://dc.lft.to/lastmile_qr_scan", "android": "https://dc.lft.to/lastmile_qr_scan"}, "lon": -77.01903433333334, "type": "electric_scooter"}, {"bike_id": "d6fd4d3cd7e21f874d81ab692601502b", "is_reserved": 0, "fusion_lon": 0.0, "lat": 38.896812833333335, "is_disabled": 0, "name": "d6fd4d3cd7e21f874d81ab692601502b", "fusion_lat": 0.0, "rental_uris": {"ios": "https://dc.lft.to/lastmile_qr_scan", "android": "https://dc.lft.to/lastmile_qr_scan"}, "lon": -77.02967283333334, "type": "electric_scooter"}, {"bike_id": "2b2086bc747ab9953ada2c3d1db88cb3", "is_reserved": 0, "fusion_lon": 0.0, "lat": 38.91877083333333, "is_disabled": 0, "name": "2b2086bc747ab9953ada2c3d1db88cb3", "fusion_lat": 0.0, "rental_uris": {"ios": "https://dc.lft.to/lastmile_qr_scan", "android": "https://dc.lft.to/lastmile_qr_scan"}, "lon": -77.04187983333334, "type": "electric_scooter"}, {"bike_id": "0dc744d9d8c037f9f1c560b488099cab", "is_reserved": 0, "fusion_lon": 0.0, "lat": 38.897886166666666, "is_disabled": 0, "name": "0dc744d9d8c037f9f1c560b488099cab", "fusion_lat": 0.0, "rental_uris": {"ios": "https://dc.lft.to/lastmile_qr_scan", "android": "https://dc.lft.to/lastmile_qr_scan"}, "lon": -77.0316805, "type": "electric_scooter"}, {"bike_id": "68b497c02e70d720733ad868d315f7d1", "is_reserved": 0, "fusion_lon": 0.0, "lat": 38.8989575, "is_disabled": 0, "name": "68b497c02e70d720733ad868d315f7d1", "fusion_lat": 0.0, "rental_uris": {"ios": "https://dc.lft.to/lastmile_qr_scan", "android": "https://dc.lft.to/lastmile_qr_scan"}, "lon": -77.04077083333334, "type": "electric_scooter"}, {"bike_id": "ddbb9adb73e5fa0f7b236d934d9348ce", "is_reserved": 0, "fusion_lon": 0.0, "lat": 38.88877316666667, "is_disabled": 0, "name": "ddbb9adb73e5fa0f7b236d934d9348ce", "fusion_lat": 0.0, "rental_uris": {"ios": "https://dc.lft.to/lastmile_qr_scan", "android": "https://dc.lft.to/lastmile_qr_scan"}, "lon": -76.99037983333334, "type": "electric_scooter"}, {"bike_id": "2759e7e0ee2b0a4a40e5bc6031794125", "is_reserved": 0, "fusion_lon": 0.0, "lat": 38.91708083333333, "is_disabled": 0, "name": "2759e7e0ee2b0a4a40e5bc6031794125", "fusion_lat": 0.0, "rental_uris": {"ios": "https://dc.lft.to/lastmile_qr_scan", "android": "https://dc.lft.to/lastmile_qr_scan"}, "lon": -77.03329566666666, "type": "electric_scooter"}, {"bike_id": "3060e3d0d12713fec29a75ccc07ea6d6", "is_reserved": 0, "fusion_lon": 0.0, "lat": 38.90586016666666, "is_disabled": 0, "name": "3060e3d0d12713fec29a75ccc07ea6d6", "fusion_lat": 0.0, "rental_uris": {"ios": "https://dc.lft.to/lastmile_qr_scan", "android": "https://dc.lft.to/lastmile_qr_scan"}, "lon": -77.06522383333333, "type": "electric_scooter"}, {"bike_id": "425f67b9d4f6d59087cce861953eb026", "is_reserved": 0, "fusion_lon": 0.0, "lat": 38.9193605, "is_disabled": 0, "name": "425f67b9d4f6d59087cce861953eb026", "fusion_lat": 0.0, "rental_uris": {"ios": "https://dc.lft.to/lastmile_qr_scan", "android": "https://dc.lft.to/lastmile_qr_scan"}, "lon": -77.04502616666667, "type": "electric_scooter"}, {"bike_id": "f47b2eabea2a46f36baea0889361f117", "is_reserved": 0, "fusion_lon": 0.0, "lat": 38.9001725, "is_disabled": 0, "name": "f47b2eabea2a46f36baea0889361f117", "fusion_lat": 0.0, "rental_uris": {"ios": "https://dc.lft.to/lastmile_qr_scan", "android": "https://dc.lft.to/lastmile_qr_scan"}, "lon": -77.04018433333333, "type": "electric_scooter"}, {"bike_id": "4baca190830b12569ad6a40c90c9a797", "is_reserved": 0, "fusion_lon": 0.0, "lat": 38.8442705, "is_disabled": 0, "name": "4baca190830b12569ad6a40c90c9a797", "fusion_lat": 0.0, "rental_uris": {"ios": "https://dc.lft.to/lastmile_qr_scan", "android": "https://dc.lft.to/lastmile_qr_scan"}, "lon": -76.997802, "type": "electric_scooter"}, {"bike_id": "656841f3ec6cf26e575808c467bebd7b", "is_reserved": 0, "fusion_lon": 0.0, "lat": 38.90294133333333, "is_disabled": 0, "name": "656841f3ec6cf26e575808c467bebd7b", "fusion_lat": 0.0, "rental_uris": {"ios": "https://dc.lft.to/lastmile_qr_scan", "android": "https://dc.lft.to/lastmile_qr_scan"}, "lon": -77.04031883333333, "type": "electric_scooter"}, {"bike_id": "0971d8732740f6923147fbac741ecd86", "is_reserved": 0, "fusion_lon": 0.0, "lat": 38.909585666666665, "is_disabled": 0, "name": "0971d8732740f6923147fbac741ecd86", "fusion_lat": 0.0, "rental_uris": {"ios": "https://dc.lft.to/lastmile_qr_scan", "android": "https://dc.lft.to/lastmile_qr_scan"}, "lon": -77.0342195, "type": "electric_scooter"}, {"bike_id": "c5029c7835c2d06b929d89aa5c890d4b", "is_reserved": 0, "fusion_lon": 0.0, "lat": 38.92489583333333, "is_disabled": 0, "name": "c5029c7835c2d06b929d89aa5c890d4b", "fusion_lat": 0.0, "rental_uris": {"ios": "https://dc.lft.to/lastmile_qr_scan", "android": "https://dc.lft.to/lastmile_qr_scan"}, "lon": -77.0214065, "type": "electric_scooter"}, {"bike_id": "b5830009669d7afbb433fd59c0fd8504", "is_reserved": 0, "fusion_lon": 0.0, "lat": 38.9023705, "is_disabled": 0, "name": "b5830009669d7afbb433fd59c0fd8504", "fusion_lat": 0.0, "rental_uris": {"ios": "https://dc.lft.to/lastmile_qr_scan", "android": "https://dc.lft.to/lastmile_qr_scan"}, "lon": -77.02686216666666, "type": "electric_scooter"}, {"bike_id": "87341f51363c166f0df7bcaccd417057", "is_reserved": 0, "fusion_lon": 0.0, "lat": 38.92340166666666, "is_disabled": 0, "name": "87341f51363c166f0df7bcaccd417057", "fusion_lat": 0.0, "rental_uris": {"ios": "https://dc.lft.to/lastmile_qr_scan", "android": "https://dc.lft.to/lastmile_qr_scan"}, "lon": -77.03619783333333, "type": "electric_scooter"}, {"bike_id": "eefde402fb3939145b80d2d162fc358b", "is_reserved": 0, "fusion_lon": 0.0, "lat": 38.90239316666667, "is_disabled": 0, "name": "eefde402fb3939145b80d2d162fc358b", "fusion_lat": 0.0, "rental_uris": {"ios": "https://dc.lft.to/lastmile_qr_scan", "android": "https://dc.lft.to/lastmile_qr_scan"}, "lon": -77.021096, "type": "electric_scooter"}, {"bike_id": "da3762e65b4305addef0d2e80b7d6151", "is_reserved": 0, "fusion_lon": 0.0, "lat": 38.9318685, "is_disabled": 0, "name": "da3762e65b4305addef0d2e80b7d6151", "fusion_lat": 0.0, "rental_uris": {"ios": "https://dc.lft.to/lastmile_qr_scan", "android": "https://dc.lft.to/lastmile_qr_scan"}, "lon": -77.0383925, "type": "electric_scooter"}, {"bike_id": "7a85ca1e7d1e5a74506657935d427a45", "is_reserved": 0, "fusion_lon": 0.0, "lat": 38.90275166666667, "is_disabled": 0, "name": "7a85ca1e7d1e5a74506657935d427a45", "fusion_lat": 0.0, "rental_uris": {"ios": "https://dc.lft.to/lastmile_qr_scan", "android": "https://dc.lft.to/lastmile_qr_scan"}, "lon": -77.03854666666666, "type": "electric_scooter"}, {"bike_id": "51fcde50d871d9fbb65401ea5cdbdafb", "is_reserved": 0, "fusion_lon": 0.0, "lat": 38.92068866666666, "is_disabled": 0, "name": "51fcde50d871d9fbb65401ea5cdbdafb", "fusion_lat": 0.0, "rental_uris": {"ios": "https://dc.lft.to/lastmile_qr_scan", "android": "https://dc.lft.to/lastmile_qr_scan"}, "lon": -77.04013166666667, "type": "electric_scooter"}, {"bike_id": "3bafc14519dd29829db8bfd356033060", "is_reserved": 0, "fusion_lon": 0.0, "lat": 38.917334, "is_disabled": 0, "name": "3bafc14519dd29829db8bfd356033060", "fusion_lat": 0.0, "rental_uris": {"ios": "https://dc.lft.to/lastmile_qr_scan", "android": "https://dc.lft.to/lastmile_qr_scan"}, "lon": -77.02290666666667, "type": "electric_scooter"}, {"bike_id": "55915938445f508048e65974845008bb", "is_reserved": 0, "fusion_lon": 0.0, "lat": 38.917325, "is_disabled": 0, "name": "55915938445f508048e65974845008bb", "fusion_lat": 0.0, "rental_uris": {"ios": "https://dc.lft.to/lastmile_qr_scan", "android": "https://dc.lft.to/lastmile_qr_scan"}, "lon": -77.032067, "type": "electric_scooter"}, {"bike_id": "3884bee4a7896269d07cf1546e988f3a", "is_reserved": 0, "fusion_lon": 0.0, "lat": 38.89834283333333, "is_disabled": 0, "name": "3884bee4a7896269d07cf1546e988f3a", "fusion_lat": 0.0, "rental_uris": {"ios": "https://dc.lft.to/lastmile_qr_scan", "android": "https://dc.lft.to/lastmile_qr_scan"}, "lon": -76.94639383333333, "type": "electric_scooter"}, {"bike_id": "3a9c873d97b6524e6963e268b436ad0d", "is_reserved": 0, "fusion_lon": 0.0, "lat": 38.915188666666666, "is_disabled": 0, "name": "3a9c873d97b6524e6963e268b436ad0d", "fusion_lat": 0.0, "rental_uris": {"ios": "https://dc.lft.to/lastmile_qr_scan", "android": "https://dc.lft.to/lastmile_qr_scan"}, "lon": -76.983055, "type": "electric_scooter"}, {"bike_id": "6762e804fb858f2acb14370ad4a8e40a", "is_reserved": 0, "fusion_lon": 0.0, "lat": 38.952910333333335, "is_disabled": 0, "name": "6762e804fb858f2acb14370ad4a8e40a", "fusion_lat": 0.0, "rental_uris": {"ios": "https://dc.lft.to/lastmile_qr_scan", "android": "https://dc.lft.to/lastmile_qr_scan"}, "lon": -76.94597683333333, "type": "electric_bike"}, {"bike_id": "ab25d2f4457d157b3ee9c6a7e919c65e", "is_reserved": 0, "fusion_lon": 0.0, "lat": 38.939680333333335, "is_disabled": 0, "name": "ab25d2f4457d157b3ee9c6a7e919c65e", "fusion_lat": 0.0, "rental_uris": {"ios": "https://dc.lft.to/lastmile_qr_scan", "android": "https://dc.lft.to/lastmile_qr_scan"}, "lon": -77.36090566666667, "type": "electric_bike"}, {"bike_id": "335b18d0735a6d6b8cfa5d9662a70475", "is_reserved": 0, "fusion_lon": 0.0, "lat": 38.92750183333333, "is_disabled": 0, "name": "335b18d0735a6d6b8cfa5d9662a70475", "fusion_lat": 0.0, "rental_uris": {"ios": "https://dc.lft.to/lastmile_qr_scan", "android": "https://dc.lft.to/lastmile_qr_scan"}, "lon": -77.02484316666667, "type": "electric_scooter"}, {"bike_id": "f5e1da2c049dfc4e383d8db1ee1936ee", "is_reserved": 0, "fusion_lon": 0.0, "lat": 38.913915333333335, "is_disabled": 0, "name": "f5e1da2c049dfc4e383d8db1ee1936ee", "fusion_lat": 0.0, "rental_uris": {"ios": "https://dc.lft.to/lastmile_qr_scan", "android": "https://dc.lft.to/lastmile_qr_scan"}, "lon": -77.00438016666666, "type": "electric_scooter"}, {"bike_id": "56cd201c8954c385c9f26e937dd050c9", "is_reserved": 0, "fusion_lon": 0.0, "lat": 38.95101966666667, "is_disabled": 0, "name": "56cd201c8954c385c9f26e937dd050c9", "fusion_lat": 0.0, "rental_uris": {"ios": "https://dc.lft.to/lastmile_qr_scan", "android": "https://dc.lft.to/lastmile_qr_scan"}, "lon": -77.02339333333333, "type": "electric_scooter"}, {"bike_id": "b5ab6d533a5baeb90e9548f7fa205869", "is_reserved": 0, "fusion_lon": 0.0, "lat": 38.9172745, "is_disabled": 0, "name": "b5ab6d533a5baeb90e9548f7fa205869", "fusion_lat": 0.0, "rental_uris": {"ios": "https://dc.lft.to/lastmile_qr_scan", "android": "https://dc.lft.to/lastmile_qr_scan"}, "lon": -77.03349183333333, "type": "electric_scooter"}, {"bike_id": "7e73abc87bc4560745a7cbb9b35bbb90", "is_reserved": 0, "fusion_lon": 0.0, "lat": 38.8973025, "is_disabled": 0, "name": "7e73abc87bc4560745a7cbb9b35bbb90", "fusion_lat": 0.0, "rental_uris": {"ios": "https://dc.lft.to/lastmile_qr_scan", "android": "https://dc.lft.to/lastmile_qr_scan"}, "lon": -76.92592483333334, "type": "electric_scooter"}, {"bike_id": "940d45f9e9ca0121dd76cf22dd4c05d8", "is_reserved": 0, "fusion_lon": 0.0, "lat": 38.91563416666666, "is_disabled": 0, "name": "940d45f9e9ca0121dd76cf22dd4c05d8", "fusion_lat": 0.0, "rental_uris": {"ios": "https://dc.lft.to/lastmile_qr_scan", "android": "https://dc.lft.to/lastmile_qr_scan"}, "lon": -77.031545, "type": "electric_scooter"}, {"bike_id": "6e6f725115884aa308e7325928a22793", "is_reserved": 0, "fusion_lon": 0.0, "lat": 38.8934425, "is_disabled": 0, "name": "6e6f725115884aa308e7325928a22793", "fusion_lat": 0.0, "rental_uris": {"ios": "https://dc.lft.to/lastmile_qr_scan", "android": "https://dc.lft.to/lastmile_qr_scan"}, "lon": -77.00200016666666, "type": "electric_scooter"}, {"bike_id": "c466360dde4f823eee60622ae83a6ddc", "is_reserved": 0, "fusion_lon": 0.0, "lat": 38.905194, "is_disabled": 0, "name": "c466360dde4f823eee60622ae83a6ddc", "fusion_lat": 0.0, "rental_uris": {"ios": "https://dc.lft.to/lastmile_qr_scan", "android": "https://dc.lft.to/lastmile_qr_scan"}, "lon": -77.06230983333333, "type": "electric_scooter"}, {"bike_id": "fc3f54182b7254fc597b3599a8ea987d", "is_reserved": 0, "fusion_lon": 0.0, "lat": 38.896216333333335, "is_disabled": 0, "name": "fc3f54182b7254fc597b3599a8ea987d", "fusion_lat": 0.0, "rental_uris": {"ios": "https://dc.lft.to/lastmile_qr_scan", "android": "https://dc.lft.to/lastmile_qr_scan"}, "lon": -76.981216, "type": "electric_scooter"}, {"bike_id": "cee1d95fbc0625da933c68c38bfafd1e", "is_reserved": 0, "fusion_lon": 0.0, "lat": 38.85159616666667, "is_disabled": 0, "name": "cee1d95fbc0625da933c68c38bfafd1e", "fusion_lat": 0.0, "rental_uris": {"ios": "https://dc.lft.to/lastmile_qr_scan", "android": "https://dc.lft.to/lastmile_qr_scan"}, "lon": -77.12878533333334, "type": "electric_bike"}, {"bike_id": "cbf8907d56ec31c1da2939a0ab568598", "is_reserved": 0, "fusion_lon": 0.0, "lat": 38.96620983333333, "is_disabled": 0, "name": "cbf8907d56ec31c1da2939a0ab568598", "fusion_lat": 0.0, "rental_uris": {"ios": "https://dc.lft.to/lastmile_qr_scan", "android": "https://dc.lft.to/lastmile_qr_scan"}, "lon": -77.03425, "type": "electric_bike"}, {"bike_id": "2470405c6c0d37deed94790f4a68919f", "is_reserved": 0, "fusion_lon": 0.0, "lat": 38.93611766666667, "is_disabled": 0, "name": "2470405c6c0d37deed94790f4a68919f", "fusion_lat": 0.0, "rental_uris": {"ios": "https://dc.lft.to/lastmile_qr_scan", "android": "https://dc.lft.to/lastmile_qr_scan"}, "lon": -77.02906316666666, "type": "electric_bike"}, {"bike_id": "b6440f927bae0b7a22f2a08155420993", "is_reserved": 0, "fusion_lon": 0.0, "lat": 38.865764666666664, "is_disabled": 0, "name": "b6440f927bae0b7a22f2a08155420993", "fusion_lat": 0.0, "rental_uris": {"ios": "https://dc.lft.to/lastmile_qr_scan", "android": "https://dc.lft.to/lastmile_qr_scan"}, "lon": -76.98953866666666, "type": "electric_scooter"}, {"bike_id": "ebd0bd3a98dcf76d21fcd69fd70820d2", "is_reserved": 0, "fusion_lon": 0.0, "lat": 38.89475066666667, "is_disabled": 0, "name": "ebd0bd3a98dcf76d21fcd69fd70820d2", "fusion_lat": 0.0, "rental_uris": {"ios": "https://dc.lft.to/lastmile_qr_scan", "android": "https://dc.lft.to/lastmile_qr_scan"}, "lon": -76.98406433333334, "type": "electric_scooter"}, {"bike_id": "5073ebde463b2f5fba757dc6ddf3fbf8", "is_reserved": 0, "fusion_lon": 0.0, "lat": 38.84422433333334, "is_disabled": 0, "name": "5073ebde463b2f5fba757dc6ddf3fbf8", "fusion_lat": 0.0, "rental_uris": {"ios": "https://dc.lft.to/lastmile_qr_scan", "android": "https://dc.lft.to/lastmile_qr_scan"}, "lon": -76.99776783333333, "type": "electric_scooter"}, {"bike_id": "65ac7c02e336762bd959bf08b41d2fb1", "is_reserved": 0, "fusion_lon": 0.0, "lat": 38.916234, "is_disabled": 0, "name": "65ac7c02e336762bd959bf08b41d2fb1", "fusion_lat": 0.0, "rental_uris": {"ios": "https://dc.lft.to/lastmile_qr_scan", "android": "https://dc.lft.to/lastmile_qr_scan"}, "lon": -77.03158383333333, "type": "electric_scooter"}, {"bike_id": "b66d486ac14c6fddcaf679b347852a2d", "is_reserved": 0, "fusion_lon": 0.0, "lat": 38.8922265, "is_disabled": 0, "name": "b66d486ac14c6fddcaf679b347852a2d", "fusion_lat": 0.0, "rental_uris": {"ios": "https://dc.lft.to/lastmile_qr_scan", "android": "https://dc.lft.to/lastmile_qr_scan"}, "lon": -77.04863533333334, "type": "electric_scooter"}, {"bike_id": "69c93b558d4ff4ffd33e8a7b260bca12", "is_reserved": 0, "fusion_lon": 0.0, "lat": 38.903842166666664, "is_disabled": 0, "name": "69c93b558d4ff4ffd33e8a7b260bca12", "fusion_lat": 0.0, "rental_uris": {"ios": "https://dc.lft.to/lastmile_qr_scan", "android": "https://dc.lft.to/lastmile_qr_scan"}, "lon": -77.0530925, "type": "electric_scooter"}, {"bike_id": "4bc1d3bbab39c692ae0bf283826c271e", "is_reserved": 0, "fusion_lon": 0.0, "lat": 38.810531833333336, "is_disabled": 0, "name": "4bc1d3bbab39c692ae0bf283826c271e", "fusion_lat": 0.0, "rental_uris": {"ios": "https://dc.lft.to/lastmile_qr_scan", "android": "https://dc.lft.to/lastmile_qr_scan"}, "lon": -77.08510933333334, "type": "electric_bike"}, {"bike_id": "693dea909066fb8b6bddc048eaa08f28", "is_reserved": 0, "fusion_lon": 0.0, "lat": 38.90238016666667, "is_disabled": 0, "name": "693dea909066fb8b6bddc048eaa08f28", "fusion_lat": 0.0, "rental_uris": {"ios": "https://dc.lft.to/lastmile_qr_scan", "android": "https://dc.lft.to/lastmile_qr_scan"}, "lon": -77.00202433333334, "type": "electric_scooter"}, {"bike_id": "ecbca6dd96c0d86abfb88e49b7ffb4db", "is_reserved": 0, "fusion_lon": 0.0, "lat": 38.93501466666667, "is_disabled": 0, "name": "ecbca6dd96c0d86abfb88e49b7ffb4db", "fusion_lat": 0.0, "rental_uris": {"ios": "https://dc.lft.to/lastmile_qr_scan", "android": "https://dc.lft.to/lastmile_qr_scan"}, "lon": -77.028397, "type": "electric_scooter"}, {"bike_id": "fcf5ee1d3fea0bd57c97b9307ff7b4bb", "is_reserved": 0, "fusion_lon": 0.0, "lat": 38.9031985, "is_disabled": 0, "name": "fcf5ee1d3fea0bd57c97b9307ff7b4bb", "fusion_lat": 0.0, "rental_uris": {"ios": "https://dc.lft.to/lastmile_qr_scan", "android": "https://dc.lft.to/lastmile_qr_scan"}, "lon": -77.03316633333333, "type": "electric_scooter"}, {"bike_id": "2446e287025a7e8dfeb4ba3982761d73", "is_reserved": 0, "fusion_lon": 0.0, "lat": 38.8859965, "is_disabled": 0, "name": "2446e287025a7e8dfeb4ba3982761d73", "fusion_lat": 0.0, "rental_uris": {"ios": "https://dc.lft.to/lastmile_qr_scan", "android": "https://dc.lft.to/lastmile_qr_scan"}, "lon": -77.00569083333333, "type": "electric_scooter"}, {"bike_id": "c393e76348fc546dfc9f4df5b759812d", "is_reserved": 0, "fusion_lon": 0.0, "lat": 38.877464833333335, "is_disabled": 0, "name": "c393e76348fc546dfc9f4df5b759812d", "fusion_lat": 0.0, "rental_uris": {"ios": "https://dc.lft.to/lastmile_qr_scan", "android": "https://dc.lft.to/lastmile_qr_scan"}, "lon": -76.9805395, "type": "electric_bike"}, {"bike_id": "dd77c556e035bf3d50a505d6949444a0", "is_reserved": 0, "fusion_lon": 0.0, "lat": 38.8542495, "is_disabled": 0, "name": "dd77c556e035bf3d50a505d6949444a0", "fusion_lat": 0.0, "rental_uris": {"ios": "https://dc.lft.to/lastmile_qr_scan", "android": "https://dc.lft.to/lastmile_qr_scan"}, "lon": -76.90972633333334, "type": "electric_bike"}, {"bike_id": "6042f95998a267d15fafa7ba15d17c9f", "is_reserved": 0, "fusion_lon": 0.0, "lat": 38.88643316666667, "is_disabled": 0, "name": "6042f95998a267d15fafa7ba15d17c9f", "fusion_lat": 0.0, "rental_uris": {"ios": "https://dc.lft.to/lastmile_qr_scan", "android": "https://dc.lft.to/lastmile_qr_scan"}, "lon": -77.0213675, "type": "electric_scooter"}, {"bike_id": "a73272d08e0bc854148c5e8503c15a08", "is_reserved": 0, "fusion_lon": 0.0, "lat": 38.919965833333336, "is_disabled": 0, "name": "a73272d08e0bc854148c5e8503c15a08", "fusion_lat": 0.0, "rental_uris": {"ios": "https://dc.lft.to/lastmile_qr_scan", "android": "https://dc.lft.to/lastmile_qr_scan"}, "lon": -76.97303733333334, "type": "electric_scooter"}, {"bike_id": "2656053bb3e207944ef091f9b71a18c0", "is_reserved": 0, "fusion_lon": 0.0, "lat": 38.910313, "is_disabled": 0, "name": "2656053bb3e207944ef091f9b71a18c0", "fusion_lat": 0.0, "rental_uris": {"ios": "https://dc.lft.to/lastmile_qr_scan", "android": "https://dc.lft.to/lastmile_qr_scan"}, "lon": -77.02196816666667, "type": "electric_scooter"}, {"bike_id": "2830ad28765a96588013fe035120aa69", "is_reserved": 0, "fusion_lon": 0.0, "lat": 38.82052433333333, "is_disabled": 0, "name": "2830ad28765a96588013fe035120aa69", "fusion_lat": 0.0, "rental_uris": {"ios": "https://dc.lft.to/lastmile_qr_scan", "android": "https://dc.lft.to/lastmile_qr_scan"}, "lon": -77.05316033333334, "type": "electric_bike"}, {"bike_id": "b62c261b2d43d9e22c9adf338d6de50e", "is_reserved": 0, "fusion_lon": 0.0, "lat": 38.950738333333334, "is_disabled": 0, "name": "b62c261b2d43d9e22c9adf338d6de50e", "fusion_lat": 0.0, "rental_uris": {"ios": "https://dc.lft.to/lastmile_qr_scan", "android": "https://dc.lft.to/lastmile_qr_scan"}, "lon": -77.01199516666667, "type": "electric_bike"}, {"bike_id": "990078af625d9266ca8d2373a3df69b0", "is_reserved": 0, "fusion_lon": 0.0, "lat": 38.901026, "is_disabled": 0, "name": "990078af625d9266ca8d2373a3df69b0", "fusion_lat": 0.0, "rental_uris": {"ios": "https://dc.lft.to/lastmile_qr_scan", "android": "https://dc.lft.to/lastmile_qr_scan"}, "lon": -77.0507255, "type": "electric_scooter"}, {"bike_id": "1385a1a23ec648980ae6745f96291881", "is_reserved": 0, "fusion_lon": 0.0, "lat": 38.9172, "is_disabled": 0, "name": "1385a1a23ec648980ae6745f96291881", "fusion_lat": 0.0, "rental_uris": {"ios": "https://dc.lft.to/lastmile_qr_scan", "android": "https://dc.lft.to/lastmile_qr_scan"}, "lon": -77.02399033333333, "type": "electric_scooter"}, {"bike_id": "eaffbb64c652cb476421beca79f64b05", "is_reserved": 0, "fusion_lon": 0.0, "lat": 38.91121583333333, "is_disabled": 0, "name": "eaffbb64c652cb476421beca79f64b05", "fusion_lat": 0.0, "rental_uris": {"ios": "https://dc.lft.to/lastmile_qr_scan", "android": "https://dc.lft.to/lastmile_qr_scan"}, "lon": -76.9970925, "type": "electric_scooter"}, {"bike_id": "0209522ca8eb0210e09a4d46adcc814f", "is_reserved": 0, "fusion_lon": 0.0, "lat": 38.903794500000004, "is_disabled": 0, "name": "0209522ca8eb0210e09a4d46adcc814f", "fusion_lat": 0.0, "rental_uris": {"ios": "https://dc.lft.to/lastmile_qr_scan", "android": "https://dc.lft.to/lastmile_qr_scan"}, "lon": -77.03914333333333, "type": "electric_scooter"}, {"bike_id": "dc6ef05214957df3506717cb165cd1e4", "is_reserved": 0, "fusion_lon": 0.0, "lat": 38.90020783333333, "is_disabled": 0, "name": "dc6ef05214957df3506717cb165cd1e4", "fusion_lat": 0.0, "rental_uris": {"ios": "https://dc.lft.to/lastmile_qr_scan", "android": "https://dc.lft.to/lastmile_qr_scan"}, "lon": -77.0301555, "type": "electric_scooter"}, {"bike_id": "84a72dbc613bafbf782a434db35ecb35", "is_reserved": 0, "fusion_lon": 0.0, "lat": 38.90525133333333, "is_disabled": 0, "name": "84a72dbc613bafbf782a434db35ecb35", "fusion_lat": 0.0, "rental_uris": {"ios": "https://dc.lft.to/lastmile_qr_scan", "android": "https://dc.lft.to/lastmile_qr_scan"}, "lon": -77.065332, "type": "electric_scooter"}, {"bike_id": "bb18157a1e79e53e529ef5399c0000c5", "is_reserved": 0, "fusion_lon": 0.0, "lat": 38.9026485, "is_disabled": 0, "name": "bb18157a1e79e53e529ef5399c0000c5", "fusion_lat": 0.0, "rental_uris": {"ios": "https://dc.lft.to/lastmile_qr_scan", "android": "https://dc.lft.to/lastmile_qr_scan"}, "lon": -77.01625433333334, "type": "electric_scooter"}, {"bike_id": "052be6a17ef5527c65c321b5c94bd27d", "is_reserved": 0, "fusion_lon": 0.0, "lat": 38.92423866666667, "is_disabled": 0, "name": "052be6a17ef5527c65c321b5c94bd27d", "fusion_lat": 0.0, "rental_uris": {"ios": "https://dc.lft.to/lastmile_qr_scan", "android": "https://dc.lft.to/lastmile_qr_scan"}, "lon": -77.0194975, "type": "electric_scooter"}, {"bike_id": "a24952ee1c22d693a915e8556d6eb4d8", "is_reserved": 0, "fusion_lon": 0.0, "lat": 38.941836333333335, "is_disabled": 0, "name": "a24952ee1c22d693a915e8556d6eb4d8", "fusion_lat": 0.0, "rental_uris": {"ios": "https://dc.lft.to/lastmile_qr_scan", "android": "https://dc.lft.to/lastmile_qr_scan"}, "lon": -77.02532766666667, "type": "electric_scooter"}, {"bike_id": "7cd5bcf09470d54b84a49b6f90a7cf83", "is_reserved": 0, "fusion_lon": 0.0, "lat": 38.92362166666667, "is_disabled": 0, "name": "7cd5bcf09470d54b84a49b6f90a7cf83", "fusion_lat": 0.0, "rental_uris": {"ios": "https://dc.lft.to/lastmile_qr_scan", "android": "https://dc.lft.to/lastmile_qr_scan"}, "lon": -77.05243483333334, "type": "electric_scooter"}, {"bike_id": "d91c30a6e3b269567545986db6f489c2", "is_reserved": 0, "fusion_lon": 0.0, "lat": 38.897680333333334, "is_disabled": 0, "name": "d91c30a6e3b269567545986db6f489c2", "fusion_lat": 0.0, "rental_uris": {"ios": "https://dc.lft.to/lastmile_qr_scan", "android": "https://dc.lft.to/lastmile_qr_scan"}, "lon": -77.03201366666667, "type": "electric_scooter"}, {"bike_id": "6d8dbe529a99330b481ebcb69ad20697", "is_reserved": 0, "fusion_lon": 0.0, "lat": 38.901553666666665, "is_disabled": 0, "name": "6d8dbe529a99330b481ebcb69ad20697", "fusion_lat": 0.0, "rental_uris": {"ios": "https://dc.lft.to/lastmile_qr_scan", "android": "https://dc.lft.to/lastmile_qr_scan"}, "lon": -77.04173033333333, "type": "electric_scooter"}, {"bike_id": "fea7bf4560458d9609e77d4d6218be59", "is_reserved": 0, "fusion_lon": 0.0, "lat": 38.93465916666667, "is_disabled": 0, "name": "fea7bf4560458d9609e77d4d6218be59", "fusion_lat": 0.0, "rental_uris": {"ios": "https://dc.lft.to/lastmile_qr_scan", "android": "https://dc.lft.to/lastmile_qr_scan"}, "lon": -77.03537, "type": "electric_scooter"}, {"bike_id": "741d7eaa05ed79d8a41b49836279b7d3", "is_reserved": 0, "fusion_lon": 0.0, "lat": 38.895495, "is_disabled": 0, "name": "741d7eaa05ed79d8a41b49836279b7d3", "fusion_lat": 0.0, "rental_uris": {"ios": "https://dc.lft.to/lastmile_qr_scan", "android": "https://dc.lft.to/lastmile_qr_scan"}, "lon": -76.98337266666667, "type": "electric_scooter"}, {"bike_id": "80c03371e947e6bef6cef90fc3d67446", "is_reserved": 0, "fusion_lon": 0.0, "lat": 38.935606, "is_disabled": 0, "name": "80c03371e947e6bef6cef90fc3d67446", "fusion_lat": 0.0, "rental_uris": {"ios": "https://dc.lft.to/lastmile_qr_scan", "android": "https://dc.lft.to/lastmile_qr_scan"}, "lon": -77.03704066666667, "type": "electric_bike"}, {"bike_id": "6b9d4128051c2e8cb54eeaedd6e1f5d1", "is_reserved": 0, "fusion_lon": 0.0, "lat": 38.916914166666665, "is_disabled": 0, "name": "6b9d4128051c2e8cb54eeaedd6e1f5d1", "fusion_lat": 0.0, "rental_uris": {"ios": "https://dc.lft.to/lastmile_qr_scan", "android": "https://dc.lft.to/lastmile_qr_scan"}, "lon": -77.03828883333334, "type": "electric_scooter"}, {"bike_id": "aca4f5094f81c5716af078608385cee1", "is_reserved": 0, "fusion_lon": 0.0, "lat": 38.884058, "is_disabled": 0, "name": "aca4f5094f81c5716af078608385cee1", "fusion_lat": 0.0, "rental_uris": {"ios": "https://dc.lft.to/lastmile_qr_scan", "android": "https://dc.lft.to/lastmile_qr_scan"}, "lon": -77.017518, "type": "electric_scooter"}, {"bike_id": "969d2eaa91ca5f68339902bb1bb3558d", "is_reserved": 0, "fusion_lon": 0.0, "lat": 39.052035333333336, "is_disabled": 0, "name": "969d2eaa91ca5f68339902bb1bb3558d", "fusion_lat": 0.0, "rental_uris": {"ios": "https://dc.lft.to/lastmile_qr_scan", "android": "https://dc.lft.to/lastmile_qr_scan"}, "lon": -77.10920216666666, "type": "electric_bike"}, {"bike_id": "05800dbcf1b14dd2e53be2de177a99af", "is_reserved": 0, "fusion_lon": 0.0, "lat": 38.9342515, "is_disabled": 0, "name": "05800dbcf1b14dd2e53be2de177a99af", "fusion_lat": 0.0, "rental_uris": {"ios": "https://dc.lft.to/lastmile_qr_scan", "android": "https://dc.lft.to/lastmile_qr_scan"}, "lon": -77.04316416666667, "type": "electric_scooter"}, {"bike_id": "24c0043c49c407f9d458690bfbb43b7f", "is_reserved": 0, "fusion_lon": 0.0, "lat": 38.91554083333333, "is_disabled": 0, "name": "24c0043c49c407f9d458690bfbb43b7f", "fusion_lat": 0.0, "rental_uris": {"ios": "https://dc.lft.to/lastmile_qr_scan", "android": "https://dc.lft.to/lastmile_qr_scan"}, "lon": -77.03931183333333, "type": "electric_scooter"}, {"bike_id": "df8d568e4e62a48f424cd819129ad1d8", "is_reserved": 0, "fusion_lon": 0.0, "lat": 38.882045, "is_disabled": 0, "name": "df8d568e4e62a48f424cd819129ad1d8", "fusion_lat": 0.0, "rental_uris": {"ios": "https://dc.lft.to/lastmile_qr_scan", "android": "https://dc.lft.to/lastmile_qr_scan"}, "lon": -76.9269925, "type": "electric_scooter"}, {"bike_id": "8801662f28fedcde6e131b2dc3ce346e", "is_reserved": 0, "fusion_lon": 0.0, "lat": 38.92756383333333, "is_disabled": 0, "name": "8801662f28fedcde6e131b2dc3ce346e", "fusion_lat": 0.0, "rental_uris": {"ios": "https://dc.lft.to/lastmile_qr_scan", "android": "https://dc.lft.to/lastmile_qr_scan"}, "lon": -77.0328045, "type": "electric_scooter"}, {"bike_id": "52e32cc4e3da7182a89cc5c6077ad770", "is_reserved": 0, "fusion_lon": 0.0, "lat": 38.9034775, "is_disabled": 0, "name": "52e32cc4e3da7182a89cc5c6077ad770", "fusion_lat": 0.0, "rental_uris": {"ios": "https://dc.lft.to/lastmile_qr_scan", "android": "https://dc.lft.to/lastmile_qr_scan"}, "lon": -77.00911116666667, "type": "electric_scooter"}, {"bike_id": "bf2b868d94354fd25090cc2b10fb847e", "is_reserved": 0, "fusion_lon": 0.0, "lat": 38.928535833333335, "is_disabled": 0, "name": "bf2b868d94354fd25090cc2b10fb847e", "fusion_lat": 0.0, "rental_uris": {"ios": "https://dc.lft.to/lastmile_qr_scan", "android": "https://dc.lft.to/lastmile_qr_scan"}, "lon": -77.0327765, "type": "electric_scooter"}, {"bike_id": "e768c42933dfea817c20a3a00a17ca98", "is_reserved": 0, "fusion_lon": 0.0, "lat": 38.896116166666665, "is_disabled": 0, "name": "e768c42933dfea817c20a3a00a17ca98", "fusion_lat": 0.0, "rental_uris": {"ios": "https://dc.lft.to/lastmile_qr_scan", "android": "https://dc.lft.to/lastmile_qr_scan"}, "lon": -77.00924766666667, "type": "electric_scooter"}, {"bike_id": "674032ee36dda986ba42c1693fd5a471", "is_reserved": 0, "fusion_lon": 0.0, "lat": 38.922157, "is_disabled": 0, "name": "674032ee36dda986ba42c1693fd5a471", "fusion_lat": 0.0, "rental_uris": {"ios": "https://dc.lft.to/lastmile_qr_scan", "android": "https://dc.lft.to/lastmile_qr_scan"}, "lon": -77.0366415, "type": "electric_scooter"}, {"bike_id": "a01fc79ffd7695aa5fd9f9afb01e397c", "is_reserved": 0, "fusion_lon": 0.0, "lat": 38.90121233333333, "is_disabled": 0, "name": "a01fc79ffd7695aa5fd9f9afb01e397c", "fusion_lat": 0.0, "rental_uris": {"ios": "https://dc.lft.to/lastmile_qr_scan", "android": "https://dc.lft.to/lastmile_qr_scan"}, "lon": -77.04231166666666, "type": "electric_scooter"}, {"bike_id": "50d5957adb8de2bef3af7d473de15509", "is_reserved": 0, "fusion_lon": 0.0, "lat": 38.898355333333335, "is_disabled": 0, "name": "50d5957adb8de2bef3af7d473de15509", "fusion_lat": 0.0, "rental_uris": {"ios": "https://dc.lft.to/lastmile_qr_scan", "android": "https://dc.lft.to/lastmile_qr_scan"}, "lon": -76.94637083333333, "type": "electric_scooter"}, {"bike_id": "35ef1e0579e8d6a63da775ed748eb0d5", "is_reserved": 0, "fusion_lon": 0.0, "lat": 38.89471183333333, "is_disabled": 0, "name": "35ef1e0579e8d6a63da775ed748eb0d5", "fusion_lat": 0.0, "rental_uris": {"ios": "https://dc.lft.to/lastmile_qr_scan", "android": "https://dc.lft.to/lastmile_qr_scan"}, "lon": -77.00070533333333, "type": "electric_scooter"}, {"bike_id": "5599b39fadbef8055f2dfbdb3aed1275", "is_reserved": 0, "fusion_lon": 0.0, "lat": 38.90240633333333, "is_disabled": 0, "name": "5599b39fadbef8055f2dfbdb3aed1275", "fusion_lat": 0.0, "rental_uris": {"ios": "https://dc.lft.to/lastmile_qr_scan", "android": "https://dc.lft.to/lastmile_qr_scan"}, "lon": -77.002044, "type": "electric_scooter"}, {"bike_id": "6e142cefc041780dcc58675022c926ab", "is_reserved": 0, "fusion_lon": 0.0, "lat": 38.904271666666666, "is_disabled": 0, "name": "6e142cefc041780dcc58675022c926ab", "fusion_lat": 0.0, "rental_uris": {"ios": "https://dc.lft.to/lastmile_qr_scan", "android": "https://dc.lft.to/lastmile_qr_scan"}, "lon": -77.0435475, "type": "electric_scooter"}, {"bike_id": "5f1532fb0e097f095230f8f047147949", "is_reserved": 0, "fusion_lon": 0.0, "lat": 38.9334285, "is_disabled": 0, "name": "5f1532fb0e097f095230f8f047147949", "fusion_lat": 0.0, "rental_uris": {"ios": "https://dc.lft.to/lastmile_qr_scan", "android": "https://dc.lft.to/lastmile_qr_scan"}, "lon": -77.032668, "type": "electric_scooter"}, {"bike_id": "2d77011c0f6a13b00647cc30b9295fea", "is_reserved": 0, "fusion_lon": 0.0, "lat": 38.92580516666666, "is_disabled": 0, "name": "2d77011c0f6a13b00647cc30b9295fea", "fusion_lat": 0.0, "rental_uris": {"ios": "https://dc.lft.to/lastmile_qr_scan", "android": "https://dc.lft.to/lastmile_qr_scan"}, "lon": -77.057727, "type": "electric_scooter"}, {"bike_id": "ff370720795b2a5cb6fa098df8a5c1f2", "is_reserved": 0, "fusion_lon": 0.0, "lat": 38.88436016666667, "is_disabled": 0, "name": "ff370720795b2a5cb6fa098df8a5c1f2", "fusion_lat": 0.0, "rental_uris": {"ios": "https://dc.lft.to/lastmile_qr_scan", "android": "https://dc.lft.to/lastmile_qr_scan"}, "lon": -77.03043283333334, "type": "electric_scooter"}, {"bike_id": "875831d73276f424d002bc76c332da17", "is_reserved": 0, "fusion_lon": 0.0, "lat": 38.917122, "is_disabled": 0, "name": "875831d73276f424d002bc76c332da17", "fusion_lat": 0.0, "rental_uris": {"ios": "https://dc.lft.to/lastmile_qr_scan", "android": "https://dc.lft.to/lastmile_qr_scan"}, "lon": -77.035021, "type": "electric_scooter"}, {"bike_id": "cffc3a82b13d0ee6e88a5471a50def75", "is_reserved": 0, "fusion_lon": 0.0, "lat": 38.90174316666667, "is_disabled": 0, "name": "cffc3a82b13d0ee6e88a5471a50def75", "fusion_lat": 0.0, "rental_uris": {"ios": "https://dc.lft.to/lastmile_qr_scan", "android": "https://dc.lft.to/lastmile_qr_scan"}, "lon": -77.00009583333333, "type": "electric_scooter"}, {"bike_id": "6f37ea614752d01aa4e2777c29dffefb", "is_reserved": 0, "fusion_lon": 0.0, "lat": 38.864239833333336, "is_disabled": 0, "name": "6f37ea614752d01aa4e2777c29dffefb", "fusion_lat": 0.0, "rental_uris": {"ios": "https://dc.lft.to/lastmile_qr_scan", "android": "https://dc.lft.to/lastmile_qr_scan"}, "lon": -77.013384, "type": "electric_scooter"}, {"bike_id": "b249681e9614dae1043eda4b14d639a1", "is_reserved": 0, "fusion_lon": 0.0, "lat": 38.89224433333333, "is_disabled": 0, "name": "b249681e9614dae1043eda4b14d639a1", "fusion_lat": 0.0, "rental_uris": {"ios": "https://dc.lft.to/lastmile_qr_scan", "android": "https://dc.lft.to/lastmile_qr_scan"}, "lon": -77.04653133333333, "type": "electric_scooter"}, {"bike_id": "04dbe77da75d61fd235aa14342583143", "is_reserved": 0, "fusion_lon": 0.0, "lat": 38.9211465, "is_disabled": 0, "name": "04dbe77da75d61fd235aa14342583143", "fusion_lat": 0.0, "rental_uris": {"ios": "https://dc.lft.to/lastmile_qr_scan", "android": "https://dc.lft.to/lastmile_qr_scan"}, "lon": -77.0420865, "type": "electric_scooter"}, {"bike_id": "f21a3ca0fcc616aec5fe6289f1b5bce7", "is_reserved": 0, "fusion_lon": 0.0, "lat": 38.927909, "is_disabled": 0, "name": "f21a3ca0fcc616aec5fe6289f1b5bce7", "fusion_lat": 0.0, "rental_uris": {"ios": "https://dc.lft.to/lastmile_qr_scan", "android": "https://dc.lft.to/lastmile_qr_scan"}, "lon": -77.03152533333333, "type": "electric_scooter"}, {"bike_id": "315a4362dc8f3b9301263f94a00a2f39", "is_reserved": 0, "fusion_lon": 0.0, "lat": 38.896178666666664, "is_disabled": 0, "name": "315a4362dc8f3b9301263f94a00a2f39", "fusion_lat": 0.0, "rental_uris": {"ios": "https://dc.lft.to/lastmile_qr_scan", "android": "https://dc.lft.to/lastmile_qr_scan"}, "lon": -76.99068616666666, "type": "electric_scooter"}, {"bike_id": "18bf5f0705261a5398bfad2134eab345", "is_reserved": 0, "fusion_lon": 0.0, "lat": 38.892207166666665, "is_disabled": 0, "name": "18bf5f0705261a5398bfad2134eab345", "fusion_lat": 0.0, "rental_uris": {"ios": "https://dc.lft.to/lastmile_qr_scan", "android": "https://dc.lft.to/lastmile_qr_scan"}, "lon": -77.02777166666667, "type": "electric_scooter"}, {"bike_id": "f3b8a91865df76cc2f9251a94fb6833e", "is_reserved": 0, "fusion_lon": 0.0, "lat": 38.921367000000004, "is_disabled": 0, "name": "f3b8a91865df76cc2f9251a94fb6833e", "fusion_lat": 0.0, "rental_uris": {"ios": "https://dc.lft.to/lastmile_qr_scan", "android": "https://dc.lft.to/lastmile_qr_scan"}, "lon": -77.01796966666667, "type": "electric_scooter"}, {"bike_id": "ef24165a418acba43302bed5e178139a", "is_reserved": 0, "fusion_lon": 0.0, "lat": 38.938886833333335, "is_disabled": 0, "name": "ef24165a418acba43302bed5e178139a", "fusion_lat": 0.0, "rental_uris": {"ios": "https://dc.lft.to/lastmile_qr_scan", "android": "https://dc.lft.to/lastmile_qr_scan"}, "lon": -77.03277883333334, "type": "electric_scooter"}, {"bike_id": "f6cced720cdb543ff2c73dd47c888a45", "is_reserved": 0, "fusion_lon": 0.0, "lat": 38.902795833333336, "is_disabled": 0, "name": "f6cced720cdb543ff2c73dd47c888a45", "fusion_lat": 0.0, "rental_uris": {"ios": "https://dc.lft.to/lastmile_qr_scan", "android": "https://dc.lft.to/lastmile_qr_scan"}, "lon": -77.04062616666667, "type": "electric_scooter"}, {"bike_id": "fc5c13b0b0df7c874d0e6f8c4cd4c23e", "is_reserved": 0, "fusion_lon": 0.0, "lat": 38.926543, "is_disabled": 0, "name": "fc5c13b0b0df7c874d0e6f8c4cd4c23e", "fusion_lat": 0.0, "rental_uris": {"ios": "https://dc.lft.to/lastmile_qr_scan", "android": "https://dc.lft.to/lastmile_qr_scan"}, "lon": -77.03716333333334, "type": "electric_scooter"}, {"bike_id": "bbaf64fbbf9c14c0dce7cb44067d92bc", "is_reserved": 0, "fusion_lon": 0.0, "lat": 38.92757016666667, "is_disabled": 0, "name": "bbaf64fbbf9c14c0dce7cb44067d92bc", "fusion_lat": 0.0, "rental_uris": {"ios": "https://dc.lft.to/lastmile_qr_scan", "android": "https://dc.lft.to/lastmile_qr_scan"}, "lon": -77.0538265, "type": "electric_scooter"}, {"bike_id": "3e27b2a4a9b3742a8279fe448b569490", "is_reserved": 0, "fusion_lon": 0.0, "lat": 38.985976, "is_disabled": 0, "name": "3e27b2a4a9b3742a8279fe448b569490", "fusion_lat": 0.0, "rental_uris": {"ios": "https://dc.lft.to/lastmile_qr_scan", "android": "https://dc.lft.to/lastmile_qr_scan"}, "lon": -77.03756366666667, "type": "electric_bike"}, {"bike_id": "472cebd0c2ed9d83c04ca54667512917", "is_reserved": 0, "fusion_lon": 0.0, "lat": 38.9038715, "is_disabled": 0, "name": "472cebd0c2ed9d83c04ca54667512917", "fusion_lat": 0.0, "rental_uris": {"ios": "https://dc.lft.to/lastmile_qr_scan", "android": "https://dc.lft.to/lastmile_qr_scan"}, "lon": -77.04451283333333, "type": "electric_scooter"}, {"bike_id": "dc0420e88d065d7349e02603c5c8d30f", "is_reserved": 0, "fusion_lon": 0.0, "lat": 38.984674166666665, "is_disabled": 0, "name": "dc0420e88d065d7349e02603c5c8d30f", "fusion_lat": 0.0, "rental_uris": {"ios": "https://dc.lft.to/lastmile_qr_scan", "android": "https://dc.lft.to/lastmile_qr_scan"}, "lon": -76.95519350000001, "type": "electric_bike"}, {"bike_id": "81ffaf9f24f6a6dd15e6a29b314f3738", "is_reserved": 0, "fusion_lon": 0.0, "lat": 38.86563566666667, "is_disabled": 0, "name": "81ffaf9f24f6a6dd15e6a29b314f3738", "fusion_lat": 0.0, "rental_uris": {"ios": "https://dc.lft.to/lastmile_qr_scan", "android": "https://dc.lft.to/lastmile_qr_scan"}, "lon": -76.9895055, "type": "electric_scooter"}, {"bike_id": "4d25aa7071d6480e95e549ac0522d4e2", "is_reserved": 0, "fusion_lon": 0.0, "lat": 38.85219716666667, "is_disabled": 0, "name": "4d25aa7071d6480e95e549ac0522d4e2", "fusion_lat": 0.0, "rental_uris": {"ios": "https://dc.lft.to/lastmile_qr_scan", "android": "https://dc.lft.to/lastmile_qr_scan"}, "lon": -77.12959433333333, "type": "electric_bike"}, {"bike_id": "41522564639bb01c9e949e046459611a", "is_reserved": 0, "fusion_lon": 0.0, "lat": 38.9005905, "is_disabled": 0, "name": "41522564639bb01c9e949e046459611a", "fusion_lat": 0.0, "rental_uris": {"ios": "https://dc.lft.to/lastmile_qr_scan", "android": "https://dc.lft.to/lastmile_qr_scan"}, "lon": -77.00755366666667, "type": "electric_scooter"}, {"bike_id": "9cad1b1987a902b3160097bebf7d18a3", "is_reserved": 0, "fusion_lon": 0.0, "lat": 38.8659765, "is_disabled": 0, "name": "9cad1b1987a902b3160097bebf7d18a3", "fusion_lat": 0.0, "rental_uris": {"ios": "https://dc.lft.to/lastmile_qr_scan", "android": "https://dc.lft.to/lastmile_qr_scan"}, "lon": -76.932281, "type": "electric_bike"}, {"bike_id": "b73b5b76fb868652986b3987b8104274", "is_reserved": 0, "fusion_lon": 0.0, "lat": 38.89231933333333, "is_disabled": 0, "name": "b73b5b76fb868652986b3987b8104274", "fusion_lat": 0.0, "rental_uris": {"ios": "https://dc.lft.to/lastmile_qr_scan", "android": "https://dc.lft.to/lastmile_qr_scan"}, "lon": -77.02584716666667, "type": "electric_scooter"}, {"bike_id": "c9cb38238f607eecf9895a508232b8ff", "is_reserved": 0, "fusion_lon": 0.0, "lat": 38.91109866666667, "is_disabled": 0, "name": "c9cb38238f607eecf9895a508232b8ff", "fusion_lat": 0.0, "rental_uris": {"ios": "https://dc.lft.to/lastmile_qr_scan", "android": "https://dc.lft.to/lastmile_qr_scan"}, "lon": -77.03625083333333, "type": "electric_scooter"}, {"bike_id": "83d503831b2fb2398b9003021f5d885e", "is_reserved": 0, "fusion_lon": 0.0, "lat": 38.923533666666664, "is_disabled": 0, "name": "83d503831b2fb2398b9003021f5d885e", "fusion_lat": 0.0, "rental_uris": {"ios": "https://dc.lft.to/lastmile_qr_scan", "android": "https://dc.lft.to/lastmile_qr_scan"}, "lon": -77.03355433333333, "type": "electric_scooter"}, {"bike_id": "71f1b75880750a14b7a736fe6a7215e1", "is_reserved": 0, "fusion_lon": 0.0, "lat": 38.92227483333333, "is_disabled": 0, "name": "71f1b75880750a14b7a736fe6a7215e1", "fusion_lat": 0.0, "rental_uris": {"ios": "https://dc.lft.to/lastmile_qr_scan", "android": "https://dc.lft.to/lastmile_qr_scan"}, "lon": -77.0431455, "type": "electric_scooter"}, {"bike_id": "f4cf1e3b1fde94c458736b44250aa0af", "is_reserved": 0, "fusion_lon": 0.0, "lat": 38.9225705, "is_disabled": 0, "name": "f4cf1e3b1fde94c458736b44250aa0af", "fusion_lat": 0.0, "rental_uris": {"ios": "https://dc.lft.to/lastmile_qr_scan", "android": "https://dc.lft.to/lastmile_qr_scan"}, "lon": -77.04134983333333, "type": "electric_scooter"}, {"bike_id": "c8a05236273c82724145cd2297ea8bea", "is_reserved": 0, "fusion_lon": 0.0, "lat": 38.896080166666664, "is_disabled": 0, "name": "c8a05236273c82724145cd2297ea8bea", "fusion_lat": 0.0, "rental_uris": {"ios": "https://dc.lft.to/lastmile_qr_scan", "android": "https://dc.lft.to/lastmile_qr_scan"}, "lon": -77.04237183333333, "type": "electric_scooter"}, {"bike_id": "5cc5efa5b874d7a78bbb84353d3bd8ba", "is_reserved": 0, "fusion_lon": 0.0, "lat": 38.918068, "is_disabled": 0, "name": "5cc5efa5b874d7a78bbb84353d3bd8ba", "fusion_lat": 0.0, "rental_uris": {"ios": "https://dc.lft.to/lastmile_qr_scan", "android": "https://dc.lft.to/lastmile_qr_scan"}, "lon": -77.03432566666666, "type": "electric_scooter"}, {"bike_id": "517392cf12e78f699f9077bfa54c554e", "is_reserved": 0, "fusion_lon": 0.0, "lat": 38.89902583333333, "is_disabled": 0, "name": "517392cf12e78f699f9077bfa54c554e", "fusion_lat": 0.0, "rental_uris": {"ios": "https://dc.lft.to/lastmile_qr_scan", "android": "https://dc.lft.to/lastmile_qr_scan"}, "lon": -77.00355183333333, "type": "electric_scooter"}, {"bike_id": "7f7c6a486ddc6e3d31a9a533dc27b807", "is_reserved": 0, "fusion_lon": 0.0, "lat": 38.915817, "is_disabled": 0, "name": "7f7c6a486ddc6e3d31a9a533dc27b807", "fusion_lat": 0.0, "rental_uris": {"ios": "https://dc.lft.to/lastmile_qr_scan", "android": "https://dc.lft.to/lastmile_qr_scan"}, "lon": -77.01234583333333, "type": "electric_scooter"}, {"bike_id": "da3d26ca90cc3d9199831e1ecc90caa5", "is_reserved": 0, "fusion_lon": 0.0, "lat": 38.96168316666667, "is_disabled": 0, "name": "da3d26ca90cc3d9199831e1ecc90caa5", "fusion_lat": 0.0, "rental_uris": {"ios": "https://dc.lft.to/lastmile_qr_scan", "android": "https://dc.lft.to/lastmile_qr_scan"}, "lon": -77.08612483333333, "type": "electric_bike"}, {"bike_id": "fd5cb4b71eeab20c3abe4f0e22cf23c5", "is_reserved": 0, "fusion_lon": 0.0, "lat": 38.9372365, "is_disabled": 0, "name": "fd5cb4b71eeab20c3abe4f0e22cf23c5", "fusion_lat": 0.0, "rental_uris": {"ios": "https://dc.lft.to/lastmile_qr_scan", "android": "https://dc.lft.to/lastmile_qr_scan"}, "lon": -77.024387, "type": "electric_scooter"}, {"bike_id": "99fceef17ddc87e30019a1b97b62147c", "is_reserved": 0, "fusion_lon": 0.0, "lat": 38.9340185, "is_disabled": 0, "name": "99fceef17ddc87e30019a1b97b62147c", "fusion_lat": 0.0, "rental_uris": {"ios": "https://dc.lft.to/lastmile_qr_scan", "android": "https://dc.lft.to/lastmile_qr_scan"}, "lon": -77.02061883333333, "type": "electric_scooter"}, {"bike_id": "6241c96f20f25f8506b7f30e6f98d531", "is_reserved": 0, "fusion_lon": 0.0, "lat": 38.9404865, "is_disabled": 0, "name": "6241c96f20f25f8506b7f30e6f98d531", "fusion_lat": 0.0, "rental_uris": {"ios": "https://dc.lft.to/lastmile_qr_scan", "android": "https://dc.lft.to/lastmile_qr_scan"}, "lon": -77.02979333333333, "type": "electric_scooter"}, {"bike_id": "bbfd096b193181c710d779234d3e43b7", "is_reserved": 0, "fusion_lon": 0.0, "lat": 38.96150933333333, "is_disabled": 0, "name": "bbfd096b193181c710d779234d3e43b7", "fusion_lat": 0.0, "rental_uris": {"ios": "https://dc.lft.to/lastmile_qr_scan", "android": "https://dc.lft.to/lastmile_qr_scan"}, "lon": -76.9977355, "type": "electric_scooter"}, {"bike_id": "2af0cee1a2cf9ead58887a87eb8fc79c", "is_reserved": 0, "fusion_lon": 0.0, "lat": 38.892206333333334, "is_disabled": 0, "name": "2af0cee1a2cf9ead58887a87eb8fc79c", "fusion_lat": 0.0, "rental_uris": {"ios": "https://dc.lft.to/lastmile_qr_scan", "android": "https://dc.lft.to/lastmile_qr_scan"}, "lon": -77.03980466666667, "type": "electric_scooter"}, {"bike_id": "9059b6a834f93be27c5bcba1dfeb90f1", "is_reserved": 0, "fusion_lon": 0.0, "lat": 38.905120333333336, "is_disabled": 0, "name": "9059b6a834f93be27c5bcba1dfeb90f1", "fusion_lat": 0.0, "rental_uris": {"ios": "https://dc.lft.to/lastmile_qr_scan", "android": "https://dc.lft.to/lastmile_qr_scan"}, "lon": -77.0665625, "type": "electric_scooter"}, {"bike_id": "4ac6c4807eabf5c289ab19c8107c3069", "is_reserved": 0, "fusion_lon": 0.0, "lat": 38.903627166666666, "is_disabled": 0, "name": "4ac6c4807eabf5c289ab19c8107c3069", "fusion_lat": 0.0, "rental_uris": {"ios": "https://dc.lft.to/lastmile_qr_scan", "android": "https://dc.lft.to/lastmile_qr_scan"}, "lon": -77.04353216666667, "type": "electric_scooter"}, {"bike_id": "236285c5630b1ebb2599b4dd4395593c", "is_reserved": 0, "fusion_lon": 0.0, "lat": 38.904869833333336, "is_disabled": 0, "name": "236285c5630b1ebb2599b4dd4395593c", "fusion_lat": 0.0, "rental_uris": {"ios": "https://dc.lft.to/lastmile_qr_scan", "android": "https://dc.lft.to/lastmile_qr_scan"}, "lon": -77.06786633333333, "type": "electric_scooter"}, {"bike_id": "b8c601e6ac511b9564b3d462564f97c1", "is_reserved": 0, "fusion_lon": 0.0, "lat": 38.90224216666667, "is_disabled": 0, "name": "b8c601e6ac511b9564b3d462564f97c1", "fusion_lat": 0.0, "rental_uris": {"ios": "https://dc.lft.to/lastmile_qr_scan", "android": "https://dc.lft.to/lastmile_qr_scan"}, "lon": -77.06069333333333, "type": "electric_scooter"}, {"bike_id": "aeb872cc7e79bf5ca0854ab3c698dd2e", "is_reserved": 0, "fusion_lon": 0.0, "lat": 38.900705, "is_disabled": 0, "name": "aeb872cc7e79bf5ca0854ab3c698dd2e", "fusion_lat": 0.0, "rental_uris": {"ios": "https://dc.lft.to/lastmile_qr_scan", "android": "https://dc.lft.to/lastmile_qr_scan"}, "lon": -77.05019283333333, "type": "electric_scooter"}, {"bike_id": "89eb3b285c91c37d2fad1abae92cf9e4", "is_reserved": 0, "fusion_lon": 0.0, "lat": 38.9033815, "is_disabled": 0, "name": "89eb3b285c91c37d2fad1abae92cf9e4", "fusion_lat": 0.0, "rental_uris": {"ios": "https://dc.lft.to/lastmile_qr_scan", "android": "https://dc.lft.to/lastmile_qr_scan"}, "lon": -77.0519825, "type": "electric_scooter"}, {"bike_id": "53180058fcc16f55de1594e8c8d7c18f", "is_reserved": 0, "fusion_lon": 0.0, "lat": 38.93704916666667, "is_disabled": 0, "name": "53180058fcc16f55de1594e8c8d7c18f", "fusion_lat": 0.0, "rental_uris": {"ios": "https://dc.lft.to/lastmile_qr_scan", "android": "https://dc.lft.to/lastmile_qr_scan"}, "lon": -77.068622, "type": "electric_bike"}, {"bike_id": "315ccdb283ca157d33501ac119f7d727", "is_reserved": 0, "fusion_lon": 0.0, "lat": 38.933604833333334, "is_disabled": 0, "name": "315ccdb283ca157d33501ac119f7d727", "fusion_lat": 0.0, "rental_uris": {"ios": "https://dc.lft.to/lastmile_qr_scan", "android": "https://dc.lft.to/lastmile_qr_scan"}, "lon": -77.05720666666667, "type": "electric_scooter"}, {"bike_id": "9d1f5eea182da2e4a6a21cdeae7e114a", "is_reserved": 0, "fusion_lon": 0.0, "lat": 38.88021783333333, "is_disabled": 0, "name": "9d1f5eea182da2e4a6a21cdeae7e114a", "fusion_lat": 0.0, "rental_uris": {"ios": "https://dc.lft.to/lastmile_qr_scan", "android": "https://dc.lft.to/lastmile_qr_scan"}, "lon": -76.99498216666667, "type": "electric_scooter"}, {"bike_id": "5fe543b8864cc6eb36ba9382033cc99e", "is_reserved": 0, "fusion_lon": 0.0, "lat": 38.884339833333335, "is_disabled": 0, "name": "5fe543b8864cc6eb36ba9382033cc99e", "fusion_lat": 0.0, "rental_uris": {"ios": "https://dc.lft.to/lastmile_qr_scan", "android": "https://dc.lft.to/lastmile_qr_scan"}, "lon": -76.95762283333333, "type": "electric_scooter"}, {"bike_id": "40dc6b4c4e802113954c702587a884c0", "is_reserved": 0, "fusion_lon": 0.0, "lat": 38.900464, "is_disabled": 0, "name": "40dc6b4c4e802113954c702587a884c0", "fusion_lat": 0.0, "rental_uris": {"ios": "https://dc.lft.to/lastmile_qr_scan", "android": "https://dc.lft.to/lastmile_qr_scan"}, "lon": -76.92474633333333, "type": "electric_scooter"}, {"bike_id": "5edcac9fededc3c6c04d91dbf2719d97", "is_reserved": 0, "fusion_lon": 0.0, "lat": 38.90020116666667, "is_disabled": 0, "name": "5edcac9fededc3c6c04d91dbf2719d97", "fusion_lat": 0.0, "rental_uris": {"ios": "https://dc.lft.to/lastmile_qr_scan", "android": "https://dc.lft.to/lastmile_qr_scan"}, "lon": -77.040202, "type": "electric_scooter"}, {"bike_id": "90e76e9b706fc839da303d3d31a29774", "is_reserved": 0, "fusion_lon": 0.0, "lat": 38.91686116666666, "is_disabled": 0, "name": "90e76e9b706fc839da303d3d31a29774", "fusion_lat": 0.0, "rental_uris": {"ios": "https://dc.lft.to/lastmile_qr_scan", "android": "https://dc.lft.to/lastmile_qr_scan"}, "lon": -77.03183716666666, "type": "electric_scooter"}, {"bike_id": "07382a134d696e1748e5250ca35acab4", "is_reserved": 0, "fusion_lon": 0.0, "lat": 38.903675, "is_disabled": 0, "name": "07382a134d696e1748e5250ca35acab4", "fusion_lat": 0.0, "rental_uris": {"ios": "https://dc.lft.to/lastmile_qr_scan", "android": "https://dc.lft.to/lastmile_qr_scan"}, "lon": -77.03997916666667, "type": "electric_scooter"}, {"bike_id": "797edaa4e010fc47fbb1d78829ea7b57", "is_reserved": 0, "fusion_lon": 0.0, "lat": 38.916654, "is_disabled": 0, "name": "797edaa4e010fc47fbb1d78829ea7b57", "fusion_lat": 0.0, "rental_uris": {"ios": "https://dc.lft.to/lastmile_qr_scan", "android": "https://dc.lft.to/lastmile_qr_scan"}, "lon": -77.02709616666667, "type": "electric_scooter"}, {"bike_id": "a57956c48e448c8468acc25de81aa868", "is_reserved": 0, "fusion_lon": 0.0, "lat": 38.887347166666665, "is_disabled": 0, "name": "a57956c48e448c8468acc25de81aa868", "fusion_lat": 0.0, "rental_uris": {"ios": "https://dc.lft.to/lastmile_qr_scan", "android": "https://dc.lft.to/lastmile_qr_scan"}, "lon": -77.02581783333333, "type": "electric_scooter"}, {"bike_id": "78a86d7be0ac193f86593a0db4dce1db", "is_reserved": 0, "fusion_lon": 0.0, "lat": 38.90444683333333, "is_disabled": 0, "name": "78a86d7be0ac193f86593a0db4dce1db", "fusion_lat": 0.0, "rental_uris": {"ios": "https://dc.lft.to/lastmile_qr_scan", "android": "https://dc.lft.to/lastmile_qr_scan"}, "lon": -77.0490705, "type": "electric_scooter"}, {"bike_id": "db68406ec88aaa15b79b79855fc80d4a", "is_reserved": 0, "fusion_lon": 0.0, "lat": 38.92588416666667, "is_disabled": 0, "name": "db68406ec88aaa15b79b79855fc80d4a", "fusion_lat": 0.0, "rental_uris": {"ios": "https://dc.lft.to/lastmile_qr_scan", "android": "https://dc.lft.to/lastmile_qr_scan"}, "lon": -77.05053916666667, "type": "electric_scooter"}, {"bike_id": "35290e62976f67a24f37b2ce9a77bf09", "is_reserved": 0, "fusion_lon": 0.0, "lat": 38.89764683333333, "is_disabled": 0, "name": "35290e62976f67a24f37b2ce9a77bf09", "fusion_lat": 0.0, "rental_uris": {"ios": "https://dc.lft.to/lastmile_qr_scan", "android": "https://dc.lft.to/lastmile_qr_scan"}, "lon": -76.94188083333333, "type": "electric_scooter"}, {"bike_id": "c2c8d5317a3e8b6df334bfcc463050e6", "is_reserved": 0, "fusion_lon": 0.0, "lat": 38.931185666666664, "is_disabled": 0, "name": "c2c8d5317a3e8b6df334bfcc463050e6", "fusion_lat": 0.0, "rental_uris": {"ios": "https://dc.lft.to/lastmile_qr_scan", "android": "https://dc.lft.to/lastmile_qr_scan"}, "lon": -77.02088066666667, "type": "electric_scooter"}, {"bike_id": "41008481190bc4cbba8d5ed75d4e6d6a", "is_reserved": 0, "fusion_lon": 0.0, "lat": 38.92473366666667, "is_disabled": 0, "name": "41008481190bc4cbba8d5ed75d4e6d6a", "fusion_lat": 0.0, "rental_uris": {"ios": "https://dc.lft.to/lastmile_qr_scan", "android": "https://dc.lft.to/lastmile_qr_scan"}, "lon": -77.02157033333333, "type": "electric_scooter"}, {"bike_id": "c95f17e7a4b9aadc03307739156756e4", "is_reserved": 0, "fusion_lon": 0.0, "lat": 38.89609166666666, "is_disabled": 0, "name": "c95f17e7a4b9aadc03307739156756e4", "fusion_lat": 0.0, "rental_uris": {"ios": "https://dc.lft.to/lastmile_qr_scan", "android": "https://dc.lft.to/lastmile_qr_scan"}, "lon": -77.04790566666667, "type": "electric_scooter"}, {"bike_id": "5fe907699248a912e73b3ebffe5c20ae", "is_reserved": 0, "fusion_lon": 0.0, "lat": 38.911884, "is_disabled": 0, "name": "5fe907699248a912e73b3ebffe5c20ae", "fusion_lat": 0.0, "rental_uris": {"ios": "https://dc.lft.to/lastmile_qr_scan", "android": "https://dc.lft.to/lastmile_qr_scan"}, "lon": -77.06022366666667, "type": "electric_scooter"}, {"bike_id": "9ec8cdcc20d60cb20f8d9cede579936b", "is_reserved": 0, "fusion_lon": 0.0, "lat": 38.90108566666667, "is_disabled": 0, "name": "9ec8cdcc20d60cb20f8d9cede579936b", "fusion_lat": 0.0, "rental_uris": {"ios": "https://dc.lft.to/lastmile_qr_scan", "android": "https://dc.lft.to/lastmile_qr_scan"}, "lon": -77.04460883333333, "type": "electric_scooter"}, {"bike_id": "3d1a16fad5ce37db6387eee49d1f3472", "is_reserved": 0, "fusion_lon": 0.0, "lat": 38.90313966666667, "is_disabled": 0, "name": "3d1a16fad5ce37db6387eee49d1f3472", "fusion_lat": 0.0, "rental_uris": {"ios": "https://dc.lft.to/lastmile_qr_scan", "android": "https://dc.lft.to/lastmile_qr_scan"}, "lon": -77.04342283333334, "type": "electric_scooter"}, {"bike_id": "18caad3db94d32c84161b34db753a415", "is_reserved": 0, "fusion_lon": 0.0, "lat": 38.916846, "is_disabled": 0, "name": "18caad3db94d32c84161b34db753a415", "fusion_lat": 0.0, "rental_uris": {"ios": "https://dc.lft.to/lastmile_qr_scan", "android": "https://dc.lft.to/lastmile_qr_scan"}, "lon": -77.0232055, "type": "electric_scooter"}, {"bike_id": "53a4a3942633587154d073fa90949f82", "is_reserved": 0, "fusion_lon": 0.0, "lat": 38.9237725, "is_disabled": 0, "name": "53a4a3942633587154d073fa90949f82", "fusion_lat": 0.0, "rental_uris": {"ios": "https://dc.lft.to/lastmile_qr_scan", "android": "https://dc.lft.to/lastmile_qr_scan"}, "lon": -77.03539433333333, "type": "electric_scooter"}, {"bike_id": "ad23de59251761f4f9441f9d8c295a94", "is_reserved": 0, "fusion_lon": 0.0, "lat": 38.900415333333335, "is_disabled": 0, "name": "ad23de59251761f4f9441f9d8c295a94", "fusion_lat": 0.0, "rental_uris": {"ios": "https://dc.lft.to/lastmile_qr_scan", "android": "https://dc.lft.to/lastmile_qr_scan"}, "lon": -76.98836633333333, "type": "electric_scooter"}, {"bike_id": "09ff9dbb33ab601ba86a66ef111fe471", "is_reserved": 0, "fusion_lon": 0.0, "lat": 38.928506666666664, "is_disabled": 0, "name": "09ff9dbb33ab601ba86a66ef111fe471", "fusion_lat": 0.0, "rental_uris": {"ios": "https://dc.lft.to/lastmile_qr_scan", "android": "https://dc.lft.to/lastmile_qr_scan"}, "lon": -77.0543015, "type": "electric_scooter"}, {"bike_id": "915e2b77b24cdc28b62a304034fdcd99", "is_reserved": 0, "fusion_lon": 0.0, "lat": 38.92334866666667, "is_disabled": 0, "name": "915e2b77b24cdc28b62a304034fdcd99", "fusion_lat": 0.0, "rental_uris": {"ios": "https://dc.lft.to/lastmile_qr_scan", "android": "https://dc.lft.to/lastmile_qr_scan"}, "lon": -77.04136783333334, "type": "electric_scooter"}, {"bike_id": "9660a1b9faf59f03a84bc711c824d070", "is_reserved": 0, "fusion_lon": 0.0, "lat": 38.861656333333336, "is_disabled": 0, "name": "9660a1b9faf59f03a84bc711c824d070", "fusion_lat": 0.0, "rental_uris": {"ios": "https://dc.lft.to/lastmile_qr_scan", "android": "https://dc.lft.to/lastmile_qr_scan"}, "lon": -76.9506555, "type": "electric_bike"}, {"bike_id": "0296db2140e8848243396113e6022523", "is_reserved": 0, "fusion_lon": 0.0, "lat": 38.92340516666667, "is_disabled": 0, "name": "0296db2140e8848243396113e6022523", "fusion_lat": 0.0, "rental_uris": {"ios": "https://dc.lft.to/lastmile_qr_scan", "android": "https://dc.lft.to/lastmile_qr_scan"}, "lon": -77.04762716666667, "type": "electric_scooter"}, {"bike_id": "7ff4ab62f5c4122e12b29c19fba07539", "is_reserved": 0, "fusion_lon": 0.0, "lat": 38.92453533333333, "is_disabled": 0, "name": "7ff4ab62f5c4122e12b29c19fba07539", "fusion_lat": 0.0, "rental_uris": {"ios": "https://dc.lft.to/lastmile_qr_scan", "android": "https://dc.lft.to/lastmile_qr_scan"}, "lon": -77.041078, "type": "electric_scooter"}, {"bike_id": "b9da99191acc5242dc62b1195147b2c1", "is_reserved": 0, "fusion_lon": 0.0, "lat": 38.90271666666666, "is_disabled": 0, "name": "b9da99191acc5242dc62b1195147b2c1", "fusion_lat": 0.0, "rental_uris": {"ios": "https://dc.lft.to/lastmile_qr_scan", "android": "https://dc.lft.to/lastmile_qr_scan"}, "lon": -77.0396265, "type": "electric_scooter"}, {"bike_id": "ec2e24d900f39eac8f73946b137d02d9", "is_reserved": 0, "fusion_lon": 0.0, "lat": 38.912570833333334, "is_disabled": 0, "name": "ec2e24d900f39eac8f73946b137d02d9", "fusion_lat": 0.0, "rental_uris": {"ios": "https://dc.lft.to/lastmile_qr_scan", "android": "https://dc.lft.to/lastmile_qr_scan"}, "lon": -77.04441966666667, "type": "electric_scooter"}, {"bike_id": "8ec84512162907db2f327eb71dde4230", "is_reserved": 0, "fusion_lon": 0.0, "lat": 38.89202133333333, "is_disabled": 0, "name": "8ec84512162907db2f327eb71dde4230", "fusion_lat": 0.0, "rental_uris": {"ios": "https://dc.lft.to/lastmile_qr_scan", "android": "https://dc.lft.to/lastmile_qr_scan"}, "lon": -77.02379783333333, "type": "electric_scooter"}, {"bike_id": "501c1d767d7a6928e78d6a6c5dd738f1", "is_reserved": 0, "fusion_lon": 0.0, "lat": 38.88889066666667, "is_disabled": 0, "name": "501c1d767d7a6928e78d6a6c5dd738f1", "fusion_lat": 0.0, "rental_uris": {"ios": "https://dc.lft.to/lastmile_qr_scan", "android": "https://dc.lft.to/lastmile_qr_scan"}, "lon": -77.01549033333333, "type": "electric_scooter"}, {"bike_id": "aef282e485854e983a7f81a854b871f9", "is_reserved": 0, "fusion_lon": 0.0, "lat": 38.827847, "is_disabled": 0, "name": "aef282e485854e983a7f81a854b871f9", "fusion_lat": 0.0, "rental_uris": {"ios": "https://dc.lft.to/lastmile_qr_scan", "android": "https://dc.lft.to/lastmile_qr_scan"}, "lon": -77.00906183333333, "type": "electric_bike"}, {"bike_id": "19c050c9fc909cf83f539c4dc59904d0", "is_reserved": 0, "fusion_lon": 0.0, "lat": 38.92708716666667, "is_disabled": 0, "name": "19c050c9fc909cf83f539c4dc59904d0", "fusion_lat": 0.0, "rental_uris": {"ios": "https://dc.lft.to/lastmile_qr_scan", "android": "https://dc.lft.to/lastmile_qr_scan"}, "lon": -77.036308, "type": "electric_scooter"}, {"bike_id": "7c5f3ab20d40280530ea63dd7599bb1d", "is_reserved": 0, "fusion_lon": 0.0, "lat": 38.921439166666666, "is_disabled": 0, "name": "7c5f3ab20d40280530ea63dd7599bb1d", "fusion_lat": 0.0, "rental_uris": {"ios": "https://dc.lft.to/lastmile_qr_scan", "android": "https://dc.lft.to/lastmile_qr_scan"}, "lon": -77.0422635, "type": "electric_scooter"}, {"bike_id": "630dc13cf31fcaf486651e326e7714d3", "is_reserved": 0, "fusion_lon": 0.0, "lat": 38.89847616666667, "is_disabled": 0, "name": "630dc13cf31fcaf486651e326e7714d3", "fusion_lat": 0.0, "rental_uris": {"ios": "https://dc.lft.to/lastmile_qr_scan", "android": "https://dc.lft.to/lastmile_qr_scan"}, "lon": -76.9447945, "type": "electric_scooter"}, {"bike_id": "4769962b562392a82458fcdbcc3bc106", "is_reserved": 0, "fusion_lon": 0.0, "lat": 38.903748, "is_disabled": 0, "name": "4769962b562392a82458fcdbcc3bc106", "fusion_lat": 0.0, "rental_uris": {"ios": "https://dc.lft.to/lastmile_qr_scan", "android": "https://dc.lft.to/lastmile_qr_scan"}, "lon": -77.045241, "type": "electric_scooter"},