{"data": {"bikes": [{"name": "b3a70b4388c44408ed1c3908599d56be", "fusion_lon": 0.0, "lat": 38.9069575, "is_reserved": 0, "type": "electric_scooter", "bike_id": "b3a70b4388c44408ed1c3908599d56be", "is_disabled": 0, "rental_uris": {"android": "https://dc.lft.to/lastmile_qr_scan", "ios": "https://dc.lft.to/lastmile_qr_scan"}, "lon": -77.02598366666666, "fusion_lat": 0.0}, {"name": "86a8147d6a07b1bea814f75617676b66", "fusion_lon": 0.0, "lat": 38.978843499999996, "is_reserved": 0, "type": "electric_bike", "bike_id": "86a8147d6a07b1bea814f75617676b66", "is_disabled": 0, "rental_uris": {"android": "https://dc.lft.to/lastmile_qr_scan", "ios": "https://dc.lft.to/lastmile_qr_scan"}, "lon": -77.06029683333334, "fusion_lat": 0.0}, {"name": "f20d2466836c8c11ec1fdf0083d20105", "fusion_lon": 0.0, "lat": 38.923460166666665, "is_reserved": 0, "type": "electric_scooter", "bike_id": "f20d2466836c8c11ec1fdf0083d20105", "is_disabled": 0, "rental_uris": {"android": "https://dc.lft.to/lastmile_qr_scan", "ios": "https://dc.lft.to/lastmile_qr_scan"}, "lon": -77.05075666666667, "fusion_lat": 0.0}, {"name": "2b4a8e0a59c9cde056609d1b83868553", "fusion_lon": 0.0, "lat": 38.90555116666667, "is_reserved": 0, "type": "electric_scooter", "bike_id": "2b4a8e0a59c9cde056609d1b83868553", "is_disabled": 0, "rental_uris": {"android": "https://dc.lft.to/lastmile_qr_scan", "ios": "https://dc.lft.to/lastmile_qr_scan"}, "lon": -77.03984383333334, "fusion_lat": 0.0}, {"name": "e6b13ccf591ae064d3d72d8639677b13", "fusion_lon": 0.0, "lat": 38.907906833333335, "is_reserved": 0, "type": "electric_scooter", "bike_id": "e6b13ccf591ae064d3d72d8639677b13", "is_disabled": 0, "rental_uris": {"android": "https://dc.lft.to/lastmile_qr_scan", "ios": "https://dc.lft.to/lastmile_qr_scan"}, "lon": -77.00969616666667, "fusion_lat": 0.0}, {"name": "b915625b696adb891ed6106fa6b78a07", "fusion_lon": 0.0, "lat": 38.90726316666667, "is_reserved": 0, "type": "electric_scooter", "bike_id": "b915625b696adb891ed6106fa6b78a07", "is_disabled": 0, "rental_uris": {"android": "https://dc.lft.to/lastmile_qr_scan", "ios": "https://dc.lft.to/lastmile_qr_scan"}, "lon": -77.02546616666666, "fusion_lat": 0.0}, {"name": "30893d8bb7e0ef501ba773f73aff73d8", "fusion_lon": 0.0, "lat": 38.906501666666664, "is_reserved": 0, "type": "electric_bike", "bike_id": "30893d8bb7e0ef501ba773f73aff73d8", "is_disabled": 0, "rental_uris": {"android": "https://dc.lft.to/lastmile_qr_scan", "ios": "https://dc.lft.to/lastmile_qr_scan"}, "lon": -77.043505, "fusion_lat": 0.0}, {"name": "b01e2705e1864c32028dbc74693f3f6e", "fusion_lon": 0.0, "lat": 38.9124855, "is_reserved": 0, "type": "electric_scooter", "bike_id": "b01e2705e1864c32028dbc74693f3f6e", "is_disabled": 0, "rental_uris": {"android": "https://dc.lft.to/lastmile_qr_scan", "ios": "https://dc.lft.to/lastmile_qr_scan"}, "lon": -77.0340805, "fusion_lat": 0.0}, {"name": "3c9534eb261e85954a684efd223e8519", "fusion_lon": 0.0, "lat": 38.90884966666667, "is_reserved": 0, "type": "electric_scooter", "bike_id": "3c9534eb261e85954a684efd223e8519", "is_disabled": 0, "rental_uris": {"android": "https://dc.lft.to/lastmile_qr_scan", "ios": "https://dc.lft.to/lastmile_qr_scan"}, "lon": -77.07537133333334, "fusion_lat": 0.0}, {"name": "e483e378017ec6ae7262421fa5cb98c5", "fusion_lon": 0.0, "lat": 38.8295135, "is_reserved": 0, "type": "electric_bike", "bike_id": "e483e378017ec6ae7262421fa5cb98c5", "is_disabled": 0, "rental_uris": {"android": "https://dc.lft.to/lastmile_qr_scan", "ios": "https://dc.lft.to/lastmile_qr_scan"}, "lon": -77.12358816666666, "fusion_lat": 0.0}, {"name": "ee28cdf9146efee423a50d303c5a8f8a", "fusion_lon": 0.0, "lat": 38.907715, "is_reserved": 0, "type": "electric_scooter", "bike_id": "ee28cdf9146efee423a50d303c5a8f8a", "is_disabled": 0, "rental_uris": {"android": "https://dc.lft.to/lastmile_qr_scan", "ios": "https://dc.lft.to/lastmile_qr_scan"}, "lon": -77.01220983333333, "fusion_lat": 0.0}, {"name": "c623923541dbb2ed14fe661304131965", "fusion_lon": 0.0, "lat": 38.90963683333333, "is_reserved": 0, "type": "electric_scooter", "bike_id": "c623923541dbb2ed14fe661304131965", "is_disabled": 0, "rental_uris": {"android": "https://dc.lft.to/lastmile_qr_scan", "ios": "https://dc.lft.to/lastmile_qr_scan"}, "lon": -77.03238866666666, "fusion_lat": 0.0}, {"name": "bb984806eaba90f4cfc7bae67d19f1ae", "fusion_lon": 0.0, "lat": 38.898996833333335, "is_reserved": 0, "type": "electric_scooter", "bike_id": "bb984806eaba90f4cfc7bae67d19f1ae", "is_disabled": 0, "rental_uris": {"android": "https://dc.lft.to/lastmile_qr_scan", "ios": "https://dc.lft.to/lastmile_qr_scan"}, "lon": -77.03941033333334, "fusion_lat": 0.0}, {"name": "d5d161e6f8bef6a631bd163acae71ca0", "fusion_lon": 0.0, "lat": 38.926976833333335, "is_reserved": 0, "type": "electric_scooter", "bike_id": "d5d161e6f8bef6a631bd163acae71ca0", "is_disabled": 0, "rental_uris": {"android": "https://dc.lft.to/lastmile_qr_scan", "ios": "https://dc.lft.to/lastmile_qr_scan"}, "lon": -77.02131516666667, "fusion_lat": 0.0}, {"name": "9e280a9c3b1c6e0114832cf7c210f09d", "fusion_lon": 0.0, "lat": 38.85925616666667, "is_reserved": 0, "type": "electric_scooter", "bike_id": "9e280a9c3b1c6e0114832cf7c210f09d", "is_disabled": 0, "rental_uris": {"android": "https://dc.lft.to/lastmile_qr_scan", "ios": "https://dc.lft.to/lastmile_qr_scan"}, "lon": -76.98977583333334, "fusion_lat": 0.0}, {"name": "99576847c6996ebbfd03ef21fb1547e3", "fusion_lon": 0.0, "lat": 38.903613166666666, "is_reserved": 0, "type": "electric_scooter", "bike_id": "99576847c6996ebbfd03ef21fb1547e3", "is_disabled": 0, "rental_uris": {"android": "https://dc.lft.to/lastmile_qr_scan", "ios": "https://dc.lft.to/lastmile_qr_scan"}, "lon": -77.03310533333334, "fusion_lat": 0.0}, {"name": "a16785f15b59b171ffe9cb1c517e74c2", "fusion_lon": 0.0, "lat": 38.905912, "is_reserved": 0, "type": "electric_scooter", "bike_id": "a16785f15b59b171ffe9cb1c517e74c2", "is_disabled": 0, "rental_uris": {"android": "https://dc.lft.to/lastmile_qr_scan", "ios": "https://dc.lft.to/lastmile_qr_scan"}, "lon": -77.051361, "fusion_lat": 0.0}, {"name": "59f20d6af8fafad48345b1f1e201dba8", "fusion_lon": 0.0, "lat": 38.9214835, "is_reserved": 0, "type": "electric_scooter", "bike_id": "59f20d6af8fafad48345b1f1e201dba8", "is_disabled": 0, "rental_uris": {"android": "https://dc.lft.to/lastmile_qr_scan", "ios": "https://dc.lft.to/lastmile_qr_scan"}, "lon": -77.018164, "fusion_lat": 0.0}, {"name": "79d4ab3e92b6fec9014dcdd0ee3d21ba", "fusion_lon": 0.0, "lat": 38.898499, "is_reserved": 0, "type": "electric_scooter", "bike_id": "79d4ab3e92b6fec9014dcdd0ee3d21ba", "is_disabled": 0, "rental_uris": {"android": "https://dc.lft.to/lastmile_qr_scan", "ios": "https://dc.lft.to/lastmile_qr_scan"}, "lon": -76.9831265, "fusion_lat": 0.0}, {"name": "75f3cd982327c91ff025719a6bfdce82", "fusion_lon": 0.0, "lat": 38.920457, "is_reserved": 0, "type": "electric_scooter", "bike_id": "75f3cd982327c91ff025719a6bfdce82", "is_disabled": 0, "rental_uris": {"android": "https://dc.lft.to/lastmile_qr_scan", "ios": "https://dc.lft.to/lastmile_qr_scan"}, "lon": -76.989465, "fusion_lat": 0.0}, {"name": "7054478c6dce4c20d42ea35e40e7f320", "fusion_lon": 0.0, "lat": 38.921564833333335, "is_reserved": 0, "type": "electric_scooter", "bike_id": "7054478c6dce4c20d42ea35e40e7f320", "is_disabled": 0, "rental_uris": {"android": "https://dc.lft.to/lastmile_qr_scan", "ios": "https://dc.lft.to/lastmile_qr_scan"}, "lon": -77.04357866666666, "fusion_lat": 0.0}, {"name": "084c737b75324defefbd768378650c74", "fusion_lon": 0.0, "lat": 38.897649666666666, "is_reserved": 0, "type": "electric_scooter", "bike_id": "084c737b75324defefbd768378650c74", "is_disabled": 0, "rental_uris": {"android": "https://dc.lft.to/lastmile_qr_scan", "ios": "https://dc.lft.to/lastmile_qr_scan"}, "lon": -77.02989616666666, "fusion_lat": 0.0}, {"name": "2fd7434fa543b321fa493ce842d85cba", "fusion_lon": 0.0, "lat": 38.926102, "is_reserved": 0, "type": "electric_scooter", "bike_id": "2fd7434fa543b321fa493ce842d85cba", "is_disabled": 0, "rental_uris": {"android": "https://dc.lft.to/lastmile_qr_scan", "ios": "https://dc.lft.to/lastmile_qr_scan"}, "lon": -77.02414083333333, "fusion_lat": 0.0}, {"name": "fb449c109044112a33a073f4b539a5d8", "fusion_lon": 0.0, "lat": 38.88364283333333, "is_reserved": 0, "type": "electric_scooter", "bike_id": "fb449c109044112a33a073f4b539a5d8", "is_disabled": 0, "rental_uris": {"android": "https://dc.lft.to/lastmile_qr_scan", "ios": "https://dc.lft.to/lastmile_qr_scan"}, "lon": -76.994827, "fusion_lat": 0.0}, {"name": "94236120e44288e7d504500085eb0246", "fusion_lon": 0.0, "lat": 38.89180133333333, "is_reserved": 0, "type": "electric_bike", "bike_id": "94236120e44288e7d504500085eb0246", "is_disabled": 0, "rental_uris": {"android": "https://dc.lft.to/lastmile_qr_scan", "ios": "https://dc.lft.to/lastmile_qr_scan"}, "lon": -77.019717, "fusion_lat": 0.0}, {"name": "84a185e5fe4c3ce927388bc0be50632d", "fusion_lon": 0.0, "lat": 38.915578, "is_reserved": 0, "type": "electric_scooter", "bike_id": "84a185e5fe4c3ce927388bc0be50632d", "is_disabled": 0, "rental_uris": {"android": "https://dc.lft.to/lastmile_qr_scan", "ios": "https://dc.lft.to/lastmile_qr_scan"}, "lon": -77.0531935, "fusion_lat": 0.0}, {"name": "eb39ef5aec1b9b360c9d7dc623210c6c", "fusion_lon": 0.0, "lat": 38.925434333333335, "is_reserved": 0, "type": "electric_scooter", "bike_id": "eb39ef5aec1b9b360c9d7dc623210c6c", "is_disabled": 0, "rental_uris": {"android": "https://dc.lft.to/lastmile_qr_scan", "ios": "https://dc.lft.to/lastmile_qr_scan"}, "lon": -76.972181, "fusion_lat": 0.0}, {"name": "1979835b4576042ca3402d7b9a8b942a", "fusion_lon": 0.0, "lat": 38.886954833333334, "is_reserved": 0, "type": "electric_scooter", "bike_id": "1979835b4576042ca3402d7b9a8b942a", "is_disabled": 0, "rental_uris": {"android": "https://dc.lft.to/lastmile_qr_scan", "ios": "https://dc.lft.to/lastmile_qr_scan"}, "lon": -76.97640083333333, "fusion_lat": 0.0}, {"name": "4f79770913e6c514dec92299b49a7786", "fusion_lon": 0.0, "lat": 38.903793, "is_reserved": 0, "type": "electric_scooter", "bike_id": "4f79770913e6c514dec92299b49a7786", "is_disabled": 0, "rental_uris": {"android": "https://dc.lft.to/lastmile_qr_scan", "ios": "https://dc.lft.to/lastmile_qr_scan"}, "lon": -77.0450365, "fusion_lat": 0.0}, {"name": "e26bb14d797c2bfb4e07654c15d74436", "fusion_lon": 0.0, "lat": 38.879413666666665, "is_reserved": 0, "type": "electric_scooter", "bike_id": "e26bb14d797c2bfb4e07654c15d74436", "is_disabled": 0, "rental_uris": {"android": "https://dc.lft.to/lastmile_qr_scan", "ios": "https://dc.lft.to/lastmile_qr_scan"}, "lon": -77.00533483333334, "fusion_lat": 0.0}, {"name": "8c08df54f0f8540f3374cce0ff849185", "fusion_lon": 0.0, "lat": 38.9243855, "is_reserved": 0, "type": "electric_scooter", "bike_id": "8c08df54f0f8540f3374cce0ff849185", "is_disabled": 0, "rental_uris": {"android": "https://dc.lft.to/lastmile_qr_scan", "ios": "https://dc.lft.to/lastmile_qr_scan"}, "lon": -77.0425095, "fusion_lat": 0.0}, {"name": "93dfaea8f56218453bf69fb2e7f95a7d", "fusion_lon": 0.0, "lat": 38.933900666666666, "is_reserved": 0, "type": "electric_scooter", "bike_id": "93dfaea8f56218453bf69fb2e7f95a7d", "is_disabled": 0, "rental_uris": {"android": "https://dc.lft.to/lastmile_qr_scan", "ios": "https://dc.lft.to/lastmile_qr_scan"}, "lon": -77.0232915, "fusion_lat": 0.0}, {"name": "71c19062ce14b4b90fa8eae50d06c82e", "fusion_lon": 0.0, "lat": 38.900134333333334, "is_reserved": 0, "type": "electric_scooter", "bike_id": "71c19062ce14b4b90fa8eae50d06c82e", "is_disabled": 0, "rental_uris": {"android": "https://dc.lft.to/lastmile_qr_scan", "ios": "https://dc.lft.to/lastmile_qr_scan"}, "lon": -76.93029033333333, "fusion_lat": 0.0}, {"name": "5798855329f0fbdfc90862165a031053", "fusion_lon": 0.0, "lat": 38.924632, "is_reserved": 0, "type": "electric_scooter", "bike_id": "5798855329f0fbdfc90862165a031053", "is_disabled": 0, "rental_uris": {"android": "https://dc.lft.to/lastmile_qr_scan", "ios": "https://dc.lft.to/lastmile_qr_scan"}, "lon": -77.081669, "fusion_lat": 0.0}, {"name": "63853d4c31ef3c7a30da254f96592699", "fusion_lon": 0.0, "lat": 38.901392333333334, "is_reserved": 0, "type": "electric_scooter", "bike_id": "63853d4c31ef3c7a30da254f96592699", "is_disabled": 0, "rental_uris": {"android": "https://dc.lft.to/lastmile_qr_scan", "ios": "https://dc.lft.to/lastmile_qr_scan"}, "lon": -77.01312833333333, "fusion_lat": 0.0}, {"name": "e5f1b442844cbf0a3c921e73b51f9e46", "fusion_lon": 0.0, "lat": 38.9288035, "is_reserved": 0, "type": "electric_scooter", "bike_id": "e5f1b442844cbf0a3c921e73b51f9e46", "is_disabled": 0, "rental_uris": {"android": "https://dc.lft.to/lastmile_qr_scan", "ios": "https://dc.lft.to/lastmile_qr_scan"}, "lon": -77.04051666666666, "fusion_lat": 0.0}, {"name": "9cd309675922338b47484a4e52c0e0a3", "fusion_lon": 0.0, "lat": 38.934120666666665, "is_reserved": 0, "type": "electric_bike", "bike_id": "9cd309675922338b47484a4e52c0e0a3", "is_disabled": 0, "rental_uris": {"android": "https://dc.lft.to/lastmile_qr_scan", "ios": "https://dc.lft.to/lastmile_qr_scan"}, "lon": -77.02898116666667, "fusion_lat": 0.0}, {"name": "db6a8030a45f7262780e91df6e5d81e3", "fusion_lon": 0.0, "lat": 38.85069933333333, "is_reserved": 0, "type": "electric_scooter", "bike_id": "db6a8030a45f7262780e91df6e5d81e3", "is_disabled": 0, "rental_uris": {"android": "https://dc.lft.to/lastmile_qr_scan", "ios": "https://dc.lft.to/lastmile_qr_scan"}, "lon": -76.97025316666667, "fusion_lat": 0.0}, {"name": "41bc03c02ba6a94d6556788bc5550023", "fusion_lon": 0.0, "lat": 38.933216, "is_reserved": 0, "type": "electric_scooter", "bike_id": "41bc03c02ba6a94d6556788bc5550023", "is_disabled": 0, "rental_uris": {"android": "https://dc.lft.to/lastmile_qr_scan", "ios": "https://dc.lft.to/lastmile_qr_scan"}, "lon": -77.03248816666667, "fusion_lat": 0.0}, {"name": "fbbf68ca7d25e693a52cdaec1507ded1", "fusion_lon": 0.0, "lat": 38.8931405, "is_reserved": 0, "type": "electric_scooter", "bike_id": "fbbf68ca7d25e693a52cdaec1507ded1", "is_disabled": 0, "rental_uris": {"android": "https://dc.lft.to/lastmile_qr_scan", "ios": "https://dc.lft.to/lastmile_qr_scan"}, "lon": -76.93979033333333, "fusion_lat": 0.0}, {"name": "807f320512f76cb13c8874e6aaf625dd", "fusion_lon": 0.0, "lat": 38.88376083333333, "is_reserved": 0, "type": "electric_scooter", "bike_id": "807f320512f76cb13c8874e6aaf625dd", "is_disabled": 0, "rental_uris": {"android": "https://dc.lft.to/lastmile_qr_scan", "ios": "https://dc.lft.to/lastmile_qr_scan"}, "lon": -76.99519233333334, "fusion_lat": 0.0}, {"name": "383b494885e63e6e2268146c21f210f9", "fusion_lon": 0.0, "lat": 38.89996883333333, "is_reserved": 0, "type": "electric_scooter", "bike_id": "383b494885e63e6e2268146c21f210f9", "is_disabled": 0, "rental_uris": {"android": "https://dc.lft.to/lastmile_qr_scan", "ios": "https://dc.lft.to/lastmile_qr_scan"}, "lon": -77.00123733333334, "fusion_lat": 0.0}, {"name": "12550287f36da9a17991e9d591fb8d77", "fusion_lon": 0.0, "lat": 38.9563035, "is_reserved": 0, "type": "electric_bike", "bike_id": "12550287f36da9a17991e9d591fb8d77", "is_disabled": 0, "rental_uris": {"android": "https://dc.lft.to/lastmile_qr_scan", "ios": "https://dc.lft.to/lastmile_qr_scan"}, "lon": -76.938709, "fusion_lat": 0.0}, {"name": "a80947d8132c63c15779c8866bf9e1d7", "fusion_lon": 0.0, "lat": 38.984365, "is_reserved": 0, "type": "electric_scooter", "bike_id": "a80947d8132c63c15779c8866bf9e1d7", "is_disabled": 0, "rental_uris": {"android": "https://dc.lft.to/lastmile_qr_scan", "ios": "https://dc.lft.to/lastmile_qr_scan"}, "lon": -77.02676416666667, "fusion_lat": 0.0}, {"name": "e2f5095414ba007647a361d0bed6bff4", "fusion_lon": 0.0, "lat": 38.90391316666667, "is_reserved": 0, "type": "electric_scooter", "bike_id": "e2f5095414ba007647a361d0bed6bff4", "is_disabled": 0, "rental_uris": {"android": "https://dc.lft.to/lastmile_qr_scan", "ios": "https://dc.lft.to/lastmile_qr_scan"}, "lon": -77.01739016666667, "fusion_lat": 0.0}, {"name": "e28b076e3476fcf5e99d7ece7fb86d42", "fusion_lon": 0.0, "lat": 38.8947925, "is_reserved": 0, "type": "electric_scooter", "bike_id": "e28b076e3476fcf5e99d7ece7fb86d42", "is_disabled": 0, "rental_uris": {"android": "https://dc.lft.to/lastmile_qr_scan", "ios": "https://dc.lft.to/lastmile_qr_scan"}, "lon": -77.04654916666667, "fusion_lat": 0.0}, {"name": "cd829f41e9f769759aa5ab551f4fd16e", "fusion_lon": 0.0, "lat": 38.892249666666665, "is_reserved": 0, "type": "electric_scooter", "bike_id": "cd829f41e9f769759aa5ab551f4fd16e", "is_disabled": 0, "rental_uris": {"android": "https://dc.lft.to/lastmile_qr_scan", "ios": "https://dc.lft.to/lastmile_qr_scan"}, "lon": -77.04869066666667, "fusion_lat": 0.0}, {"name": "27569f813adf4075412e80305fe8843f", "fusion_lon": 0.0, "lat": 38.8924725, "is_reserved": 0, "type": "electric_scooter", "bike_id": "27569f813adf4075412e80305fe8843f", "is_disabled": 0, "rental_uris": {"android": "https://dc.lft.to/lastmile_qr_scan", "ios": "https://dc.lft.to/lastmile_qr_scan"}, "lon": -77.0241425, "fusion_lat": 0.0}, {"name": "cb11311f583eb04b51a11ac8ed8a92c0", "fusion_lon": 0.0, "lat": 38.878364166666664, "is_reserved": 0, "type": "electric_scooter", "bike_id": "cb11311f583eb04b51a11ac8ed8a92c0", "is_disabled": 0, "rental_uris": {"android": "https://dc.lft.to/lastmile_qr_scan", "ios": "https://dc.lft.to/lastmile_qr_scan"}, "lon": -77.01595116666667, "fusion_lat": 0.0}, {"name": "f3b0fb622355529e0cc613d8f2dfd07b", "fusion_lon": 0.0, "lat": 38.917351833333335, "is_reserved": 0, "type": "electric_scooter", "bike_id": "f3b0fb622355529e0cc613d8f2dfd07b", "is_disabled": 0, "rental_uris": {"android": "https://dc.lft.to/lastmile_qr_scan", "ios": "https://dc.lft.to/lastmile_qr_scan"}, "lon": -77.03215416666667, "fusion_lat": 0.0}, {"name": "4c7ed9735fea50a7453b1256cd898c5b", "fusion_lon": 0.0, "lat": 38.907632666666665, "is_reserved": 0, "type": "electric_scooter", "bike_id": "4c7ed9735fea50a7453b1256cd898c5b", "is_disabled": 0, "rental_uris": {"android": "https://dc.lft.to/lastmile_qr_scan", "ios": "https://dc.lft.to/lastmile_qr_scan"}, "lon": -77.026047, "fusion_lat": 0.0}, {"name": "114212ec4ae582d0186d2918ffed7b21", "fusion_lon": 0.0, "lat": 38.902402, "is_reserved": 0, "type": "electric_scooter", "bike_id": "114212ec4ae582d0186d2918ffed7b21", "is_disabled": 0, "rental_uris": {"android": "https://dc.lft.to/lastmile_qr_scan", "ios": "https://dc.lft.to/lastmile_qr_scan"}, "lon": -77.04858, "fusion_lat": 0.0}, {"name": "5a7e40d87a6f34b6b06b7494e3ef4ed4", "fusion_lon": 0.0, "lat": 38.92038866666667, "is_reserved": 0, "type": "electric_scooter", "bike_id": "5a7e40d87a6f34b6b06b7494e3ef4ed4", "is_disabled": 0, "rental_uris": {"android": "https://dc.lft.to/lastmile_qr_scan", "ios": "https://dc.lft.to/lastmile_qr_scan"}, "lon": -77.02587283333334, "fusion_lat": 0.0}, {"name": "e1dc629ca79d0a19728a3c4dd7973b8f", "fusion_lon": 0.0, "lat": 38.89300816666667, "is_reserved": 0, "type": "electric_scooter", "bike_id": "e1dc629ca79d0a19728a3c4dd7973b8f", "is_disabled": 0, "rental_uris": {"android": "https://dc.lft.to/lastmile_qr_scan", "ios": "https://dc.lft.to/lastmile_qr_scan"}, "lon": -76.93926966666666, "fusion_lat": 0.0}, {"name": "d2a641441033df6da0d2df2f1b849094", "fusion_lon": 0.0, "lat": 38.903862833333335, "is_reserved": 0, "type": "electric_scooter", "bike_id": "d2a641441033df6da0d2df2f1b849094", "is_disabled": 0, "rental_uris": {"android": "https://dc.lft.to/lastmile_qr_scan", "ios": "https://dc.lft.to/lastmile_qr_scan"}, "lon": -77.02623716666666, "fusion_lat": 0.0}, {"name": "f527b8480379e1b361ce80616216beae", "fusion_lon": 0.0, "lat": 38.872355, "is_reserved": 0, "type": "electric_scooter", "bike_id": "f527b8480379e1b361ce80616216beae", "is_disabled": 0, "rental_uris": {"android": "https://dc.lft.to/lastmile_qr_scan", "ios": "https://dc.lft.to/lastmile_qr_scan"}, "lon": -77.01172983333333, "fusion_lat": 0.0}, {"name": "9b0f702b418f107bab0b935ae99cba4f", "fusion_lon": 0.0, "lat": 38.92884566666667, "is_reserved": 0, "type": "electric_scooter", "bike_id": "9b0f702b418f107bab0b935ae99cba4f", "is_disabled": 0, "rental_uris": {"android": "https://dc.lft.to/lastmile_qr_scan", "ios": "https://dc.lft.to/lastmile_qr_scan"}, "lon": -77.04233816666667, "fusion_lat": 0.0}, {"name": "bdaf7605a10cab5d7965eabbbebfe88f", "fusion_lon": 0.0, "lat": 38.92150783333334, "is_reserved": 0, "type": "electric_scooter", "bike_id": "bdaf7605a10cab5d7965eabbbebfe88f", "is_disabled": 0, "rental_uris": {"android": "https://dc.lft.to/lastmile_qr_scan", "ios": "https://dc.lft.to/lastmile_qr_scan"}, "lon": -77.03463633333334, "fusion_lat": 0.0}, {"name": "051012834e29813d7182cb506b15f567", "fusion_lon": 0.0, "lat": 38.9026435, "is_reserved": 0, "type": "electric_scooter", "bike_id": "051012834e29813d7182cb506b15f567", "is_disabled": 0, "rental_uris": {"android": "https://dc.lft.to/lastmile_qr_scan", "ios": "https://dc.lft.to/lastmile_qr_scan"}, "lon": -77.017592, "fusion_lat": 0.0}, {"name": "3ed42f88eb38c064c6f955a8627f0549", "fusion_lon": 0.0, "lat": 38.89894433333333, "is_reserved": 0, "type": "electric_scooter", "bike_id": "3ed42f88eb38c064c6f955a8627f0549", "is_disabled": 0, "rental_uris": {"android": "https://dc.lft.to/lastmile_qr_scan", "ios": "https://dc.lft.to/lastmile_qr_scan"}, "lon": -77.03285433333333, "fusion_lat": 0.0}, {"name": "29403918b46adafa7f2f4f01a723dc17", "fusion_lon": 0.0, "lat": 38.9162965, "is_reserved": 0, "type": "electric_scooter", "bike_id": "29403918b46adafa7f2f4f01a723dc17", "is_disabled": 0, "rental_uris": {"android": "https://dc.lft.to/lastmile_qr_scan", "ios": "https://dc.lft.to/lastmile_qr_scan"}, "lon": -77.0487755, "fusion_lat": 0.0}, {"name": "403ae8f1b5ac366ca9fc750925210ef3", "fusion_lon": 0.0, "lat": 38.9136805, "is_reserved": 0, "type": "electric_scooter", "bike_id": "403ae8f1b5ac366ca9fc750925210ef3", "is_disabled": 0, "rental_uris": {"android": "https://dc.lft.to/lastmile_qr_scan", "ios": "https://dc.lft.to/lastmile_qr_scan"}, "lon": -77.06620616666666, "fusion_lat": 0.0}, {"name": "f1733e868972657f7e7c9c5f3ea8e2cf", "fusion_lon": 0.0, "lat": 38.91772316666667, "is_reserved": 0, "type": "electric_scooter", "bike_id": "f1733e868972657f7e7c9c5f3ea8e2cf", "is_disabled": 0, "rental_uris": {"android": "https://dc.lft.to/lastmile_qr_scan", "ios": "https://dc.lft.to/lastmile_qr_scan"}, "lon": -77.040612, "fusion_lat": 0.0}, {"name": "649e806bcfd2900864c1ca21495d436f", "fusion_lon": 0.0, "lat": 38.91333783333333, "is_reserved": 0, "type": "electric_scooter", "bike_id": "649e806bcfd2900864c1ca21495d436f", "is_disabled": 0, "rental_uris": {"android": "https://dc.lft.to/lastmile_qr_scan", "ios": "https://dc.lft.to/lastmile_qr_scan"}, "lon": -77.03267733333334, "fusion_lat": 0.0}, {"name": "c8dc9ea6f1ddb64bc696af891a88b0d9", "fusion_lon": 0.0, "lat": 38.907767666666665, "is_reserved": 0, "type": "electric_scooter", "bike_id": "c8dc9ea6f1ddb64bc696af891a88b0d9", "is_disabled": 0, "rental_uris": {"android": "https://dc.lft.to/lastmile_qr_scan", "ios": "https://dc.lft.to/lastmile_qr_scan"}, "lon": -77.0383155, "fusion_lat": 0.0}, {"name": "bc868c7619021cc05bc5bf41a83c828c", "fusion_lon": 0.0, "lat": 38.916336, "is_reserved": 0, "type": "electric_scooter", "bike_id": "bc868c7619021cc05bc5bf41a83c828c", "is_disabled": 0, "rental_uris": {"android": "https://dc.lft.to/lastmile_qr_scan", "ios": "https://dc.lft.to/lastmile_qr_scan"}, "lon": -77.03853383333333, "fusion_lat": 0.0}, {"name": "7754458e8fa03c4249b873a7c8637293", "fusion_lon": 0.0, "lat": 38.90255883333333, "is_reserved": 0, "type": "electric_scooter", "bike_id": "7754458e8fa03c4249b873a7c8637293", "is_disabled": 0, "rental_uris": {"android": "https://dc.lft.to/lastmile_qr_scan", "ios": "https://dc.lft.to/lastmile_qr_scan"}, "lon": -77.039662, "fusion_lat": 0.0}, {"name": "d198e1de272703b28aea857218fac84b", "fusion_lon": 0.0, "lat": 38.95188133333333, "is_reserved": 0, "type": "electric_scooter", "bike_id": "d198e1de272703b28aea857218fac84b", "is_disabled": 0, "rental_uris": {"android": "https://dc.lft.to/lastmile_qr_scan", "ios": "https://dc.lft.to/lastmile_qr_scan"}, "lon": -77.02615333333334, "fusion_lat": 0.0}, {"name": "36e38b852aa00253293a5bda4dcf26c1", "fusion_lon": 0.0, "lat": 38.89607316666667, "is_reserved": 0, "type": "electric_scooter", "bike_id": "36e38b852aa00253293a5bda4dcf26c1", "is_disabled": 0, "rental_uris": {"android": "https://dc.lft.to/lastmile_qr_scan", "ios": "https://dc.lft.to/lastmile_qr_scan"}, "lon": -77.05441583333334, "fusion_lat": 0.0}, {"name": "eb387df1b8456ea594da48aaf51f7479", "fusion_lon": 0.0, "lat": 38.907352833333334, "is_reserved": 0, "type": "electric_scooter", "bike_id": "eb387df1b8456ea594da48aaf51f7479", "is_disabled": 0, "rental_uris": {"android": "https://dc.lft.to/lastmile_qr_scan", "ios": "https://dc.lft.to/lastmile_qr_scan"}, "lon": -77.04009366666666, "fusion_lat": 0.0}, {"name": "4a07a1c9c4822bcaebc11a99b17a5def", "fusion_lon": 0.0, "lat": 38.8662125, "is_reserved": 0, "type": "electric_scooter", "bike_id": "4a07a1c9c4822bcaebc11a99b17a5def", "is_disabled": 0, "rental_uris": {"android": "https://dc.lft.to/lastmile_qr_scan", "ios": "https://dc.lft.to/lastmile_qr_scan"}, "lon": -77.08789433333334, "fusion_lat": 0.0}, {"name": "9a36014706582b222d6c526382c723d7", "fusion_lon": 0.0, "lat": 38.958803, "is_reserved": 0, "type": "electric_bike", "bike_id": "9a36014706582b222d6c526382c723d7", "is_disabled": 0, "rental_uris": {"android": "https://dc.lft.to/lastmile_qr_scan", "ios": "https://dc.lft.to/lastmile_qr_scan"}, "lon": -77.0014545, "fusion_lat": 0.0}, {"name": "3d79381dc49c1b0a053259493671395c", "fusion_lon": 0.0, "lat": 38.87645466666667, "is_reserved": 0, "type": "electric_scooter", "bike_id": "3d79381dc49c1b0a053259493671395c", "is_disabled": 0, "rental_uris": {"android": "https://dc.lft.to/lastmile_qr_scan", "ios": "https://dc.lft.to/lastmile_qr_scan"}, "lon": -77.0045435, "fusion_lat": 0.0}, {"name": "bc2ddeca989c2dd188de577f25114b57", "fusion_lon": 0.0, "lat": 38.93231466666667, "is_reserved": 0, "type": "electric_bike", "bike_id": "bc2ddeca989c2dd188de577f25114b57", "is_disabled": 0, "rental_uris": {"android": "https://dc.lft.to/lastmile_qr_scan", "ios": "https://dc.lft.to/lastmile_qr_scan"}, "lon": -77.18122383333333, "fusion_lat": 0.0}, {"name": "33fa7545ea740ee521b46b57207a5273", "fusion_lon": 0.0, "lat": 38.92016383333333, "is_reserved": 0, "type": "electric_scooter", "bike_id": "33fa7545ea740ee521b46b57207a5273", "is_disabled": 0, "rental_uris": {"android": "https://dc.lft.to/lastmile_qr_scan", "ios": "https://dc.lft.to/lastmile_qr_scan"}, "lon": -77.01945233333333, "fusion_lat": 0.0}, {"name": "166c11cbaf09a3a71434526018cf9842", "fusion_lon": 0.0, "lat": 39.06293383333333, "is_reserved": 0, "type": "electric_bike", "bike_id": "166c11cbaf09a3a71434526018cf9842", "is_disabled": 0, "rental_uris": {"android": "https://dc.lft.to/lastmile_qr_scan", "ios": "https://dc.lft.to/lastmile_qr_scan"}, "lon": -77.04979266666666, "fusion_lat": 0.0}, {"name": "94e89c0ab94edd20b96ee28245e99b13", "fusion_lon": 0.0, "lat": 38.90880083333333, "is_reserved": 0, "type": "electric_scooter", "bike_id": "94e89c0ab94edd20b96ee28245e99b13", "is_disabled": 0, "rental_uris": {"android": "https://dc.lft.to/lastmile_qr_scan", "ios": "https://dc.lft.to/lastmile_qr_scan"}, "lon": -77.03755833333334, "fusion_lat": 0.0}, {"name": "9c30b647896596923c803885290d092a", "fusion_lon": 0.0, "lat": 38.90501016666666, "is_reserved": 0, "type": "electric_scooter", "bike_id": "9c30b647896596923c803885290d092a", "is_disabled": 0, "rental_uris": {"android": "https://dc.lft.to/lastmile_qr_scan", "ios": "https://dc.lft.to/lastmile_qr_scan"}, "lon": -77.04771766666667, "fusion_lat": 0.0}, {"name": "f7c12998284c74d2aaa78e4a048491b6", "fusion_lon": 0.0, "lat": 38.918498166666666, "is_reserved": 0, "type": "electric_scooter", "bike_id": "f7c12998284c74d2aaa78e4a048491b6", "is_disabled": 0, "rental_uris": {"android": "https://dc.lft.to/lastmile_qr_scan", "ios": "https://dc.lft.to/lastmile_qr_scan"}, "lon": -77.02201233333334, "fusion_lat": 0.0}, {"name": "fd9137c93f1bad068d7547120f08d45d", "fusion_lon": 0.0, "lat": 38.91274083333333, "is_reserved": 0, "type": "electric_scooter", "bike_id": "fd9137c93f1bad068d7547120f08d45d", "is_disabled": 0, "rental_uris": {"android": "https://dc.lft.to/lastmile_qr_scan", "ios": "https://dc.lft.to/lastmile_qr_scan"}, "lon": -77.026939, "fusion_lat": 0.0}, {"name": "3610645c25b5bea906d1348db367b95d", "fusion_lon": 0.0, "lat": 38.917714333333336, "is_reserved": 0, "type": "electric_scooter", "bike_id": "3610645c25b5bea906d1348db367b95d", "is_disabled": 0, "rental_uris": {"android": "https://dc.lft.to/lastmile_qr_scan", "ios": "https://dc.lft.to/lastmile_qr_scan"}, "lon": -77.01469866666666, "fusion_lat": 0.0}, {"name": "67c039474c510f29943749785e596db5", "fusion_lon": 0.0, "lat": 38.903755333333336, "is_reserved": 0, "type": "electric_scooter", "bike_id": "67c039474c510f29943749785e596db5", "is_disabled": 0, "rental_uris": {"android": "https://dc.lft.to/lastmile_qr_scan", "ios": "https://dc.lft.to/lastmile_qr_scan"}, "lon": -76.937688, "fusion_lat": 0.0}, {"name": "df8e20d7066f534d2d61b8a0228c0c4f", "fusion_lon": 0.0, "lat": 38.892559166666665, "is_reserved": 0, "type": "electric_scooter", "bike_id": "df8e20d7066f534d2d61b8a0228c0c4f", "is_disabled": 0, "rental_uris": {"android": "https://dc.lft.to/lastmile_qr_scan", "ios": "https://dc.lft.to/lastmile_qr_scan"}, "lon": -77.03349666666666, "fusion_lat": 0.0}, {"name": "bd6e298dccc91a99e6ba46f65f66735e", "fusion_lon": 0.0, "lat": 38.901546, "is_reserved": 0, "type": "electric_scooter", "bike_id": "bd6e298dccc91a99e6ba46f65f66735e", "is_disabled": 0, "rental_uris": {"android": "https://dc.lft.to/lastmile_qr_scan", "ios": "https://dc.lft.to/lastmile_qr_scan"}, "lon": -76.93061433333334, "fusion_lat": 0.0}, {"name": "1cf6fa00aaadee38900d200f633bada8", "fusion_lon": 0.0, "lat": 38.96447833333333, "is_reserved": 0, "type": "electric_scooter", "bike_id": "1cf6fa00aaadee38900d200f633bada8", "is_disabled": 0, "rental_uris": {"android": "https://dc.lft.to/lastmile_qr_scan", "ios": "https://dc.lft.to/lastmile_qr_scan"}, "lon": -77.07509833333333, "fusion_lat": 0.0}, {"name": "babdb8c318dd390ccf56ee2551add41c", "fusion_lon": 0.0, "lat": 38.903574166666665, "is_reserved": 0, "type": "electric_scooter", "bike_id": "babdb8c318dd390ccf56ee2551add41c", "is_disabled": 0, "rental_uris": {"android": "https://dc.lft.to/lastmile_qr_scan", "ios": "https://dc.lft.to/lastmile_qr_scan"}, "lon": -77.03917983333334, "fusion_lat": 0.0}, {"name": "5fab2f55d581c6eed9fbd3d5a2c81c86", "fusion_lon": 0.0, "lat": 38.9520395, "is_reserved": 0, "type": "electric_scooter", "bike_id": "5fab2f55d581c6eed9fbd3d5a2c81c86", "is_disabled": 0, "rental_uris": {"android": "https://dc.lft.to/lastmile_qr_scan", "ios": "https://dc.lft.to/lastmile_qr_scan"}, "lon": -77.02743583333333, "fusion_lat": 0.0}, {"name": "8ca94c6ecf0ddf1348889056747c405c", "fusion_lon": 0.0, "lat": 38.928859333333335, "is_reserved": 0, "type": "electric_scooter", "bike_id": "8ca94c6ecf0ddf1348889056747c405c", "is_disabled": 0, "rental_uris": {"android": "https://dc.lft.to/lastmile_qr_scan", "ios": "https://dc.lft.to/lastmile_qr_scan"}, "lon": -77.033462, "fusion_lat": 0.0}, {"name": "dedac6a3025c3ec5ac6f59cf56d78568", "fusion_lon": 0.0, "lat": 38.89224933333333, "is_reserved": 0, "type": "electric_scooter", "bike_id": "dedac6a3025c3ec5ac6f59cf56d78568", "is_disabled": 0, "rental_uris": {"android": "https://dc.lft.to/lastmile_qr_scan", "ios": "https://dc.lft.to/lastmile_qr_scan"}, "lon": -77.02226666666667, "fusion_lat": 0.0}, {"name": "f4474526799dd968ea7cbee644ed04ea", "fusion_lon": 0.0, "lat": 38.901497166666665, "is_reserved": 0, "type": "electric_scooter", "bike_id": "f4474526799dd968ea7cbee644ed04ea", "is_disabled": 0, "rental_uris": {"android": "https://dc.lft.to/lastmile_qr_scan", "ios": "https://dc.lft.to/lastmile_qr_scan"}, "lon": -77.00850783333334, "fusion_lat": 0.0}, {"name": "dfc6af779157272f0a619c5dd7166544", "fusion_lon": 0.0, "lat": 38.9052815, "is_reserved": 0, "type": "electric_scooter", "bike_id": "dfc6af779157272f0a619c5dd7166544", "is_disabled": 0, "rental_uris": {"android": "https://dc.lft.to/lastmile_qr_scan", "ios": "https://dc.lft.to/lastmile_qr_scan"}, "lon": -77.04173633333333, "fusion_lat": 0.0}, {"name": "cc3edbef896412675b47060a78a85c30", "fusion_lon": 0.0, "lat": 38.861917, "is_reserved": 0, "type": "electric_bike", "bike_id": "cc3edbef896412675b47060a78a85c30", "is_disabled": 0, "rental_uris": {"android": "https://dc.lft.to/lastmile_qr_scan", "ios": "https://dc.lft.to/lastmile_qr_scan"}, "lon": -76.948048, "fusion_lat": 0.0}, {"name": "6b093c5f416fdc0ca71ab97ab783e01e", "fusion_lon": 0.0, "lat": 38.92167333333333, "is_reserved": 0, "type": "electric_scooter", "bike_id": "6b093c5f416fdc0ca71ab97ab783e01e", "is_disabled": 0, "rental_uris": {"android": "https://dc.lft.to/lastmile_qr_scan", "ios": "https://dc.lft.to/lastmile_qr_scan"}, "lon": -77.025386, "fusion_lat": 0.0}, {"name": "47781bf32c565f9bd9df6e947be051f0", "fusion_lon": 0.0, "lat": 38.9565795, "is_reserved": 0, "type": "electric_scooter", "bike_id": "47781bf32c565f9bd9df6e947be051f0", "is_disabled": 0, "rental_uris": {"android": "https://dc.lft.to/lastmile_qr_scan", "ios": "https://dc.lft.to/lastmile_qr_scan"}, "lon": -77.0332585, "fusion_lat": 0.0}, {"name": "02a3d54b93664fcce9179dc624add8b0", "fusion_lon": 0.0, "lat": 38.93580266666667, "is_reserved": 0, "type": "electric_scooter", "bike_id": "02a3d54b93664fcce9179dc624add8b0", "is_disabled": 0, "rental_uris": {"android": "https://dc.lft.to/lastmile_qr_scan", "ios": "https://dc.lft.to/lastmile_qr_scan"}, "lon": -77.02113933333334, "fusion_lat": 0.0}, {"name": "6c4d20ffe0b37ca7d17492536e255c89", "fusion_lon": 0.0, "lat": 38.928449666666666, "is_reserved": 0, "type": "electric_scooter", "bike_id": "6c4d20ffe0b37ca7d17492536e255c89", "is_disabled": 0, "rental_uris": {"android": "https://dc.lft.to/lastmile_qr_scan", "ios": "https://dc.lft.to/lastmile_qr_scan"}, "lon": -77.032781, "fusion_lat": 0.0}, {"name": "156a6d50c03575fddd3bec17979daa2a", "fusion_lon": 0.0, "lat": 38.915547, "is_reserved": 0, "type": "electric_scooter", "bike_id": "156a6d50c03575fddd3bec17979daa2a", "is_disabled": 0, "rental_uris": {"android": "https://dc.lft.to/lastmile_qr_scan", "ios": "https://dc.lft.to/lastmile_qr_scan"}, "lon": -77.03862683333334, "fusion_lat": 0.0}, {"name": "9cdd90d70354807b73f797c403400984", "fusion_lon": 0.0, "lat": 38.915043, "is_reserved": 0, "type": "electric_scooter", "bike_id": "9cdd90d70354807b73f797c403400984", "is_disabled": 0, "rental_uris": {"android": "https://dc.lft.to/lastmile_qr_scan", "ios": "https://dc.lft.to/lastmile_qr_scan"}, "lon": -76.98370833333334, "fusion_lat": 0.0}, {"name": "4888147d178a155c367f9a58128e104e", "fusion_lon": 0.0, "lat": 38.91994583333334, "is_reserved": 0, "type": "electric_scooter", "bike_id": "4888147d178a155c367f9a58128e104e", "is_disabled": 0, "rental_uris": {"android": "https://dc.lft.to/lastmile_qr_scan", "ios": "https://dc.lft.to/lastmile_qr_scan"}, "lon": -77.0238475, "fusion_lat": 0.0}, {"name": "9c3c831500847532bbfbb50d99f75bbc", "fusion_lon": 0.0, "lat": 38.890514, "is_reserved": 0, "type": "electric_scooter", "bike_id": "9c3c831500847532bbfbb50d99f75bbc", "is_disabled": 0, "rental_uris": {"android": "https://dc.lft.to/lastmile_qr_scan", "ios": "https://dc.lft.to/lastmile_qr_scan"}, "lon": -76.990653, "fusion_lat": 0.0}, {"name": "ad093024d38f816b4e832818d858cab6", "fusion_lon": 0.0, "lat": 38.908700833333334, "is_reserved": 0, "type": "electric_scooter", "bike_id": "ad093024d38f816b4e832818d858cab6", "is_disabled": 0, "rental_uris": {"android": "https://dc.lft.to/lastmile_qr_scan", "ios": "https://dc.lft.to/lastmile_qr_scan"}, "lon": -77.024245, "fusion_lat": 0.0}, {"name": "d7432d3ab1065583358d6429506f1ed0", "fusion_lon": 0.0, "lat": 38.9094255, "is_reserved": 0, "type": "electric_scooter", "bike_id": "d7432d3ab1065583358d6429506f1ed0", "is_disabled": 0, "rental_uris": {"android": "https://dc.lft.to/lastmile_qr_scan", "ios": "https://dc.lft.to/lastmile_qr_scan"}, "lon": -77.042494, "fusion_lat": 0.0}, {"name": "262b5497ea6f9e9567ab5fdf9379052e", "fusion_lon": 0.0, "lat": 38.903779166666666, "is_reserved": 0, "type": "electric_scooter", "bike_id": "262b5497ea6f9e9567ab5fdf9379052e", "is_disabled": 0, "rental_uris": {"android": "https://dc.lft.to/lastmile_qr_scan", "ios": "https://dc.lft.to/lastmile_qr_scan"}, "lon": -77.036462, "fusion_lat": 0.0}, {"name": "341286cedd30cc0b1e579fff40cc43c8", "fusion_lon": 0.0, "lat": 38.92232333333333, "is_reserved": 0, "type": "electric_scooter", "bike_id": "341286cedd30cc0b1e579fff40cc43c8", "is_disabled": 0, "rental_uris": {"android": "https://dc.lft.to/lastmile_qr_scan", "ios": "https://dc.lft.to/lastmile_qr_scan"}, "lon": -77.02978766666666, "fusion_lat": 0.0}, {"name": "c9e75a344e8bd09983866516d75bc8b5", "fusion_lon": 0.0, "lat": 38.868852833333335, "is_reserved": 0, "type": "electric_bike", "bike_id": "c9e75a344e8bd09983866516d75bc8b5", "is_disabled": 0, "rental_uris": {"android": "https://dc.lft.to/lastmile_qr_scan", "ios": "https://dc.lft.to/lastmile_qr_scan"}, "lon": -76.957801, "fusion_lat": 0.0}, {"name": "e0671e5f301ec61efdac85cb60a43209", "fusion_lon": 0.0, "lat": 38.903183, "is_reserved": 0, "type": "electric_scooter", "bike_id": "e0671e5f301ec61efdac85cb60a43209", "is_disabled": 0, "rental_uris": {"android": "https://dc.lft.to/lastmile_qr_scan", "ios": "https://dc.lft.to/lastmile_qr_scan"}, "lon": -76.97805316666667, "fusion_lat": 0.0}, {"name": "d76ad1aebc308eb8cb3be2552366d563", "fusion_lon": 0.0, "lat": 38.88913433333333, "is_reserved": 0, "type": "electric_scooter", "bike_id": "d76ad1aebc308eb8cb3be2552366d563", "is_disabled": 0, "rental_uris": {"android": "https://dc.lft.to/lastmile_qr_scan", "ios": "https://dc.lft.to/lastmile_qr_scan"}, "lon": -77.05220933333334, "fusion_lat": 0.0}, {"name": "fbbd7dd1ab733fd14b6b520740c3fba1", "fusion_lon": 0.0, "lat": 38.91338416666667, "is_reserved": 0, "type": "electric_scooter", "bike_id": "fbbd7dd1ab733fd14b6b520740c3fba1", "is_disabled": 0, "rental_uris": {"android": "https://dc.lft.to/lastmile_qr_scan", "ios": "https://dc.lft.to/lastmile_qr_scan"}, "lon": -77.0423255, "fusion_lat": 0.0}, {"name": "2718859cced7384a4570ae62c7eba231", "fusion_lon": 0.0, "lat": 38.858977833333334, "is_reserved": 0, "type": "electric_bike", "bike_id": "2718859cced7384a4570ae62c7eba231", "is_disabled": 0, "rental_uris": {"android": "https://dc.lft.to/lastmile_qr_scan", "ios": "https://dc.lft.to/lastmile_qr_scan"}, "lon": -77.11864216666666, "fusion_lat": 0.0}, {"name": "ecba42f02d1d8e8d226f7e96dbeebd25", "fusion_lon": 0.0, "lat": 38.9003605, "is_reserved": 0, "type": "electric_bike", "bike_id": "ecba42f02d1d8e8d226f7e96dbeebd25", "is_disabled": 0, "rental_uris": {"android": "https://dc.lft.to/lastmile_qr_scan", "ios": "https://dc.lft.to/lastmile_qr_scan"}, "lon": -76.97228733333333, "fusion_lat": 0.0}, {"name": "a0915c365fa4b2124874e2f44257729c", "fusion_lon": 0.0, "lat": 38.906038333333335, "is_reserved": 0, "type": "electric_scooter", "bike_id": "a0915c365fa4b2124874e2f44257729c", "is_disabled": 0, "rental_uris": {"android": "https://dc.lft.to/lastmile_qr_scan", "ios": "https://dc.lft.to/lastmile_qr_scan"}, "lon": -76.99267116666667, "fusion_lat": 0.0}, {"name": "d901abc226fe86e2203649918b604fea", "fusion_lon": 0.0, "lat": 38.90526083333334, "is_reserved": 0, "type": "electric_scooter", "bike_id": "d901abc226fe86e2203649918b604fea", "is_disabled": 0, "rental_uris": {"android": "https://dc.lft.to/lastmile_qr_scan", "ios": "https://dc.lft.to/lastmile_qr_scan"}, "lon": -77.06408416666666, "fusion_lat": 0.0}, {"name": "138b375eb91beb809832438f61c4ef93", "fusion_lon": 0.0, "lat": 38.924869, "is_reserved": 0, "type": "electric_scooter", "bike_id": "138b375eb91beb809832438f61c4ef93", "is_disabled": 0, "rental_uris": {"android": "https://dc.lft.to/lastmile_qr_scan", "ios": "https://dc.lft.to/lastmile_qr_scan"}, "lon": -77.029074, "fusion_lat": 0.0}, {"name": "9379296cd14385373990dc4f0f0911d6", "fusion_lon": 0.0, "lat": 38.945160666666666, "is_reserved": 0, "type": "electric_scooter", "bike_id": "9379296cd14385373990dc4f0f0911d6", "is_disabled": 0, "rental_uris": {"android": "https://dc.lft.to/lastmile_qr_scan", "ios": "https://dc.lft.to/lastmile_qr_scan"}, "lon": -77.03320916666667, "fusion_lat": 0.0}, {"name": "d000efeeb1e3ae93497427d903b28f7f", "fusion_lon": 0.0, "lat": 38.91914583333333, "is_reserved": 0, "type": "electric_scooter", "bike_id": "d000efeeb1e3ae93497427d903b28f7f", "is_disabled": 0, "rental_uris": {"android": "https://dc.lft.to/lastmile_qr_scan", "ios": "https://dc.lft.to/lastmile_qr_scan"}, "lon": -77.00992483333333, "fusion_lat": 0.0}, {"name": "bb37247c58790ad51451e05aae081207", "fusion_lon": 0.0, "lat": 38.907304, "is_reserved": 0, "type": "electric_scooter", "bike_id": "bb37247c58790ad51451e05aae081207", "is_disabled": 0, "rental_uris": {"android": "https://dc.lft.to/lastmile_qr_scan", "ios": "https://dc.lft.to/lastmile_qr_scan"}, "lon": -77.01134783333333, "fusion_lat": 0.0}, {"name": "6c67672b507a26239667f14c72f61416", "fusion_lon": 0.0, "lat": 38.88457783333333, "is_reserved": 0, "type": "electric_scooter", "bike_id": "6c67672b507a26239667f14c72f61416", "is_disabled": 0, "rental_uris": {"android": "https://dc.lft.to/lastmile_qr_scan", "ios": "https://dc.lft.to/lastmile_qr_scan"}, "lon": -76.9574715, "fusion_lat": 0.0}, {"name": "99e19ad0138959833e35d2d6f535455c", "fusion_lon": 0.0, "lat": 38.88744883333333, "is_reserved": 0, "type": "electric_scooter", "bike_id": "99e19ad0138959833e35d2d6f535455c", "is_disabled": 0, "rental_uris": {"android": "https://dc.lft.to/lastmile_qr_scan", "ios": "https://dc.lft.to/lastmile_qr_scan"}, "lon": -77.01530583333333, "fusion_lat": 0.0}, {"name": "26235be5b4945dda316c3b306302130e", "fusion_lon": 0.0, "lat": 38.92443766666667, "is_reserved": 0, "type": "electric_bike", "bike_id": "26235be5b4945dda316c3b306302130e", "is_disabled": 0, "rental_uris": {"android": "https://dc.lft.to/lastmile_qr_scan", "ios": "https://dc.lft.to/lastmile_qr_scan"}, "lon": -77.22552333333333, "fusion_lat": 0.0}, {"name": "d1bb4775e9d52fc8db1b13925f2a311d", "fusion_lon": 0.0, "lat": 38.9208935, "is_reserved": 0, "type": "electric_scooter", "bike_id": "d1bb4775e9d52fc8db1b13925f2a311d", "is_disabled": 0, "rental_uris": {"android": "https://dc.lft.to/lastmile_qr_scan", "ios": "https://dc.lft.to/lastmile_qr_scan"}, "lon": -77.025539, "fusion_lat": 0.0}, {"name": "deabf5505230a2bc5c7b7cc585b41663", "fusion_lon": 0.0, "lat": 38.900657833333334, "is_reserved": 0, "type": "electric_scooter", "bike_id": "deabf5505230a2bc5c7b7cc585b41663", "is_disabled": 0, "rental_uris": {"android": "https://dc.lft.to/lastmile_qr_scan", "ios": "https://dc.lft.to/lastmile_qr_scan"}, "lon": -77.03085716666666, "fusion_lat": 0.0}, {"name": "6b1b67eb1809176ce75afe910b64f754", "fusion_lon": 0.0, "lat": 38.908361166666666, "is_reserved": 0, "type": "electric_scooter", "bike_id": "6b1b67eb1809176ce75afe910b64f754", "is_disabled": 0, "rental_uris": {"android": "https://dc.lft.to/lastmile_qr_scan", "ios": "https://dc.lft.to/lastmile_qr_scan"}, "lon": -77.04333433333333, "fusion_lat": 0.0}, {"name": "cf3be12d037747e83005f30335113413", "fusion_lon": 0.0, "lat": 38.924938, "is_reserved": 0, "type": "electric_scooter", "bike_id": "cf3be12d037747e83005f30335113413", "is_disabled": 0, "rental_uris": {"android": "https://dc.lft.to/lastmile_qr_scan", "ios": "https://dc.lft.to/lastmile_qr_scan"}, "lon": -77.05255333333334, "fusion_lat": 0.0}, {"name": "c4f03d8c5aa9c00dafc7816f90760e13", "fusion_lon": 0.0, "lat": 38.913254, "is_reserved": 0, "type": "electric_scooter", "bike_id": "c4f03d8c5aa9c00dafc7816f90760e13", "is_disabled": 0, "rental_uris": {"android": "https://dc.lft.to/lastmile_qr_scan", "ios": "https://dc.lft.to/lastmile_qr_scan"}, "lon": -76.98496683333333, "fusion_lat": 0.0}, {"name": "ce83b2877d78565dce7d6fd48d255ff5", "fusion_lon": 0.0, "lat": 38.8379375, "is_reserved": 0, "type": "electric_bike", "bike_id": "ce83b2877d78565dce7d6fd48d255ff5", "is_disabled": 0, "rental_uris": {"android": "https://dc.lft.to/lastmile_qr_scan", "ios": "https://dc.lft.to/lastmile_qr_scan"}, "lon": -76.99753366666667, "fusion_lat": 0.0}, {"name": "b144eafac7f7a877f08aea76ea7a428d", "fusion_lon": 0.0, "lat": 38.91568183333333, "is_reserved": 0, "type": "electric_scooter", "bike_id": "b144eafac7f7a877f08aea76ea7a428d", "is_disabled": 0, "rental_uris": {"android": "https://dc.lft.to/lastmile_qr_scan", "ios": "https://dc.lft.to/lastmile_qr_scan"}, "lon": -77.03171116666667, "fusion_lat": 0.0}, {"name": "351f7e0004e412e4c9d4a0329f19b50b", "fusion_lon": 0.0, "lat": 38.874586666666666, "is_reserved": 0, "type": "electric_scooter", "bike_id": "351f7e0004e412e4c9d4a0329f19b50b", "is_disabled": 0, "rental_uris": {"android": "https://dc.lft.to/lastmile_qr_scan", "ios": "https://dc.lft.to/lastmile_qr_scan"}, "lon": -77.0034095, "fusion_lat": 0.0}, {"name": "1fc12055f189be186c155835104b523e", "fusion_lon": 0.0, "lat": 38.88137366666667, "is_reserved": 0, "type": "electric_scooter", "bike_id": "1fc12055f189be186c155835104b523e", "is_disabled": 0, "rental_uris": {"android": "https://dc.lft.to/lastmile_qr_scan", "ios": "https://dc.lft.to/lastmile_qr_scan"}, "lon": -77.01336616666667, "fusion_lat": 0.0}, {"name": "48b5636e90cfd78771fecfa37cb11bbb", "fusion_lon": 0.0, "lat": 38.9082555, "is_reserved": 0, "type": "electric_scooter", "bike_id": "48b5636e90cfd78771fecfa37cb11bbb", "is_disabled": 0, "rental_uris": {"android": "https://dc.lft.to/lastmile_qr_scan", "ios": "https://dc.lft.to/lastmile_qr_scan"}, "lon": -77.02386566666667, "fusion_lat": 0.0}, {"name": "59e8faf9018701179bcd3df5691afa42", "fusion_lon": 0.0, "lat": 38.9163925, "is_reserved": 0, "type": "electric_scooter", "bike_id": "59e8faf9018701179bcd3df5691afa42", "is_disabled": 0, "rental_uris": {"android": "https://dc.lft.to/lastmile_qr_scan", "ios": "https://dc.lft.to/lastmile_qr_scan"}, "lon": -77.03987366666667, "fusion_lat": 0.0}, {"name": "1423d961c0c3200fdd77b948cb6deaed", "fusion_lon": 0.0, "lat": 38.919426, "is_reserved": 0, "type": "electric_scooter", "bike_id": "1423d961c0c3200fdd77b948cb6deaed", "is_disabled": 0, "rental_uris": {"android": "https://dc.lft.to/lastmile_qr_scan", "ios": "https://dc.lft.to/lastmile_qr_scan"}, "lon": -77.032078, "fusion_lat": 0.0}, {"name": "a25dcc2a0e84698cde830f1961e81a2e", "fusion_lon": 0.0, "lat": 38.93636516666667, "is_reserved": 0, "type": "electric_scooter", "bike_id": "a25dcc2a0e84698cde830f1961e81a2e", "is_disabled": 0, "rental_uris": {"android": "https://dc.lft.to/lastmile_qr_scan", "ios": "https://dc.lft.to/lastmile_qr_scan"}, "lon": -77.05879716666666, "fusion_lat": 0.0}, {"name": "4d7076a2b8949f3478cc4b99a58a86c0", "fusion_lon": 0.0, "lat": 38.882627166666666, "is_reserved": 0, "type": "electric_scooter", "bike_id": "4d7076a2b8949f3478cc4b99a58a86c0", "is_disabled": 0, "rental_uris": {"android": "https://dc.lft.to/lastmile_qr_scan", "ios": "https://dc.lft.to/lastmile_qr_scan"}, "lon": -76.99254983333333, "fusion_lat": 0.0}, {"name": "b32ad562a015c0acb7c85a18d7b1e1f6", "fusion_lon": 0.0, "lat": 38.9146135, "is_reserved": 0, "type": "electric_scooter", "bike_id": "b32ad562a015c0acb7c85a18d7b1e1f6", "is_disabled": 0, "rental_uris": {"android": "https://dc.lft.to/lastmile_qr_scan", "ios": "https://dc.lft.to/lastmile_qr_scan"}, "lon": -77.0713445, "fusion_lat": 0.0}, {"name": "a5fb09d352c6f0738877bb98f6dbe064", "fusion_lon": 0.0, "lat": 38.90571966666667, "is_reserved": 0, "type": "electric_scooter", "bike_id": "a5fb09d352c6f0738877bb98f6dbe064", "is_disabled": 0, "rental_uris": {"android": "https://dc.lft.to/lastmile_qr_scan", "ios": "https://dc.lft.to/lastmile_qr_scan"}, "lon": -77.00295416666667, "fusion_lat": 0.0}, {"name": "2e475efd9ffe84798cb1a79fdbd211e2", "fusion_lon": 0.0, "lat": 38.90568533333333, "is_reserved": 0, "type": "electric_scooter", "bike_id": "2e475efd9ffe84798cb1a79fdbd211e2", "is_disabled": 0, "rental_uris": {"android": "https://dc.lft.to/lastmile_qr_scan", "ios": "https://dc.lft.to/lastmile_qr_scan"}, "lon": -77.02505716666667, "fusion_lat": 0.0}, {"name": "0ada36167a754c5525bf9b661a217aa8", "fusion_lon": 0.0, "lat": 38.924135166666666, "is_reserved": 0, "type": "electric_scooter", "bike_id": "0ada36167a754c5525bf9b661a217aa8", "is_disabled": 0, "rental_uris": {"android": "https://dc.lft.to/lastmile_qr_scan", "ios": "https://dc.lft.to/lastmile_qr_scan"}, "lon": -77.05169433333333, "fusion_lat": 0.0}, {"name": "12ff7179f5a140d375d23e5aeaa5f4f7", "fusion_lon": 0.0, "lat": 38.920497166666664, "is_reserved": 0, "type": "electric_scooter", "bike_id": "12ff7179f5a140d375d23e5aeaa5f4f7", "is_disabled": 0, "rental_uris": {"android": "https://dc.lft.to/lastmile_qr_scan", "ios": "https://dc.lft.to/lastmile_qr_scan"}, "lon": -77.02613016666666, "fusion_lat": 0.0}, {"name": "c89f80b516b93f04512cf9f3d1a17eef", "fusion_lon": 0.0, "lat": 38.9216605, "is_reserved": 0, "type": "electric_scooter", "bike_id": "c89f80b516b93f04512cf9f3d1a17eef", "is_disabled": 0, "rental_uris": {"android": "https://dc.lft.to/lastmile_qr_scan", "ios": "https://dc.lft.to/lastmile_qr_scan"}, "lon": -77.032335, "fusion_lat": 0.0}, {"name": "22329c275fb77dd7b0ca283a87c8b97a", "fusion_lon": 0.0, "lat": 38.923264333333336, "is_reserved": 0, "type": "electric_scooter", "bike_id": "22329c275fb77dd7b0ca283a87c8b97a", "is_disabled": 0, "rental_uris": {"android": "https://dc.lft.to/lastmile_qr_scan", "ios": "https://dc.lft.to/lastmile_qr_scan"}, "lon": -77.03573316666666, "fusion_lat": 0.0}, {"name": "0daa88ed683be9f956c0da65c102ee4b", "fusion_lon": 0.0, "lat": 38.87708816666667, "is_reserved": 0, "type": "electric_scooter", "bike_id": "0daa88ed683be9f956c0da65c102ee4b", "is_disabled": 0, "rental_uris": {"android": "https://dc.lft.to/lastmile_qr_scan", "ios": "https://dc.lft.to/lastmile_qr_scan"}, "lon": -77.00452716666666, "fusion_lat": 0.0}, {"name": "b838d75c27c127ee336be8abb332add7", "fusion_lon": 0.0, "lat": 38.90183016666667, "is_reserved": 0, "type": "electric_scooter", "bike_id": "b838d75c27c127ee336be8abb332add7", "is_disabled": 0, "rental_uris": {"android": "https://dc.lft.to/lastmile_qr_scan", "ios": "https://dc.lft.to/lastmile_qr_scan"}, "lon": -77.01304383333333, "fusion_lat": 0.0}, {"name": "4a62b89316a3a26e2447f0dede3a0d7e", "fusion_lon": 0.0, "lat": 38.85524133333333, "is_reserved": 0, "type": "electric_bike", "bike_id": "4a62b89316a3a26e2447f0dede3a0d7e", "is_disabled": 0, "rental_uris": {"android": "https://dc.lft.to/lastmile_qr_scan", "ios": "https://dc.lft.to/lastmile_qr_scan"}, "lon": -76.98443283333333, "fusion_lat": 0.0}, {"name": "34c3ec47ef56c3ce080487118f60b326", "fusion_lon": 0.0, "lat": 38.91259633333333, "is_reserved": 0, "type": "electric_scooter", "bike_id": "34c3ec47ef56c3ce080487118f60b326", "is_disabled": 0, "rental_uris": {"android": "https://dc.lft.to/lastmile_qr_scan", "ios": "https://dc.lft.to/lastmile_qr_scan"}, "lon": -77.044406, "fusion_lat": 0.0}, {"name": "42329baa2f806bba18c49058876dcaae", "fusion_lon": 0.0, "lat": 38.908612833333336, "is_reserved": 0, "type": "electric_scooter", "bike_id": "42329baa2f806bba18c49058876dcaae", "is_disabled": 0, "rental_uris": {"android": "https://dc.lft.to/lastmile_qr_scan", "ios": "https://dc.lft.to/lastmile_qr_scan"}, "lon": -76.99966066666667, "fusion_lat": 0.0}, {"name": "a9b11ec9329dac9b70e17c45875d5676", "fusion_lon": 0.0, "lat": 38.883143833333335, "is_reserved": 0, "type": "electric_scooter", "bike_id": "a9b11ec9329dac9b70e17c45875d5676", "is_disabled": 0, "rental_uris": {"android": "https://dc.lft.to/lastmile_qr_scan", "ios": "https://dc.lft.to/lastmile_qr_scan"}, "lon": -77.000494, "fusion_lat": 0.0}, {"name": "3a867be6963054ba245d64b63a0e7785", "fusion_lon": 0.0, "lat": 38.91929366666667, "is_reserved": 0, "type": "electric_scooter", "bike_id": "3a867be6963054ba245d64b63a0e7785", "is_disabled": 0, "rental_uris": {"android": "https://dc.lft.to/lastmile_qr_scan", "ios": "https://dc.lft.to/lastmile_qr_scan"}, "lon": -77.03186383333333, "fusion_lat": 0.0}, {"name": "153e730f50f83cad0283f25d60229a5b", "fusion_lon": 0.0, "lat": 38.87463366666667, "is_reserved": 0, "type": "electric_scooter", "bike_id": "153e730f50f83cad0283f25d60229a5b", "is_disabled": 0, "rental_uris": {"android": "https://dc.lft.to/lastmile_qr_scan", "ios": "https://dc.lft.to/lastmile_qr_scan"}, "lon": -77.00941, "fusion_lat": 0.0}, {"name": "96d0c51ed92b1bc1065a6ae7859807fe", "fusion_lon": 0.0, "lat": 38.84315016666667, "is_reserved": 0, "type": "electric_scooter", "bike_id": "96d0c51ed92b1bc1065a6ae7859807fe", "is_disabled": 0, "rental_uris": {"android": "https://dc.lft.to/lastmile_qr_scan", "ios": "https://dc.lft.to/lastmile_qr_scan"}, "lon": -76.99929516666667, "fusion_lat": 0.0}, {"name": "524272b86174d1f7ab7d3686b7511c29", "fusion_lon": 0.0, "lat": 38.89225183333333, "is_reserved": 0, "type": "electric_scooter", "bike_id": "524272b86174d1f7ab7d3686b7511c29", "is_disabled": 0, "rental_uris": {"android": "https://dc.lft.to/lastmile_qr_scan", "ios": "https://dc.lft.to/lastmile_qr_scan"}, "lon": -77.02371483333333, "fusion_lat": 0.0}, {"name": "798195a09853b78f60b3e6bbb8d1b7fa", "fusion_lon": 0.0, "lat": 38.91901716666667, "is_reserved": 0, "type": "electric_scooter", "bike_id": "798195a09853b78f60b3e6bbb8d1b7fa", "is_disabled": 0, "rental_uris": {"android": "https://dc.lft.to/lastmile_qr_scan", "ios": "https://dc.lft.to/lastmile_qr_scan"}, "lon": -76.9874495, "fusion_lat": 0.0}, {"name": "655f8e475c0704a716102341570f32c2", "fusion_lon": 0.0, "lat": 38.898746, "is_reserved": 0, "type": "electric_scooter", "bike_id": "655f8e475c0704a716102341570f32c2", "is_disabled": 0, "rental_uris": {"android": "https://dc.lft.to/lastmile_qr_scan", "ios": "https://dc.lft.to/lastmile_qr_scan"}, "lon": -76.94667216666667, "fusion_lat": 0.0}, {"name": "aea0df069572531e60a0b6d4d0a8e4cf", "fusion_lon": 0.0, "lat": 38.8936565, "is_reserved": 0, "type": "electric_scooter", "bike_id": "aea0df069572531e60a0b6d4d0a8e4cf", "is_disabled": 0, "rental_uris": {"android": "https://dc.lft.to/lastmile_qr_scan", "ios": "https://dc.lft.to/lastmile_qr_scan"}, "lon": -77.02082033333333, "fusion_lat": 0.0}, {"name": "aec99a62d4ed39d548c55527b816f6eb", "fusion_lon": 0.0, "lat": 38.919010166666666, "is_reserved": 0, "type": "electric_scooter", "bike_id": "aec99a62d4ed39d548c55527b816f6eb", "is_disabled": 0, "rental_uris": {"android": "https://dc.lft.to/lastmile_qr_scan", "ios": "https://dc.lft.to/lastmile_qr_scan"}, "lon": -77.02296766666667, "fusion_lat": 0.0}, {"name": "c911e64526e1e349b6db77619a5fa495", "fusion_lon": 0.0, "lat": 38.89940083333333, "is_reserved": 0, "type": "electric_scooter", "bike_id": "c911e64526e1e349b6db77619a5fa495", "is_disabled": 0, "rental_uris": {"android": "https://dc.lft.to/lastmile_qr_scan", "ios": "https://dc.lft.to/lastmile_qr_scan"}, "lon": -77.04127666666666, "fusion_lat": 0.0}, {"name": "d2454d8684c58894efafee12c56fac77", "fusion_lon": 0.0, "lat": 38.946292, "is_reserved": 0, "type": "electric_scooter", "bike_id": "d2454d8684c58894efafee12c56fac77", "is_disabled": 0, "rental_uris": {"android": "https://dc.lft.to/lastmile_qr_scan", "ios": "https://dc.lft.to/lastmile_qr_scan"}, "lon": -77.018446, "fusion_lat": 0.0}, {"name": "6c8cda3c312fd37fec096815e01342ea", "fusion_lon": 0.0, "lat": 38.91706883333333, "is_reserved": 0, "type": "electric_scooter", "bike_id": "6c8cda3c312fd37fec096815e01342ea", "is_disabled": 0, "rental_uris": {"android": "https://dc.lft.to/lastmile_qr_scan", "ios": "https://dc.lft.to/lastmile_qr_scan"}, "lon": -77.0311955, "fusion_lat": 0.0}, {"name": "7edeb00ced494bdedfd8de1f9d612619", "fusion_lon": 0.0, "lat": 38.90774866666667, "is_reserved": 0, "type": "electric_scooter", "bike_id": "7edeb00ced494bdedfd8de1f9d612619", "is_disabled": 0, "rental_uris": {"android": "https://dc.lft.to/lastmile_qr_scan", "ios": "https://dc.lft.to/lastmile_qr_scan"}, "lon": -76.97835166666667, "fusion_lat": 0.0}, {"name": "6d0b7080fac94bb9b7d6df1f8d4eaff8", "fusion_lon": 0.0, "lat": 38.9008555, "is_reserved": 0, "type": "electric_scooter", "bike_id": "6d0b7080fac94bb9b7d6df1f8d4eaff8", "is_disabled": 0, "rental_uris": {"android": "https://dc.lft.to/lastmile_qr_scan", "ios": "https://dc.lft.to/lastmile_qr_scan"}, "lon": -77.0393285, "fusion_lat": 0.0}, {"name": "d1add251eda7a949b21eccb71095d9b5", "fusion_lon": 0.0, "lat": 38.90391366666667, "is_reserved": 0, "type": "electric_scooter", "bike_id": "d1add251eda7a949b21eccb71095d9b5", "is_disabled": 0, "rental_uris": {"android": "https://dc.lft.to/lastmile_qr_scan", "ios": "https://dc.lft.to/lastmile_qr_scan"}, "lon": -77.02497133333334, "fusion_lat": 0.0}, {"name": "ee2b8a0b6c7e0f9bc2f60ec14e54300a", "fusion_lon": 0.0, "lat": 38.90556733333333, "is_reserved": 0, "type": "electric_scooter", "bike_id": "ee2b8a0b6c7e0f9bc2f60ec14e54300a", "is_disabled": 0, "rental_uris": {"android": "https://dc.lft.to/lastmile_qr_scan", "ios": "https://dc.lft.to/lastmile_qr_scan"}, "lon": -77.00589, "fusion_lat": 0.0}, {"name": "77f36e8d38efc7216f258935313f5910", "fusion_lon": 0.0, "lat": 38.906365666666666, "is_reserved": 0, "type": "electric_scooter", "bike_id": "77f36e8d38efc7216f258935313f5910", "is_disabled": 0, "rental_uris": {"android": "https://dc.lft.to/lastmile_qr_scan", "ios": "https://dc.lft.to/lastmile_qr_scan"}, "lon": -77.03881433333333, "fusion_lat": 0.0}, {"name": "4c69a47189b420d4580b912368bda50d", "fusion_lon": 0.0, "lat": 38.9007225, "is_reserved": 0, "type": "electric_scooter", "bike_id": "4c69a47189b420d4580b912368bda50d", "is_disabled": 0, "rental_uris": {"android": "https://dc.lft.to/lastmile_qr_scan", "ios": "https://dc.lft.to/lastmile_qr_scan"}, "lon": -77.04687, "fusion_lat": 0.0}, {"name": "7d9570e74fe1477fc9994c9e670199c6", "fusion_lon": 0.0, "lat": 38.915636, "is_reserved": 0, "type": "electric_scooter", "bike_id": "7d9570e74fe1477fc9994c9e670199c6", "is_disabled": 0, "rental_uris": {"android": "https://dc.lft.to/lastmile_qr_scan", "ios": "https://dc.lft.to/lastmile_qr_scan"}, "lon": -77.03765866666667, "fusion_lat": 0.0}, {"name": "66f0856a343312656245ee37ab225c04", "fusion_lon": 0.0, "lat": 38.93672316666667, "is_reserved": 0, "type": "electric_scooter", "bike_id": "66f0856a343312656245ee37ab225c04", "is_disabled": 0, "rental_uris": {"android": "https://dc.lft.to/lastmile_qr_scan", "ios": "https://dc.lft.to/lastmile_qr_scan"}, "lon": -77.03590833333334, "fusion_lat": 0.0}, {"name": "b6e3e93a960e435edcb14c77a2372853", "fusion_lon": 0.0, "lat": 38.9215335, "is_reserved": 0, "type": "electric_scooter", "bike_id": "b6e3e93a960e435edcb14c77a2372853", "is_disabled": 0, "rental_uris": {"android": "https://dc.lft.to/lastmile_qr_scan", "ios": "https://dc.lft.to/lastmile_qr_scan"}, "lon": -77.02083283333333, "fusion_lat": 0.0}, {"name": "f9481c97c689df96681aa67ff46cb4c2", "fusion_lon": 0.0, "lat": 38.88615766666667, "is_reserved": 0, "type": "electric_scooter", "bike_id": "f9481c97c689df96681aa67ff46cb4c2", "is_disabled": 0, "rental_uris": {"android": "https://dc.lft.to/lastmile_qr_scan", "ios": "https://dc.lft.to/lastmile_qr_scan"}, "lon": -77.0048015, "fusion_lat": 0.0}, {"name": "78fa0f4ba2a7ddb799bb15aee798b161", "fusion_lon": 0.0, "lat": 38.903193333333334, "is_reserved": 0, "type": "electric_scooter", "bike_id": "78fa0f4ba2a7ddb799bb15aee798b161", "is_disabled": 0, "rental_uris": {"android": "https://dc.lft.to/lastmile_qr_scan", "ios": "https://dc.lft.to/lastmile_qr_scan"}, "lon": -77.038621, "fusion_lat": 0.0}, {"name": "0d062e3692fd4c33aa11ef9e563e0daf", "fusion_lon": 0.0, "lat": 38.9125665, "is_reserved": 0, "type": "electric_scooter", "bike_id": "0d062e3692fd4c33aa11ef9e563e0daf", "is_disabled": 0, "rental_uris": {"android": "https://dc.lft.to/lastmile_qr_scan", "ios": "https://dc.lft.to/lastmile_qr_scan"}, "lon": -77.02224316666667, "fusion_lat": 0.0}, {"name": "5c3d7f562e3e1008b323caffa75de65e", "fusion_lon": 0.0, "lat": 38.9229095, "is_reserved": 0, "type": "electric_scooter", "bike_id": "5c3d7f562e3e1008b323caffa75de65e", "is_disabled": 0, "rental_uris": {"android": "https://dc.lft.to/lastmile_qr_scan", "ios": "https://dc.lft.to/lastmile_qr_scan"}, "lon": -77.0183905, "fusion_lat": 0.0}, {"name": "5ce6e5f33bcd41d24423679a9673f7e2", "fusion_lon": 0.0, "lat": 38.909732166666664, "is_reserved": 0, "type": "electric_scooter", "bike_id": "5ce6e5f33bcd41d24423679a9673f7e2", "is_disabled": 0, "rental_uris": {"android": "https://dc.lft.to/lastmile_qr_scan", "ios": "https://dc.lft.to/lastmile_qr_scan"}, "lon": -77.03592966666666, "fusion_lat": 0.0}, {"name": "492a1a089f4b99b34745450e664a2c23", "fusion_lon": 0.0, "lat": 38.967996666666664, "is_reserved": 0, "type": "electric_bike", "bike_id": "492a1a089f4b99b34745450e664a2c23", "is_disabled": 0, "rental_uris": {"android": "https://dc.lft.to/lastmile_qr_scan", "ios": "https://dc.lft.to/lastmile_qr_scan"}, "lon": -77.0003935, "fusion_lat": 0.0}, {"name": "50d810bdccbddd13457b1b52c87be91c", "fusion_lon": 0.0, "lat": 38.900481166666665, "is_reserved": 0, "type": "electric_scooter", "bike_id": "50d810bdccbddd13457b1b52c87be91c", "is_disabled": 0, "rental_uris": {"android": "https://dc.lft.to/lastmile_qr_scan", "ios": "https://dc.lft.to/lastmile_qr_scan"}, "lon": -77.04331166666667, "fusion_lat": 0.0}, {"name": "cb7e4b6c6ffaf4642f410fea870b43cc", "fusion_lon": 0.0, "lat": 38.8651635, "is_reserved": 0, "type": "electric_scooter", "bike_id": "cb7e4b6c6ffaf4642f410fea870b43cc", "is_disabled": 0, "rental_uris": {"android": "https://dc.lft.to/lastmile_qr_scan", "ios": "https://dc.lft.to/lastmile_qr_scan"}, "lon": -76.99019816666667, "fusion_lat": 0.0}, {"name": "7f0f6920fa178ab3d0cab0ed22fd58d5", "fusion_lon": 0.0, "lat": 38.92861033333333, "is_reserved": 0, "type": "electric_scooter", "bike_id": "7f0f6920fa178ab3d0cab0ed22fd58d5", "is_disabled": 0, "rental_uris": {"android": "https://dc.lft.to/lastmile_qr_scan", "ios": "https://dc.lft.to/lastmile_qr_scan"}, "lon": -77.03299933333334, "fusion_lat": 0.0}, {"name": "0c7e1aa284a033398b1ed42f9de3fbc9", "fusion_lon": 0.0, "lat": 38.916996166666664, "is_reserved": 0, "type": "electric_scooter", "bike_id": "0c7e1aa284a033398b1ed42f9de3fbc9", "is_disabled": 0, "rental_uris": {"android": "https://dc.lft.to/lastmile_qr_scan", "ios": "https://dc.lft.to/lastmile_qr_scan"}, "lon": -77.03155966666667, "fusion_lat": 0.0}, {"name": "7764f189e371191e27fc0a48e0fbab72", "fusion_lon": 0.0, "lat": 38.9008185, "is_reserved": 0, "type": "electric_scooter", "bike_id": "7764f189e371191e27fc0a48e0fbab72", "is_disabled": 0, "rental_uris": {"android": "https://dc.lft.to/lastmile_qr_scan", "ios": "https://dc.lft.to/lastmile_qr_scan"}, "lon": -77.05005933333334, "fusion_lat": 0.0}, {"name": "3e07a419944fbe0def336c5c2c5a3b61", "fusion_lon": 0.0, "lat": 38.928684, "is_reserved": 0, "type": "electric_scooter", "bike_id": "3e07a419944fbe0def336c5c2c5a3b61", "is_disabled": 0, "rental_uris": {"android": "https://dc.lft.to/lastmile_qr_scan", "ios": "https://dc.lft.to/lastmile_qr_scan"}, "lon": -77.02732033333334, "fusion_lat": 0.0}, {"name": "7917c5098ddd621e25b833125790b5c8", "fusion_lon": 0.0, "lat": 38.8551715, "is_reserved": 0, "type": "electric_bike", "bike_id": "7917c5098ddd621e25b833125790b5c8", "is_disabled": 0, "rental_uris": {"android": "https://dc.lft.to/lastmile_qr_scan", "ios": "https://dc.lft.to/lastmile_qr_scan"}, "lon": -77.11998866666667, "fusion_lat": 0.0}, {"name": "e74e16aa9ae9c42618b59fdabf6477f2", "fusion_lon": 0.0, "lat": 38.9191705, "is_reserved": 0, "type": "electric_scooter", "bike_id": "e74e16aa9ae9c42618b59fdabf6477f2", "is_disabled": 0, "rental_uris": {"android": "https://dc.lft.to/lastmile_qr_scan", "ios": "https://dc.lft.to/lastmile_qr_scan"}, "lon": -77.04470266666667, "fusion_lat": 0.0}, {"name": "f356a70542414652b2d10d59c7173d7d", "fusion_lon": 0.0, "lat": 38.92247416666667, "is_reserved": 0, "type": "electric_scooter", "bike_id": "f356a70542414652b2d10d59c7173d7d", "is_disabled": 0, "rental_uris": {"android": "https://dc.lft.to/lastmile_qr_scan", "ios": "https://dc.lft.to/lastmile_qr_scan"}, "lon": -77.04273366666666, "fusion_lat": 0.0}, {"name": "afb5f0256b5a9315ff4dd2a3b65a3df4", "fusion_lon": 0.0, "lat": 38.99328583333333, "is_reserved": 0, "type": "electric_bike", "bike_id": "afb5f0256b5a9315ff4dd2a3b65a3df4", "is_disabled": 0, "rental_uris": {"android": "https://dc.lft.to/lastmile_qr_scan", "ios": "https://dc.lft.to/lastmile_qr_scan"}, "lon": -76.94616133333334, "fusion_lat": 0.0}, {"name": "7d1d53acc38974a07329591232c63158", "fusion_lon": 0.0, "lat": 38.90291233333333, "is_reserved": 0, "type": "electric_scooter", "bike_id": "7d1d53acc38974a07329591232c63158", "is_disabled": 0, "rental_uris": {"android": "https://dc.lft.to/lastmile_qr_scan", "ios": "https://dc.lft.to/lastmile_qr_scan"}, "lon": -77.04891533333333, "fusion_lat": 0.0}, {"name": "7b7f6bd6204d9de7bd1211d190e54f0c", "fusion_lon": 0.0, "lat": 38.92919083333334, "is_reserved": 0, "type": "electric_scooter", "bike_id": "7b7f6bd6204d9de7bd1211d190e54f0c", "is_disabled": 0, "rental_uris": {"android": "https://dc.lft.to/lastmile_qr_scan", "ios": "https://dc.lft.to/lastmile_qr_scan"}, "lon": -77.032549, "fusion_lat": 0.0}, {"name": "1f9919bf3b669892c9f6b791f675d17e", "fusion_lon": 0.0, "lat": 38.886116333333334, "is_reserved": 0, "type": "electric_scooter", "bike_id": "1f9919bf3b669892c9f6b791f675d17e", "is_disabled": 0, "rental_uris": {"android": "https://dc.lft.to/lastmile_qr_scan", "ios": "https://dc.lft.to/lastmile_qr_scan"}, "lon": -76.995124, "fusion_lat": 0.0}, {"name": "698eb17e6676dcc48323107dc83953aa", "fusion_lon": 0.0, "lat": 38.90869383333333, "is_reserved": 0, "type": "electric_scooter", "bike_id": "698eb17e6676dcc48323107dc83953aa", "is_disabled": 0, "rental_uris": {"android": "https://dc.lft.to/lastmile_qr_scan", "ios": "https://dc.lft.to/lastmile_qr_scan"}, "lon": -77.02429666666667, "fusion_lat": 0.0}, {"name": "72787dc9f7e59f16c84503af11d40045", "fusion_lon": 0.0, "lat": 38.90568433333333, "is_reserved": 0, "type": "electric_scooter", "bike_id": "72787dc9f7e59f16c84503af11d40045", "is_disabled": 0, "rental_uris": {"android": "https://dc.lft.to/lastmile_qr_scan", "ios": "https://dc.lft.to/lastmile_qr_scan"}, "lon": -77.0058965, "fusion_lat": 0.0}, {"name": "c5ab8f60ef1b9fb6b786036c558f2614", "fusion_lon": 0.0, "lat": 38.91800283333333, "is_reserved": 0, "type": "electric_scooter", "bike_id": "c5ab8f60ef1b9fb6b786036c558f2614", "is_disabled": 0, "rental_uris": {"android": "https://dc.lft.to/lastmile_qr_scan", "ios": "https://dc.lft.to/lastmile_qr_scan"}, "lon": -77.034495, "fusion_lat": 0.0}, {"name": "cccf25a6e089fbafb68465f081e33f12", "fusion_lon": 0.0, "lat": 38.9296695, "is_reserved": 0, "type": "electric_scooter", "bike_id": "cccf25a6e089fbafb68465f081e33f12", "is_disabled": 0, "rental_uris": {"android": "https://dc.lft.to/lastmile_qr_scan", "ios": "https://dc.lft.to/lastmile_qr_scan"}, "lon": -77.03282216666666, "fusion_lat": 0.0}, {"name": "f58ec1120668e30e59225cfa857846d5", "fusion_lon": 0.0, "lat": 38.903922, "is_reserved": 0, "type": "electric_scooter", "bike_id": "f58ec1120668e30e59225cfa857846d5", "is_disabled": 0, "rental_uris": {"android": "https://dc.lft.to/lastmile_qr_scan", "ios": "https://dc.lft.to/lastmile_qr_scan"}, "lon": -77.02002416666667, "fusion_lat": 0.0}, {"name": "b3272db28c5d9b85f26be7768335f290", "fusion_lon": 0.0, "lat": 38.884856, "is_reserved": 0, "type": "electric_bike", "bike_id": "b3272db28c5d9b85f26be7768335f290", "is_disabled": 0, "rental_uris": {"android": "https://dc.lft.to/lastmile_qr_scan", "ios": "https://dc.lft.to/lastmile_qr_scan"}, "lon": -77.127721, "fusion_lat": 0.0}, {"name": "b019e024a64d4a0a1e9fe0009a40d046", "fusion_lon": 0.0, "lat": 38.933650166666666, "is_reserved": 0, "type": "electric_scooter", "bike_id": "b019e024a64d4a0a1e9fe0009a40d046", "is_disabled": 0, "rental_uris": {"android": "https://dc.lft.to/lastmile_qr_scan", "ios": "https://dc.lft.to/lastmile_qr_scan"}, "lon": -77.08855783333334, "fusion_lat": 0.0}, {"name": "ec4ca369327e7942aec800982847bc27", "fusion_lon": 0.0, "lat": 38.8936005, "is_reserved": 0, "type": "electric_scooter", "bike_id": "ec4ca369327e7942aec800982847bc27", "is_disabled": 0, "rental_uris": {"android": "https://dc.lft.to/lastmile_qr_scan", "ios": "https://dc.lft.to/lastmile_qr_scan"}, "lon": -77.003393, "fusion_lat": 0.0}, {"name": "e03db4a52db52d4f23206534d3d64ed3", "fusion_lon": 0.0, "lat": 38.9079015, "is_reserved": 0, "type": "electric_scooter", "bike_id": "e03db4a52db52d4f23206534d3d64ed3", "is_disabled": 0, "rental_uris": {"android": "https://dc.lft.to/lastmile_qr_scan", "ios": "https://dc.lft.to/lastmile_qr_scan"}, "lon": -77.0110705, "fusion_lat": 0.0}, {"name": "f95c33845636b7f32128519096d003ce", "fusion_lon": 0.0, "lat": 38.91202466666667, "is_reserved": 0, "type": "electric_scooter", "bike_id": "f95c33845636b7f32128519096d003ce", "is_disabled": 0, "rental_uris": {"android": "https://dc.lft.to/lastmile_qr_scan", "ios": "https://dc.lft.to/lastmile_qr_scan"}, "lon": -77.00216366666666, "fusion_lat": 0.0}, {"name": "de2e4b60cde40ca0eb45feefcd5406fb", "fusion_lon": 0.0, "lat": 38.9338565, "is_reserved": 0, "type": "electric_scooter", "bike_id": "de2e4b60cde40ca0eb45feefcd5406fb", "is_disabled": 0, "rental_uris": {"android": "https://dc.lft.to/lastmile_qr_scan", "ios": "https://dc.lft.to/lastmile_qr_scan"}, "lon": -77.03093266666667, "fusion_lat": 0.0}, {"name": "5c28f3de6f9695a14b5e729d90d5fdcc", "fusion_lon": 0.0, "lat": 38.902685166666664, "is_reserved": 0, "type": "electric_scooter", "bike_id": "5c28f3de6f9695a14b5e729d90d5fdcc", "is_disabled": 0, "rental_uris": {"android": "https://dc.lft.to/lastmile_qr_scan", "ios": "https://dc.lft.to/lastmile_qr_scan"}, "lon": -77.01748633333334, "fusion_lat": 0.0}, {"name": "1d5b5bc8600e432b619970560a5f2628", "fusion_lon": 0.0, "lat": 38.90380183333333, "is_reserved": 0, "type": "electric_scooter", "bike_id": "1d5b5bc8600e432b619970560a5f2628", "is_disabled": 0, "rental_uris": {"android": "https://dc.lft.to/lastmile_qr_scan", "ios": "https://dc.lft.to/lastmile_qr_scan"}, "lon": -77.04501683333334, "fusion_lat": 0.0}, {"name": "ddf890a5a5477ba93a02440e188fabb0", "fusion_lon": 0.0, "lat": 38.9052605, "is_reserved": 0, "type": "electric_scooter", "bike_id": "ddf890a5a5477ba93a02440e188fabb0", "is_disabled": 0, "rental_uris": {"android": "https://dc.lft.to/lastmile_qr_scan", "ios": "https://dc.lft.to/lastmile_qr_scan"}, "lon": -77.0417155, "fusion_lat": 0.0}, {"name": "0f20f973b1165e0ee2838a6cd26c1132", "fusion_lon": 0.0, "lat": 38.919334166666665, "is_reserved": 0, "type": "electric_scooter", "bike_id": "0f20f973b1165e0ee2838a6cd26c1132", "is_disabled": 0, "rental_uris": {"android": "https://dc.lft.to/lastmile_qr_scan", "ios": "https://dc.lft.to/lastmile_qr_scan"}, "lon": -77.03192633333333, "fusion_lat": 0.0}, {"name": "968ca53a37b4765ed79a3a001b3de175", "fusion_lon": 0.0, "lat": 38.90252533333334, "is_reserved": 0, "type": "electric_scooter", "bike_id": "968ca53a37b4765ed79a3a001b3de175", "is_disabled": 0, "rental_uris": {"android": "https://dc.lft.to/lastmile_qr_scan", "ios": "https://dc.lft.to/lastmile_qr_scan"}, "lon": -77.02807233333333, "fusion_lat": 0.0}, {"name": "ff9761beb99f7b05737bc3bd84aed16f", "fusion_lon": 0.0, "lat": 38.90374683333334, "is_reserved": 0, "type": "electric_scooter", "bike_id": "ff9761beb99f7b05737bc3bd84aed16f", "is_disabled": 0, "rental_uris": {"android": "https://dc.lft.to/lastmile_qr_scan", "ios": "https://dc.lft.to/lastmile_qr_scan"}, "lon": -77.04502516666666, "fusion_lat": 0.0}, {"name": "5dd5ec746e685c923661486ebd377ae8", "fusion_lon": 0.0, "lat": 38.86506683333333, "is_reserved": 0, "type": "electric_scooter", "bike_id": "5dd5ec746e685c923661486ebd377ae8", "is_disabled": 0, "rental_uris": {"android": "https://dc.lft.to/lastmile_qr_scan", "ios": "https://dc.lft.to/lastmile_qr_scan"}, "lon": -76.99000266666667, "fusion_lat": 0.0}, {"name": "20b1495b871a2fe6195352d01ab96688", "fusion_lon": 0.0, "lat": 38.906025666666665, "is_reserved": 0, "type": "electric_scooter", "bike_id": "20b1495b871a2fe6195352d01ab96688", "is_disabled": 0, "rental_uris": {"android": "https://dc.lft.to/lastmile_qr_scan", "ios": "https://dc.lft.to/lastmile_qr_scan"}, "lon": -77.022031, "fusion_lat": 0.0}, {"name": "b2282058369447b3bf4f3b89a49467fc", "fusion_lon": 0.0, "lat": 38.89345766666667, "is_reserved": 0, "type": "electric_scooter", "bike_id": "b2282058369447b3bf4f3b89a49467fc", "is_disabled": 0, "rental_uris": {"android": "https://dc.lft.to/lastmile_qr_scan", "ios": "https://dc.lft.to/lastmile_qr_scan"}, "lon": -77.01218033333333, "fusion_lat": 0.0}, {"name": "237fc6619304a256f95f02d904ff4bd2", "fusion_lon": 0.0, "lat": 38.882047666666665, "is_reserved": 0, "type": "electric_scooter", "bike_id": "237fc6619304a256f95f02d904ff4bd2", "is_disabled": 0, "rental_uris": {"android": "https://dc.lft.to/lastmile_qr_scan", "ios": "https://dc.lft.to/lastmile_qr_scan"}, "lon": -76.9892505, "fusion_lat": 0.0}, {"name": "62cc67028bf031594cdcdcbcde43ad61", "fusion_lon": 0.0, "lat": 38.924981333333335, "is_reserved": 0, "type": "electric_scooter", "bike_id": "62cc67028bf031594cdcdcbcde43ad61", "is_disabled": 0, "rental_uris": {"android": "https://dc.lft.to/lastmile_qr_scan", "ios": "https://dc.lft.to/lastmile_qr_scan"}, "lon": -77.02153616666666, "fusion_lat": 0.0}, {"name": "c9775a161266e1d1c87d02411c1f4789", "fusion_lon": 0.0, "lat": 38.918452, "is_reserved": 0, "type": "electric_scooter", "bike_id": "c9775a161266e1d1c87d02411c1f4789", "is_disabled": 0, "rental_uris": {"android": "https://dc.lft.to/lastmile_qr_scan", "ios": "https://dc.lft.to/lastmile_qr_scan"}, "lon": -77.0229305, "fusion_lat": 0.0}, {"name": "72db74f6d8de98eb1ebb1af6fe2977df", "fusion_lon": 0.0, "lat": 38.908314, "is_reserved": 0, "type": "electric_scooter", "bike_id": "72db74f6d8de98eb1ebb1af6fe2977df", "is_disabled": 0, "rental_uris": {"android": "https://dc.lft.to/lastmile_qr_scan", "ios": "https://dc.lft.to/lastmile_qr_scan"}, "lon": -76.93448316666667, "fusion_lat": 0.0}, {"name": "f79d5af382096d0ffd7ea465197360ec", "fusion_lon": 0.0, "lat": 38.87698983333333, "is_reserved": 0, "type": "electric_scooter", "bike_id": "f79d5af382096d0ffd7ea465197360ec", "is_disabled": 0, "rental_uris": {"android": "https://dc.lft.to/lastmile_qr_scan", "ios": "https://dc.lft.to/lastmile_qr_scan"}, "lon": -77.00417266666666, "fusion_lat": 0.0}, {"name": "a56993251b367d351132caa9fd031b8d", "fusion_lon": 0.0, "lat": 38.900969333333336, "is_reserved": 0, "type": "electric_scooter", "bike_id": "a56993251b367d351132caa9fd031b8d", "is_disabled": 0, "rental_uris": {"android": "https://dc.lft.to/lastmile_qr_scan", "ios": "https://dc.lft.to/lastmile_qr_scan"}, "lon": -76.976415, "fusion_lat": 0.0}, {"name": "2f0c1522baec190183beabcef7b1d64d", "fusion_lon": 0.0, "lat": 38.90551, "is_reserved": 0, "type": "electric_scooter", "bike_id": "2f0c1522baec190183beabcef7b1d64d", "is_disabled": 0, "rental_uris": {"android": "https://dc.lft.to/lastmile_qr_scan", "ios": "https://dc.lft.to/lastmile_qr_scan"}, "lon": -77.04665533333333, "fusion_lat": 0.0}, {"name": "8c6f615203c815ab72e5eb054f62ac4e", "fusion_lon": 0.0, "lat": 38.9223545, "is_reserved": 0, "type": "electric_scooter", "bike_id": "8c6f615203c815ab72e5eb054f62ac4e", "is_disabled": 0, "rental_uris": {"android": "https://dc.lft.to/lastmile_qr_scan", "ios": "https://dc.lft.to/lastmile_qr_scan"}, "lon": -77.02332833333334, "fusion_lat": 0.0}, {"name": "6d225636e47308a3f4d30d54c1e67123", "fusion_lon": 0.0, "lat": 38.91434733333333, "is_reserved": 0, "type": "electric_scooter", "bike_id": "6d225636e47308a3f4d30d54c1e67123", "is_disabled": 0, "rental_uris": {"android": "https://dc.lft.to/lastmile_qr_scan", "ios": "https://dc.lft.to/lastmile_qr_scan"}, "lon": -77.04505033333334, "fusion_lat": 0.0}, {"name": "6a4700003eb96710be0ca46e6bb7d873", "fusion_lon": 0.0, "lat": 39.024385, "is_reserved": 0, "type": "electric_bike", "bike_id": "6a4700003eb96710be0ca46e6bb7d873", "is_disabled": 0, "rental_uris": {"android": "https://dc.lft.to/lastmile_qr_scan", "ios": "https://dc.lft.to/lastmile_qr_scan"}, "lon": -77.13099333333334, "fusion_lat": 0.0}, {"name": "0c3bf0997d2e3c3eab0f83829c91b5da", "fusion_lon": 0.0, "lat": 38.88765083333333, "is_reserved": 0, "type": "electric_scooter", "bike_id": "0c3bf0997d2e3c3eab0f83829c91b5da", "is_disabled": 0, "rental_uris": {"android": "https://dc.lft.to/lastmile_qr_scan", "ios": "https://dc.lft.to/lastmile_qr_scan"}, "lon": -76.95600183333333, "fusion_lat": 0.0}, {"name": "53d87cd356b97cf07b2da3c30dc04ecd", "fusion_lon": 0.0, "lat": 38.94786333333333, "is_reserved": 0, "type": "electric_bike", "bike_id": "53d87cd356b97cf07b2da3c30dc04ecd", "is_disabled": 0, "rental_uris": {"android": "https://dc.lft.to/lastmile_qr_scan", "ios": "https://dc.lft.to/lastmile_qr_scan"}, "lon": -76.97213733333334, "fusion_lat": 0.0}, {"name": "1a136a15b6e22d69d56008cac7b22a0e", "fusion_lon": 0.0, "lat": 38.9047585, "is_reserved": 0, "type": "electric_scooter", "bike_id": "1a136a15b6e22d69d56008cac7b22a0e", "is_disabled": 0, "rental_uris": {"android": "https://dc.lft.to/lastmile_qr_scan", "ios": "https://dc.lft.to/lastmile_qr_scan"}, "lon": -77.05333183333333, "fusion_lat": 0.0}, {"name": "b61013ac465538361e9f612985c46961", "fusion_lon": 0.0, "lat": 38.911087, "is_reserved": 0, "type": "electric_scooter", "bike_id": "b61013ac465538361e9f612985c46961", "is_disabled": 0, "rental_uris": {"android": "https://dc.lft.to/lastmile_qr_scan", "ios": "https://dc.lft.to/lastmile_qr_scan"}, "lon": -77.03833033333333, "fusion_lat": 0.0}, {"name": "19f58bcc18fb17ece21793049a7fe674", "fusion_lon": 0.0, "lat": 38.929119, "is_reserved": 0, "type": "electric_scooter", "bike_id": "19f58bcc18fb17ece21793049a7fe674", "is_disabled": 0, "rental_uris": {"android": "https://dc.lft.to/lastmile_qr_scan", "ios": "https://dc.lft.to/lastmile_qr_scan"}, "lon": -77.036244, "fusion_lat": 0.0}, {"name": "31480c90a1829b6990cca3f871d06626", "fusion_lon": 0.0, "lat": 38.90579316666667, "is_reserved": 0, "type": "electric_scooter", "bike_id": "31480c90a1829b6990cca3f871d06626", "is_disabled": 0, "rental_uris": {"android": "https://dc.lft.to/lastmile_qr_scan", "ios": "https://dc.lft.to/lastmile_qr_scan"}, "lon": -77.04466016666667, "fusion_lat": 0.0}, {"name": "758e37b112d8d1b8f448359e4817d284", "fusion_lon": 0.0, "lat": 38.86424983333333, "is_reserved": 0, "type": "electric_scooter", "bike_id": "758e37b112d8d1b8f448359e4817d284", "is_disabled": 0, "rental_uris": {"android": "https://dc.lft.to/lastmile_qr_scan", "ios": "https://dc.lft.to/lastmile_qr_scan"}, "lon": -76.97442983333333, "fusion_lat": 0.0}, {"name": "f2bca60269535afbbf34e5f3a2992ca8", "fusion_lon": 0.0, "lat": 38.902617166666666, "is_reserved": 0, "type": "electric_scooter", "bike_id": "f2bca60269535afbbf34e5f3a2992ca8", "is_disabled": 0, "rental_uris": {"android": "https://dc.lft.to/lastmile_qr_scan", "ios": "https://dc.lft.to/lastmile_qr_scan"}, "lon": -77.0177935, "fusion_lat": 0.0}, {"name": "918de28a61c02671769b9cb02df7e55c", "fusion_lon": 0.0, "lat": 38.952427, "is_reserved": 0, "type": "electric_scooter", "bike_id": "918de28a61c02671769b9cb02df7e55c", "is_disabled": 0, "rental_uris": {"android": "https://dc.lft.to/lastmile_qr_scan", "ios": "https://dc.lft.to/lastmile_qr_scan"}, "lon": -77.00216883333333, "fusion_lat": 0.0}, {"name": "e609c0f0ed1ef2532cf9e9598f6bdd04", "fusion_lon": 0.0, "lat": 38.8962555, "is_reserved": 0, "type": "electric_scooter", "bike_id": "e609c0f0ed1ef2532cf9e9598f6bdd04", "is_disabled": 0, "rental_uris": {"android": "https://dc.lft.to/lastmile_qr_scan", "ios": "https://dc.lft.to/lastmile_qr_scan"}, "lon": -77.01598583333333, "fusion_lat": 0.0}, {"name": "b41d3fc9fb38da008438f146431bd996", "fusion_lon": 0.0, "lat": 38.9000805, "is_reserved": 0, "type": "electric_scooter", "bike_id": "b41d3fc9fb38da008438f146431bd996", "is_disabled": 0, "rental_uris": {"android": "https://dc.lft.to/lastmile_qr_scan", "ios": "https://dc.lft.to/lastmile_qr_scan"}, "lon": -76.99637799999999, "fusion_lat": 0.0}, {"name": "e06b6752dff7cd110d5c585682c82e6b", "fusion_lon": 0.0, "lat": 38.896299, "is_reserved": 0, "type": "electric_scooter", "bike_id": "e06b6752dff7cd110d5c585682c82e6b", "is_disabled": 0, "rental_uris": {"android": "https://dc.lft.to/lastmile_qr_scan", "ios": "https://dc.lft.to/lastmile_qr_scan"}, "lon": -77.02206616666666, "fusion_lat": 0.0}, {"name": "04a18b2f4b33c60bc932cc421c3d937d", "fusion_lon": 0.0, "lat": 38.9101305, "is_reserved": 0, "type": "electric_scooter", "bike_id": "04a18b2f4b33c60bc932cc421c3d937d", "is_disabled": 0, "rental_uris": {"android": "https://dc.lft.to/lastmile_qr_scan", "ios": "https://dc.lft.to/lastmile_qr_scan"}, "lon": -77.05271483333334, "fusion_lat": 0.0}, {"name": "c0b5b324844a080c7262b852a91150e9", "fusion_lon": 0.0, "lat": 38.8971205, "is_reserved": 0, "type": "electric_scooter", "bike_id": "c0b5b324844a080c7262b852a91150e9", "is_disabled": 0, "rental_uris": {"android": "https://dc.lft.to/lastmile_qr_scan", "ios": "https://dc.lft.to/lastmile_qr_scan"}, "lon": -77.02136466666667, "fusion_lat": 0.0}, {"name": "7c149a7eb0448b88d98a99518e2eb564", "fusion_lon": 0.0, "lat": 38.874809166666665, "is_reserved": 0, "type": "electric_bike", "bike_id": "7c149a7eb0448b88d98a99518e2eb564", "is_disabled": 0, "rental_uris": {"android": "https://dc.lft.to/lastmile_qr_scan", "ios": "https://dc.lft.to/lastmile_qr_scan"}, "lon": -76.96530833333334, "fusion_lat": 0.0}, {"name": "18ca774660d93a084a10202b80208457", "fusion_lon": 0.0, "lat": 38.904134, "is_reserved": 0, "type": "electric_scooter", "bike_id": "18ca774660d93a084a10202b80208457", "is_disabled": 0, "rental_uris": {"android": "https://dc.lft.to/lastmile_qr_scan", "ios": "https://dc.lft.to/lastmile_qr_scan"}, "lon": -77.0467295, "fusion_lat": 0.0}, {"name": "1070a0ee4af4df79c45837ed7b47dea5", "fusion_lon": 0.0, "lat": 38.934459333333336, "is_reserved": 0, "type": "electric_scooter", "bike_id": "1070a0ee4af4df79c45837ed7b47dea5", "is_disabled": 0, "rental_uris": {"android": "https://dc.lft.to/lastmile_qr_scan", "ios": "https://dc.lft.to/lastmile_qr_scan"}, "lon": -77.03281433333333, "fusion_lat": 0.0}, {"name": "19fb24138609db5ad2804fcac6c9d8b3", "fusion_lon": 0.0, "lat": 38.87359883333333, "is_reserved": 0, "type": "electric_scooter", "bike_id": "19fb24138609db5ad2804fcac6c9d8b3", "is_disabled": 0, "rental_uris": {"android": "https://dc.lft.to/lastmile_qr_scan", "ios": "https://dc.lft.to/lastmile_qr_scan"}, "lon": -77.005851, "fusion_lat": 0.0}, {"name": "a7aefe93d0862ace75fa41e27ac15596", "fusion_lon": 0.0, "lat": 38.9170325, "is_reserved": 0, "type": "electric_scooter", "bike_id": "a7aefe93d0862ace75fa41e27ac15596", "is_disabled": 0, "rental_uris": {"android": "https://dc.lft.to/lastmile_qr_scan", "ios": "https://dc.lft.to/lastmile_qr_scan"}, "lon": -77.01337016666666, "fusion_lat": 0.0}, {"name": "4a3cceb2978bb61ee26f6dfa0b7b4873", "fusion_lon": 0.0, "lat": 38.896168333333335, "is_reserved": 0, "type": "electric_scooter", "bike_id": "4a3cceb2978bb61ee26f6dfa0b7b4873", "is_disabled": 0, "rental_uris": {"android": "https://dc.lft.to/lastmile_qr_scan", "ios": "https://dc.lft.to/lastmile_qr_scan"}, "lon": -76.98117466666666, "fusion_lat": 0.0}, {"name": "057c2da4e443348763b5f756536649a6", "fusion_lon": 0.0, "lat": 38.91292466666667, "is_reserved": 0, "type": "electric_scooter", "bike_id": "057c2da4e443348763b5f756536649a6", "is_disabled": 0, "rental_uris": {"android": "https://dc.lft.to/lastmile_qr_scan", "ios": "https://dc.lft.to/lastmile_qr_scan"}, "lon": -77.02386283333334, "fusion_lat": 0.0}, {"name": "19258bf992c8e8785d681861fd8cef15", "fusion_lon": 0.0, "lat": 38.92508933333333, "is_reserved": 0, "type": "electric_scooter", "bike_id": "19258bf992c8e8785d681861fd8cef15", "is_disabled": 0, "rental_uris": {"android": "https://dc.lft.to/lastmile_qr_scan", "ios": "https://dc.lft.to/lastmile_qr_scan"}, "lon": -77.02279083333333, "fusion_lat": 0.0}, {"name": "ed0bbce949bf93000f785edcddd89409", "fusion_lon": 0.0, "lat": 38.917929666666666, "is_reserved": 0, "type": "electric_scooter", "bike_id": "ed0bbce949bf93000f785edcddd89409", "is_disabled": 0, "rental_uris": {"android": "https://dc.lft.to/lastmile_qr_scan", "ios": "https://dc.lft.to/lastmile_qr_scan"}, "lon": -77.0421765, "fusion_lat": 0.0}, {"name": "bf8b6c8ea105463642b3f977ec442189", "fusion_lon": 0.0, "lat": 38.93969216666667, "is_reserved": 0, "type": "electric_scooter", "bike_id": "bf8b6c8ea105463642b3f977ec442189", "is_disabled": 0, "rental_uris": {"android": "https://dc.lft.to/lastmile_qr_scan", "ios": "https://dc.lft.to/lastmile_qr_scan"}, "lon": -77.0274695, "fusion_lat": 0.0}, {"name": "49178876982856999efd44404dbc1bfa", "fusion_lon": 0.0, "lat": 38.886017833333334, "is_reserved": 0, "type": "electric_scooter", "bike_id": "49178876982856999efd44404dbc1bfa", "is_disabled": 0, "rental_uris": {"android": "https://dc.lft.to/lastmile_qr_scan", "ios": "https://dc.lft.to/lastmile_qr_scan"}, "lon": -76.996229, "fusion_lat": 0.0}, {"name": "eac451b1d5c64e6891de2dce267c394e", "fusion_lon": 0.0, "lat": 38.892245, "is_reserved": 0, "type": "electric_scooter", "bike_id": "eac451b1d5c64e6891de2dce267c394e", "is_disabled": 0, "rental_uris": {"android": "https://dc.lft.to/lastmile_qr_scan", "ios": "https://dc.lft.to/lastmile_qr_scan"}, "lon": -77.042649, "fusion_lat": 0.0}, {"name": "b35c389bfb74f48eee2a480d1bce1ab1", "fusion_lon": 0.0, "lat": 38.91208533333333, "is_reserved": 0, "type": "electric_scooter", "bike_id": "b35c389bfb74f48eee2a480d1bce1ab1", "is_disabled": 0, "rental_uris": {"android": "https://dc.lft.to/lastmile_qr_scan", "ios": "https://dc.lft.to/lastmile_qr_scan"}, "lon": -77.04522166666666, "fusion_lat": 0.0}, {"name": "6d9ea0854b7bf6f757bf3fad7293cf50", "fusion_lon": 0.0, "lat": 38.94432916666667, "is_reserved": 0, "type": "electric_scooter", "bike_id": "6d9ea0854b7bf6f757bf3fad7293cf50", "is_disabled": 0, "rental_uris": {"android": "https://dc.lft.to/lastmile_qr_scan", "ios": "https://dc.lft.to/lastmile_qr_scan"}, "lon": -77.06349883333333, "fusion_lat": 0.0}, {"name": "34b3f57aa2335520b2273a5b77a348f0", "fusion_lon": 0.0, "lat": 38.917384, "is_reserved": 0, "type": "electric_scooter", "bike_id": "34b3f57aa2335520b2273a5b77a348f0", "is_disabled": 0, "rental_uris": {"android": "https://dc.lft.to/lastmile_qr_scan", "ios": "https://dc.lft.to/lastmile_qr_scan"}, "lon": -77.0364605, "fusion_lat": 0.0}, {"name": "e4aa7a3b413b333e735636f0ba786e0e", "fusion_lon": 0.0, "lat": 38.8780765, "is_reserved": 0, "type": "electric_scooter", "bike_id": "e4aa7a3b413b333e735636f0ba786e0e", "is_disabled": 0, "rental_uris": {"android": "https://dc.lft.to/lastmile_qr_scan", "ios": "https://dc.lft.to/lastmile_qr_scan"}, "lon": -76.93092633333333, "fusion_lat": 0.0}, {"name": "5a3d79d4bc7da46c1d91d905135ddafa", "fusion_lon": 0.0, "lat": 38.919254, "is_reserved": 0, "type": "electric_scooter", "bike_id": "5a3d79d4bc7da46c1d91d905135ddafa", "is_disabled": 0, "rental_uris": {"android": "https://dc.lft.to/lastmile_qr_scan", "ios": "https://dc.lft.to/lastmile_qr_scan"}, "lon": -77.025762, "fusion_lat": 0.0}, {"name": "b6943880b29055bca6eabed88896aa37", "fusion_lon": 0.0, "lat": 38.931031833333336, "is_reserved": 0, "type": "electric_scooter", "bike_id": "b6943880b29055bca6eabed88896aa37", "is_disabled": 0, "rental_uris": {"android": "https://dc.lft.to/lastmile_qr_scan", "ios": "https://dc.lft.to/lastmile_qr_scan"}, "lon": -77.02664566666667, "fusion_lat": 0.0}, {"name": "09fdcd6bdbf6ca90ec259c79c9f45c9d", "fusion_lon": 0.0, "lat": 38.925955, "is_reserved": 0, "type": "electric_scooter", "bike_id": "09fdcd6bdbf6ca90ec259c79c9f45c9d", "is_disabled": 0, "rental_uris": {"android": "https://dc.lft.to/lastmile_qr_scan", "ios": "https://dc.lft.to/lastmile_qr_scan"}, "lon": -77.04412216666667, "fusion_lat": 0.0}, {"name": "e26ed0dbbe69a4cda78439c030182bca", "fusion_lon": 0.0, "lat": 38.919260333333334, "is_reserved": 0, "type": "electric_scooter", "bike_id": "e26ed0dbbe69a4cda78439c030182bca", "is_disabled": 0, "rental_uris": {"android": "https://dc.lft.to/lastmile_qr_scan", "ios": "https://dc.lft.to/lastmile_qr_scan"}, "lon": -77.04558, "fusion_lat": 0.0}, {"name": "1fe5703eeb10b30e18bed805ab7295bb", "fusion_lon": 0.0, "lat": 38.9056925, "is_reserved": 0, "type": "electric_scooter", "bike_id": "1fe5703eeb10b30e18bed805ab7295bb", "is_disabled": 0, "rental_uris": {"android": "https://dc.lft.to/lastmile_qr_scan", "ios": "https://dc.lft.to/lastmile_qr_scan"}, "lon": -77.005854, "fusion_lat": 0.0}, {"name": "71232cc00a06208af0fec9692d9e4585", "fusion_lon": 0.0, "lat": 38.904237, "is_reserved": 0, "type": "electric_scooter", "bike_id": "71232cc00a06208af0fec9692d9e4585", "is_disabled": 0, "rental_uris": {"android": "https://dc.lft.to/lastmile_qr_scan", "ios": "https://dc.lft.to/lastmile_qr_scan"}, "lon": -77.03251466666667, "fusion_lat": 0.0}, {"name": "b7b85c33d218acdf0e4de0f28bbd5415", "fusion_lon": 0.0, "lat": 38.91414866666667, "is_reserved": 0, "type": "electric_scooter", "bike_id": "b7b85c33d218acdf0e4de0f28bbd5415", "is_disabled": 0, "rental_uris": {"android": "https://dc.lft.to/lastmile_qr_scan", "ios": "https://dc.lft.to/lastmile_qr_scan"}, "lon": -77.0436975, "fusion_lat": 0.0}, {"name": "d10b452dc3e80565de03db734c62c7ab", "fusion_lon": 0.0, "lat": 38.941638833333336, "is_reserved": 0, "type": "electric_bike", "bike_id": "d10b452dc3e80565de03db734c62c7ab", "is_disabled": 0, "rental_uris": {"android": "https://dc.lft.to/lastmile_qr_scan", "ios": "https://dc.lft.to/lastmile_qr_scan"}, "lon": -77.00205933333334, "fusion_lat": 0.0}, {"name": "8f448110ff52991ac359b8c75c141d1b", "fusion_lon": 0.0, "lat": 38.9192245, "is_reserved": 0, "type": "electric_scooter", "bike_id": "8f448110ff52991ac359b8c75c141d1b", "is_disabled": 0, "rental_uris": {"android": "https://dc.lft.to/lastmile_qr_scan", "ios": "https://dc.lft.to/lastmile_qr_scan"}, "lon": -77.03260016666667, "fusion_lat": 0.0}, {"name": "89f2b79bd6b1e70dc77d211d83f0ab02", "fusion_lon": 0.0, "lat": 38.8922635, "is_reserved": 0, "type": "electric_scooter", "bike_id": "89f2b79bd6b1e70dc77d211d83f0ab02", "is_disabled": 0, "rental_uris": {"android": "https://dc.lft.to/lastmile_qr_scan", "ios": "https://dc.lft.to/lastmile_qr_scan"}, "lon": -77.022273, "fusion_lat": 0.0}, {"name": "dbff32e59f25101ff52bf1ddf89a78b0", "fusion_lon": 0.0, "lat": 38.908333999999996, "is_reserved": 0, "type": "electric_bike", "bike_id": "dbff32e59f25101ff52bf1ddf89a78b0", "is_disabled": 0, "rental_uris": {"android": "https://dc.lft.to/lastmile_qr_scan", "ios": "https://dc.lft.to/lastmile_qr_scan"}, "lon": -76.94158083333333, "fusion_lat": 0.0}, {"name": "ed922cd9b27b75cef45cdbd9210113f2", "fusion_lon": 0.0, "lat": 38.917280833333336, "is_reserved": 0, "type": "electric_scooter", "bike_id": "ed922cd9b27b75cef45cdbd9210113f2", "is_disabled": 0, "rental_uris": {"android": "https://dc.lft.to/lastmile_qr_scan", "ios": "https://dc.lft.to/lastmile_qr_scan"}, "lon": -77.0251155, "fusion_lat": 0.0}, {"name": "842a16ad33664c75868fc353e3e8ba7c", "fusion_lon": 0.0, "lat": 38.907278, "is_reserved": 0, "type": "electric_scooter", "bike_id": "842a16ad33664c75868fc353e3e8ba7c", "is_disabled": 0, "rental_uris": {"android": "https://dc.lft.to/lastmile_qr_scan", "ios": "https://dc.lft.to/lastmile_qr_scan"}, "lon": -77.01481033333333, "fusion_lat": 0.0}, {"name": "2e8dcfa999ca6a3134037db2c51a400f", "fusion_lon": 0.0, "lat": 38.928681166666664, "is_reserved": 0, "type": "electric_scooter", "bike_id": "2e8dcfa999ca6a3134037db2c51a400f", "is_disabled": 0, "rental_uris": {"android": "https://dc.lft.to/lastmile_qr_scan", "ios": "https://dc.lft.to/lastmile_qr_scan"}, "lon": -77.03294083333333, "fusion_lat": 0.0}, {"name": "86128b13759cf414dd158b7db837e879", "fusion_lon": 0.0, "lat": 38.90648983333333, "is_reserved": 0, "type": "electric_scooter", "bike_id": "86128b13759cf414dd158b7db837e879", "is_disabled": 0, "rental_uris": {"android": "https://dc.lft.to/lastmile_qr_scan", "ios": "https://dc.lft.to/lastmile_qr_scan"}, "lon": -77.05316616666667, "fusion_lat": 0.0}, {"name": "c84d15506e56f2feb5c91ff9e0c512ff", "fusion_lon": 0.0, "lat": 38.89225016666666, "is_reserved": 0, "type": "electric_scooter", "bike_id": "c84d15506e56f2feb5c91ff9e0c512ff", "is_disabled": 0, "rental_uris": {"android": "https://dc.lft.to/lastmile_qr_scan", "ios": "https://dc.lft.to/lastmile_qr_scan"}, "lon": -77.03339933333334, "fusion_lat": 0.0}, {"name": "217cbee4a25555e8afc2829f27d52e32", "fusion_lon": 0.0, "lat": 38.92116166666667, "is_reserved": 0, "type": "electric_scooter", "bike_id": "217cbee4a25555e8afc2829f27d52e32", "is_disabled": 0, "rental_uris": {"android": "https://dc.lft.to/lastmile_qr_scan", "ios": "https://dc.lft.to/lastmile_qr_scan"}, "lon": -77.03184983333334, "fusion_lat": 0.0}, {"name": "d78b0b6b7bddcd4edde667ddb59837b2", "fusion_lon": 0.0, "lat": 38.90054883333333, "is_reserved": 0, "type": "electric_scooter", "bike_id": "d78b0b6b7bddcd4edde667ddb59837b2", "is_disabled": 0, "rental_uris": {"android": "https://dc.lft.to/lastmile_qr_scan", "ios": "https://dc.lft.to/lastmile_qr_scan"}, "lon": -77.0482515, "fusion_lat": 0.0}, {"name": "f2dbd2a4323916c53611d14fd6bdf21d", "fusion_lon": 0.0, "lat": 38.88508983333333, "is_reserved": 0, "type": "electric_scooter", "bike_id": "f2dbd2a4323916c53611d14fd6bdf21d", "is_disabled": 0, "rental_uris": {"android": "https://dc.lft.to/lastmile_qr_scan", "ios": "https://dc.lft.to/lastmile_qr_scan"}, "lon": -76.9771045, "fusion_lat": 0.0}, {"name": "34d91886ada2e8929ebd3391faf94234", "fusion_lon": 0.0, "lat": 38.923252, "is_reserved": 0, "type": "electric_scooter", "bike_id": "34d91886ada2e8929ebd3391faf94234", "is_disabled": 0, "rental_uris": {"android": "https://dc.lft.to/lastmile_qr_scan", "ios": "https://dc.lft.to/lastmile_qr_scan"}, "lon": -77.035677, "fusion_lat": 0.0}, {"name": "a7a3529d7f02f2c4d762d28ec0997ab2", "fusion_lon": 0.0, "lat": 38.90266283333333, "is_reserved": 0, "type": "electric_scooter", "bike_id": "a7a3529d7f02f2c4d762d28ec0997ab2", "is_disabled": 0, "rental_uris": {"android": "https://dc.lft.to/lastmile_qr_scan", "ios": "https://dc.lft.to/lastmile_qr_scan"}, "lon": -77.03394983333334, "fusion_lat": 0.0}, {"name": "d7eb2e7ebddb131767f42e260c267585", "fusion_lon": 0.0, "lat": 38.91503083333333, "is_reserved": 0, "type": "electric_scooter", "bike_id": "d7eb2e7ebddb131767f42e260c267585", "is_disabled": 0, "rental_uris": {"android": "https://dc.lft.to/lastmile_qr_scan", "ios": "https://dc.lft.to/lastmile_qr_scan"}, "lon": -77.03211933333333, "fusion_lat": 0.0}, {"name": "0fc337b640481f1d4373f612508558f5", "fusion_lon": 0.0, "lat": 38.917248, "is_reserved": 0, "type": "electric_scooter", "bike_id": "0fc337b640481f1d4373f612508558f5", "is_disabled": 0, "rental_uris": {"android": "https://dc.lft.to/lastmile_qr_scan", "ios": "https://dc.lft.to/lastmile_qr_scan"}, "lon": -77.03206733333333, "fusion_lat": 0.0}, {"name": "29d93b755510954d4533561b4bfd0659", "fusion_lon": 0.0, "lat": 38.867022166666665, "is_reserved": 0, "type": "electric_scooter", "bike_id": "29d93b755510954d4533561b4bfd0659", "is_disabled": 0, "rental_uris": {"android": "https://dc.lft.to/lastmile_qr_scan", "ios": "https://dc.lft.to/lastmile_qr_scan"}, "lon": -76.98717416666666, "fusion_lat": 0.0}, {"name": "393bf5c55edf5f757b7bb45773e219c7", "fusion_lon": 0.0, "lat": 38.911418, "is_reserved": 0, "type": "electric_scooter", "bike_id": "393bf5c55edf5f757b7bb45773e219c7", "is_disabled": 0, "rental_uris": {"android": "https://dc.lft.to/lastmile_qr_scan", "ios": "https://dc.lft.to/lastmile_qr_scan"}, "lon": -77.028148, "fusion_lat": 0.0}, {"name": "89f154ebc6ebe866cc840d8079f0f41a", "fusion_lon": 0.0, "lat": 38.901824166666664, "is_reserved": 0, "type": "electric_scooter", "bike_id": "89f154ebc6ebe866cc840d8079f0f41a", "is_disabled": 0, "rental_uris": {"android": "https://dc.lft.to/lastmile_qr_scan", "ios": "https://dc.lft.to/lastmile_qr_scan"}, "lon": -77.0161545, "fusion_lat": 0.0}, {"name": "2d692525070b880c2e6bc8e0fdf133fe", "fusion_lon": 0.0, "lat": 38.92245916666667, "is_reserved": 0, "type": "electric_scooter", "bike_id": "2d692525070b880c2e6bc8e0fdf133fe", "is_disabled": 0, "rental_uris": {"android": "https://dc.lft.to/lastmile_qr_scan", "ios": "https://dc.lft.to/lastmile_qr_scan"}, "lon": -77.039116, "fusion_lat": 0.0}, {"name": "fe8e15587edad012022d101f01e91258", "fusion_lon": 0.0, "lat": 38.910275, "is_reserved": 0, "type": "electric_scooter", "bike_id": "fe8e15587edad012022d101f01e91258", "is_disabled": 0, "rental_uris": {"android": "https://dc.lft.to/lastmile_qr_scan", "ios": "https://dc.lft.to/lastmile_qr_scan"}, "lon": -77.00758133333333, "fusion_lat": 0.0}, {"name": "364bf7227f63068293b2b4f253586a99", "fusion_lon": 0.0, "lat": 38.895649, "is_reserved": 0, "type": "electric_bike", "bike_id": "364bf7227f63068293b2b4f253586a99", "is_disabled": 0, "rental_uris": {"android": "https://dc.lft.to/lastmile_qr_scan", "ios": "https://dc.lft.to/lastmile_qr_scan"}, "lon": -77.127291, "fusion_lat": 0.0}, {"name": "8d48fce630bcccc020352d10c9b17a30", "fusion_lon": 0.0, "lat": 38.89761466666667, "is_reserved": 0, "type": "electric_scooter", "bike_id": "8d48fce630bcccc020352d10c9b17a30", "is_disabled": 0, "rental_uris": {"android": "https://dc.lft.to/lastmile_qr_scan", "ios": "https://dc.lft.to/lastmile_qr_scan"}, "lon": -77.02708633333333, "fusion_lat": 0.0}, {"name": "aff08ebd138cec6b8fd4c941c03cf728", "fusion_lon": 0.0, "lat": 38.8995635, "is_reserved": 0, "type": "electric_scooter", "bike_id": "aff08ebd138cec6b8fd4c941c03cf728", "is_disabled": 0, "rental_uris": {"android": "https://dc.lft.to/lastmile_qr_scan", "ios": "https://dc.lft.to/lastmile_qr_scan"}, "lon": -77.02191133333334, "fusion_lat": 0.0}, {"name": "890857f60a229a3bcbe9aeeacf31f028", "fusion_lon": 0.0, "lat": 38.9189745, "is_reserved": 0, "type": "electric_scooter", "bike_id": "890857f60a229a3bcbe9aeeacf31f028", "is_disabled": 0, "rental_uris": {"android": "https://dc.lft.to/lastmile_qr_scan", "ios": "https://dc.lft.to/lastmile_qr_scan"}, "lon": -77.02298, "fusion_lat": 0.0}, {"name": "7c7c41256ea649295a8cd87c35e6a96a", "fusion_lon": 0.0, "lat": 38.900641, "is_reserved": 0, "type": "electric_scooter", "bike_id": "7c7c41256ea649295a8cd87c35e6a96a", "is_disabled": 0, "rental_uris": {"android": "https://dc.lft.to/lastmile_qr_scan", "ios": "https://dc.lft.to/lastmile_qr_scan"}, "lon": -76.987108, "fusion_lat": 0.0}, {"name": "d44a342672d28ac8c15af5e56001b2c7", "fusion_lon": 0.0, "lat": 38.91790616666667, "is_reserved": 0, "type": "electric_scooter", "bike_id": "d44a342672d28ac8c15af5e56001b2c7", "is_disabled": 0, "rental_uris": {"android": "https://dc.lft.to/lastmile_qr_scan", "ios": "https://dc.lft.to/lastmile_qr_scan"}, "lon": -77.04214083333333, "fusion_lat": 0.0}, {"name": "b765cbdd90b38d0a9d99339f582bbff7", "fusion_lon": 0.0, "lat": 38.9208675, "is_reserved": 0, "type": "electric_scooter", "bike_id": "b765cbdd90b38d0a9d99339f582bbff7", "is_disabled": 0, "rental_uris": {"android": "https://dc.lft.to/lastmile_qr_scan", "ios": "https://dc.lft.to/lastmile_qr_scan"}, "lon": -77.02289933333333, "fusion_lat": 0.0}, {"name": "7b38d270649950316158d6c4f133b9e9", "fusion_lon": 0.0, "lat": 38.90606733333333, "is_reserved": 0, "type": "electric_scooter", "bike_id": "7b38d270649950316158d6c4f133b9e9", "is_disabled": 0, "rental_uris": {"android": "https://dc.lft.to/lastmile_qr_scan", "ios": "https://dc.lft.to/lastmile_qr_scan"}, "lon": -77.065297, "fusion_lat": 0.0}, {"name": "bb7e2c92fdff924280926bf827e873fc", "fusion_lon": 0.0, "lat": 38.906628166666664, "is_reserved": 0, "type": "electric_scooter", "bike_id": "bb7e2c92fdff924280926bf827e873fc", "is_disabled": 0, "rental_uris": {"android": "https://dc.lft.to/lastmile_qr_scan", "ios": "https://dc.lft.to/lastmile_qr_scan"}, "lon": -77.03870216666667, "fusion_lat": 0.0},