{"data": {"bikes": [{"lat": 38.87210066666667, "fusion_lat": 0.0, "type": "electric_scooter", "name": "3db1e9ccf6d5a859b11e1cc7229535d5", "is_disabled": 0, "bike_id": "3db1e9ccf6d5a859b11e1cc7229535d5", "lon": -77.01236116666666, "rental_uris": {"android": "https://dc.lft.to/lastmile_qr_scan", "ios": "https://dc.lft.to/lastmile_qr_scan"}, "fusion_lon": 0.0, "is_reserved": 0}, {"lat": 38.92864266666667, "fusion_lat": 0.0, "type": "electric_scooter", "name": "571c9b1b4926f11a08d233c40ffc915b", "is_disabled": 0, "bike_id": "571c9b1b4926f11a08d233c40ffc915b", "lon": -77.03320233333334, "rental_uris": {"android": "https://dc.lft.to/lastmile_qr_scan", "ios": "https://dc.lft.to/lastmile_qr_scan"}, "fusion_lon": 0.0, "is_reserved": 0}, {"lat": 38.91189116666666, "fusion_lat": 0.0, "type": "electric_scooter", "name": "aeba8935e76cdc02d378d4b9fb28c49a", "is_disabled": 0, "bike_id": "aeba8935e76cdc02d378d4b9fb28c49a", "lon": -77.00706183333334, "rental_uris": {"android": "https://dc.lft.to/lastmile_qr_scan", "ios": "https://dc.lft.to/lastmile_qr_scan"}, "fusion_lon": 0.0, "is_reserved": 0}, {"lat": 38.92147666666666, "fusion_lat": 0.0, "type": "electric_scooter", "name": "6b10794af06652c3d7b8baf967af2d67", "is_disabled": 0, "bike_id": "6b10794af06652c3d7b8baf967af2d67", "lon": -77.034398, "rental_uris": {"android": "https://dc.lft.to/lastmile_qr_scan", "ios": "https://dc.lft.to/lastmile_qr_scan"}, "fusion_lon": 0.0, "is_reserved": 0}, {"lat": 38.910062833333335, "fusion_lat": 0.0, "type": "electric_scooter", "name": "f85a4abd02726e437a1a4ba62252d48d", "is_disabled": 0, "bike_id": "f85a4abd02726e437a1a4ba62252d48d", "lon": -77.0365485, "rental_uris": {"android": "https://dc.lft.to/lastmile_qr_scan", "ios": "https://dc.lft.to/lastmile_qr_scan"}, "fusion_lon": 0.0, "is_reserved": 0}, {"lat": 38.90419033333333, "fusion_lat": 0.0, "type": "electric_scooter", "name": "f6d7fcd37201d66973a0bc3cc2990eb0", "is_disabled": 0, "bike_id": "f6d7fcd37201d66973a0bc3cc2990eb0", "lon": -77.0434785, "rental_uris": {"android": "https://dc.lft.to/lastmile_qr_scan", "ios": "https://dc.lft.to/lastmile_qr_scan"}, "fusion_lon": 0.0, "is_reserved": 0}, {"lat": 38.9225245, "fusion_lat": 0.0, "type": "electric_scooter", "name": "8c353b340e16b7b204412a669ec512dc", "is_disabled": 0, "bike_id": "8c353b340e16b7b204412a669ec512dc", "lon": -77.03892333333333, "rental_uris": {"android": "https://dc.lft.to/lastmile_qr_scan", "ios": "https://dc.lft.to/lastmile_qr_scan"}, "fusion_lon": 0.0, "is_reserved": 0}, {"lat": 38.90364433333333, "fusion_lat": 0.0, "type": "electric_scooter", "name": "ca72eb347ae78fc6dabfdda3129a60ca", "is_disabled": 0, "bike_id": "ca72eb347ae78fc6dabfdda3129a60ca", "lon": -77.04329783333333, "rental_uris": {"android": "https://dc.lft.to/lastmile_qr_scan", "ios": "https://dc.lft.to/lastmile_qr_scan"}, "fusion_lon": 0.0, "is_reserved": 0}, {"lat": 38.9243875, "fusion_lat": 0.0, "type": "electric_scooter", "name": "86e53952c77ce9eefddf1364af228526", "is_disabled": 0, "bike_id": "86e53952c77ce9eefddf1364af228526", "lon": -77.03995566666667, "rental_uris": {"android": "https://dc.lft.to/lastmile_qr_scan", "ios": "https://dc.lft.to/lastmile_qr_scan"}, "fusion_lon": 0.0, "is_reserved": 0}, {"lat": 38.9328315, "fusion_lat": 0.0, "type": "electric_scooter", "name": "a45d4b4fa75a51ee235a0e5c43fe42a8", "is_disabled": 0, "bike_id": "a45d4b4fa75a51ee235a0e5c43fe42a8", "lon": -76.9862465, "rental_uris": {"android": "https://dc.lft.to/lastmile_qr_scan", "ios": "https://dc.lft.to/lastmile_qr_scan"}, "fusion_lon": 0.0, "is_reserved": 0}, {"lat": 38.98461733333333, "fusion_lat": 0.0, "type": "electric_bike", "name": "935ec594809847ad288a32d61701f43f", "is_disabled": 0, "bike_id": "935ec594809847ad288a32d61701f43f", "lon": -76.97051083333334, "rental_uris": {"android": "https://dc.lft.to/lastmile_qr_scan", "ios": "https://dc.lft.to/lastmile_qr_scan"}, "fusion_lon": 0.0, "is_reserved": 0}, {"lat": 38.926022333333336, "fusion_lat": 0.0, "type": "electric_scooter", "name": "d78858c580b56e019710e6aa15013ddf", "is_disabled": 0, "bike_id": "d78858c580b56e019710e6aa15013ddf", "lon": -77.0373405, "rental_uris": {"android": "https://dc.lft.to/lastmile_qr_scan", "ios": "https://dc.lft.to/lastmile_qr_scan"}, "fusion_lon": 0.0, "is_reserved": 0}, {"lat": 38.8868165, "fusion_lat": 0.0, "type": "electric_scooter", "name": "660088f0fc138a30d025fc4289fffb2e", "is_disabled": 0, "bike_id": "660088f0fc138a30d025fc4289fffb2e", "lon": -77.00071233333334, "rental_uris": {"android": "https://dc.lft.to/lastmile_qr_scan", "ios": "https://dc.lft.to/lastmile_qr_scan"}, "fusion_lon": 0.0, "is_reserved": 0}, {"lat": 38.8852685, "fusion_lat": 0.0, "type": "electric_scooter", "name": "4c4171cc197a8630d474e17e3d452a0d", "is_disabled": 0, "bike_id": "4c4171cc197a8630d474e17e3d452a0d", "lon": -76.99144966666667, "rental_uris": {"android": "https://dc.lft.to/lastmile_qr_scan", "ios": "https://dc.lft.to/lastmile_qr_scan"}, "fusion_lon": 0.0, "is_reserved": 0}, {"lat": 38.91809833333333, "fusion_lat": 0.0, "type": "electric_scooter", "name": "f5df460e930f9b09f347d860c04577a6", "is_disabled": 0, "bike_id": "f5df460e930f9b09f347d860c04577a6", "lon": -77.046288, "rental_uris": {"android": "https://dc.lft.to/lastmile_qr_scan", "ios": "https://dc.lft.to/lastmile_qr_scan"}, "fusion_lon": 0.0, "is_reserved": 0}, {"lat": 38.92846216666667, "fusion_lat": 0.0, "type": "electric_scooter", "name": "431c91153cb8fa08dce3c091abeeacd7", "is_disabled": 0, "bike_id": "431c91153cb8fa08dce3c091abeeacd7", "lon": -77.032606, "rental_uris": {"android": "https://dc.lft.to/lastmile_qr_scan", "ios": "https://dc.lft.to/lastmile_qr_scan"}, "fusion_lon": 0.0, "is_reserved": 0}, {"lat": 38.8767235, "fusion_lat": 0.0, "type": "electric_scooter", "name": "046cf42ede32d4a49bcaf51057d9f767", "is_disabled": 0, "bike_id": "046cf42ede32d4a49bcaf51057d9f767", "lon": -77.0089585, "rental_uris": {"android": "https://dc.lft.to/lastmile_qr_scan", "ios": "https://dc.lft.to/lastmile_qr_scan"}, "fusion_lon": 0.0, "is_reserved": 0}, {"lat": 38.87865583333333, "fusion_lat": 0.0, "type": "electric_scooter", "name": "caae64cb1b2c2f7b2c91acc8d6215766", "is_disabled": 0, "bike_id": "caae64cb1b2c2f7b2c91acc8d6215766", "lon": -76.96982066666666, "rental_uris": {"android": "https://dc.lft.to/lastmile_qr_scan", "ios": "https://dc.lft.to/lastmile_qr_scan"}, "fusion_lon": 0.0, "is_reserved": 0}, {"lat": 38.919136333333334, "fusion_lat": 0.0, "type": "electric_scooter", "name": "844d48e00872fc627be0ddb0ecd61850", "is_disabled": 0, "bike_id": "844d48e00872fc627be0ddb0ecd61850", "lon": -77.034252, "rental_uris": {"android": "https://dc.lft.to/lastmile_qr_scan", "ios": "https://dc.lft.to/lastmile_qr_scan"}, "fusion_lon": 0.0, "is_reserved": 0}, {"lat": 38.90042016666666, "fusion_lat": 0.0, "type": "electric_scooter", "name": "c91c5179d1223240b0ea670099ec1d84", "is_disabled": 0, "bike_id": "c91c5179d1223240b0ea670099ec1d84", "lon": -77.03187133333333, "rental_uris": {"android": "https://dc.lft.to/lastmile_qr_scan", "ios": "https://dc.lft.to/lastmile_qr_scan"}, "fusion_lon": 0.0, "is_reserved": 0}, {"lat": 38.9192155, "fusion_lat": 0.0, "type": "electric_scooter", "name": "44222057f5538afffd48e94ad8b62448", "is_disabled": 0, "bike_id": "44222057f5538afffd48e94ad8b62448", "lon": -77.00307433333333, "rental_uris": {"android": "https://dc.lft.to/lastmile_qr_scan", "ios": "https://dc.lft.to/lastmile_qr_scan"}, "fusion_lon": 0.0, "is_reserved": 0}, {"lat": 38.892223333333334, "fusion_lat": 0.0, "type": "electric_scooter", "name": "910641678b8789c506798eef3e4bcc84", "is_disabled": 0, "bike_id": "910641678b8789c506798eef3e4bcc84", "lon": -77.04693933333333, "rental_uris": {"android": "https://dc.lft.to/lastmile_qr_scan", "ios": "https://dc.lft.to/lastmile_qr_scan"}, "fusion_lon": 0.0, "is_reserved": 0}, {"lat": 38.898453833333335, "fusion_lat": 0.0, "type": "electric_scooter", "name": "a0935f635e0a4ef74a3d6eddb8a045de", "is_disabled": 0, "bike_id": "a0935f635e0a4ef74a3d6eddb8a045de", "lon": -76.94251283333334, "rental_uris": {"android": "https://dc.lft.to/lastmile_qr_scan", "ios": "https://dc.lft.to/lastmile_qr_scan"}, "fusion_lon": 0.0, "is_reserved": 0}, {"lat": 38.89016933333333, "fusion_lat": 0.0, "type": "electric_scooter", "name": "078162912481307757823fd1ca085d8d", "is_disabled": 0, "bike_id": "078162912481307757823fd1ca085d8d", "lon": -76.93695333333334, "rental_uris": {"android": "https://dc.lft.to/lastmile_qr_scan", "ios": "https://dc.lft.to/lastmile_qr_scan"}, "fusion_lon": 0.0, "is_reserved": 0}, {"lat": 38.8876895, "fusion_lat": 0.0, "type": "electric_scooter", "name": "560f5d5928f97c1c70d80a2652c13fa4", "is_disabled": 0, "bike_id": "560f5d5928f97c1c70d80a2652c13fa4", "lon": -77.022298, "rental_uris": {"android": "https://dc.lft.to/lastmile_qr_scan", "ios": "https://dc.lft.to/lastmile_qr_scan"}, "fusion_lon": 0.0, "is_reserved": 0}, {"lat": 38.96621916666667, "fusion_lat": 0.0, "type": "electric_bike", "name": "186942644659d3821cb4492e036ea05c", "is_disabled": 0, "bike_id": "186942644659d3821cb4492e036ea05c", "lon": -77.03429566666667, "rental_uris": {"android": "https://dc.lft.to/lastmile_qr_scan", "ios": "https://dc.lft.to/lastmile_qr_scan"}, "fusion_lon": 0.0, "is_reserved": 0}, {"lat": 38.91713983333333, "fusion_lat": 0.0, "type": "electric_scooter", "name": "69f130278529205b548f9ba3aebf25a5", "is_disabled": 0, "bike_id": "69f130278529205b548f9ba3aebf25a5", "lon": -77.031889, "rental_uris": {"android": "https://dc.lft.to/lastmile_qr_scan", "ios": "https://dc.lft.to/lastmile_qr_scan"}, "fusion_lon": 0.0, "is_reserved": 0}, {"lat": 38.91066133333333, "fusion_lat": 0.0, "type": "electric_scooter", "name": "49a5147b36165be41c4dd2d482298507", "is_disabled": 0, "bike_id": "49a5147b36165be41c4dd2d482298507", "lon": -77.0531665, "rental_uris": {"android": "https://dc.lft.to/lastmile_qr_scan", "ios": "https://dc.lft.to/lastmile_qr_scan"}, "fusion_lon": 0.0, "is_reserved": 0}, {"lat": 38.960478333333334, "fusion_lat": 0.0, "type": "electric_scooter", "name": "9dfa5073545b211079ee8c21f5588923", "is_disabled": 0, "bike_id": "9dfa5073545b211079ee8c21f5588923", "lon": -77.02797266666667, "rental_uris": {"android": "https://dc.lft.to/lastmile_qr_scan", "ios": "https://dc.lft.to/lastmile_qr_scan"}, "fusion_lon": 0.0, "is_reserved": 0}, {"lat": 38.96813433333333, "fusion_lat": 0.0, "type": "electric_scooter", "name": "64f5057b078eb1abebcad50f5cb95512", "is_disabled": 0, "bike_id": "64f5057b078eb1abebcad50f5cb95512", "lon": -77.0089395, "rental_uris": {"android": "https://dc.lft.to/lastmile_qr_scan", "ios": "https://dc.lft.to/lastmile_qr_scan"}, "fusion_lon": 0.0, "is_reserved": 0}, {"lat": 38.905889, "fusion_lat": 0.0, "type": "electric_scooter", "name": "9ee9d21f7097ba9101de9e2e48a968bc", "is_disabled": 0, "bike_id": "9ee9d21f7097ba9101de9e2e48a968bc", "lon": -77.00712, "rental_uris": {"android": "https://dc.lft.to/lastmile_qr_scan", "ios": "https://dc.lft.to/lastmile_qr_scan"}, "fusion_lon": 0.0, "is_reserved": 0}, {"lat": 38.895699, "fusion_lat": 0.0, "type": "electric_scooter", "name": "0a65a87d0947c0ee7c3686ebe1002df5", "is_disabled": 0, "bike_id": "0a65a87d0947c0ee7c3686ebe1002df5", "lon": -77.0219175, "rental_uris": {"android": "https://dc.lft.to/lastmile_qr_scan", "ios": "https://dc.lft.to/lastmile_qr_scan"}, "fusion_lon": 0.0, "is_reserved": 0}, {"lat": 38.8921745, "fusion_lat": 0.0, "type": "electric_scooter", "name": "a4612a9adf36828416cd183ab7ec0d0a", "is_disabled": 0, "bike_id": "a4612a9adf36828416cd183ab7ec0d0a", "lon": -77.02229483333333, "rental_uris": {"android": "https://dc.lft.to/lastmile_qr_scan", "ios": "https://dc.lft.to/lastmile_qr_scan"}, "fusion_lon": 0.0, "is_reserved": 0}, {"lat": 38.924373, "fusion_lat": 0.0, "type": "electric_scooter", "name": "583f5650e7f85d5bb3498705c1c13121", "is_disabled": 0, "bike_id": "583f5650e7f85d5bb3498705c1c13121", "lon": -77.03402216666667, "rental_uris": {"android": "https://dc.lft.to/lastmile_qr_scan", "ios": "https://dc.lft.to/lastmile_qr_scan"}, "fusion_lon": 0.0, "is_reserved": 0}, {"lat": 38.922976, "fusion_lat": 0.0, "type": "electric_bike", "name": "8d26b6b2b4de09128952e2623c3542d6", "is_disabled": 0, "bike_id": "8d26b6b2b4de09128952e2623c3542d6", "lon": -77.02428533333334, "rental_uris": {"android": "https://dc.lft.to/lastmile_qr_scan", "ios": "https://dc.lft.to/lastmile_qr_scan"}, "fusion_lon": 0.0, "is_reserved": 0}, {"lat": 38.88734733333333, "fusion_lat": 0.0, "type": "electric_scooter", "name": "01e0f29364e98edc9bc8bc3197320107", "is_disabled": 0, "bike_id": "01e0f29364e98edc9bc8bc3197320107", "lon": -77.02831166666667, "rental_uris": {"android": "https://dc.lft.to/lastmile_qr_scan", "ios": "https://dc.lft.to/lastmile_qr_scan"}, "fusion_lon": 0.0, "is_reserved": 0}, {"lat": 38.88693416666667, "fusion_lat": 0.0, "type": "electric_scooter", "name": "a72cf9c11741ad69f7aebd83db22c0a2", "is_disabled": 0, "bike_id": "a72cf9c11741ad69f7aebd83db22c0a2", "lon": -77.0335925, "rental_uris": {"android": "https://dc.lft.to/lastmile_qr_scan", "ios": "https://dc.lft.to/lastmile_qr_scan"}, "fusion_lon": 0.0, "is_reserved": 0}, {"lat": 38.9053605, "fusion_lat": 0.0, "type": "electric_scooter", "name": "491d6bb448f93705fd44e4b44aa03b69", "is_disabled": 0, "bike_id": "491d6bb448f93705fd44e4b44aa03b69", "lon": -77.03991666666667, "rental_uris": {"android": "https://dc.lft.to/lastmile_qr_scan", "ios": "https://dc.lft.to/lastmile_qr_scan"}, "fusion_lon": 0.0, "is_reserved": 0}, {"lat": 38.937735333333336, "fusion_lat": 0.0, "type": "electric_scooter", "name": "70afd966ab7f69d3ff79b6f7892380fb", "is_disabled": 0, "bike_id": "70afd966ab7f69d3ff79b6f7892380fb", "lon": -77.032653, "rental_uris": {"android": "https://dc.lft.to/lastmile_qr_scan", "ios": "https://dc.lft.to/lastmile_qr_scan"}, "fusion_lon": 0.0, "is_reserved": 0}, {"lat": 38.923666833333336, "fusion_lat": 0.0, "type": "electric_scooter", "name": "ed3283c413fcbcff79dcf835483a1c8b", "is_disabled": 0, "bike_id": "ed3283c413fcbcff79dcf835483a1c8b", "lon": -77.0510675, "rental_uris": {"android": "https://dc.lft.to/lastmile_qr_scan", "ios": "https://dc.lft.to/lastmile_qr_scan"}, "fusion_lon": 0.0, "is_reserved": 0}, {"lat": 38.896106333333336, "fusion_lat": 0.0, "type": "electric_scooter", "name": "5d957aff7cae4de4d953e5f61f73db34", "is_disabled": 0, "bike_id": "5d957aff7cae4de4d953e5f61f73db34", "lon": -77.00919916666666, "rental_uris": {"android": "https://dc.lft.to/lastmile_qr_scan", "ios": "https://dc.lft.to/lastmile_qr_scan"}, "fusion_lon": 0.0, "is_reserved": 0}, {"lat": 38.89547616666667, "fusion_lat": 0.0, "type": "electric_scooter", "name": "d1ff87d88000264e4eeb84c641a80ebf", "is_disabled": 0, "bike_id": "d1ff87d88000264e4eeb84c641a80ebf", "lon": -76.9833735, "rental_uris": {"android": "https://dc.lft.to/lastmile_qr_scan", "ios": "https://dc.lft.to/lastmile_qr_scan"}, "fusion_lon": 0.0, "is_reserved": 0}, {"lat": 38.90036716666667, "fusion_lat": 0.0, "type": "electric_scooter", "name": "331d77dfe136e4dc3c9e52f9e2e56d8b", "is_disabled": 0, "bike_id": "331d77dfe136e4dc3c9e52f9e2e56d8b", "lon": -77.002171, "rental_uris": {"android": "https://dc.lft.to/lastmile_qr_scan", "ios": "https://dc.lft.to/lastmile_qr_scan"}, "fusion_lon": 0.0, "is_reserved": 0}, {"lat": 38.860046, "fusion_lat": 0.0, "type": "electric_scooter", "name": "54ac9ed4ee8925dd45c05bed8fedb8d9", "is_disabled": 0, "bike_id": "54ac9ed4ee8925dd45c05bed8fedb8d9", "lon": -76.99657216666667, "rental_uris": {"android": "https://dc.lft.to/lastmile_qr_scan", "ios": "https://dc.lft.to/lastmile_qr_scan"}, "fusion_lon": 0.0, "is_reserved": 0}, {"lat": 38.92701566666667, "fusion_lat": 0.0, "type": "electric_scooter", "name": "c3f76ce5d89dc90d0351eb92b17cdc55", "is_disabled": 0, "bike_id": "c3f76ce5d89dc90d0351eb92b17cdc55", "lon": -77.03782433333333, "rental_uris": {"android": "https://dc.lft.to/lastmile_qr_scan", "ios": "https://dc.lft.to/lastmile_qr_scan"}, "fusion_lon": 0.0, "is_reserved": 0}, {"lat": 38.92363833333334, "fusion_lat": 0.0, "type": "electric_scooter", "name": "c73940c60263a2d9570dc3e6a0777b51", "is_disabled": 0, "bike_id": "c73940c60263a2d9570dc3e6a0777b51", "lon": -77.05106016666667, "rental_uris": {"android": "https://dc.lft.to/lastmile_qr_scan", "ios": "https://dc.lft.to/lastmile_qr_scan"}, "fusion_lon": 0.0, "is_reserved": 0}, {"lat": 38.8624165, "fusion_lat": 0.0, "type": "electric_scooter", "name": "78a39f97f4eb5a91cd17c824e6849e88", "is_disabled": 0, "bike_id": "78a39f97f4eb5a91cd17c824e6849e88", "lon": -76.99494566666667, "rental_uris": {"android": "https://dc.lft.to/lastmile_qr_scan", "ios": "https://dc.lft.to/lastmile_qr_scan"}, "fusion_lon": 0.0, "is_reserved": 0}, {"lat": 38.9086405, "fusion_lat": 0.0, "type": "electric_scooter", "name": "8638a7ac1958dacc1beac999f0aa5a71", "is_disabled": 0, "bike_id": "8638a7ac1958dacc1beac999f0aa5a71", "lon": -76.93335183333333, "rental_uris": {"android": "https://dc.lft.to/lastmile_qr_scan", "ios": "https://dc.lft.to/lastmile_qr_scan"}, "fusion_lon": 0.0, "is_reserved": 0}, {"lat": 38.87662533333334, "fusion_lat": 0.0, "type": "electric_scooter", "name": "86d2f353f0883a74cba649c4c27f90cf", "is_disabled": 0, "bike_id": "86d2f353f0883a74cba649c4c27f90cf", "lon": -77.0046595, "rental_uris": {"android": "https://dc.lft.to/lastmile_qr_scan", "ios": "https://dc.lft.to/lastmile_qr_scan"}, "fusion_lon": 0.0, "is_reserved": 0}, {"lat": 38.92849733333333, "fusion_lat": 0.0, "type": "electric_scooter", "name": "9840773dd988b507db7037d7a2be7cde", "is_disabled": 0, "bike_id": "9840773dd988b507db7037d7a2be7cde", "lon": -77.02602233333333, "rental_uris": {"android": "https://dc.lft.to/lastmile_qr_scan", "ios": "https://dc.lft.to/lastmile_qr_scan"}, "fusion_lon": 0.0, "is_reserved": 0}, {"lat": 38.901284833333335, "fusion_lat": 0.0, "type": "electric_scooter", "name": "54d6138787c0f8ff9db0f5296bd8b4f8", "is_disabled": 0, "bike_id": "54d6138787c0f8ff9db0f5296bd8b4f8", "lon": -77.03629566666666, "rental_uris": {"android": "https://dc.lft.to/lastmile_qr_scan", "ios": "https://dc.lft.to/lastmile_qr_scan"}, "fusion_lon": 0.0, "is_reserved": 0}, {"lat": 38.890795833333335, "fusion_lat": 0.0, "type": "electric_scooter", "name": "a50d4fb2b61c40d095e276bb9b9c1c49", "is_disabled": 0, "bike_id": "a50d4fb2b61c40d095e276bb9b9c1c49", "lon": -76.988217, "rental_uris": {"android": "https://dc.lft.to/lastmile_qr_scan", "ios": "https://dc.lft.to/lastmile_qr_scan"}, "fusion_lon": 0.0, "is_reserved": 0}, {"lat": 38.8948675, "fusion_lat": 0.0, "type": "electric_scooter", "name": "a2c43ffdacd6786bb364122cd319f2de", "is_disabled": 0, "bike_id": "a2c43ffdacd6786bb364122cd319f2de", "lon": -77.002237, "rental_uris": {"android": "https://dc.lft.to/lastmile_qr_scan", "ios": "https://dc.lft.to/lastmile_qr_scan"}, "fusion_lon": 0.0, "is_reserved": 0}, {"lat": 38.8825105, "fusion_lat": 0.0, "type": "electric_scooter", "name": "9b17bd813997f4596e888d4fb2f29dec", "is_disabled": 0, "bike_id": "9b17bd813997f4596e888d4fb2f29dec", "lon": -76.93552283333334, "rental_uris": {"android": "https://dc.lft.to/lastmile_qr_scan", "ios": "https://dc.lft.to/lastmile_qr_scan"}, "fusion_lon": 0.0, "is_reserved": 0}, {"lat": 38.87554433333333, "fusion_lat": 0.0, "type": "electric_scooter", "name": "c30f2c621ad96a939dc4bcbfa6010086", "is_disabled": 0, "bike_id": "c30f2c621ad96a939dc4bcbfa6010086", "lon": -77.00046983333333, "rental_uris": {"android": "https://dc.lft.to/lastmile_qr_scan", "ios": "https://dc.lft.to/lastmile_qr_scan"}, "fusion_lon": 0.0, "is_reserved": 0}, {"lat": 38.94183433333333, "fusion_lat": 0.0, "type": "electric_scooter", "name": "512f6322ebbb575d094c4138b6411ff8", "is_disabled": 0, "bike_id": "512f6322ebbb575d094c4138b6411ff8", "lon": -77.02485516666667, "rental_uris": {"android": "https://dc.lft.to/lastmile_qr_scan", "ios": "https://dc.lft.to/lastmile_qr_scan"}, "fusion_lon": 0.0, "is_reserved": 0}, {"lat": 38.93522816666667, "fusion_lat": 0.0, "type": "electric_scooter", "name": "9d13568ed1c9b0e7ddbcfa48a5b71afd", "is_disabled": 0, "bike_id": "9d13568ed1c9b0e7ddbcfa48a5b71afd", "lon": -77.086986, "rental_uris": {"android": "https://dc.lft.to/lastmile_qr_scan", "ios": "https://dc.lft.to/lastmile_qr_scan"}, "fusion_lon": 0.0, "is_reserved": 0}, {"lat": 38.883942833333336, "fusion_lat": 0.0, "type": "electric_scooter", "name": "f1409d8802decd7f7f3e111f066c7cca", "is_disabled": 0, "bike_id": "f1409d8802decd7f7f3e111f066c7cca", "lon": -76.9858475, "rental_uris": {"android": "https://dc.lft.to/lastmile_qr_scan", "ios": "https://dc.lft.to/lastmile_qr_scan"}, "fusion_lon": 0.0, "is_reserved": 0}, {"lat": 38.89516916666667, "fusion_lat": 0.0, "type": "electric_scooter", "name": "1b52d3a5f3a2a337805f0f0f4e90befa", "is_disabled": 0, "bike_id": "1b52d3a5f3a2a337805f0f0f4e90befa", "lon": -77.0020905, "rental_uris": {"android": "https://dc.lft.to/lastmile_qr_scan", "ios": "https://dc.lft.to/lastmile_qr_scan"}, "fusion_lon": 0.0, "is_reserved": 0}, {"lat": 38.908410833333335, "fusion_lat": 0.0, "type": "electric_scooter", "name": "3d095444e168c520461896c710aab84c", "is_disabled": 0, "bike_id": "3d095444e168c520461896c710aab84c", "lon": -77.03684833333334, "rental_uris": {"android": "https://dc.lft.to/lastmile_qr_scan", "ios": "https://dc.lft.to/lastmile_qr_scan"}, "fusion_lon": 0.0, "is_reserved": 0}, {"lat": 38.8984945, "fusion_lat": 0.0, "type": "electric_scooter", "name": "4582b3c6824907641a011607a313b404", "is_disabled": 0, "bike_id": "4582b3c6824907641a011607a313b404", "lon": -77.00742516666666, "rental_uris": {"android": "https://dc.lft.to/lastmile_qr_scan", "ios": "https://dc.lft.to/lastmile_qr_scan"}, "fusion_lon": 0.0, "is_reserved": 0}, {"lat": 38.90003633333333, "fusion_lat": 0.0, "type": "electric_scooter", "name": "d279c4a7a724ae5c0f9b46bd451c67a3", "is_disabled": 0, "bike_id": "d279c4a7a724ae5c0f9b46bd451c67a3", "lon": -77.0327365, "rental_uris": {"android": "https://dc.lft.to/lastmile_qr_scan", "ios": "https://dc.lft.to/lastmile_qr_scan"}, "fusion_lon": 0.0, "is_reserved": 0}, {"lat": 38.949025166666665, "fusion_lat": 0.0, "type": "electric_bike", "name": "27a300640d3b76ba7bc45fed70ae8154", "is_disabled": 0, "bike_id": "27a300640d3b76ba7bc45fed70ae8154", "lon": -76.96372316666667, "rental_uris": {"android": "https://dc.lft.to/lastmile_qr_scan", "ios": "https://dc.lft.to/lastmile_qr_scan"}, "fusion_lon": 0.0, "is_reserved": 0}, {"lat": 38.884220666666664, "fusion_lat": 0.0, "type": "electric_scooter", "name": "5f583678b2f0f793fb5b916c361a440e", "is_disabled": 0, "bike_id": "5f583678b2f0f793fb5b916c361a440e", "lon": -76.99689333333333, "rental_uris": {"android": "https://dc.lft.to/lastmile_qr_scan", "ios": "https://dc.lft.to/lastmile_qr_scan"}, "fusion_lon": 0.0, "is_reserved": 0}, {"lat": 38.94161, "fusion_lat": 0.0, "type": "electric_scooter", "name": "ef944efe97e6c5c5f41dde5c6f86e253", "is_disabled": 0, "bike_id": "ef944efe97e6c5c5f41dde5c6f86e253", "lon": -77.02553183333333, "rental_uris": {"android": "https://dc.lft.to/lastmile_qr_scan", "ios": "https://dc.lft.to/lastmile_qr_scan"}, "fusion_lon": 0.0, "is_reserved": 0}, {"lat": 38.921578833333335, "fusion_lat": 0.0, "type": "electric_scooter", "name": "f44a2f519ef2ff7703072a8381985bcf", "is_disabled": 0, "bike_id": "f44a2f519ef2ff7703072a8381985bcf", "lon": -77.02089383333333, "rental_uris": {"android": "https://dc.lft.to/lastmile_qr_scan", "ios": "https://dc.lft.to/lastmile_qr_scan"}, "fusion_lon": 0.0, "is_reserved": 0}, {"lat": 38.9180755, "fusion_lat": 0.0, "type": "electric_scooter", "name": "1d206b8b3c39ab796f3392faf134d936", "is_disabled": 0, "bike_id": "1d206b8b3c39ab796f3392faf134d936", "lon": -77.03690233333333, "rental_uris": {"android": "https://dc.lft.to/lastmile_qr_scan", "ios": "https://dc.lft.to/lastmile_qr_scan"}, "fusion_lon": 0.0, "is_reserved": 0}, {"lat": 38.846387666666665, "fusion_lat": 0.0, "type": "electric_scooter", "name": "696ed209404d4c2ca23074b13261b73e", "is_disabled": 0, "bike_id": "696ed209404d4c2ca23074b13261b73e", "lon": -76.99132133333333, "rental_uris": {"android": "https://dc.lft.to/lastmile_qr_scan", "ios": "https://dc.lft.to/lastmile_qr_scan"}, "fusion_lon": 0.0, "is_reserved": 0}, {"lat": 38.91777783333333, "fusion_lat": 0.0, "type": "electric_scooter", "name": "01663b083e97a88ba6f0148682cce615", "is_disabled": 0, "bike_id": "01663b083e97a88ba6f0148682cce615", "lon": -77.0320905, "rental_uris": {"android": "https://dc.lft.to/lastmile_qr_scan", "ios": "https://dc.lft.to/lastmile_qr_scan"}, "fusion_lon": 0.0, "is_reserved": 0}, {"lat": 38.90951533333333, "fusion_lat": 0.0, "type": "electric_scooter", "name": "15ab2953c8b0193fdd10180dc6cf17c0", "is_disabled": 0, "bike_id": "15ab2953c8b0193fdd10180dc6cf17c0", "lon": -77.0475265, "rental_uris": {"android": "https://dc.lft.to/lastmile_qr_scan", "ios": "https://dc.lft.to/lastmile_qr_scan"}, "fusion_lon": 0.0, "is_reserved": 0}, {"lat": 38.89939366666667, "fusion_lat": 0.0, "type": "electric_scooter", "name": "3d302c6bad47ba0dcf0db8f77a5edad5", "is_disabled": 0, "bike_id": "3d302c6bad47ba0dcf0db8f77a5edad5", "lon": -76.99729333333333, "rental_uris": {"android": "https://dc.lft.to/lastmile_qr_scan", "ios": "https://dc.lft.to/lastmile_qr_scan"}, "fusion_lon": 0.0, "is_reserved": 0}, {"lat": 38.86691066666667, "fusion_lat": 0.0, "type": "electric_scooter", "name": "dbe6511ff2c90e8a4483a0adb321cfd7", "is_disabled": 0, "bike_id": "dbe6511ff2c90e8a4483a0adb321cfd7", "lon": -76.9854385, "rental_uris": {"android": "https://dc.lft.to/lastmile_qr_scan", "ios": "https://dc.lft.to/lastmile_qr_scan"}, "fusion_lon": 0.0, "is_reserved": 0}, {"lat": 38.90899666666667, "fusion_lat": 0.0, "type": "electric_scooter", "name": "b8f0ff0ba975b6b355398152831c608c", "is_disabled": 0, "bike_id": "b8f0ff0ba975b6b355398152831c608c", "lon": -76.997594, "rental_uris": {"android": "https://dc.lft.to/lastmile_qr_scan", "ios": "https://dc.lft.to/lastmile_qr_scan"}, "fusion_lon": 0.0, "is_reserved": 0}, {"lat": 38.8524885, "fusion_lat": 0.0, "type": "electric_bike", "name": "4f82baa929bfa089acfa7861fb11dd50", "is_disabled": 0, "bike_id": "4f82baa929bfa089acfa7861fb11dd50", "lon": -77.10786616666667, "rental_uris": {"android": "https://dc.lft.to/lastmile_qr_scan", "ios": "https://dc.lft.to/lastmile_qr_scan"}, "fusion_lon": 0.0, "is_reserved": 0}, {"lat": 38.89831483333333, "fusion_lat": 0.0, "type": "electric_scooter", "name": "b3e33762b3e37078f6ee21503c5a3dfb", "is_disabled": 0, "bike_id": "b3e33762b3e37078f6ee21503c5a3dfb", "lon": -76.94627616666666, "rental_uris": {"android": "https://dc.lft.to/lastmile_qr_scan", "ios": "https://dc.lft.to/lastmile_qr_scan"}, "fusion_lon": 0.0, "is_reserved": 0}, {"lat": 38.90419383333333, "fusion_lat": 0.0, "type": "electric_scooter", "name": "d68c6febc0bfd55c82d2093e837547b3", "is_disabled": 0, "bike_id": "d68c6febc0bfd55c82d2093e837547b3", "lon": -77.02648416666666, "rental_uris": {"android": "https://dc.lft.to/lastmile_qr_scan", "ios": "https://dc.lft.to/lastmile_qr_scan"}, "fusion_lon": 0.0, "is_reserved": 0}, {"lat": 38.87721416666667, "fusion_lat": 0.0, "type": "electric_scooter", "name": "4637ae9a47a9043fc8f804b5434deee6", "is_disabled": 0, "bike_id": "4637ae9a47a9043fc8f804b5434deee6", "lon": -77.01767, "rental_uris": {"android": "https://dc.lft.to/lastmile_qr_scan", "ios": "https://dc.lft.to/lastmile_qr_scan"}, "fusion_lon": 0.0, "is_reserved": 0}, {"lat": 38.8217795, "fusion_lat": 0.0, "type": "electric_bike", "name": "2b4bfbaa69efcaaa47e753657c00cb75", "is_disabled": 0, "bike_id": "2b4bfbaa69efcaaa47e753657c00cb75", "lon": -76.99510283333333, "rental_uris": {"android": "https://dc.lft.to/lastmile_qr_scan", "ios": "https://dc.lft.to/lastmile_qr_scan"}, "fusion_lon": 0.0, "is_reserved": 0}, {"lat": 38.921205666666665, "fusion_lat": 0.0, "type": "electric_scooter", "name": "8e958c02f53e51aca5a482e10130034a", "is_disabled": 0, "bike_id": "8e958c02f53e51aca5a482e10130034a", "lon": -77.043464, "rental_uris": {"android": "https://dc.lft.to/lastmile_qr_scan", "ios": "https://dc.lft.to/lastmile_qr_scan"}, "fusion_lon": 0.0, "is_reserved": 0}, {"lat": 38.94291466666667, "fusion_lat": 0.0, "type": "electric_scooter", "name": "ba8aec3af77b7b0f8ac11d6eaf91ccca", "is_disabled": 0, "bike_id": "ba8aec3af77b7b0f8ac11d6eaf91ccca", "lon": -77.02168916666666, "rental_uris": {"android": "https://dc.lft.to/lastmile_qr_scan", "ios": "https://dc.lft.to/lastmile_qr_scan"}, "fusion_lon": 0.0, "is_reserved": 0}, {"lat": 38.91573116666667, "fusion_lat": 0.0, "type": "electric_scooter", "name": "e57fbd28a224f6bf0c9cf4fc03070aa1", "is_disabled": 0, "bike_id": "e57fbd28a224f6bf0c9cf4fc03070aa1", "lon": -77.019989, "rental_uris": {"android": "https://dc.lft.to/lastmile_qr_scan", "ios": "https://dc.lft.to/lastmile_qr_scan"}, "fusion_lon": 0.0, "is_reserved": 0}, {"lat": 38.89925366666667, "fusion_lat": 0.0, "type": "electric_bike", "name": "20f48c7a898e5a79657cb0160695f443", "is_disabled": 0, "bike_id": "20f48c7a898e5a79657cb0160695f443", "lon": -77.04480916666667, "rental_uris": {"android": "https://dc.lft.to/lastmile_qr_scan", "ios": "https://dc.lft.to/lastmile_qr_scan"}, "fusion_lon": 0.0, "is_reserved": 0}, {"lat": 38.919614333333335, "fusion_lat": 0.0, "type": "electric_scooter", "name": "e38960feff5c5ba737c5c9b7f458520d", "is_disabled": 0, "bike_id": "e38960feff5c5ba737c5c9b7f458520d", "lon": -77.023723, "rental_uris": {"android": "https://dc.lft.to/lastmile_qr_scan", "ios": "https://dc.lft.to/lastmile_qr_scan"}, "fusion_lon": 0.0, "is_reserved": 0}, {"lat": 38.899528833333335, "fusion_lat": 0.0, "type": "electric_scooter", "name": "0f0eb84e90a7b81b73e640d8b55df7c2", "is_disabled": 0, "bike_id": "0f0eb84e90a7b81b73e640d8b55df7c2", "lon": -77.04486833333333, "rental_uris": {"android": "https://dc.lft.to/lastmile_qr_scan", "ios": "https://dc.lft.to/lastmile_qr_scan"}, "fusion_lon": 0.0, "is_reserved": 0}, {"lat": 38.9205275, "fusion_lat": 0.0, "type": "electric_scooter", "name": "f056ac8c2265a6bc1761e67e970934ee", "is_disabled": 0, "bike_id": "f056ac8c2265a6bc1761e67e970934ee", "lon": -77.01667916666666, "rental_uris": {"android": "https://dc.lft.to/lastmile_qr_scan", "ios": "https://dc.lft.to/lastmile_qr_scan"}, "fusion_lon": 0.0, "is_reserved": 0}, {"lat": 38.8987575, "fusion_lat": 0.0, "type": "electric_scooter", "name": "0f497837787eb9d12d2937fe532c1077", "is_disabled": 0, "bike_id": "0f497837787eb9d12d2937fe532c1077", "lon": -77.04677716666667, "rental_uris": {"android": "https://dc.lft.to/lastmile_qr_scan", "ios": "https://dc.lft.to/lastmile_qr_scan"}, "fusion_lon": 0.0, "is_reserved": 0}, {"lat": 38.898956166666665, "fusion_lat": 0.0, "type": "electric_scooter", "name": "278e418f2366cc70ce2f275165ad61f6", "is_disabled": 0, "bike_id": "278e418f2366cc70ce2f275165ad61f6", "lon": -76.933953, "rental_uris": {"android": "https://dc.lft.to/lastmile_qr_scan", "ios": "https://dc.lft.to/lastmile_qr_scan"}, "fusion_lon": 0.0, "is_reserved": 0}, {"lat": 38.930934666666666, "fusion_lat": 0.0, "type": "electric_scooter", "name": "289833e0eb2606c3836149df26f5c5f1", "is_disabled": 0, "bike_id": "289833e0eb2606c3836149df26f5c5f1", "lon": -77.02411283333333, "rental_uris": {"android": "https://dc.lft.to/lastmile_qr_scan", "ios": "https://dc.lft.to/lastmile_qr_scan"}, "fusion_lon": 0.0, "is_reserved": 0}, {"lat": 38.900153333333336, "fusion_lat": 0.0, "type": "electric_scooter", "name": "2b372e312ab3d5283319b69490b983e0", "is_disabled": 0, "bike_id": "2b372e312ab3d5283319b69490b983e0", "lon": -76.98696333333334, "rental_uris": {"android": "https://dc.lft.to/lastmile_qr_scan", "ios": "https://dc.lft.to/lastmile_qr_scan"}, "fusion_lon": 0.0, "is_reserved": 0}, {"lat": 38.921727833333335, "fusion_lat": 0.0, "type": "electric_scooter", "name": "f3984c62e329a295ea664501b126cbc3", "is_disabled": 0, "bike_id": "f3984c62e329a295ea664501b126cbc3", "lon": -77.03823916666667, "rental_uris": {"android": "https://dc.lft.to/lastmile_qr_scan", "ios": "https://dc.lft.to/lastmile_qr_scan"}, "fusion_lon": 0.0, "is_reserved": 0}, {"lat": 38.84437033333333, "fusion_lat": 0.0, "type": "electric_scooter", "name": "2fe78d91442cdac44f2428e72d8b7e43", "is_disabled": 0, "bike_id": "2fe78d91442cdac44f2428e72d8b7e43", "lon": -76.99776633333333, "rental_uris": {"android": "https://dc.lft.to/lastmile_qr_scan", "ios": "https://dc.lft.to/lastmile_qr_scan"}, "fusion_lon": 0.0, "is_reserved": 0}, {"lat": 38.911755, "fusion_lat": 0.0, "type": "electric_scooter", "name": "3c676c077fcfa2b242dae0c31a72538b", "is_disabled": 0, "bike_id": "3c676c077fcfa2b242dae0c31a72538b", "lon": -77.03180216666667, "rental_uris": {"android": "https://dc.lft.to/lastmile_qr_scan", "ios": "https://dc.lft.to/lastmile_qr_scan"}, "fusion_lon": 0.0, "is_reserved": 0}, {"lat": 38.917191833333334, "fusion_lat": 0.0, "type": "electric_scooter", "name": "40a8b22b630f5c514bb9f430cdbb1d4b", "is_disabled": 0, "bike_id": "40a8b22b630f5c514bb9f430cdbb1d4b", "lon": -77.02708383333334, "rental_uris": {"android": "https://dc.lft.to/lastmile_qr_scan", "ios": "https://dc.lft.to/lastmile_qr_scan"}, "fusion_lon": 0.0, "is_reserved": 0}, {"lat": 38.924071, "fusion_lat": 0.0, "type": "electric_scooter", "name": "14e46915ec2850545ad438dd3c3041ca", "is_disabled": 0, "bike_id": "14e46915ec2850545ad438dd3c3041ca", "lon": -77.051642, "rental_uris": {"android": "https://dc.lft.to/lastmile_qr_scan", "ios": "https://dc.lft.to/lastmile_qr_scan"}, "fusion_lon": 0.0, "is_reserved": 0}, {"lat": 38.917276, "fusion_lat": 0.0, "type": "electric_scooter", "name": "1165eb73f60a8bc724de88d891b713f5", "is_disabled": 0, "bike_id": "1165eb73f60a8bc724de88d891b713f5", "lon": -77.02961516666667, "rental_uris": {"android": "https://dc.lft.to/lastmile_qr_scan", "ios": "https://dc.lft.to/lastmile_qr_scan"}, "fusion_lon": 0.0, "is_reserved": 0}, {"lat": 38.94300666666667, "fusion_lat": 0.0, "type": "electric_scooter", "name": "9b82d169ff786f78d34381d33ff7c57a", "is_disabled": 0, "bike_id": "9b82d169ff786f78d34381d33ff7c57a", "lon": -77.02744416666667, "rental_uris": {"android": "https://dc.lft.to/lastmile_qr_scan", "ios": "https://dc.lft.to/lastmile_qr_scan"}, "fusion_lon": 0.0, "is_reserved": 0}, {"lat": 38.8993995, "fusion_lat": 0.0, "type": "electric_scooter", "name": "1ecc75cd40f64e2a268449b46979f9e4", "is_disabled": 0, "bike_id": "1ecc75cd40f64e2a268449b46979f9e4", "lon": -77.01451966666667, "rental_uris": {"android": "https://dc.lft.to/lastmile_qr_scan", "ios": "https://dc.lft.to/lastmile_qr_scan"}, "fusion_lon": 0.0, "is_reserved": 0}, {"lat": 38.994186666666664, "fusion_lat": 0.0, "type": "electric_bike", "name": "f728940dbf351a68bec1dc0826d2ec38", "is_disabled": 0, "bike_id": "f728940dbf351a68bec1dc0826d2ec38", "lon": -77.07694333333333, "rental_uris": {"android": "https://dc.lft.to/lastmile_qr_scan", "ios": "https://dc.lft.to/lastmile_qr_scan"}, "fusion_lon": 0.0, "is_reserved": 0}, {"lat": 38.90398483333333, "fusion_lat": 0.0, "type": "electric_scooter", "name": "cec2c112af904e965938de2f06f338a2", "is_disabled": 0, "bike_id": "cec2c112af904e965938de2f06f338a2", "lon": -77.034672, "rental_uris": {"android": "https://dc.lft.to/lastmile_qr_scan", "ios": "https://dc.lft.to/lastmile_qr_scan"}, "fusion_lon": 0.0, "is_reserved": 0}, {"lat": 38.922432, "fusion_lat": 0.0, "type": "electric_scooter", "name": "bf9cd6f7fd493488a80de567f2670e68", "is_disabled": 0, "bike_id": "bf9cd6f7fd493488a80de567f2670e68", "lon": -77.04256683333334, "rental_uris": {"android": "https://dc.lft.to/lastmile_qr_scan", "ios": "https://dc.lft.to/lastmile_qr_scan"}, "fusion_lon": 0.0, "is_reserved": 0}, {"lat": 38.902671166666664, "fusion_lat": 0.0, "type": "electric_scooter", "name": "1d22d57b365498bfe2744507e22c57a2", "is_disabled": 0, "bike_id": "1d22d57b365498bfe2744507e22c57a2", "lon": -77.030014, "rental_uris": {"android": "https://dc.lft.to/lastmile_qr_scan", "ios": "https://dc.lft.to/lastmile_qr_scan"}, "fusion_lon": 0.0, "is_reserved": 0}, {"lat": 38.87289166666667, "fusion_lat": 0.0, "type": "electric_scooter", "name": "2fa6deb0a4d7aaba6c19045c4fcc2e3b", "is_disabled": 0, "bike_id": "2fa6deb0a4d7aaba6c19045c4fcc2e3b", "lon": -77.00985416666667, "rental_uris": {"android": "https://dc.lft.to/lastmile_qr_scan", "ios": "https://dc.lft.to/lastmile_qr_scan"}, "fusion_lon": 0.0, "is_reserved": 0}, {"lat": 38.926222833333334, "fusion_lat": 0.0, "type": "electric_scooter", "name": "5f3f602fc9b99b9a4bf7745d4406b2ba", "is_disabled": 0, "bike_id": "5f3f602fc9b99b9a4bf7745d4406b2ba", "lon": -77.04319183333334, "rental_uris": {"android": "https://dc.lft.to/lastmile_qr_scan", "ios": "https://dc.lft.to/lastmile_qr_scan"}, "fusion_lon": 0.0, "is_reserved": 0}, {"lat": 38.914145, "fusion_lat": 0.0, "type": "electric_scooter", "name": "ebbbdfce8abdddba7920abaae0af6e24", "is_disabled": 0, "bike_id": "ebbbdfce8abdddba7920abaae0af6e24", "lon": -77.0221345, "rental_uris": {"android": "https://dc.lft.to/lastmile_qr_scan", "ios": "https://dc.lft.to/lastmile_qr_scan"}, "fusion_lon": 0.0, "is_reserved": 0}, {"lat": 38.87576033333333, "fusion_lat": 0.0, "type": "electric_bike", "name": "85bb41c63f6b72090e593fce87013e9b", "is_disabled": 0, "bike_id": "85bb41c63f6b72090e593fce87013e9b", "lon": -77.2340685, "rental_uris": {"android": "https://dc.lft.to/lastmile_qr_scan", "ios": "https://dc.lft.to/lastmile_qr_scan"}, "fusion_lon": 0.0, "is_reserved": 0}, {"lat": 38.91123666666667, "fusion_lat": 0.0, "type": "electric_scooter", "name": "c5010943515e9df050f4d25635442094", "is_disabled": 0, "bike_id": "c5010943515e9df050f4d25635442094", "lon": -77.04372033333334, "rental_uris": {"android": "https://dc.lft.to/lastmile_qr_scan", "ios": "https://dc.lft.to/lastmile_qr_scan"}, "fusion_lon": 0.0, "is_reserved": 0}, {"lat": 38.910484833333335, "fusion_lat": 0.0, "type": "electric_scooter", "name": "1914f123b72da750a02c5d1c8cb31455", "is_disabled": 0, "bike_id": "1914f123b72da750a02c5d1c8cb31455", "lon": -77.04344016666667, "rental_uris": {"android": "https://dc.lft.to/lastmile_qr_scan", "ios": "https://dc.lft.to/lastmile_qr_scan"}, "fusion_lon": 0.0, "is_reserved": 0}, {"lat": 38.91621383333333, "fusion_lat": 0.0, "type": "electric_scooter", "name": "ba2e66a9dd0bdf7933720ca54028412d", "is_disabled": 0, "bike_id": "ba2e66a9dd0bdf7933720ca54028412d", "lon": -77.030928, "rental_uris": {"android": "https://dc.lft.to/lastmile_qr_scan", "ios": "https://dc.lft.to/lastmile_qr_scan"}, "fusion_lon": 0.0, "is_reserved": 0}, {"lat": 38.89368, "fusion_lat": 0.0, "type": "electric_scooter", "name": "982092617adf3bdb6d959e4c11ec61b8", "is_disabled": 0, "bike_id": "982092617adf3bdb6d959e4c11ec61b8", "lon": -76.947014, "rental_uris": {"android": "https://dc.lft.to/lastmile_qr_scan", "ios": "https://dc.lft.to/lastmile_qr_scan"}, "fusion_lon": 0.0, "is_reserved": 0}, {"lat": 38.86058383333334, "fusion_lat": 0.0, "type": "electric_scooter", "name": "a5f85cec6378f637860213e4335ea4ab", "is_disabled": 0, "bike_id": "a5f85cec6378f637860213e4335ea4ab", "lon": -76.98504233333334, "rental_uris": {"android": "https://dc.lft.to/lastmile_qr_scan", "ios": "https://dc.lft.to/lastmile_qr_scan"}, "fusion_lon": 0.0, "is_reserved": 0}, {"lat": 38.92033216666667, "fusion_lat": 0.0, "type": "electric_scooter", "name": "7feaf66201acdcc3f6b70ea268f87169", "is_disabled": 0, "bike_id": "7feaf66201acdcc3f6b70ea268f87169", "lon": -77.00303266666667, "rental_uris": {"android": "https://dc.lft.to/lastmile_qr_scan", "ios": "https://dc.lft.to/lastmile_qr_scan"}, "fusion_lon": 0.0, "is_reserved": 0}, {"lat": 38.8848725, "fusion_lat": 0.0, "type": "electric_scooter", "name": "0d66d40578372d1619057d7d29981e24", "is_disabled": 0, "bike_id": "0d66d40578372d1619057d7d29981e24", "lon": -77.00712166666666, "rental_uris": {"android": "https://dc.lft.to/lastmile_qr_scan", "ios": "https://dc.lft.to/lastmile_qr_scan"}, "fusion_lon": 0.0, "is_reserved": 0}, {"lat": 38.924411666666664, "fusion_lat": 0.0, "type": "electric_scooter", "name": "86ae56fdccc92d863a1a6ae225c8ed38", "is_disabled": 0, "bike_id": "86ae56fdccc92d863a1a6ae225c8ed38", "lon": -77.03990533333334, "rental_uris": {"android": "https://dc.lft.to/lastmile_qr_scan", "ios": "https://dc.lft.to/lastmile_qr_scan"}, "fusion_lon": 0.0, "is_reserved": 0}, {"lat": 38.987692333333335, "fusion_lat": 0.0, "type": "electric_bike", "name": "5c3739a29c4932b4c9203ede2a85d91c", "is_disabled": 0, "bike_id": "5c3739a29c4932b4c9203ede2a85d91c", "lon": -77.14053516666667, "rental_uris": {"android": "https://dc.lft.to/lastmile_qr_scan", "ios": "https://dc.lft.to/lastmile_qr_scan"}, "fusion_lon": 0.0, "is_reserved": 0}, {"lat": 38.8993865, "fusion_lat": 0.0, "type": "electric_scooter", "name": "8a93e35996f61a8f5b2b8a77d796e35c", "is_disabled": 0, "bike_id": "8a93e35996f61a8f5b2b8a77d796e35c", "lon": -77.03105066666667, "rental_uris": {"android": "https://dc.lft.to/lastmile_qr_scan", "ios": "https://dc.lft.to/lastmile_qr_scan"}, "fusion_lon": 0.0, "is_reserved": 0}, {"lat": 38.904106666666664, "fusion_lat": 0.0, "type": "electric_scooter", "name": "31b8935222141650b7dfbe5ef7cfe36a", "is_disabled": 0, "bike_id": "31b8935222141650b7dfbe5ef7cfe36a", "lon": -76.97327866666667, "rental_uris": {"android": "https://dc.lft.to/lastmile_qr_scan", "ios": "https://dc.lft.to/lastmile_qr_scan"}, "fusion_lon": 0.0, "is_reserved": 0}, {"lat": 38.929997166666666, "fusion_lat": 0.0, "type": "electric_scooter", "name": "096a0a6a25af0e7592a69e1c95f9f065", "is_disabled": 0, "bike_id": "096a0a6a25af0e7592a69e1c95f9f065", "lon": -77.013004, "rental_uris": {"android": "https://dc.lft.to/lastmile_qr_scan", "ios": "https://dc.lft.to/lastmile_qr_scan"}, "fusion_lon": 0.0, "is_reserved": 0}, {"lat": 38.92155233333333, "fusion_lat": 0.0, "type": "electric_scooter", "name": "85d08740ada11fe3cfb77e0acf7620fa", "is_disabled": 0, "bike_id": "85d08740ada11fe3cfb77e0acf7620fa", "lon": -77.04692533333333, "rental_uris": {"android": "https://dc.lft.to/lastmile_qr_scan", "ios": "https://dc.lft.to/lastmile_qr_scan"}, "fusion_lon": 0.0, "is_reserved": 0}, {"lat": 38.86725883333333, "fusion_lat": 0.0, "type": "electric_scooter", "name": "813257f6098b31ce8f4c298f34f19fe2", "is_disabled": 0, "bike_id": "813257f6098b31ce8f4c298f34f19fe2", "lon": -76.98694616666667, "rental_uris": {"android": "https://dc.lft.to/lastmile_qr_scan", "ios": "https://dc.lft.to/lastmile_qr_scan"}, "fusion_lon": 0.0, "is_reserved": 0}, {"lat": 38.92483883333333, "fusion_lat": 0.0, "type": "electric_scooter", "name": "856df94f67dea016b59ae55e857f8a75", "is_disabled": 0, "bike_id": "856df94f67dea016b59ae55e857f8a75", "lon": -77.031773, "rental_uris": {"android": "https://dc.lft.to/lastmile_qr_scan", "ios": "https://dc.lft.to/lastmile_qr_scan"}, "fusion_lon": 0.0, "is_reserved": 0}, {"lat": 38.90164083333333, "fusion_lat": 0.0, "type": "electric_scooter", "name": "140f6d2207c5b29ada8d4147647a0331", "is_disabled": 0, "bike_id": "140f6d2207c5b29ada8d4147647a0331", "lon": -77.03569366666666, "rental_uris": {"android": "https://dc.lft.to/lastmile_qr_scan", "ios": "https://dc.lft.to/lastmile_qr_scan"}, "fusion_lon": 0.0, "is_reserved": 0}, {"lat": 38.906710333333336, "fusion_lat": 0.0, "type": "electric_scooter", "name": "db2f190f6e1e704e76b8b99f61dcedd4", "is_disabled": 0, "bike_id": "db2f190f6e1e704e76b8b99f61dcedd4", "lon": -77.0270965, "rental_uris": {"android": "https://dc.lft.to/lastmile_qr_scan", "ios": "https://dc.lft.to/lastmile_qr_scan"}, "fusion_lon": 0.0, "is_reserved": 0}, {"lat": 38.897426833333334, "fusion_lat": 0.0, "type": "electric_scooter", "name": "851f41a5bfdfb2703a44cd3dbc7ae1e1", "is_disabled": 0, "bike_id": "851f41a5bfdfb2703a44cd3dbc7ae1e1", "lon": -76.97972183333333, "rental_uris": {"android": "https://dc.lft.to/lastmile_qr_scan", "ios": "https://dc.lft.to/lastmile_qr_scan"}, "fusion_lon": 0.0, "is_reserved": 0}, {"lat": 38.905547, "fusion_lat": 0.0, "type": "electric_scooter", "name": "f366b1cb254c1c14c2d7122836dd4ba5", "is_disabled": 0, "bike_id": "f366b1cb254c1c14c2d7122836dd4ba5", "lon": -77.034742, "rental_uris": {"android": "https://dc.lft.to/lastmile_qr_scan", "ios": "https://dc.lft.to/lastmile_qr_scan"}, "fusion_lon": 0.0, "is_reserved": 0}, {"lat": 38.902528833333335, "fusion_lat": 0.0, "type": "electric_scooter", "name": "6ad15d97b386f29d578e67d3d1435ec6", "is_disabled": 0, "bike_id": "6ad15d97b386f29d578e67d3d1435ec6", "lon": -77.033388, "rental_uris": {"android": "https://dc.lft.to/lastmile_qr_scan", "ios": "https://dc.lft.to/lastmile_qr_scan"}, "fusion_lon": 0.0, "is_reserved": 0}, {"lat": 38.8668325, "fusion_lat": 0.0, "type": "electric_scooter", "name": "1ddf7ec8ac1cf0175b67ba3cf0d12c53", "is_disabled": 0, "bike_id": "1ddf7ec8ac1cf0175b67ba3cf0d12c53", "lon": -76.98570116666667, "rental_uris": {"android": "https://dc.lft.to/lastmile_qr_scan", "ios": "https://dc.lft.to/lastmile_qr_scan"}, "fusion_lon": 0.0, "is_reserved": 0}, {"lat": 38.932405, "fusion_lat": 0.0, "type": "electric_scooter", "name": "674d7d266575c6497e5d3f72b10ffea7", "is_disabled": 0, "bike_id": "674d7d266575c6497e5d3f72b10ffea7", "lon": -77.02955933333334, "rental_uris": {"android": "https://dc.lft.to/lastmile_qr_scan", "ios": "https://dc.lft.to/lastmile_qr_scan"}, "fusion_lon": 0.0, "is_reserved": 0}, {"lat": 38.8964245, "fusion_lat": 0.0, "type": "electric_scooter", "name": "f117a256242d9c0dcb7c8e20bd74f05e", "is_disabled": 0, "bike_id": "f117a256242d9c0dcb7c8e20bd74f05e", "lon": -77.00922316666667, "rental_uris": {"android": "https://dc.lft.to/lastmile_qr_scan", "ios": "https://dc.lft.to/lastmile_qr_scan"}, "fusion_lon": 0.0, "is_reserved": 0}, {"lat": 38.92533683333333, "fusion_lat": 0.0, "type": "electric_scooter", "name": "25ea5a96bf0c0d8d00e75638ff1bd9ac", "is_disabled": 0, "bike_id": "25ea5a96bf0c0d8d00e75638ff1bd9ac", "lon": -77.05074883333333, "rental_uris": {"android": "https://dc.lft.to/lastmile_qr_scan", "ios": "https://dc.lft.to/lastmile_qr_scan"}, "fusion_lon": 0.0, "is_reserved": 0}, {"lat": 38.899424, "fusion_lat": 0.0, "type": "electric_scooter", "name": "f19a1a0419df4c30a1ee840605e4f815", "is_disabled": 0, "bike_id": "f19a1a0419df4c30a1ee840605e4f815", "lon": -77.02978033333333, "rental_uris": {"android": "https://dc.lft.to/lastmile_qr_scan", "ios": "https://dc.lft.to/lastmile_qr_scan"}, "fusion_lon": 0.0, "is_reserved": 0}, {"lat": 38.8922285, "fusion_lat": 0.0, "type": "electric_scooter", "name": "292cf83e9e5608c9f0bf7d5e2a558a0b", "is_disabled": 0, "bike_id": "292cf83e9e5608c9f0bf7d5e2a558a0b", "lon": -77.0451265, "rental_uris": {"android": "https://dc.lft.to/lastmile_qr_scan", "ios": "https://dc.lft.to/lastmile_qr_scan"}, "fusion_lon": 0.0, "is_reserved": 0}, {"lat": 38.90811266666667, "fusion_lat": 0.0, "type": "electric_scooter", "name": "cc598a0ab0ca56f87c45fb90a9f45344", "is_disabled": 0, "bike_id": "cc598a0ab0ca56f87c45fb90a9f45344", "lon": -77.03948333333334, "rental_uris": {"android": "https://dc.lft.to/lastmile_qr_scan", "ios": "https://dc.lft.to/lastmile_qr_scan"}, "fusion_lon": 0.0, "is_reserved": 0}, {"lat": 38.9355685, "fusion_lat": 0.0, "type": "electric_scooter", "name": "926160b461ebca2b3bb64545d6014efe", "is_disabled": 0, "bike_id": "926160b461ebca2b3bb64545d6014efe", "lon": -77.08192966666667, "rental_uris": {"android": "https://dc.lft.to/lastmile_qr_scan", "ios": "https://dc.lft.to/lastmile_qr_scan"}, "fusion_lon": 0.0, "is_reserved": 0}, {"lat": 38.9019825, "fusion_lat": 0.0, "type": "electric_scooter", "name": "a6816e79faf7a1b8dc1e5ce7cbca4c2f", "is_disabled": 0, "bike_id": "a6816e79faf7a1b8dc1e5ce7cbca4c2f", "lon": -77.02156483333333, "rental_uris": {"android": "https://dc.lft.to/lastmile_qr_scan", "ios": "https://dc.lft.to/lastmile_qr_scan"}, "fusion_lon": 0.0, "is_reserved": 0}, {"lat": 38.92308083333333, "fusion_lat": 0.0, "type": "electric_scooter", "name": "b55934de1345ddfd701744c011985e78", "is_disabled": 0, "bike_id": "b55934de1345ddfd701744c011985e78", "lon": -77.0473785, "rental_uris": {"android": "https://dc.lft.to/lastmile_qr_scan", "ios": "https://dc.lft.to/lastmile_qr_scan"}, "fusion_lon": 0.0, "is_reserved": 0}, {"lat": 38.89908, "fusion_lat": 0.0, "type": "electric_scooter", "name": "44d0cefcf9ef45ede8c1cbb415c1db2f", "is_disabled": 0, "bike_id": "44d0cefcf9ef45ede8c1cbb415c1db2f", "lon": -77.0036255, "rental_uris": {"android": "https://dc.lft.to/lastmile_qr_scan", "ios": "https://dc.lft.to/lastmile_qr_scan"}, "fusion_lon": 0.0, "is_reserved": 0}, {"lat": 38.90063833333333, "fusion_lat": 0.0, "type": "electric_scooter", "name": "79d8d6837f4e84ae541f666d64816fd0", "is_disabled": 0, "bike_id": "79d8d6837f4e84ae541f666d64816fd0", "lon": -76.99615733333333, "rental_uris": {"android": "https://dc.lft.to/lastmile_qr_scan", "ios": "https://dc.lft.to/lastmile_qr_scan"}, "fusion_lon": 0.0, "is_reserved": 0}, {"lat": 38.89222133333333, "fusion_lat": 0.0, "type": "electric_scooter", "name": "a6b42f2a99af112e736565469cb44ef6", "is_disabled": 0, "bike_id": "a6b42f2a99af112e736565469cb44ef6", "lon": -77.04637233333334, "rental_uris": {"android": "https://dc.lft.to/lastmile_qr_scan", "ios": "https://dc.lft.to/lastmile_qr_scan"}, "fusion_lon": 0.0, "is_reserved": 0}, {"lat": 38.9042465, "fusion_lat": 0.0, "type": "electric_scooter", "name": "6080e768735e83cab33f784844c37642", "is_disabled": 0, "bike_id": "6080e768735e83cab33f784844c37642", "lon": -77.02505083333334, "rental_uris": {"android": "https://dc.lft.to/lastmile_qr_scan", "ios": "https://dc.lft.to/lastmile_qr_scan"}, "fusion_lon": 0.0, "is_reserved": 0}, {"lat": 39.04235283333333, "fusion_lat": 0.0, "type": "electric_bike", "name": "9c116e728848ad00cea0e98b1e73e41c", "is_disabled": 0, "bike_id": "9c116e728848ad00cea0e98b1e73e41c", "lon": -76.9973045, "rental_uris": {"android": "https://dc.lft.to/lastmile_qr_scan", "ios": "https://dc.lft.to/lastmile_qr_scan"}, "fusion_lon": 0.0, "is_reserved": 0}, {"lat": 38.912568, "fusion_lat": 0.0, "type": "electric_scooter", "name": "70fe4eaa03ee9622893b448779234731", "is_disabled": 0, "bike_id": "70fe4eaa03ee9622893b448779234731", "lon": -77.04254766666666, "rental_uris": {"android": "https://dc.lft.to/lastmile_qr_scan", "ios": "https://dc.lft.to/lastmile_qr_scan"}, "fusion_lon": 0.0, "is_reserved": 0}, {"lat": 38.903943, "fusion_lat": 0.0, "type": "electric_scooter", "name": "df0b2382e5c451e8c975ad2c84943313", "is_disabled": 0, "bike_id": "df0b2382e5c451e8c975ad2c84943313", "lon": -76.98465616666667, "rental_uris": {"android": "https://dc.lft.to/lastmile_qr_scan", "ios": "https://dc.lft.to/lastmile_qr_scan"}, "fusion_lon": 0.0, "is_reserved": 0}, {"lat": 38.899894833333335, "fusion_lat": 0.0, "type": "electric_scooter", "name": "a87f9e41d45d8eca886d1a8201c9a9e6", "is_disabled": 0, "bike_id": "a87f9e41d45d8eca886d1a8201c9a9e6", "lon": -77.05562283333333, "rental_uris": {"android": "https://dc.lft.to/lastmile_qr_scan", "ios": "https://dc.lft.to/lastmile_qr_scan"}, "fusion_lon": 0.0, "is_reserved": 0}, {"lat": 38.90546716666667, "fusion_lat": 0.0, "type": "electric_bike", "name": "755bdfae0c2dea8f1757cfba0aebf1e1", "is_disabled": 0, "bike_id": "755bdfae0c2dea8f1757cfba0aebf1e1", "lon": -77.0652075, "rental_uris": {"android": "https://dc.lft.to/lastmile_qr_scan", "ios": "https://dc.lft.to/lastmile_qr_scan"}, "fusion_lon": 0.0, "is_reserved": 0}, {"lat": 38.88742666666667, "fusion_lat": 0.0, "type": "electric_scooter", "name": "1c2e588de69f4c903ade94731532545b", "is_disabled": 0, "bike_id": "1c2e588de69f4c903ade94731532545b", "lon": -77.02625166666667, "rental_uris": {"android": "https://dc.lft.to/lastmile_qr_scan", "ios": "https://dc.lft.to/lastmile_qr_scan"}, "fusion_lon": 0.0, "is_reserved": 0}, {"lat": 38.865131833333336, "fusion_lat": 0.0, "type": "electric_scooter", "name": "d82efb49a73357e6d15e1a5e2f389798", "is_disabled": 0, "bike_id": "d82efb49a73357e6d15e1a5e2f389798", "lon": -76.97341283333333, "rental_uris": {"android": "https://dc.lft.to/lastmile_qr_scan", "ios": "https://dc.lft.to/lastmile_qr_scan"}, "fusion_lon": 0.0, "is_reserved": 0}, {"lat": 38.91550983333333, "fusion_lat": 0.0, "type": "electric_scooter", "name": "5372c72ff251b5ea2c8ea313eb94d4ed", "is_disabled": 0, "bike_id": "5372c72ff251b5ea2c8ea313eb94d4ed", "lon": -77.03251266666666, "rental_uris": {"android": "https://dc.lft.to/lastmile_qr_scan", "ios": "https://dc.lft.to/lastmile_qr_scan"}, "fusion_lon": 0.0, "is_reserved": 0}, {"lat": 38.916793166666665, "fusion_lat": 0.0, "type": "electric_scooter", "name": "1af882c1655f1b60c87563c8a5881058", "is_disabled": 0, "bike_id": "1af882c1655f1b60c87563c8a5881058", "lon": -77.03203933333333, "rental_uris": {"android": "https://dc.lft.to/lastmile_qr_scan", "ios": "https://dc.lft.to/lastmile_qr_scan"}, "fusion_lon": 0.0, "is_reserved": 0}, {"lat": 38.918033333333334, "fusion_lat": 0.0, "type": "electric_scooter", "name": "7c736252b0b75b4f4765cf00f953c348", "is_disabled": 0, "bike_id": "7c736252b0b75b4f4765cf00f953c348", "lon": -77.0369565, "rental_uris": {"android": "https://dc.lft.to/lastmile_qr_scan", "ios": "https://dc.lft.to/lastmile_qr_scan"}, "fusion_lon": 0.0, "is_reserved": 0}, {"lat": 38.89077066666667, "fusion_lat": 0.0, "type": "electric_scooter", "name": "9b0d166a2bad83f35ce9140ed698ef2c", "is_disabled": 0, "bike_id": "9b0d166a2bad83f35ce9140ed698ef2c", "lon": -76.98826516666666, "rental_uris": {"android": "https://dc.lft.to/lastmile_qr_scan", "ios": "https://dc.lft.to/lastmile_qr_scan"}, "fusion_lon": 0.0, "is_reserved": 0}, {"lat": 38.92266133333333, "fusion_lat": 0.0, "type": "electric_scooter", "name": "7d69670a84b6ed63a6b122734dce6a5e", "is_disabled": 0, "bike_id": "7d69670a84b6ed63a6b122734dce6a5e", "lon": -77.01848466666667, "rental_uris": {"android": "https://dc.lft.to/lastmile_qr_scan", "ios": "https://dc.lft.to/lastmile_qr_scan"}, "fusion_lon": 0.0, "is_reserved": 0}, {"lat": 38.892207666666664, "fusion_lat": 0.0, "type": "electric_scooter", "name": "fd59155cecf8ad70ce8dcca5d7baf7a2", "is_disabled": 0, "bike_id": "fd59155cecf8ad70ce8dcca5d7baf7a2", "lon": -77.046821, "rental_uris": {"android": "https://dc.lft.to/lastmile_qr_scan", "ios": "https://dc.lft.to/lastmile_qr_scan"}, "fusion_lon": 0.0, "is_reserved": 0}, {"lat": 38.913271333333334, "fusion_lat": 0.0, "type": "electric_scooter", "name": "f95049bd4bb73353b513db193020b031", "is_disabled": 0, "bike_id": "f95049bd4bb73353b513db193020b031", "lon": -77.04335233333333, "rental_uris": {"android": "https://dc.lft.to/lastmile_qr_scan", "ios": "https://dc.lft.to/lastmile_qr_scan"}, "fusion_lon": 0.0, "is_reserved": 0}, {"lat": 38.94177, "fusion_lat": 0.0, "type": "electric_scooter", "name": "58982106df9eb128d1244ad013f07c9a", "is_disabled": 0, "bike_id": "58982106df9eb128d1244ad013f07c9a", "lon": -77.031444, "rental_uris": {"android": "https://dc.lft.to/lastmile_qr_scan", "ios": "https://dc.lft.to/lastmile_qr_scan"}, "fusion_lon": 0.0, "is_reserved": 0}, {"lat": 38.89576133333333, "fusion_lat": 0.0, "type": "electric_scooter", "name": "7348f82e000ac4a5cc410ea932127170", "is_disabled": 0, "bike_id": "7348f82e000ac4a5cc410ea932127170", "lon": -77.02212783333333, "rental_uris": {"android": "https://dc.lft.to/lastmile_qr_scan", "ios": "https://dc.lft.to/lastmile_qr_scan"}, "fusion_lon": 0.0, "is_reserved": 0}, {"lat": 38.923817166666666, "fusion_lat": 0.0, "type": "electric_scooter", "name": "87bbb74582cebea477365d23bdcbae77", "is_disabled": 0, "bike_id": "87bbb74582cebea477365d23bdcbae77", "lon": -77.04081266666667, "rental_uris": {"android": "https://dc.lft.to/lastmile_qr_scan", "ios": "https://dc.lft.to/lastmile_qr_scan"}, "fusion_lon": 0.0, "is_reserved": 0}, {"lat": 38.91798083333333, "fusion_lat": 0.0, "type": "electric_scooter", "name": "6532f37e47b8d607c24a98912623d544", "is_disabled": 0, "bike_id": "6532f37e47b8d607c24a98912623d544", "lon": -77.02314666666666, "rental_uris": {"android": "https://dc.lft.to/lastmile_qr_scan", "ios": "https://dc.lft.to/lastmile_qr_scan"}, "fusion_lon": 0.0, "is_reserved": 0}, {"lat": 38.895832166666665, "fusion_lat": 0.0, "type": "electric_scooter", "name": "1de87d92164ca6b503b102bd260608d2", "is_disabled": 0, "bike_id": "1de87d92164ca6b503b102bd260608d2", "lon": -77.02304016666666, "rental_uris": {"android": "https://dc.lft.to/lastmile_qr_scan", "ios": "https://dc.lft.to/lastmile_qr_scan"}, "fusion_lon": 0.0, "is_reserved": 0}, {"lat": 38.90168116666667, "fusion_lat": 0.0, "type": "electric_scooter", "name": "1d2d15d263838ec69d41333debdb4b99", "is_disabled": 0, "bike_id": "1d2d15d263838ec69d41333debdb4b99", "lon": -77.034342, "rental_uris": {"android": "https://dc.lft.to/lastmile_qr_scan", "ios": "https://dc.lft.to/lastmile_qr_scan"}, "fusion_lon": 0.0, "is_reserved": 0}, {"lat": 38.897363666666664, "fusion_lat": 0.0, "type": "electric_scooter", "name": "8b837ee207e1b09ab5860fbc407cd91a", "is_disabled": 0, "bike_id": "8b837ee207e1b09ab5860fbc407cd91a", "lon": -76.94723633333334, "rental_uris": {"android": "https://dc.lft.to/lastmile_qr_scan", "ios": "https://dc.lft.to/lastmile_qr_scan"}, "fusion_lon": 0.0, "is_reserved": 0}, {"lat": 38.9045165, "fusion_lat": 0.0, "type": "electric_scooter", "name": "905b54bf8e5a156c4da2e7c63ccfd07f", "is_disabled": 0, "bike_id": "905b54bf8e5a156c4da2e7c63ccfd07f", "lon": -77.05913683333333, "rental_uris": {"android": "https://dc.lft.to/lastmile_qr_scan", "ios": "https://dc.lft.to/lastmile_qr_scan"}, "fusion_lon": 0.0, "is_reserved": 0}, {"lat": 38.8866, "fusion_lat": 0.0, "type": "electric_bike", "name": "1ca7ff1d4235596c78d16d299d70bfae", "is_disabled": 0, "bike_id": "1ca7ff1d4235596c78d16d299d70bfae", "lon": -77.16230566666667, "rental_uris": {"android": "https://dc.lft.to/lastmile_qr_scan", "ios": "https://dc.lft.to/lastmile_qr_scan"}, "fusion_lon": 0.0, "is_reserved": 0}, {"lat": 38.91031816666667, "fusion_lat": 0.0, "type": "electric_scooter", "name": "8053a2da358882f9e966678db1130a9b", "is_disabled": 0, "bike_id": "8053a2da358882f9e966678db1130a9b", "lon": -77.03444716666667, "rental_uris": {"android": "https://dc.lft.to/lastmile_qr_scan", "ios": "https://dc.lft.to/lastmile_qr_scan"}, "fusion_lon": 0.0, "is_reserved": 0}, {"lat": 38.901064, "fusion_lat": 0.0, "type": "electric_scooter", "name": "cc0e055e0838f03ae05a9ee047331cdb", "is_disabled": 0, "bike_id": "cc0e055e0838f03ae05a9ee047331cdb", "lon": -76.99490816666666, "rental_uris": {"android": "https://dc.lft.to/lastmile_qr_scan", "ios": "https://dc.lft.to/lastmile_qr_scan"}, "fusion_lon": 0.0, "is_reserved": 0}, {"lat": 38.91691466666666, "fusion_lat": 0.0, "type": "electric_scooter", "name": "ea10b83c77ae6f4129f047ab86497bae", "is_disabled": 0, "bike_id": "ea10b83c77ae6f4129f047ab86497bae", "lon": -77.0358225, "rental_uris": {"android": "https://dc.lft.to/lastmile_qr_scan", "ios": "https://dc.lft.to/lastmile_qr_scan"}, "fusion_lon": 0.0, "is_reserved": 0}, {"lat": 38.9332015, "fusion_lat": 0.0, "type": "electric_scooter", "name": "8ef25ad5349ade3f98fcf02d0cc1a4eb", "is_disabled": 0, "bike_id": "8ef25ad5349ade3f98fcf02d0cc1a4eb", "lon": -77.0342585, "rental_uris": {"android": "https://dc.lft.to/lastmile_qr_scan", "ios": "https://dc.lft.to/lastmile_qr_scan"}, "fusion_lon": 0.0, "is_reserved": 0}, {"lat": 38.860089333333335, "fusion_lat": 0.0, "type": "electric_scooter", "name": "8d7c2e6cf52aa9a1977aca5d709316b8", "is_disabled": 0, "bike_id": "8d7c2e6cf52aa9a1977aca5d709316b8", "lon": -76.9852015, "rental_uris": {"android": "https://dc.lft.to/lastmile_qr_scan", "ios": "https://dc.lft.to/lastmile_qr_scan"}, "fusion_lon": 0.0, "is_reserved": 0}, {"lat": 38.902416833333334, "fusion_lat": 0.0, "type": "electric_scooter", "name": "499a996968fb14b19df2cdd388b78432", "is_disabled": 0, "bike_id": "499a996968fb14b19df2cdd388b78432", "lon": -77.04548933333334, "rental_uris": {"android": "https://dc.lft.to/lastmile_qr_scan", "ios": "https://dc.lft.to/lastmile_qr_scan"}, "fusion_lon": 0.0, "is_reserved": 0}, {"lat": 38.902589, "fusion_lat": 0.0, "type": "electric_scooter", "name": "85e34bf9de74f2be203006057cbda1be", "is_disabled": 0, "bike_id": "85e34bf9de74f2be203006057cbda1be", "lon": -77.03036633333333, "rental_uris": {"android": "https://dc.lft.to/lastmile_qr_scan", "ios": "https://dc.lft.to/lastmile_qr_scan"}, "fusion_lon": 0.0, "is_reserved": 0}, {"lat": 38.9059385, "fusion_lat": 0.0, "type": "electric_scooter", "name": "2b3e9975ede0fd5f66d9126b9bb0af06", "is_disabled": 0, "bike_id": "2b3e9975ede0fd5f66d9126b9bb0af06", "lon": -77.04019433333333, "rental_uris": {"android": "https://dc.lft.to/lastmile_qr_scan", "ios": "https://dc.lft.to/lastmile_qr_scan"}, "fusion_lon": 0.0, "is_reserved": 0}, {"lat": 38.90115383333333, "fusion_lat": 0.0, "type": "electric_scooter", "name": "8ee378fecb662bc7016574723f044009", "is_disabled": 0, "bike_id": "8ee378fecb662bc7016574723f044009", "lon": -77.04986333333333, "rental_uris": {"android": "https://dc.lft.to/lastmile_qr_scan", "ios": "https://dc.lft.to/lastmile_qr_scan"}, "fusion_lon": 0.0, "is_reserved": 0}, {"lat": 38.90265683333333, "fusion_lat": 0.0, "type": "electric_scooter", "name": "67022d00c8a724b6205a7a4755527443", "is_disabled": 0, "bike_id": "67022d00c8a724b6205a7a4755527443", "lon": -77.00326316666667, "rental_uris": {"android": "https://dc.lft.to/lastmile_qr_scan", "ios": "https://dc.lft.to/lastmile_qr_scan"}, "fusion_lon": 0.0, "is_reserved": 0}, {"lat": 38.96916483333333, "fusion_lat": 0.0, "type": "electric_bike", "name": "1699ff044df48a26cd99190ce3ea5f83", "is_disabled": 0, "bike_id": "1699ff044df48a26cd99190ce3ea5f83", "lon": -77.01798283333333, "rental_uris": {"android": "https://dc.lft.to/lastmile_qr_scan", "ios": "https://dc.lft.to/lastmile_qr_scan"}, "fusion_lon": 0.0, "is_reserved": 0}, {"lat": 38.9885915, "fusion_lat": 0.0, "type": "electric_bike", "name": "a1622a4bcd5020a8187691ce43742eb1", "is_disabled": 0, "bike_id": "a1622a4bcd5020a8187691ce43742eb1", "lon": -77.09650266666667, "rental_uris": {"android": "https://dc.lft.to/lastmile_qr_scan", "ios": "https://dc.lft.to/lastmile_qr_scan"}, "fusion_lon": 0.0, "is_reserved": 0}, {"lat": 38.90684566666667, "fusion_lat": 0.0, "type": "electric_scooter", "name": "3e661bac5ab77db7228cf16508ccd1ec", "is_disabled": 0, "bike_id": "3e661bac5ab77db7228cf16508ccd1ec", "lon": -77.0268845, "rental_uris": {"android": "https://dc.lft.to/lastmile_qr_scan", "ios": "https://dc.lft.to/lastmile_qr_scan"}, "fusion_lon": 0.0, "is_reserved": 0}, {"lat": 38.945601833333335, "fusion_lat": 0.0, "type": "electric_scooter", "name": "deddf7919722791074e3b2432ef115e6", "is_disabled": 0, "bike_id": "deddf7919722791074e3b2432ef115e6", "lon": -77.07958266666667, "rental_uris": {"android": "https://dc.lft.to/lastmile_qr_scan", "ios": "https://dc.lft.to/lastmile_qr_scan"}, "fusion_lon": 0.0, "is_reserved": 0}, {"lat": 38.91914233333333, "fusion_lat": 0.0, "type": "electric_scooter", "name": "2da4437abfed60e994f08fcda9e16992", "is_disabled": 0, "bike_id": "2da4437abfed60e994f08fcda9e16992", "lon": -77.0120515, "rental_uris": {"android": "https://dc.lft.to/lastmile_qr_scan", "ios": "https://dc.lft.to/lastmile_qr_scan"}, "fusion_lon": 0.0, "is_reserved": 0}, {"lat": 38.89778966666667, "fusion_lat": 0.0, "type": "electric_bike", "name": "5fe4a1d3f64aeb8bd29311747283926f", "is_disabled": 0, "bike_id": "5fe4a1d3f64aeb8bd29311747283926f", "lon": -77.00747883333334, "rental_uris": {"android": "https://dc.lft.to/lastmile_qr_scan", "ios": "https://dc.lft.to/lastmile_qr_scan"}, "fusion_lon": 0.0, "is_reserved": 0}, {"lat": 38.949797833333335, "fusion_lat": 0.0, "type": "electric_scooter", "name": "a5e414a853e4bac5e80debb76d8b09c1", "is_disabled": 0, "bike_id": "a5e414a853e4bac5e80debb76d8b09c1", "lon": -77.02692183333333, "rental_uris": {"android": "https://dc.lft.to/lastmile_qr_scan", "ios": "https://dc.lft.to/lastmile_qr_scan"}, "fusion_lon": 0.0, "is_reserved": 0}, {"lat": 38.90683933333333, "fusion_lat": 0.0, "type": "electric_scooter", "name": "ef01d57c359e3333ee10f953f553c7a6", "is_disabled": 0, "bike_id": "ef01d57c359e3333ee10f953f553c7a6", "lon": -77.02690316666667, "rental_uris": {"android": "https://dc.lft.to/lastmile_qr_scan", "ios": "https://dc.lft.to/lastmile_qr_scan"}, "fusion_lon": 0.0, "is_reserved": 0}, {"lat": 38.902676, "fusion_lat": 0.0, "type": "electric_scooter", "name": "226ce832fa6ed311721bf901e3970c9b", "is_disabled": 0, "bike_id": "226ce832fa6ed311721bf901e3970c9b", "lon": -77.003284, "rental_uris": {"android": "https://dc.lft.to/lastmile_qr_scan", "ios": "https://dc.lft.to/lastmile_qr_scan"}, "fusion_lon": 0.0, "is_reserved": 0}, {"lat": 38.899086, "fusion_lat": 0.0, "type": "electric_scooter", "name": "a2a8bb749e29a76e1610665a963ba371", "is_disabled": 0, "bike_id": "a2a8bb749e29a76e1610665a963ba371", "lon": -77.046724, "rental_uris": {"android": "https://dc.lft.to/lastmile_qr_scan", "ios": "https://dc.lft.to/lastmile_qr_scan"}, "fusion_lon": 0.0, "is_reserved": 0}, {"lat": 38.91703716666667, "fusion_lat": 0.0, "type": "electric_scooter", "name": "15f481b456be05a0885249f0d665daf0", "is_disabled": 0, "bike_id": "15f481b456be05a0885249f0d665daf0", "lon": -77.028405, "rental_uris": {"android": "https://dc.lft.to/lastmile_qr_scan", "ios": "https://dc.lft.to/lastmile_qr_scan"}, "fusion_lon": 0.0, "is_reserved": 0}, {"lat": 38.90502933333333, "fusion_lat": 0.0, "type": "electric_scooter", "name": "a2d1c320dd236ae3d7777cab9a7e9325", "is_disabled": 0, "bike_id": "a2d1c320dd236ae3d7777cab9a7e9325", "lon": -77.0649345, "rental_uris": {"android": "https://dc.lft.to/lastmile_qr_scan", "ios": "https://dc.lft.to/lastmile_qr_scan"}, "fusion_lon": 0.0, "is_reserved": 0}, {"lat": 38.90166083333333, "fusion_lat": 0.0, "type": "electric_scooter", "name": "8143a785a81e7cc95eb32cadecd10aae", "is_disabled": 0, "bike_id": "8143a785a81e7cc95eb32cadecd10aae", "lon": -76.93072016666666, "rental_uris": {"android": "https://dc.lft.to/lastmile_qr_scan", "ios": "https://dc.lft.to/lastmile_qr_scan"}, "fusion_lon": 0.0, "is_reserved": 0}, {"lat": 38.837729833333334, "fusion_lat": 0.0, "type": "electric_bike", "name": "37a502225dd269cfc6f8af20e3526dc1", "is_disabled": 0, "bike_id": "37a502225dd269cfc6f8af20e3526dc1", "lon": -77.0499515, "rental_uris": {"android": "https://dc.lft.to/lastmile_qr_scan", "ios": "https://dc.lft.to/lastmile_qr_scan"}, "fusion_lon": 0.0, "is_reserved": 0}, {"lat": 38.909794, "fusion_lat": 0.0, "type": "electric_scooter", "name": "a86bb7e61cd0c47b071c723e316e7464", "is_disabled": 0, "bike_id": "a86bb7e61cd0c47b071c723e316e7464", "lon": -76.99497483333333, "rental_uris": {"android": "https://dc.lft.to/lastmile_qr_scan", "ios": "https://dc.lft.to/lastmile_qr_scan"}, "fusion_lon": 0.0, "is_reserved": 0}, {"lat": 38.90681, "fusion_lat": 0.0, "type": "electric_scooter", "name": "61aba29259aed9304fa4e02a982af21a", "is_disabled": 0, "bike_id": "61aba29259aed9304fa4e02a982af21a", "lon": -77.05151116666667, "rental_uris": {"android": "https://dc.lft.to/lastmile_qr_scan", "ios": "https://dc.lft.to/lastmile_qr_scan"}, "fusion_lon": 0.0, "is_reserved": 0}, {"lat": 38.94982183333333, "fusion_lat": 0.0, "type": "electric_bike", "name": "699228e183821269d603671b1159a353", "is_disabled": 0, "bike_id": "699228e183821269d603671b1159a353", "lon": -77.08014633333333, "rental_uris": {"android": "https://dc.lft.to/lastmile_qr_scan", "ios": "https://dc.lft.to/lastmile_qr_scan"}, "fusion_lon": 0.0, "is_reserved": 0}, {"lat": 38.943840333333334, "fusion_lat": 0.0, "type": "electric_scooter", "name": "ab864a8bb69afb3b964454e2d449d789", "is_disabled": 0, "bike_id": "ab864a8bb69afb3b964454e2d449d789", "lon": -77.07699533333333, "rental_uris": {"android": "https://dc.lft.to/lastmile_qr_scan", "ios": "https://dc.lft.to/lastmile_qr_scan"}, "fusion_lon": 0.0, "is_reserved": 0}, {"lat": 38.901251333333335, "fusion_lat": 0.0, "type": "electric_scooter", "name": "f886150645b30466a8ee2774037664fd", "is_disabled": 0, "bike_id": "f886150645b30466a8ee2774037664fd", "lon": -77.04981433333333, "rental_uris": {"android": "https://dc.lft.to/lastmile_qr_scan", "ios": "https://dc.lft.to/lastmile_qr_scan"}, "fusion_lon": 0.0, "is_reserved": 0}, {"lat": 38.9244325, "fusion_lat": 0.0, "type": "electric_scooter", "name": "d299e2bdbb849c8cd460a4bb9d709521", "is_disabled": 0, "bike_id": "d299e2bdbb849c8cd460a4bb9d709521", "lon": -77.03991816666667, "rental_uris": {"android": "https://dc.lft.to/lastmile_qr_scan", "ios": "https://dc.lft.to/lastmile_qr_scan"}, "fusion_lon": 0.0, "is_reserved": 0}, {"lat": 38.92043566666667, "fusion_lat": 0.0, "type": "electric_scooter", "name": "76ac05b1123f19feb16b21af1728296e", "is_disabled": 0, "bike_id": "76ac05b1123f19feb16b21af1728296e", "lon": -77.0167045, "rental_uris": {"android": "https://dc.lft.to/lastmile_qr_scan", "ios": "https://dc.lft.to/lastmile_qr_scan"}, "fusion_lon": 0.0, "is_reserved": 0}, {"lat": 38.92219516666667, "fusion_lat": 0.0, "type": "electric_bike", "name": "54d8a9ba54539fb078e50c660ea582c3", "is_disabled": 0, "bike_id": "54d8a9ba54539fb078e50c660ea582c3", "lon": -77.201354, "rental_uris": {"android": "https://dc.lft.to/lastmile_qr_scan", "ios": "https://dc.lft.to/lastmile_qr_scan"}, "fusion_lon": 0.0, "is_reserved": 0}, {"lat": 38.91706166666667, "fusion_lat": 0.0, "type": "electric_scooter", "name": "56e8e3fca32da182e57014db3b0d5013", "is_disabled": 0, "bike_id": "56e8e3fca32da182e57014db3b0d5013", "lon": -77.02320166666667, "rental_uris": {"android": "https://dc.lft.to/lastmile_qr_scan", "ios": "https://dc.lft.to/lastmile_qr_scan"}, "fusion_lon": 0.0, "is_reserved": 0}, {"lat": 38.9069295, "fusion_lat": 0.0, "type": "electric_bike", "name": "5faa9fa1c410699215b758bfb1d948da", "is_disabled": 0, "bike_id": "5faa9fa1c410699215b758bfb1d948da", "lon": -76.95251683333333, "rental_uris": {"android": "https://dc.lft.to/lastmile_qr_scan", "ios": "https://dc.lft.to/lastmile_qr_scan"}, "fusion_lon": 0.0, "is_reserved": 0}, {"lat": 38.92281716666667, "fusion_lat": 0.0, "type": "electric_scooter", "name": "dc98f433e5be44f0444c37a02ce43d91", "is_disabled": 0, "bike_id": "dc98f433e5be44f0444c37a02ce43d91", "lon": -77.032855, "rental_uris": {"android": "https://dc.lft.to/lastmile_qr_scan", "ios": "https://dc.lft.to/lastmile_qr_scan"}, "fusion_lon": 0.0, "is_reserved": 0}, {"lat": 38.934262333333336, "fusion_lat": 0.0, "type": "electric_scooter", "name": "878c995a718e59306a4bca5679598f1b", "is_disabled": 0, "bike_id": "878c995a718e59306a4bca5679598f1b", "lon": -77.039931, "rental_uris": {"android": "https://dc.lft.to/lastmile_qr_scan", "ios": "https://dc.lft.to/lastmile_qr_scan"}, "fusion_lon": 0.0, "is_reserved": 0}, {"lat": 38.863733333333336, "fusion_lat": 0.0, "type": "electric_scooter", "name": "a844c65536956ed3a186f6a9e8eb0bb5", "is_disabled": 0, "bike_id": "a844c65536956ed3a186f6a9e8eb0bb5", "lon": -76.99061016666667, "rental_uris": {"android": "https://dc.lft.to/lastmile_qr_scan", "ios": "https://dc.lft.to/lastmile_qr_scan"}, "fusion_lon": 0.0, "is_reserved": 0}, {"lat": 38.924811, "fusion_lat": 0.0, "type": "electric_scooter", "name": "0a389b31f3b332858c84828aaa0e5c73", "is_disabled": 0, "bike_id": "0a389b31f3b332858c84828aaa0e5c73", "lon": -77.02217, "rental_uris": {"android": "https://dc.lft.to/lastmile_qr_scan", "ios": "https://dc.lft.to/lastmile_qr_scan"}, "fusion_lon": 0.0, "is_reserved": 0}, {"lat": 38.915820833333335, "fusion_lat": 0.0, "type": "electric_scooter", "name": "68205fbe4e9809ac2f35e967f36431c7", "is_disabled": 0, "bike_id": "68205fbe4e9809ac2f35e967f36431c7", "lon": -77.01995133333334, "rental_uris": {"android": "https://dc.lft.to/lastmile_qr_scan", "ios": "https://dc.lft.to/lastmile_qr_scan"}, "fusion_lon": 0.0, "is_reserved": 0}, {"lat": 38.9110615, "fusion_lat": 0.0, "type": "electric_scooter", "name": "908a54c1579ce02017f690a6ba2b8888", "is_disabled": 0, "bike_id": "908a54c1579ce02017f690a6ba2b8888", "lon": -77.03841583333333, "rental_uris": {"android": "https://dc.lft.to/lastmile_qr_scan", "ios": "https://dc.lft.to/lastmile_qr_scan"}, "fusion_lon": 0.0, "is_reserved": 0}, {"lat": 38.89232066666667, "fusion_lat": 0.0, "type": "electric_scooter", "name": "ef7295938c2cb9f30046e9bd0cfd49e2", "is_disabled": 0, "bike_id": "ef7295938c2cb9f30046e9bd0cfd49e2", "lon": -77.03209983333333, "rental_uris": {"android": "https://dc.lft.to/lastmile_qr_scan", "ios": "https://dc.lft.to/lastmile_qr_scan"}, "fusion_lon": 0.0, "is_reserved": 0}, {"lat": 38.896216333333335, "fusion_lat": 0.0, "type": "electric_scooter", "name": "ea0169bf4073213f7ccf9d980e79d26b", "is_disabled": 0, "bike_id": "ea0169bf4073213f7ccf9d980e79d26b", "lon": -77.03189533333334, "rental_uris": {"android": "https://dc.lft.to/lastmile_qr_scan", "ios": "https://dc.lft.to/lastmile_qr_scan"}, "fusion_lon": 0.0, "is_reserved": 0}, {"lat": 38.90476066666667, "fusion_lat": 0.0, "type": "electric_scooter", "name": "6419735cd7d5c69390590f2ae0017e97", "is_disabled": 0, "bike_id": "6419735cd7d5c69390590f2ae0017e97", "lon": -77.00203933333333, "rental_uris": {"android": "https://dc.lft.to/lastmile_qr_scan", "ios": "https://dc.lft.to/lastmile_qr_scan"}, "fusion_lon": 0.0, "is_reserved": 0}, {"lat": 38.894662833333335, "fusion_lat": 0.0, "type": "electric_scooter", "name": "a15b042725fe3044beca33a096a06ace", "is_disabled": 0, "bike_id": "a15b042725fe3044beca33a096a06ace", "lon": -76.94963383333334, "rental_uris": {"android": "https://dc.lft.to/lastmile_qr_scan", "ios": "https://dc.lft.to/lastmile_qr_scan"}, "fusion_lon": 0.0, "is_reserved": 0}, {"lat": 38.92858833333333, "fusion_lat": 0.0, "type": "electric_scooter", "name": "4ca8a32d42a001c06ed730d31eebd074", "is_disabled": 0, "bike_id": "4ca8a32d42a001c06ed730d31eebd074", "lon": -77.03735, "rental_uris": {"android": "https://dc.lft.to/lastmile_qr_scan", "ios": "https://dc.lft.to/lastmile_qr_scan"}, "fusion_lon": 0.0, "is_reserved": 0}, {"lat": 38.9170585, "fusion_lat": 0.0, "type": "electric_scooter", "name": "dde68f34d717cd7f0692751d3a098825", "is_disabled": 0, "bike_id": "dde68f34d717cd7f0692751d3a098825", "lon": -77.02460433333333, "rental_uris": {"android": "https://dc.lft.to/lastmile_qr_scan", "ios": "https://dc.lft.to/lastmile_qr_scan"}, "fusion_lon": 0.0, "is_reserved": 0}, {"lat": 38.8662845, "fusion_lat": 0.0, "type": "electric_scooter", "name": "f2fb42ab6fc1a577006a843049c039d5", "is_disabled": 0, "bike_id": "f2fb42ab6fc1a577006a843049c039d5", "lon": -76.98713233333334, "rental_uris": {"android": "https://dc.lft.to/lastmile_qr_scan", "ios": "https://dc.lft.to/lastmile_qr_scan"}, "fusion_lon": 0.0, "is_reserved": 0}, {"lat": 38.81978616666667, "fusion_lat": 0.0, "type": "electric_bike", "name": "d3700378c5171e27fb07c8c1fcd3d5c6", "is_disabled": 0, "bike_id": "d3700378c5171e27fb07c8c1fcd3d5c6", "lon": -76.99807383333334, "rental_uris": {"android": "https://dc.lft.to/lastmile_qr_scan", "ios": "https://dc.lft.to/lastmile_qr_scan"}, "fusion_lon": 0.0, "is_reserved": 0}, {"lat": 38.92418466666667, "fusion_lat": 0.0, "type": "electric_scooter", "name": "f13d4c48cdc3285006790f4d190cdb9b", "is_disabled": 0, "bike_id": "f13d4c48cdc3285006790f4d190cdb9b", "lon": -77.0194395, "rental_uris": {"android": "https://dc.lft.to/lastmile_qr_scan", "ios": "https://dc.lft.to/lastmile_qr_scan"}, "fusion_lon": 0.0, "is_reserved": 0}, {"lat": 38.8962275, "fusion_lat": 0.0, "type": "electric_scooter", "name": "78f29c053454acbc93f8b1e9707efc29", "is_disabled": 0, "bike_id": "78f29c053454acbc93f8b1e9707efc29", "lon": -77.02379833333333, "rental_uris": {"android": "https://dc.lft.to/lastmile_qr_scan", "ios": "https://dc.lft.to/lastmile_qr_scan"}, "fusion_lon": 0.0, "is_reserved": 0}, {"lat": 38.899115333333334, "fusion_lat": 0.0, "type": "electric_bike", "name": "46099f2908cf16bd6e7f7f5d6936a6b7", "is_disabled": 0, "bike_id": "46099f2908cf16bd6e7f7f5d6936a6b7", "lon": -77.04871316666667, "rental_uris": {"android": "https://dc.lft.to/lastmile_qr_scan", "ios": "https://dc.lft.to/lastmile_qr_scan"}, "fusion_lon": 0.0, "is_reserved": 0}, {"lat": 38.89633333333333, "fusion_lat": 0.0, "type": "electric_scooter", "name": "839e83804f8c678db1907a5b44f031a3", "is_disabled": 0, "bike_id": "839e83804f8c678db1907a5b44f031a3", "lon": -77.051093, "rental_uris": {"android": "https://dc.lft.to/lastmile_qr_scan", "ios": "https://dc.lft.to/lastmile_qr_scan"}, "fusion_lon": 0.0, "is_reserved": 0}, {"lat": 38.8953055, "fusion_lat": 0.0, "type": "electric_scooter", "name": "4e36f2d1a006e0f94b49aea2745dc121", "is_disabled": 0, "bike_id": "4e36f2d1a006e0f94b49aea2745dc121", "lon": -77.02295566666666, "rental_uris": {"android": "https://dc.lft.to/lastmile_qr_scan", "ios": "https://dc.lft.to/lastmile_qr_scan"}, "fusion_lon": 0.0, "is_reserved": 0}, {"lat": 38.944121333333335, "fusion_lat": 0.0, "type": "electric_scooter", "name": "677fb66587982e7c5e49a96936b4db1f", "is_disabled": 0, "bike_id": "677fb66587982e7c5e49a96936b4db1f", "lon": -77.0552085, "rental_uris": {"android": "https://dc.lft.to/lastmile_qr_scan", "ios": "https://dc.lft.to/lastmile_qr_scan"}, "fusion_lon": 0.0, "is_reserved": 0}, {"lat": 38.88497233333333, "fusion_lat": 0.0, "type": "electric_scooter", "name": "a83175635a109559d826e1c87ef89665", "is_disabled": 0, "bike_id": "a83175635a109559d826e1c87ef89665", "lon": -77.0088595, "rental_uris": {"android": "https://dc.lft.to/lastmile_qr_scan", "ios": "https://dc.lft.to/lastmile_qr_scan"}, "fusion_lon": 0.0, "is_reserved": 0}, {"lat": 38.912633666666665, "fusion_lat": 0.0, "type": "electric_scooter", "name": "8ba6fe20e76db6172da1a8dab699b932", "is_disabled": 0, "bike_id": "8ba6fe20e76db6172da1a8dab699b932", "lon": -77.04837083333334, "rental_uris": {"android": "https://dc.lft.to/lastmile_qr_scan", "ios": "https://dc.lft.to/lastmile_qr_scan"}, "fusion_lon": 0.0, "is_reserved": 0}, {"lat": 38.910561666666666, "fusion_lat": 0.0, "type": "electric_scooter", "name": "401285ae5d412bd1966a7e6cdae893ee", "is_disabled": 0, "bike_id": "401285ae5d412bd1966a7e6cdae893ee", "lon": -77.0222175, "rental_uris": {"android": "https://dc.lft.to/lastmile_qr_scan", "ios": "https://dc.lft.to/lastmile_qr_scan"}, "fusion_lon": 0.0, "is_reserved": 0}, {"lat": 38.887708333333336, "fusion_lat": 0.0, "type": "electric_scooter", "name": "5452f7b8ecdbe3b085a9215a40ebf664", "is_disabled": 0, "bike_id": "5452f7b8ecdbe3b085a9215a40ebf664", "lon": -77.0020175, "rental_uris": {"android": "https://dc.lft.to/lastmile_qr_scan", "ios": "https://dc.lft.to/lastmile_qr_scan"}, "fusion_lon": 0.0, "is_reserved": 0}, {"lat": 38.86515633333333, "fusion_lat": 0.0, "type": "electric_bike", "name": "fcb0ef82223f1fae334507b2fb0860c0", "is_disabled": 0, "bike_id": "fcb0ef82223f1fae334507b2fb0860c0", "lon": -77.12936883333333, "rental_uris": {"android": "https://dc.lft.to/lastmile_qr_scan", "ios": "https://dc.lft.to/lastmile_qr_scan"}, "fusion_lon": 0.0, "is_reserved": 0}, {"lat": 38.9149145, "fusion_lat": 0.0, "type": "electric_scooter", "name": "ee4a7894867575de30954880b92184f6", "is_disabled": 0, "bike_id": "ee4a7894867575de30954880b92184f6", "lon": -77.04838, "rental_uris": {"android": "https://dc.lft.to/lastmile_qr_scan", "ios": "https://dc.lft.to/lastmile_qr_scan"}, "fusion_lon": 0.0, "is_reserved": 0}, {"lat": 38.92363433333333, "fusion_lat": 0.0, "type": "electric_scooter", "name": "f8364fae42c654fb920e79776aae5c4e", "is_disabled": 0, "bike_id": "f8364fae42c654fb920e79776aae5c4e", "lon": -77.018945, "rental_uris": {"android": "https://dc.lft.to/lastmile_qr_scan", "ios": "https://dc.lft.to/lastmile_qr_scan"}, "fusion_lon": 0.0, "is_reserved": 0}, {"lat": 38.8934815, "fusion_lat": 0.0, "type": "electric_scooter", "name": "58fe206535a5e6dc60328cab5c25d464", "is_disabled": 0, "bike_id": "58fe206535a5e6dc60328cab5c25d464", "lon": -76.94936466666667, "rental_uris": {"android": "https://dc.lft.to/lastmile_qr_scan", "ios": "https://dc.lft.to/lastmile_qr_scan"}, "fusion_lon": 0.0, "is_reserved": 0}, {"lat": 38.924827, "fusion_lat": 0.0, "type": "electric_scooter", "name": "130e66c3ad463e0eb94caca0be526119", "is_disabled": 0, "bike_id": "130e66c3ad463e0eb94caca0be526119", "lon": -77.03175133333333, "rental_uris": {"android": "https://dc.lft.to/lastmile_qr_scan", "ios": "https://dc.lft.to/lastmile_qr_scan"}, "fusion_lon": 0.0, "is_reserved": 0}, {"lat": 38.960516, "fusion_lat": 0.0, "type": "electric_scooter", "name": "e22ec2b600a0c39102a861df78c354b6", "is_disabled": 0, "bike_id": "e22ec2b600a0c39102a861df78c354b6", "lon": -77.02795833333333, "rental_uris": {"android": "https://dc.lft.to/lastmile_qr_scan", "ios": "https://dc.lft.to/lastmile_qr_scan"}, "fusion_lon": 0.0, "is_reserved": 0}, {"lat": 38.91632366666666, "fusion_lat": 0.0, "type": "electric_scooter", "name": "dafb4d18b4b239ed8647690ccd49f338", "is_disabled": 0, "bike_id": "dafb4d18b4b239ed8647690ccd49f338", "lon": -77.02561183333333, "rental_uris": {"android": "https://dc.lft.to/lastmile_qr_scan", "ios": "https://dc.lft.to/lastmile_qr_scan"}, "fusion_lon": 0.0, "is_reserved": 0}, {"lat": 38.929387, "fusion_lat": 0.0, "type": "electric_scooter", "name": "0c154111f597b7175bb9887d74a61b65", "is_disabled": 0, "bike_id": "0c154111f597b7175bb9887d74a61b65", "lon": -77.00570866666666, "rental_uris": {"android": "https://dc.lft.to/lastmile_qr_scan", "ios": "https://dc.lft.to/lastmile_qr_scan"}, "fusion_lon": 0.0, "is_reserved": 0}, {"lat": 38.91968683333333, "fusion_lat": 0.0, "type": "electric_scooter", "name": "488702287751ff37a3ecc61ad714131a", "is_disabled": 0, "bike_id": "488702287751ff37a3ecc61ad714131a", "lon": -77.041405, "rental_uris": {"android": "https://dc.lft.to/lastmile_qr_scan", "ios": "https://dc.lft.to/lastmile_qr_scan"}, "fusion_lon": 0.0, "is_reserved": 0}, {"lat": 38.89828166666667, "fusion_lat": 0.0, "type": "electric_scooter", "name": "a269255fde3a5833dc901f3418ebf212", "is_disabled": 0, "bike_id": "a269255fde3a5833dc901f3418ebf212", "lon": -76.94651483333334, "rental_uris": {"android": "https://dc.lft.to/lastmile_qr_scan", "ios": "https://dc.lft.to/lastmile_qr_scan"}, "fusion_lon": 0.0, "is_reserved": 0}, {"lat": 38.922708166666666, "fusion_lat": 0.0, "type": "electric_scooter", "name": "01244a9d5bddd6d21cdb9f1bfe6e6a50", "is_disabled": 0, "bike_id": "01244a9d5bddd6d21cdb9f1bfe6e6a50", "lon": -77.02962816666667, "rental_uris": {"android": "https://dc.lft.to/lastmile_qr_scan", "ios": "https://dc.lft.to/lastmile_qr_scan"}, "fusion_lon": 0.0, "is_reserved": 0}, {"lat": 38.87666266666667, "fusion_lat": 0.0, "type": "electric_scooter", "name": "5205fb14d08094a1ff5238b5c3c4df57", "is_disabled": 0, "bike_id": "5205fb14d08094a1ff5238b5c3c4df57", "lon": -76.99518183333333, "rental_uris": {"android": "https://dc.lft.to/lastmile_qr_scan", "ios": "https://dc.lft.to/lastmile_qr_scan"}, "fusion_lon": 0.0, "is_reserved": 0}, {"lat": 38.88426966666667, "fusion_lat": 0.0, "type": "electric_scooter", "name": "ecc015ab7a95c4530307dce301a329a8", "is_disabled": 0, "bike_id": "ecc015ab7a95c4530307dce301a329a8", "lon": -76.95756683333333, "rental_uris": {"android": "https://dc.lft.to/lastmile_qr_scan", "ios": "https://dc.lft.to/lastmile_qr_scan"}, "fusion_lon": 0.0, "is_reserved": 0}, {"lat": 38.964634333333336, "fusion_lat": 0.0, "type": "electric_bike", "name": "af6448842af136642ef96f79cf96ec40", "is_disabled": 0, "bike_id": "af6448842af136642ef96f79cf96ec40", "lon": -77.008632, "rental_uris": {"android": "https://dc.lft.to/lastmile_qr_scan", "ios": "https://dc.lft.to/lastmile_qr_scan"}, "fusion_lon": 0.0, "is_reserved": 0}, {"lat": 38.909704833333336, "fusion_lat": 0.0, "type": "electric_scooter", "name": "22d7dfe35b5c1a05114b05029e8e2452", "is_disabled": 0, "bike_id": "22d7dfe35b5c1a05114b05029e8e2452", "lon": -77.02163566666667, "rental_uris": {"android": "https://dc.lft.to/lastmile_qr_scan", "ios": "https://dc.lft.to/lastmile_qr_scan"}, "fusion_lon": 0.0, "is_reserved": 0}, {"lat": 38.9281455, "fusion_lat": 0.0, "type": "electric_scooter", "name": "2c810c09e58978c25d51264400cba7ac", "is_disabled": 0, "bike_id": "2c810c09e58978c25d51264400cba7ac", "lon": -77.03274083333334, "rental_uris": {"android": "https://dc.lft.to/lastmile_qr_scan", "ios": "https://dc.lft.to/lastmile_qr_scan"}, "fusion_lon": 0.0, "is_reserved": 0}, {"lat": 38.901182166666665, "fusion_lat": 0.0, "type": "electric_scooter", "name": "75acecdd931224da38a5fb00d7aea936", "is_disabled": 0, "bike_id": "75acecdd931224da38a5fb00d7aea936", "lon": -77.02810133333334, "rental_uris": {"android": "https://dc.lft.to/lastmile_qr_scan", "ios": "https://dc.lft.to/lastmile_qr_scan"}, "fusion_lon": 0.0, "is_reserved": 0}, {"lat": 38.863364833333335, "fusion_lat": 0.0, "type": "electric_bike", "name": "05320b9d62d5408561296afce1a5d78d", "is_disabled": 0, "bike_id": "05320b9d62d5408561296afce1a5d78d", "lon": -77.08922816666667, "rental_uris": {"android": "https://dc.lft.to/lastmile_qr_scan", "ios": "https://dc.lft.to/lastmile_qr_scan"}, "fusion_lon": 0.0, "is_reserved": 0}, {"lat": 38.931896333333334, "fusion_lat": 0.0, "type": "electric_scooter", "name": "76e9a81fdacce967f2de605f4e6624eb", "is_disabled": 0, "bike_id": "76e9a81fdacce967f2de605f4e6624eb", "lon": -77.02826633333333, "rental_uris": {"android": "https://dc.lft.to/lastmile_qr_scan", "ios": "https://dc.lft.to/lastmile_qr_scan"}, "fusion_lon": 0.0, "is_reserved": 0}, {"lat": 38.9245195, "fusion_lat": 0.0, "type": "electric_scooter", "name": "7580a9ca8e0d3a9642fef9563547eb4b", "is_disabled": 0, "bike_id": "7580a9ca8e0d3a9642fef9563547eb4b", "lon": -77.040199, "rental_uris": {"android": "https://dc.lft.to/lastmile_qr_scan", "ios": "https://dc.lft.to/lastmile_qr_scan"}, "fusion_lon": 0.0, "is_reserved": 0}, {"lat": 38.921237833333336, "fusion_lat": 0.0, "type": "electric_scooter", "name": "638ddcbe31c7621039a5e12df0c93109", "is_disabled": 0, "bike_id": "638ddcbe31c7621039a5e12df0c93109", "lon": -77.04353616666667, "rental_uris": {"android": "https://dc.lft.to/lastmile_qr_scan", "ios": "https://dc.lft.to/lastmile_qr_scan"}, "fusion_lon": 0.0, "is_reserved": 0}, {"lat": 38.923835833333335, "fusion_lat": 0.0, "type": "electric_scooter", "name": "d3849b52cb567aa8b16128dd8770ba1d", "is_disabled": 0, "bike_id": "d3849b52cb567aa8b16128dd8770ba1d", "lon": -77.030939, "rental_uris": {"android": "https://dc.lft.to/lastmile_qr_scan", "ios": "https://dc.lft.to/lastmile_qr_scan"}, "fusion_lon": 0.0, "is_reserved": 0}, {"lat": 38.89393616666667, "fusion_lat": 0.0, "type": "electric_scooter", "name": "3210b4245dc793e9d473d5b9463eac15", "is_disabled": 0, "bike_id": "3210b4245dc793e9d473d5b9463eac15", "lon": -77.02773616666667, "rental_uris": {"android": "https://dc.lft.to/lastmile_qr_scan", "ios": "https://dc.lft.to/lastmile_qr_scan"}, "fusion_lon": 0.0, "is_reserved": 0}, {"lat": 38.96393233333333, "fusion_lat": 0.0, "type": "electric_scooter", "name": "bc28d068c69898d489f582657e5695ba", "is_disabled": 0, "bike_id": "bc28d068c69898d489f582657e5695ba", "lon": -77.02589666666667, "rental_uris": {"android": "https://dc.lft.to/lastmile_qr_scan", "ios": "https://dc.lft.to/lastmile_qr_scan"}, "fusion_lon": 0.0, "is_reserved": 0}, {"lat": 38.898436, "fusion_lat": 0.0, "type": "electric_scooter", "name": "5a749738a643928e02031649fa1e5ad2", "is_disabled": 0, "bike_id": "5a749738a643928e02031649fa1e5ad2", "lon": -76.97822133333334, "rental_uris": {"android": "https://dc.lft.to/lastmile_qr_scan", "ios": "https://dc.lft.to/lastmile_qr_scan"}, "fusion_lon": 0.0, "is_reserved": 0}, {"lat": 38.91691316666667, "fusion_lat": 0.0, "type": "electric_scooter", "name": "5970cf8f92a67dc54e4a3caf66a68e9b", "is_disabled": 0, "bike_id": "5970cf8f92a67dc54e4a3caf66a68e9b", "lon": -77.03492433333334, "rental_uris": {"android": "https://dc.lft.to/lastmile_qr_scan", "ios": "https://dc.lft.to/lastmile_qr_scan"}, "fusion_lon": 0.0, "is_reserved": 0}, {"lat": 38.9062405, "fusion_lat": 0.0, "type": "electric_scooter", "name": "4c90752db87a55e20e1c87663ffdc1c3", "is_disabled": 0, "bike_id": "4c90752db87a55e20e1c87663ffdc1c3", "lon": -77.02978683333333, "rental_uris": {"android": "https://dc.lft.to/lastmile_qr_scan", "ios": "https://dc.lft.to/lastmile_qr_scan"}, "fusion_lon": 0.0, "is_reserved": 0}, {"lat": 38.9236545, "fusion_lat": 0.0, "type": "electric_scooter", "name": "22a96bf464264f48c807441658a3f8c3", "is_disabled": 0, "bike_id": "22a96bf464264f48c807441658a3f8c3", "lon": -77.05129316666667, "rental_uris": {"android": "https://dc.lft.to/lastmile_qr_scan", "ios": "https://dc.lft.to/lastmile_qr_scan"}, "fusion_lon": 0.0, "is_reserved": 0}, {"lat": 38.897603833333335, "fusion_lat": 0.0, "type": "electric_scooter", "name": "4bd775ed94ae528e3d2bea863a5b6e97", "is_disabled": 0, "bike_id": "4bd775ed94ae528e3d2bea863a5b6e97", "lon": -77.0489025, "rental_uris": {"android": "https://dc.lft.to/lastmile_qr_scan", "ios": "https://dc.lft.to/lastmile_qr_scan"}, "fusion_lon": 0.0, "is_reserved": 0}, {"lat": 38.89822866666667, "fusion_lat": 0.0, "type": "electric_scooter", "name": "cc0449553b4923c696670ea6d33a8a76", "is_disabled": 0, "bike_id": "cc0449553b4923c696670ea6d33a8a76", "lon": -77.033289, "rental_uris": {"android": "https://dc.lft.to/lastmile_qr_scan", "ios": "https://dc.lft.to/lastmile_qr_scan"}, "fusion_lon": 0.0, "is_reserved": 0}, {"lat": 38.923578666666664, "fusion_lat": 0.0, "type": "electric_scooter", "name": "cfe57df6c1d8088a49e78916ce312b18", "is_disabled": 0, "bike_id": "cfe57df6c1d8088a49e78916ce312b18", "lon": -77.03385866666666, "rental_uris": {"android": "https://dc.lft.to/lastmile_qr_scan", "ios": "https://dc.lft.to/lastmile_qr_scan"}, "fusion_lon": 0.0, "is_reserved": 0}, {"lat": 38.866550333333336, "fusion_lat": 0.0, "type": "electric_scooter", "name": "2b26c2807e6d6344f6ca993d65254ce6", "is_disabled": 0, "bike_id": "2b26c2807e6d6344f6ca993d65254ce6", "lon": -76.98880033333333, "rental_uris": {"android": "https://dc.lft.to/lastmile_qr_scan", "ios": "https://dc.lft.to/lastmile_qr_scan"}, "fusion_lon": 0.0, "is_reserved": 0}, {"lat": 38.9196415, "fusion_lat": 0.0, "type": "electric_scooter", "name": "5c50db701c216999a4aa87e07f2e13d7", "is_disabled": 0, "bike_id": "5c50db701c216999a4aa87e07f2e13d7", "lon": -77.02244733333333, "rental_uris": {"android": "https://dc.lft.to/lastmile_qr_scan", "ios": "https://dc.lft.to/lastmile_qr_scan"}, "fusion_lon": 0.0, "is_reserved": 0}, {"lat": 38.90954983333334, "fusion_lat": 0.0, "type": "electric_bike", "name": "66190fce0471f5ed3c0b03706692897b", "is_disabled": 0, "bike_id": "66190fce0471f5ed3c0b03706692897b", "lon": -77.22885133333334, "rental_uris": {"android": "https://dc.lft.to/lastmile_qr_scan", "ios": "https://dc.lft.to/lastmile_qr_scan"}, "fusion_lon": 0.0, "is_reserved": 0}, {"lat": 38.8801635, "fusion_lat": 0.0, "type": "electric_scooter", "name": "5df260daf67c884f62662d09d1f0210a", "is_disabled": 0, "bike_id": "5df260daf67c884f62662d09d1f0210a", "lon": -77.002505, "rental_uris": {"android": "https://dc.lft.to/lastmile_qr_scan", "ios": "https://dc.lft.to/lastmile_qr_scan"}, "fusion_lon": 0.0, "is_reserved": 0}, {"lat": 38.934224, "fusion_lat": 0.0, "type": "electric_scooter", "name": "38ff800730bbd9fc2589c7bda2792e50", "is_disabled": 0, "bike_id": "38ff800730bbd9fc2589c7bda2792e50", "lon": -77.04407183333333, "rental_uris": {"android": "https://dc.lft.to/lastmile_qr_scan", "ios": "https://dc.lft.to/lastmile_qr_scan"}, "fusion_lon": 0.0, "is_reserved": 0}, {"lat": 38.8772465, "fusion_lat": 0.0, "type": "electric_scooter", "name": "37fb101b0b7464cdb042e47e3805f7e8", "is_disabled": 0, "bike_id": "37fb101b0b7464cdb042e47e3805f7e8", "lon": -77.00328266666666, "rental_uris": {"android": "https://dc.lft.to/lastmile_qr_scan", "ios": "https://dc.lft.to/lastmile_qr_scan"}, "fusion_lon": 0.0, "is_reserved": 0}, {"lat": 38.938662, "fusion_lat": 0.0, "type": "electric_scooter", "name": "45c4ccccebc1f8b29d8bc23b07e82e20", "is_disabled": 0, "bike_id": "45c4ccccebc1f8b29d8bc23b07e82e20", "lon": -77.02484233333334, "rental_uris": {"android": "https://dc.lft.to/lastmile_qr_scan", "ios": "https://dc.lft.to/lastmile_qr_scan"}, "fusion_lon": 0.0, "is_reserved": 0}, {"lat": 38.90481783333333, "fusion_lat": 0.0, "type": "electric_scooter", "name": "78cbb7b1bf3270ea14d562aef5014c0f", "is_disabled": 0, "bike_id": "78cbb7b1bf3270ea14d562aef5014c0f", "lon": -77.04347866666667, "rental_uris": {"android": "https://dc.lft.to/lastmile_qr_scan", "ios": "https://dc.lft.to/lastmile_qr_scan"}, "fusion_lon": 0.0, "is_reserved": 0}, {"lat": 38.892304333333335, "fusion_lat": 0.0, "type": "electric_scooter", "name": "f7c60087cca3487f0a35d8959a047db1", "is_disabled": 0, "bike_id": "f7c60087cca3487f0a35d8959a047db1", "lon": -77.049963, "rental_uris": {"android": "https://dc.lft.to/lastmile_qr_scan", "ios": "https://dc.lft.to/lastmile_qr_scan"}, "fusion_lon": 0.0, "is_reserved": 0}, {"lat": 38.90368, "fusion_lat": 0.0, "type": "electric_scooter", "name": "cb451ffb6399418be55b8484059dcd6d", "is_disabled": 0, "bike_id": "cb451ffb6399418be55b8484059dcd6d", "lon": -77.0433665, "rental_uris": {"android": "https://dc.lft.to/lastmile_qr_scan", "ios": "https://dc.lft.to/lastmile_qr_scan"}, "fusion_lon": 0.0, "is_reserved": 0}, {"lat": 38.91851783333333, "fusion_lat": 0.0, "type": "electric_scooter", "name": "6079d39e2fc35bb055e351a6d149dba2", "is_disabled": 0, "bike_id": "6079d39e2fc35bb055e351a6d149dba2", "lon": -77.0319395, "rental_uris": {"android": "https://dc.lft.to/lastmile_qr_scan", "ios": "https://dc.lft.to/lastmile_qr_scan"}, "fusion_lon": 0.0, "is_reserved": 0}, {"lat": 38.90694116666667, "fusion_lat": 0.0, "type": "electric_scooter", "name": "715bf8d53d7473beec6e567b59a646ac", "is_disabled": 0, "bike_id": "715bf8d53d7473beec6e567b59a646ac", "lon": -77.03722733333333, "rental_uris": {"android": "https://dc.lft.to/lastmile_qr_scan", "ios": "https://dc.lft.to/lastmile_qr_scan"}, "fusion_lon": 0.0, "is_reserved": 0}, {"lat": 38.9225045, "fusion_lat": 0.0, "type": "electric_scooter", "name": "05720ca0dae05cc71d031210aab3314e", "is_disabled": 0, "bike_id": "05720ca0dae05cc71d031210aab3314e", "lon": -77.04145716666666, "rental_uris": {"android": "https://dc.lft.to/lastmile_qr_scan", "ios": "https://dc.lft.to/lastmile_qr_scan"}, "fusion_lon": 0.0, "is_reserved": 0}, {"lat": 38.86721466666667, "fusion_lat": 0.0, "type": "electric_scooter", "name": "f5dc59aec15487180515d5288aa42f24", "is_disabled": 0, "bike_id": "f5dc59aec15487180515d5288aa42f24", "lon": -76.987002, "rental_uris": {"android": "https://dc.lft.to/lastmile_qr_scan", "ios": "https://dc.lft.to/lastmile_qr_scan"}, "fusion_lon": 0.0, "is_reserved": 0}, {"lat": 38.897841166666666, "fusion_lat": 0.0, "type": "electric_scooter", "name": "44153d3750fb0bfde0fabc970e1efe3f", "is_disabled": 0, "bike_id": "44153d3750fb0bfde0fabc970e1efe3f", "lon": -77.02012316666666, "rental_uris": {"android": "https://dc.lft.to/lastmile_qr_scan", "ios": "https://dc.lft.to/lastmile_qr_scan"}, "fusion_lon": 0.0, "is_reserved": 0}, {"lat": 38.903618, "fusion_lat": 0.0, "type": "electric_scooter", "name": "94692324e5390bca3e79709778d2b252", "is_disabled": 0, "bike_id": "94692324e5390bca3e79709778d2b252", "lon": -77.00742433333333, "rental_uris": {"android": "https://dc.lft.to/lastmile_qr_scan", "ios": "https://dc.lft.to/lastmile_qr_scan"}, "fusion_lon": 0.0, "is_reserved": 0}, {"lat": 38.92048, "fusion_lat": 0.0, "type": "electric_scooter", "name": "e5df0ff7fe9e8442f739e056ef7fd41e", "is_disabled": 0, "bike_id": "e5df0ff7fe9e8442f739e056ef7fd41e", "lon": -77.04189883333333, "rental_uris": {"android": "https://dc.lft.to/lastmile_qr_scan", "ios": "https://dc.lft.to/lastmile_qr_scan"}, "fusion_lon": 0.0, "is_reserved": 0}, {"lat": 38.87337083333333, "fusion_lat": 0.0, "type": "electric_scooter", "name": "b43e5c0751f46b424b2796f3b33d1113", "is_disabled": 0, "bike_id": "b43e5c0751f46b424b2796f3b33d1113", "lon": -76.968335, "rental_uris": {"android": "https://dc.lft.to/lastmile_qr_scan", "ios": "https://dc.lft.to/lastmile_qr_scan"}, "fusion_lon": 0.0, "is_reserved": 0}, {"lat": 38.89747883333333, "fusion_lat": 0.0, "type": "electric_scooter", "name": "cb2b5a36d45f9b947f98879cb3f006dc", "is_disabled": 0, "bike_id": "cb2b5a36d45f9b947f98879cb3f006dc", "lon": -76.98139133333333, "rental_uris": {"android": "https://dc.lft.to/lastmile_qr_scan", "ios": "https://dc.lft.to/lastmile_qr_scan"}, "fusion_lon": 0.0, "is_reserved": 0}, {"lat": 38.9518955, "fusion_lat": 0.0, "type": "electric_scooter", "name": "e809d2c59f569b2078027b361dff79d9", "is_disabled": 0, "bike_id": "e809d2c59f569b2078027b361dff79d9", "lon": -77.0272035, "rental_uris": {"android": "https://dc.lft.to/lastmile_qr_scan", "ios": "https://dc.lft.to/lastmile_qr_scan"}, "fusion_lon": 0.0, "is_reserved": 0}, {"lat": 38.887671166666664, "fusion_lat": 0.0, "type": "electric_scooter", "name": "b08f5071a1d4efc98e89c0885b158688", "is_disabled": 0, "bike_id": "b08f5071a1d4efc98e89c0885b158688", "lon": -77.0262895, "rental_uris": {"android": "https://dc.lft.to/lastmile_qr_scan", "ios": "https://dc.lft.to/lastmile_qr_scan"}, "fusion_lon": 0.0, "is_reserved": 0}, {"lat": 38.902228666666666, "fusion_lat": 0.0, "type": "electric_scooter", "name": "7f758062c1ae53f6311a113b23b189c4", "is_disabled": 0, "bike_id": "7f758062c1ae53f6311a113b23b189c4", "lon": -77.04133116666667, "rental_uris": {"android": "https://dc.lft.to/lastmile_qr_scan", "ios": "https://dc.lft.to/lastmile_qr_scan"}, "fusion_lon": 0.0, "is_reserved": 0}, {"lat": 38.90683766666667, "fusion_lat": 0.0, "type": "electric_scooter", "name": "d973228b75c0b10d9b05e8469789d4e3", "is_disabled": 0, "bike_id": "d973228b75c0b10d9b05e8469789d4e3", "lon": -77.02690116666666, "rental_uris": {"android": "https://dc.lft.to/lastmile_qr_scan", "ios": "https://dc.lft.to/lastmile_qr_scan"}, "fusion_lon": 0.0, "is_reserved": 0}, {"lat": 38.90562933333333, "fusion_lat": 0.0, "type": "electric_scooter", "name": "03f4d8ad4977213bbfd8559748ad37e5", "is_disabled": 0, "bike_id": "03f4d8ad4977213bbfd8559748ad37e5", "lon": -77.03448233333333, "rental_uris": {"android": "https://dc.lft.to/lastmile_qr_scan", "ios": "https://dc.lft.to/lastmile_qr_scan"}, "fusion_lon": 0.0, "is_reserved": 0}, {"lat": 38.9270895, "fusion_lat": 0.0, "type": "electric_scooter", "name": "5e93443b95df47b03532e0b4f599ed22", "is_disabled": 0, "bike_id": "5e93443b95df47b03532e0b4f599ed22", "lon": -77.03233566666667, "rental_uris": {"android": "https://dc.lft.to/lastmile_qr_scan", "ios": "https://dc.lft.to/lastmile_qr_scan"}, "fusion_lon": 0.0, "is_reserved": 0}, {"lat": 38.902709333333334, "fusion_lat": 0.0, "type": "electric_scooter", "name": "8870a73f84648243fd7cc5dd31869416", "is_disabled": 0, "bike_id": "8870a73f84648243fd7cc5dd31869416", "lon": -77.03862316666667, "rental_uris": {"android": "https://dc.lft.to/lastmile_qr_scan", "ios": "https://dc.lft.to/lastmile_qr_scan"}, "fusion_lon": 0.0, "is_reserved": 0}, {"lat": 38.916635666666664, "fusion_lat": 0.0, "type": "electric_scooter", "name": "a5f24020751a8a60ada1302766e8d485", "is_disabled": 0, "bike_id": "a5f24020751a8a60ada1302766e8d485", "lon": -77.03225133333333, "rental_uris": {"android": "https://dc.lft.to/lastmile_qr_scan", "ios": "https://dc.lft.to/lastmile_qr_scan"}, "fusion_lon": 0.0, "is_reserved": 0}, {"lat": 38.90590266666667, "fusion_lat": 0.0, "type": "electric_scooter", "name": "009d263a299ce4fe884d18e4396b7554", "is_disabled": 0, "bike_id": "009d263a299ce4fe884d18e4396b7554", "lon": -77.03461933333334, "rental_uris": {"android": "https://dc.lft.to/lastmile_qr_scan", "ios": "https://dc.lft.to/lastmile_qr_scan"}, "fusion_lon": 0.0, "is_reserved": 0}, {"lat": 38.90349, "fusion_lat": 0.0, "type": "electric_scooter", "name": "c1706850410bd10a28fa33b4da164ad5", "is_disabled": 0, "bike_id": "c1706850410bd10a28fa33b4da164ad5", "lon": -77.0401025, "rental_uris": {"android": "https://dc.lft.to/lastmile_qr_scan", "ios": "https://dc.lft.to/lastmile_qr_scan"}, "fusion_lon": 0.0, "is_reserved": 0}, {"lat": 38.89729366666667, "fusion_lat": 0.0, "type": "electric_scooter", "name": "86ffdb3680651fe40d09e0f41ea177da", "is_disabled": 0, "bike_id": "86ffdb3680651fe40d09e0f41ea177da", "lon": -77.04942833333334, "rental_uris": {"android": "https://dc.lft.to/lastmile_qr_scan", "ios": "https://dc.lft.to/lastmile_qr_scan"}, "fusion_lon": 0.0, "is_reserved": 0}, {"lat": 38.91618966666667, "fusion_lat": 0.0, "type": "electric_scooter", "name": "135cad27876f6c0f3fcb18a1d6d24bb4", "is_disabled": 0, "bike_id": "135cad27876f6c0f3fcb18a1d6d24bb4", "lon": -77.03258066666666, "rental_uris": {"android": "https://dc.lft.to/lastmile_qr_scan", "ios": "https://dc.lft.to/lastmile_qr_scan"}, "fusion_lon": 0.0, "is_reserved": 0},